{"last_updated":1748265724,"ttl":60,"version":"2.2","data":{"bikes":[{"bike_id":"c0b9fd4f-e181-46ce-b0bf-f5119973334f","system_id":"levelo_inurba_marseille","lat":43.33771,"lon":5.37424,"is_reserved":false,"is_disabled":true,"rental_uris":{"android":"levelo://app?vid=c0b9fd4f-e181-46ce-b0bf-f5119973334f","ios":"levelo://app?vid=c0b9fd4f-e181-46ce-b0bf-f5119973334f"},"vehicle_type_id":"4","last_reported":1748265724,"current_range_meters":0,"station_id":"","pricing_plan_id":"cebpf4jnsgd1na2vs0mg"},{"bike_id":"20e3fb94-70e9-48e8-ba6e-ab8112422754","system_id":"levelo_inurba_marseille","lat":43.30654,"lon":5.38024,"is_reserved":false,"is_disabled":true,"rental_uris":{"android":"levelo://app?vid=20e3fb94-70e9-48e8-ba6e-ab8112422754","ios":"levelo://app?vid=20e3fb94-70e9-48e8-ba6e-ab8112422754"},"vehicle_type_id":"4","last_reported":1748265724,"current_range_meters":0,"station_id":"","pricing_plan_id":"cebpf4jnsgd1na2vs0mg"},{"bike_id":"6b31d584-7ec8-4d7f-974f-dd6b8b914518","system_id":"levelo_inurba_marseille","lat":43.27075,"lon":5.39212,"is_reserved":false,"is_disabled":true,"rental_uris":{"android":"levelo://app?vid=6b31d584-7ec8-4d7f-974f-dd6b8b914518","ios":"levelo://app?vid=6b31d584-7ec8-4d7f-974f-dd6b8b914518"},"vehicle_type_id":"4","last_reported":1748265724,"current_range_meters":0,"station_id":"","pricing_plan_id":"cebpf4jnsgd1na2vs0mg"},{"bike_id":"68dd4df3-b4ab-477d-ba1f-083f8077ecbb","system_id":"levelo_inurba_marseille","lat":43.25639,"lon":5.37522,"is_reserved":false,"is_disabled":true,"rental_uris":{"android":"levelo://app?vid=68dd4df3-b4ab-477d-ba1f-083f8077ecbb","ios":"levelo://app?vid=68dd4df3-b4ab-477d-ba1f-083f8077ecbb"},"vehicle_type_id":"4","last_reported":1748265724,"current_range_meters":0,"station_id":"","pricing_plan_id":"cebpf4jnsgd1na2vs0mg"},{"bike_id":"3fe3d6c4-138a-47df-b6b4-e6f19e8f7d46","system_id":"levelo_inurba_marseille","lat":43.21414,"lon":5.34108,"is_reserved":false,"is_disabled":true,"rental_uris":{"android":"levelo://app?vid=3fe3d6c4-138a-47df-b6b4-e6f19e8f7d46","ios":"levelo://app?vid=3fe3d6c4-138a-47df-b6b4-e6f19e8f7d46"},"vehicle_type_id":"4","last_reported":1748265724,"current_range_meters":0,"station_id":"","pricing_plan_id":"cebpf4jnsgd1na2vs0mg"},{"bike_id":"4a2a47fa-fb4e-41f8-93fc-61bb4186107f","system_id":"levelo_inurba_marseille","lat":43.277719,"lon":5.399002,"is_reserved":false,"is_disabled":true,"rental_uris":{"android":"levelo://app?vid=4a2a47fa-fb4e-41f8-93fc-61bb4186107f","ios":"levelo://app?vid=4a2a47fa-fb4e-41f8-93fc-61bb4186107f"},"vehicle_type_id":"4","last_reported":1748265724,"current_range_meters":0,"station_id":"","pricing_plan_id":"cebpf4jnsgd1na2vs0mg"},{"bike_id":"15dcdbbd-a41e-43eb-9ed6-26ec15ce7a50","system_id":"levelo_inurba_marseille","lat":43.21411,"lon":5.34113,"is_reserved":false,"is_disabled":true,"rental_uris":{"android":"levelo://app?vid=15dcdbbd-a41e-43eb-9ed6-26ec15ce7a50","ios":"levelo://app?vid=15dcdbbd-a41e-43eb-9ed6-26ec15ce7a50"},"vehicle_type_id":"4","last_reported":1748265724,"current_range_meters":0,"station_id":"","pricing_plan_id":"cebpf4jnsgd1na2vs0mg"},{"bike_id":"377e997d-76fa-49cd-a9c9-778bc42231c4","system_id":"levelo_inurba_marseille","lat":43.25688,"lon":5.41932,"is_reserved":false,"is_disabled":true,"rental_uris":{"android":"levelo://app?vid=377e997d-76fa-49cd-a9c9-778bc42231c4","ios":"levelo://app?vid=377e997d-76fa-49cd-a9c9-778bc42231c4"},"vehicle_type_id":"4","last_reported":1748265724,"current_range_meters":0,"station_id":"","pricing_plan_id":"cebpf4jnsgd1na2vs0mg"},{"bike_id":"f9fb40c0-1fcd-48cb-8e26-3f2dc0fb2451","system_id":"levelo_inurba_marseille","lat":43.33751,"lon":5.37509,"is_reserved":false,"is_disabled":true,"rental_uris":{"android":"levelo://app?vid=f9fb40c0-1fcd-48cb-8e26-3f2dc0fb2451","ios":"levelo://app?vid=f9fb40c0-1fcd-48cb-8e26-3f2dc0fb2451"},"vehicle_type_id":"4","last_reported":1748265724,"current_range_meters":0,"station_id":"","pricing_plan_id":"cebpf4jnsgd1na2vs0mg"},{"bike_id":"55486e59-addd-4d7a-be46-bc6476992a64","system_id":"levelo_inurba_marseille","lat":43.27777,"lon":5.38836,"is_reserved":false,"is_disabled":true,"rental_uris":{"android":"levelo://app?vid=55486e59-addd-4d7a-be46-bc6476992a64","ios":"levelo://app?vid=55486e59-addd-4d7a-be46-bc6476992a64"},"vehicle_type_id":"4","last_reported":1748265724,"current_range_meters":0,"station_id":"","pricing_plan_id":"cebpf4jnsgd1na2vs0mg"},{"bike_id":"d9b5650d-9652-4389-81c8-9e7dd1dc104a","system_id":"levelo_inurba_marseille","lat":43.30963,"lon":5.37169,"is_reserved":false,"is_disabled":true,"rental_uris":{"android":"levelo://app?vid=d9b5650d-9652-4389-81c8-9e7dd1dc104a","ios":"levelo://app?vid=d9b5650d-9652-4389-81c8-9e7dd1dc104a"},"vehicle_type_id":"4","last_reported":1748265724,"current_range_meters":0,"station_id":"","pricing_plan_id":"cebpf4jnsgd1na2vs0mg"},{"bike_id":"e9dd3aa4-b5e7-4480-926d-d7f537719bfa","system_id":"levelo_inurba_marseille","lat":43.230331,"lon":5.401847,"is_reserved":false,"is_disabled":true,"rental_uris":{"android":"levelo://app?vid=e9dd3aa4-b5e7-4480-926d-d7f537719bfa","ios":"levelo://app?vid=e9dd3aa4-b5e7-4480-926d-d7f537719bfa"},"vehicle_type_id":"4","last_reported":1748265724,"current_range_meters":0,"station_id":"","pricing_plan_id":"cebpf4jnsgd1na2vs0mg"},{"bike_id":"dcd075ea-b4af-4d6d-90b2-1236858b7bc1","system_id":"levelo_inurba_marseille","lat":43.27609,"lon":5.35873,"is_reserved":false,"is_disabled":true,"rental_uris":{"android":"levelo://app?vid=dcd075ea-b4af-4d6d-90b2-1236858b7bc1","ios":"levelo://app?vid=dcd075ea-b4af-4d6d-90b2-1236858b7bc1"},"vehicle_type_id":"4","last_reported":1748265724,"current_range_meters":0,"station_id":"","pricing_plan_id":"cebpf4jnsgd1na2vs0mg"},{"bike_id":"14aef3df-f0df-4a11-bb72-9f8f4dfe6547","system_id":"levelo_inurba_marseille","lat":43.28466,"lon":5.35889,"is_reserved":false,"is_disabled":true,"rental_uris":{"android":"levelo://app?vid=14aef3df-f0df-4a11-bb72-9f8f4dfe6547","ios":"levelo://app?vid=14aef3df-f0df-4a11-bb72-9f8f4dfe6547"},"vehicle_type_id":"4","last_reported":1748265724,"current_range_meters":0,"station_id":"ce4bhah2rcd13ifvqei0","pricing_plan_id":"cebpf4jnsgd1na2vs0mg"},{"bike_id":"6331b7df-8216-4d46-af71-08d11b78bd56","system_id":"levelo_inurba_marseille","lat":43.27904,"lon":5.38023,"is_reserved":false,"is_disabled":true,"rental_uris":{"android":"levelo://app?vid=6331b7df-8216-4d46-af71-08d11b78bd56","ios":"levelo://app?vid=6331b7df-8216-4d46-af71-08d11b78bd56"},"vehicle_type_id":"4","last_reported":1748265724,"current_range_meters":0,"station_id":"ce4bhf92rcd13ifvqf50","pricing_plan_id":"cebpf4jnsgd1na2vs0mg"},{"bike_id":"c10f50f5-cb43-4281-a4e7-3852d1d7abfc","system_id":"levelo_inurba_marseille","lat":43.27566,"lon":5.38416,"is_reserved":false,"is_disabled":true,"rental_uris":{"android":"levelo://app?vid=c10f50f5-cb43-4281-a4e7-3852d1d7abfc","ios":"levelo://app?vid=c10f50f5-cb43-4281-a4e7-3852d1d7abfc"},"vehicle_type_id":"4","last_reported":1748265724,"current_range_meters":0,"station_id":"ce4bhh92rcd13ifvqfi0","pricing_plan_id":"cebpf4jnsgd1na2vs0mg"},{"bike_id":"8251d35b-35a8-4788-849b-38982bafb0a6","system_id":"levelo_inurba_marseille","lat":43.229275,"lon":5.35387,"is_reserved":false,"is_disabled":true,"rental_uris":{"android":"levelo://app?vid=8251d35b-35a8-4788-849b-38982bafb0a6","ios":"levelo://app?vid=8251d35b-35a8-4788-849b-38982bafb0a6"},"vehicle_type_id":"4","last_reported":1748265724,"current_range_meters":0,"station_id":"cpo3532slgdg3j2ikp40","pricing_plan_id":"cebpf4jnsgd1na2vs0mg"},{"bike_id":"fdb1f313-11f0-4946-95db-f81014905016","system_id":"levelo_inurba_marseille","lat":43.24176,"lon":5.39729,"is_reserved":false,"is_disabled":true,"rental_uris":{"android":"levelo://app?vid=fdb1f313-11f0-4946-95db-f81014905016","ios":"levelo://app?vid=fdb1f313-11f0-4946-95db-f81014905016"},"vehicle_type_id":"4","last_reported":1748265724,"current_range_meters":400,"station_id":"ce4bhn12rcd13ifvqgpg","pricing_plan_id":"cebpf4jnsgd1na2vs0mg"},{"bike_id":"aa4b2ab7-3a89-44be-8aec-fd4e4c5ddd94","system_id":"levelo_inurba_marseille","lat":43.281494,"lon":5.426479,"is_reserved":false,"is_disabled":true,"rental_uris":{"android":"levelo://app?vid=aa4b2ab7-3a89-44be-8aec-fd4e4c5ddd94","ios":"levelo://app?vid=aa4b2ab7-3a89-44be-8aec-fd4e4c5ddd94"},"vehicle_type_id":"4","last_reported":1748265724,"current_range_meters":400,"station_id":"ce4bhnh2rcd13ifvqgug","pricing_plan_id":"cebpf4jnsgd1na2vs0mg"},{"bike_id":"f9413a03-5f8f-4964-9069-c6db9e7b18db","system_id":"levelo_inurba_marseille","lat":43.27927,"lon":5.39575,"is_reserved":false,"is_disabled":true,"rental_uris":{"android":"levelo://app?vid=f9413a03-5f8f-4964-9069-c6db9e7b18db","ios":"levelo://app?vid=f9413a03-5f8f-4964-9069-c6db9e7b18db"},"vehicle_type_id":"4","last_reported":1748265724,"current_range_meters":800,"station_id":"ce4bhf92rcd13ifvqf40","pricing_plan_id":"cebpf4jnsgd1na2vs0mg"},{"bike_id":"0d0e6ba5-335f-45d7-9039-d400f1e35f2a","system_id":"levelo_inurba_marseille","lat":43.29972,"lon":5.38497,"is_reserved":false,"is_disabled":true,"rental_uris":{"android":"levelo://app?vid=0d0e6ba5-335f-45d7-9039-d400f1e35f2a","ios":"levelo://app?vid=0d0e6ba5-335f-45d7-9039-d400f1e35f2a"},"vehicle_type_id":"4","last_reported":1748265724,"current_range_meters":1200,"station_id":"ce4bgj92rcd13ifvqbd0","pricing_plan_id":"cebpf4jnsgd1na2vs0mg"},{"bike_id":"107ff565-040d-4140-a730-f55a16d49475","system_id":"levelo_inurba_marseille","lat":43.27384,"lon":5.36261,"is_reserved":false,"is_disabled":true,"rental_uris":{"android":"levelo://app?vid=107ff565-040d-4140-a730-f55a16d49475","ios":"levelo://app?vid=107ff565-040d-4140-a730-f55a16d49475"},"vehicle_type_id":"4","last_reported":1748265724,"current_range_meters":1200,"station_id":"ce4bhbh2rcd13ifvqeo0","pricing_plan_id":"cebpf4jnsgd1na2vs0mg"},{"bike_id":"eee6d8eb-9f16-489f-918c-0bb485140cf4","system_id":"levelo_inurba_marseille","lat":43.27571,"lon":5.38397,"is_reserved":false,"is_disabled":true,"rental_uris":{"android":"levelo://app?vid=eee6d8eb-9f16-489f-918c-0bb485140cf4","ios":"levelo://app?vid=eee6d8eb-9f16-489f-918c-0bb485140cf4"},"vehicle_type_id":"4","last_reported":1748265724,"current_range_meters":1200,"station_id":"ce4bhh92rcd13ifvqfi0","pricing_plan_id":"cebpf4jnsgd1na2vs0mg"},{"bike_id":"87dc1d45-464b-416b-81d6-10b093bfc1ae","system_id":"levelo_inurba_marseille","lat":43.270737,"lon":5.422657,"is_reserved":false,"is_disabled":true,"rental_uris":{"android":"levelo://app?vid=87dc1d45-464b-416b-81d6-10b093bfc1ae","ios":"levelo://app?vid=87dc1d45-464b-416b-81d6-10b093bfc1ae"},"vehicle_type_id":"4","last_reported":1748265724,"current_range_meters":1200,"station_id":"ce4bhk92rcd13ifvqgb0","pricing_plan_id":"cebpf4jnsgd1na2vs0mg"},{"bike_id":"d858327d-beba-4be9-a518-44009d545a5e","system_id":"levelo_inurba_marseille","lat":43.24072,"lon":5.3776,"is_reserved":false,"is_disabled":true,"rental_uris":{"android":"levelo://app?vid=d858327d-beba-4be9-a518-44009d545a5e","ios":"levelo://app?vid=d858327d-beba-4be9-a518-44009d545a5e"},"vehicle_type_id":"4","last_reported":1748265724,"current_range_meters":1200,"station_id":"ce4bhnp2rcd13ifvqgvg","pricing_plan_id":"cebpf4jnsgd1na2vs0mg"},{"bike_id":"149db685-52a2-450f-bd30-65e461b827ff","system_id":"levelo_inurba_marseille","lat":43.241673,"lon":5.363817,"is_reserved":false,"is_disabled":true,"rental_uris":{"android":"levelo://app?vid=149db685-52a2-450f-bd30-65e461b827ff","ios":"levelo://app?vid=149db685-52a2-450f-bd30-65e461b827ff"},"vehicle_type_id":"4","last_reported":1748265724,"current_range_meters":1200,"station_id":"cpo36qri1sfpv3e86is0","pricing_plan_id":"cebpf4jnsgd1na2vs0mg"},{"bike_id":"53f0df7a-b16c-4394-8f16-017d80ccf1b3","system_id":"levelo_inurba_marseille","lat":43.30805,"lon":5.38153,"is_reserved":false,"is_disabled":true,"rental_uris":{"android":"levelo://app?vid=53f0df7a-b16c-4394-8f16-017d80ccf1b3","ios":"levelo://app?vid=53f0df7a-b16c-4394-8f16-017d80ccf1b3"},"vehicle_type_id":"4","last_reported":1748265724,"current_range_meters":2000,"station_id":"ce4bgt12rcd13ifvqce0","pricing_plan_id":"cebpf4jnsgd1na2vs0mg"},{"bike_id":"3581c28c-41f2-4cb7-b494-0448776c0438","system_id":"levelo_inurba_marseille","lat":43.29629,"lon":5.36021,"is_reserved":false,"is_disabled":false,"rental_uris":{"android":"levelo://app?vid=3581c28c-41f2-4cb7-b494-0448776c0438","ios":"levelo://app?vid=3581c28c-41f2-4cb7-b494-0448776c0438"},"vehicle_type_id":"4","last_reported":1748265724,"current_range_meters":2800,"station_id":"","pricing_plan_id":"cebpf4jnsgd1na2vs0mg"},{"bike_id":"e60caf0a-bced-41d9-8817-46a3addc6f6b","system_id":"levelo_inurba_marseille","lat":43.2761,"lon":5.36129,"is_reserved":false,"is_disabled":false,"rental_uris":{"android":"levelo://app?vid=e60caf0a-bced-41d9-8817-46a3addc6f6b","ios":"levelo://app?vid=e60caf0a-bced-41d9-8817-46a3addc6f6b"},"vehicle_type_id":"4","last_reported":1748265724,"current_range_meters":2800,"station_id":"ce4bgj92rcd13ifvqbe0","pricing_plan_id":"cebpf4jnsgd1na2vs0mg"},{"bike_id":"5cd61e42-6d67-4a11-aae3-eaddd5f3e01f","system_id":"levelo_inurba_marseille","lat":43.2961,"lon":5.38103,"is_reserved":false,"is_disabled":false,"rental_uris":{"android":"levelo://app?vid=5cd61e42-6d67-4a11-aae3-eaddd5f3e01f","ios":"levelo://app?vid=5cd61e42-6d67-4a11-aae3-eaddd5f3e01f"},"vehicle_type_id":"4","last_reported":1748265724,"current_range_meters":2800,"station_id":"ce4bgl12rcd13ifvqbo0","pricing_plan_id":"cebpf4jnsgd1na2vs0mg"},{"bike_id":"6e2beeda-b0fc-49e9-97bc-526d322f04df","system_id":"levelo_inurba_marseille","lat":43.28667,"lon":5.36345,"is_reserved":false,"is_disabled":false,"rental_uris":{"android":"levelo://app?vid=6e2beeda-b0fc-49e9-97bc-526d322f04df","ios":"levelo://app?vid=6e2beeda-b0fc-49e9-97bc-526d322f04df"},"vehicle_type_id":"4","last_reported":1748265724,"current_range_meters":2800,"station_id":"ce4bhah2rcd13ifvqej0","pricing_plan_id":"cebpf4jnsgd1na2vs0mg"},{"bike_id":"84b1d1a2-2301-4f7e-8fde-ecd5a1274476","system_id":"levelo_inurba_marseille","lat":43.270811,"lon":5.422724,"is_reserved":false,"is_disabled":false,"rental_uris":{"android":"levelo://app?vid=84b1d1a2-2301-4f7e-8fde-ecd5a1274476","ios":"levelo://app?vid=84b1d1a2-2301-4f7e-8fde-ecd5a1274476"},"vehicle_type_id":"4","last_reported":1748265724,"current_range_meters":2800,"station_id":"ce4bhk92rcd13ifvqgb0","pricing_plan_id":"cebpf4jnsgd1na2vs0mg"},{"bike_id":"c2fe50e6-b44a-45cb-b837-3f475bdc870f","system_id":"levelo_inurba_marseille","lat":43.29514,"lon":5.39072,"is_reserved":false,"is_disabled":false,"rental_uris":{"android":"levelo://app?vid=c2fe50e6-b44a-45cb-b837-3f475bdc870f","ios":"levelo://app?vid=c2fe50e6-b44a-45cb-b837-3f475bdc870f"},"vehicle_type_id":"4","last_reported":1748265724,"current_range_meters":3200,"station_id":"ce4bh3p2rcd13ifvqdp0","pricing_plan_id":"cebpf4jnsgd1na2vs0mg"},{"bike_id":"daf24f7c-ccfc-4c83-8bc9-2cd6e547b42c","system_id":"levelo_inurba_marseille","lat":43.22931,"lon":5.35392,"is_reserved":false,"is_disabled":false,"rental_uris":{"android":"levelo://app?vid=daf24f7c-ccfc-4c83-8bc9-2cd6e547b42c","ios":"levelo://app?vid=daf24f7c-ccfc-4c83-8bc9-2cd6e547b42c"},"vehicle_type_id":"4","last_reported":1748265724,"current_range_meters":3200,"station_id":"cpo3532slgdg3j2ikp40","pricing_plan_id":"cebpf4jnsgd1na2vs0mg"},{"bike_id":"09b216f6-2a52-42a7-ac2a-89106c530b3f","system_id":"levelo_inurba_marseille","lat":43.2973,"lon":5.37686,"is_reserved":false,"is_disabled":false,"rental_uris":{"android":"levelo://app?vid=09b216f6-2a52-42a7-ac2a-89106c530b3f","ios":"levelo://app?vid=09b216f6-2a52-42a7-ac2a-89106c530b3f"},"vehicle_type_id":"4","last_reported":1748265724,"current_range_meters":3600,"station_id":"ce4bgkh2rcd13ifvqbl0","pricing_plan_id":"cebpf4jnsgd1na2vs0mg"},{"bike_id":"eb1a2393-2be5-448a-95ea-f7764d4af808","system_id":"levelo_inurba_marseille","lat":43.306544,"lon":5.40097,"is_reserved":false,"is_disabled":false,"rental_uris":{"android":"levelo://app?vid=eb1a2393-2be5-448a-95ea-f7764d4af808","ios":"levelo://app?vid=eb1a2393-2be5-448a-95ea-f7764d4af808"},"vehicle_type_id":"4","last_reported":1748265724,"current_range_meters":3600,"station_id":"ce4bh112rcd13ifvqda0","pricing_plan_id":"cebpf4jnsgd1na2vs0mg"},{"bike_id":"fe2e9ccf-cbf5-4637-9358-2d866010485c","system_id":"levelo_inurba_marseille","lat":43.27385,"lon":5.3626,"is_reserved":false,"is_disabled":false,"rental_uris":{"android":"levelo://app?vid=fe2e9ccf-cbf5-4637-9358-2d866010485c","ios":"levelo://app?vid=fe2e9ccf-cbf5-4637-9358-2d866010485c"},"vehicle_type_id":"4","last_reported":1748265724,"current_range_meters":4000,"station_id":"ce4bhbh2rcd13ifvqeo0","pricing_plan_id":"cebpf4jnsgd1na2vs0mg"},{"bike_id":"9af51550-7be6-4caa-81de-db4f7bea2d88","system_id":"levelo_inurba_marseille","lat":43.26231,"lon":5.4045,"is_reserved":false,"is_disabled":false,"rental_uris":{"android":"levelo://app?vid=9af51550-7be6-4caa-81de-db4f7bea2d88","ios":"levelo://app?vid=9af51550-7be6-4caa-81de-db4f7bea2d88"},"vehicle_type_id":"4","last_reported":1748265724,"current_range_meters":4000,"station_id":"ce4bhmh2rcd13ifvqgmg","pricing_plan_id":"cebpf4jnsgd1na2vs0mg"},{"bike_id":"985dfe2e-48ab-4438-8b44-7034bccf028e","system_id":"levelo_inurba_marseille","lat":43.27,"lon":5.3984,"is_reserved":false,"is_disabled":false,"rental_uris":{"android":"levelo://app?vid=985dfe2e-48ab-4438-8b44-7034bccf028e","ios":"levelo://app?vid=985dfe2e-48ab-4438-8b44-7034bccf028e"},"vehicle_type_id":"4","last_reported":1748265724,"current_range_meters":4400,"station_id":"","pricing_plan_id":"cebpf4jnsgd1na2vs0mg"},{"bike_id":"da453a88-f81b-4e0f-9781-5a7f6c1d364c","system_id":"levelo_inurba_marseille","lat":43.337499,"lon":5.374469,"is_reserved":false,"is_disabled":false,"rental_uris":{"android":"levelo://app?vid=da453a88-f81b-4e0f-9781-5a7f6c1d364c","ios":"levelo://app?vid=da453a88-f81b-4e0f-9781-5a7f6c1d364c"},"vehicle_type_id":"4","last_reported":1748265724,"current_range_meters":4800,"station_id":"","pricing_plan_id":"cebpf4jnsgd1na2vs0mg"},{"bike_id":"1da35f9f-f4ec-4f7e-81f7-49dd3c19bd7a","system_id":"levelo_inurba_marseille","lat":43.26472,"lon":5.41902,"is_reserved":false,"is_disabled":false,"rental_uris":{"android":"levelo://app?vid=1da35f9f-f4ec-4f7e-81f7-49dd3c19bd7a","ios":"levelo://app?vid=1da35f9f-f4ec-4f7e-81f7-49dd3c19bd7a"},"vehicle_type_id":"4","last_reported":1748265724,"current_range_meters":4800,"station_id":"","pricing_plan_id":"cebpf4jnsgd1na2vs0mg"},{"bike_id":"d9fa0449-e47c-4bbe-a91c-4939cab5d888","system_id":"levelo_inurba_marseille","lat":43.28506,"lon":5.42674,"is_reserved":false,"is_disabled":false,"rental_uris":{"android":"levelo://app?vid=d9fa0449-e47c-4bbe-a91c-4939cab5d888","ios":"levelo://app?vid=d9fa0449-e47c-4bbe-a91c-4939cab5d888"},"vehicle_type_id":"4","last_reported":1748265724,"current_range_meters":4800,"station_id":"","pricing_plan_id":"cebpf4jnsgd1na2vs0mg"},{"bike_id":"07d59704-78db-49ba-91ac-516c04077bdd","system_id":"levelo_inurba_marseille","lat":43.26965,"lon":5.38655,"is_reserved":false,"is_disabled":false,"rental_uris":{"android":"levelo://app?vid=07d59704-78db-49ba-91ac-516c04077bdd","ios":"levelo://app?vid=07d59704-78db-49ba-91ac-516c04077bdd"},"vehicle_type_id":"4","last_reported":1748265724,"current_range_meters":4800,"station_id":"ce4bhh92rcd13ifvqfh0","pricing_plan_id":"cebpf4jnsgd1na2vs0mg"},{"bike_id":"34a4330d-82dc-440a-b88e-6490d7d0c604","system_id":"levelo_inurba_marseille","lat":43.27458,"lon":5.42495,"is_reserved":false,"is_disabled":false,"rental_uris":{"android":"levelo://app?vid=34a4330d-82dc-440a-b88e-6490d7d0c604","ios":"levelo://app?vid=34a4330d-82dc-440a-b88e-6490d7d0c604"},"vehicle_type_id":"4","last_reported":1748265724,"current_range_meters":4800,"station_id":"ce4bhn92rcd13ifvqgrg","pricing_plan_id":"cebpf4jnsgd1na2vs0mg"},{"bike_id":"6c7cad08-c890-4df4-975c-bd423f24ac81","system_id":"levelo_inurba_marseille","lat":43.30353,"lon":5.41886,"is_reserved":false,"is_disabled":false,"rental_uris":{"android":"levelo://app?vid=6c7cad08-c890-4df4-975c-bd423f24ac81","ios":"levelo://app?vid=6c7cad08-c890-4df4-975c-bd423f24ac81"},"vehicle_type_id":"4","last_reported":1748265724,"current_range_meters":4800,"station_id":"ce4bhop2rcd13ifvqh7g","pricing_plan_id":"cebpf4jnsgd1na2vs0mg"},{"bike_id":"650ba0d8-22cd-4b2f-959a-beb43ca34e44","system_id":"levelo_inurba_marseille","lat":43.284768,"lon":5.384156,"is_reserved":false,"is_disabled":false,"rental_uris":{"android":"levelo://app?vid=650ba0d8-22cd-4b2f-959a-beb43ca34e44","ios":"levelo://app?vid=650ba0d8-22cd-4b2f-959a-beb43ca34e44"},"vehicle_type_id":"4","last_reported":1748265724,"current_range_meters":5600,"station_id":"ce4bh512rcd13ifvqe3g","pricing_plan_id":"cebpf4jnsgd1na2vs0mg"},{"bike_id":"dab7ee0d-f820-455c-89c6-13e25f106faf","system_id":"levelo_inurba_marseille","lat":43.32378,"lon":5.42065,"is_reserved":false,"is_disabled":false,"rental_uris":{"android":"levelo://app?vid=dab7ee0d-f820-455c-89c6-13e25f106faf","ios":"levelo://app?vid=dab7ee0d-f820-455c-89c6-13e25f106faf"},"vehicle_type_id":"4","last_reported":1748265724,"current_range_meters":6000,"station_id":"","pricing_plan_id":"cebpf4jnsgd1na2vs0mg"},{"bike_id":"c3b81b7a-317e-4052-811b-902b70c61f33","system_id":"levelo_inurba_marseille","lat":43.29173,"lon":5.37162,"is_reserved":false,"is_disabled":false,"rental_uris":{"android":"levelo://app?vid=c3b81b7a-317e-4052-811b-902b70c61f33","ios":"levelo://app?vid=c3b81b7a-317e-4052-811b-902b70c61f33"},"vehicle_type_id":"4","last_reported":1748265724,"current_range_meters":6000,"station_id":"ce4bha92rcd13ifvqeh0","pricing_plan_id":"cebpf4jnsgd1na2vs0mg"},{"bike_id":"528dcb0d-6263-45ca-95be-611485b2af27","system_id":"levelo_inurba_marseille","lat":43.29376,"lon":5.37841,"is_reserved":false,"is_disabled":false,"rental_uris":{"android":"levelo://app?vid=528dcb0d-6263-45ca-95be-611485b2af27","ios":"levelo://app?vid=528dcb0d-6263-45ca-95be-611485b2af27"},"vehicle_type_id":"4","last_reported":1748265724,"current_range_meters":6400,"station_id":"ce4bgjh2rcd13ifvqbf0","pricing_plan_id":"cebpf4jnsgd1na2vs0mg"},{"bike_id":"a6dc1c78-7845-437e-ab8f-79c6f75d9e7e","system_id":"levelo_inurba_marseille","lat":43.28847,"lon":5.35825,"is_reserved":false,"is_disabled":false,"rental_uris":{"android":"levelo://app?vid=a6dc1c78-7845-437e-ab8f-79c6f75d9e7e","ios":"levelo://app?vid=a6dc1c78-7845-437e-ab8f-79c6f75d9e7e"},"vehicle_type_id":"4","last_reported":1748265724,"current_range_meters":6400,"station_id":"ce4bhb12rcd13ifvqem0","pricing_plan_id":"cebpf4jnsgd1na2vs0mg"},{"bike_id":"072e21e2-307a-4097-9672-48210e154bf0","system_id":"levelo_inurba_marseille","lat":43.27385,"lon":5.36257,"is_reserved":false,"is_disabled":false,"rental_uris":{"android":"levelo://app?vid=072e21e2-307a-4097-9672-48210e154bf0","ios":"levelo://app?vid=072e21e2-307a-4097-9672-48210e154bf0"},"vehicle_type_id":"4","last_reported":1748265724,"current_range_meters":6400,"station_id":"ce4bhbh2rcd13ifvqeo0","pricing_plan_id":"cebpf4jnsgd1na2vs0mg"},{"bike_id":"7152863f-a76d-462a-855d-1dfded7011aa","system_id":"levelo_inurba_marseille","lat":43.286184,"lon":5.350996,"is_reserved":false,"is_disabled":false,"rental_uris":{"android":"levelo://app?vid=7152863f-a76d-462a-855d-1dfded7011aa","ios":"levelo://app?vid=7152863f-a76d-462a-855d-1dfded7011aa"},"vehicle_type_id":"4","last_reported":1748265724,"current_range_meters":6400,"station_id":"ce4bhch2rcd13ifvqeug","pricing_plan_id":"cebpf4jnsgd1na2vs0mg"},{"bike_id":"6abb9ab4-3976-4e3e-b994-f2f72ee02055","system_id":"levelo_inurba_marseille","lat":43.31781,"lon":5.3683,"is_reserved":false,"is_disabled":false,"rental_uris":{"android":"levelo://app?vid=6abb9ab4-3976-4e3e-b994-f2f72ee02055","ios":"levelo://app?vid=6abb9ab4-3976-4e3e-b994-f2f72ee02055"},"vehicle_type_id":"4","last_reported":1748265724,"current_range_meters":6800,"station_id":"","pricing_plan_id":"cebpf4jnsgd1na2vs0mg"},{"bike_id":"5cd62dbe-9a06-4efe-b1de-733eaccc0dff","system_id":"levelo_inurba_marseille","lat":43.29298,"lon":5.37448,"is_reserved":false,"is_disabled":false,"rental_uris":{"android":"levelo://app?vid=5cd62dbe-9a06-4efe-b1de-733eaccc0dff","ios":"levelo://app?vid=5cd62dbe-9a06-4efe-b1de-733eaccc0dff"},"vehicle_type_id":"4","last_reported":1748265724,"current_range_meters":6800,"station_id":"ce4bgi12rcd13ifvqb70","pricing_plan_id":"cebpf4jnsgd1na2vs0mg"},{"bike_id":"a67cd030-5ab0-4740-bc11-0d418cff2152","system_id":"levelo_inurba_marseille","lat":43.27914,"lon":5.39584,"is_reserved":false,"is_disabled":false,"rental_uris":{"android":"levelo://app?vid=a67cd030-5ab0-4740-bc11-0d418cff2152","ios":"levelo://app?vid=a67cd030-5ab0-4740-bc11-0d418cff2152"},"vehicle_type_id":"4","last_reported":1748265724,"current_range_meters":6800,"station_id":"ce4bhf92rcd13ifvqf40","pricing_plan_id":"cebpf4jnsgd1na2vs0mg"},{"bike_id":"19a7d12c-fc75-4341-aaeb-26dafccb96eb","system_id":"levelo_inurba_marseille","lat":43.25508,"lon":5.37643,"is_reserved":false,"is_disabled":false,"rental_uris":{"android":"levelo://app?vid=19a7d12c-fc75-4341-aaeb-26dafccb96eb","ios":"levelo://app?vid=19a7d12c-fc75-4341-aaeb-26dafccb96eb"},"vehicle_type_id":"4","last_reported":1748265724,"current_range_meters":6800,"station_id":"ce4bhh12rcd13ifvqff0","pricing_plan_id":"cebpf4jnsgd1na2vs0mg"},{"bike_id":"bae8801b-81ee-426b-9ba8-867f0abdbf20","system_id":"levelo_inurba_marseille","lat":43.25865,"lon":5.39894,"is_reserved":false,"is_disabled":false,"rental_uris":{"android":"levelo://app?vid=bae8801b-81ee-426b-9ba8-867f0abdbf20","ios":"levelo://app?vid=bae8801b-81ee-426b-9ba8-867f0abdbf20"},"vehicle_type_id":"4","last_reported":1748265724,"current_range_meters":6800,"station_id":"ce4bhl92rcd13ifvqghg","pricing_plan_id":"cebpf4jnsgd1na2vs0mg"},{"bike_id":"73cb6d97-0851-4669-9f65-f50e0f1a79c3","system_id":"levelo_inurba_marseille","lat":43.25124,"lon":5.40315,"is_reserved":false,"is_disabled":false,"rental_uris":{"android":"levelo://app?vid=73cb6d97-0851-4669-9f65-f50e0f1a79c3","ios":"levelo://app?vid=73cb6d97-0851-4669-9f65-f50e0f1a79c3"},"vehicle_type_id":"4","last_reported":1748265724,"current_range_meters":6800,"station_id":"ce4bhlh2rcd13ifvqgig","pricing_plan_id":"cebpf4jnsgd1na2vs0mg"},{"bike_id":"a33be1ab-6738-4667-b88a-c18a6e463fc9","system_id":"levelo_inurba_marseille","lat":43.2993,"lon":5.37478,"is_reserved":false,"is_disabled":false,"rental_uris":{"android":"levelo://app?vid=a33be1ab-6738-4667-b88a-c18a6e463fc9","ios":"levelo://app?vid=a33be1ab-6738-4667-b88a-c18a6e463fc9"},"vehicle_type_id":"4","last_reported":1748265724,"current_range_meters":7200,"station_id":"ce4bgjh2rcd13ifvqbg0","pricing_plan_id":"cebpf4jnsgd1na2vs0mg"},{"bike_id":"a13ba0f5-960f-432f-8a08-6607e3ef7fe5","system_id":"levelo_inurba_marseille","lat":43.28355,"lon":5.38105,"is_reserved":false,"is_disabled":false,"rental_uris":{"android":"levelo://app?vid=a13ba0f5-960f-432f-8a08-6607e3ef7fe5","ios":"levelo://app?vid=a13ba0f5-960f-432f-8a08-6607e3ef7fe5"},"vehicle_type_id":"4","last_reported":1748265724,"current_range_meters":7200,"station_id":"ce4bh412rcd13ifvqdr0","pricing_plan_id":"cebpf4jnsgd1na2vs0mg"},{"bike_id":"633fb63c-839f-4c3f-b18b-4a789a041835","system_id":"levelo_inurba_marseille","lat":43.26691,"lon":5.38279,"is_reserved":false,"is_disabled":false,"rental_uris":{"android":"levelo://app?vid=633fb63c-839f-4c3f-b18b-4a789a041835","ios":"levelo://app?vid=633fb63c-839f-4c3f-b18b-4a789a041835"},"vehicle_type_id":"4","last_reported":1748265724,"current_range_meters":7200,"station_id":"ce4bhg92rcd13ifvqf90","pricing_plan_id":"cebpf4jnsgd1na2vs0mg"},{"bike_id":"b9708b04-782c-4379-9a3e-f422fa4ce1cd","system_id":"levelo_inurba_marseille","lat":43.25509,"lon":5.37661,"is_reserved":false,"is_disabled":false,"rental_uris":{"android":"levelo://app?vid=b9708b04-782c-4379-9a3e-f422fa4ce1cd","ios":"levelo://app?vid=b9708b04-782c-4379-9a3e-f422fa4ce1cd"},"vehicle_type_id":"4","last_reported":1748265724,"current_range_meters":7200,"station_id":"ce4bhh12rcd13ifvqff0","pricing_plan_id":"cebpf4jnsgd1na2vs0mg"},{"bike_id":"ab485184-dee6-4278-8ed8-78cb97c31dd5","system_id":"levelo_inurba_marseille","lat":43.2921,"lon":5.35824,"is_reserved":false,"is_disabled":false,"rental_uris":{"android":"levelo://app?vid=ab485184-dee6-4278-8ed8-78cb97c31dd5","ios":"levelo://app?vid=ab485184-dee6-4278-8ed8-78cb97c31dd5"},"vehicle_type_id":"4","last_reported":1748265724,"current_range_meters":8000,"station_id":"","pricing_plan_id":"cebpf4jnsgd1na2vs0mg"},{"bike_id":"a76a1fbe-7e87-49c4-b950-caa8f26ce9ae","system_id":"levelo_inurba_marseille","lat":43.29793,"lon":5.38106,"is_reserved":false,"is_disabled":false,"rental_uris":{"android":"levelo://app?vid=a76a1fbe-7e87-49c4-b950-caa8f26ce9ae","ios":"levelo://app?vid=a76a1fbe-7e87-49c4-b950-caa8f26ce9ae"},"vehicle_type_id":"4","last_reported":1748265724,"current_range_meters":8000,"station_id":"ce4bgip2rcd13ifvqbb0","pricing_plan_id":"cebpf4jnsgd1na2vs0mg"},{"bike_id":"5422221d-1757-4b06-a22c-64de1124e94e","system_id":"levelo_inurba_marseille","lat":43.288228,"lon":5.380266,"is_reserved":false,"is_disabled":false,"rental_uris":{"android":"levelo://app?vid=5422221d-1757-4b06-a22c-64de1124e94e","ios":"levelo://app?vid=5422221d-1757-4b06-a22c-64de1124e94e"},"vehicle_type_id":"4","last_reported":1748265724,"current_range_meters":8000,"station_id":"ce4bh5p2rcd13ifvqe4g","pricing_plan_id":"cebpf4jnsgd1na2vs0mg"},{"bike_id":"83aa2661-fe44-4f7f-98e9-311354072bb9","system_id":"levelo_inurba_marseille","lat":43.26559,"lon":5.37285,"is_reserved":false,"is_disabled":false,"rental_uris":{"android":"levelo://app?vid=83aa2661-fe44-4f7f-98e9-311354072bb9","ios":"levelo://app?vid=83aa2661-fe44-4f7f-98e9-311354072bb9"},"vehicle_type_id":"4","last_reported":1748265724,"current_range_meters":8000,"station_id":"ce4bhg12rcd13ifvqf70","pricing_plan_id":"cebpf4jnsgd1na2vs0mg"},{"bike_id":"b5983491-edee-4572-8b56-95914247ebc3","system_id":"levelo_inurba_marseille","lat":43.2418,"lon":5.39731,"is_reserved":false,"is_disabled":false,"rental_uris":{"android":"levelo://app?vid=b5983491-edee-4572-8b56-95914247ebc3","ios":"levelo://app?vid=b5983491-edee-4572-8b56-95914247ebc3"},"vehicle_type_id":"4","last_reported":1748265724,"current_range_meters":8000,"station_id":"ce4bhn12rcd13ifvqgpg","pricing_plan_id":"cebpf4jnsgd1na2vs0mg"},{"bike_id":"20aedc1a-3258-494a-9b0e-5afc4945dd89","system_id":"levelo_inurba_marseille","lat":43.23184,"lon":5.3998,"is_reserved":false,"is_disabled":false,"rental_uris":{"android":"levelo://app?vid=20aedc1a-3258-494a-9b0e-5afc4945dd89","ios":"levelo://app?vid=20aedc1a-3258-494a-9b0e-5afc4945dd89"},"vehicle_type_id":"4","last_reported":1748265724,"current_range_meters":8000,"station_id":"ce4bhn12rcd13ifvqgqg","pricing_plan_id":"cebpf4jnsgd1na2vs0mg"},{"bike_id":"885aa229-daab-4aa3-8026-00ce1f9bd000","system_id":"levelo_inurba_marseille","lat":43.281543,"lon":5.426377,"is_reserved":false,"is_disabled":false,"rental_uris":{"android":"levelo://app?vid=885aa229-daab-4aa3-8026-00ce1f9bd000","ios":"levelo://app?vid=885aa229-daab-4aa3-8026-00ce1f9bd000"},"vehicle_type_id":"4","last_reported":1748265724,"current_range_meters":8000,"station_id":"ce4bhnh2rcd13ifvqgug","pricing_plan_id":"cebpf4jnsgd1na2vs0mg"},{"bike_id":"4c357d46-663d-4c96-8b64-3ea8f582bfab","system_id":"levelo_inurba_marseille","lat":43.28426,"lon":5.39183,"is_reserved":false,"is_disabled":false,"rental_uris":{"android":"levelo://app?vid=4c357d46-663d-4c96-8b64-3ea8f582bfab","ios":"levelo://app?vid=4c357d46-663d-4c96-8b64-3ea8f582bfab"},"vehicle_type_id":"4","last_reported":1748265724,"current_range_meters":8000,"station_id":"ce4bhoh2rcd13ifvqh5g","pricing_plan_id":"cebpf4jnsgd1na2vs0mg"},{"bike_id":"5abb8a77-fbf0-4d21-805b-29790cff0e49","system_id":"levelo_inurba_marseille","lat":43.31089,"lon":5.42457,"is_reserved":false,"is_disabled":false,"rental_uris":{"android":"levelo://app?vid=5abb8a77-fbf0-4d21-805b-29790cff0e49","ios":"levelo://app?vid=5abb8a77-fbf0-4d21-805b-29790cff0e49"},"vehicle_type_id":"4","last_reported":1748265724,"current_range_meters":8000,"station_id":"ce4bhp92rcd13ifvqhag","pricing_plan_id":"cebpf4jnsgd1na2vs0mg"},{"bike_id":"18d91d21-3fbd-44ec-8ea5-ad154289350f","system_id":"levelo_inurba_marseille","lat":43.30063,"lon":5.3715,"is_reserved":false,"is_disabled":false,"rental_uris":{"android":"levelo://app?vid=18d91d21-3fbd-44ec-8ea5-ad154289350f","ios":"levelo://app?vid=18d91d21-3fbd-44ec-8ea5-ad154289350f"},"vehicle_type_id":"4","last_reported":1748265724,"current_range_meters":8400,"station_id":"","pricing_plan_id":"cebpf4jnsgd1na2vs0mg"},{"bike_id":"dabc077c-bf8d-431d-a5ea-dcd441e9b7b1","system_id":"levelo_inurba_marseille","lat":43.24892,"lon":5.39735,"is_reserved":false,"is_disabled":false,"rental_uris":{"android":"levelo://app?vid=dabc077c-bf8d-431d-a5ea-dcd441e9b7b1","ios":"levelo://app?vid=dabc077c-bf8d-431d-a5ea-dcd441e9b7b1"},"vehicle_type_id":"4","last_reported":1748265724,"current_range_meters":8400,"station_id":"","pricing_plan_id":"cebpf4jnsgd1na2vs0mg"},{"bike_id":"2d50b65b-e43d-49e2-a818-c3826e849676","system_id":"levelo_inurba_marseille","lat":43.30243,"lon":5.40036,"is_reserved":false,"is_disabled":false,"rental_uris":{"android":"levelo://app?vid=2d50b65b-e43d-49e2-a818-c3826e849676","ios":"levelo://app?vid=2d50b65b-e43d-49e2-a818-c3826e849676"},"vehicle_type_id":"4","last_reported":1748265724,"current_range_meters":8400,"station_id":"ce4bgvh2rcd13ifvqcs0","pricing_plan_id":"cebpf4jnsgd1na2vs0mg"},{"bike_id":"55faee87-a122-413a-9f97-3ca1eb5f5a30","system_id":"levelo_inurba_marseille","lat":43.28934,"lon":5.36642,"is_reserved":false,"is_disabled":false,"rental_uris":{"android":"levelo://app?vid=55faee87-a122-413a-9f97-3ca1eb5f5a30","ios":"levelo://app?vid=55faee87-a122-413a-9f97-3ca1eb5f5a30"},"vehicle_type_id":"4","last_reported":1748265724,"current_range_meters":8400,"station_id":"ce4bhap2rcd13ifvqek0","pricing_plan_id":"cebpf4jnsgd1na2vs0mg"},{"bike_id":"e9496718-b841-4999-823d-28c5bee5d6f1","system_id":"levelo_inurba_marseille","lat":43.265384,"lon":5.389925,"is_reserved":false,"is_disabled":false,"rental_uris":{"android":"levelo://app?vid=e9496718-b841-4999-823d-28c5bee5d6f1","ios":"levelo://app?vid=e9496718-b841-4999-823d-28c5bee5d6f1"},"vehicle_type_id":"4","last_reported":1748265724,"current_range_meters":8400,"station_id":"ce4bhe12rcd13ifvqf30","pricing_plan_id":"cebpf4jnsgd1na2vs0mg"},{"bike_id":"4d3088e4-6ce0-4063-9e16-359dc9f9262d","system_id":"levelo_inurba_marseille","lat":43.26558,"lon":5.37294,"is_reserved":false,"is_disabled":false,"rental_uris":{"android":"levelo://app?vid=4d3088e4-6ce0-4063-9e16-359dc9f9262d","ios":"levelo://app?vid=4d3088e4-6ce0-4063-9e16-359dc9f9262d"},"vehicle_type_id":"4","last_reported":1748265724,"current_range_meters":8400,"station_id":"ce4bhg12rcd13ifvqf70","pricing_plan_id":"cebpf4jnsgd1na2vs0mg"},{"bike_id":"f4d5f101-db74-49e2-a764-2e08ed697139","system_id":"levelo_inurba_marseille","lat":43.246632,"lon":5.381691,"is_reserved":false,"is_disabled":false,"rental_uris":{"android":"levelo://app?vid=f4d5f101-db74-49e2-a764-2e08ed697139","ios":"levelo://app?vid=f4d5f101-db74-49e2-a764-2e08ed697139"},"vehicle_type_id":"4","last_reported":1748265724,"current_range_meters":8400,"station_id":"ce4bhih2rcd13ifvqfr0","pricing_plan_id":"cebpf4jnsgd1na2vs0mg"},{"bike_id":"f93b74c5-5226-4250-aaa8-c7e610f5fc0b","system_id":"levelo_inurba_marseille","lat":43.27072,"lon":5.42277,"is_reserved":false,"is_disabled":false,"rental_uris":{"android":"levelo://app?vid=f93b74c5-5226-4250-aaa8-c7e610f5fc0b","ios":"levelo://app?vid=f93b74c5-5226-4250-aaa8-c7e610f5fc0b"},"vehicle_type_id":"4","last_reported":1748265724,"current_range_meters":8400,"station_id":"ce4bhk92rcd13ifvqgb0","pricing_plan_id":"cebpf4jnsgd1na2vs0mg"},{"bike_id":"0a92a6f3-9821-4212-8a86-51fa957e7fee","system_id":"levelo_inurba_marseille","lat":43.28684,"lon":5.3866,"is_reserved":false,"is_disabled":false,"rental_uris":{"android":"levelo://app?vid=0a92a6f3-9821-4212-8a86-51fa957e7fee","ios":"levelo://app?vid=0a92a6f3-9821-4212-8a86-51fa957e7fee"},"vehicle_type_id":"4","last_reported":1748265724,"current_range_meters":8800,"station_id":"ce4bh492rcd13ifvqdug","pricing_plan_id":"cebpf4jnsgd1na2vs0mg"},{"bike_id":"ba7cb07d-3295-43aa-b540-c499a01a01bc","system_id":"levelo_inurba_marseille","lat":43.24997,"lon":5.38933,"is_reserved":false,"is_disabled":false,"rental_uris":{"android":"levelo://app?vid=ba7cb07d-3295-43aa-b540-c499a01a01bc","ios":"levelo://app?vid=ba7cb07d-3295-43aa-b540-c499a01a01bc"},"vehicle_type_id":"4","last_reported":1748265724,"current_range_meters":8800,"station_id":"ce4bhgp2rcd13ifvqfd0","pricing_plan_id":"cebpf4jnsgd1na2vs0mg"},{"bike_id":"a2b277b7-0db5-4513-b879-15676c74cbf4","system_id":"levelo_inurba_marseille","lat":43.24548,"lon":5.39523,"is_reserved":false,"is_disabled":false,"rental_uris":{"android":"levelo://app?vid=a2b277b7-0db5-4513-b879-15676c74cbf4","ios":"levelo://app?vid=a2b277b7-0db5-4513-b879-15676c74cbf4"},"vehicle_type_id":"4","last_reported":1748265724,"current_range_meters":8800,"station_id":"ce4bhlp2rcd13ifvqgjg","pricing_plan_id":"cebpf4jnsgd1na2vs0mg"},{"bike_id":"5e15febb-ae5f-47bf-a021-b162e172b4f7","system_id":"levelo_inurba_marseille","lat":43.313286,"lon":5.367389,"is_reserved":false,"is_disabled":false,"rental_uris":{"android":"levelo://app?vid=5e15febb-ae5f-47bf-a021-b162e172b4f7","ios":"levelo://app?vid=5e15febb-ae5f-47bf-a021-b162e172b4f7"},"vehicle_type_id":"4","last_reported":1748265724,"current_range_meters":9200,"station_id":"ce4bgr92rcd13ifvqc6g","pricing_plan_id":"cebpf4jnsgd1na2vs0mg"},{"bike_id":"232e2c0a-5694-4daf-91e7-5d1005f0e959","system_id":"levelo_inurba_marseille","lat":43.28663,"lon":5.36365,"is_reserved":false,"is_disabled":false,"rental_uris":{"android":"levelo://app?vid=232e2c0a-5694-4daf-91e7-5d1005f0e959","ios":"levelo://app?vid=232e2c0a-5694-4daf-91e7-5d1005f0e959"},"vehicle_type_id":"4","last_reported":1748265724,"current_range_meters":9200,"station_id":"ce4bhah2rcd13ifvqej0","pricing_plan_id":"cebpf4jnsgd1na2vs0mg"},{"bike_id":"4d5eab0a-e63d-44cb-93a4-fcc5555745bf","system_id":"levelo_inurba_marseille","lat":43.26957,"lon":5.38642,"is_reserved":false,"is_disabled":false,"rental_uris":{"android":"levelo://app?vid=4d5eab0a-e63d-44cb-93a4-fcc5555745bf","ios":"levelo://app?vid=4d5eab0a-e63d-44cb-93a4-fcc5555745bf"},"vehicle_type_id":"4","last_reported":1748265724,"current_range_meters":9200,"station_id":"ce4bhh92rcd13ifvqfh0","pricing_plan_id":"cebpf4jnsgd1na2vs0mg"},{"bike_id":"b065cd1b-1e15-4942-8944-bbc3628c83e2","system_id":"levelo_inurba_marseille","lat":43.2706,"lon":5.40258,"is_reserved":false,"is_disabled":false,"rental_uris":{"android":"levelo://app?vid=b065cd1b-1e15-4942-8944-bbc3628c83e2","ios":"levelo://app?vid=b065cd1b-1e15-4942-8944-bbc3628c83e2"},"vehicle_type_id":"4","last_reported":1748265724,"current_range_meters":9200,"station_id":"ce4bhk92rcd13ifvqgc0","pricing_plan_id":"cebpf4jnsgd1na2vs0mg"},{"bike_id":"fc56555b-396d-4667-b896-0ad86036e39e","system_id":"levelo_inurba_marseille","lat":43.2591,"lon":5.38043,"is_reserved":false,"is_disabled":false,"rental_uris":{"android":"levelo://app?vid=fc56555b-396d-4667-b896-0ad86036e39e","ios":"levelo://app?vid=fc56555b-396d-4667-b896-0ad86036e39e"},"vehicle_type_id":"4","last_reported":1748265724,"current_range_meters":9600,"station_id":"","pricing_plan_id":"cebpf4jnsgd1na2vs0mg"},{"bike_id":"a4aef2b9-b7e8-4e2d-8340-592d28bc6c85","system_id":"levelo_inurba_marseille","lat":43.337654,"lon":5.37434,"is_reserved":false,"is_disabled":false,"rental_uris":{"android":"levelo://app?vid=a4aef2b9-b7e8-4e2d-8340-592d28bc6c85","ios":"levelo://app?vid=a4aef2b9-b7e8-4e2d-8340-592d28bc6c85"},"vehicle_type_id":"4","last_reported":1748265724,"current_range_meters":9600,"station_id":"","pricing_plan_id":"cebpf4jnsgd1na2vs0mg"},{"bike_id":"efd698cb-2450-498f-9f0b-bfc662548e61","system_id":"levelo_inurba_marseille","lat":43.265987,"lon":5.40336,"is_reserved":false,"is_disabled":false,"rental_uris":{"android":"levelo://app?vid=efd698cb-2450-498f-9f0b-bfc662548e61","ios":"levelo://app?vid=efd698cb-2450-498f-9f0b-bfc662548e61"},"vehicle_type_id":"4","last_reported":1748265724,"current_range_meters":9600,"station_id":"","pricing_plan_id":"cebpf4jnsgd1na2vs0mg"},{"bike_id":"ede017e1-e7c0-43c3-8fd0-f30e7db5204d","system_id":"levelo_inurba_marseille","lat":43.31061,"lon":5.40095,"is_reserved":false,"is_disabled":false,"rental_uris":{"android":"levelo://app?vid=ede017e1-e7c0-43c3-8fd0-f30e7db5204d","ios":"levelo://app?vid=ede017e1-e7c0-43c3-8fd0-f30e7db5204d"},"vehicle_type_id":"4","last_reported":1748265724,"current_range_meters":9600,"station_id":"","pricing_plan_id":"cebpf4jnsgd1na2vs0mg"},{"bike_id":"52e6c115-7a56-4426-835d-625f78ef9631","system_id":"levelo_inurba_marseille","lat":43.30884,"lon":5.3964,"is_reserved":false,"is_disabled":false,"rental_uris":{"android":"levelo://app?vid=52e6c115-7a56-4426-835d-625f78ef9631","ios":"levelo://app?vid=52e6c115-7a56-4426-835d-625f78ef9631"},"vehicle_type_id":"4","last_reported":1748265724,"current_range_meters":9600,"station_id":"ce4bh012rcd13ifvqcv0","pricing_plan_id":"cebpf4jnsgd1na2vs0mg"},{"bike_id":"d35394cd-6da1-4616-ad33-58e18d210cea","system_id":"levelo_inurba_marseille","lat":43.284496,"lon":5.384403,"is_reserved":false,"is_disabled":false,"rental_uris":{"android":"levelo://app?vid=d35394cd-6da1-4616-ad33-58e18d210cea","ios":"levelo://app?vid=d35394cd-6da1-4616-ad33-58e18d210cea"},"vehicle_type_id":"4","last_reported":1748265724,"current_range_meters":9600,"station_id":"ce4bh512rcd13ifvqe3g","pricing_plan_id":"cebpf4jnsgd1na2vs0mg"},{"bike_id":"c9665248-b209-446b-8b05-7f742151c86a","system_id":"levelo_inurba_marseille","lat":43.28156,"lon":5.42642,"is_reserved":false,"is_disabled":false,"rental_uris":{"android":"levelo://app?vid=c9665248-b209-446b-8b05-7f742151c86a","ios":"levelo://app?vid=c9665248-b209-446b-8b05-7f742151c86a"},"vehicle_type_id":"4","last_reported":1748265724,"current_range_meters":9600,"station_id":"ce4bhnh2rcd13ifvqgug","pricing_plan_id":"cebpf4jnsgd1na2vs0mg"},{"bike_id":"db5be3b4-7e27-4b25-b860-e53de44a8a34","system_id":"levelo_inurba_marseille","lat":43.26538,"lon":5.40394,"is_reserved":false,"is_disabled":false,"rental_uris":{"android":"levelo://app?vid=db5be3b4-7e27-4b25-b860-e53de44a8a34","ios":"levelo://app?vid=db5be3b4-7e27-4b25-b860-e53de44a8a34"},"vehicle_type_id":"4","last_reported":1748265724,"current_range_meters":10000,"station_id":"","pricing_plan_id":"cebpf4jnsgd1na2vs0mg"},{"bike_id":"52384be6-595f-46c4-bcad-7b8f0107f389","system_id":"levelo_inurba_marseille","lat":43.28757,"lon":5.35666,"is_reserved":false,"is_disabled":false,"rental_uris":{"android":"levelo://app?vid=52384be6-595f-46c4-bcad-7b8f0107f389","ios":"levelo://app?vid=52384be6-595f-46c4-bcad-7b8f0107f389"},"vehicle_type_id":"4","last_reported":1748265724,"current_range_meters":10000,"station_id":"","pricing_plan_id":"cebpf4jnsgd1na2vs0mg"},{"bike_id":"b744080c-dd77-486d-9609-00c9cf60c1ad","system_id":"levelo_inurba_marseille","lat":43.23634,"lon":5.39192,"is_reserved":false,"is_disabled":false,"rental_uris":{"android":"levelo://app?vid=b744080c-dd77-486d-9609-00c9cf60c1ad","ios":"levelo://app?vid=b744080c-dd77-486d-9609-00c9cf60c1ad"},"vehicle_type_id":"4","last_reported":1748265724,"current_range_meters":10000,"station_id":"","pricing_plan_id":"cebpf4jnsgd1na2vs0mg"},{"bike_id":"d72ecfdf-d72f-420d-a351-559e107b51bd","system_id":"levelo_inurba_marseille","lat":43.29705,"lon":5.37692,"is_reserved":false,"is_disabled":false,"rental_uris":{"android":"levelo://app?vid=d72ecfdf-d72f-420d-a351-559e107b51bd","ios":"levelo://app?vid=d72ecfdf-d72f-420d-a351-559e107b51bd"},"vehicle_type_id":"4","last_reported":1748265724,"current_range_meters":10000,"station_id":"ce4bgkh2rcd13ifvqbl0","pricing_plan_id":"cebpf4jnsgd1na2vs0mg"},{"bike_id":"0a78a4cc-823b-4914-83c5-d2143f46dd25","system_id":"levelo_inurba_marseille","lat":43.30541,"lon":5.36702,"is_reserved":false,"is_disabled":false,"rental_uris":{"android":"levelo://app?vid=0a78a4cc-823b-4914-83c5-d2143f46dd25","ios":"levelo://app?vid=0a78a4cc-823b-4914-83c5-d2143f46dd25"},"vehicle_type_id":"4","last_reported":1748265724,"current_range_meters":10000,"station_id":"ce4bgrp2rcd13ifvqc9g","pricing_plan_id":"cebpf4jnsgd1na2vs0mg"},{"bike_id":"70f10277-1100-4885-a901-a344bab3854b","system_id":"levelo_inurba_marseille","lat":43.30529,"lon":5.36549,"is_reserved":false,"is_disabled":false,"rental_uris":{"android":"levelo://app?vid=70f10277-1100-4885-a901-a344bab3854b","ios":"levelo://app?vid=70f10277-1100-4885-a901-a344bab3854b"},"vehicle_type_id":"4","last_reported":1748265724,"current_range_meters":10000,"station_id":"ce4bgs12rcd13ifvqcag","pricing_plan_id":"cebpf4jnsgd1na2vs0mg"},{"bike_id":"464ead17-fbb4-41f2-b46c-809cd8ca696f","system_id":"levelo_inurba_marseille","lat":43.30146,"lon":5.37416,"is_reserved":false,"is_disabled":false,"rental_uris":{"android":"levelo://app?vid=464ead17-fbb4-41f2-b46c-809cd8ca696f","ios":"levelo://app?vid=464ead17-fbb4-41f2-b46c-809cd8ca696f"},"vehicle_type_id":"4","last_reported":1748265724,"current_range_meters":10000,"station_id":"ce4bgs92rcd13ifvqcc0","pricing_plan_id":"cebpf4jnsgd1na2vs0mg"},{"bike_id":"ccb9c3c4-8778-4c25-9b61-431680832916","system_id":"levelo_inurba_marseille","lat":43.29065,"lon":5.37212,"is_reserved":false,"is_disabled":false,"rental_uris":{"android":"levelo://app?vid=ccb9c3c4-8778-4c25-9b61-431680832916","ios":"levelo://app?vid=ccb9c3c4-8778-4c25-9b61-431680832916"},"vehicle_type_id":"4","last_reported":1748265724,"current_range_meters":10000,"station_id":"ce4bh5p2rcd13ifvqe4g","pricing_plan_id":"cebpf4jnsgd1na2vs0mg"},{"bike_id":"8d53716a-98ec-4aec-ae8b-86cfd4b27847","system_id":"levelo_inurba_marseille","lat":43.260776,"lon":5.375169,"is_reserved":false,"is_disabled":false,"rental_uris":{"android":"levelo://app?vid=8d53716a-98ec-4aec-ae8b-86cfd4b27847","ios":"levelo://app?vid=8d53716a-98ec-4aec-ae8b-86cfd4b27847"},"vehicle_type_id":"4","last_reported":1748265724,"current_range_meters":10000,"station_id":"ce4bhgh2rcd13ifvqfb0","pricing_plan_id":"cebpf4jnsgd1na2vs0mg"},{"bike_id":"2f164495-82dd-4026-b490-26ec204a426a","system_id":"levelo_inurba_marseille","lat":43.32098,"lon":5.36799,"is_reserved":false,"is_disabled":false,"rental_uris":{"android":"levelo://app?vid=2f164495-82dd-4026-b490-26ec204a426a","ios":"levelo://app?vid=2f164495-82dd-4026-b490-26ec204a426a"},"vehicle_type_id":"4","last_reported":1748265724,"current_range_meters":10000,"station_id":"ce4bhrh2rcd13ifvqhug","pricing_plan_id":"cebpf4jnsgd1na2vs0mg"},{"bike_id":"41d795fd-6b15-4eca-98cc-80356500dbfe","system_id":"levelo_inurba_marseille","lat":43.24169,"lon":5.36396,"is_reserved":false,"is_disabled":false,"rental_uris":{"android":"levelo://app?vid=41d795fd-6b15-4eca-98cc-80356500dbfe","ios":"levelo://app?vid=41d795fd-6b15-4eca-98cc-80356500dbfe"},"vehicle_type_id":"4","last_reported":1748265724,"current_range_meters":10000,"station_id":"cpo36qri1sfpv3e86is0","pricing_plan_id":"cebpf4jnsgd1na2vs0mg"},{"bike_id":"6a4612f8-d511-472f-9784-e69bac545256","system_id":"levelo_inurba_marseille","lat":43.29015,"lon":5.36631,"is_reserved":false,"is_disabled":false,"rental_uris":{"android":"levelo://app?vid=6a4612f8-d511-472f-9784-e69bac545256","ios":"levelo://app?vid=6a4612f8-d511-472f-9784-e69bac545256"},"vehicle_type_id":"4","last_reported":1748265724,"current_range_meters":10800,"station_id":"","pricing_plan_id":"cebpf4jnsgd1na2vs0mg"},{"bike_id":"4adb863b-f7b6-462a-8987-80e2b655e849","system_id":"levelo_inurba_marseille","lat":43.303118,"lon":5.368946,"is_reserved":false,"is_disabled":false,"rental_uris":{"android":"levelo://app?vid=4adb863b-f7b6-462a-8987-80e2b655e849","ios":"levelo://app?vid=4adb863b-f7b6-462a-8987-80e2b655e849"},"vehicle_type_id":"4","last_reported":1748265724,"current_range_meters":10800,"station_id":"ce4bgqh2rcd13ifvqc5g","pricing_plan_id":"cebpf4jnsgd1na2vs0mg"},{"bike_id":"c87a83a1-783f-4903-9acf-2cebabf7e1d6","system_id":"levelo_inurba_marseille","lat":43.302465,"lon":5.400644,"is_reserved":false,"is_disabled":false,"rental_uris":{"android":"levelo://app?vid=c87a83a1-783f-4903-9acf-2cebabf7e1d6","ios":"levelo://app?vid=c87a83a1-783f-4903-9acf-2cebabf7e1d6"},"vehicle_type_id":"4","last_reported":1748265724,"current_range_meters":10800,"station_id":"ce4bgvh2rcd13ifvqcs0","pricing_plan_id":"cebpf4jnsgd1na2vs0mg"},{"bike_id":"fa661a6f-2725-493b-b4e6-c96b26bef557","system_id":"levelo_inurba_marseille","lat":43.23962,"lon":5.36625,"is_reserved":false,"is_disabled":false,"rental_uris":{"android":"levelo://app?vid=fa661a6f-2725-493b-b4e6-c96b26bef557","ios":"levelo://app?vid=fa661a6f-2725-493b-b4e6-c96b26bef557"},"vehicle_type_id":"4","last_reported":1748265724,"current_range_meters":10800,"station_id":"ce4bhi12rcd13ifvqfp0","pricing_plan_id":"cebpf4jnsgd1na2vs0mg"},{"bike_id":"b784ac63-cd40-47ac-9a60-554b4bf98a63","system_id":"levelo_inurba_marseille","lat":43.29902,"lon":5.43655,"is_reserved":false,"is_disabled":false,"rental_uris":{"android":"levelo://app?vid=b784ac63-cd40-47ac-9a60-554b4bf98a63","ios":"levelo://app?vid=b784ac63-cd40-47ac-9a60-554b4bf98a63"},"vehicle_type_id":"4","last_reported":1748265724,"current_range_meters":10800,"station_id":"ce4bhpp2rcd13ifvqhfg","pricing_plan_id":"cebpf4jnsgd1na2vs0mg"},{"bike_id":"1b99474f-32a8-41ac-8bfc-95b792806919","system_id":"levelo_inurba_marseille","lat":43.303,"lon":5.39218,"is_reserved":false,"is_disabled":false,"rental_uris":{"android":"levelo://app?vid=1b99474f-32a8-41ac-8bfc-95b792806919","ios":"levelo://app?vid=1b99474f-32a8-41ac-8bfc-95b792806919"},"vehicle_type_id":"4","last_reported":1748265724,"current_range_meters":11200,"station_id":"ce4bgkh2rcd13ifvqbk0","pricing_plan_id":"cebpf4jnsgd1na2vs0mg"},{"bike_id":"d2e5dc91-9fe4-44e0-bf5e-a7714b5c6a1a","system_id":"levelo_inurba_marseille","lat":43.30553,"lon":5.36553,"is_reserved":false,"is_disabled":false,"rental_uris":{"android":"levelo://app?vid=d2e5dc91-9fe4-44e0-bf5e-a7714b5c6a1a","ios":"levelo://app?vid=d2e5dc91-9fe4-44e0-bf5e-a7714b5c6a1a"},"vehicle_type_id":"4","last_reported":1748265724,"current_range_meters":11200,"station_id":"ce4bgs12rcd13ifvqcag","pricing_plan_id":"cebpf4jnsgd1na2vs0mg"},{"bike_id":"5e66b624-5b62-45e6-91b3-f683934a172d","system_id":"levelo_inurba_marseille","lat":43.28417,"lon":5.3499,"is_reserved":false,"is_disabled":false,"rental_uris":{"android":"levelo://app?vid=5e66b624-5b62-45e6-91b3-f683934a172d","ios":"levelo://app?vid=5e66b624-5b62-45e6-91b3-f683934a172d"},"vehicle_type_id":"4","last_reported":1748265724,"current_range_meters":11200,"station_id":"ce4bhbh2rcd13ifvqepg","pricing_plan_id":"cebpf4jnsgd1na2vs0mg"},{"bike_id":"1fdc04e0-a3fa-40eb-8825-c327f4a93fb4","system_id":"levelo_inurba_marseille","lat":43.28413,"lon":5.34996,"is_reserved":false,"is_disabled":false,"rental_uris":{"android":"levelo://app?vid=1fdc04e0-a3fa-40eb-8825-c327f4a93fb4","ios":"levelo://app?vid=1fdc04e0-a3fa-40eb-8825-c327f4a93fb4"},"vehicle_type_id":"4","last_reported":1748265724,"current_range_meters":11200,"station_id":"ce4bhbh2rcd13ifvqepg","pricing_plan_id":"cebpf4jnsgd1na2vs0mg"},{"bike_id":"a876743d-3dea-49c4-ac0f-f44ae78983d8","system_id":"levelo_inurba_marseille","lat":43.30545,"lon":5.36756,"is_reserved":false,"is_disabled":false,"rental_uris":{"android":"levelo://app?vid=a876743d-3dea-49c4-ac0f-f44ae78983d8","ios":"levelo://app?vid=a876743d-3dea-49c4-ac0f-f44ae78983d8"},"vehicle_type_id":"4","last_reported":1748265724,"current_range_meters":11600,"station_id":"ce4bgrp2rcd13ifvqc9g","pricing_plan_id":"cebpf4jnsgd1na2vs0mg"},{"bike_id":"8002eb56-042b-4f7d-81ff-4b5a853c720d","system_id":"levelo_inurba_marseille","lat":43.28932,"lon":5.36634,"is_reserved":false,"is_disabled":false,"rental_uris":{"android":"levelo://app?vid=8002eb56-042b-4f7d-81ff-4b5a853c720d","ios":"levelo://app?vid=8002eb56-042b-4f7d-81ff-4b5a853c720d"},"vehicle_type_id":"4","last_reported":1748265724,"current_range_meters":11600,"station_id":"ce4bhap2rcd13ifvqek0","pricing_plan_id":"cebpf4jnsgd1na2vs0mg"},{"bike_id":"ec1a3e81-5b42-43b7-87f2-b219046e6151","system_id":"levelo_inurba_marseille","lat":43.27308,"lon":5.3909,"is_reserved":false,"is_disabled":false,"rental_uris":{"android":"levelo://app?vid=ec1a3e81-5b42-43b7-87f2-b219046e6151","ios":"levelo://app?vid=ec1a3e81-5b42-43b7-87f2-b219046e6151"},"vehicle_type_id":"4","last_reported":1748265724,"current_range_meters":11600,"station_id":"ce4bhgp2rcd13ifvqfe0","pricing_plan_id":"cebpf4jnsgd1na2vs0mg"},{"bike_id":"a3f21319-fd1c-4bd5-afa3-da5c851bf0b0","system_id":"levelo_inurba_marseille","lat":43.26955,"lon":5.38637,"is_reserved":false,"is_disabled":false,"rental_uris":{"android":"levelo://app?vid=a3f21319-fd1c-4bd5-afa3-da5c851bf0b0","ios":"levelo://app?vid=a3f21319-fd1c-4bd5-afa3-da5c851bf0b0"},"vehicle_type_id":"4","last_reported":1748265724,"current_range_meters":11600,"station_id":"ce4bhh92rcd13ifvqfh0","pricing_plan_id":"cebpf4jnsgd1na2vs0mg"},{"bike_id":"6a17cecb-9cd2-43e7-8c71-ebb38aa41cc3","system_id":"levelo_inurba_marseille","lat":43.24192,"lon":5.39718,"is_reserved":false,"is_disabled":false,"rental_uris":{"android":"levelo://app?vid=6a17cecb-9cd2-43e7-8c71-ebb38aa41cc3","ios":"levelo://app?vid=6a17cecb-9cd2-43e7-8c71-ebb38aa41cc3"},"vehicle_type_id":"4","last_reported":1748265724,"current_range_meters":11600,"station_id":"ce4bhn12rcd13ifvqgpg","pricing_plan_id":"cebpf4jnsgd1na2vs0mg"},{"bike_id":"ff49282d-035c-4051-94a4-d625a935ca6b","system_id":"levelo_inurba_marseille","lat":43.21752,"lon":5.34604,"is_reserved":false,"is_disabled":false,"rental_uris":{"android":"levelo://app?vid=ff49282d-035c-4051-94a4-d625a935ca6b","ios":"levelo://app?vid=ff49282d-035c-4051-94a4-d625a935ca6b"},"vehicle_type_id":"4","last_reported":1748265724,"current_range_meters":11600,"station_id":"st_cvj6r9ubvosntc0bgbag","pricing_plan_id":"cebpf4jnsgd1na2vs0mg"},{"bike_id":"d2f6b88b-979d-490c-a258-4fe2e1e819d8","system_id":"levelo_inurba_marseille","lat":43.302806,"lon":5.376978,"is_reserved":false,"is_disabled":false,"rental_uris":{"android":"levelo://app?vid=d2f6b88b-979d-490c-a258-4fe2e1e819d8","ios":"levelo://app?vid=d2f6b88b-979d-490c-a258-4fe2e1e819d8"},"vehicle_type_id":"4","last_reported":1748265724,"current_range_meters":12000,"station_id":"","pricing_plan_id":"cebpf4jnsgd1na2vs0mg"},{"bike_id":"d66dc5cc-6934-49c4-b117-f628e97db186","system_id":"levelo_inurba_marseille","lat":43.31489,"lon":5.3729,"is_reserved":false,"is_disabled":false,"rental_uris":{"android":"levelo://app?vid=d66dc5cc-6934-49c4-b117-f628e97db186","ios":"levelo://app?vid=d66dc5cc-6934-49c4-b117-f628e97db186"},"vehicle_type_id":"4","last_reported":1748265724,"current_range_meters":12000,"station_id":"ce4bgt12rcd13ifvqcd0","pricing_plan_id":"cebpf4jnsgd1na2vs0mg"},{"bike_id":"e7eededf-bc34-43c5-9a3d-de8a03fb2778","system_id":"levelo_inurba_marseille","lat":43.28424,"lon":5.34977,"is_reserved":false,"is_disabled":false,"rental_uris":{"android":"levelo://app?vid=e7eededf-bc34-43c5-9a3d-de8a03fb2778","ios":"levelo://app?vid=e7eededf-bc34-43c5-9a3d-de8a03fb2778"},"vehicle_type_id":"4","last_reported":1748265724,"current_range_meters":12000,"station_id":"ce4bhbh2rcd13ifvqepg","pricing_plan_id":"cebpf4jnsgd1na2vs0mg"},{"bike_id":"f0db987f-7a9b-45df-8e26-1d773e43b6e4","system_id":"levelo_inurba_marseille","lat":43.31716,"lon":5.43719,"is_reserved":false,"is_disabled":false,"rental_uris":{"android":"levelo://app?vid=f0db987f-7a9b-45df-8e26-1d773e43b6e4","ios":"levelo://app?vid=f0db987f-7a9b-45df-8e26-1d773e43b6e4"},"vehicle_type_id":"4","last_reported":1748265724,"current_range_meters":12000,"station_id":"ce4bhp92rcd13ifvqhcg","pricing_plan_id":"cebpf4jnsgd1na2vs0mg"},{"bike_id":"f5ae3080-2b63-49bb-80c7-58f068c3a42a","system_id":"levelo_inurba_marseille","lat":43.30792,"lon":5.37235,"is_reserved":false,"is_disabled":false,"rental_uris":{"android":"levelo://app?vid=f5ae3080-2b63-49bb-80c7-58f068c3a42a","ios":"levelo://app?vid=f5ae3080-2b63-49bb-80c7-58f068c3a42a"},"vehicle_type_id":"4","last_reported":1748265724,"current_range_meters":12400,"station_id":"","pricing_plan_id":"cebpf4jnsgd1na2vs0mg"},{"bike_id":"34fff8c5-a201-414f-b7a4-b52d5144c306","system_id":"levelo_inurba_marseille","lat":43.254969,"lon":5.37649,"is_reserved":false,"is_disabled":false,"rental_uris":{"android":"levelo://app?vid=34fff8c5-a201-414f-b7a4-b52d5144c306","ios":"levelo://app?vid=34fff8c5-a201-414f-b7a4-b52d5144c306"},"vehicle_type_id":"4","last_reported":1748265724,"current_range_meters":12400,"station_id":"","pricing_plan_id":"cebpf4jnsgd1na2vs0mg"},{"bike_id":"37bd0727-aad6-4f95-b8ad-7f261ca1b395","system_id":"levelo_inurba_marseille","lat":43.30139,"lon":5.37421,"is_reserved":false,"is_disabled":false,"rental_uris":{"android":"levelo://app?vid=37bd0727-aad6-4f95-b8ad-7f261ca1b395","ios":"levelo://app?vid=37bd0727-aad6-4f95-b8ad-7f261ca1b395"},"vehicle_type_id":"4","last_reported":1748265724,"current_range_meters":12400,"station_id":"ce4bgs92rcd13ifvqcc0","pricing_plan_id":"cebpf4jnsgd1na2vs0mg"},{"bike_id":"42b84312-eb3b-43d0-872a-b45972757dee","system_id":"levelo_inurba_marseille","lat":43.28405,"lon":5.34987,"is_reserved":false,"is_disabled":false,"rental_uris":{"android":"levelo://app?vid=42b84312-eb3b-43d0-872a-b45972757dee","ios":"levelo://app?vid=42b84312-eb3b-43d0-872a-b45972757dee"},"vehicle_type_id":"4","last_reported":1748265724,"current_range_meters":12400,"station_id":"ce4bhbh2rcd13ifvqepg","pricing_plan_id":"cebpf4jnsgd1na2vs0mg"},{"bike_id":"85c2975d-3938-4b63-bb58-e9f93fa666e6","system_id":"levelo_inurba_marseille","lat":43.24805,"lon":5.37455,"is_reserved":false,"is_disabled":false,"rental_uris":{"android":"levelo://app?vid=85c2975d-3938-4b63-bb58-e9f93fa666e6","ios":"levelo://app?vid=85c2975d-3938-4b63-bb58-e9f93fa666e6"},"vehicle_type_id":"4","last_reported":1748265724,"current_range_meters":12400,"station_id":"ce4bhgh2rcd13ifvqfb0","pricing_plan_id":"cebpf4jnsgd1na2vs0mg"},{"bike_id":"5148f8b2-1ecb-4c76-b37d-928f8d5cde64","system_id":"levelo_inurba_marseille","lat":43.32322,"lon":5.36775,"is_reserved":false,"is_disabled":false,"rental_uris":{"android":"levelo://app?vid=5148f8b2-1ecb-4c76-b37d-928f8d5cde64","ios":"levelo://app?vid=5148f8b2-1ecb-4c76-b37d-928f8d5cde64"},"vehicle_type_id":"4","last_reported":1748265724,"current_range_meters":12400,"station_id":"ce4bhsh2rcd13ifvqi2g","pricing_plan_id":"cebpf4jnsgd1na2vs0mg"},{"bike_id":"ae6e6868-2635-4f49-b7c1-b03759c58ec7","system_id":"levelo_inurba_marseille","lat":43.27291,"lon":5.41594,"is_reserved":false,"is_disabled":false,"rental_uris":{"android":"levelo://app?vid=ae6e6868-2635-4f49-b7c1-b03759c58ec7","ios":"levelo://app?vid=ae6e6868-2635-4f49-b7c1-b03759c58ec7"},"vehicle_type_id":"4","last_reported":1748265724,"current_range_meters":12800,"station_id":"","pricing_plan_id":"cebpf4jnsgd1na2vs0mg"},{"bike_id":"e6de5151-8427-4eee-9c0f-81be7906c267","system_id":"levelo_inurba_marseille","lat":43.26786,"lon":5.3941,"is_reserved":false,"is_disabled":false,"rental_uris":{"android":"levelo://app?vid=e6de5151-8427-4eee-9c0f-81be7906c267","ios":"levelo://app?vid=e6de5151-8427-4eee-9c0f-81be7906c267"},"vehicle_type_id":"4","last_reported":1748265724,"current_range_meters":12800,"station_id":"ce4bhh12rcd13ifvqfg0","pricing_plan_id":"cebpf4jnsgd1na2vs0mg"},{"bike_id":"c29f3832-daec-4804-bd21-f4b7d65ec6d2","system_id":"levelo_inurba_marseille","lat":43.30929,"lon":5.36871,"is_reserved":false,"is_disabled":false,"rental_uris":{"android":"levelo://app?vid=c29f3832-daec-4804-bd21-f4b7d65ec6d2","ios":"levelo://app?vid=c29f3832-daec-4804-bd21-f4b7d65ec6d2"},"vehicle_type_id":"4","last_reported":1748265724,"current_range_meters":13600,"station_id":"ce4bgn92rcd13ifvqbvg","pricing_plan_id":"cebpf4jnsgd1na2vs0mg"},{"bike_id":"5b0cbd20-f6cc-4978-becb-eea7adac55e3","system_id":"levelo_inurba_marseille","lat":43.30556,"lon":5.36574,"is_reserved":false,"is_disabled":false,"rental_uris":{"android":"levelo://app?vid=5b0cbd20-f6cc-4978-becb-eea7adac55e3","ios":"levelo://app?vid=5b0cbd20-f6cc-4978-becb-eea7adac55e3"},"vehicle_type_id":"4","last_reported":1748265724,"current_range_meters":13600,"station_id":"ce4bgs12rcd13ifvqcag","pricing_plan_id":"cebpf4jnsgd1na2vs0mg"},{"bike_id":"cc6623d0-efcf-4060-8a3f-cbae3be34a34","system_id":"levelo_inurba_marseille","lat":43.28935,"lon":5.36637,"is_reserved":false,"is_disabled":false,"rental_uris":{"android":"levelo://app?vid=cc6623d0-efcf-4060-8a3f-cbae3be34a34","ios":"levelo://app?vid=cc6623d0-efcf-4060-8a3f-cbae3be34a34"},"vehicle_type_id":"4","last_reported":1748265724,"current_range_meters":13600,"station_id":"ce4bhap2rcd13ifvqek0","pricing_plan_id":"cebpf4jnsgd1na2vs0mg"},{"bike_id":"6208b45a-edfb-434f-9df9-292bd302bddb","system_id":"levelo_inurba_marseille","lat":43.2843,"lon":5.34989,"is_reserved":false,"is_disabled":false,"rental_uris":{"android":"levelo://app?vid=6208b45a-edfb-434f-9df9-292bd302bddb","ios":"levelo://app?vid=6208b45a-edfb-434f-9df9-292bd302bddb"},"vehicle_type_id":"4","last_reported":1748265724,"current_range_meters":13600,"station_id":"ce4bhbh2rcd13ifvqepg","pricing_plan_id":"cebpf4jnsgd1na2vs0mg"},{"bike_id":"9d4749f9-91d8-4b67-9305-dd622051081e","system_id":"levelo_inurba_marseille","lat":43.26566,"lon":5.39036,"is_reserved":false,"is_disabled":false,"rental_uris":{"android":"levelo://app?vid=9d4749f9-91d8-4b67-9305-dd622051081e","ios":"levelo://app?vid=9d4749f9-91d8-4b67-9305-dd622051081e"},"vehicle_type_id":"4","last_reported":1748265724,"current_range_meters":13600,"station_id":"ce4bhe12rcd13ifvqf30","pricing_plan_id":"cebpf4jnsgd1na2vs0mg"},{"bike_id":"17a59a9f-4cbb-49f7-ba5a-38bf448a0c82","system_id":"levelo_inurba_marseille","lat":43.23197,"lon":5.35553,"is_reserved":false,"is_disabled":false,"rental_uris":{"android":"levelo://app?vid=17a59a9f-4cbb-49f7-ba5a-38bf448a0c82","ios":"levelo://app?vid=17a59a9f-4cbb-49f7-ba5a-38bf448a0c82"},"vehicle_type_id":"4","last_reported":1748265724,"current_range_meters":13600,"station_id":"ce4bhu92rcd13ifvqi70","pricing_plan_id":"cebpf4jnsgd1na2vs0mg"},{"bike_id":"1a0998e5-8bb9-474f-a827-53cad24c9e8f","system_id":"levelo_inurba_marseille","lat":43.32031,"lon":5.44985,"is_reserved":false,"is_disabled":false,"rental_uris":{"android":"levelo://app?vid=1a0998e5-8bb9-474f-a827-53cad24c9e8f","ios":"levelo://app?vid=1a0998e5-8bb9-474f-a827-53cad24c9e8f"},"vehicle_type_id":"4","last_reported":1748265724,"current_range_meters":14000,"station_id":"","pricing_plan_id":"cebpf4jnsgd1na2vs0mg"},{"bike_id":"e962bdac-be49-47b4-8d32-bab805d80327","system_id":"levelo_inurba_marseille","lat":43.27611,"lon":5.36125,"is_reserved":false,"is_disabled":false,"rental_uris":{"android":"levelo://app?vid=e962bdac-be49-47b4-8d32-bab805d80327","ios":"levelo://app?vid=e962bdac-be49-47b4-8d32-bab805d80327"},"vehicle_type_id":"4","last_reported":1748265724,"current_range_meters":14000,"station_id":"ce4bgj92rcd13ifvqbe0","pricing_plan_id":"cebpf4jnsgd1na2vs0mg"},{"bike_id":"f05d834d-f458-4564-99f3-dbd191f77412","system_id":"levelo_inurba_marseille","lat":43.309086,"lon":5.368519,"is_reserved":false,"is_disabled":false,"rental_uris":{"android":"levelo://app?vid=f05d834d-f458-4564-99f3-dbd191f77412","ios":"levelo://app?vid=f05d834d-f458-4564-99f3-dbd191f77412"},"vehicle_type_id":"4","last_reported":1748265724,"current_range_meters":14000,"station_id":"ce4bgn92rcd13ifvqbvg","pricing_plan_id":"cebpf4jnsgd1na2vs0mg"},{"bike_id":"3f6cfcb0-6862-47f4-b78e-5b59fd21e90a","system_id":"levelo_inurba_marseille","lat":43.28626,"lon":5.35112,"is_reserved":false,"is_disabled":false,"rental_uris":{"android":"levelo://app?vid=3f6cfcb0-6862-47f4-b78e-5b59fd21e90a","ios":"levelo://app?vid=3f6cfcb0-6862-47f4-b78e-5b59fd21e90a"},"vehicle_type_id":"4","last_reported":1748265724,"current_range_meters":14000,"station_id":"ce4bhch2rcd13ifvqeug","pricing_plan_id":"cebpf4jnsgd1na2vs0mg"},{"bike_id":"378d7dc9-8d64-48f4-9033-194258d0337f","system_id":"levelo_inurba_marseille","lat":43.28279,"lon":5.35045,"is_reserved":false,"is_disabled":false,"rental_uris":{"android":"levelo://app?vid=378d7dc9-8d64-48f4-9033-194258d0337f","ios":"levelo://app?vid=378d7dc9-8d64-48f4-9033-194258d0337f"},"vehicle_type_id":"4","last_reported":1748265724,"current_range_meters":14400,"station_id":"ce4bhbp2rcd13ifvqerg","pricing_plan_id":"cebpf4jnsgd1na2vs0mg"},{"bike_id":"1a775a5e-1792-4706-b4f6-ec50ef749d53","system_id":"levelo_inurba_marseille","lat":43.255796,"lon":5.38223,"is_reserved":false,"is_disabled":false,"rental_uris":{"android":"levelo://app?vid=1a775a5e-1792-4706-b4f6-ec50ef749d53","ios":"levelo://app?vid=1a775a5e-1792-4706-b4f6-ec50ef749d53"},"vehicle_type_id":"4","last_reported":1748265724,"current_range_meters":14400,"station_id":"ce4bhih2rcd13ifvqfs0","pricing_plan_id":"cebpf4jnsgd1na2vs0mg"},{"bike_id":"f5b1aa50-af32-4b67-af03-fc8d46feddb5","system_id":"levelo_inurba_marseille","lat":43.292694,"lon":5.401271,"is_reserved":false,"is_disabled":false,"rental_uris":{"android":"levelo://app?vid=f5b1aa50-af32-4b67-af03-fc8d46feddb5","ios":"levelo://app?vid=f5b1aa50-af32-4b67-af03-fc8d46feddb5"},"vehicle_type_id":"4","last_reported":1748265724,"current_range_meters":14800,"station_id":"","pricing_plan_id":"cebpf4jnsgd1na2vs0mg"},{"bike_id":"ce7caa5e-6878-42a2-8160-42a4e90323bf","system_id":"levelo_inurba_marseille","lat":43.293,"lon":5.37452,"is_reserved":false,"is_disabled":false,"rental_uris":{"android":"levelo://app?vid=ce7caa5e-6878-42a2-8160-42a4e90323bf","ios":"levelo://app?vid=ce7caa5e-6878-42a2-8160-42a4e90323bf"},"vehicle_type_id":"4","last_reported":1748265724,"current_range_meters":14800,"station_id":"ce4bgi12rcd13ifvqb70","pricing_plan_id":"cebpf4jnsgd1na2vs0mg"},{"bike_id":"4f47b61d-e258-43b3-9acb-ac2a5c4b8932","system_id":"levelo_inurba_marseille","lat":43.294128,"lon":5.386216,"is_reserved":false,"is_disabled":false,"rental_uris":{"android":"levelo://app?vid=4f47b61d-e258-43b3-9acb-ac2a5c4b8932","ios":"levelo://app?vid=4f47b61d-e258-43b3-9acb-ac2a5c4b8932"},"vehicle_type_id":"4","last_reported":1748265724,"current_range_meters":14800,"station_id":"ce4bh2h2rcd13ifvqdh0","pricing_plan_id":"cebpf4jnsgd1na2vs0mg"},{"bike_id":"f3459326-ce8f-4102-89ee-9299440221e3","system_id":"levelo_inurba_marseille","lat":43.28943,"lon":5.3664,"is_reserved":false,"is_disabled":false,"rental_uris":{"android":"levelo://app?vid=f3459326-ce8f-4102-89ee-9299440221e3","ios":"levelo://app?vid=f3459326-ce8f-4102-89ee-9299440221e3"},"vehicle_type_id":"4","last_reported":1748265724,"current_range_meters":14800,"station_id":"ce4bhap2rcd13ifvqek0","pricing_plan_id":"cebpf4jnsgd1na2vs0mg"},{"bike_id":"cc302de4-d652-42e2-a290-42fab33639c8","system_id":"levelo_inurba_marseille","lat":43.27379,"lon":5.36256,"is_reserved":false,"is_disabled":false,"rental_uris":{"android":"levelo://app?vid=cc302de4-d652-42e2-a290-42fab33639c8","ios":"levelo://app?vid=cc302de4-d652-42e2-a290-42fab33639c8"},"vehicle_type_id":"4","last_reported":1748265724,"current_range_meters":14800,"station_id":"ce4bhbh2rcd13ifvqeo0","pricing_plan_id":"cebpf4jnsgd1na2vs0mg"},{"bike_id":"e7f59612-6985-4dfb-8923-cb1adc6becec","system_id":"levelo_inurba_marseille","lat":43.3248,"lon":5.36572,"is_reserved":false,"is_disabled":false,"rental_uris":{"android":"levelo://app?vid=e7f59612-6985-4dfb-8923-cb1adc6becec","ios":"levelo://app?vid=e7f59612-6985-4dfb-8923-cb1adc6becec"},"vehicle_type_id":"4","last_reported":1748265724,"current_range_meters":14800,"station_id":"ce4bhs12rcd13ifvqhvg","pricing_plan_id":"cebpf4jnsgd1na2vs0mg"},{"bike_id":"e6c65de3-7d92-4979-809c-6677188473c0","system_id":"levelo_inurba_marseille","lat":43.337684,"lon":5.37432,"is_reserved":false,"is_disabled":false,"rental_uris":{"android":"levelo://app?vid=e6c65de3-7d92-4979-809c-6677188473c0","ios":"levelo://app?vid=e6c65de3-7d92-4979-809c-6677188473c0"},"vehicle_type_id":"4","last_reported":1748265724,"current_range_meters":15200,"station_id":"","pricing_plan_id":"cebpf4jnsgd1na2vs0mg"},{"bike_id":"6ef27e84-462a-46f9-afe5-e09b209cc7f0","system_id":"levelo_inurba_marseille","lat":43.331119,"lon":5.362053,"is_reserved":false,"is_disabled":false,"rental_uris":{"android":"levelo://app?vid=6ef27e84-462a-46f9-afe5-e09b209cc7f0","ios":"levelo://app?vid=6ef27e84-462a-46f9-afe5-e09b209cc7f0"},"vehicle_type_id":"4","last_reported":1748265724,"current_range_meters":15200,"station_id":"","pricing_plan_id":"cebpf4jnsgd1na2vs0mg"},{"bike_id":"2e5fdc7f-c2c5-4ff4-bd3e-249f41c4fa0c","system_id":"levelo_inurba_marseille","lat":43.26681,"lon":5.38281,"is_reserved":false,"is_disabled":false,"rental_uris":{"android":"levelo://app?vid=2e5fdc7f-c2c5-4ff4-bd3e-249f41c4fa0c","ios":"levelo://app?vid=2e5fdc7f-c2c5-4ff4-bd3e-249f41c4fa0c"},"vehicle_type_id":"4","last_reported":1748265724,"current_range_meters":15200,"station_id":"ce4bhg92rcd13ifvqf90","pricing_plan_id":"cebpf4jnsgd1na2vs0mg"},{"bike_id":"2ab425df-f098-4d4c-9f0f-0268f615f355","system_id":"levelo_inurba_marseille","lat":43.24804,"lon":5.37454,"is_reserved":false,"is_disabled":false,"rental_uris":{"android":"levelo://app?vid=2ab425df-f098-4d4c-9f0f-0268f615f355","ios":"levelo://app?vid=2ab425df-f098-4d4c-9f0f-0268f615f355"},"vehicle_type_id":"4","last_reported":1748265724,"current_range_meters":15200,"station_id":"ce4bhgh2rcd13ifvqfb0","pricing_plan_id":"cebpf4jnsgd1na2vs0mg"},{"bike_id":"6f6047a5-6070-47b3-96a6-228f1dd9be5e","system_id":"levelo_inurba_marseille","lat":43.257262,"lon":5.411153,"is_reserved":false,"is_disabled":false,"rental_uris":{"android":"levelo://app?vid=6f6047a5-6070-47b3-96a6-228f1dd9be5e","ios":"levelo://app?vid=6f6047a5-6070-47b3-96a6-228f1dd9be5e"},"vehicle_type_id":"4","last_reported":1748265724,"current_range_meters":15200,"station_id":"ce4bhkp2rcd13ifvqgd0","pricing_plan_id":"cebpf4jnsgd1na2vs0mg"},{"bike_id":"e209d5d0-03ee-4f9d-ac08-ae4b4bb84b62","system_id":"levelo_inurba_marseille","lat":43.241815,"lon":5.397167,"is_reserved":false,"is_disabled":false,"rental_uris":{"android":"levelo://app?vid=e209d5d0-03ee-4f9d-ac08-ae4b4bb84b62","ios":"levelo://app?vid=e209d5d0-03ee-4f9d-ac08-ae4b4bb84b62"},"vehicle_type_id":"4","last_reported":1748265724,"current_range_meters":15200,"station_id":"ce4bhn12rcd13ifvqgpg","pricing_plan_id":"cebpf4jnsgd1na2vs0mg"},{"bike_id":"24695fcc-1634-4887-9a04-00f71eb609f0","system_id":"levelo_inurba_marseille","lat":43.231868,"lon":5.399912,"is_reserved":false,"is_disabled":false,"rental_uris":{"android":"levelo://app?vid=24695fcc-1634-4887-9a04-00f71eb609f0","ios":"levelo://app?vid=24695fcc-1634-4887-9a04-00f71eb609f0"},"vehicle_type_id":"4","last_reported":1748265724,"current_range_meters":15200,"station_id":"ce4bhn12rcd13ifvqgqg","pricing_plan_id":"cebpf4jnsgd1na2vs0mg"},{"bike_id":"d5658925-7a88-4989-8de6-5e98b3f857f6","system_id":"levelo_inurba_marseille","lat":43.33585,"lon":5.41051,"is_reserved":false,"is_disabled":false,"rental_uris":{"android":"levelo://app?vid=d5658925-7a88-4989-8de6-5e98b3f857f6","ios":"levelo://app?vid=d5658925-7a88-4989-8de6-5e98b3f857f6"},"vehicle_type_id":"4","last_reported":1748265724,"current_range_meters":15200,"station_id":"ce4bhqh2rcd13ifvqhmg","pricing_plan_id":"cebpf4jnsgd1na2vs0mg"},{"bike_id":"9e58132d-414a-4bfb-b91a-fbd77cab1b8a","system_id":"levelo_inurba_marseille","lat":43.3237,"lon":5.38883,"is_reserved":false,"is_disabled":false,"rental_uris":{"android":"levelo://app?vid=9e58132d-414a-4bfb-b91a-fbd77cab1b8a","ios":"levelo://app?vid=9e58132d-414a-4bfb-b91a-fbd77cab1b8a"},"vehicle_type_id":"4","last_reported":1748265724,"current_range_meters":15200,"station_id":"ce4bhqp2rcd13ifvqhog","pricing_plan_id":"cebpf4jnsgd1na2vs0mg"},{"bike_id":"2a046dee-b3af-48c9-9659-b7d30ba20af5","system_id":"levelo_inurba_marseille","lat":43.24343,"lon":5.38006,"is_reserved":false,"is_disabled":false,"rental_uris":{"android":"levelo://app?vid=2a046dee-b3af-48c9-9659-b7d30ba20af5","ios":"levelo://app?vid=2a046dee-b3af-48c9-9659-b7d30ba20af5"},"vehicle_type_id":"4","last_reported":1748265724,"current_range_meters":16000,"station_id":"","pricing_plan_id":"cebpf4jnsgd1na2vs0mg"},{"bike_id":"3bd5dde3-1b3b-4124-95d2-e6ff2c3d3ad4","system_id":"levelo_inurba_marseille","lat":43.292485,"lon":5.376136,"is_reserved":false,"is_disabled":false,"rental_uris":{"android":"levelo://app?vid=3bd5dde3-1b3b-4124-95d2-e6ff2c3d3ad4","ios":"levelo://app?vid=3bd5dde3-1b3b-4124-95d2-e6ff2c3d3ad4"},"vehicle_type_id":"4","last_reported":1748265724,"current_range_meters":16000,"station_id":"ce4bgi12rcd13ifvqb80","pricing_plan_id":"cebpf4jnsgd1na2vs0mg"},{"bike_id":"8abaecc5-0ffe-44fc-b9f5-d4aa22e2835d","system_id":"levelo_inurba_marseille","lat":43.30894,"lon":5.36886,"is_reserved":false,"is_disabled":false,"rental_uris":{"android":"levelo://app?vid=8abaecc5-0ffe-44fc-b9f5-d4aa22e2835d","ios":"levelo://app?vid=8abaecc5-0ffe-44fc-b9f5-d4aa22e2835d"},"vehicle_type_id":"4","last_reported":1748265724,"current_range_meters":16000,"station_id":"ce4bgn92rcd13ifvqbvg","pricing_plan_id":"cebpf4jnsgd1na2vs0mg"},{"bike_id":"9a144298-4755-4d33-91ad-42d11c429179","system_id":"levelo_inurba_marseille","lat":43.2893,"lon":5.3839,"is_reserved":false,"is_disabled":false,"rental_uris":{"android":"levelo://app?vid=9a144298-4755-4d33-91ad-42d11c429179","ios":"levelo://app?vid=9a144298-4755-4d33-91ad-42d11c429179"},"vehicle_type_id":"4","last_reported":1748265724,"current_range_meters":16000,"station_id":"ce4bh612rcd13ifvqe6g","pricing_plan_id":"cebpf4jnsgd1na2vs0mg"},{"bike_id":"6bec0308-1106-42f3-9329-904ba1845b5d","system_id":"levelo_inurba_marseille","lat":43.26211,"lon":5.40443,"is_reserved":false,"is_disabled":false,"rental_uris":{"android":"levelo://app?vid=6bec0308-1106-42f3-9329-904ba1845b5d","ios":"levelo://app?vid=6bec0308-1106-42f3-9329-904ba1845b5d"},"vehicle_type_id":"4","last_reported":1748265724,"current_range_meters":16000,"station_id":"ce4bhmh2rcd13ifvqgmg","pricing_plan_id":"cebpf4jnsgd1na2vs0mg"},{"bike_id":"87f4add9-295d-4711-98ed-ba962a81b1ad","system_id":"levelo_inurba_marseille","lat":43.23145,"lon":5.43701,"is_reserved":false,"is_disabled":false,"rental_uris":{"android":"levelo://app?vid=87f4add9-295d-4711-98ed-ba962a81b1ad","ios":"levelo://app?vid=87f4add9-295d-4711-98ed-ba962a81b1ad"},"vehicle_type_id":"4","last_reported":1748265724,"current_range_meters":16000,"station_id":"ce4bhmp2rcd13ifvqgog","pricing_plan_id":"cebpf4jnsgd1na2vs0mg"},{"bike_id":"eb060acd-d403-4c33-9f13-e709466da355","system_id":"levelo_inurba_marseille","lat":43.296143,"lon":5.377079,"is_reserved":false,"is_disabled":false,"rental_uris":{"android":"levelo://app?vid=eb060acd-d403-4c33-9f13-e709466da355","ios":"levelo://app?vid=eb060acd-d403-4c33-9f13-e709466da355"},"vehicle_type_id":"4","last_reported":1748265724,"current_range_meters":16400,"station_id":"","pricing_plan_id":"cebpf4jnsgd1na2vs0mg"},{"bike_id":"6b482028-512e-4dbe-b943-3138dd0f6f46","system_id":"levelo_inurba_marseille","lat":43.296732,"lon":5.368803,"is_reserved":false,"is_disabled":false,"rental_uris":{"android":"levelo://app?vid=6b482028-512e-4dbe-b943-3138dd0f6f46","ios":"levelo://app?vid=6b482028-512e-4dbe-b943-3138dd0f6f46"},"vehicle_type_id":"4","last_reported":1748265724,"current_range_meters":16400,"station_id":"","pricing_plan_id":"cebpf4jnsgd1na2vs0mg"},{"bike_id":"cd1accf5-54d1-4125-b7ad-b24ade08e0ad","system_id":"levelo_inurba_marseille","lat":43.29893,"lon":5.38894,"is_reserved":false,"is_disabled":false,"rental_uris":{"android":"levelo://app?vid=cd1accf5-54d1-4125-b7ad-b24ade08e0ad","ios":"levelo://app?vid=cd1accf5-54d1-4125-b7ad-b24ade08e0ad"},"vehicle_type_id":"4","last_reported":1748265724,"current_range_meters":16400,"station_id":"ce4bh392rcd13ifvqdl0","pricing_plan_id":"cebpf4jnsgd1na2vs0mg"},{"bike_id":"7ece2224-bbc9-41be-b279-457383278953","system_id":"levelo_inurba_marseille","lat":43.25512,"lon":5.3765,"is_reserved":false,"is_disabled":false,"rental_uris":{"android":"levelo://app?vid=7ece2224-bbc9-41be-b279-457383278953","ios":"levelo://app?vid=7ece2224-bbc9-41be-b279-457383278953"},"vehicle_type_id":"4","last_reported":1748265724,"current_range_meters":16400,"station_id":"ce4bhh12rcd13ifvqff0","pricing_plan_id":"cebpf4jnsgd1na2vs0mg"},{"bike_id":"f93b11a3-cd71-4c90-8de1-511b8af31530","system_id":"levelo_inurba_marseille","lat":43.27565,"lon":5.38416,"is_reserved":false,"is_disabled":false,"rental_uris":{"android":"levelo://app?vid=f93b11a3-cd71-4c90-8de1-511b8af31530","ios":"levelo://app?vid=f93b11a3-cd71-4c90-8de1-511b8af31530"},"vehicle_type_id":"4","last_reported":1748265724,"current_range_meters":16400,"station_id":"ce4bhh92rcd13ifvqfi0","pricing_plan_id":"cebpf4jnsgd1na2vs0mg"},{"bike_id":"167fa96f-ff31-412e-ab00-f5e6f506d218","system_id":"levelo_inurba_marseille","lat":43.26938,"lon":5.3892,"is_reserved":false,"is_disabled":false,"rental_uris":{"android":"levelo://app?vid=167fa96f-ff31-412e-ab00-f5e6f506d218","ios":"levelo://app?vid=167fa96f-ff31-412e-ab00-f5e6f506d218"},"vehicle_type_id":"4","last_reported":1748265724,"current_range_meters":16400,"station_id":"ce4bhhh2rcd13ifvqfl0","pricing_plan_id":"cebpf4jnsgd1na2vs0mg"},{"bike_id":"093bdc55-7657-4e48-bae6-7a022f735520","system_id":"levelo_inurba_marseille","lat":43.27501,"lon":5.42452,"is_reserved":false,"is_disabled":false,"rental_uris":{"android":"levelo://app?vid=093bdc55-7657-4e48-bae6-7a022f735520","ios":"levelo://app?vid=093bdc55-7657-4e48-bae6-7a022f735520"},"vehicle_type_id":"4","last_reported":1748265724,"current_range_meters":16400,"station_id":"ce4bhn92rcd13ifvqgrg","pricing_plan_id":"cebpf4jnsgd1na2vs0mg"},{"bike_id":"1826ac39-0536-4c6f-9090-67f350119d16","system_id":"levelo_inurba_marseille","lat":43.30307,"lon":5.39207,"is_reserved":false,"is_disabled":false,"rental_uris":{"android":"levelo://app?vid=1826ac39-0536-4c6f-9090-67f350119d16","ios":"levelo://app?vid=1826ac39-0536-4c6f-9090-67f350119d16"},"vehicle_type_id":"4","last_reported":1748265724,"current_range_meters":16800,"station_id":"ce4bgkh2rcd13ifvqbk0","pricing_plan_id":"cebpf4jnsgd1na2vs0mg"},{"bike_id":"494bb412-26a1-4e7b-a3d1-fc0566a174aa","system_id":"levelo_inurba_marseille","lat":43.31366,"lon":5.36724,"is_reserved":false,"is_disabled":false,"rental_uris":{"android":"levelo://app?vid=494bb412-26a1-4e7b-a3d1-fc0566a174aa","ios":"levelo://app?vid=494bb412-26a1-4e7b-a3d1-fc0566a174aa"},"vehicle_type_id":"4","last_reported":1748265724,"current_range_meters":16800,"station_id":"ce4bgr92rcd13ifvqc6g","pricing_plan_id":"cebpf4jnsgd1na2vs0mg"},{"bike_id":"4aae1c92-b6d6-4c7d-bb50-f1155c92e897","system_id":"levelo_inurba_marseille","lat":43.30249,"lon":5.40054,"is_reserved":false,"is_disabled":false,"rental_uris":{"android":"levelo://app?vid=4aae1c92-b6d6-4c7d-bb50-f1155c92e897","ios":"levelo://app?vid=4aae1c92-b6d6-4c7d-bb50-f1155c92e897"},"vehicle_type_id":"4","last_reported":1748265724,"current_range_meters":16800,"station_id":"ce4bgvh2rcd13ifvqcs0","pricing_plan_id":"cebpf4jnsgd1na2vs0mg"},{"bike_id":"d4d0db7b-b8db-4320-9498-fb45b414fbbe","system_id":"levelo_inurba_marseille","lat":43.29794,"lon":5.40396,"is_reserved":false,"is_disabled":false,"rental_uris":{"android":"levelo://app?vid=d4d0db7b-b8db-4320-9498-fb45b414fbbe","ios":"levelo://app?vid=d4d0db7b-b8db-4320-9498-fb45b414fbbe"},"vehicle_type_id":"4","last_reported":1748265724,"current_range_meters":16800,"station_id":"ce4bh112rcd13ifvqd90","pricing_plan_id":"cebpf4jnsgd1na2vs0mg"},{"bike_id":"de131e83-f9c8-4ad1-a03d-69a732c0c990","system_id":"levelo_inurba_marseille","lat":43.29416,"lon":5.38627,"is_reserved":false,"is_disabled":false,"rental_uris":{"android":"levelo://app?vid=de131e83-f9c8-4ad1-a03d-69a732c0c990","ios":"levelo://app?vid=de131e83-f9c8-4ad1-a03d-69a732c0c990"},"vehicle_type_id":"4","last_reported":1748265724,"current_range_meters":16800,"station_id":"ce4bh2h2rcd13ifvqdh0","pricing_plan_id":"cebpf4jnsgd1na2vs0mg"},{"bike_id":"e6d73e7c-0472-43b8-9fcf-1a0edc86c2ff","system_id":"levelo_inurba_marseille","lat":43.23155,"lon":5.43744,"is_reserved":false,"is_disabled":false,"rental_uris":{"android":"levelo://app?vid=e6d73e7c-0472-43b8-9fcf-1a0edc86c2ff","ios":"levelo://app?vid=e6d73e7c-0472-43b8-9fcf-1a0edc86c2ff"},"vehicle_type_id":"4","last_reported":1748265724,"current_range_meters":16800,"station_id":"ce4bhmp2rcd13ifvqgog","pricing_plan_id":"cebpf4jnsgd1na2vs0mg"},{"bike_id":"8deb7f69-279a-465b-beab-f18d0e028d15","system_id":"levelo_inurba_marseille","lat":43.24174,"lon":5.39736,"is_reserved":false,"is_disabled":false,"rental_uris":{"android":"levelo://app?vid=8deb7f69-279a-465b-beab-f18d0e028d15","ios":"levelo://app?vid=8deb7f69-279a-465b-beab-f18d0e028d15"},"vehicle_type_id":"4","last_reported":1748265724,"current_range_meters":16800,"station_id":"ce4bhn12rcd13ifvqgpg","pricing_plan_id":"cebpf4jnsgd1na2vs0mg"},{"bike_id":"2908bb99-d973-4d3f-9702-35f6fa61c3b5","system_id":"levelo_inurba_marseille","lat":43.21755,"lon":5.34605,"is_reserved":false,"is_disabled":false,"rental_uris":{"android":"levelo://app?vid=2908bb99-d973-4d3f-9702-35f6fa61c3b5","ios":"levelo://app?vid=2908bb99-d973-4d3f-9702-35f6fa61c3b5"},"vehicle_type_id":"4","last_reported":1748265724,"current_range_meters":16800,"station_id":"st_cvj6r9ubvosntc0bgbag","pricing_plan_id":"cebpf4jnsgd1na2vs0mg"},{"bike_id":"ceb81090-b40e-47dd-bc35-8598d269ef58","system_id":"levelo_inurba_marseille","lat":43.26663,"lon":5.38431,"is_reserved":false,"is_disabled":false,"rental_uris":{"android":"levelo://app?vid=ceb81090-b40e-47dd-bc35-8598d269ef58","ios":"levelo://app?vid=ceb81090-b40e-47dd-bc35-8598d269ef58"},"vehicle_type_id":"4","last_reported":1748265724,"current_range_meters":17200,"station_id":"","pricing_plan_id":"cebpf4jnsgd1na2vs0mg"},{"bike_id":"dbbc3087-ad3b-473b-9341-4e6aa0da5126","system_id":"levelo_inurba_marseille","lat":43.24622,"lon":5.39377,"is_reserved":false,"is_disabled":false,"rental_uris":{"android":"levelo://app?vid=dbbc3087-ad3b-473b-9341-4e6aa0da5126","ios":"levelo://app?vid=dbbc3087-ad3b-473b-9341-4e6aa0da5126"},"vehicle_type_id":"4","last_reported":1748265724,"current_range_meters":17200,"station_id":"","pricing_plan_id":"cebpf4jnsgd1na2vs0mg"},{"bike_id":"899d9034-609a-4571-9d87-0d3bfcaca20f","system_id":"levelo_inurba_marseille","lat":43.309,"lon":5.36862,"is_reserved":false,"is_disabled":false,"rental_uris":{"android":"levelo://app?vid=899d9034-609a-4571-9d87-0d3bfcaca20f","ios":"levelo://app?vid=899d9034-609a-4571-9d87-0d3bfcaca20f"},"vehicle_type_id":"4","last_reported":1748265724,"current_range_meters":17200,"station_id":"ce4bgn92rcd13ifvqbvg","pricing_plan_id":"cebpf4jnsgd1na2vs0mg"},{"bike_id":"5c683faf-fca5-47ef-a4c8-b2b7830526fe","system_id":"levelo_inurba_marseille","lat":43.28925,"lon":5.36642,"is_reserved":false,"is_disabled":false,"rental_uris":{"android":"levelo://app?vid=5c683faf-fca5-47ef-a4c8-b2b7830526fe","ios":"levelo://app?vid=5c683faf-fca5-47ef-a4c8-b2b7830526fe"},"vehicle_type_id":"4","last_reported":1748265724,"current_range_meters":17200,"station_id":"ce4bhap2rcd13ifvqek0","pricing_plan_id":"cebpf4jnsgd1na2vs0mg"},{"bike_id":"466f2bd1-bb8b-4e2d-8186-172373026554","system_id":"levelo_inurba_marseille","lat":43.24191,"lon":5.39721,"is_reserved":false,"is_disabled":false,"rental_uris":{"android":"levelo://app?vid=466f2bd1-bb8b-4e2d-8186-172373026554","ios":"levelo://app?vid=466f2bd1-bb8b-4e2d-8186-172373026554"},"vehicle_type_id":"4","last_reported":1748265724,"current_range_meters":17200,"station_id":"ce4bhn12rcd13ifvqgpg","pricing_plan_id":"cebpf4jnsgd1na2vs0mg"},{"bike_id":"064a4e02-69de-4237-b332-c85ad9378451","system_id":"levelo_inurba_marseille","lat":43.240759,"lon":5.377579,"is_reserved":false,"is_disabled":false,"rental_uris":{"android":"levelo://app?vid=064a4e02-69de-4237-b332-c85ad9378451","ios":"levelo://app?vid=064a4e02-69de-4237-b332-c85ad9378451"},"vehicle_type_id":"4","last_reported":1748265724,"current_range_meters":17200,"station_id":"ce4bhnp2rcd13ifvqgvg","pricing_plan_id":"cebpf4jnsgd1na2vs0mg"},{"bike_id":"8dd88446-c109-43b3-a107-2b4a6e1b330a","system_id":"levelo_inurba_marseille","lat":43.317181,"lon":5.437013,"is_reserved":false,"is_disabled":false,"rental_uris":{"android":"levelo://app?vid=8dd88446-c109-43b3-a107-2b4a6e1b330a","ios":"levelo://app?vid=8dd88446-c109-43b3-a107-2b4a6e1b330a"},"vehicle_type_id":"4","last_reported":1748265724,"current_range_meters":17200,"station_id":"ce4bhp92rcd13ifvqhcg","pricing_plan_id":"cebpf4jnsgd1na2vs0mg"},{"bike_id":"30e949a6-9a21-45c6-8b78-d17c7d943515","system_id":"levelo_inurba_marseille","lat":43.26807,"lon":5.40263,"is_reserved":false,"is_disabled":false,"rental_uris":{"android":"levelo://app?vid=30e949a6-9a21-45c6-8b78-d17c7d943515","ios":"levelo://app?vid=30e949a6-9a21-45c6-8b78-d17c7d943515"},"vehicle_type_id":"4","last_reported":1748265724,"current_range_meters":17200,"station_id":"ce501612rcd8frsf0b60","pricing_plan_id":"cebpf4jnsgd1na2vs0mg"},{"bike_id":"7e9a5916-5dd4-47a0-819e-c8f8dbbe9d74","system_id":"levelo_inurba_marseille","lat":43.229348,"lon":5.353798,"is_reserved":false,"is_disabled":false,"rental_uris":{"android":"levelo://app?vid=7e9a5916-5dd4-47a0-819e-c8f8dbbe9d74","ios":"levelo://app?vid=7e9a5916-5dd4-47a0-819e-c8f8dbbe9d74"},"vehicle_type_id":"4","last_reported":1748265724,"current_range_meters":17200,"station_id":"cpo3532slgdg3j2ikp40","pricing_plan_id":"cebpf4jnsgd1na2vs0mg"},{"bike_id":"fc34e4c1-37ca-4853-8345-f5c1fad4260a","system_id":"levelo_inurba_marseille","lat":43.312277,"lon":5.368725,"is_reserved":false,"is_disabled":false,"rental_uris":{"android":"levelo://app?vid=fc34e4c1-37ca-4853-8345-f5c1fad4260a","ios":"levelo://app?vid=fc34e4c1-37ca-4853-8345-f5c1fad4260a"},"vehicle_type_id":"4","last_reported":1748265724,"current_range_meters":17600,"station_id":"ce4bgl92rcd13ifvqbq0","pricing_plan_id":"cebpf4jnsgd1na2vs0mg"},{"bike_id":"4b68db62-1fee-48f8-b42d-786e3610acf3","system_id":"levelo_inurba_marseille","lat":43.313432,"lon":5.367337,"is_reserved":false,"is_disabled":false,"rental_uris":{"android":"levelo://app?vid=4b68db62-1fee-48f8-b42d-786e3610acf3","ios":"levelo://app?vid=4b68db62-1fee-48f8-b42d-786e3610acf3"},"vehicle_type_id":"4","last_reported":1748265724,"current_range_meters":17600,"station_id":"ce4bgr92rcd13ifvqc6g","pricing_plan_id":"cebpf4jnsgd1na2vs0mg"},{"bike_id":"a80b1b5f-1be4-4cef-bf8a-62e079c623c1","system_id":"levelo_inurba_marseille","lat":43.30801,"lon":5.37643,"is_reserved":false,"is_disabled":false,"rental_uris":{"android":"levelo://app?vid=a80b1b5f-1be4-4cef-bf8a-62e079c623c1","ios":"levelo://app?vid=a80b1b5f-1be4-4cef-bf8a-62e079c623c1"},"vehicle_type_id":"4","last_reported":1748265724,"current_range_meters":17600,"station_id":"ce4bgv92rcd13ifvqcq0","pricing_plan_id":"cebpf4jnsgd1na2vs0mg"},{"bike_id":"eb651a8b-37ef-43bd-a54c-2428f4a6a013","system_id":"levelo_inurba_marseille","lat":43.273559,"lon":5.362504,"is_reserved":false,"is_disabled":false,"rental_uris":{"android":"levelo://app?vid=eb651a8b-37ef-43bd-a54c-2428f4a6a013","ios":"levelo://app?vid=eb651a8b-37ef-43bd-a54c-2428f4a6a013"},"vehicle_type_id":"4","last_reported":1748265724,"current_range_meters":17600,"station_id":"ce4bhbh2rcd13ifvqeo0","pricing_plan_id":"cebpf4jnsgd1na2vs0mg"},{"bike_id":"0a2d72fc-1b7b-4612-a2c7-370db0dd5e0c","system_id":"levelo_inurba_marseille","lat":43.28593,"lon":5.38432,"is_reserved":false,"is_disabled":false,"rental_uris":{"android":"levelo://app?vid=0a2d72fc-1b7b-4612-a2c7-370db0dd5e0c","ios":"levelo://app?vid=0a2d72fc-1b7b-4612-a2c7-370db0dd5e0c"},"vehicle_type_id":"4","last_reported":1748265724,"current_range_meters":18000,"station_id":"","pricing_plan_id":"cebpf4jnsgd1na2vs0mg"},{"bike_id":"e1c97a93-084b-446f-8b36-50f0ada4b5d1","system_id":"levelo_inurba_marseille","lat":43.309117,"lon":5.36837,"is_reserved":false,"is_disabled":false,"rental_uris":{"android":"levelo://app?vid=e1c97a93-084b-446f-8b36-50f0ada4b5d1","ios":"levelo://app?vid=e1c97a93-084b-446f-8b36-50f0ada4b5d1"},"vehicle_type_id":"4","last_reported":1748265724,"current_range_meters":18000,"station_id":"ce4bgn92rcd13ifvqbvg","pricing_plan_id":"cebpf4jnsgd1na2vs0mg"},{"bike_id":"bb2bcdd7-9f4a-4d58-8a5c-8b6385101422","system_id":"levelo_inurba_marseille","lat":43.30302,"lon":5.36872,"is_reserved":false,"is_disabled":false,"rental_uris":{"android":"levelo://app?vid=bb2bcdd7-9f4a-4d58-8a5c-8b6385101422","ios":"levelo://app?vid=bb2bcdd7-9f4a-4d58-8a5c-8b6385101422"},"vehicle_type_id":"4","last_reported":1748265724,"current_range_meters":18000,"station_id":"ce4bgqh2rcd13ifvqc5g","pricing_plan_id":"cebpf4jnsgd1na2vs0mg"},{"bike_id":"a6e041b8-1c4a-47fc-8e4e-19556599d839","system_id":"levelo_inurba_marseille","lat":43.30528,"lon":5.3653,"is_reserved":false,"is_disabled":false,"rental_uris":{"android":"levelo://app?vid=a6e041b8-1c4a-47fc-8e4e-19556599d839","ios":"levelo://app?vid=a6e041b8-1c4a-47fc-8e4e-19556599d839"},"vehicle_type_id":"4","last_reported":1748265724,"current_range_meters":18000,"station_id":"ce4bgs12rcd13ifvqcag","pricing_plan_id":"cebpf4jnsgd1na2vs0mg"},{"bike_id":"e9d5a339-40c1-470c-a44b-e56444da2254","system_id":"levelo_inurba_marseille","lat":43.30524,"lon":5.3655,"is_reserved":false,"is_disabled":false,"rental_uris":{"android":"levelo://app?vid=e9d5a339-40c1-470c-a44b-e56444da2254","ios":"levelo://app?vid=e9d5a339-40c1-470c-a44b-e56444da2254"},"vehicle_type_id":"4","last_reported":1748265724,"current_range_meters":18000,"station_id":"ce4bgs12rcd13ifvqcag","pricing_plan_id":"cebpf4jnsgd1na2vs0mg"},{"bike_id":"3f01e3d1-5f2c-43b6-8e22-9442c1892b5e","system_id":"levelo_inurba_marseille","lat":43.289407,"lon":5.366533,"is_reserved":false,"is_disabled":false,"rental_uris":{"android":"levelo://app?vid=3f01e3d1-5f2c-43b6-8e22-9442c1892b5e","ios":"levelo://app?vid=3f01e3d1-5f2c-43b6-8e22-9442c1892b5e"},"vehicle_type_id":"4","last_reported":1748265724,"current_range_meters":18000,"station_id":"ce4bhap2rcd13ifvqek0","pricing_plan_id":"cebpf4jnsgd1na2vs0mg"},{"bike_id":"d437ea81-0b26-4d28-9b35-194105f2cb32","system_id":"levelo_inurba_marseille","lat":43.27422,"lon":5.39392,"is_reserved":false,"is_disabled":false,"rental_uris":{"android":"levelo://app?vid=d437ea81-0b26-4d28-9b35-194105f2cb32","ios":"levelo://app?vid=d437ea81-0b26-4d28-9b35-194105f2cb32"},"vehicle_type_id":"4","last_reported":1748265724,"current_range_meters":18000,"station_id":"ce4bhdp2rcd13ifvqf20","pricing_plan_id":"cebpf4jnsgd1na2vs0mg"},{"bike_id":"1c2b9a6d-c7f5-41df-8cbc-8235db9a61d2","system_id":"levelo_inurba_marseille","lat":43.27069,"lon":5.40258,"is_reserved":false,"is_disabled":false,"rental_uris":{"android":"levelo://app?vid=1c2b9a6d-c7f5-41df-8cbc-8235db9a61d2","ios":"levelo://app?vid=1c2b9a6d-c7f5-41df-8cbc-8235db9a61d2"},"vehicle_type_id":"4","last_reported":1748265724,"current_range_meters":18000,"station_id":"ce4bhk92rcd13ifvqgc0","pricing_plan_id":"cebpf4jnsgd1na2vs0mg"},{"bike_id":"982bca69-aacd-45cd-8b08-1c1f45191687","system_id":"levelo_inurba_marseille","lat":43.2319,"lon":5.40013,"is_reserved":false,"is_disabled":false,"rental_uris":{"android":"levelo://app?vid=982bca69-aacd-45cd-8b08-1c1f45191687","ios":"levelo://app?vid=982bca69-aacd-45cd-8b08-1c1f45191687"},"vehicle_type_id":"4","last_reported":1748265724,"current_range_meters":18000,"station_id":"ce4bhn12rcd13ifvqgqg","pricing_plan_id":"cebpf4jnsgd1na2vs0mg"},{"bike_id":"2296b000-9418-4e25-b3a0-ff6599969b36","system_id":"levelo_inurba_marseille","lat":43.28865,"lon":5.35247,"is_reserved":false,"is_disabled":false,"rental_uris":{"android":"levelo://app?vid=2296b000-9418-4e25-b3a0-ff6599969b36","ios":"levelo://app?vid=2296b000-9418-4e25-b3a0-ff6599969b36"},"vehicle_type_id":"4","last_reported":1748265724,"current_range_meters":18800,"station_id":"","pricing_plan_id":"cebpf4jnsgd1na2vs0mg"},{"bike_id":"276ced50-af26-47b1-8ebd-9657afd2e9e5","system_id":"levelo_inurba_marseille","lat":43.30916,"lon":5.36862,"is_reserved":false,"is_disabled":false,"rental_uris":{"android":"levelo://app?vid=276ced50-af26-47b1-8ebd-9657afd2e9e5","ios":"levelo://app?vid=276ced50-af26-47b1-8ebd-9657afd2e9e5"},"vehicle_type_id":"4","last_reported":1748265724,"current_range_meters":18800,"station_id":"ce4bgn92rcd13ifvqbvg","pricing_plan_id":"cebpf4jnsgd1na2vs0mg"},{"bike_id":"ad175bac-80a2-4ce4-91e0-f9593df5ff37","system_id":"levelo_inurba_marseille","lat":43.29839,"lon":5.36277,"is_reserved":false,"is_disabled":false,"rental_uris":{"android":"levelo://app?vid=ad175bac-80a2-4ce4-91e0-f9593df5ff37","ios":"levelo://app?vid=ad175bac-80a2-4ce4-91e0-f9593df5ff37"},"vehicle_type_id":"4","last_reported":1748265724,"current_range_meters":18800,"station_id":"ce4bgpp2rcd13ifvqc3g","pricing_plan_id":"cebpf4jnsgd1na2vs0mg"},{"bike_id":"b09187fc-f4fe-483c-a755-1e06d7baf1e8","system_id":"levelo_inurba_marseille","lat":43.303027,"lon":5.368832,"is_reserved":false,"is_disabled":false,"rental_uris":{"android":"levelo://app?vid=b09187fc-f4fe-483c-a755-1e06d7baf1e8","ios":"levelo://app?vid=b09187fc-f4fe-483c-a755-1e06d7baf1e8"},"vehicle_type_id":"4","last_reported":1748265724,"current_range_meters":18800,"station_id":"ce4bgqh2rcd13ifvqc5g","pricing_plan_id":"cebpf4jnsgd1na2vs0mg"},{"bike_id":"10380e3e-9727-4c27-aa2b-cce0b887b149","system_id":"levelo_inurba_marseille","lat":43.303276,"lon":5.404303,"is_reserved":false,"is_disabled":false,"rental_uris":{"android":"levelo://app?vid=10380e3e-9727-4c27-aa2b-cce0b887b149","ios":"levelo://app?vid=10380e3e-9727-4c27-aa2b-cce0b887b149"},"vehicle_type_id":"4","last_reported":1748265724,"current_range_meters":18800,"station_id":"ce4bh112rcd13ifvqda0","pricing_plan_id":"cebpf4jnsgd1na2vs0mg"},{"bike_id":"8d12431d-3854-469d-8f63-ac2e21770a8a","system_id":"levelo_inurba_marseille","lat":43.2846,"lon":5.359,"is_reserved":false,"is_disabled":false,"rental_uris":{"android":"levelo://app?vid=8d12431d-3854-469d-8f63-ac2e21770a8a","ios":"levelo://app?vid=8d12431d-3854-469d-8f63-ac2e21770a8a"},"vehicle_type_id":"4","last_reported":1748265724,"current_range_meters":18800,"station_id":"ce4bhah2rcd13ifvqei0","pricing_plan_id":"cebpf4jnsgd1na2vs0mg"},{"bike_id":"c8a45744-4ed9-4cb2-87e4-9a6bdb61d2da","system_id":"levelo_inurba_marseille","lat":43.28457,"lon":5.35883,"is_reserved":false,"is_disabled":false,"rental_uris":{"android":"levelo://app?vid=c8a45744-4ed9-4cb2-87e4-9a6bdb61d2da","ios":"levelo://app?vid=c8a45744-4ed9-4cb2-87e4-9a6bdb61d2da"},"vehicle_type_id":"4","last_reported":1748265724,"current_range_meters":18800,"station_id":"ce4bhah2rcd13ifvqei0","pricing_plan_id":"cebpf4jnsgd1na2vs0mg"},{"bike_id":"d1814b85-6b75-4404-bf06-506ee0643d6e","system_id":"levelo_inurba_marseille","lat":43.27369,"lon":5.36245,"is_reserved":false,"is_disabled":false,"rental_uris":{"android":"levelo://app?vid=d1814b85-6b75-4404-bf06-506ee0643d6e","ios":"levelo://app?vid=d1814b85-6b75-4404-bf06-506ee0643d6e"},"vehicle_type_id":"4","last_reported":1748265724,"current_range_meters":18800,"station_id":"ce4bhbh2rcd13ifvqeo0","pricing_plan_id":"cebpf4jnsgd1na2vs0mg"},{"bike_id":"2a176bb5-3bd2-44d8-90bf-082cfb34133d","system_id":"levelo_inurba_marseille","lat":43.27208,"lon":5.39176,"is_reserved":false,"is_disabled":false,"rental_uris":{"android":"levelo://app?vid=2a176bb5-3bd2-44d8-90bf-082cfb34133d","ios":"levelo://app?vid=2a176bb5-3bd2-44d8-90bf-082cfb34133d"},"vehicle_type_id":"4","last_reported":1748265724,"current_range_meters":18800,"station_id":"ce4bhhp2rcd13ifvqfm0","pricing_plan_id":"cebpf4jnsgd1na2vs0mg"},{"bike_id":"5cb8203e-e89d-4be2-9eca-b18f75b5591c","system_id":"levelo_inurba_marseille","lat":43.231456,"lon":5.437244,"is_reserved":false,"is_disabled":false,"rental_uris":{"android":"levelo://app?vid=5cb8203e-e89d-4be2-9eca-b18f75b5591c","ios":"levelo://app?vid=5cb8203e-e89d-4be2-9eca-b18f75b5591c"},"vehicle_type_id":"4","last_reported":1748265724,"current_range_meters":18800,"station_id":"ce4bhmp2rcd13ifvqgog","pricing_plan_id":"cebpf4jnsgd1na2vs0mg"},{"bike_id":"83965907-b669-4839-a59b-8cfd91167106","system_id":"levelo_inurba_marseille","lat":43.21752,"lon":5.346003,"is_reserved":false,"is_disabled":false,"rental_uris":{"android":"levelo://app?vid=83965907-b669-4839-a59b-8cfd91167106","ios":"levelo://app?vid=83965907-b669-4839-a59b-8cfd91167106"},"vehicle_type_id":"4","last_reported":1748265724,"current_range_meters":18800,"station_id":"st_cvj6r9ubvosntc0bgbag","pricing_plan_id":"cebpf4jnsgd1na2vs0mg"},{"bike_id":"7af804ec-76c7-4d96-b7f5-d1606a6f290d","system_id":"levelo_inurba_marseille","lat":43.28942,"lon":5.39626,"is_reserved":false,"is_disabled":false,"rental_uris":{"android":"levelo://app?vid=7af804ec-76c7-4d96-b7f5-d1606a6f290d","ios":"levelo://app?vid=7af804ec-76c7-4d96-b7f5-d1606a6f290d"},"vehicle_type_id":"4","last_reported":1748265724,"current_range_meters":19200,"station_id":"ce4bh3h2rcd13ifvqdn0","pricing_plan_id":"cebpf4jnsgd1na2vs0mg"},{"bike_id":"f9130174-d978-4b13-896d-865b3cacb573","system_id":"levelo_inurba_marseille","lat":43.27385,"lon":5.36259,"is_reserved":false,"is_disabled":false,"rental_uris":{"android":"levelo://app?vid=f9130174-d978-4b13-896d-865b3cacb573","ios":"levelo://app?vid=f9130174-d978-4b13-896d-865b3cacb573"},"vehicle_type_id":"4","last_reported":1748265724,"current_range_meters":19200,"station_id":"ce4bhbh2rcd13ifvqeo0","pricing_plan_id":"cebpf4jnsgd1na2vs0mg"},{"bike_id":"961b33ab-143e-4b91-920a-82a2a409e2b5","system_id":"levelo_inurba_marseille","lat":43.28429,"lon":5.34997,"is_reserved":false,"is_disabled":false,"rental_uris":{"android":"levelo://app?vid=961b33ab-143e-4b91-920a-82a2a409e2b5","ios":"levelo://app?vid=961b33ab-143e-4b91-920a-82a2a409e2b5"},"vehicle_type_id":"4","last_reported":1748265724,"current_range_meters":19200,"station_id":"ce4bhbh2rcd13ifvqepg","pricing_plan_id":"cebpf4jnsgd1na2vs0mg"},{"bike_id":"f54793c6-cdec-4b60-8813-3e78d1da90ea","system_id":"levelo_inurba_marseille","lat":43.32474,"lon":5.36571,"is_reserved":false,"is_disabled":false,"rental_uris":{"android":"levelo://app?vid=f54793c6-cdec-4b60-8813-3e78d1da90ea","ios":"levelo://app?vid=f54793c6-cdec-4b60-8813-3e78d1da90ea"},"vehicle_type_id":"4","last_reported":1748265724,"current_range_meters":19200,"station_id":"ce4bhs12rcd13ifvqhvg","pricing_plan_id":"cebpf4jnsgd1na2vs0mg"},{"bike_id":"239f00da-535c-4944-b30e-04aa8fe9acf5","system_id":"levelo_inurba_marseille","lat":43.24172,"lon":5.36405,"is_reserved":false,"is_disabled":false,"rental_uris":{"android":"levelo://app?vid=239f00da-535c-4944-b30e-04aa8fe9acf5","ios":"levelo://app?vid=239f00da-535c-4944-b30e-04aa8fe9acf5"},"vehicle_type_id":"4","last_reported":1748265724,"current_range_meters":19200,"station_id":"cpo36qri1sfpv3e86is0","pricing_plan_id":"cebpf4jnsgd1na2vs0mg"},{"bike_id":"f16dc6e2-3805-43ed-a326-906169747416","system_id":"levelo_inurba_marseille","lat":43.217569,"lon":5.345988,"is_reserved":false,"is_disabled":false,"rental_uris":{"android":"levelo://app?vid=f16dc6e2-3805-43ed-a326-906169747416","ios":"levelo://app?vid=f16dc6e2-3805-43ed-a326-906169747416"},"vehicle_type_id":"4","last_reported":1748265724,"current_range_meters":19200,"station_id":"st_cvj6r9ubvosntc0bgbag","pricing_plan_id":"cebpf4jnsgd1na2vs0mg"},{"bike_id":"6fb588ac-fa8b-4f43-b391-1b5f64f9a1c6","system_id":"levelo_inurba_marseille","lat":43.31231,"lon":5.36842,"is_reserved":false,"is_disabled":false,"rental_uris":{"android":"levelo://app?vid=6fb588ac-fa8b-4f43-b391-1b5f64f9a1c6","ios":"levelo://app?vid=6fb588ac-fa8b-4f43-b391-1b5f64f9a1c6"},"vehicle_type_id":"4","last_reported":1748265724,"current_range_meters":19600,"station_id":"ce4bgl92rcd13ifvqbq0","pricing_plan_id":"cebpf4jnsgd1na2vs0mg"},{"bike_id":"1a046529-5319-4303-9e56-fe5060db785d","system_id":"levelo_inurba_marseille","lat":43.30597,"lon":5.3936,"is_reserved":false,"is_disabled":false,"rental_uris":{"android":"levelo://app?vid=1a046529-5319-4303-9e56-fe5060db785d","ios":"levelo://app?vid=1a046529-5319-4303-9e56-fe5060db785d"},"vehicle_type_id":"4","last_reported":1748265724,"current_range_meters":19600,"station_id":"ce4bh0p2rcd13ifvqd80","pricing_plan_id":"cebpf4jnsgd1na2vs0mg"},{"bike_id":"3be26996-e0bc-42b9-8371-d9d9f2621cbb","system_id":"levelo_inurba_marseille","lat":43.28464,"lon":5.35874,"is_reserved":false,"is_disabled":false,"rental_uris":{"android":"levelo://app?vid=3be26996-e0bc-42b9-8371-d9d9f2621cbb","ios":"levelo://app?vid=3be26996-e0bc-42b9-8371-d9d9f2621cbb"},