{"last_updated":1737219970,"ttl":60,"version":"2.2","data":{"bikes":[{"bike_id":"f089c14f-035e-4384-ab39-ffbc4052a9a8","system_id":"levelo_inurba_marseille","lat":43.31085,"lon":5.42432,"is_reserved":false,"is_disabled":false,"rental_uris":{"android":"levelo://app?vid=f089c14f-035e-4384-ab39-ffbc4052a9a8","ios":"levelo://app?vid=f089c14f-035e-4384-ab39-ffbc4052a9a8"},"vehicle_type_id":"4","last_reported":1737219970,"current_range_meters":28000,"station_id":"ce4bhp92rcd13ifvqhag","pricing_plan_id":"cebpf4jnsgd1na2vs0mg"},{"bike_id":"6546dee9-d38f-4171-a07d-c255cc5fb27e","system_id":"levelo_inurba_marseille","lat":43.25111,"lon":5.40303,"is_reserved":false,"is_disabled":false,"rental_uris":{"android":"levelo://app?vid=6546dee9-d38f-4171-a07d-c255cc5fb27e","ios":"levelo://app?vid=6546dee9-d38f-4171-a07d-c255cc5fb27e"},"vehicle_type_id":"4","last_reported":1737219970,"current_range_meters":28400,"station_id":"ce4bhlh2rcd13ifvqgig","pricing_plan_id":"cebpf4jnsgd1na2vs0mg"},{"bike_id":"afbd402b-f228-467c-9014-d1c220bfa174","system_id":"levelo_inurba_marseille","lat":43.29224,"lon":5.36048,"is_reserved":false,"is_disabled":false,"rental_uris":{"android":"levelo://app?vid=afbd402b-f228-467c-9014-d1c220bfa174","ios":"levelo://app?vid=afbd402b-f228-467c-9014-d1c220bfa174"},"vehicle_type_id":"4","last_reported":1737219970,"current_range_meters":37600,"station_id":"ce4bhbh2rcd13ifvqeqg","pricing_plan_id":"cebpf4jnsgd1na2vs0mg"},{"bike_id":"51e59fa0-9fe6-48ae-a362-95064659b3f1","system_id":"levelo_inurba_marseille","lat":43.29692,"lon":5.37316,"is_reserved":false,"is_disabled":false,"rental_uris":{"android":"levelo://app?vid=51e59fa0-9fe6-48ae-a362-95064659b3f1","ios":"levelo://app?vid=51e59fa0-9fe6-48ae-a362-95064659b3f1"},"vehicle_type_id":"4","last_reported":1737219970,"current_range_meters":38800,"station_id":"ce4bgk12rcd13ifvqbj0","pricing_plan_id":"cebpf4jnsgd1na2vs0mg"},{"bike_id":"4aa1d8a2-d3a5-479a-8113-ca88a7c203ac","system_id":"levelo_inurba_marseille","lat":43.28455,"lon":5.35892,"is_reserved":false,"is_disabled":false,"rental_uris":{"android":"levelo://app?vid=4aa1d8a2-d3a5-479a-8113-ca88a7c203ac","ios":"levelo://app?vid=4aa1d8a2-d3a5-479a-8113-ca88a7c203ac"},"vehicle_type_id":"4","last_reported":1737219970,"current_range_meters":38800,"station_id":"ce4bhah2rcd13ifvqei0","pricing_plan_id":"cebpf4jnsgd1na2vs0mg"},{"bike_id":"02ce3e8e-6ef8-48e8-8e39-50ed964e3fb8","system_id":"levelo_inurba_marseille","lat":43.29416,"lon":5.39404,"is_reserved":false,"is_disabled":true,"rental_uris":{"android":"levelo://app?vid=02ce3e8e-6ef8-48e8-8e39-50ed964e3fb8","ios":"levelo://app?vid=02ce3e8e-6ef8-48e8-8e39-50ed964e3fb8"},"vehicle_type_id":"4","last_reported":1737219970,"current_range_meters":0,"station_id":"","pricing_plan_id":"cebpf4jnsgd1na2vs0mg"},{"bike_id":"1e61d659-1f98-4d25-8b26-33fe06c8f02d","system_id":"levelo_inurba_marseille","lat":43.29537,"lon":5.375,"is_reserved":false,"is_disabled":false,"rental_uris":{"android":"levelo://app?vid=1e61d659-1f98-4d25-8b26-33fe06c8f02d","ios":"levelo://app?vid=1e61d659-1f98-4d25-8b26-33fe06c8f02d"},"vehicle_type_id":"4","last_reported":1737219970,"current_range_meters":13600,"station_id":"ce4bgkp2rcd13ifvqbmg","pricing_plan_id":"cebpf4jnsgd1na2vs0mg"},{"bike_id":"8c95442a-0233-4b6b-97b8-ad9279164dc4","system_id":"levelo_inurba_marseille","lat":43.26777,"lon":5.39412,"is_reserved":false,"is_disabled":false,"rental_uris":{"android":"levelo://app?vid=8c95442a-0233-4b6b-97b8-ad9279164dc4","ios":"levelo://app?vid=8c95442a-0233-4b6b-97b8-ad9279164dc4"},"vehicle_type_id":"4","last_reported":1737219970,"current_range_meters":30800,"station_id":"ce4bhh12rcd13ifvqfg0","pricing_plan_id":"cebpf4jnsgd1na2vs0mg"},{"bike_id":"763ed4fc-16fd-47a0-aedf-62c028daa66f","system_id":"levelo_inurba_marseille","lat":43.363957,"lon":5.355881,"is_reserved":false,"is_disabled":false,"rental_uris":{"android":"levelo://app?vid=763ed4fc-16fd-47a0-aedf-62c028daa66f","ios":"levelo://app?vid=763ed4fc-16fd-47a0-aedf-62c028daa66f"},"vehicle_type_id":"4","last_reported":1737219970,"current_range_meters":18000,"station_id":"","pricing_plan_id":"cebpf4jnsgd1na2vs0mg"},{"bike_id":"23af0b39-e151-454d-95df-fe8caca6e2f7","system_id":"levelo_inurba_marseille","lat":43.3091,"lon":5.36839,"is_reserved":false,"is_disabled":false,"rental_uris":{"android":"levelo://app?vid=23af0b39-e151-454d-95df-fe8caca6e2f7","ios":"levelo://app?vid=23af0b39-e151-454d-95df-fe8caca6e2f7"},"vehicle_type_id":"4","last_reported":1737219970,"current_range_meters":38000,"station_id":"ce4bgn92rcd13ifvqbvg","pricing_plan_id":"cebpf4jnsgd1na2vs0mg"},{"bike_id":"b42d349b-8767-4500-922c-77c53d2c4648","system_id":"levelo_inurba_marseille","lat":43.26061,"lon":5.39401,"is_reserved":false,"is_disabled":false,"rental_uris":{"android":"levelo://app?vid=b42d349b-8767-4500-922c-77c53d2c4648","ios":"levelo://app?vid=b42d349b-8767-4500-922c-77c53d2c4648"},"vehicle_type_id":"4","last_reported":1737219970,"current_range_meters":22000,"station_id":"ce4bhh92rcd13ifvqfj0","pricing_plan_id":"cebpf4jnsgd1na2vs0mg"},{"bike_id":"fc697a46-0d19-4146-ae76-c84bf483ae89","system_id":"levelo_inurba_marseille","lat":43.26056,"lon":5.3939,"is_reserved":false,"is_disabled":false,"rental_uris":{"android":"levelo://app?vid=fc697a46-0d19-4146-ae76-c84bf483ae89","ios":"levelo://app?vid=fc697a46-0d19-4146-ae76-c84bf483ae89"},"vehicle_type_id":"4","last_reported":1737219970,"current_range_meters":36000,"station_id":"ce4bhh92rcd13ifvqfj0","pricing_plan_id":"cebpf4jnsgd1na2vs0mg"},{"bike_id":"1839ab79-8d1b-4d0e-861a-85d4f32184dc","system_id":"levelo_inurba_marseille","lat":43.27369,"lon":5.3624,"is_reserved":false,"is_disabled":false,"rental_uris":{"android":"levelo://app?vid=1839ab79-8d1b-4d0e-861a-85d4f32184dc","ios":"levelo://app?vid=1839ab79-8d1b-4d0e-861a-85d4f32184dc"},"vehicle_type_id":"4","last_reported":1737219970,"current_range_meters":26000,"station_id":"ce4bhbh2rcd13ifvqeo0","pricing_plan_id":"cebpf4jnsgd1na2vs0mg"},{"bike_id":"f3c94274-f861-4c89-8bb1-1ebe1a531935","system_id":"levelo_inurba_marseille","lat":43.25026,"lon":5.38919,"is_reserved":false,"is_disabled":false,"rental_uris":{"android":"levelo://app?vid=f3c94274-f861-4c89-8bb1-1ebe1a531935","ios":"levelo://app?vid=f3c94274-f861-4c89-8bb1-1ebe1a531935"},"vehicle_type_id":"4","last_reported":1737219970,"current_range_meters":38800,"station_id":"ce4bhgp2rcd13ifvqfd0","pricing_plan_id":"cebpf4jnsgd1na2vs0mg"},{"bike_id":"32cd475a-2c84-465c-8d2c-111bc364cef1","system_id":"levelo_inurba_marseille","lat":43.3055,"lon":5.36685,"is_reserved":false,"is_disabled":false,"rental_uris":{"android":"levelo://app?vid=32cd475a-2c84-465c-8d2c-111bc364cef1","ios":"levelo://app?vid=32cd475a-2c84-465c-8d2c-111bc364cef1"},"vehicle_type_id":"4","last_reported":1737219970,"current_range_meters":31200,"station_id":"ce4bgrp2rcd13ifvqc9g","pricing_plan_id":"cebpf4jnsgd1na2vs0mg"},{"bike_id":"ea820ade-d81d-428e-82b9-7f165f7e8e75","system_id":"levelo_inurba_marseille","lat":43.32366,"lon":5.36771,"is_reserved":false,"is_disabled":false,"rental_uris":{"android":"levelo://app?vid=ea820ade-d81d-428e-82b9-7f165f7e8e75","ios":"levelo://app?vid=ea820ade-d81d-428e-82b9-7f165f7e8e75"},"vehicle_type_id":"4","last_reported":1737219970,"current_range_meters":22000,"station_id":"ce4bhsh2rcd13ifvqi2g","pricing_plan_id":"cebpf4jnsgd1na2vs0mg"},{"bike_id":"c29020e0-83ef-4b06-ac4f-c4422257f84a","system_id":"levelo_inurba_marseille","lat":43.36386,"lon":5.35637,"is_reserved":false,"is_disabled":false,"rental_uris":{"android":"levelo://app?vid=c29020e0-83ef-4b06-ac4f-c4422257f84a","ios":"levelo://app?vid=c29020e0-83ef-4b06-ac4f-c4422257f84a"},"vehicle_type_id":"4","last_reported":1737219970,"current_range_meters":23200,"station_id":"","pricing_plan_id":"cebpf4jnsgd1na2vs0mg"},{"bike_id":"234a24b2-67f4-470b-a11a-a7b60b2f1f3e","system_id":"levelo_inurba_marseille","lat":43.29226,"lon":5.36064,"is_reserved":false,"is_disabled":false,"rental_uris":{"android":"levelo://app?vid=234a24b2-67f4-470b-a11a-a7b60b2f1f3e","ios":"levelo://app?vid=234a24b2-67f4-470b-a11a-a7b60b2f1f3e"},"vehicle_type_id":"4","last_reported":1737219970,"current_range_meters":32400,"station_id":"ce4bhbh2rcd13ifvqeqg","pricing_plan_id":"cebpf4jnsgd1na2vs0mg"},{"bike_id":"4d4ec566-516b-4793-a5be-68a8e0188dc4","system_id":"levelo_inurba_marseille","lat":43.3301,"lon":5.38962,"is_reserved":false,"is_disabled":false,"rental_uris":{"android":"levelo://app?vid=4d4ec566-516b-4793-a5be-68a8e0188dc4","ios":"levelo://app?vid=4d4ec566-516b-4793-a5be-68a8e0188dc4"},"vehicle_type_id":"4","last_reported":1737219970,"current_range_meters":27200,"station_id":"ce4bhr92rcd13ifvqhrg","pricing_plan_id":"cebpf4jnsgd1na2vs0mg"},{"bike_id":"b672b566-ae6e-4181-a2cb-0155be334a04","system_id":"levelo_inurba_marseille","lat":43.28963,"lon":5.36636,"is_reserved":false,"is_disabled":true,"rental_uris":{"android":"levelo://app?vid=b672b566-ae6e-4181-a2cb-0155be334a04","ios":"levelo://app?vid=b672b566-ae6e-4181-a2cb-0155be334a04"},"vehicle_type_id":"4","last_reported":1737219970,"current_range_meters":0,"station_id":"ce4bhap2rcd13ifvqek0","pricing_plan_id":"cebpf4jnsgd1na2vs0mg"},{"bike_id":"36a6ab60-3631-46d2-b602-e36f7128e263","system_id":"levelo_inurba_marseille","lat":43.28611,"lon":5.37077,"is_reserved":false,"is_disabled":false,"rental_uris":{"android":"levelo://app?vid=36a6ab60-3631-46d2-b602-e36f7128e263","ios":"levelo://app?vid=36a6ab60-3631-46d2-b602-e36f7128e263"},"vehicle_type_id":"4","last_reported":1737219970,"current_range_meters":20400,"station_id":"ce4bht12rcd13ifvqi60","pricing_plan_id":"cebpf4jnsgd1na2vs0mg"},{"bike_id":"6a52135b-ab95-40db-be90-910cc0c1e77c","system_id":"levelo_inurba_marseille","lat":43.29251,"lon":5.40909,"is_reserved":false,"is_disabled":false,"rental_uris":{"android":"levelo://app?vid=6a52135b-ab95-40db-be90-910cc0c1e77c","ios":"levelo://app?vid=6a52135b-ab95-40db-be90-910cc0c1e77c"},"vehicle_type_id":"4","last_reported":1737219970,"current_range_meters":32800,"station_id":"ce4bh192rcd13ifvqdc0","pricing_plan_id":"cebpf4jnsgd1na2vs0mg"},{"bike_id":"5778b679-4eb0-4492-ad3a-39326de69ccc","system_id":"levelo_inurba_marseille","lat":43.29196,"lon":5.35811,"is_reserved":false,"is_disabled":false,"rental_uris":{"android":"levelo://app?vid=5778b679-4eb0-4492-ad3a-39326de69ccc","ios":"levelo://app?vid=5778b679-4eb0-4492-ad3a-39326de69ccc"},"vehicle_type_id":"4","last_reported":1737219970,"current_range_meters":38400,"station_id":"ce4bhb12rcd13ifvqel0","pricing_plan_id":"cebpf4jnsgd1na2vs0mg"},{"bike_id":"1690ba2f-a90c-4ed8-b53c-f59932b9daca","system_id":"levelo_inurba_marseille","lat":43.27612,"lon":5.36126,"is_reserved":false,"is_disabled":true,"rental_uris":{"android":"levelo://app?vid=1690ba2f-a90c-4ed8-b53c-f59932b9daca","ios":"levelo://app?vid=1690ba2f-a90c-4ed8-b53c-f59932b9daca"},"vehicle_type_id":"4","last_reported":1737219970,"current_range_meters":0,"station_id":"ce4bgj92rcd13ifvqbe0","pricing_plan_id":"cebpf4jnsgd1na2vs0mg"},{"bike_id":"438e0458-2838-43d1-8ad6-7b85da43231c","system_id":"levelo_inurba_marseille","lat":43.26802,"lon":5.40262,"is_reserved":false,"is_disabled":false,"rental_uris":{"android":"levelo://app?vid=438e0458-2838-43d1-8ad6-7b85da43231c","ios":"levelo://app?vid=438e0458-2838-43d1-8ad6-7b85da43231c"},"vehicle_type_id":"4","last_reported":1737219970,"current_range_meters":38000,"station_id":"ce501612rcd8frsf0b60","pricing_plan_id":"cebpf4jnsgd1na2vs0mg"},{"bike_id":"6767abdc-3c6a-42d0-9e7b-2128533c47af","system_id":"levelo_inurba_marseille","lat":43.29044,"lon":5.38145,"is_reserved":false,"is_disabled":false,"rental_uris":{"android":"levelo://app?vid=6767abdc-3c6a-42d0-9e7b-2128533c47af","ios":"levelo://app?vid=6767abdc-3c6a-42d0-9e7b-2128533c47af"},"vehicle_type_id":"4","last_reported":1737219970,"current_range_meters":38800,"station_id":"ce4bh4p2rcd13ifvqe1g","pricing_plan_id":"cebpf4jnsgd1na2vs0mg"},{"bike_id":"e278c6f8-dda6-47fd-b240-5f45ee563423","system_id":"levelo_inurba_marseille","lat":43.30602,"lon":5.37221,"is_reserved":false,"is_disabled":false,"rental_uris":{"android":"levelo://app?vid=e278c6f8-dda6-47fd-b240-5f45ee563423","ios":"levelo://app?vid=e278c6f8-dda6-47fd-b240-5f45ee563423"},"vehicle_type_id":"4","last_reported":1737219970,"current_range_meters":38800,"station_id":"ce4bgqh2rcd13ifvqc4g","pricing_plan_id":"cebpf4jnsgd1na2vs0mg"},{"bike_id":"31a98fb4-ec8e-4f3e-9363-3f49a6908b29","system_id":"levelo_inurba_marseille","lat":43.28422,"lon":5.34972,"is_reserved":false,"is_disabled":false,"rental_uris":{"android":"levelo://app?vid=31a98fb4-ec8e-4f3e-9363-3f49a6908b29","ios":"levelo://app?vid=31a98fb4-ec8e-4f3e-9363-3f49a6908b29"},"vehicle_type_id":"4","last_reported":1737219970,"current_range_meters":10000,"station_id":"ce4bhbh2rcd13ifvqepg","pricing_plan_id":"cebpf4jnsgd1na2vs0mg"},{"bike_id":"b2f230c8-596c-4a2f-b6fa-3bd736261184","system_id":"levelo_inurba_marseille","lat":43.2837,"lon":5.3864,"is_reserved":false,"is_disabled":false,"rental_uris":{"android":"levelo://app?vid=b2f230c8-596c-4a2f-b6fa-3bd736261184","ios":"levelo://app?vid=b2f230c8-596c-4a2f-b6fa-3bd736261184"},"vehicle_type_id":"4","last_reported":1737219970,"current_range_meters":38000,"station_id":"ce4bh492rcd13ifvqdvg","pricing_plan_id":"cebpf4jnsgd1na2vs0mg"},{"bike_id":"1477df1e-7f90-456f-83d3-515b3688ceeb","system_id":"levelo_inurba_marseille","lat":43.2592,"lon":5.409,"is_reserved":false,"is_disabled":false,"rental_uris":{"android":"levelo://app?vid=1477df1e-7f90-456f-83d3-515b3688ceeb","ios":"levelo://app?vid=1477df1e-7f90-456f-83d3-515b3688ceeb"},"vehicle_type_id":"4","last_reported":1737219970,"current_range_meters":7200,"station_id":"ce4bhm92rcd13ifvqglg","pricing_plan_id":"cebpf4jnsgd1na2vs0mg"},{"bike_id":"d29af229-fdab-4476-a5c9-7a87c6aac14e","system_id":"levelo_inurba_marseille","lat":43.25934,"lon":5.40906,"is_reserved":false,"is_disabled":false,"rental_uris":{"android":"levelo://app?vid=d29af229-fdab-4476-a5c9-7a87c6aac14e","ios":"levelo://app?vid=d29af229-fdab-4476-a5c9-7a87c6aac14e"},"vehicle_type_id":"4","last_reported":1737219970,"current_range_meters":11600,"station_id":"ce4bhm92rcd13ifvqglg","pricing_plan_id":"cebpf4jnsgd1na2vs0mg"},{"bike_id":"443d51ab-f548-45a3-b591-3bf2e4ceee64","system_id":"levelo_inurba_marseille","lat":43.29626,"lon":5.40601,"is_reserved":false,"is_disabled":false,"rental_uris":{"android":"levelo://app?vid=443d51ab-f548-45a3-b591-3bf2e4ceee64","ios":"levelo://app?vid=443d51ab-f548-45a3-b591-3bf2e4ceee64"},"vehicle_type_id":"4","last_reported":1737219970,"current_range_meters":11200,"station_id":"ce4bh0h2rcd13ifvqd60","pricing_plan_id":"cebpf4jnsgd1na2vs0mg"},{"bike_id":"62b83982-25a3-4d28-9fc6-fa36665355dc","system_id":"levelo_inurba_marseille","lat":43.33479,"lon":5.41034,"is_reserved":false,"is_disabled":false,"rental_uris":{"android":"levelo://app?vid=62b83982-25a3-4d28-9fc6-fa36665355dc","ios":"levelo://app?vid=62b83982-25a3-4d28-9fc6-fa36665355dc"},"vehicle_type_id":"4","last_reported":1737219970,"current_range_meters":37600,"station_id":"","pricing_plan_id":"cebpf4jnsgd1na2vs0mg"},{"bike_id":"04f8d329-ad72-437f-869b-499e14f5d9b5","system_id":"levelo_inurba_marseille","lat":43.32028,"lon":5.41564,"is_reserved":false,"is_disabled":true,"rental_uris":{"android":"levelo://app?vid=04f8d329-ad72-437f-869b-499e14f5d9b5","ios":"levelo://app?vid=04f8d329-ad72-437f-869b-499e14f5d9b5"},"vehicle_type_id":"4","last_reported":1737219970,"current_range_meters":800,"station_id":"ce4bhq92rcd13ifvqhkg","pricing_plan_id":"cebpf4jnsgd1na2vs0mg"},{"bike_id":"06e0ceb1-9315-4f04-bab2-3144835ffdae","system_id":"levelo_inurba_marseille","lat":43.29538,"lon":5.38544,"is_reserved":false,"is_disabled":false,"rental_uris":{"android":"levelo://app?vid=06e0ceb1-9315-4f04-bab2-3144835ffdae","ios":"levelo://app?vid=06e0ceb1-9315-4f04-bab2-3144835ffdae"},"vehicle_type_id":"4","last_reported":1737219970,"current_range_meters":38000,"station_id":"ce4bgih2rcd13ifvqba0","pricing_plan_id":"cebpf4jnsgd1na2vs0mg"},{"bike_id":"3da460c2-fe0a-414d-be79-f4279f85849e","system_id":"levelo_inurba_marseille","lat":43.28943,"lon":5.36389,"is_reserved":false,"is_disabled":false,"rental_uris":{"android":"levelo://app?vid=3da460c2-fe0a-414d-be79-f4279f85849e","ios":"levelo://app?vid=3da460c2-fe0a-414d-be79-f4279f85849e"},"vehicle_type_id":"4","last_reported":1737219970,"current_range_meters":35600,"station_id":"ce4bhc92rcd13ifvqetg","pricing_plan_id":"cebpf4jnsgd1na2vs0mg"},{"bike_id":"1fc76c2d-ba4e-4613-95ef-6a8e4ed9436f","system_id":"levelo_inurba_marseille","lat":43.2936,"lon":5.3787,"is_reserved":false,"is_disabled":false,"rental_uris":{"android":"levelo://app?vid=1fc76c2d-ba4e-4613-95ef-6a8e4ed9436f","ios":"levelo://app?vid=1fc76c2d-ba4e-4613-95ef-6a8e4ed9436f"},"vehicle_type_id":"4","last_reported":1737219970,"current_range_meters":32000,"station_id":"ce4bgjh2rcd13ifvqbf0","pricing_plan_id":"cebpf4jnsgd1na2vs0mg"},{"bike_id":"0c28aac3-e9a9-4f9a-8bfe-88eebc0edcb5","system_id":"levelo_inurba_marseille","lat":43.30308,"lon":5.36888,"is_reserved":false,"is_disabled":false,"rental_uris":{"android":"levelo://app?vid=0c28aac3-e9a9-4f9a-8bfe-88eebc0edcb5","ios":"levelo://app?vid=0c28aac3-e9a9-4f9a-8bfe-88eebc0edcb5"},"vehicle_type_id":"4","last_reported":1737219970,"current_range_meters":38800,"station_id":"ce4bgqh2rcd13ifvqc5g","pricing_plan_id":"cebpf4jnsgd1na2vs0mg"},{"bike_id":"8a608384-ab5c-4a21-8dfe-369c1a566b2b","system_id":"levelo_inurba_marseille","lat":43.28454,"lon":5.35891,"is_reserved":false,"is_disabled":false,"rental_uris":{"android":"levelo://app?vid=8a608384-ab5c-4a21-8dfe-369c1a566b2b","ios":"levelo://app?vid=8a608384-ab5c-4a21-8dfe-369c1a566b2b"},"vehicle_type_id":"4","last_reported":1737219970,"current_range_meters":37600,"station_id":"ce4bhah2rcd13ifvqei0","pricing_plan_id":"cebpf4jnsgd1na2vs0mg"},{"bike_id":"5228f23d-a3eb-4553-947e-5d4262a082b9","system_id":"levelo_inurba_marseille","lat":43.2928,"lon":5.36845,"is_reserved":false,"is_disabled":false,"rental_uris":{"android":"levelo://app?vid=5228f23d-a3eb-4553-947e-5d4262a082b9","ios":"levelo://app?vid=5228f23d-a3eb-4553-947e-5d4262a082b9"},"vehicle_type_id":"4","last_reported":1737219970,"current_range_meters":36000,"station_id":"ce4bhbp2rcd13ifvqesg","pricing_plan_id":"cebpf4jnsgd1na2vs0mg"},{"bike_id":"ca8aa51d-4833-4c77-8009-59b7c07323a3","system_id":"levelo_inurba_marseille","lat":43.32377,"lon":5.36774,"is_reserved":false,"is_disabled":false,"rental_uris":{"android":"levelo://app?vid=ca8aa51d-4833-4c77-8009-59b7c07323a3","ios":"levelo://app?vid=ca8aa51d-4833-4c77-8009-59b7c07323a3"},"vehicle_type_id":"4","last_reported":1737219970,"current_range_meters":9600,"station_id":"ce4bhsh2rcd13ifvqi2g","pricing_plan_id":"cebpf4jnsgd1na2vs0mg"},{"bike_id":"831a965d-7c8c-4252-8bd2-577b336f8919","system_id":"levelo_inurba_marseille","lat":43.2817,"lon":5.42654,"is_reserved":false,"is_disabled":false,"rental_uris":{"android":"levelo://app?vid=831a965d-7c8c-4252-8bd2-577b336f8919","ios":"levelo://app?vid=831a965d-7c8c-4252-8bd2-577b336f8919"},"vehicle_type_id":"4","last_reported":1737219970,"current_range_meters":21600,"station_id":"ce4bhnh2rcd13ifvqgug","pricing_plan_id":"cebpf4jnsgd1na2vs0mg"},{"bike_id":"97edeeae-2127-4e9e-8516-d4b987b6690e","system_id":"levelo_inurba_marseille","lat":43.29917,"lon":5.38144,"is_reserved":false,"is_disabled":false,"rental_uris":{"android":"levelo://app?vid=97edeeae-2127-4e9e-8516-d4b987b6690e","ios":"levelo://app?vid=97edeeae-2127-4e9e-8516-d4b987b6690e"},"vehicle_type_id":"4","last_reported":1737219970,"current_range_meters":8000,"station_id":"ce4bgj12rcd13ifvqbc0","pricing_plan_id":"cebpf4jnsgd1na2vs0mg"},{"bike_id":"83b66815-9e69-4f46-bab2-4a39d74af732","system_id":"levelo_inurba_marseille","lat":43.31217,"lon":5.3686,"is_reserved":false,"is_disabled":false,"rental_uris":{"android":"levelo://app?vid=83b66815-9e69-4f46-bab2-4a39d74af732","ios":"levelo://app?vid=83b66815-9e69-4f46-bab2-4a39d74af732"},"vehicle_type_id":"4","last_reported":1737219970,"current_range_meters":14400,"station_id":"ce4bgl92rcd13ifvqbq0","pricing_plan_id":"cebpf4jnsgd1na2vs0mg"},{"bike_id":"0ba3d2f2-41a1-4ee5-b211-d0e30b248950","system_id":"levelo_inurba_marseille","lat":43.29365,"lon":5.37828,"is_reserved":false,"is_disabled":false,"rental_uris":{"android":"levelo://app?vid=0ba3d2f2-41a1-4ee5-b211-d0e30b248950","ios":"levelo://app?vid=0ba3d2f2-41a1-4ee5-b211-d0e30b248950"},"vehicle_type_id":"4","last_reported":1737219970,"current_range_meters":7200,"station_id":"ce4bgjh2rcd13ifvqbf0","pricing_plan_id":"cebpf4jnsgd1na2vs0mg"},{"bike_id":"57d9fa47-e597-4ea4-913f-9b45079bd718","system_id":"levelo_inurba_marseille","lat":43.33027,"lon":5.39043,"is_reserved":false,"is_disabled":false,"rental_uris":{"android":"levelo://app?vid=57d9fa47-e597-4ea4-913f-9b45079bd718","ios":"levelo://app?vid=57d9fa47-e597-4ea4-913f-9b45079bd718"},"vehicle_type_id":"4","last_reported":1737219970,"current_range_meters":11200,"station_id":"ce4bhr92rcd13ifvqhrg","pricing_plan_id":"cebpf4jnsgd1na2vs0mg"},{"bike_id":"50c70262-dbb4-4b61-88f4-99876f32b530","system_id":"levelo_inurba_marseille","lat":43.29419,"lon":5.38627,"is_reserved":false,"is_disabled":false,"rental_uris":{"android":"levelo://app?vid=50c70262-dbb4-4b61-88f4-99876f32b530","ios":"levelo://app?vid=50c70262-dbb4-4b61-88f4-99876f32b530"},"vehicle_type_id":"4","last_reported":1737219970,"current_range_meters":32000,"station_id":"ce4bh2h2rcd13ifvqdh0","pricing_plan_id":"cebpf4jnsgd1na2vs0mg"},{"bike_id":"70c24921-dd69-4638-810c-b7f8cf584516","system_id":"levelo_inurba_marseille","lat":43.24067,"lon":5.37741,"is_reserved":false,"is_disabled":false,"rental_uris":{"android":"levelo://app?vid=70c24921-dd69-4638-810c-b7f8cf584516","ios":"levelo://app?vid=70c24921-dd69-4638-810c-b7f8cf584516"},"vehicle_type_id":"4","last_reported":1737219970,"current_range_meters":38800,"station_id":"ce4bhnp2rcd13ifvqgvg","pricing_plan_id":"cebpf4jnsgd1na2vs0mg"},{"bike_id":"8a2eed7c-5bdf-485e-916f-ad7cee056fda","system_id":"levelo_inurba_marseille","lat":43.28932,"lon":5.38383,"is_reserved":false,"is_disabled":false,"rental_uris":{"android":"levelo://app?vid=8a2eed7c-5bdf-485e-916f-ad7cee056fda","ios":"levelo://app?vid=8a2eed7c-5bdf-485e-916f-ad7cee056fda"},"vehicle_type_id":"4","last_reported":1737219970,"current_range_meters":10800,"station_id":"ce4bh612rcd13ifvqe6g","pricing_plan_id":"cebpf4jnsgd1na2vs0mg"},{"bike_id":"220390ed-c10a-4d93-90e7-5563169ac42a","system_id":"levelo_inurba_marseille","lat":43.24176,"lon":5.39725,"is_reserved":false,"is_disabled":false,"rental_uris":{"android":"levelo://app?vid=220390ed-c10a-4d93-90e7-5563169ac42a","ios":"levelo://app?vid=220390ed-c10a-4d93-90e7-5563169ac42a"},"vehicle_type_id":"4","last_reported":1737219970,"current_range_meters":38800,"station_id":"ce4bhn12rcd13ifvqgpg","pricing_plan_id":"cebpf4jnsgd1na2vs0mg"},{"bike_id":"50f9b14e-56ea-495a-af38-786fb7d70a12","system_id":"levelo_inurba_marseille","lat":43.23194,"lon":5.35554,"is_reserved":false,"is_disabled":false,"rental_uris":{"android":"levelo://app?vid=50f9b14e-56ea-495a-af38-786fb7d70a12","ios":"levelo://app?vid=50f9b14e-56ea-495a-af38-786fb7d70a12"},"vehicle_type_id":"4","last_reported":1737219970,"current_range_meters":38000,"station_id":"ce4bhu92rcd13ifvqi70","pricing_plan_id":"cebpf4jnsgd1na2vs0mg"},{"bike_id":"1a0b8875-7ba7-4b98-b1b9-61bff1b5b224","system_id":"levelo_inurba_marseille","lat":43.30597,"lon":5.39354,"is_reserved":false,"is_disabled":false,"rental_uris":{"android":"levelo://app?vid=1a0b8875-7ba7-4b98-b1b9-61bff1b5b224","ios":"levelo://app?vid=1a0b8875-7ba7-4b98-b1b9-61bff1b5b224"},"vehicle_type_id":"4","last_reported":1737219970,"current_range_meters":9200,"station_id":"ce4bh0p2rcd13ifvqd80","pricing_plan_id":"cebpf4jnsgd1na2vs0mg"},{"bike_id":"4104cbba-088f-4383-b2a0-261d17699731","system_id":"levelo_inurba_marseille","lat":43.23965,"lon":5.36635,"is_reserved":false,"is_disabled":true,"rental_uris":{"android":"levelo://app?vid=4104cbba-088f-4383-b2a0-261d17699731","ios":"levelo://app?vid=4104cbba-088f-4383-b2a0-261d17699731"},"vehicle_type_id":"4","last_reported":1737219970,"current_range_meters":1200,"station_id":"ce4bhi12rcd13ifvqfp0","pricing_plan_id":"cebpf4jnsgd1na2vs0mg"},{"bike_id":"616f06f9-7be6-4b8d-9f4b-237d76b666fd","system_id":"levelo_inurba_marseille","lat":43.23212,"lon":5.35524,"is_reserved":false,"is_disabled":false,"rental_uris":{"android":"levelo://app?vid=616f06f9-7be6-4b8d-9f4b-237d76b666fd","ios":"levelo://app?vid=616f06f9-7be6-4b8d-9f4b-237d76b666fd"},"vehicle_type_id":"4","last_reported":1737219970,"current_range_meters":9600,"station_id":"ce4bhu92rcd13ifvqi70","pricing_plan_id":"cebpf4jnsgd1na2vs0mg"},{"bike_id":"0aacbbb4-b4df-4112-9f3e-9c8b0c3a36b2","system_id":"levelo_inurba_marseille","lat":43.243927,"lon":5.370547,"is_reserved":false,"is_disabled":false,"rental_uris":{"android":"levelo://app?vid=0aacbbb4-b4df-4112-9f3e-9c8b0c3a36b2","ios":"levelo://app?vid=0aacbbb4-b4df-4112-9f3e-9c8b0c3a36b2"},"vehicle_type_id":"4","last_reported":1737219970,"current_range_meters":38800,"station_id":"ce4bhhh2rcd13ifvqfk0","pricing_plan_id":"cebpf4jnsgd1na2vs0mg"},{"bike_id":"881f5a56-0072-422c-a05d-eee833d8c733","system_id":"levelo_inurba_marseille","lat":43.33164,"lon":5.37838,"is_reserved":false,"is_disabled":false,"rental_uris":{"android":"levelo://app?vid=881f5a56-0072-422c-a05d-eee833d8c733","ios":"levelo://app?vid=881f5a56-0072-422c-a05d-eee833d8c733"},"vehicle_type_id":"4","last_reported":1737219970,"current_range_meters":38800,"station_id":"","pricing_plan_id":"cebpf4jnsgd1na2vs0mg"},{"bike_id":"84ef9472-69d1-4fed-b8a0-db64a30dae16","system_id":"levelo_inurba_marseille","lat":43.272,"lon":5.39168,"is_reserved":false,"is_disabled":true,"rental_uris":{"android":"levelo://app?vid=84ef9472-69d1-4fed-b8a0-db64a30dae16","ios":"levelo://app?vid=84ef9472-69d1-4fed-b8a0-db64a30dae16"},"vehicle_type_id":"4","last_reported":1737219970,"current_range_meters":400,"station_id":"ce4bhhp2rcd13ifvqfm0","pricing_plan_id":"cebpf4jnsgd1na2vs0mg"},{"bike_id":"a9d9ec1b-178a-494a-a891-d10e5fd899ec","system_id":"levelo_inurba_marseille","lat":43.23197,"lon":5.39981,"is_reserved":false,"is_disabled":false,"rental_uris":{"android":"levelo://app?vid=a9d9ec1b-178a-494a-a891-d10e5fd899ec","ios":"levelo://app?vid=a9d9ec1b-178a-494a-a891-d10e5fd899ec"},"vehicle_type_id":"4","last_reported":1737219970,"current_range_meters":38400,"station_id":"ce4bhn12rcd13ifvqgqg","pricing_plan_id":"cebpf4jnsgd1na2vs0mg"},{"bike_id":"909be7c8-acd4-49fd-b00f-f339fa4fe8de","system_id":"levelo_inurba_marseille","lat":43.30801,"lon":5.38157,"is_reserved":false,"is_disabled":true,"rental_uris":{"android":"levelo://app?vid=909be7c8-acd4-49fd-b00f-f339fa4fe8de","ios":"levelo://app?vid=909be7c8-acd4-49fd-b00f-f339fa4fe8de"},"vehicle_type_id":"4","last_reported":1737219970,"current_range_meters":0,"station_id":"ce4bgt12rcd13ifvqce0","pricing_plan_id":"cebpf4jnsgd1na2vs0mg"},{"bike_id":"2ad52ef0-8080-4104-a5d3-4ad6b83e9c6d","system_id":"levelo_inurba_marseille","lat":43.29534,"lon":5.39035,"is_reserved":false,"is_disabled":true,"rental_uris":{"android":"levelo://app?vid=2ad52ef0-8080-4104-a5d3-4ad6b83e9c6d","ios":"levelo://app?vid=2ad52ef0-8080-4104-a5d3-4ad6b83e9c6d"},"vehicle_type_id":"4","last_reported":1737219970,"current_range_meters":3600,"station_id":"ce4bh3p2rcd13ifvqdp0","pricing_plan_id":"cebpf4jnsgd1na2vs0mg"},{"bike_id":"30e3f870-838d-4cff-8812-f6acf6e88b21","system_id":"levelo_inurba_marseille","lat":43.29001,"lon":5.35616,"is_reserved":false,"is_disabled":false,"rental_uris":{"android":"levelo://app?vid=30e3f870-838d-4cff-8812-f6acf6e88b21","ios":"levelo://app?vid=30e3f870-838d-4cff-8812-f6acf6e88b21"},"vehicle_type_id":"4","last_reported":1737219970,"current_range_meters":38800,"station_id":"ce4bhb92rcd13ifvqen0","pricing_plan_id":"cebpf4jnsgd1na2vs0mg"},{"bike_id":"357eaeda-fef2-41f2-9ad0-621ae2cc5c09","system_id":"levelo_inurba_marseille","lat":43.33768,"lon":5.37496,"is_reserved":false,"is_disabled":false,"rental_uris":{"android":"levelo://app?vid=357eaeda-fef2-41f2-9ad0-621ae2cc5c09","ios":"levelo://app?vid=357eaeda-fef2-41f2-9ad0-621ae2cc5c09"},"vehicle_type_id":"4","last_reported":1737219970,"current_range_meters":30800,"station_id":"","pricing_plan_id":"cebpf4jnsgd1na2vs0mg"},{"bike_id":"24747ef3-c3b1-4bc4-b21e-7db78697d06a","system_id":"levelo_inurba_marseille","lat":43.30097,"lon":5.39089,"is_reserved":false,"is_disabled":false,"rental_uris":{"android":"levelo://app?vid=24747ef3-c3b1-4bc4-b21e-7db78697d06a","ios":"levelo://app?vid=24747ef3-c3b1-4bc4-b21e-7db78697d06a"},"vehicle_type_id":"4","last_reported":1737219970,"current_range_meters":34000,"station_id":"ce4bh192rcd13ifvqdb0","pricing_plan_id":"cebpf4jnsgd1na2vs0mg"},{"bike_id":"8e07cfb3-ad4f-40d1-9549-92d06ed6acd1","system_id":"levelo_inurba_marseille","lat":43.25117,"lon":5.40328,"is_reserved":false,"is_disabled":false,"rental_uris":{"android":"levelo://app?vid=8e07cfb3-ad4f-40d1-9549-92d06ed6acd1","ios":"levelo://app?vid=8e07cfb3-ad4f-40d1-9549-92d06ed6acd1"},"vehicle_type_id":"4","last_reported":1737219970,"current_range_meters":22400,"station_id":"ce4bhlh2rcd13ifvqgig","pricing_plan_id":"cebpf4jnsgd1na2vs0mg"},{"bike_id":"42e11a0e-7120-40e0-a919-504557655842","system_id":"levelo_inurba_marseille","lat":43.30302,"lon":5.39222,"is_reserved":false,"is_disabled":false,"rental_uris":{"android":"levelo://app?vid=42e11a0e-7120-40e0-a919-504557655842","ios":"levelo://app?vid=42e11a0e-7120-40e0-a919-504557655842"},"vehicle_type_id":"4","last_reported":1737219970,"current_range_meters":28800,"station_id":"ce4bgkh2rcd13ifvqbk0","pricing_plan_id":"cebpf4jnsgd1na2vs0mg"},{"bike_id":"1c792089-ee30-4f3b-b849-bbc8356461ce","system_id":"levelo_inurba_marseille","lat":43.27814,"lon":5.40723,"is_reserved":false,"is_disabled":false,"rental_uris":{"android":"levelo://app?vid=1c792089-ee30-4f3b-b849-bbc8356461ce","ios":"levelo://app?vid=1c792089-ee30-4f3b-b849-bbc8356461ce"},"vehicle_type_id":"4","last_reported":1737219970,"current_range_meters":16800,"station_id":"ce4bhnh2rcd13ifvqgtg","pricing_plan_id":"cebpf4jnsgd1na2vs0mg"},{"bike_id":"140fc8cf-4281-44e3-bae8-ed54dc40a31c","system_id":"levelo_inurba_marseille","lat":43.25919,"lon":5.4089,"is_reserved":false,"is_disabled":false,"rental_uris":{"android":"levelo://app?vid=140fc8cf-4281-44e3-bae8-ed54dc40a31c","ios":"levelo://app?vid=140fc8cf-4281-44e3-bae8-ed54dc40a31c"},"vehicle_type_id":"4","last_reported":1737219970,"current_range_meters":30000,"station_id":"ce4bhm92rcd13ifvqglg","pricing_plan_id":"cebpf4jnsgd1na2vs0mg"},{"bike_id":"01a07bd9-36a1-4c19-a88b-7c9e3a6ee490","system_id":"levelo_inurba_marseille","lat":43.2507,"lon":5.39535,"is_reserved":false,"is_disabled":false,"rental_uris":{"android":"levelo://app?vid=01a07bd9-36a1-4c19-a88b-7c9e3a6ee490","ios":"levelo://app?vid=01a07bd9-36a1-4c19-a88b-7c9e3a6ee490"},"vehicle_type_id":"4","last_reported":1737219970,"current_range_meters":36400,"station_id":"ce4bhm12rcd13ifvqgkg","pricing_plan_id":"cebpf4jnsgd1na2vs0mg"},{"bike_id":"b0b5b450-5055-4cf9-9abc-490d41233b4e","system_id":"levelo_inurba_marseille","lat":43.28704,"lon":5.3793,"is_reserved":false,"is_disabled":false,"rental_uris":{"android":"levelo://app?vid=b0b5b450-5055-4cf9-9abc-490d41233b4e","ios":"levelo://app?vid=b0b5b450-5055-4cf9-9abc-490d41233b4e"},"vehicle_type_id":"4","last_reported":1737219970,"current_range_meters":23200,"station_id":"ce4bh9p2rcd13ifvqec0","pricing_plan_id":"cebpf4jnsgd1na2vs0mg"},{"bike_id":"24d3b331-52fa-4564-a98e-732c1dea4a32","system_id":"levelo_inurba_marseille","lat":43.2749,"lon":5.42459,"is_reserved":false,"is_disabled":true,"rental_uris":{"android":"levelo://app?vid=24d3b331-52fa-4564-a98e-732c1dea4a32","ios":"levelo://app?vid=24d3b331-52fa-4564-a98e-732c1dea4a32"},"vehicle_type_id":"4","last_reported":1737219970,"current_range_meters":0,"station_id":"ce4bhn92rcd13ifvqgrg","pricing_plan_id":"cebpf4jnsgd1na2vs0mg"},{"bike_id":"9be957d2-26d1-49a4-9f85-b06ee3432064","system_id":"levelo_inurba_marseille","lat":43.33722,"lon":5.39191,"is_reserved":false,"is_disabled":false,"rental_uris":{"android":"levelo://app?vid=9be957d2-26d1-49a4-9f85-b06ee3432064","ios":"levelo://app?vid=9be957d2-26d1-49a4-9f85-b06ee3432064"},"vehicle_type_id":"4","last_reported":1737219970,"current_range_meters":26000,"station_id":"ce4bhr92rcd13ifvqhsg","pricing_plan_id":"cebpf4jnsgd1na2vs0mg"},{"bike_id":"bf9e5c57-b8c4-4db5-9575-52e5d03566ff","system_id":"levelo_inurba_marseille","lat":43.25084,"lon":5.39513,"is_reserved":false,"is_disabled":false,"rental_uris":{"android":"levelo://app?vid=bf9e5c57-b8c4-4db5-9575-52e5d03566ff","ios":"levelo://app?vid=bf9e5c57-b8c4-4db5-9575-52e5d03566ff"},"vehicle_type_id":"4","last_reported":1737219970,"current_range_meters":35200,"station_id":"ce4bhm12rcd13ifvqgkg","pricing_plan_id":"cebpf4jnsgd1na2vs0mg"},{"bike_id":"c82084a9-11ec-406b-a53a-7e844ce9a671","system_id":"levelo_inurba_marseille","lat":43.28359,"lon":5.38112,"is_reserved":false,"is_disabled":false,"rental_uris":{"android":"levelo://app?vid=c82084a9-11ec-406b-a53a-7e844ce9a671","ios":"levelo://app?vid=c82084a9-11ec-406b-a53a-7e844ce9a671"},"vehicle_type_id":"4","last_reported":1737219970,"current_range_meters":22000,"station_id":"ce4bh412rcd13ifvqdr0","pricing_plan_id":"cebpf4jnsgd1na2vs0mg"},{"bike_id":"368049df-8704-4e1c-8fc6-bb3700bb5bf1","system_id":"levelo_inurba_marseille","lat":43.30211,"lon":5.39464,"is_reserved":false,"is_disabled":false,"rental_uris":{"android":"levelo://app?vid=368049df-8704-4e1c-8fc6-bb3700bb5bf1","ios":"levelo://app?vid=368049df-8704-4e1c-8fc6-bb3700bb5bf1"},"vehicle_type_id":"4","last_reported":1737219970,"current_range_meters":35200,"station_id":"ce4bh0p2rcd13ifvqd70","pricing_plan_id":"cebpf4jnsgd1na2vs0mg"},{"bike_id":"0952870b-3f16-4738-be8a-bc9418a3fd88","system_id":"levelo_inurba_marseille","lat":43.31489,"lon":5.37293,"is_reserved":false,"is_disabled":false,"rental_uris":{"android":"levelo://app?vid=0952870b-3f16-4738-be8a-bc9418a3fd88","ios":"levelo://app?vid=0952870b-3f16-4738-be8a-bc9418a3fd88"},"vehicle_type_id":"4","last_reported":1737219970,"current_range_meters":38800,"station_id":"ce4bgt12rcd13ifvqcd0","pricing_plan_id":"cebpf4jnsgd1na2vs0mg"},{"bike_id":"04dcf1d5-da53-4b83-8a19-3aa0610b8463","system_id":"levelo_inurba_marseille","lat":43.30452,"lon":5.38882,"is_reserved":false,"is_disabled":false,"rental_uris":{"android":"levelo://app?vid=04dcf1d5-da53-4b83-8a19-3aa0610b8463","ios":"levelo://app?vid=04dcf1d5-da53-4b83-8a19-3aa0610b8463"},"vehicle_type_id":"4","last_reported":1737219970,"current_range_meters":6800,"station_id":"ce4bgk12rcd13ifvqbi0","pricing_plan_id":"cebpf4jnsgd1na2vs0mg"},{"bike_id":"9c41bd3d-55df-4ba6-aaa5-f915b1794e94","system_id":"levelo_inurba_marseille","lat":43.30809,"lon":5.43522,"is_reserved":false,"is_disabled":false,"rental_uris":{"android":"levelo://app?vid=9c41bd3d-55df-4ba6-aaa5-f915b1794e94","ios":"levelo://app?vid=9c41bd3d-55df-4ba6-aaa5-f915b1794e94"},"vehicle_type_id":"4","last_reported":1737219970,"current_range_meters":31200,"station_id":"ce4bhph2rcd13ifvqheg","pricing_plan_id":"cebpf4jnsgd1na2vs0mg"},{"bike_id":"a6b63e6f-4a60-439e-ba64-5d892f1cbe6d","system_id":"levelo_inurba_marseille","lat":43.30294,"lon":5.39221,"is_reserved":false,"is_disabled":false,"rental_uris":{"android":"levelo://app?vid=a6b63e6f-4a60-439e-ba64-5d892f1cbe6d","ios":"levelo://app?vid=a6b63e6f-4a60-439e-ba64-5d892f1cbe6d"},"vehicle_type_id":"4","last_reported":1737219970,"current_range_meters":38800,"station_id":"ce4bgkh2rcd13ifvqbk0","pricing_plan_id":"cebpf4jnsgd1na2vs0mg"},{"bike_id":"41e66b43-81c2-4cc4-b4fc-989eb06aea62","system_id":"levelo_inurba_marseille","lat":43.25126,"lon":5.40312,"is_reserved":false,"is_disabled":false,"rental_uris":{"android":"levelo://app?vid=41e66b43-81c2-4cc4-b4fc-989eb06aea62","ios":"levelo://app?vid=41e66b43-81c2-4cc4-b4fc-989eb06aea62"},"vehicle_type_id":"4","last_reported":1737219970,"current_range_meters":17600,"station_id":"ce4bhlh2rcd13ifvqgig","pricing_plan_id":"cebpf4jnsgd1na2vs0mg"},{"bike_id":"92cd7924-a95c-4980-9f5f-d2fc36ee9bb8","system_id":"levelo_inurba_marseille","lat":43.3092,"lon":5.3685,"is_reserved":false,"is_disabled":false,"rental_uris":{"android":"levelo://app?vid=92cd7924-a95c-4980-9f5f-d2fc36ee9bb8","ios":"levelo://app?vid=92cd7924-a95c-4980-9f5f-d2fc36ee9bb8"},"vehicle_type_id":"4","last_reported":1737219970,"current_range_meters":32000,"station_id":"ce4bgn92rcd13ifvqbvg","pricing_plan_id":"cebpf4jnsgd1na2vs0mg"},{"bike_id":"aaf9b19d-0d21-4f60-bd85-a79491ea0c6f","system_id":"levelo_inurba_marseille","lat":43.26207,"lon":5.37444,"is_reserved":false,"is_disabled":false,"rental_uris":{"android":"levelo://app?vid=aaf9b19d-0d21-4f60-bd85-a79491ea0c6f","ios":"levelo://app?vid=aaf9b19d-0d21-4f60-bd85-a79491ea0c6f"},"vehicle_type_id":"4","last_reported":1737219970,"current_range_meters":35600,"station_id":"ce4bhgp2rcd13ifvqfc0","pricing_plan_id":"cebpf4jnsgd1na2vs0mg"},{"bike_id":"9d6171b4-ccb5-4187-ae27-0f2c56854258","system_id":"levelo_inurba_marseille","lat":43.28939,"lon":5.36626,"is_reserved":false,"is_disabled":false,"rental_uris":{"android":"levelo://app?vid=9d6171b4-ccb5-4187-ae27-0f2c56854258","ios":"levelo://app?vid=9d6171b4-ccb5-4187-ae27-0f2c56854258"},"vehicle_type_id":"4","last_reported":1737219970,"current_range_meters":38800,"station_id":"ce4bhap2rcd13ifvqek0","pricing_plan_id":"cebpf4jnsgd1na2vs0mg"},{"bike_id":"8b03c918-8c8c-4729-a7e4-e9f9aa4ab652","system_id":"levelo_inurba_marseille","lat":43.279382,"lon":5.410399,"is_reserved":false,"is_disabled":false,"rental_uris":{"android":"levelo://app?vid=8b03c918-8c8c-4729-a7e4-e9f9aa4ab652","ios":"levelo://app?vid=8b03c918-8c8c-4729-a7e4-e9f9aa4ab652"},"vehicle_type_id":"4","last_reported":1737219970,"current_range_meters":14000,"station_id":"ce4bhnp2rcd13ifvqh0g","pricing_plan_id":"cebpf4jnsgd1na2vs0mg"},{"bike_id":"13d3fd97-e21c-4164-8b58-6e6c0cfe1ec1","system_id":"levelo_inurba_marseille","lat":43.28035,"lon":5.36937,"is_reserved":false,"is_disabled":false,"rental_uris":{"android":"levelo://app?vid=13d3fd97-e21c-4164-8b58-6e6c0cfe1ec1","ios":"levelo://app?vid=13d3fd97-e21c-4164-8b58-6e6c0cfe1ec1"},"vehicle_type_id":"4","last_reported":1737219970,"current_range_meters":39200,"station_id":"ce4bha12rcd13ifvqef0","pricing_plan_id":"cebpf4jnsgd1na2vs0mg"},{"bike_id":"fae143cc-e0b7-42e0-ac41-6327643321d0","system_id":"levelo_inurba_marseille","lat":43.2582,"lon":5.39415,"is_reserved":false,"is_disabled":false,"rental_uris":{"android":"levelo://app?vid=fae143cc-e0b7-42e0-ac41-6327643321d0","ios":"levelo://app?vid=fae143cc-e0b7-42e0-ac41-6327643321d0"},"vehicle_type_id":"4","last_reported":1737219970,"current_range_meters":31200,"station_id":"ce4bhip2rcd13ifvqft0","pricing_plan_id":"cebpf4jnsgd1na2vs0mg"},{"bike_id":"86c6bdb0-999a-464f-98d4-de0fe5b25ed4","system_id":"levelo_inurba_marseille","lat":43.29223,"lon":5.36207,"is_reserved":false,"is_disabled":false,"rental_uris":{"android":"levelo://app?vid=86c6bdb0-999a-464f-98d4-de0fe5b25ed4","ios":"levelo://app?vid=86c6bdb0-999a-464f-98d4-de0fe5b25ed4"},"vehicle_type_id":"4","last_reported":1737219970,"current_range_meters":4800,"station_id":"ce4bhbh2rcd13ifvqeqg","pricing_plan_id":"cebpf4jnsgd1na2vs0mg"},{"bike_id":"78a60470-e644-4eca-bf1f-8be83cbe177b","system_id":"levelo_inurba_marseille","lat":43.30135,"lon":5.374267,"is_reserved":false,"is_disabled":false,"rental_uris":{"android":"levelo://app?vid=78a60470-e644-4eca-bf1f-8be83cbe177b","ios":"levelo://app?vid=78a60470-e644-4eca-bf1f-8be83cbe177b"},"vehicle_type_id":"4","last_reported":1737219970,"current_range_meters":37600,"station_id":"ce4bgs92rcd13ifvqcc0","pricing_plan_id":"cebpf4jnsgd1na2vs0mg"},{"bike_id":"889b66c0-5003-4c8f-8605-1c2d9b5ca4a3","system_id":"levelo_inurba_marseille","lat":43.30945,"lon":5.39056,"is_reserved":false,"is_disabled":true,"rental_uris":{"android":"levelo://app?vid=889b66c0-5003-4c8f-8605-1c2d9b5ca4a3","ios":"levelo://app?vid=889b66c0-5003-4c8f-8605-1c2d9b5ca4a3"},"vehicle_type_id":"4","last_reported":1737219970,"current_range_meters":0,"station_id":"ce4bgup2rcd13ifvqco0","pricing_plan_id":"cebpf4jnsgd1na2vs0mg"},{"bike_id":"f4a4a406-b0a5-42fc-9236-32e93ac6f6b2","system_id":"levelo_inurba_marseille","lat":43.2316,"lon":5.43698,"is_reserved":false,"is_disabled":true,"rental_uris":{"android":"levelo://app?vid=f4a4a406-b0a5-42fc-9236-32e93ac6f6b2","ios":"levelo://app?vid=f4a4a406-b0a5-42fc-9236-32e93ac6f6b2"},"vehicle_type_id":"4","last_reported":1737219970,"current_range_meters":28800,"station_id":"ce4bhmp2rcd13ifvqgog","pricing_plan_id":"cebpf4jnsgd1na2vs0mg"},{"bike_id":"43100f8e-2e8d-4367-b163-b344f3844df1","system_id":"levelo_inurba_marseille","lat":43.29055,"lon":5.35895,"is_reserved":false,"is_disabled":false,"rental_uris":{"android":"levelo://app?vid=43100f8e-2e8d-4367-b163-b344f3844df1","ios":"levelo://app?vid=43100f8e-2e8d-4367-b163-b344f3844df1"},"vehicle_type_id":"4","last_reported":1737219970,"current_range_meters":38800,"station_id":"ce4bha92rcd13ifvqeg0","pricing_plan_id":"cebpf4jnsgd1na2vs0mg"},{"bike_id":"077540a1-c9f6-4ba4-8e6a-2c229443eadf","system_id":"levelo_inurba_marseille","lat":43.30595,"lon":5.39346,"is_reserved":false,"is_disabled":false,"rental_uris":{"android":"levelo://app?vid=077540a1-c9f6-4ba4-8e6a-2c229443eadf","ios":"levelo://app?vid=077540a1-c9f6-4ba4-8e6a-2c229443eadf"},"vehicle_type_id":"4","last_reported":1737219970,"current_range_meters":30000,"station_id":"ce4bh0p2rcd13ifvqd80","pricing_plan_id":"cebpf4jnsgd1na2vs0mg"},{"bike_id":"77a549a2-a198-4eb5-9ac7-b5cc47513d98","system_id":"levelo_inurba_marseille","lat":43.29634,"lon":5.40587,"is_reserved":false,"is_disabled":false,"rental_uris":{"android":"levelo://app?vid=77a549a2-a198-4eb5-9ac7-b5cc47513d98","ios":"levelo://app?vid=77a549a2-a198-4eb5-9ac7-b5cc47513d98"},"vehicle_type_id":"4","last_reported":1737219970,"current_range_meters":32000,"station_id":"ce4bh0h2rcd13ifvqd60","pricing_plan_id":"cebpf4jnsgd1na2vs0mg"},{"bike_id":"f5832b77-1b11-4bed-866a-5fe73e065be2","system_id":"levelo_inurba_marseille","lat":43.29915,"lon":5.3747,"is_reserved":false,"is_disabled":false,"rental_uris":{"android":"levelo://app?vid=f5832b77-1b11-4bed-866a-5fe73e065be2","ios":"levelo://app?vid=f5832b77-1b11-4bed-866a-5fe73e065be2"},"vehicle_type_id":"4","last_reported":1737219970,"current_range_meters":38800,"station_id":"ce4bgjh2rcd13ifvqbg0","pricing_plan_id":"cebpf4jnsgd1na2vs0mg"},{"bike_id":"8e5ba57c-c23b-4a53-8cba-884296a2a62c","system_id":"levelo_inurba_marseille","lat":43.30441,"lon":5.38902,"is_reserved":false,"is_disabled":false,"rental_uris":{"android":"levelo://app?vid=8e5ba57c-c23b-4a53-8cba-884296a2a62c","ios":"levelo://app?vid=8e5ba57c-c23b-4a53-8cba-884296a2a62c"},"vehicle_type_id":"4","last_reported":1737219970,"current_range_meters":32400,"station_id":"ce4bgk12rcd13ifvqbi0","pricing_plan_id":"cebpf4jnsgd1na2vs0mg"},{"bike_id":"b58dcef5-cab9-4732-933d-c18fb8a74b04","system_id":"levelo_inurba_marseille","lat":43.23148,"lon":5.4371,"is_reserved":false,"is_disabled":true,"rental_uris":{"android":"levelo://app?vid=b58dcef5-cab9-4732-933d-c18fb8a74b04","ios":"levelo://app?vid=b58dcef5-cab9-4732-933d-c18fb8a74b04"},"vehicle_type_id":"4","last_reported":1737219970,"current_range_meters":0,"station_id":"ce4bhmp2rcd13ifvqgog","pricing_plan_id":"cebpf4jnsgd1na2vs0mg"},{"bike_id":"53322ce4-5f1d-4bfd-a7ff-ef0956a73b03","system_id":"levelo_inurba_marseille","lat":43.28417,"lon":5.34992,"is_reserved":false,"is_disabled":false,"rental_uris":{"android":"levelo://app?vid=53322ce4-5f1d-4bfd-a7ff-ef0956a73b03","ios":"levelo://app?vid=53322ce4-5f1d-4bfd-a7ff-ef0956a73b03"},"vehicle_type_id":"4","last_reported":1737219970,"current_range_meters":38400,"station_id":"ce4bhbh2rcd13ifvqepg","pricing_plan_id":"cebpf4jnsgd1na2vs0mg"},{"bike_id":"ed44adea-7a12-4ed5-a385-58ee91d757c8","system_id":"levelo_inurba_marseille","lat":43.28417,"lon":5.3752,"is_reserved":false,"is_disabled":false,"rental_uris":{"android":"levelo://app?vid=ed44adea-7a12-4ed5-a385-58ee91d757c8","ios":"levelo://app?vid=ed44adea-7a12-4ed5-a385-58ee91d757c8"},"vehicle_type_id":"4","last_reported":1737219970,"current_range_meters":6400,"station_id":"ce4bh412rcd13ifvqds0","pricing_plan_id":"cebpf4jnsgd1na2vs0mg"},{"bike_id":"234d1550-b7dd-465b-9578-32049a642f2b","system_id":"levelo_inurba_marseille","lat":43.29964,"lon":5.41318,"is_reserved":false,"is_disabled":false,"rental_uris":{"android":"levelo://app?vid=234d1550-b7dd-465b-9578-32049a642f2b","ios":"levelo://app?vid=234d1550-b7dd-465b-9578-32049a642f2b"},"vehicle_type_id":"4","last_reported":1737219970,"current_range_meters":38000,"station_id":"ce4bhp12rcd13ifvqh9g","pricing_plan_id":"cebpf4jnsgd1na2vs0mg"},{"bike_id":"71400200-2a28-4001-86f5-f33f8c218c9d","system_id":"levelo_inurba_marseille","lat":43.30349,"lon":5.41886,"is_reserved":false,"is_disabled":false,"rental_uris":{"android":"levelo://app?vid=71400200-2a28-4001-86f5-f33f8c218c9d","ios":"levelo://app?vid=71400200-2a28-4001-86f5-f33f8c218c9d"},"vehicle_type_id":"4","last_reported":1737219970,"current_range_meters":14000,"station_id":"ce4bhop2rcd13ifvqh7g","pricing_plan_id":"cebpf4jnsgd1na2vs0mg"},{"bike_id":"76965f5d-c855-40dc-ae30-1530e8a5636f","system_id":"levelo_inurba_marseille","lat":43.2957,"lon":5.37536,"is_reserved":false,"is_disabled":false,"rental_uris":{"android":"levelo://app?vid=76965f5d-c855-40dc-ae30-1530e8a5636f","ios":"levelo://app?vid=76965f5d-c855-40dc-ae30-1530e8a5636f"},"vehicle_type_id":"4","last_reported":1737219970,"current_range_meters":16400,"station_id":"ce4bgh92rcd13ifvqb50","pricing_plan_id":"cebpf4jnsgd1na2vs0mg"},{"bike_id":"37feb261-44b2-4b27-b3ae-078664007b08","system_id":"levelo_inurba_marseille","lat":43.32477,"lon":5.36578,"is_reserved":false,"is_disabled":false,"rental_uris":{"android":"levelo://app?vid=37feb261-44b2-4b27-b3ae-078664007b08","ios":"levelo://app?vid=37feb261-44b2-4b27-b3ae-078664007b08"},"vehicle_type_id":"4","last_reported":1737219970,"current_range_meters":38800,"station_id":"ce4bhs12rcd13ifvqhvg","pricing_plan_id":"cebpf4jnsgd1na2vs0mg"},{"bike_id":"96960263-8122-4b3a-9f60-4d15c809c06f","system_id":"levelo_inurba_marseille","lat":43.2606,"lon":5.39387,"is_reserved":false,"is_disabled":false,"rental_uris":{"android":"levelo://app?vid=96960263-8122-4b3a-9f60-4d15c809c06f","ios":"levelo://app?vid=96960263-8122-4b3a-9f60-4d15c809c06f"},"vehicle_type_id":"4","last_reported":1737219970,"current_range_meters":9600,"station_id":"ce4bhh92rcd13ifvqfj0","pricing_plan_id":"cebpf4jnsgd1na2vs0mg"},{"bike_id":"017dda8b-04cf-4732-977c-fe5d131be489","system_id":"levelo_inurba_marseille","lat":43.30295,"lon":5.39221,"is_reserved":false,"is_disabled":false,"rental_uris":{"android":"levelo://app?vid=017dda8b-04cf-4732-977c-fe5d131be489","ios":"levelo://app?vid=017dda8b-04cf-4732-977c-fe5d131be489"},"vehicle_type_id":"4","last_reported":1737219970,"current_range_meters":25200,"station_id":"ce4bgkh2rcd13ifvqbk0","pricing_plan_id":"cebpf4jnsgd1na2vs0mg"},{"bike_id":"7fd9d563-2ff3-4df3-8291-3b34f26fb91c","system_id":"levelo_inurba_marseille","lat":43.26943,"lon":5.40245,"is_reserved":false,"is_disabled":false,"rental_uris":{"android":"levelo://app?vid=7fd9d563-2ff3-4df3-8291-3b34f26fb91c","ios":"levelo://app?vid=7fd9d563-2ff3-4df3-8291-3b34f26fb91c"},"vehicle_type_id":"4","last_reported":1737219970,"current_range_meters":10800,"station_id":"cjm6bp8fraef2m0cb0m0","pricing_plan_id":"cebpf4jnsgd1na2vs0mg"},{"bike_id":"07bedf5c-7c58-42a1-8b2b-8b2ef5019cb2","system_id":"levelo_inurba_marseille","lat":43.28466,"lon":5.38521,"is_reserved":false,"is_disabled":false,"rental_uris":{"android":"levelo://app?vid=07bedf5c-7c58-42a1-8b2b-8b2ef5019cb2","ios":"levelo://app?vid=07bedf5c-7c58-42a1-8b2b-8b2ef5019cb2"},"vehicle_type_id":"4","last_reported":1737219970,"current_range_meters":22400,"station_id":"ce4bh8p2rcd13ifvqeb0","pricing_plan_id":"cebpf4jnsgd1na2vs0mg"},{"bike_id":"56b8e9bc-f750-4815-bc98-9098414d16db","system_id":"levelo_inurba_marseille","lat":43.23201,"lon":5.3556,"is_reserved":false,"is_disabled":true,"rental_uris":{"android":"levelo://app?vid=56b8e9bc-f750-4815-bc98-9098414d16db","ios":"levelo://app?vid=56b8e9bc-f750-4815-bc98-9098414d16db"},"vehicle_type_id":"4","last_reported":1737219970,"current_range_meters":0,"station_id":"ce4bhu92rcd13ifvqi70","pricing_plan_id":"cebpf4jnsgd1na2vs0mg"},{"bike_id":"0e91b70c-1e42-4d65-a90a-72cbd40954b0","system_id":"levelo_inurba_marseille","lat":43.32362,"lon":5.3675,"is_reserved":false,"is_disabled":false,"rental_uris":{"android":"levelo://app?vid=0e91b70c-1e42-4d65-a90a-72cbd40954b0","ios":"levelo://app?vid=0e91b70c-1e42-4d65-a90a-72cbd40954b0"},"vehicle_type_id":"4","last_reported":1737219970,"current_range_meters":10000,"station_id":"ce4bhsh2rcd13ifvqi2g","pricing_plan_id":"cebpf4jnsgd1na2vs0mg"},{"bike_id":"a0eeb7bb-c0e7-4b92-a926-d8dc0ae46ddf","system_id":"levelo_inurba_marseille","lat":43.28725,"lon":5.360815,"is_reserved":false,"is_disabled":true,"rental_uris":{"android":"levelo://app?vid=a0eeb7bb-c0e7-4b92-a926-d8dc0ae46ddf","ios":"levelo://app?vid=a0eeb7bb-c0e7-4b92-a926-d8dc0ae46ddf"},"vehicle_type_id":"4","last_reported":1737219970,"current_range_meters":0,"station_id":"cki0cbj6b192h4jlfktg","pricing_plan_id":"cebpf4jnsgd1na2vs0mg"},{"bike_id":"a4b20066-2be1-4b9e-9313-078b1eef06b9","system_id":"levelo_inurba_marseille","lat":43.29625,"lon":5.37153,"is_reserved":false,"is_disabled":false,"rental_uris":{"android":"levelo://app?vid=a4b20066-2be1-4b9e-9313-078b1eef06b9","ios":"levelo://app?vid=a4b20066-2be1-4b9e-9313-078b1eef06b9"},"vehicle_type_id":"4","last_reported":1737219970,"current_range_meters":20400,"station_id":"ce4bgnh2rcd13ifvqc0g","pricing_plan_id":"cebpf4jnsgd1na2vs0mg"},{"bike_id":"a7584588-485e-4489-aa81-ed5d3d2f4789","system_id":"levelo_inurba_marseille","lat":43.31128,"lon":5.37768,"is_reserved":false,"is_disabled":false,"rental_uris":{"android":"levelo://app?vid=a7584588-485e-4489-aa81-ed5d3d2f4789","ios":"levelo://app?vid=a7584588-485e-4489-aa81-ed5d3d2f4789"},"vehicle_type_id":"4","last_reported":1737219970,"current_range_meters":38800,"station_id":"ce4bgt92rcd13ifvqcg0","pricing_plan_id":"cebpf4jnsgd1na2vs0mg"},{"bike_id":"c0941bcb-df23-4540-97d4-a39a5bf18fd5","system_id":"levelo_inurba_marseille","lat":43.292565,"lon":5.409086,"is_reserved":false,"is_disabled":false,"rental_uris":{"android":"levelo://app?vid=c0941bcb-df23-4540-97d4-a39a5bf18fd5","ios":"levelo://app?vid=c0941bcb-df23-4540-97d4-a39a5bf18fd5"},"vehicle_type_id":"4","last_reported":1737219970,"current_range_meters":5600,"station_id":"ce4bh192rcd13ifvqdc0","pricing_plan_id":"cebpf4jnsgd1na2vs0mg"},{"bike_id":"66a62e45-c529-4097-85b9-9beda3693be9","system_id":"levelo_inurba_marseille","lat":43.29732,"lon":5.37684,"is_reserved":false,"is_disabled":false,"rental_uris":{"android":"levelo://app?vid=66a62e45-c529-4097-85b9-9beda3693be9","ios":"levelo://app?vid=66a62e45-c529-4097-85b9-9beda3693be9"},"vehicle_type_id":"4","last_reported":1737219970,"current_range_meters":38800,"station_id":"ce4bgkh2rcd13ifvqbl0","pricing_plan_id":"cebpf4jnsgd1na2vs0mg"},{"bike_id":"22465212-93af-4e0b-b803-6ee82bba56d5","system_id":"levelo_inurba_marseille","lat":43.33759,"lon":5.3748,"is_reserved":false,"is_disabled":false,"rental_uris":{"android":"levelo://app?vid=22465212-93af-4e0b-b803-6ee82bba56d5","ios":"levelo://app?vid=22465212-93af-4e0b-b803-6ee82bba56d5"},"vehicle_type_id":"4","last_reported":1737219970,"current_range_meters":32400,"station_id":"","pricing_plan_id":"cebpf4jnsgd1na2vs0mg"},{"bike_id":"2acc906a-c27a-49da-90e2-256aae51eb57","system_id":"levelo_inurba_marseille","lat":43.30809,"lon":5.43513,"is_reserved":false,"is_disabled":false,"rental_uris":{"android":"levelo://app?vid=2acc906a-c27a-49da-90e2-256aae51eb57","ios":"levelo://app?vid=2acc906a-c27a-49da-90e2-256aae51eb57"},"vehicle_type_id":"4","last_reported":1737219970,"current_range_meters":38400,"station_id":"ce4bhph2rcd13ifvqheg","pricing_plan_id":"cebpf4jnsgd1na2vs0mg"},{"bike_id":"63aa789f-762f-4c23-99cd-4ac32c175710","system_id":"levelo_inurba_marseille","lat":43.2621,"lon":5.37435,"is_reserved":false,"is_disabled":false,"rental_uris":{"android":"levelo://app?vid=63aa789f-762f-4c23-99cd-4ac32c175710","ios":"levelo://app?vid=63aa789f-762f-4c23-99cd-4ac32c175710"},"vehicle_type_id":"4","last_reported":1737219970,"current_range_meters":38800,"station_id":"ce4bhgp2rcd13ifvqfc0","pricing_plan_id":"cebpf4jnsgd1na2vs0mg"},{"bike_id":"7894b814-80c4-4f84-b4c1-5ee3c42966d4","system_id":"levelo_inurba_marseille","lat":43.25718,"lon":5.41116,"is_reserved":false,"is_disabled":false,"rental_uris":{"android":"levelo://app?vid=7894b814-80c4-4f84-b4c1-5ee3c42966d4","ios":"levelo://app?vid=7894b814-80c4-4f84-b4c1-5ee3c42966d4"},"vehicle_type_id":"4","last_reported":1737219970,"current_range_meters":28800,"station_id":"ce4bhkp2rcd13ifvqgd0","pricing_plan_id":"cebpf4jnsgd1na2vs0mg"},{"bike_id":"2669dc48-d52c-4df4-a185-3258641e3a0a","system_id":"levelo_inurba_marseille","lat":43.27943,"lon":5.38719,"is_reserved":false,"is_disabled":true,"rental_uris":{"android":"levelo://app?vid=2669dc48-d52c-4df4-a185-3258641e3a0a","ios":"levelo://app?vid=2669dc48-d52c-4df4-a185-3258641e3a0a"},"vehicle_type_id":"4","last_reported":1737219970,"current_range_meters":0,"station_id":"ce4bhg12rcd13ifvqf80","pricing_plan_id":"cebpf4jnsgd1na2vs0mg"},{"bike_id":"19fb1931-f075-402c-a076-088e72accb76","system_id":"levelo_inurba_marseille","lat":43.24809,"lon":5.37459,"is_reserved":false,"is_disabled":false,"rental_uris":{"android":"levelo://app?vid=19fb1931-f075-402c-a076-088e72accb76","ios":"levelo://app?vid=19fb1931-f075-402c-a076-088e72accb76"},"vehicle_type_id":"4","last_reported":1737219970,"current_range_meters":17600,"station_id":"ce4bhgh2rcd13ifvqfb0","pricing_plan_id":"cebpf4jnsgd1na2vs0mg"},{"bike_id":"74c60602-d890-40fc-9ec9-85e4c1077ff7","system_id":"levelo_inurba_marseille","lat":43.31762,"lon":5.39011,"is_reserved":false,"is_disabled":false,"rental_uris":{"android":"levelo://app?vid=74c60602-d890-40fc-9ec9-85e4c1077ff7","ios":"levelo://app?vid=74c60602-d890-40fc-9ec9-85e4c1077ff7"},"vehicle_type_id":"4","last_reported":1737219970,"current_range_meters":39200,"station_id":"ce4bhqp2rcd13ifvqhng","pricing_plan_id":"cebpf4jnsgd1na2vs0mg"},{"bike_id":"86b1129b-34c7-4cb1-acb7-46aa8942c62c","system_id":"levelo_inurba_marseille","lat":43.23151,"lon":5.43708,"is_reserved":false,"is_disabled":true,"rental_uris":{"android":"levelo://app?vid=86b1129b-34c7-4cb1-acb7-46aa8942c62c","ios":"levelo://app?vid=86b1129b-34c7-4cb1-acb7-46aa8942c62c"},"vehicle_type_id":"4","last_reported":1737219970,"current_range_meters":0,"station_id":"ce4bhmp2rcd13ifvqgog","pricing_plan_id":"cebpf4jnsgd1na2vs0mg"},{"bike_id":"590f7295-8479-41c9-a1a1-d371a87a5aab","system_id":"levelo_inurba_marseille","lat":43.26203,"lon":5.37464,"is_reserved":false,"is_disabled":false,"rental_uris":{"android":"levelo://app?vid=590f7295-8479-41c9-a1a1-d371a87a5aab","ios":"levelo://app?vid=590f7295-8479-41c9-a1a1-d371a87a5aab"},"vehicle_type_id":"4","last_reported":1737219970,"current_range_meters":9600,"station_id":"ce4bhgp2rcd13ifvqfc0","pricing_plan_id":"cebpf4jnsgd1na2vs0mg"},{"bike_id":"0a3b5238-d1e9-4715-a08c-7107b961f7e7","system_id":"levelo_inurba_marseille","lat":43.29552,"lon":5.42291,"is_reserved":false,"is_disabled":true,"rental_uris":{"android":"levelo://app?vid=0a3b5238-d1e9-4715-a08c-7107b961f7e7","ios":"levelo://app?vid=0a3b5238-d1e9-4715-a08c-7107b961f7e7"},"vehicle_type_id":"4","last_reported":1737219970,"current_range_meters":0,"station_id":"ce4bhph2rcd13ifvqhdg","pricing_plan_id":"cebpf4jnsgd1na2vs0mg"},{"bike_id":"c2453f97-402f-4d05-bcdf-2743e0d41dc4","system_id":"levelo_inurba_marseille","lat":43.30292,"lon":5.36868,"is_reserved":false,"is_disabled":false,"rental_uris":{"android":"levelo://app?vid=c2453f97-402f-4d05-bcdf-2743e0d41dc4","ios":"levelo://app?vid=c2453f97-402f-4d05-bcdf-2743e0d41dc4"},"vehicle_type_id":"4","last_reported":1737219970,"current_range_meters":11200,"station_id":"ce4bgqh2rcd13ifvqc5g","pricing_plan_id":"cebpf4jnsgd1na2vs0mg"},{"bike_id":"c6f874ed-7baa-4ffa-b8dc-93b47368c64c","system_id":"levelo_inurba_marseille","lat":43.27383,"lon":5.36258,"is_reserved":false,"is_disabled":false,"rental_uris":{"android":"levelo://app?vid=c6f874ed-7baa-4ffa-b8dc-93b47368c64c","ios":"levelo://app?vid=c6f874ed-7baa-4ffa-b8dc-93b47368c64c"},"vehicle_type_id":"4","last_reported":1737219970,"current_range_meters":36400,"station_id":"ce4bhbh2rcd13ifvqeo0","pricing_plan_id":"cebpf4jnsgd1na2vs0mg"},{"bike_id":"82eafdac-bd81-479d-a7b0-05db8ca76c26","system_id":"levelo_inurba_marseille","lat":43.25828,"lon":5.39445,"is_reserved":false,"is_disabled":true,"rental_uris":{"android":"levelo://app?vid=82eafdac-bd81-479d-a7b0-05db8ca76c26","ios":"levelo://app?vid=82eafdac-bd81-479d-a7b0-05db8ca76c26"},"vehicle_type_id":"4","last_reported":1737219970,"current_range_meters":0,"station_id":"ce4bhip2rcd13ifvqft0","pricing_plan_id":"cebpf4jnsgd1na2vs0mg"},{"bike_id":"669eb7ef-f2a1-409c-8109-82a87ccd77da","system_id":"levelo_inurba_marseille","lat":43.28106,"lon":5.3783,"is_reserved":false,"is_disabled":false,"rental_uris":{"android":"levelo://app?vid=669eb7ef-f2a1-409c-8109-82a87ccd77da","ios":"levelo://app?vid=669eb7ef-f2a1-409c-8109-82a87ccd77da"},"vehicle_type_id":"4","last_reported":1737219970,"current_range_meters":30000,"station_id":"ce4bha12rcd13ifvqee0","pricing_plan_id":"cebpf4jnsgd1na2vs0mg"},{"bike_id":"e3a9e81c-ed65-4683-9d28-f5832116bec5","system_id":"levelo_inurba_marseille","lat":43.30326,"lon":5.40432,"is_reserved":false,"is_disabled":false,"rental_uris":{"android":"levelo://app?vid=e3a9e81c-ed65-4683-9d28-f5832116bec5","ios":"levelo://app?vid=e3a9e81c-ed65-4683-9d28-f5832116bec5"},"vehicle_type_id":"4","last_reported":1737219970,"current_range_meters":19600,"station_id":"ce4bh012rcd13ifvqd10","pricing_plan_id":"cebpf4jnsgd1na2vs0mg"},{"bike_id":"0d51cdbb-323f-4a82-9d51-32fc344d7fab","system_id":"levelo_inurba_marseille","lat":43.29274,"lon":5.36846,"is_reserved":false,"is_disabled":false,"rental_uris":{"android":"levelo://app?vid=0d51cdbb-323f-4a82-9d51-32fc344d7fab","ios":"levelo://app?vid=0d51cdbb-323f-4a82-9d51-32fc344d7fab"},"vehicle_type_id":"4","last_reported":1737219970,"current_range_meters":4800,"station_id":"ce4bhbp2rcd13ifvqesg","pricing_plan_id":"cebpf4jnsgd1na2vs0mg"},{"bike_id":"80ea9e66-5eab-4337-810d-78e6bde3f1cd","system_id":"levelo_inurba_marseille","lat":43.27061,"lon":5.40258,"is_reserved":false,"is_disabled":true,"rental_uris":{"android":"levelo://app?vid=80ea9e66-5eab-4337-810d-78e6bde3f1cd","ios":"levelo://app?vid=80ea9e66-5eab-4337-810d-78e6bde3f1cd"},"vehicle_type_id":"4","last_reported":1737219970,"current_range_meters":400,"station_id":"ce4bhk92rcd13ifvqgc0","pricing_plan_id":"cebpf4jnsgd1na2vs0mg"},{"bike_id":"e8a3d435-c0e0-415b-a6d2-3d37b906f6fc","system_id":"levelo_inurba_marseille","lat":43.24804,"lon":5.37458,"is_reserved":false,"is_disabled":false,"rental_uris":{"android":"levelo://app?vid=e8a3d435-c0e0-415b-a6d2-3d37b906f6fc","ios":"levelo://app?vid=e8a3d435-c0e0-415b-a6d2-3d37b906f6fc"},"vehicle_type_id":"4","last_reported":1737219970,"current_range_meters":17600,"station_id":"ce4bhgh2rcd13ifvqfb0","pricing_plan_id":"cebpf4jnsgd1na2vs0mg"},{"bike_id":"35deb437-7ef2-4ee7-9ea5-27ce0001ca7b","system_id":"levelo_inurba_marseille","lat":43.26055,"lon":5.39387,"is_reserved":false,"is_disabled":false,"rental_uris":{"android":"levelo://app?vid=35deb437-7ef2-4ee7-9ea5-27ce0001ca7b","ios":"levelo://app?vid=35deb437-7ef2-4ee7-9ea5-27ce0001ca7b"},"vehicle_type_id":"4","last_reported":1737219970,"current_range_meters":37600,"station_id":"ce4bhh92rcd13ifvqfj0","pricing_plan_id":"cebpf4jnsgd1na2vs0mg"},{"bike_id":"8bb2951f-4df4-43e6-8c27-d7111bae0ccf","system_id":"levelo_inurba_marseille","lat":43.29938,"lon":5.36542,"is_reserved":false,"is_disabled":false,"rental_uris":{"android":"levelo://app?vid=8bb2951f-4df4-43e6-8c27-d7111bae0ccf","ios":"levelo://app?vid=8bb2951f-4df4-43e6-8c27-d7111bae0ccf"},"vehicle_type_id":"4","last_reported":1737219970,"current_range_meters":38400,"station_id":"ce4bgm92rcd13ifvqbr0","pricing_plan_id":"cebpf4jnsgd1na2vs0mg"},{"bike_id":"a072b78c-2700-44c6-9219-503477bf1536","system_id":"levelo_inurba_marseille","lat":43.26192,"lon":5.37451,"is_reserved":false,"is_disabled":false,"rental_uris":{"android":"levelo://app?vid=a072b78c-2700-44c6-9219-503477bf1536","ios":"levelo://app?vid=a072b78c-2700-44c6-9219-503477bf1536"},"vehicle_type_id":"4","last_reported":1737219970,"current_range_meters":28000,"station_id":"ce4bhgp2rcd13ifvqfc0","pricing_plan_id":"cebpf4jnsgd1na2vs0mg"},{"bike_id":"f2390374-e060-4fe1-bcfa-cb2711193e58","system_id":"levelo_inurba_marseille","lat":43.25083,"lon":5.3954,"is_reserved":false,"is_disabled":false,"rental_uris":{"android":"levelo://app?vid=f2390374-e060-4fe1-bcfa-cb2711193e58","ios":"levelo://app?vid=f2390374-e060-4fe1-bcfa-cb2711193e58"},"vehicle_type_id":"4","last_reported":1737219970,"current_range_meters":9600,"station_id":"ce4bhm12rcd13ifvqgkg","pricing_plan_id":"cebpf4jnsgd1na2vs0mg"},{"bike_id":"dbe9438c-d7ad-4574-9829-aa483654e646","system_id":"levelo_inurba_marseille","lat":43.28366,"lon":5.38632,"is_reserved":false,"is_disabled":false,"rental_uris":{"android":"levelo://app?vid=dbe9438c-d7ad-4574-9829-aa483654e646","ios":"levelo://app?vid=dbe9438c-d7ad-4574-9829-aa483654e646"},"vehicle_type_id":"4","last_reported":1737219970,"current_range_meters":9600,"station_id":"ce4bh492rcd13ifvqdvg","pricing_plan_id":"cebpf4jnsgd1na2vs0mg"},{"bike_id":"b1f48f82-1bf2-4102-be84-653a3ed38872","system_id":"levelo_inurba_marseille","lat":43.30601,"lon":5.37212,"is_reserved":false,"is_disabled":false,"rental_uris":{"android":"levelo://app?vid=b1f48f82-1bf2-4102-be84-653a3ed38872","ios":"levelo://app?vid=b1f48f82-1bf2-4102-be84-653a3ed38872"},"vehicle_type_id":"4","last_reported":1737219970,"current_range_meters":7200,"station_id":"ce4bgqh2rcd13ifvqc4g","pricing_plan_id":"cebpf4jnsgd1na2vs0mg"},{"bike_id":"d6161db6-0288-4eaf-b39b-605e25ca46ff","system_id":"levelo_inurba_marseille","lat":43.27445,"lon":5.39376,"is_reserved":false,"is_disabled":true,"rental_uris":{"android":"levelo://app?vid=d6161db6-0288-4eaf-b39b-605e25ca46ff","ios":"levelo://app?vid=d6161db6-0288-4eaf-b39b-605e25ca46ff"},"vehicle_type_id":"4","last_reported":1737219970,"current_range_meters":0,"station_id":"ce4bhdp2rcd13ifvqf20","pricing_plan_id":"cebpf4jnsgd1na2vs0mg"},{"bike_id":"c87bd272-e537-4ca8-8621-88fd6bdfad6e","system_id":"levelo_inurba_marseille","lat":43.29018,"lon":5.38139,"is_reserved":false,"is_disabled":false,"rental_uris":{"android":"levelo://app?vid=c87bd272-e537-4ca8-8621-88fd6bdfad6e","ios":"levelo://app?vid=c87bd272-e537-4ca8-8621-88fd6bdfad6e"},"vehicle_type_id":"4","last_reported":1737219970,"current_range_meters":25200,"station_id":"ce4bh4p2rcd13ifvqe1g","pricing_plan_id":"cebpf4jnsgd1na2vs0mg"},{"bike_id":"c7a20f69-b815-4549-b795-11ffa5fec734","system_id":"levelo_inurba_marseille","lat":43.28659,"lon":5.36339,"is_reserved":false,"is_disabled":false,"rental_uris":{"android":"levelo://app?vid=c7a20f69-b815-4549-b795-11ffa5fec734","ios":"levelo://app?vid=c7a20f69-b815-4549-b795-11ffa5fec734"},"vehicle_type_id":"4","last_reported":1737219970,"current_range_meters":38800,"station_id":"ce4bhah2rcd13ifvqej0","pricing_plan_id":"cebpf4jnsgd1na2vs0mg"},{"bike_id":"6efcc5fa-757c-4079-9b66-fc947874ab85","system_id":"levelo_inurba_marseille","lat":43.27421,"lon":5.39423,"is_reserved":false,"is_disabled":false,"rental_uris":{"android":"levelo://app?vid=6efcc5fa-757c-4079-9b66-fc947874ab85","ios":"levelo://app?vid=6efcc5fa-757c-4079-9b66-fc947874ab85"},"vehicle_type_id":"4","last_reported":1737219970,"current_range_meters":39200,"station_id":"ce4bhdp2rcd13ifvqf20","pricing_plan_id":"cebpf4jnsgd1na2vs0mg"},{"bike_id":"40866159-f30c-49f8-851e-bfa1e19a06c6","system_id":"levelo_inurba_marseille","lat":43.31348,"lon":5.36718,"is_reserved":false,"is_disabled":false,"rental_uris":{"android":"levelo://app?vid=40866159-f30c-49f8-851e-bfa1e19a06c6","ios":"levelo://app?vid=40866159-f30c-49f8-851e-bfa1e19a06c6"},"vehicle_type_id":"4","last_reported":1737219970,"current_range_meters":38000,"station_id":"ce4bgr92rcd13ifvqc6g","pricing_plan_id":"cebpf4jnsgd1na2vs0mg"},{"bike_id":"2a6c8aef-7633-4410-aa65-ead7161fa29b","system_id":"levelo_inurba_marseille","lat":43.31226,"lon":5.36887,"is_reserved":false,"is_disabled":false,"rental_uris":{"android":"levelo://app?vid=2a6c8aef-7633-4410-aa65-ead7161fa29b","ios":"levelo://app?vid=2a6c8aef-7633-4410-aa65-ead7161fa29b"},"vehicle_type_id":"4","last_reported":1737219970,"current_range_meters":37600,"station_id":"ce4bgl92rcd13ifvqbq0","pricing_plan_id":"cebpf4jnsgd1na2vs0mg"},{"bike_id":"1e43f0f8-4119-4f43-9f7c-8fe98515c149","system_id":"levelo_inurba_marseille","lat":43.30891,"lon":5.37214,"is_reserved":false,"is_disabled":false,"rental_uris":{"android":"levelo://app?vid=1e43f0f8-4119-4f43-9f7c-8fe98515c149","ios":"levelo://app?vid=1e43f0f8-4119-4f43-9f7c-8fe98515c149"},"vehicle_type_id":"4","last_reported":1737219970,"current_range_meters":10000,"station_id":"ce4bguh2rcd13ifvqckg","pricing_plan_id":"cebpf4jnsgd1na2vs0mg"},{"bike_id":"ca063e11-abb0-4a0d-949e-8b493e1dc734","system_id":"levelo_inurba_marseille","lat":43.29586,"lon":5.37534,"is_reserved":false,"is_disabled":false,"rental_uris":{"android":"levelo://app?vid=ca063e11-abb0-4a0d-949e-8b493e1dc734","ios":"levelo://app?vid=ca063e11-abb0-4a0d-949e-8b493e1dc734"},"vehicle_type_id":"4","last_reported":1737219970,"current_range_meters":32400,"station_id":"ce4bgh92rcd13ifvqb50","pricing_plan_id":"cebpf4jnsgd1na2vs0mg"},{"bike_id":"a95248e8-7ba2-479e-9b5c-9fb4d8e98c2b","system_id":"levelo_inurba_marseille","lat":43.28089,"lon":5.42184,"is_reserved":false,"is_disabled":true,"rental_uris":{"android":"levelo://app?vid=a95248e8-7ba2-479e-9b5c-9fb4d8e98c2b","ios":"levelo://app?vid=a95248e8-7ba2-479e-9b5c-9fb4d8e98c2b"},"vehicle_type_id":"4","last_reported":1737219970,"current_range_meters":0,"station_id":"","pricing_plan_id":"cebpf4jnsgd1na2vs0mg"},{"bike_id":"246f2aa1-d855-40ee-b8e2-0e541013d632","system_id":"levelo_inurba_marseille","lat":43.27822,"lon":5.40723,"is_reserved":false,"is_disabled":true,"rental_uris":{"android":"levelo://app?vid=246f2aa1-d855-40ee-b8e2-0e541013d632","ios":"levelo://app?vid=246f2aa1-d855-40ee-b8e2-0e541013d632"},"vehicle_type_id":"4","last_reported":1737219970,"current_range_meters":0,"station_id":"ce4bhnh2rcd13ifvqgtg","pricing_plan_id":"cebpf4jnsgd1na2vs0mg"},{"bike_id":"87cefc3a-e36a-4030-9c3f-9fc87455f3e3","system_id":"levelo_inurba_marseille","lat":43.27368,"lon":5.36237,"is_reserved":false,"is_disabled":false,"rental_uris":{"android":"levelo://app?vid=87cefc3a-e36a-4030-9c3f-9fc87455f3e3","ios":"levelo://app?vid=87cefc3a-e36a-4030-9c3f-9fc87455f3e3"},"vehicle_type_id":"4","last_reported":1737219970,"current_range_meters":38800,"station_id":"ce4bhbh2rcd13ifvqeo0","pricing_plan_id":"cebpf4jnsgd1na2vs0mg"},{"bike_id":"d146f30b-7230-4270-b613-c2689a695e15","system_id":"levelo_inurba_marseille","lat":43.29551,"lon":5.42287,"is_reserved":false,"is_disabled":false,"rental_uris":{"android":"levelo://app?vid=d146f30b-7230-4270-b613-c2689a695e15","ios":"levelo://app?vid=d146f30b-7230-4270-b613-c2689a695e15"},"vehicle_type_id":"4","last_reported":1737219970,"current_range_meters":14000,"station_id":"ce4bhph2rcd13ifvqhdg","pricing_plan_id":"cebpf4jnsgd1na2vs0mg"},{"bike_id":"39a805a0-8a23-4712-806c-c6237f41e22d","system_id":"levelo_inurba_marseille","lat":43.304606,"lon":5.37904,"is_reserved":false,"is_disabled":false,"rental_uris":{"android":"levelo://app?vid=39a805a0-8a23-4712-806c-c6237f41e22d","ios":"levelo://app?vid=39a805a0-8a23-4712-806c-c6237f41e22d"},"vehicle_type_id":"4","last_reported":1737219970,"current_range_meters":8000,"station_id":"ce4bgup2rcd13ifvqcn0","pricing_plan_id":"cebpf4jnsgd1na2vs0mg"},{"bike_id":"458283ee-1215-4adf-925f-85f17f14cef5","system_id":"levelo_inurba_marseille","lat":43.28436,"lon":5.39166,"is_reserved":false,"is_disabled":false,"rental_uris":{"android":"levelo://app?vid=458283ee-1215-4adf-925f-85f17f14cef5","ios":"levelo://app?vid=458283ee-1215-4adf-925f-85f17f14cef5"},"vehicle_type_id":"4","last_reported":1737219970,"current_range_meters":32400,"station_id":"ce4bhoh2rcd13ifvqh5g","pricing_plan_id":"cebpf4jnsgd1na2vs0mg"},{"bike_id":"8494f01d-6f97-4ae6-a516-bdb7ba1e69c7","system_id":"levelo_inurba_marseille","lat":43.30603,"lon":5.3722,"is_reserved":false,"is_disabled":false,"rental_uris":{"android":"levelo://app?vid=8494f01d-6f97-4ae6-a516-bdb7ba1e69c7","ios":"levelo://app?vid=8494f01d-6f97-4ae6-a516-bdb7ba1e69c7"},"vehicle_type_id":"4","last_reported":1737219970,"current_range_meters":38800,"station_id":"ce4bgqh2rcd13ifvqc4g","pricing_plan_id":"cebpf4jnsgd1na2vs0mg"},{"bike_id":"2189f33e-4cfd-4f76-9d91-913095d551c4","system_id":"levelo_inurba_marseille","lat":43.30349,"lon":5.39103,"is_reserved":false,"is_disabled":true,"rental_uris":{"android":"levelo://app?vid=2189f33e-4cfd-4f76-9d91-913095d551c4","ios":"levelo://app?vid=2189f33e-4cfd-4f76-9d91-913095d551c4"},"vehicle_type_id":"4","last_reported":1737219970,"current_range_meters":0,"station_id":"","pricing_plan_id":"cebpf4jnsgd1na2vs0mg"},{"bike_id":"17c7b9e1-ab22-4527-876f-37ecce330109","system_id":"levelo_inurba_marseille","lat":43.31527,"lon":5.38032,"is_reserved":false,"is_disabled":false,"rental_uris":{"android":"levelo://app?vid=17c7b9e1-ab22-4527-876f-37ecce330109","ios":"levelo://app?vid=17c7b9e1-ab22-4527-876f-37ecce330109"},"vehicle_type_id":"4","last_reported":1737219970,"current_range_meters":19600,"station_id":"ce4bhsp2rcd13ifvqi50","pricing_plan_id":"cebpf4jnsgd1na2vs0mg"},{"bike_id":"97044d7c-ed22-4a21-8e9e-3ce6b83c33ed","system_id":"levelo_inurba_marseille","lat":43.28965,"lon":5.37835,"is_reserved":false,"is_disabled":false,"rental_uris":{"android":"levelo://app?vid=97044d7c-ed22-4a21-8e9e-3ce6b83c33ed","ios":"levelo://app?vid=97044d7c-ed22-4a21-8e9e-3ce6b83c33ed"},"vehicle_type_id":"4","last_reported":1737219970,"current_range_meters":25200,"station_id":"ce4bh9p2rcd13ifvqed0","pricing_plan_id":"cebpf4jnsgd1na2vs0mg"},{"bike_id":"7383474c-b45a-4438-837c-99d7ae866fe7","system_id":"levelo_inurba_marseille","lat":43.26053,"lon":5.39395,"is_reserved":false,"is_disabled":false,"rental_uris":{"android":"levelo://app?vid=7383474c-b45a-4438-837c-99d7ae866fe7","ios":"levelo://app?vid=7383474c-b45a-4438-837c-99d7ae866fe7"},"vehicle_type_id":"4","last_reported":1737219970,"current_range_meters":38000,"station_id":"ce4bhh92rcd13ifvqfj0","pricing_plan_id":"cebpf4jnsgd1na2vs0mg"},{"bike_id":"541b7769-8083-411e-ad4d-d20a4dfa7b91","system_id":"levelo_inurba_marseille","lat":43.31269,"lon":5.40176,"is_reserved":false,"is_disabled":false,"rental_uris":{"android":"levelo://app?vid=541b7769-8083-411e-ad4d-d20a4dfa7b91","ios":"levelo://app?vid=541b7769-8083-411e-ad4d-d20a4dfa7b91"},"vehicle_type_id":"4","last_reported":1737219970,"current_range_meters":12400,"station_id":"ce4bh092rcd13ifvqd30","pricing_plan_id":"cebpf4jnsgd1na2vs0mg"},{"bike_id":"a5df5f34-6cf9-4d06-980c-0253ccc3be41","system_id":"levelo_inurba_marseille","lat":43.31125,"lon":5.37769,"is_reserved":false,"is_disabled":false,"rental_uris":{"android":"levelo://app?vid=a5df5f34-6cf9-4d06-980c-0253ccc3be41","ios":"levelo://app?vid=a5df5f34-6cf9-4d06-980c-0253ccc3be41"},"vehicle_type_id":"4","last_reported":1737219970,"current_range_meters":22000,"station_id":"ce4bgt92rcd13ifvqcg0","pricing_plan_id":"cebpf4jnsgd1na2vs0mg"},{"bike_id":"24b70b53-0462-46ae-8f38-ed45b9177133","system_id":"levelo_inurba_marseille","lat":43.3013,"lon":5.39878,"is_reserved":false,"is_disabled":false,"rental_uris":{"android":"levelo://app?vid=24b70b53-0462-46ae-8f38-ed45b9177133","ios":"levelo://app?vid=24b70b53-0462-46ae-8f38-ed45b9177133"},"vehicle_type_id":"4","last_reported":1737219970,"current_range_meters":30000,"station_id":"ce4bh0h2rcd13ifvqd40","pricing_plan_id":"cebpf4jnsgd1na2vs0mg"},{"bike_id":"0d5bf58b-8962-4322-87c4-754920ec04ac","system_id":"levelo_inurba_marseille","lat":43.31176,"lon":5.38709,"is_reserved":false,"is_disabled":true,"rental_uris":{"android":"levelo://app?vid=0d5bf58b-8962-4322-87c4-754920ec04ac","ios":"levelo://app?vid=0d5bf58b-8962-4322-87c4-754920ec04ac"},"vehicle_type_id":"4","last_reported":1737219970,"current_range_meters":36400,"station_id":"ce4bgv12rcd13ifvqcp0","pricing_plan_id":"cebpf4jnsgd1na2vs0mg"},{"bike_id":"c92cbb9f-5a8c-4f30-b00a-221ba31b944d","system_id":"levelo_inurba_marseille","lat":43.28426,"lon":5.3499,"is_reserved":false,"is_disabled":true,"rental_uris":{"android":"levelo://app?vid=c92cbb9f-5a8c-4f30-b00a-221ba31b944d","ios":"levelo://app?vid=c92cbb9f-5a8c-4f30-b00a-221ba31b944d"},"vehicle_type_id":"4","last_reported":1737219970,"current_range_meters":35600,"station_id":"ce4bhbh2rcd13ifvqepg","pricing_plan_id":"cebpf4jnsgd1na2vs0mg"},{"bike_id":"672191b5-8a58-4245-b999-dbe5af98ffd8","system_id":"levelo_inurba_marseille","lat":43.3032,"lon":5.36892,"is_reserved":false,"is_disabled":false,"rental_uris":{"android":"levelo://app?vid=672191b5-8a58-4245-b999-dbe5af98ffd8","ios":"levelo://app?vid=672191b5-8a58-4245-b999-dbe5af98ffd8"},"vehicle_type_id":"4","last_reported":1737219970,"current_range_meters":29600,"station_id":"ce4bgqh2rcd13ifvqc5g","pricing_plan_id":"cebpf4jnsgd1na2vs0mg"},{"bike_id":"fe90f7a6-3920-456a-9451-50d213b7000f","system_id":"levelo_inurba_marseille","lat":43.284771,"lon":5.384414,"is_reserved":false,"is_disabled":true,"rental_uris":{"android":"levelo://app?vid=fe90f7a6-3920-456a-9451-50d213b7000f","ios":"levelo://app?vid=fe90f7a6-3920-456a-9451-50d213b7000f"},"vehicle_type_id":"4","last_reported":1737219970,"current_range_meters":36400,"station_id":"ce4bh512rcd13ifvqe3g","pricing_plan_id":"cebpf4jnsgd1na2vs0mg"},{"bike_id":"d68d4c6c-ace6-47ca-a78f-51f9adc5b848","system_id":"levelo_inurba_marseille","lat":43.26213,"lon":5.40454,"is_reserved":false,"is_disabled":false,"rental_uris":{"android":"levelo://app?vid=d68d4c6c-ace6-47ca-a78f-51f9adc5b848","ios":"levelo://app?vid=d68d4c6c-ace6-47ca-a78f-51f9adc5b848"},"vehicle_type_id":"4","last_reported":1737219970,"current_range_meters":8400,"station_id":"","pricing_plan_id":"cebpf4jnsgd1na2vs0mg"},{"bike_id":"7d96fda9-32b2-47ca-99af-a25a955f7a77","system_id":"levelo_inurba_marseille","lat":43.26059,"lon":5.39401,"is_reserved":false,"is_disabled":false,"rental_uris":{"android":"levelo://app?vid=7d96fda9-32b2-47ca-99af-a25a955f7a77","ios":"levelo://app?vid=7d96fda9-32b2-47ca-99af-a25a955f7a77"},"vehicle_type_id":"4","last_reported":1737219970,"current_range_meters":36400,"station_id":"ce4bhh92rcd13ifvqfj0","pricing_plan_id":"cebpf4jnsgd1na2vs0mg"},{"bike_id":"30c55592-5c2d-4766-9ae9-6f1e5192194b","system_id":"levelo_inurba_marseille","lat":43.307904,"lon":5.376628,"is_reserved":false,"is_disabled":false,"rental_uris":{"android":"levelo://app?vid=30c55592-5c2d-4766-9ae9-6f1e5192194b","ios":"levelo://app?vid=30c55592-5c2d-4766-9ae9-6f1e5192194b"},"vehicle_type_id":"4","last_reported":1737219970,"current_range_meters":38800,"station_id":"ce4bgv92rcd13ifvqcq0","pricing_plan_id":"cebpf4jnsgd1na2vs0mg"},{"bike_id":"62b8620f-2bad-4b99-86b6-3ecbfb1fb840","system_id":"levelo_inurba_marseille","lat":43.30136,"lon":5.38783,"is_reserved":false,"is_disabled":false,"rental_uris":{"android":"levelo://app?vid=62b8620f-2bad-4b99-86b6-3ecbfb1fb840","ios":"levelo://app?vid=62b8620f-2bad-4b99-86b6-3ecbfb1fb840"},"vehicle_type_id":"4","last_reported":1737219970,"current_range_meters":37600,"station_id":"ce4bhoh2rcd13ifvqh6g","pricing_plan_id":"cebpf4jnsgd1na2vs0mg"},{"bike_id":"fcaf8c93-ae40-4672-ba1f-a455a006d19e","system_id":"levelo_inurba_marseille","lat":43.29284,"lon":5.36843,"is_reserved":false,"is_disabled":false,"rental_uris":{"android":"levelo://app?vid=fcaf8c93-ae40-4672-ba1f-a455a006d19e","ios":"levelo://app?vid=fcaf8c93-ae40-4672-ba1f-a455a006d19e"},"vehicle_type_id":"4","last_reported":1737219970,"current_range_meters":32000,"station_id":"ce4bhbp2rcd13ifvqesg","pricing_plan_id":"cebpf4jnsgd1na2vs0mg"},{"bike_id":"a9a0e60f-8e94-490a-988c-5a9cfc45d626","system_id":"levelo_inurba_marseille","lat":43.24178,"lon":5.36383,"is_reserved":false,"is_disabled":false,"rental_uris":{"android":"levelo://app?vid=a9a0e60f-8e94-490a-988c-5a9cfc45d626","ios":"levelo://app?vid=a9a0e60f-8e94-490a-988c-5a9cfc45d626"},"vehicle_type_id":"4","last_reported":1737219970,"current_range_meters":10000,"station_id":"cpo36qri1sfpv3e86is0","pricing_plan_id":"cebpf4jnsgd1na2vs0mg"},{"bike_id":"f7a30e40-81cb-4a9a-8556-460dae52238e","system_id":"levelo_inurba_marseille","lat":43.27618,"lon":5.36113,"is_reserved":false,"is_disabled":false,"rental_uris":{"android":"levelo://app?vid=f7a30e40-81cb-4a9a-8556-460dae52238e","ios":"levelo://app?vid=f7a30e40-81cb-4a9a-8556-460dae52238e"},"vehicle_type_id":"4","last_reported":1737219970,"current_range_meters":9600,"station_id":"ce4bgj92rcd13ifvqbe0","pricing_plan_id":"cebpf4jnsgd1na2vs0mg"},{"bike_id":"42353c82-bdaf-4489-8377-88f4f1f0b554","system_id":"levelo_inurba_marseille","lat":43.29187,"lon":5.35799,"is_reserved":false,"is_disabled":false,"rental_uris":{"android":"levelo://app?vid=42353c82-bdaf-4489-8377-88f4f1f0b554","ios":"levelo://app?vid=42353c82-bdaf-4489-8377-88f4f1f0b554"},"vehicle_type_id":"4","last_reported":1737219970,"current_range_meters":16800,"station_id":"ce4bhb12rcd13ifvqel0","pricing_plan_id":"cebpf4jnsgd1na2vs0mg"},{"bike_id":"e59ee031-3e7e-41f9-ad2e-337369760a6a","system_id":"levelo_inurba_marseille","lat":43.27963,"lon":5.38738,"is_reserved":false,"is_disabled":false,"rental_uris":{"android":"levelo://app?vid=e59ee031-3e7e-41f9-ad2e-337369760a6a","ios":"levelo://app?vid=e59ee031-3e7e-41f9-ad2e-337369760a6a"},"vehicle_type_id":"4","last_reported":1737219970,"current_range_meters":38800,"station_id":"ce4bhg12rcd13ifvqf80","pricing_plan_id":"cebpf4jnsgd1na2vs0mg"},{"bike_id":"76dbf6ef-b4a8-4cef-8918-462b67116819","system_id":"levelo_inurba_marseille","lat":43.32282,"lon":5.38263,"is_reserved":false,"is_disabled":false,"rental_uris":{"android":"levelo://app?vid=76dbf6ef-b4a8-4cef-8918-462b67116819","ios":"levelo://app?vid=76dbf6ef-b4a8-4cef-8918-462b67116819"},"vehicle_type_id":"4","last_reported":1737219970,"current_range_meters":38800,"station_id":"ce4bhr12rcd13ifvqhqg","pricing_plan_id":"cebpf4jnsgd1na2vs0mg"},{"bike_id":"0b833223-f10f-463f-bdc8-ecfab0295c72","system_id":"levelo_inurba_marseille","lat":43.231933,"lon":5.355521,"is_reserved":false,"is_disabled":false,"rental_uris":{"android":"levelo://app?vid=0b833223-f10f-463f-bdc8-ecfab0295c72","ios":"levelo://app?vid=0b833223-f10f-463f-bdc8-ecfab0295c72"},"vehicle_type_id":"4","last_reported":1737219970,"current_range_meters":26000,"station_id":"ce4bhu92rcd13ifvqi70","pricing_plan_id":"cebpf4jnsgd1na2vs0mg"},{"bike_id":"91ddd0d0-0047-41f2-9bdc-35627c63848f","system_id":"levelo_inurba_marseille","lat":43.29967,"lon":5.38493,"is_reserved":false,"is_disabled":false,"rental_uris":{"android":"levelo://app?vid=91ddd0d0-0047-41f2-9bdc-35627c63848f","ios":"levelo://app?vid=91ddd0d0-0047-41f2-9bdc-35627c63848f"},"vehicle_type_id":"4","last_reported":1737219970,"current_range_meters":20000,"station_id":"ce4bgj92rcd13ifvqbd0","pricing_plan_id":"cebpf4jnsgd1na2vs0mg"},{"bike_id":"2c381de4-361b-443f-b9ba-95405aecd4d2","system_id":"levelo_inurba_marseille","lat":43.27972,"lon":5.38725,"is_reserved":false,"is_disabled":false,"rental_uris":{"android":"levelo://app?vid=2c381de4-361b-443f-b9ba-95405aecd4d2","ios":"levelo://app?vid=2c381de4-361b-443f-b9ba-95405aecd4d2"},"vehicle_type_id":"4","last_reported":1737219970,"current_range_meters":12000,"station_id":"ce4bhg12rcd13ifvqf80","pricing_plan_id":"cebpf4jnsgd1na2vs0mg"},{"bike_id":"b3788be7-49e0-4e5f-8ebf-71622c4d1455","system_id":"levelo_inurba_marseille","lat":43.31085,"lon":5.42429,"is_reserved":false,"is_disabled":false,"rental_uris":{"android":"levelo://app?vid=b3788be7-49e0-4e5f-8ebf-71622c4d1455","ios":"levelo://app?vid=b3788be7-49e0-4e5f-8ebf-71622c4d1455"},"vehicle_type_id":"4","last_reported":1737219970,"current_range_meters":25600,"station_id":"ce4bhp92rcd13ifvqhag","pricing_plan_id":"cebpf4jnsgd1na2vs0mg"},{"bike_id":"3dbe79e4-a0fc-4156-bd7c-9f1efc3048ef","system_id":"levelo_inurba_marseille","lat":43.29806,"lon":5.40388,"is_reserved":false,"is_disabled":false,"rental_uris":{"android":"levelo://app?vid=3dbe79e4-a0fc-4156-bd7c-9f1efc3048ef","ios":"levelo://app?vid=3dbe79e4-a0fc-4156-bd7c-9f1efc3048ef"},"vehicle_type_id":"4","last_reported":1737219970,"current_range_meters":17600,"station_id":"ce4bh112rcd13ifvqd90","pricing_plan_id":"cebpf4jnsgd1na2vs0mg"},{"bike_id":"f5863b18-13a1-4c6e-92de-5668ea912ad3","system_id":"levelo_inurba_marseille","lat":43.26213,"lon":5.40435,"is_reserved":false,"is_disabled":true,"rental_uris":{"android":"levelo://app?vid=f5863b18-13a1-4c6e-92de-5668ea912ad3","ios":"levelo://app?vid=f5863b18-13a1-4c6e-92de-5668ea912ad3"},"vehicle_type_id":"4","last_reported":1737219970,"current_range_meters":0,"station_id":"","pricing_plan_id":"cebpf4jnsgd1na2vs0mg"},{"bike_id":"47b935dd-f1c3-4468-9bb1-4f34f7095ca1","system_id":"levelo_inurba_marseille","lat":43.27378,"lon":5.36251,"is_reserved":false,"is_disabled":true,"rental_uris":{"android":"levelo://app?vid=47b935dd-f1c3-4468-9bb1-4f34f7095ca1","ios":"levelo://app?vid=47b935dd-f1c3-4468-9bb1-4f34f7095ca1"},"vehicle_type_id":"4","last_reported":1737219970,"current_range_meters":1600,"station_id":"ce4bhbh2rcd13ifvqeo0","pricing_plan_id":"cebpf4jnsgd1na2vs0mg"},{"bike_id":"3c24a366-6593-41fd-aac3-5456277a8515","system_id":"levelo_inurba_marseille","lat":43.30176,"lon":5.38056,"is_reserved":false,"is_disabled":false,"rental_uris":{"android":"levelo://app?vid=3c24a366-6593-41fd-aac3-5456277a8515","ios":"levelo://app?vid=3c24a366-6593-41fd-aac3-5456277a8515"},"vehicle_type_id":"4","last_reported":1737219970,"current_range_meters":5600,"station_id":"ce4bgjp2rcd13ifvqbh0","pricing_plan_id":"cebpf4jnsgd1na2vs0mg"},{"bike_id":"ff799074-43a9-452a-9fe7-07dd0bd1c3b5","system_id":"levelo_inurba_marseille","lat":43.26215,"lon":5.37451,"is_reserved":false,"is_disabled":false,"rental_uris":{"android":"levelo://app?vid=ff799074-43a9-452a-9fe7-07dd0bd1c3b5","ios":"levelo://app?vid=ff799074-43a9-452a-9fe7-07dd0bd1c3b5"},"vehicle_type_id":"4","last_reported":1737219970,"current_range_meters":38800,"station_id":"ce4bhgp2rcd13ifvqfc0","pricing_plan_id":"cebpf4jnsgd1na2vs0mg"},{"bike_id":"46686b70-f375-4947-b209-2f4548c2edcf","system_id":"levelo_inurba_marseille","lat":43.288761,"lon":5.394522,"is_reserved":false,"is_disabled":true,"rental_uris":{"android":"levelo://app?vid=46686b70-f375-4947-b209-2f4548c2edcf","ios":"levelo://app?vid=46686b70-f375-4947-b209-2f4548c2edcf"},"vehicle_type_id":"4","last_reported":1737219970,"current_range_meters":0,"station_id":"","pricing_plan_id":"cebpf4jnsgd1na2vs0mg"},{"bike_id":"a8ccad55-0902-41d1-9a54-3487026a0c17","system_id":"levelo_inurba_marseille","lat":43.30796,"lon":5.38158,"is_reserved":false,"is_disabled":false,"rental_uris":{"android":"levelo://app?vid=a8ccad55-0902-41d1-9a54-3487026a0c17","ios":"levelo://app?vid=a8ccad55-0902-41d1-9a54-3487026a0c17"},"vehicle_type_id":"4","last_reported":1737219970,"current_range_meters":35600,"station_id":"ce4bgt12rcd13ifvqce0","pricing_plan_id":"cebpf4jnsgd1na2vs0mg"},{"bike_id":"c45df17e-ae35-4188-9628-21121090fa1f","system_id":"levelo_inurba_marseille","lat":43.26197,"lon":5.37436,"is_reserved":false,"is_disabled":false,"rental_uris":{"android":"levelo://app?vid=c45df17e-ae35-4188-9628-21121090fa1f","ios":"levelo://app?vid=c45df17e-ae35-4188-9628-21121090fa1f"},"vehicle_type_id":"4","last_reported":1737219970,"current_range_meters":36800,"station_id":"ce4bhgp2rcd13ifvqfc0","pricing_plan_id":"cebpf4jnsgd1na2vs0mg"},{"bike_id":"98fedb65-4d08-453d-8fa5-59b8b48aa028","system_id":"levelo_inurba_marseille","lat":43.29925,"lon":5.3654,"is_reserved":false,"is_disabled":false,"rental_uris":{"android":"levelo://app?vid=98fedb65-4d08-453d-8fa5-59b8b48aa028","ios":"levelo://app?vid=98fedb65-4d08-453d-8fa5-59b8b48aa028"},"vehicle_type_id":"4","last_reported":1737219970,"current_range_meters":38800,"station_id":"ce4bgm92rcd13ifvqbr0","pricing_plan_id":"cebpf4jnsgd1na2vs0mg"},{"bike_id":"a502fac6-fc2c-47d3-b5a0-b0b0d12c1a71","system_id":"levelo_inurba_marseille","lat":43.30794,"lon":5.38169,"is_reserved":false,"is_disabled":true,"rental_uris":{"android":"levelo://app?vid=a502fac6-fc2c-47d3-b5a0-b0b0d12c1a71","ios":"levelo://app?vid=a502fac6-fc2c-47d3-b5a0-b0b0d12c1a71"},"vehicle_type_id":"4","last_reported":1737219970,"current_range_meters":5600,"station_id":"ce4bgt12rcd13ifvqce0","pricing_plan_id":"cebpf4jnsgd1na2vs0mg"},{"bike_id":"5017336f-0fcc-4983-97cb-9f7de0ce7bf7","system_id":"levelo_inurba_marseille","lat":43.29512,"lon":5.38795,"is_reserved":false,"is_disabled":false,"rental_uris":{"android":"levelo://app?vid=5017336f-0fcc-4983-97cb-9f7de0ce7bf7","ios":"levelo://app?vid=5017336f-0fcc-4983-97cb-9f7de0ce7bf7"},"vehicle_type_id":"4","last_reported":1737219970,"current_range_meters":32400,"station_id":"ce4bgih2rcd13ifvqba0","pricing_plan_id":"cebpf4jnsgd1na2vs0mg"},{"bike_id":"7510d40d-3dd8-4fe7-b985-6ddc4d4f516c","system_id":"levelo_inurba_marseille","lat":43.27433,"lon":5.39416,"is_reserved":false,"is_disabled":false,"rental_uris":{"android":"levelo://app?vid=7510d40d-3dd8-4fe7-b985-6ddc4d4f516c","ios":"levelo://app?vid=7510d40d-3dd8-4fe7-b985-6ddc4d4f516c"},"vehicle_type_id":"4","last_reported":1737219970,"current_range_meters":18000,"station_id":"ce4bhdp2rcd13ifvqf20","pricing_plan_id":"cebpf4jnsgd1na2vs0mg"},{"bike_id":"5deef3b2-d489-42e2-b180-fce0dc75d0c7","system_id":"levelo_inurba_marseille","lat":43.29043,"lon":5.37577,"is_reserved":false,"is_disabled":false,"rental_uris":{"android":"levelo://app?vid=5deef3b2-d489-42e2-b180-fce0dc75d0c7","ios":"levelo://app?vid=5deef3b2-d489-42e2-b180-fce0dc75d0c7"},"vehicle_type_id":"4","last_reported":1737219970,"current_range_meters":38000,"station_id":"ce4bh692rcd13ifvqe90","pricing_plan_id":"cebpf4jnsgd1na2vs0mg"},{"bike_id":"6870a9e0-7988-452a-a0a6-84e136278682","system_id":"levelo_inurba_marseille","lat":43.265538,"lon":5.372878,"is_reserved":false,"is_disabled":false,"rental_uris":{"android":"levelo://app?vid=6870a9e0-7988-452a-a0a6-84e136278682","ios":"levelo://app?vid=6870a9e0-7988-452a-a0a6-84e136278682"},"vehicle_type_id":"4","last_reported":1737219970,"current_range_meters":36800,"station_id":"ce4bhg12rcd13ifvqf70","pricing_plan_id":"cebpf4jnsgd1na2vs0mg"},{"bike_id":"1e537b32-bc35-4597-af4f-cc9ba8c53f36","system_id":"levelo_inurba_marseille","lat":43.31478,"lon":5.37299,"is_reserved":false,"is_disabled":false,"rental_uris":{"android":"levelo://app?vid=1e537b32-bc35-4597-af4f-cc9ba8c53f36","ios":"levelo://app?vid=1e537b32-bc35-4597-af4f-cc9ba8c53f36"},"vehicle_type_id":"4","last_reported":1737219970,"current_range_meters":38800,"station_id":"ce4bgt12rcd13ifvqcd0","pricing_plan_id":"cebpf4jnsgd1na2vs0mg"},{"bike_id":"8d6893ce-9784-4f54-b1d2-57d54414c78c","system_id":"levelo_inurba_marseille","lat":43.28035,"lon":5.36956,"is_reserved":false,"is_disabled":false,"rental_uris":{"android":"levelo://app?vid=8d6893ce-9784-4f54-b1d2-57d54414c78c","ios":"levelo://app?vid=8d6893ce-9784-4f54-b1d2-57d54414c78c"},"vehicle_type_id":"4","last_reported":1737219970,"current_range_meters":4800,"station_id":"ce4bha12rcd13ifvqef0","pricing_plan_id":"cebpf4jnsgd1na2vs0mg"},{"bike_id":"77896faa-b921-4486-8751-fba5bf431f10","system_id":"levelo_inurba_marseille","lat":43.29258,"lon":5.40908,"is_reserved":false,"is_disabled":false,"rental_uris":{"android":"levelo://app?vid=77896faa-b921-4486-8751-fba5bf431f10","ios":"levelo://app?vid=77896faa-b921-4486-8751-fba5bf431f10"},"vehicle_type_id":"4","last_reported":1737219970,"current_range_meters":20800,"station_id":"ce4bh192rcd13ifvqdc0","pricing_plan_id":"cebpf4jnsgd1na2vs0mg"},{"bike_id":"ebfdf67f-90cc-4cbc-ab39-c76e0694a8f2","system_id":"levelo_inurba_marseille","lat":43.26568,"lon":5.39008,"is_reserved":false,"is_disabled":false,"rental_uris":{"android":"levelo://app?vid=ebfdf67f-90cc-4cbc-ab39-c76e0694a8f2","ios":"levelo://app?vid=ebfdf67f-90cc-4cbc-ab39-c76e0694a8f2"},"vehicle_type_id":"4","last_reported":1737219970,"current_range_meters":16000,"station_id":"","pricing_plan_id":"cebpf4jnsgd1na2vs0mg"},{"bike_id":"56556140-e355-4c2a-8d91-1e6b4b75323b","system_id":"levelo_inurba_marseille","lat":43.29643,"lon":5.39785,"is_reserved":false,"is_disabled":false,"rental_uris":{"android":"levelo://app?vid=56556140-e355-4c2a-8d91-1e6b4b75323b","ios":"levelo://app?vid=56556140-e355-4c2a-8d91-1e6b4b75323b"},"vehicle_type_id":"4","last_reported":1737219970,"current_range_meters":28400,"station_id":"ce4bh312rcd13ifvqdj0","pricing_plan_id":"cebpf4jnsgd1na2vs0mg"},{"bike_id":"f0618c81-c560-4d9b-9771-7d936f67d956","system_id":"levelo_inurba_marseille","lat":43.31896,"lon":5.40717,"is_reserved":false,"is_disabled":false,"rental_uris":{"android":"levelo://app?vid=f0618c81-c560-4d9b-9771-7d936f67d956","ios":"levelo://app?vid=f0618c81-c560-4d9b-9771-7d936f67d956"},"vehicle_type_id":"4","last_reported":1737219970,"current_range_meters":22000,"station_id":"ce4bhq12rcd13ifvqhig","pricing_plan_id":"cebpf4jnsgd1na2vs0mg"},{"bike_id":"ee76e385-dc29-4ac5-8128-a5afbe69cc79","system_id":"levelo_inurba_marseille","lat":43.25073,"lon":5.39523,"is_reserved":false,"is_disabled":false,"rental_uris":{"android":"levelo://app?vid=ee76e385-dc29-4ac5-8128-a5afbe69cc79","ios":"levelo://app?vid=ee76e385-dc29-4ac5-8128-a5afbe69cc79"},"vehicle_type_id":"4","last_reported":1737219970,"current_range_meters":38800,"station_id":"ce4bhm12rcd13ifvqgkg","pricing_plan_id":"cebpf4jnsgd1na2vs0mg"},{"bike_id":"e49e547a-a7d3-4b19-81fb-25e3b7fc3aa3","system_id":"levelo_inurba_marseille","lat":43.26206,"lon":5.37447,"is_reserved":false,"is_disabled":false,"rental_uris":{"android":"levelo://app?vid=e49e547a-a7d3-4b19-81fb-25e3b7fc3aa3","ios":"levelo://app?vid=e49e547a-a7d3-4b19-81fb-25e3b7fc3aa3"},"vehicle_type_id":"4","last_reported":1737219970,"current_range_meters":16000,"station_id":"ce4bhgp2rcd13ifvqfc0","pricing_plan_id":"cebpf4jnsgd1na2vs0mg"},{"bike_id":"f01d1c03-f2ef-4cb6-904d-2aa20d29f346","system_id":"levelo_inurba_marseille","lat":43.28474,"lon":5.38405,"is_reserved":false,"is_disabled":false,"rental_uris":{"android":"levelo://app?vid=f01d1c03-f2ef-4cb6-904d-2aa20d29f346","ios":"levelo://app?vid=f01d1c03-f2ef-4cb6-904d-2aa20d29f346"},"vehicle_type_id":"4","last_reported":1737219970,"current_range_meters":32000,"station_id":"ce4bh512rcd13ifvqe3g","pricing_plan_id":"cebpf4jnsgd1na2vs0mg"},{"bike_id":"c73224c5-8662-473f-8844-f010af6d2952","system_id":"levelo_inurba_marseille","lat":43.272,"lon":5.40999,"is_reserved":false,"is_disabled":true,"rental_uris":{"android":"levelo://app?vid=c73224c5-8662-473f-8844-f010af6d2952","ios":"levelo://app?vid=c73224c5-8662-473f-8844-f010af6d2952"},"vehicle_type_id":"4","last_reported":1737219970,"current_range_meters":23200,"station_id":"ce4bhl12rcd13ifvqgf0","pricing_plan_id":"cebpf4jnsgd1na2vs0mg"},{"bike_id":"95b517d0-9dcf-47f9-8053-773bec6e6a69","system_id":"levelo_inurba_marseille","lat":43.26684,"lon":5.39517,"is_reserved":false,"is_disabled":false,"rental_uris":{"android":"levelo://app?vid=95b517d0-9dcf-47f9-8053-773bec6e6a69","ios":"levelo://app?vid=95b517d0-9dcf-47f9-8053-773bec6e6a69"},"vehicle_type_id":"4","last_reported":1737219970,"current_range_meters":16400,"station_id":"","pricing_plan_id":"cebpf4jnsgd1na2vs0mg"},{"bike_id":"4df1265a-29e0-438e-82d3-9139cadaf360","system_id":"levelo_inurba_marseille","lat":43.30886,"lon":5.37223,"is_reserved":false,"is_disabled":false,"rental_uris":{"android":"levelo://app?vid=4df1265a-29e0-438e-82d3-9139cadaf360","ios":"levelo://app?vid=4df1265a-29e0-438e-82d3-9139cadaf360"},"vehicle_type_id":"4","last_reported":1737219970,"current_range_meters":35200,"station_id":"ce4bguh2rcd13ifvqckg","pricing_plan_id":"cebpf4jnsgd1na2vs0mg"},{"bike_id":"3f53c32e-7b19-43e9-846a-23748df89c37","system_id":"levelo_inurba_marseille","lat":43.24661,"lon":5.38162,"is_reserved":false,"is_disabled":false,"rental_uris":{"android":"levelo://app?vid=3f53c32e-7b19-43e9-846a-23748df89c37","ios":"levelo://app?vid=3f53c32e-7b19-43e9-846a-23748df89c37"},"vehicle_type_id":"4","last_reported":1737219970,"current_range_meters":20400,"station_id":"ce4bhih2rcd13ifvqfr0","pricing_plan_id":"cebpf4jnsgd1na2vs0mg"},{"bike_id":"426c6dbb-f325-4738-906d-29242f82afb0","system_id":"levelo_inurba_marseille","lat":43.31366,"lon":5.3671,"is_reserved":false,"is_disabled":false,"rental_uris":{"android":"levelo://app?vid=426c6dbb-f325-4738-906d-29242f82afb0","ios":"levelo://app?vid=426c6dbb-f325-4738-906d-29242f82afb0"},"vehicle_type_id":"4","last_reported":1737219970,"current_range_meters":38800,"station_id":"ce4bgr92rcd13ifvqc6g","pricing_plan_id":"cebpf4jnsgd1na2vs0mg"},{"bike_id":"702d477f-58b0-4e53-9e19-be7bbb68bee3","system_id":"levelo_inurba_marseille","lat":43.29484,"lon":5.38687,"is_reserved":false,"is_disabled":true,"rental_uris":{"android":"levelo://app?vid=702d477f-58b0-4e53-9e19-be7bbb68bee3","ios":"levelo://app?vid=702d477f-58b0-4e53-9e19-be7bbb68bee3"},"vehicle_type_id":"4","last_reported":1737219970,"current_range_meters":0,"station_id":"","pricing_plan_id":"cebpf4jnsgd1na2vs0mg"},{"bike_id":"4b5769e0-eaaf-49d6-b036-992bb26577c1","system_id":"levelo_inurba_marseille","lat":43.28941,"lon":5.36631,"is_reserved":false,"is_disabled":false,"rental_uris":{"android":"levelo://app?vid=4b5769e0-eaaf-49d6-b036-992bb26577c1","ios":"levelo://app?vid=4b5769e0-eaaf-49d6-b036-992bb26577c1"},"vehicle_type_id":"4","last_reported":1737219970,"current_range_meters":38800,"station_id":"ce4bhap2rcd13ifvqek0","pricing_plan_id":"cebpf4jnsgd1na2vs0mg"},{"bike_id":"59246836-8e4f-4f74-8671-48d03364e35c","system_id":"levelo_inurba_marseille","lat":43.29926,"lon":5.36544,"is_reserved":false,"is_disabled":false,"rental_uris":{"android":"levelo://app?vid=59246836-8e4f-4f74-8671-48d03364e35c","ios":"levelo://app?vid=59246836-8e4f-4f74-8671-48d03364e35c"},"vehicle_type_id":"4","last_reported":1737219970,"current_range_meters":9600,"station_id":"ce4bgm92rcd13ifvqbr0","pricing_plan_id":"cebpf4jnsgd1na2vs0mg"},{"bike_id":"39c4d978-87c8-4363-8671-59844c5d8b64","system_id":"levelo_inurba_marseille","lat":43.28859,"lon":5.3584,"is_reserved":false,"is_disabled":true,"rental_uris":{"android":"levelo://app?vid=39c4d978-87c8-4363-8671-59844c5d8b64","ios":"levelo://app?vid=39c4d978-87c8-4363-8671-59844c5d8b64"},"vehicle_type_id":"4","last_reported":1737219970,"current_range_meters":0,"station_id":"ce4bhb12rcd13ifvqem0","pricing_plan_id":"cebpf4jnsgd1na2vs0mg"},{"bike_id":"6d5abdb3-80a9-40bc-8a67-036502aae1a8","system_id":"levelo_inurba_marseille","lat":43.28162,"lon":5.42636,"is_reserved":false,"is_disabled":true,"rental_uris":{"android":"levelo://app?vid=6d5abdb3-80a9-40bc-8a67-036502aae1a8","ios":"levelo://app?vid=6d5abdb3-80a9-40bc-8a67-036502aae1a8"},"vehicle_type_id":"4","last_reported":1737219970,"current_range_meters":0,"station_id":"ce4bhnh2rcd13ifvqgug","pricing_plan_id":"cebpf4jnsgd1na2vs0mg"},{"bike_id":"f794da46-ed8e-413d-a9ef-597fcaa376b5","system_id":"levelo_inurba_marseille","lat":43.29022,"lon":5.38135,"is_reserved":false,"is_disabled":false,"rental_uris":{"android":"levelo://app?vid=f794da46-ed8e-413d-a9ef-597fcaa376b5","ios":"levelo://app?vid=f794da46-ed8e-413d-a9ef-597fcaa376b5"},"vehicle_type_id":"4","last_reported":1737219970,"current_range_meters":39200,"station_id":"ce4bh4p2rcd13ifvqe1g","pricing_plan_id":"cebpf4jnsgd1na2vs0mg"},{"bike_id":"996ec3a4-8974-4f4a-ba5b-530ee24dd9db","system_id":"levelo_inurba_marseille","lat":43.2762,"lon":5.36117,"is_reserved":false,"is_disabled":false,"rental_uris":{"android":"levelo://app?vid=996ec3a4-8974-4f4a-ba5b-530ee24dd9db","ios":"levelo://app?vid=996ec3a4-8974-4f4a-ba5b-530ee24dd9db"},"vehicle_type_id":"4","last_reported":1737219970,"current_range_meters":23200,"station_id":"ce4bgj92rcd13ifvqbe0","pricing_plan_id":"cebpf4jnsgd1na2vs0mg"},{"bike_id":"82f8c609-f6ad-4a2a-b796-e258179f4505","system_id":"levelo_inurba_marseille","lat":43.24649,"lon":5.389,"is_reserved":false,"is_disabled":false,"rental_uris":{"android":"levelo://app?vid=82f8c609-f6ad-4a2a-b796-e258179f4505","ios":"levelo://app?vid=82f8c609-f6ad-4a2a-b796-e258179f4505"},"vehicle_type_id":"4","last_reported":1737219970,"current_range_meters":38800,"station_id":"ce4bhg12rcd13ifvqf60","pricing_plan_id":"cebpf4jnsgd1na2vs0mg"},{"bike_id":"994036af-157a-4481-b51c-d39eb0fced08","system_id":"levelo_inurba_marseille","lat":43.31363,"lon":5.36739,"is_reserved":false,"is_disabled":false,"rental_uris":{"android":"levelo://app?vid=994036af-157a-4481-b51c-d39eb0fced08","ios":"levelo://app?vid=994036af-157a-4481-b51c-d39eb0fced08"},"vehicle_type_id":"4","last_reported":1737219970,"current_range_meters":38800,"station_id":"ce4bgr92rcd13ifvqc6g","pricing_plan_id":"cebpf4jnsgd1na2vs0mg"},{"bike_id":"a0238efb-ba0a-49d1-9b38-db4e728d95b8","system_id":"levelo_inurba_marseille","lat":43.29217,"lon":5.36067,"is_reserved":false,"is_disabled":false,"rental_uris":{"android":"levelo://app?vid=a0238efb-ba0a-49d1-9b38-db4e728d95b8","ios":"levelo://app?vid=a0238efb-ba0a-49d1-9b38-db4e728d95b8"},"vehicle_type_id":"4","last_reported":1737219970,"current_range_meters":36400,"station_id":"ce4bhbh2rcd13ifvqeqg","pricing_plan_id":"cebpf4jnsgd1na2vs0mg"},{"bike_id":"62bfd4fe-c34f-4261-876b-6c69a2039de0","system_id":"levelo_inurba_marseille","lat":43.31239,"lon":5.3688,"is_reserved":false,"is_disabled":false,"rental_uris":{"android":"levelo://app?vid=62bfd4fe-c34f-4261-876b-6c69a2039de0","ios":"levelo://app?vid=62bfd4fe-c34f-4261-876b-6c69a2039de0"},"vehicle_type_id":"4","last_reported":1737219970,"current_range_meters":32000,"station_id":"ce4bgl92rcd13ifvqbq0","pricing_plan_id":"cebpf4jnsgd1na2vs0mg"},{"bike_id":"becad89d-aa88-42de-9ee6-eef2ad271b1d","system_id":"levelo_inurba_marseille","lat":43.29247,"lon":5.40918,"is_reserved":false,"is_disabled":true,"rental_uris":{"android":"levelo://app?vid=becad89d-aa88-42de-9ee6-eef2ad271b1d","ios":"levelo://app?vid=becad89d-aa88-42de-9ee6-eef2ad271b1d"},"vehicle_type_id":"4","last_reported":1737219970,"current_range_meters":800,"station_id":"ce4bh192rcd13ifvqdc0","pricing_plan_id":"cebpf4jnsgd1na2vs0mg"},{"bike_id":"8d987bf3-c459-477e-abc7-01229b4a4253","system_id":"levelo_inurba_marseille","lat":43.29527,"lon":5.39408,"is_reserved":false,"is_disabled":false,"rental_uris":{"android":"levelo://app?vid=8d987bf3-c459-477e-abc7-01229b4a4253","ios":"levelo://app?vid=8d987bf3-c459-477e-abc7-01229b4a4253"},"vehicle_type_id":"4","last_reported":1737219970,"current_range_meters":38800,"station_id":"ce4bh292rcd13ifvqdf0","pricing_plan_id":"cebpf4jnsgd1na2vs0mg"},{"bike_id":"24a75dfd-f46d-4f4b-ad76-3888ea5a3ecf","system_id":"levelo_inurba_marseille","lat":43.27375,"lon":5.3626,"is_reserved":false,"is_disabled":false,"rental_uris":{"android":"levelo://app?vid=24a75dfd-f46d-4f4b-ad76-3888ea5a3ecf","ios":"levelo://app?vid=24a75dfd-f46d-4f4b-ad76-3888ea5a3ecf"},"vehicle_type_id":"4","last_reported":1737219970,"current_range_meters":10000,"station_id":"ce4bhbh2rcd13ifvqeo0","pricing_plan_id":"cebpf4jnsgd1na2vs0mg"},{"bike_id":"97ac0bce-dfd4-46d8-8f28-f74917e09572","system_id":"levelo_inurba_marseille","lat":43.28404,"lon":5.37533,"is_reserved":false,"is_disabled":false,"rental_uris":{"android":"levelo://app?vid=97ac0bce-dfd4-46d8-8f28-f74917e09572","ios":"levelo://app?vid=97ac0bce-dfd4-46d8-8f28-f74917e09572"},"vehicle_type_id":"4","last_reported":1737219970,"current_range_meters":24000,"station_id":"ce4bh412rcd13ifvqds0","pricing_plan_id":"cebpf4jnsgd1na2vs0mg"},{"bike_id":"ba8011c8-d295-4c91-ac21-fab02c4fbcbb","system_id":"levelo_inurba_marseille","lat":43.31365,"lon":5.36682,"is_reserved":false,"is_disabled":false,"rental_uris":{"android":"levelo://app?vid=ba8011c8-d295-4c91-ac21-fab02c4fbcbb","ios":"levelo://app?vid=ba8011c8-d295-4c91-ac21-fab02c4fbcbb"},