{"last_updated":1749485601,"ttl":60,"version":"2.2","data":{"bikes":[{"bike_id":"cea8014f-6e4d-4e82-b927-1727889511d2","system_id":"levelo_inurba_marseille","lat":43.26189,"lon":5.37449,"is_reserved":false,"is_disabled":false,"rental_uris":{"android":"levelo://app?vid=cea8014f-6e4d-4e82-b927-1727889511d2","ios":"levelo://app?vid=cea8014f-6e4d-4e82-b927-1727889511d2"},"vehicle_type_id":"4","last_reported":1749485601,"current_range_meters":2800,"station_id":"ce4bhgp2rcd13ifvqfc0","pricing_plan_id":"cebpf4jnsgd1na2vs0mg"},{"bike_id":"3e1f2752-73d3-4ab0-bb01-68e65e1d706c","system_id":"levelo_inurba_marseille","lat":43.25573,"lon":5.3824,"is_reserved":false,"is_disabled":false,"rental_uris":{"android":"levelo://app?vid=3e1f2752-73d3-4ab0-bb01-68e65e1d706c","ios":"levelo://app?vid=3e1f2752-73d3-4ab0-bb01-68e65e1d706c"},"vehicle_type_id":"4","last_reported":1749485601,"current_range_meters":2800,"station_id":"ce4bhih2rcd13ifvqfs0","pricing_plan_id":"cebpf4jnsgd1na2vs0mg"},{"bike_id":"f6905b5a-4294-4f97-94fb-6450e7da3979","system_id":"levelo_inurba_marseille","lat":43.29715,"lon":5.37671,"is_reserved":false,"is_disabled":false,"rental_uris":{"android":"levelo://app?vid=f6905b5a-4294-4f97-94fb-6450e7da3979","ios":"levelo://app?vid=f6905b5a-4294-4f97-94fb-6450e7da3979"},"vehicle_type_id":"4","last_reported":1749485601,"current_range_meters":2800,"station_id":"ce4bgkh2rcd13ifvqbl0","pricing_plan_id":"cebpf4jnsgd1na2vs0mg"},{"bike_id":"73bee4ca-fa40-4968-9336-a67664ed5bff","system_id":"levelo_inurba_marseille","lat":43.23153,"lon":5.43712,"is_reserved":false,"is_disabled":false,"rental_uris":{"android":"levelo://app?vid=73bee4ca-fa40-4968-9336-a67664ed5bff","ios":"levelo://app?vid=73bee4ca-fa40-4968-9336-a67664ed5bff"},"vehicle_type_id":"4","last_reported":1749485601,"current_range_meters":2800,"station_id":"ce4bhmp2rcd13ifvqgog","pricing_plan_id":"cebpf4jnsgd1na2vs0mg"},{"bike_id":"ff35a1d8-f575-4f43-bff5-6762ba0c275b","system_id":"levelo_inurba_marseille","lat":43.23203,"lon":5.35494,"is_reserved":false,"is_disabled":true,"rental_uris":{"android":"levelo://app?vid=ff35a1d8-f575-4f43-bff5-6762ba0c275b","ios":"levelo://app?vid=ff35a1d8-f575-4f43-bff5-6762ba0c275b"},"vehicle_type_id":"4","last_reported":1749485601,"current_range_meters":2800,"station_id":"ce4bhu92rcd13ifvqi70","pricing_plan_id":"cebpf4jnsgd1na2vs0mg"},{"bike_id":"a7ebc959-9cc5-4e95-a12c-dd1d3b87b98f","system_id":"levelo_inurba_marseille","lat":43.29104,"lon":5.38149,"is_reserved":false,"is_disabled":false,"rental_uris":{"android":"levelo://app?vid=a7ebc959-9cc5-4e95-a12c-dd1d3b87b98f","ios":"levelo://app?vid=a7ebc959-9cc5-4e95-a12c-dd1d3b87b98f"},"vehicle_type_id":"4","last_reported":1749485601,"current_range_meters":3200,"station_id":"ce4bh512rcd13ifvqe2g","pricing_plan_id":"cebpf4jnsgd1na2vs0mg"},{"bike_id":"61d3e82c-871f-477f-9f7e-fd71abd24bd9","system_id":"levelo_inurba_marseille","lat":43.27922,"lon":5.39584,"is_reserved":false,"is_disabled":false,"rental_uris":{"android":"levelo://app?vid=61d3e82c-871f-477f-9f7e-fd71abd24bd9","ios":"levelo://app?vid=61d3e82c-871f-477f-9f7e-fd71abd24bd9"},"vehicle_type_id":"4","last_reported":1749485601,"current_range_meters":3200,"station_id":"ce4bhf92rcd13ifvqf40","pricing_plan_id":"cebpf4jnsgd1na2vs0mg"},{"bike_id":"c8262a78-c4a9-4e64-9769-fe326acfc0ab","system_id":"levelo_inurba_marseille","lat":43.251126,"lon":5.403208,"is_reserved":false,"is_disabled":false,"rental_uris":{"android":"levelo://app?vid=c8262a78-c4a9-4e64-9769-fe326acfc0ab","ios":"levelo://app?vid=c8262a78-c4a9-4e64-9769-fe326acfc0ab"},"vehicle_type_id":"4","last_reported":1749485601,"current_range_meters":3200,"station_id":"ce4bhlh2rcd13ifvqgig","pricing_plan_id":"cebpf4jnsgd1na2vs0mg"},{"bike_id":"9a3e0e40-d81e-4668-8b4e-b309598fcb2e","system_id":"levelo_inurba_marseille","lat":43.25003,"lon":5.3892,"is_reserved":false,"is_disabled":false,"rental_uris":{"android":"levelo://app?vid=9a3e0e40-d81e-4668-8b4e-b309598fcb2e","ios":"levelo://app?vid=9a3e0e40-d81e-4668-8b4e-b309598fcb2e"},"vehicle_type_id":"4","last_reported":1749485601,"current_range_meters":3200,"station_id":"ce4bhgp2rcd13ifvqfd0","pricing_plan_id":"cebpf4jnsgd1na2vs0mg"},{"bike_id":"1e7acffe-24db-4414-80cd-b1d6a41755a2","system_id":"levelo_inurba_marseille","lat":43.292255,"lon":5.360572,"is_reserved":false,"is_disabled":false,"rental_uris":{"android":"levelo://app?vid=1e7acffe-24db-4414-80cd-b1d6a41755a2","ios":"levelo://app?vid=1e7acffe-24db-4414-80cd-b1d6a41755a2"},"vehicle_type_id":"4","last_reported":1749485601,"current_range_meters":3200,"station_id":"ce4bhbh2rcd13ifvqeqg","pricing_plan_id":"cebpf4jnsgd1na2vs0mg"},{"bike_id":"c70a33b8-9993-4c32-a073-4b21afe19f40","system_id":"levelo_inurba_marseille","lat":43.32045,"lon":5.41545,"is_reserved":false,"is_disabled":false,"rental_uris":{"android":"levelo://app?vid=c70a33b8-9993-4c32-a073-4b21afe19f40","ios":"levelo://app?vid=c70a33b8-9993-4c32-a073-4b21afe19f40"},"vehicle_type_id":"4","last_reported":1749485601,"current_range_meters":3200,"station_id":"ce4bhq92rcd13ifvqhkg","pricing_plan_id":"cebpf4jnsgd1na2vs0mg"},{"bike_id":"f0ec125a-3c69-4c84-905d-332e77bda28d","system_id":"levelo_inurba_marseille","lat":43.27813,"lon":5.40722,"is_reserved":false,"is_disabled":false,"rental_uris":{"android":"levelo://app?vid=f0ec125a-3c69-4c84-905d-332e77bda28d","ios":"levelo://app?vid=f0ec125a-3c69-4c84-905d-332e77bda28d"},"vehicle_type_id":"4","last_reported":1749485601,"current_range_meters":3600,"station_id":"ce4bhnh2rcd13ifvqgtg","pricing_plan_id":"cebpf4jnsgd1na2vs0mg"},{"bike_id":"b4c5fde4-99a6-442a-b70a-8b12de7d99e4","system_id":"levelo_inurba_marseille","lat":43.264845,"lon":5.395483,"is_reserved":false,"is_disabled":false,"rental_uris":{"android":"levelo://app?vid=b4c5fde4-99a6-442a-b70a-8b12de7d99e4","ios":"levelo://app?vid=b4c5fde4-99a6-442a-b70a-8b12de7d99e4"},"vehicle_type_id":"4","last_reported":1749485601,"current_range_meters":4000,"station_id":"ce4bhi12rcd13ifvqfq0","pricing_plan_id":"cebpf4jnsgd1na2vs0mg"},{"bike_id":"1ea4d901-280f-4050-a043-0b37afe86b03","system_id":"levelo_inurba_marseille","lat":43.21182,"lon":5.35069,"is_reserved":false,"is_disabled":false,"rental_uris":{"android":"levelo://app?vid=1ea4d901-280f-4050-a043-0b37afe86b03","ios":"levelo://app?vid=1ea4d901-280f-4050-a043-0b37afe86b03"},"vehicle_type_id":"4","last_reported":1749485601,"current_range_meters":4000,"station_id":"st_cvj6sg6p6f1abm77japg","pricing_plan_id":"cebpf4jnsgd1na2vs0mg"},{"bike_id":"6484b039-05cf-43f2-9de1-ac0dee3c282a","system_id":"levelo_inurba_marseille","lat":43.26559,"lon":5.37284,"is_reserved":false,"is_disabled":false,"rental_uris":{"android":"levelo://app?vid=6484b039-05cf-43f2-9de1-ac0dee3c282a","ios":"levelo://app?vid=6484b039-05cf-43f2-9de1-ac0dee3c282a"},"vehicle_type_id":"4","last_reported":1749485601,"current_range_meters":4000,"station_id":"ce4bhg12rcd13ifvqf70","pricing_plan_id":"cebpf4jnsgd1na2vs0mg"},{"bike_id":"33fc8f09-b395-4411-b2ae-bb7b9d94e44c","system_id":"levelo_inurba_marseille","lat":43.27811,"lon":5.40704,"is_reserved":false,"is_disabled":false,"rental_uris":{"android":"levelo://app?vid=33fc8f09-b395-4411-b2ae-bb7b9d94e44c","ios":"levelo://app?vid=33fc8f09-b395-4411-b2ae-bb7b9d94e44c"},"vehicle_type_id":"4","last_reported":1749485601,"current_range_meters":4000,"station_id":"ce4bhnh2rcd13ifvqgtg","pricing_plan_id":"cebpf4jnsgd1na2vs0mg"},{"bike_id":"bb3d5598-7791-456e-b918-db3cdf10d217","system_id":"levelo_inurba_marseille","lat":43.298797,"lon":5.389082,"is_reserved":false,"is_disabled":false,"rental_uris":{"android":"levelo://app?vid=bb3d5598-7791-456e-b918-db3cdf10d217","ios":"levelo://app?vid=bb3d5598-7791-456e-b918-db3cdf10d217"},"vehicle_type_id":"4","last_reported":1749485601,"current_range_meters":3600,"station_id":"ce4bh392rcd13ifvqdl0","pricing_plan_id":"cebpf4jnsgd1na2vs0mg"},{"bike_id":"67d4735d-a812-4e55-90bc-5641f4e35931","system_id":"levelo_inurba_marseille","lat":43.21186,"lon":5.3507,"is_reserved":false,"is_disabled":false,"rental_uris":{"android":"levelo://app?vid=67d4735d-a812-4e55-90bc-5641f4e35931","ios":"levelo://app?vid=67d4735d-a812-4e55-90bc-5641f4e35931"},"vehicle_type_id":"4","last_reported":1749485601,"current_range_meters":4400,"station_id":"st_cvj6sg6p6f1abm77japg","pricing_plan_id":"cebpf4jnsgd1na2vs0mg"},{"bike_id":"b2371e98-3d13-479f-822f-19da3d00a7a0","system_id":"levelo_inurba_marseille","lat":43.26192,"lon":5.37446,"is_reserved":false,"is_disabled":false,"rental_uris":{"android":"levelo://app?vid=b2371e98-3d13-479f-822f-19da3d00a7a0","ios":"levelo://app?vid=b2371e98-3d13-479f-822f-19da3d00a7a0"},"vehicle_type_id":"4","last_reported":1749485601,"current_range_meters":4400,"station_id":"ce4bhgp2rcd13ifvqfc0","pricing_plan_id":"cebpf4jnsgd1na2vs0mg"},{"bike_id":"d22e6147-1f3a-4208-8166-b0c0b0adcf81","system_id":"levelo_inurba_marseille","lat":43.27422,"lon":5.39418,"is_reserved":false,"is_disabled":false,"rental_uris":{"android":"levelo://app?vid=d22e6147-1f3a-4208-8166-b0c0b0adcf81","ios":"levelo://app?vid=d22e6147-1f3a-4208-8166-b0c0b0adcf81"},"vehicle_type_id":"4","last_reported":1749485601,"current_range_meters":4400,"station_id":"ce4bhdp2rcd13ifvqf20","pricing_plan_id":"cebpf4jnsgd1na2vs0mg"},{"bike_id":"a9a442b1-2459-4752-9820-f2e133c80cda","system_id":"levelo_inurba_marseille","lat":43.231969,"lon":5.355556,"is_reserved":false,"is_disabled":false,"rental_uris":{"android":"levelo://app?vid=a9a442b1-2459-4752-9820-f2e133c80cda","ios":"levelo://app?vid=a9a442b1-2459-4752-9820-f2e133c80cda"},"vehicle_type_id":"4","last_reported":1749485601,"current_range_meters":4400,"station_id":"ce4bhu92rcd13ifvqi70","pricing_plan_id":"cebpf4jnsgd1na2vs0mg"},{"bike_id":"19b9d581-3680-42d2-9b05-5c990c0fe3c8","system_id":"levelo_inurba_marseille","lat":43.31572,"lon":5.38359,"is_reserved":false,"is_disabled":false,"rental_uris":{"android":"levelo://app?vid=19b9d581-3680-42d2-9b05-5c990c0fe3c8","ios":"levelo://app?vid=19b9d581-3680-42d2-9b05-5c990c0fe3c8"},"vehicle_type_id":"4","last_reported":1749485601,"current_range_meters":4400,"station_id":"","pricing_plan_id":"cebpf4jnsgd1na2vs0mg"},{"bike_id":"a2d73be7-868a-4600-9834-af16b43b12ad","system_id":"levelo_inurba_marseille","lat":43.24455,"lon":5.42451,"is_reserved":false,"is_disabled":false,"rental_uris":{"android":"levelo://app?vid=a2d73be7-868a-4600-9834-af16b43b12ad","ios":"levelo://app?vid=a2d73be7-868a-4600-9834-af16b43b12ad"},"vehicle_type_id":"4","last_reported":1749485601,"current_range_meters":4800,"station_id":"","pricing_plan_id":"cebpf4jnsgd1na2vs0mg"},{"bike_id":"a3bc27fe-9205-4e0b-a6eb-8786846f85ac","system_id":"levelo_inurba_marseille","lat":43.28275,"lon":5.35058,"is_reserved":false,"is_disabled":false,"rental_uris":{"android":"levelo://app?vid=a3bc27fe-9205-4e0b-a6eb-8786846f85ac","ios":"levelo://app?vid=a3bc27fe-9205-4e0b-a6eb-8786846f85ac"},"vehicle_type_id":"4","last_reported":1749485601,"current_range_meters":4800,"station_id":"ce4bhbp2rcd13ifvqerg","pricing_plan_id":"cebpf4jnsgd1na2vs0mg"},{"bike_id":"fe1faffb-dbc1-4d69-b3d9-bfa9adbaa6e5","system_id":"levelo_inurba_marseille","lat":43.30875,"lon":5.39639,"is_reserved":false,"is_disabled":false,"rental_uris":{"android":"levelo://app?vid=fe1faffb-dbc1-4d69-b3d9-bfa9adbaa6e5","ios":"levelo://app?vid=fe1faffb-dbc1-4d69-b3d9-bfa9adbaa6e5"},"vehicle_type_id":"4","last_reported":1749485601,"current_range_meters":4800,"station_id":"ce4bh012rcd13ifvqcv0","pricing_plan_id":"cebpf4jnsgd1na2vs0mg"},{"bike_id":"bef8bc6d-4bf0-4828-8ac9-c70970e237eb","system_id":"levelo_inurba_marseille","lat":43.24841,"lon":5.37419,"is_reserved":false,"is_disabled":false,"rental_uris":{"android":"levelo://app?vid=bef8bc6d-4bf0-4828-8ac9-c70970e237eb","ios":"levelo://app?vid=bef8bc6d-4bf0-4828-8ac9-c70970e237eb"},"vehicle_type_id":"4","last_reported":1749485601,"current_range_meters":4800,"station_id":"ce4bhgh2rcd13ifvqfb0","pricing_plan_id":"cebpf4jnsgd1na2vs0mg"},{"bike_id":"71ce68de-07f7-4781-811d-9af974b0f2a0","system_id":"levelo_inurba_marseille","lat":43.32653,"lon":5.40996,"is_reserved":false,"is_disabled":false,"rental_uris":{"android":"levelo://app?vid=71ce68de-07f7-4781-811d-9af974b0f2a0","ios":"levelo://app?vid=71ce68de-07f7-4781-811d-9af974b0f2a0"},"vehicle_type_id":"4","last_reported":1749485601,"current_range_meters":4800,"station_id":"ce4bhpp2rcd13ifvqhgg","pricing_plan_id":"cebpf4jnsgd1na2vs0mg"},{"bike_id":"b4ef4478-6dd8-4695-bd45-269987c829a9","system_id":"levelo_inurba_marseille","lat":43.27381,"lon":5.36256,"is_reserved":false,"is_disabled":false,"rental_uris":{"android":"levelo://app?vid=b4ef4478-6dd8-4695-bd45-269987c829a9","ios":"levelo://app?vid=b4ef4478-6dd8-4695-bd45-269987c829a9"},"vehicle_type_id":"4","last_reported":1749485601,"current_range_meters":4800,"station_id":"ce4bhbh2rcd13ifvqeo0","pricing_plan_id":"cebpf4jnsgd1na2vs0mg"},{"bike_id":"aaa43dca-6c76-49f7-ad2a-f966f88b5cf8","system_id":"levelo_inurba_marseille","lat":43.27963,"lon":5.38755,"is_reserved":false,"is_disabled":false,"rental_uris":{"android":"levelo://app?vid=aaa43dca-6c76-49f7-ad2a-f966f88b5cf8","ios":"levelo://app?vid=aaa43dca-6c76-49f7-ad2a-f966f88b5cf8"},"vehicle_type_id":"4","last_reported":1749485601,"current_range_meters":4800,"station_id":"ce4bhg12rcd13ifvqf80","pricing_plan_id":"cebpf4jnsgd1na2vs0mg"},{"bike_id":"0038dd46-497e-479f-aadc-97575200156d","system_id":"levelo_inurba_marseille","lat":43.301402,"lon":5.374113,"is_reserved":false,"is_disabled":false,"rental_uris":{"android":"levelo://app?vid=0038dd46-497e-479f-aadc-97575200156d","ios":"levelo://app?vid=0038dd46-497e-479f-aadc-97575200156d"},"vehicle_type_id":"4","last_reported":1749485601,"current_range_meters":5600,"station_id":"ce4bgs92rcd13ifvqcc0","pricing_plan_id":"cebpf4jnsgd1na2vs0mg"},{"bike_id":"4a7f63aa-d528-4ae6-a86f-fb623e069d95","system_id":"levelo_inurba_marseille","lat":43.29304,"lon":5.37455,"is_reserved":false,"is_disabled":false,"rental_uris":{"android":"levelo://app?vid=4a7f63aa-d528-4ae6-a86f-fb623e069d95","ios":"levelo://app?vid=4a7f63aa-d528-4ae6-a86f-fb623e069d95"},"vehicle_type_id":"4","last_reported":1749485601,"current_range_meters":5600,"station_id":"ce4bgi12rcd13ifvqb70","pricing_plan_id":"cebpf4jnsgd1na2vs0mg"},{"bike_id":"660a2fe2-c303-4195-92bc-55d17fc82faa","system_id":"levelo_inurba_marseille","lat":43.28663,"lon":5.36361,"is_reserved":false,"is_disabled":false,"rental_uris":{"android":"levelo://app?vid=660a2fe2-c303-4195-92bc-55d17fc82faa","ios":"levelo://app?vid=660a2fe2-c303-4195-92bc-55d17fc82faa"},"vehicle_type_id":"4","last_reported":1749485601,"current_range_meters":5600,"station_id":"ce4bhah2rcd13ifvqej0","pricing_plan_id":"cebpf4jnsgd1na2vs0mg"},{"bike_id":"382c0df5-77cf-4111-bec1-d43ed1b6de72","system_id":"levelo_inurba_marseille","lat":43.26024,"lon":5.37541,"is_reserved":false,"is_disabled":false,"rental_uris":{"android":"levelo://app?vid=382c0df5-77cf-4111-bec1-d43ed1b6de72","ios":"levelo://app?vid=382c0df5-77cf-4111-bec1-d43ed1b6de72"},"vehicle_type_id":"4","last_reported":1749485601,"current_range_meters":6000,"station_id":"ce4bhgh2rcd13ifvqfa0","pricing_plan_id":"cebpf4jnsgd1na2vs0mg"},{"bike_id":"47e2400f-c8aa-426b-afa3-e357e85914d8","system_id":"levelo_inurba_marseille","lat":43.25865,"lon":5.399,"is_reserved":false,"is_disabled":false,"rental_uris":{"android":"levelo://app?vid=47e2400f-c8aa-426b-afa3-e357e85914d8","ios":"levelo://app?vid=47e2400f-c8aa-426b-afa3-e357e85914d8"},"vehicle_type_id":"4","last_reported":1749485601,"current_range_meters":5600,"station_id":"ce4bhl92rcd13ifvqghg","pricing_plan_id":"cebpf4jnsgd1na2vs0mg"},{"bike_id":"994fbbd1-7b7a-4973-8b72-780a5cbeda75","system_id":"levelo_inurba_marseille","lat":43.28993,"lon":5.37829,"is_reserved":false,"is_disabled":true,"rental_uris":{"android":"levelo://app?vid=994fbbd1-7b7a-4973-8b72-780a5cbeda75","ios":"levelo://app?vid=994fbbd1-7b7a-4973-8b72-780a5cbeda75"},"vehicle_type_id":"4","last_reported":1749485601,"current_range_meters":6400,"station_id":"ce4bh9p2rcd13ifvqed0","pricing_plan_id":"cebpf4jnsgd1na2vs0mg"},{"bike_id":"23594bc1-51f0-45eb-b3ed-06329b07794e","system_id":"levelo_inurba_marseille","lat":43.25584,"lon":5.38231,"is_reserved":false,"is_disabled":false,"rental_uris":{"android":"levelo://app?vid=23594bc1-51f0-45eb-b3ed-06329b07794e","ios":"levelo://app?vid=23594bc1-51f0-45eb-b3ed-06329b07794e"},"vehicle_type_id":"4","last_reported":1749485601,"current_range_meters":6400,"station_id":"ce4bhih2rcd13ifvqfs0","pricing_plan_id":"cebpf4jnsgd1na2vs0mg"},{"bike_id":"02a657d9-6919-4c74-9f44-7a392e2e15bc","system_id":"levelo_inurba_marseille","lat":43.28923,"lon":5.36399,"is_reserved":false,"is_disabled":false,"rental_uris":{"android":"levelo://app?vid=02a657d9-6919-4c74-9f44-7a392e2e15bc","ios":"levelo://app?vid=02a657d9-6919-4c74-9f44-7a392e2e15bc"},"vehicle_type_id":"4","last_reported":1749485601,"current_range_meters":6000,"station_id":"ce4bhc92rcd13ifvqetg","pricing_plan_id":"cebpf4jnsgd1na2vs0mg"},{"bike_id":"a61242dd-8369-4520-9963-a504224e1a30","system_id":"levelo_inurba_marseille","lat":43.23134,"lon":5.40845,"is_reserved":false,"is_disabled":false,"rental_uris":{"android":"levelo://app?vid=a61242dd-8369-4520-9963-a504224e1a30","ios":"levelo://app?vid=a61242dd-8369-4520-9963-a504224e1a30"},"vehicle_type_id":"4","last_reported":1749485601,"current_range_meters":6400,"station_id":"","pricing_plan_id":"cebpf4jnsgd1na2vs0mg"},{"bike_id":"88241d6d-3538-489e-82bb-9a922ee0b5f4","system_id":"levelo_inurba_marseille","lat":43.29433,"lon":5.38563,"is_reserved":false,"is_disabled":false,"rental_uris":{"android":"levelo://app?vid=88241d6d-3538-489e-82bb-9a922ee0b5f4","ios":"levelo://app?vid=88241d6d-3538-489e-82bb-9a922ee0b5f4"},"vehicle_type_id":"4","last_reported":1749485601,"current_range_meters":6400,"station_id":"","pricing_plan_id":"cebpf4jnsgd1na2vs0mg"},{"bike_id":"3338a715-6b7b-4aaf-a789-dac26f23a749","system_id":"levelo_inurba_marseille","lat":43.2867,"lon":5.36352,"is_reserved":false,"is_disabled":false,"rental_uris":{"android":"levelo://app?vid=3338a715-6b7b-4aaf-a789-dac26f23a749","ios":"levelo://app?vid=3338a715-6b7b-4aaf-a789-dac26f23a749"},"vehicle_type_id":"4","last_reported":1749485601,"current_range_meters":6000,"station_id":"ce4bhah2rcd13ifvqej0","pricing_plan_id":"cebpf4jnsgd1na2vs0mg"},{"bike_id":"eb0fc5f6-8a55-491c-b47c-2809c90ff3fd","system_id":"levelo_inurba_marseille","lat":43.28993,"lon":5.37835,"is_reserved":false,"is_disabled":false,"rental_uris":{"android":"levelo://app?vid=eb0fc5f6-8a55-491c-b47c-2809c90ff3fd","ios":"levelo://app?vid=eb0fc5f6-8a55-491c-b47c-2809c90ff3fd"},"vehicle_type_id":"4","last_reported":1749485601,"current_range_meters":6400,"station_id":"ce4bh9p2rcd13ifvqed0","pricing_plan_id":"cebpf4jnsgd1na2vs0mg"},{"bike_id":"474fd7be-0333-4498-b7df-2f2cbfb2f145","system_id":"levelo_inurba_marseille","lat":43.28727,"lon":5.37943,"is_reserved":false,"is_disabled":false,"rental_uris":{"android":"levelo://app?vid=474fd7be-0333-4498-b7df-2f2cbfb2f145","ios":"levelo://app?vid=474fd7be-0333-4498-b7df-2f2cbfb2f145"},"vehicle_type_id":"4","last_reported":1749485601,"current_range_meters":6400,"station_id":"ce4bh9p2rcd13ifvqec0","pricing_plan_id":"cebpf4jnsgd1na2vs0mg"},{"bike_id":"d425de15-1bd7-4abd-8abe-aa1ae0db838d","system_id":"levelo_inurba_marseille","lat":43.31721,"lon":5.42392,"is_reserved":false,"is_disabled":false,"rental_uris":{"android":"levelo://app?vid=d425de15-1bd7-4abd-8abe-aa1ae0db838d","ios":"levelo://app?vid=d425de15-1bd7-4abd-8abe-aa1ae0db838d"},"vehicle_type_id":"4","last_reported":1749485601,"current_range_meters":6800,"station_id":"ce4bhp92rcd13ifvqhbg","pricing_plan_id":"cebpf4jnsgd1na2vs0mg"},{"bike_id":"15ca3f93-60de-4091-9b56-a9296e6e1608","system_id":"levelo_inurba_marseille","lat":43.29373,"lon":5.37848,"is_reserved":false,"is_disabled":false,"rental_uris":{"android":"levelo://app?vid=15ca3f93-60de-4091-9b56-a9296e6e1608","ios":"levelo://app?vid=15ca3f93-60de-4091-9b56-a9296e6e1608"},"vehicle_type_id":"4","last_reported":1749485601,"current_range_meters":7200,"station_id":"ce4bgjh2rcd13ifvqbf0","pricing_plan_id":"cebpf4jnsgd1na2vs0mg"},{"bike_id":"8f175b35-d5f6-4b73-8ba9-c2c80ee414cb","system_id":"levelo_inurba_marseille","lat":43.29033,"lon":5.37564,"is_reserved":false,"is_disabled":false,"rental_uris":{"android":"levelo://app?vid=8f175b35-d5f6-4b73-8ba9-c2c80ee414cb","ios":"levelo://app?vid=8f175b35-d5f6-4b73-8ba9-c2c80ee414cb"},"vehicle_type_id":"4","last_reported":1749485601,"current_range_meters":6800,"station_id":"ce4bh692rcd13ifvqe90","pricing_plan_id":"cebpf4jnsgd1na2vs0mg"},{"bike_id":"f14c8106-18ae-48d8-8f2d-ee28702542f1","system_id":"levelo_inurba_marseille","lat":43.28705,"lon":5.39976,"is_reserved":false,"is_disabled":false,"rental_uris":{"android":"levelo://app?vid=f14c8106-18ae-48d8-8f2d-ee28702542f1","ios":"levelo://app?vid=f14c8106-18ae-48d8-8f2d-ee28702542f1"},"vehicle_type_id":"4","last_reported":1749485601,"current_range_meters":7200,"station_id":"ce4bho92rcd13ifvqh3g","pricing_plan_id":"cebpf4jnsgd1na2vs0mg"},{"bike_id":"26b898cc-11a0-4c85-a890-8a9bb099fecf","system_id":"levelo_inurba_marseille","lat":43.32294,"lon":5.38217,"is_reserved":false,"is_disabled":false,"rental_uris":{"android":"levelo://app?vid=26b898cc-11a0-4c85-a890-8a9bb099fecf","ios":"levelo://app?vid=26b898cc-11a0-4c85-a890-8a9bb099fecf"},"vehicle_type_id":"4","last_reported":1749485601,"current_range_meters":7200,"station_id":"ce4bhr12rcd13ifvqhqg","pricing_plan_id":"cebpf4jnsgd1na2vs0mg"},{"bike_id":"46ad0958-a2d7-473e-8aeb-a02bfd147679","system_id":"levelo_inurba_marseille","lat":43.23946,"lon":5.36631,"is_reserved":false,"is_disabled":true,"rental_uris":{"android":"levelo://app?vid=46ad0958-a2d7-473e-8aeb-a02bfd147679","ios":"levelo://app?vid=46ad0958-a2d7-473e-8aeb-a02bfd147679"},"vehicle_type_id":"4","last_reported":1749485601,"current_range_meters":7200,"station_id":"ce4bhi12rcd13ifvqfp0","pricing_plan_id":"cebpf4jnsgd1na2vs0mg"},{"bike_id":"1e34ed94-9548-437c-b3f0-097cd105c6f5","system_id":"levelo_inurba_marseille","lat":43.29717,"lon":5.36599,"is_reserved":false,"is_disabled":false,"rental_uris":{"android":"levelo://app?vid=1e34ed94-9548-437c-b3f0-097cd105c6f5","ios":"levelo://app?vid=1e34ed94-9548-437c-b3f0-097cd105c6f5"},"vehicle_type_id":"4","last_reported":1749485601,"current_range_meters":8400,"station_id":"ce4bgn12rcd13ifvqbt0","pricing_plan_id":"cebpf4jnsgd1na2vs0mg"},{"bike_id":"973fcf18-92c6-4eef-b363-2cb9ab92eabf","system_id":"levelo_inurba_marseille","lat":43.26208,"lon":5.37441,"is_reserved":false,"is_disabled":false,"rental_uris":{"android":"levelo://app?vid=973fcf18-92c6-4eef-b363-2cb9ab92eabf","ios":"levelo://app?vid=973fcf18-92c6-4eef-b363-2cb9ab92eabf"},"vehicle_type_id":"4","last_reported":1749485601,"current_range_meters":8000,"station_id":"ce4bhgp2rcd13ifvqfc0","pricing_plan_id":"cebpf4jnsgd1na2vs0mg"},{"bike_id":"4d890c49-2e35-434b-87ef-3cc834483c45","system_id":"levelo_inurba_marseille","lat":43.28348,"lon":5.38637,"is_reserved":false,"is_disabled":false,"rental_uris":{"android":"levelo://app?vid=4d890c49-2e35-434b-87ef-3cc834483c45","ios":"levelo://app?vid=4d890c49-2e35-434b-87ef-3cc834483c45"},"vehicle_type_id":"4","last_reported":1749485601,"current_range_meters":7200,"station_id":"ce4bh492rcd13ifvqdvg","pricing_plan_id":"cebpf4jnsgd1na2vs0mg"},{"bike_id":"bfc4f0f5-b551-40b2-8442-b106a3428db2","system_id":"levelo_inurba_marseille","lat":43.28696,"lon":5.39986,"is_reserved":false,"is_disabled":false,"rental_uris":{"android":"levelo://app?vid=bfc4f0f5-b551-40b2-8442-b106a3428db2","ios":"levelo://app?vid=bfc4f0f5-b551-40b2-8442-b106a3428db2"},"vehicle_type_id":"4","last_reported":1749485601,"current_range_meters":8000,"station_id":"ce4bho92rcd13ifvqh3g","pricing_plan_id":"cebpf4jnsgd1na2vs0mg"},{"bike_id":"3b33593f-98f0-4b12-b11c-8ecbf0798666","system_id":"levelo_inurba_marseille","lat":43.29895,"lon":5.38519,"is_reserved":false,"is_disabled":false,"rental_uris":{"android":"levelo://app?vid=3b33593f-98f0-4b12-b11c-8ecbf0798666","ios":"levelo://app?vid=3b33593f-98f0-4b12-b11c-8ecbf0798666"},"vehicle_type_id":"4","last_reported":1749485601,"current_range_meters":8400,"station_id":"","pricing_plan_id":"cebpf4jnsgd1na2vs0mg"},{"bike_id":"99a67a60-34e8-47f7-8cc5-eee324b8e55a","system_id":"levelo_inurba_marseille","lat":43.29072,"lon":5.37151,"is_reserved":false,"is_disabled":false,"rental_uris":{"android":"levelo://app?vid=99a67a60-34e8-47f7-8cc5-eee324b8e55a","ios":"levelo://app?vid=99a67a60-34e8-47f7-8cc5-eee324b8e55a"},"vehicle_type_id":"4","last_reported":1749485601,"current_range_meters":8400,"station_id":"ce4bh5p2rcd13ifvqe4g","pricing_plan_id":"cebpf4jnsgd1na2vs0mg"},{"bike_id":"9788b364-b0b6-443c-a282-592535f38295","system_id":"levelo_inurba_marseille","lat":43.28447,"lon":5.34964,"is_reserved":false,"is_disabled":false,"rental_uris":{"android":"levelo://app?vid=9788b364-b0b6-443c-a282-592535f38295","ios":"levelo://app?vid=9788b364-b0b6-443c-a282-592535f38295"},"vehicle_type_id":"4","last_reported":1749485601,"current_range_meters":8400,"station_id":"ce4bhbh2rcd13ifvqepg","pricing_plan_id":"cebpf4jnsgd1na2vs0mg"},{"bike_id":"781bcf50-52ca-4350-bf0f-8071b3b2b128","system_id":"levelo_inurba_marseille","lat":43.29904,"lon":5.43681,"is_reserved":false,"is_disabled":false,"rental_uris":{"android":"levelo://app?vid=781bcf50-52ca-4350-bf0f-8071b3b2b128","ios":"levelo://app?vid=781bcf50-52ca-4350-bf0f-8071b3b2b128"},"vehicle_type_id":"4","last_reported":1749485601,"current_range_meters":8400,"station_id":"ce4bhpp2rcd13ifvqhfg","pricing_plan_id":"cebpf4jnsgd1na2vs0mg"},{"bike_id":"7c6b8c04-8995-48c8-9fae-4d498cb87ec2","system_id":"levelo_inurba_marseille","lat":43.29524,"lon":5.39037,"is_reserved":false,"is_disabled":false,"rental_uris":{"android":"levelo://app?vid=7c6b8c04-8995-48c8-9fae-4d498cb87ec2","ios":"levelo://app?vid=7c6b8c04-8995-48c8-9fae-4d498cb87ec2"},"vehicle_type_id":"4","last_reported":1749485601,"current_range_meters":8400,"station_id":"ce4bh3p2rcd13ifvqdp0","pricing_plan_id":"cebpf4jnsgd1na2vs0mg"},{"bike_id":"89e61be4-479c-4cec-a748-e4051ae578a2","system_id":"levelo_inurba_marseille","lat":43.32363,"lon":5.38873,"is_reserved":false,"is_disabled":false,"rental_uris":{"android":"levelo://app?vid=89e61be4-479c-4cec-a748-e4051ae578a2","ios":"levelo://app?vid=89e61be4-479c-4cec-a748-e4051ae578a2"},"vehicle_type_id":"4","last_reported":1749485601,"current_range_meters":8400,"station_id":"ce4bhqp2rcd13ifvqhog","pricing_plan_id":"cebpf4jnsgd1na2vs0mg"},{"bike_id":"6a77f5c1-c52d-4b77-8b41-a91017863936","system_id":"levelo_inurba_marseille","lat":43.29291,"lon":5.37448,"is_reserved":false,"is_disabled":false,"rental_uris":{"android":"levelo://app?vid=6a77f5c1-c52d-4b77-8b41-a91017863936","ios":"levelo://app?vid=6a77f5c1-c52d-4b77-8b41-a91017863936"},"vehicle_type_id":"4","last_reported":1749485601,"current_range_meters":8800,"station_id":"ce4bgi12rcd13ifvqb70","pricing_plan_id":"cebpf4jnsgd1na2vs0mg"},{"bike_id":"56b0e8e6-3496-4197-b8b7-1ea9a28654fb","system_id":"levelo_inurba_marseille","lat":43.28429,"lon":5.35004,"is_reserved":false,"is_disabled":false,"rental_uris":{"android":"levelo://app?vid=56b0e8e6-3496-4197-b8b7-1ea9a28654fb","ios":"levelo://app?vid=56b0e8e6-3496-4197-b8b7-1ea9a28654fb"},"vehicle_type_id":"4","last_reported":1749485601,"current_range_meters":8800,"station_id":"ce4bhbh2rcd13ifvqepg","pricing_plan_id":"cebpf4jnsgd1na2vs0mg"},{"bike_id":"11d99533-1239-4522-b0b5-f8a3bff696e7","system_id":"levelo_inurba_marseille","lat":43.3015,"lon":5.42432,"is_reserved":false,"is_disabled":false,"rental_uris":{"android":"levelo://app?vid=11d99533-1239-4522-b0b5-f8a3bff696e7","ios":"levelo://app?vid=11d99533-1239-4522-b0b5-f8a3bff696e7"},"vehicle_type_id":"4","last_reported":1749485601,"current_range_meters":8800,"station_id":"","pricing_plan_id":"cebpf4jnsgd1na2vs0mg"},{"bike_id":"1bcb49ec-92eb-48fc-a6f7-2485ec705e8b","system_id":"levelo_inurba_marseille","lat":43.29025,"lon":5.38654,"is_reserved":false,"is_disabled":false,"rental_uris":{"android":"levelo://app?vid=1bcb49ec-92eb-48fc-a6f7-2485ec705e8b","ios":"levelo://app?vid=1bcb49ec-92eb-48fc-a6f7-2485ec705e8b"},"vehicle_type_id":"4","last_reported":1749485601,"current_range_meters":8400,"station_id":"ce4bh4p2rcd13ifvqe0g","pricing_plan_id":"cebpf4jnsgd1na2vs0mg"},{"bike_id":"9ab5dcb2-22af-49e2-b2c1-32117ad578dc","system_id":"levelo_inurba_marseille","lat":43.29538,"lon":5.42569,"is_reserved":false,"is_disabled":false,"rental_uris":{"android":"levelo://app?vid=9ab5dcb2-22af-49e2-b2c1-32117ad578dc","ios":"levelo://app?vid=9ab5dcb2-22af-49e2-b2c1-32117ad578dc"},"vehicle_type_id":"4","last_reported":1749485601,"current_range_meters":8800,"station_id":"","pricing_plan_id":"cebpf4jnsgd1na2vs0mg"},{"bike_id":"495384ad-3bb2-4b87-aab9-41e6b4649afd","system_id":"levelo_inurba_marseille","lat":43.25124,"lon":5.40304,"is_reserved":false,"is_disabled":false,"rental_uris":{"android":"levelo://app?vid=495384ad-3bb2-4b87-aab9-41e6b4649afd","ios":"levelo://app?vid=495384ad-3bb2-4b87-aab9-41e6b4649afd"},"vehicle_type_id":"4","last_reported":1749485601,"current_range_meters":8800,"station_id":"ce4bhlh2rcd13ifvqgig","pricing_plan_id":"cebpf4jnsgd1na2vs0mg"},{"bike_id":"8b4caff4-6ee7-47a5-a64f-5ccaa83c132f","system_id":"levelo_inurba_marseille","lat":43.29546,"lon":5.42556,"is_reserved":false,"is_disabled":false,"rental_uris":{"android":"levelo://app?vid=8b4caff4-6ee7-47a5-a64f-5ccaa83c132f","ios":"levelo://app?vid=8b4caff4-6ee7-47a5-a64f-5ccaa83c132f"},"vehicle_type_id":"4","last_reported":1749485601,"current_range_meters":8800,"station_id":"","pricing_plan_id":"cebpf4jnsgd1na2vs0mg"},{"bike_id":"1a5321bd-602a-46ca-8913-cd1b0f72d917","system_id":"levelo_inurba_marseille","lat":43.29089,"lon":5.38125,"is_reserved":false,"is_disabled":false,"rental_uris":{"android":"levelo://app?vid=1a5321bd-602a-46ca-8913-cd1b0f72d917","ios":"levelo://app?vid=1a5321bd-602a-46ca-8913-cd1b0f72d917"},"vehicle_type_id":"4","last_reported":1749485601,"current_range_meters":8400,"station_id":"ce4bh512rcd13ifvqe2g","pricing_plan_id":"cebpf4jnsgd1na2vs0mg"},{"bike_id":"9d073130-46db-46c4-affb-6564e2de5a50","system_id":"levelo_inurba_marseille","lat":43.32355,"lon":5.38821,"is_reserved":false,"is_disabled":false,"rental_uris":{"android":"levelo://app?vid=9d073130-46db-46c4-affb-6564e2de5a50","ios":"levelo://app?vid=9d073130-46db-46c4-affb-6564e2de5a50"},"vehicle_type_id":"4","last_reported":1749485601,"current_range_meters":8800,"station_id":"","pricing_plan_id":"cebpf4jnsgd1na2vs0mg"},{"bike_id":"7eedcc0e-33d2-492d-876b-2852803d9891","system_id":"levelo_inurba_marseille","lat":43.26479,"lon":5.39191,"is_reserved":false,"is_disabled":false,"rental_uris":{"android":"levelo://app?vid=7eedcc0e-33d2-492d-876b-2852803d9891","ios":"levelo://app?vid=7eedcc0e-33d2-492d-876b-2852803d9891"},"vehicle_type_id":"4","last_reported":1749485601,"current_range_meters":8800,"station_id":"","pricing_plan_id":"cebpf4jnsgd1na2vs0mg"},{"bike_id":"3bb87db6-8022-418f-a4aa-7c455834f81e","system_id":"levelo_inurba_marseille","lat":43.23558,"lon":5.37921,"is_reserved":false,"is_disabled":false,"rental_uris":{"android":"levelo://app?vid=3bb87db6-8022-418f-a4aa-7c455834f81e","ios":"levelo://app?vid=3bb87db6-8022-418f-a4aa-7c455834f81e"},"vehicle_type_id":"4","last_reported":1749485601,"current_range_meters":9200,"station_id":"","pricing_plan_id":"cebpf4jnsgd1na2vs0mg"},{"bike_id":"5478c1b4-4c7d-476f-b8e4-102490ff70cd","system_id":"levelo_inurba_marseille","lat":43.3193,"lon":5.37297,"is_reserved":false,"is_disabled":false,"rental_uris":{"android":"levelo://app?vid=5478c1b4-4c7d-476f-b8e4-102490ff70cd","ios":"levelo://app?vid=5478c1b4-4c7d-476f-b8e4-102490ff70cd"},"vehicle_type_id":"4","last_reported":1749485601,"current_range_meters":9200,"station_id":"","pricing_plan_id":"cebpf4jnsgd1na2vs0mg"},{"bike_id":"332c8d2f-69ba-474f-8743-ff284c8e192f","system_id":"levelo_inurba_marseille","lat":43.27953,"lon":5.41054,"is_reserved":false,"is_disabled":false,"rental_uris":{"android":"levelo://app?vid=332c8d2f-69ba-474f-8743-ff284c8e192f","ios":"levelo://app?vid=332c8d2f-69ba-474f-8743-ff284c8e192f"},"vehicle_type_id":"4","last_reported":1749485601,"current_range_meters":9200,"station_id":"ce4bhnp2rcd13ifvqh0g","pricing_plan_id":"cebpf4jnsgd1na2vs0mg"},{"bike_id":"7bb766a0-d1b2-41eb-be6b-4d46f95abc71","system_id":"levelo_inurba_marseille","lat":43.27568,"lon":5.38434,"is_reserved":false,"is_disabled":false,"rental_uris":{"android":"levelo://app?vid=7bb766a0-d1b2-41eb-be6b-4d46f95abc71","ios":"levelo://app?vid=7bb766a0-d1b2-41eb-be6b-4d46f95abc71"},"vehicle_type_id":"4","last_reported":1749485601,"current_range_meters":8800,"station_id":"ce4bhh92rcd13ifvqfi0","pricing_plan_id":"cebpf4jnsgd1na2vs0mg"},{"bike_id":"dd67f108-95bf-4a1e-b619-4bb77e009c5b","system_id":"levelo_inurba_marseille","lat":43.29062,"lon":5.4276,"is_reserved":false,"is_disabled":false,"rental_uris":{"android":"levelo://app?vid=dd67f108-95bf-4a1e-b619-4bb77e009c5b","ios":"levelo://app?vid=dd67f108-95bf-4a1e-b619-4bb77e009c5b"},"vehicle_type_id":"4","last_reported":1749485601,"current_range_meters":9200,"station_id":"","pricing_plan_id":"cebpf4jnsgd1na2vs0mg"},{"bike_id":"1e586377-e5cd-4379-a2f0-02b4a6a16d45","system_id":"levelo_inurba_marseille","lat":43.26025,"lon":5.375513,"is_reserved":false,"is_disabled":true,"rental_uris":{"android":"levelo://app?vid=1e586377-e5cd-4379-a2f0-02b4a6a16d45","ios":"levelo://app?vid=1e586377-e5cd-4379-a2f0-02b4a6a16d45"},"vehicle_type_id":"4","last_reported":1749485601,"current_range_meters":9200,"station_id":"ce4bhgh2rcd13ifvqfa0","pricing_plan_id":"cebpf4jnsgd1na2vs0mg"},{"bike_id":"e1f9de4e-ca6b-4bdd-a38c-95150f4196b3","system_id":"levelo_inurba_marseille","lat":43.276246,"lon":5.361064,"is_reserved":false,"is_disabled":false,"rental_uris":{"android":"levelo://app?vid=e1f9de4e-ca6b-4bdd-a38c-95150f4196b3","ios":"levelo://app?vid=e1f9de4e-ca6b-4bdd-a38c-95150f4196b3"},"vehicle_type_id":"4","last_reported":1749485601,"current_range_meters":9200,"station_id":"ce4bgj92rcd13ifvqbe0","pricing_plan_id":"cebpf4jnsgd1na2vs0mg"},{"bike_id":"ca8be690-9def-466a-9c9f-3f27533662a2","system_id":"levelo_inurba_marseille","lat":43.2862,"lon":5.35093,"is_reserved":false,"is_disabled":false,"rental_uris":{"android":"levelo://app?vid=ca8be690-9def-466a-9c9f-3f27533662a2","ios":"levelo://app?vid=ca8be690-9def-466a-9c9f-3f27533662a2"},"vehicle_type_id":"4","last_reported":1749485601,"current_range_meters":9200,"station_id":"ce4bhch2rcd13ifvqeug","pricing_plan_id":"cebpf4jnsgd1na2vs0mg"},{"bike_id":"6cbf76ea-5d4c-4751-a442-2aca0a53e158","system_id":"levelo_inurba_marseille","lat":43.29613,"lon":5.3773,"is_reserved":false,"is_disabled":false,"rental_uris":{"android":"levelo://app?vid=6cbf76ea-5d4c-4751-a442-2aca0a53e158","ios":"levelo://app?vid=6cbf76ea-5d4c-4751-a442-2aca0a53e158"},"vehicle_type_id":"4","last_reported":1749485601,"current_range_meters":8800,"station_id":"ce4bgi92rcd13ifvqb90","pricing_plan_id":"cebpf4jnsgd1na2vs0mg"},{"bike_id":"6246825d-02f4-4b98-9ee0-336fe2684f68","system_id":"levelo_inurba_marseille","lat":43.31653,"lon":5.38964,"is_reserved":false,"is_disabled":false,"rental_uris":{"android":"levelo://app?vid=6246825d-02f4-4b98-9ee0-336fe2684f68","ios":"levelo://app?vid=6246825d-02f4-4b98-9ee0-336fe2684f68"},"vehicle_type_id":"4","last_reported":1749485601,"current_range_meters":9200,"station_id":"","pricing_plan_id":"cebpf4jnsgd1na2vs0mg"},{"bike_id":"d1fcfd4d-70b7-4c17-8ea1-6655eb0e4236","system_id":"levelo_inurba_marseille","lat":43.2827,"lon":5.35058,"is_reserved":false,"is_disabled":false,"rental_uris":{"android":"levelo://app?vid=d1fcfd4d-70b7-4c17-8ea1-6655eb0e4236","ios":"levelo://app?vid=d1fcfd4d-70b7-4c17-8ea1-6655eb0e4236"},"vehicle_type_id":"4","last_reported":1749485601,"current_range_meters":9200,"station_id":"ce4bhbp2rcd13ifvqerg","pricing_plan_id":"cebpf4jnsgd1na2vs0mg"},{"bike_id":"ee7a2e6a-3e65-41f6-b8b3-501fb42682dc","system_id":"levelo_inurba_marseille","lat":43.275482,"lon":5.384376,"is_reserved":false,"is_disabled":true,"rental_uris":{"android":"levelo://app?vid=ee7a2e6a-3e65-41f6-b8b3-501fb42682dc","ios":"levelo://app?vid=ee7a2e6a-3e65-41f6-b8b3-501fb42682dc"},"vehicle_type_id":"4","last_reported":1749485601,"current_range_meters":9200,"station_id":"ce4bhh92rcd13ifvqfi0","pricing_plan_id":"cebpf4jnsgd1na2vs0mg"},{"bike_id":"39cdf7ed-89dc-4de2-aafe-6c9905ce3698","system_id":"levelo_inurba_marseille","lat":43.29788,"lon":5.3679,"is_reserved":false,"is_disabled":false,"rental_uris":{"android":"levelo://app?vid=39cdf7ed-89dc-4de2-aafe-6c9905ce3698","ios":"levelo://app?vid=39cdf7ed-89dc-4de2-aafe-6c9905ce3698"},"vehicle_type_id":"4","last_reported":1749485601,"current_range_meters":9600,"station_id":"","pricing_plan_id":"cebpf4jnsgd1na2vs0mg"},{"bike_id":"25a253ad-7ee7-4c2e-bab0-87a81f95e00c","system_id":"levelo_inurba_marseille","lat":43.28369,"lon":5.34993,"is_reserved":false,"is_disabled":true,"rental_uris":{"android":"levelo://app?vid=25a253ad-7ee7-4c2e-bab0-87a81f95e00c","ios":"levelo://app?vid=25a253ad-7ee7-4c2e-bab0-87a81f95e00c"},"vehicle_type_id":"4","last_reported":1749485601,"current_range_meters":9600,"station_id":"","pricing_plan_id":"cebpf4jnsgd1na2vs0mg"},{"bike_id":"699bb74f-b393-4528-82f0-e79b7ea1926f","system_id":"levelo_inurba_marseille","lat":43.27933,"lon":5.4105,"is_reserved":false,"is_disabled":false,"rental_uris":{"android":"levelo://app?vid=699bb74f-b393-4528-82f0-e79b7ea1926f","ios":"levelo://app?vid=699bb74f-b393-4528-82f0-e79b7ea1926f"},"vehicle_type_id":"4","last_reported":1749485601,"current_range_meters":9600,"station_id":"ce4bhnp2rcd13ifvqh0g","pricing_plan_id":"cebpf4jnsgd1na2vs0mg"},{"bike_id":"2b74abfb-1262-40a3-bda3-f22e67504377","system_id":"levelo_inurba_marseille","lat":43.30435,"lon":5.36898,"is_reserved":false,"is_disabled":false,"rental_uris":{"android":"levelo://app?vid=2b74abfb-1262-40a3-bda3-f22e67504377","ios":"levelo://app?vid=2b74abfb-1262-40a3-bda3-f22e67504377"},"vehicle_type_id":"4","last_reported":1749485601,"current_range_meters":9600,"station_id":"","pricing_plan_id":"cebpf4jnsgd1na2vs0mg"},{"bike_id":"cb990818-444e-4c31-908c-0ac881770dbf","system_id":"levelo_inurba_marseille","lat":43.331,"lon":5.38256,"is_reserved":false,"is_disabled":false,"rental_uris":{"android":"levelo://app?vid=cb990818-444e-4c31-908c-0ac881770dbf","ios":"levelo://app?vid=cb990818-444e-4c31-908c-0ac881770dbf"},"vehicle_type_id":"4","last_reported":1749485601,"current_range_meters":9600,"station_id":"","pricing_plan_id":"cebpf4jnsgd1na2vs0mg"},{"bike_id":"7101e620-cc76-4028-b91a-a52aa997ec1d","system_id":"levelo_inurba_marseille","lat":43.3065,"lon":5.37367,"is_reserved":false,"is_disabled":false,"rental_uris":{"android":"levelo://app?vid=7101e620-cc76-4028-b91a-a52aa997ec1d","ios":"levelo://app?vid=7101e620-cc76-4028-b91a-a52aa997ec1d"},"vehicle_type_id":"4","last_reported":1749485601,"current_range_meters":9600,"station_id":"","pricing_plan_id":"cebpf4jnsgd1na2vs0mg"},{"bike_id":"e72769b4-3a4e-46e6-81c0-b5941421db5a","system_id":"levelo_inurba_marseille","lat":43.29313,"lon":5.37432,"is_reserved":false,"is_disabled":false,"rental_uris":{"android":"levelo://app?vid=e72769b4-3a4e-46e6-81c0-b5941421db5a","ios":"levelo://app?vid=e72769b4-3a4e-46e6-81c0-b5941421db5a"},"vehicle_type_id":"4","last_reported":1749485601,"current_range_meters":9600,"station_id":"ce4bgi12rcd13ifvqb70","pricing_plan_id":"cebpf4jnsgd1na2vs0mg"},{"bike_id":"649a7053-0d2a-4dc9-8125-ff6f6a643fa3","system_id":"levelo_inurba_marseille","lat":43.26227,"lon":5.37427,"is_reserved":false,"is_disabled":false,"rental_uris":{"android":"levelo://app?vid=649a7053-0d2a-4dc9-8125-ff6f6a643fa3","ios":"levelo://app?vid=649a7053-0d2a-4dc9-8125-ff6f6a643fa3"},"vehicle_type_id":"4","last_reported":1749485601,"current_range_meters":10000,"station_id":"","pricing_plan_id":"cebpf4jnsgd1na2vs0mg"},{"bike_id":"439c4d23-022d-40d5-91eb-c84022ffc8e5","system_id":"levelo_inurba_marseille","lat":43.2962,"lon":5.37164,"is_reserved":false,"is_disabled":false,"rental_uris":{"android":"levelo://app?vid=439c4d23-022d-40d5-91eb-c84022ffc8e5","ios":"levelo://app?vid=439c4d23-022d-40d5-91eb-c84022ffc8e5"},"vehicle_type_id":"4","last_reported":1749485601,"current_range_meters":10000,"station_id":"ce4bgnh2rcd13ifvqc0g","pricing_plan_id":"cebpf4jnsgd1na2vs0mg"},{"bike_id":"7a286b17-17df-491a-a381-1330c2f7a715","system_id":"levelo_inurba_marseille","lat":43.2989,"lon":5.43682,"is_reserved":false,"is_disabled":false,"rental_uris":{"android":"levelo://app?vid=7a286b17-17df-491a-a381-1330c2f7a715","ios":"levelo://app?vid=7a286b17-17df-491a-a381-1330c2f7a715"},"vehicle_type_id":"4","last_reported":1749485601,"current_range_meters":10000,"station_id":"ce4bhpp2rcd13ifvqhfg","pricing_plan_id":"cebpf4jnsgd1na2vs0mg"},{"bike_id":"0c0da1c5-a013-41e9-bf47-b644fd89908b","system_id":"levelo_inurba_marseille","lat":43.30145,"lon":5.37423,"is_reserved":false,"is_disabled":false,"rental_uris":{"android":"levelo://app?vid=0c0da1c5-a013-41e9-bf47-b644fd89908b","ios":"levelo://app?vid=0c0da1c5-a013-41e9-bf47-b644fd89908b"},"vehicle_type_id":"4","last_reported":1749485601,"current_range_meters":10000,"station_id":"ce4bgs92rcd13ifvqcc0","pricing_plan_id":"cebpf4jnsgd1na2vs0mg"},{"bike_id":"2b1aeb8c-0a55-4d20-b0c3-5eaf41c6c562","system_id":"levelo_inurba_marseille","lat":43.25718,"lon":5.41118,"is_reserved":false,"is_disabled":false,"rental_uris":{"android":"levelo://app?vid=2b1aeb8c-0a55-4d20-b0c3-5eaf41c6c562","ios":"levelo://app?vid=2b1aeb8c-0a55-4d20-b0c3-5eaf41c6c562"},"vehicle_type_id":"4","last_reported":1749485601,"current_range_meters":10000,"station_id":"ce4bhkp2rcd13ifvqgd0","pricing_plan_id":"cebpf4jnsgd1na2vs0mg"},{"bike_id":"c9fbaf00-9189-46b7-b079-f3c0097a3ec1","system_id":"levelo_inurba_marseille","lat":43.29013,"lon":5.3864,"is_reserved":false,"is_disabled":false,"rental_uris":{"android":"levelo://app?vid=c9fbaf00-9189-46b7-b079-f3c0097a3ec1","ios":"levelo://app?vid=c9fbaf00-9189-46b7-b079-f3c0097a3ec1"},"vehicle_type_id":"4","last_reported":1749485601,"current_range_meters":10800,"station_id":"ce4bh4p2rcd13ifvqe0g","pricing_plan_id":"cebpf4jnsgd1na2vs0mg"},{"bike_id":"8f8a4ccb-171b-4dbb-8ae4-31e8a264532f","system_id":"levelo_inurba_marseille","lat":43.28422,"lon":5.35001,"is_reserved":false,"is_disabled":false,"rental_uris":{"android":"levelo://app?vid=8f8a4ccb-171b-4dbb-8ae4-31e8a264532f","ios":"levelo://app?vid=8f8a4ccb-171b-4dbb-8ae4-31e8a264532f"},"vehicle_type_id":"4","last_reported":1749485601,"current_range_meters":10800,"station_id":"ce4bhbh2rcd13ifvqepg","pricing_plan_id":"cebpf4jnsgd1na2vs0mg"},{"bike_id":"2c441bbf-d288-4d72-9ee1-76e95c230117","system_id":"levelo_inurba_marseille","lat":43.27615,"lon":5.36115,"is_reserved":false,"is_disabled":false,"rental_uris":{"android":"levelo://app?vid=2c441bbf-d288-4d72-9ee1-76e95c230117","ios":"levelo://app?vid=2c441bbf-d288-4d72-9ee1-76e95c230117"},"vehicle_type_id":"4","last_reported":1749485601,"current_range_meters":10800,"station_id":"ce4bgj92rcd13ifvqbe0","pricing_plan_id":"cebpf4jnsgd1na2vs0mg"},{"bike_id":"27d60050-d846-4001-880e-69388ea22176","system_id":"levelo_inurba_marseille","lat":43.28726,"lon":5.37921,"is_reserved":false,"is_disabled":false,"rental_uris":{"android":"levelo://app?vid=27d60050-d846-4001-880e-69388ea22176","ios":"levelo://app?vid=27d60050-d846-4001-880e-69388ea22176"},"vehicle_type_id":"4","last_reported":1749485601,"current_range_meters":10800,"station_id":"ce4bh9p2rcd13ifvqec0","pricing_plan_id":"cebpf4jnsgd1na2vs0mg"},{"bike_id":"38e5bc55-6079-422b-980b-36406ef2de64","system_id":"levelo_inurba_marseille","lat":43.262,"lon":5.37439,"is_reserved":false,"is_disabled":false,"rental_uris":{"android":"levelo://app?vid=38e5bc55-6079-422b-980b-36406ef2de64","ios":"levelo://app?vid=38e5bc55-6079-422b-980b-36406ef2de64"},"vehicle_type_id":"4","last_reported":1749485601,"current_range_meters":10800,"station_id":"ce4bhgp2rcd13ifvqfc0","pricing_plan_id":"cebpf4jnsgd1na2vs0mg"},{"bike_id":"da14da1f-7442-42b5-98f6-365f4fbd4c56","system_id":"levelo_inurba_marseille","lat":43.31884,"lon":5.38706,"is_reserved":false,"is_disabled":false,"rental_uris":{"android":"levelo://app?vid=da14da1f-7442-42b5-98f6-365f4fbd4c56","ios":"levelo://app?vid=da14da1f-7442-42b5-98f6-365f4fbd4c56"},"vehicle_type_id":"4","last_reported":1749485601,"current_range_meters":10800,"station_id":"","pricing_plan_id":"cebpf4jnsgd1na2vs0mg"},{"bike_id":"842b3250-4d8c-4a66-bdcc-cc0e7d8d04c9","system_id":"levelo_inurba_marseille","lat":43.21738,"lon":5.34614,"is_reserved":false,"is_disabled":false,"rental_uris":{"android":"levelo://app?vid=842b3250-4d8c-4a66-bdcc-cc0e7d8d04c9","ios":"levelo://app?vid=842b3250-4d8c-4a66-bdcc-cc0e7d8d04c9"},"vehicle_type_id":"4","last_reported":1749485601,"current_range_meters":11200,"station_id":"st_cvj6r9ubvosntc0bgbag","pricing_plan_id":"cebpf4jnsgd1na2vs0mg"},{"bike_id":"78b0c2a7-e8f0-4403-9f55-1fa569f332a1","system_id":"levelo_inurba_marseille","lat":43.30888,"lon":5.39648,"is_reserved":false,"is_disabled":false,"rental_uris":{"android":"levelo://app?vid=78b0c2a7-e8f0-4403-9f55-1fa569f332a1","ios":"levelo://app?vid=78b0c2a7-e8f0-4403-9f55-1fa569f332a1"},"vehicle_type_id":"4","last_reported":1749485601,"current_range_meters":11200,"station_id":"ce4bh012rcd13ifvqcv0","pricing_plan_id":"cebpf4jnsgd1na2vs0mg"},{"bike_id":"ec6f23f1-4435-4f03-b947-be2326a2502a","system_id":"levelo_inurba_marseille","lat":43.27622,"lon":5.3611,"is_reserved":false,"is_disabled":false,"rental_uris":{"android":"levelo://app?vid=ec6f23f1-4435-4f03-b947-be2326a2502a","ios":"levelo://app?vid=ec6f23f1-4435-4f03-b947-be2326a2502a"},"vehicle_type_id":"4","last_reported":1749485601,"current_range_meters":11200,"station_id":"ce4bgj92rcd13ifvqbe0","pricing_plan_id":"cebpf4jnsgd1na2vs0mg"},{"bike_id":"62bea32f-b147-4070-b162-523f879a2a9c","system_id":"levelo_inurba_marseille","lat":43.25319,"lon":5.39362,"is_reserved":false,"is_disabled":false,"rental_uris":{"android":"levelo://app?vid=62bea32f-b147-4070-b162-523f879a2a9c","ios":"levelo://app?vid=62bea32f-b147-4070-b162-523f879a2a9c"},"vehicle_type_id":"4","last_reported":1749485601,"current_range_meters":11200,"station_id":"","pricing_plan_id":"cebpf4jnsgd1na2vs0mg"},{"bike_id":"6ebaeff8-4f0e-4572-9905-d6e668817dc5","system_id":"levelo_inurba_marseille","lat":43.28156,"lon":5.42646,"is_reserved":false,"is_disabled":false,"rental_uris":{"android":"levelo://app?vid=6ebaeff8-4f0e-4572-9905-d6e668817dc5","ios":"levelo://app?vid=6ebaeff8-4f0e-4572-9905-d6e668817dc5"},"vehicle_type_id":"4","last_reported":1749485601,"current_range_meters":11200,"station_id":"ce4bhnh2rcd13ifvqgug","pricing_plan_id":"cebpf4jnsgd1na2vs0mg"},{"bike_id":"898adc08-6852-494f-92e0-a15241901b70","system_id":"levelo_inurba_marseille","lat":43.26197,"lon":5.37561,"is_reserved":false,"is_disabled":false,"rental_uris":{"android":"levelo://app?vid=898adc08-6852-494f-92e0-a15241901b70","ios":"levelo://app?vid=898adc08-6852-494f-92e0-a15241901b70"},"vehicle_type_id":"4","last_reported":1749485601,"current_range_meters":11600,"station_id":"","pricing_plan_id":"cebpf4jnsgd1na2vs0mg"},{"bike_id":"77287101-1d17-45cf-a88a-545235d16352","system_id":"levelo_inurba_marseille","lat":43.28031,"lon":5.36951,"is_reserved":false,"is_disabled":false,"rental_uris":{"android":"levelo://app?vid=77287101-1d17-45cf-a88a-545235d16352","ios":"levelo://app?vid=77287101-1d17-45cf-a88a-545235d16352"},"vehicle_type_id":"4","last_reported":1749485601,"current_range_meters":11600,"station_id":"ce4bha12rcd13ifvqef0","pricing_plan_id":"cebpf4jnsgd1na2vs0mg"},{"bike_id":"a8650cfe-a31a-4ec8-a221-8f99bc0f054c","system_id":"levelo_inurba_marseille","lat":43.21193,"lon":5.35071,"is_reserved":false,"is_disabled":false,"rental_uris":{"android":"levelo://app?vid=a8650cfe-a31a-4ec8-a221-8f99bc0f054c","ios":"levelo://app?vid=a8650cfe-a31a-4ec8-a221-8f99bc0f054c"},"vehicle_type_id":"4","last_reported":1749485601,"current_range_meters":11600,"station_id":"st_cvj6sg6p6f1abm77japg","pricing_plan_id":"cebpf4jnsgd1na2vs0mg"},{"bike_id":"87057c81-053c-40b6-ba76-bb3d3fd30de9","system_id":"levelo_inurba_marseille","lat":43.28271,"lon":5.35066,"is_reserved":false,"is_disabled":false,"rental_uris":{"android":"levelo://app?vid=87057c81-053c-40b6-ba76-bb3d3fd30de9","ios":"levelo://app?vid=87057c81-053c-40b6-ba76-bb3d3fd30de9"},"vehicle_type_id":"4","last_reported":1749485601,"current_range_meters":11600,"station_id":"ce4bhbp2rcd13ifvqerg","pricing_plan_id":"cebpf4jnsgd1na2vs0mg"},{"bike_id":"c5927219-7007-41d7-a74e-40354b10ec51","system_id":"levelo_inurba_marseille","lat":43.26549,"lon":5.37284,"is_reserved":false,"is_disabled":false,"rental_uris":{"android":"levelo://app?vid=c5927219-7007-41d7-a74e-40354b10ec51","ios":"levelo://app?vid=c5927219-7007-41d7-a74e-40354b10ec51"},"vehicle_type_id":"4","last_reported":1749485601,"current_range_meters":11600,"station_id":"ce4bhg12rcd13ifvqf70","pricing_plan_id":"cebpf4jnsgd1na2vs0mg"},{"bike_id":"4cacb408-f051-4e32-ba40-16604d300ec9","system_id":"levelo_inurba_marseille","lat":43.284255,"lon":5.350009,"is_reserved":false,"is_disabled":false,"rental_uris":{"android":"levelo://app?vid=4cacb408-f051-4e32-ba40-16604d300ec9","ios":"levelo://app?vid=4cacb408-f051-4e32-ba40-16604d300ec9"},"vehicle_type_id":"4","last_reported":1749485601,"current_range_meters":11600,"station_id":"ce4bhbh2rcd13ifvqepg","pricing_plan_id":"cebpf4jnsgd1na2vs0mg"},{"bike_id":"aa1bdd37-123a-417e-b194-c17fd42be0da","system_id":"levelo_inurba_marseille","lat":43.21188,"lon":5.35071,"is_reserved":false,"is_disabled":false,"rental_uris":{"android":"levelo://app?vid=aa1bdd37-123a-417e-b194-c17fd42be0da","ios":"levelo://app?vid=aa1bdd37-123a-417e-b194-c17fd42be0da"},"vehicle_type_id":"4","last_reported":1749485601,"current_range_meters":11600,"station_id":"st_cvj6sg6p6f1abm77japg","pricing_plan_id":"cebpf4jnsgd1na2vs0mg"},{"bike_id":"c09b1c1e-6d5b-4a72-8f97-eccd430a9e54","system_id":"levelo_inurba_marseille","lat":43.26677,"lon":5.38264,"is_reserved":false,"is_disabled":false,"rental_uris":{"android":"levelo://app?vid=c09b1c1e-6d5b-4a72-8f97-eccd430a9e54","ios":"levelo://app?vid=c09b1c1e-6d5b-4a72-8f97-eccd430a9e54"},"vehicle_type_id":"4","last_reported":1749485601,"current_range_meters":11600,"station_id":"ce4bhgp2rcd13ifvqfc0","pricing_plan_id":"cebpf4jnsgd1na2vs0mg"},{"bike_id":"4a8fe8d6-97d4-48cb-a8b7-48e8676dfcd2","system_id":"levelo_inurba_marseille","lat":43.29002,"lon":5.35612,"is_reserved":false,"is_disabled":false,"rental_uris":{"android":"levelo://app?vid=4a8fe8d6-97d4-48cb-a8b7-48e8676dfcd2","ios":"levelo://app?vid=4a8fe8d6-97d4-48cb-a8b7-48e8676dfcd2"},"vehicle_type_id":"4","last_reported":1749485601,"current_range_meters":12000,"station_id":"ce4bhb92rcd13ifvqen0","pricing_plan_id":"cebpf4jnsgd1na2vs0mg"},{"bike_id":"fbb9b34c-7031-4d75-9691-342c610b2101","system_id":"levelo_inurba_marseille","lat":43.28361,"lon":5.36468,"is_reserved":false,"is_disabled":false,"rental_uris":{"android":"levelo://app?vid=fbb9b34c-7031-4d75-9691-342c610b2101","ios":"levelo://app?vid=fbb9b34c-7031-4d75-9691-342c610b2101"},"vehicle_type_id":"4","last_reported":1749485601,"current_range_meters":12000,"station_id":"","pricing_plan_id":"cebpf4jnsgd1na2vs0mg"},{"bike_id":"d0b72d65-79b0-4986-805e-066fa2089486","system_id":"levelo_inurba_marseille","lat":43.23197,"lon":5.35564,"is_reserved":false,"is_disabled":false,"rental_uris":{"android":"levelo://app?vid=d0b72d65-79b0-4986-805e-066fa2089486","ios":"levelo://app?vid=d0b72d65-79b0-4986-805e-066fa2089486"},"vehicle_type_id":"4","last_reported":1749485601,"current_range_meters":12000,"station_id":"ce4bhu92rcd13ifvqi70","pricing_plan_id":"cebpf4jnsgd1na2vs0mg"},{"bike_id":"c8c4af1d-070c-484a-a3f7-babd17d99646","system_id":"levelo_inurba_marseille","lat":43.33785,"lon":5.39147,"is_reserved":false,"is_disabled":false,"rental_uris":{"android":"levelo://app?vid=c8c4af1d-070c-484a-a3f7-babd17d99646","ios":"levelo://app?vid=c8c4af1d-070c-484a-a3f7-babd17d99646"},"vehicle_type_id":"4","last_reported":1749485601,"current_range_meters":12000,"station_id":"ce4bhr92rcd13ifvqhsg","pricing_plan_id":"cebpf4jnsgd1na2vs0mg"},{"bike_id":"3cc70422-5523-4950-82e6-3577658a5933","system_id":"levelo_inurba_marseille","lat":43.29282,"lon":5.374843,"is_reserved":false,"is_disabled":false,"rental_uris":{"android":"levelo://app?vid=3cc70422-5523-4950-82e6-3577658a5933","ios":"levelo://app?vid=3cc70422-5523-4950-82e6-3577658a5933"},"vehicle_type_id":"4","last_reported":1749485601,"current_range_meters":12000,"station_id":"ce4bgi12rcd13ifvqb70","pricing_plan_id":"cebpf4jnsgd1na2vs0mg"},{"bike_id":"2f32b755-3ca4-4102-8e33-37fff5e1ff8d","system_id":"levelo_inurba_marseille","lat":43.27152,"lon":5.40131,"is_reserved":false,"is_disabled":false,"rental_uris":{"android":"levelo://app?vid=2f32b755-3ca4-4102-8e33-37fff5e1ff8d","ios":"levelo://app?vid=2f32b755-3ca4-4102-8e33-37fff5e1ff8d"},"vehicle_type_id":"4","last_reported":1749485601,"current_range_meters":12400,"station_id":"","pricing_plan_id":"cebpf4jnsgd1na2vs0mg"},{"bike_id":"5aee6e98-5d72-4a58-8068-559ee9f9703d","system_id":"levelo_inurba_marseille","lat":43.2119,"lon":5.35065,"is_reserved":false,"is_disabled":false,"rental_uris":{"android":"levelo://app?vid=5aee6e98-5d72-4a58-8068-559ee9f9703d","ios":"levelo://app?vid=5aee6e98-5d72-4a58-8068-559ee9f9703d"},"vehicle_type_id":"4","last_reported":1749485601,"current_range_meters":12400,"station_id":"st_cvj6sg6p6f1abm77japg","pricing_plan_id":"cebpf4jnsgd1na2vs0mg"},{"bike_id":"510fefb0-76c3-4f3c-acd1-6f872199c689","system_id":"levelo_inurba_marseille","lat":43.25088,"lon":5.39524,"is_reserved":false,"is_disabled":false,"rental_uris":{"android":"levelo://app?vid=510fefb0-76c3-4f3c-acd1-6f872199c689","ios":"levelo://app?vid=510fefb0-76c3-4f3c-acd1-6f872199c689"},"vehicle_type_id":"4","last_reported":1749485601,"current_range_meters":12800,"station_id":"ce4bhm12rcd13ifvqgkg","pricing_plan_id":"cebpf4jnsgd1na2vs0mg"},{"bike_id":"7e15a9f9-ad17-48b2-88bf-d97d670a8979","system_id":"levelo_inurba_marseille","lat":43.24061,"lon":5.3775,"is_reserved":false,"is_disabled":false,"rental_uris":{"android":"levelo://app?vid=7e15a9f9-ad17-48b2-88bf-d97d670a8979","ios":"levelo://app?vid=7e15a9f9-ad17-48b2-88bf-d97d670a8979"},"vehicle_type_id":"4","last_reported":1749485601,"current_range_meters":12800,"station_id":"ce4bhnp2rcd13ifvqgvg","pricing_plan_id":"cebpf4jnsgd1na2vs0mg"},{"bike_id":"3a5edac7-d41d-462b-8097-551df7fd19dd","system_id":"levelo_inurba_marseille","lat":43.29603,"lon":5.38099,"is_reserved":false,"is_disabled":false,"rental_uris":{"android":"levelo://app?vid=3a5edac7-d41d-462b-8097-551df7fd19dd","ios":"levelo://app?vid=3a5edac7-d41d-462b-8097-551df7fd19dd"},"vehicle_type_id":"4","last_reported":1749485601,"current_range_meters":12400,"station_id":"ce4bgl12rcd13ifvqbo0","pricing_plan_id":"cebpf4jnsgd1na2vs0mg"},{"bike_id":"80a0df42-20d9-4736-8e76-7218c0997a1e","system_id":"levelo_inurba_marseille","lat":43.28413,"lon":5.35007,"is_reserved":false,"is_disabled":false,"rental_uris":{"android":"levelo://app?vid=80a0df42-20d9-4736-8e76-7218c0997a1e","ios":"levelo://app?vid=80a0df42-20d9-4736-8e76-7218c0997a1e"},"vehicle_type_id":"4","last_reported":1749485601,"current_range_meters":12800,"station_id":"ce4bhbh2rcd13ifvqepg","pricing_plan_id":"cebpf4jnsgd1na2vs0mg"},{"bike_id":"0a507f0f-0314-4591-9d5a-43113c119f9b","system_id":"levelo_inurba_marseille","lat":43.28704,"lon":5.39986,"is_reserved":false,"is_disabled":false,"rental_uris":{"android":"levelo://app?vid=0a507f0f-0314-4591-9d5a-43113c119f9b","ios":"levelo://app?vid=0a507f0f-0314-4591-9d5a-43113c119f9b"},"vehicle_type_id":"4","last_reported":1749485601,"current_range_meters":12800,"station_id":"ce4bho92rcd13ifvqh3g","pricing_plan_id":"cebpf4jnsgd1na2vs0mg"},{"bike_id":"1fac25e0-c0b9-4f82-beb3-61bad22f4206","system_id":"levelo_inurba_marseille","lat":43.27997,"lon":5.41667,"is_reserved":false,"is_disabled":false,"rental_uris":{"android":"levelo://app?vid=1fac25e0-c0b9-4f82-beb3-61bad22f4206","ios":"levelo://app?vid=1fac25e0-c0b9-4f82-beb3-61bad22f4206"},"vehicle_type_id":"4","last_reported":1749485601,"current_range_meters":13600,"station_id":"ce4bho12rcd13ifvqh1g","pricing_plan_id":"cebpf4jnsgd1na2vs0mg"},{"bike_id":"f729d904-9d60-482f-8bfc-24464fcf5c7e","system_id":"levelo_inurba_marseille","lat":43.29619,"lon":5.37708,"is_reserved":false,"is_disabled":false,"rental_uris":{"android":"levelo://app?vid=f729d904-9d60-482f-8bfc-24464fcf5c7e","ios":"levelo://app?vid=f729d904-9d60-482f-8bfc-24464fcf5c7e"},"vehicle_type_id":"4","last_reported":1749485601,"current_range_meters":13600,"station_id":"ce4bgi92rcd13ifvqb90","pricing_plan_id":"cebpf4jnsgd1na2vs0mg"},{"bike_id":"52d1b077-b6d4-4662-b739-a4e64dc2f1a9","system_id":"levelo_inurba_marseille","lat":43.28297,"lon":5.35082,"is_reserved":false,"is_disabled":false,"rental_uris":{"android":"levelo://app?vid=52d1b077-b6d4-4662-b739-a4e64dc2f1a9","ios":"levelo://app?vid=52d1b077-b6d4-4662-b739-a4e64dc2f1a9"},"vehicle_type_id":"4","last_reported":1749485601,"current_range_meters":13600,"station_id":"ce4bhbp2rcd13ifvqerg","pricing_plan_id":"cebpf4jnsgd1na2vs0mg"},{"bike_id":"49aa7a3d-02c4-456c-8239-5ad074402afa","system_id":"levelo_inurba_marseille","lat":43.25113,"lon":5.4036,"is_reserved":false,"is_disabled":false,"rental_uris":{"android":"levelo://app?vid=49aa7a3d-02c4-456c-8239-5ad074402afa","ios":"levelo://app?vid=49aa7a3d-02c4-456c-8239-5ad074402afa"},"vehicle_type_id":"4","last_reported":1749485601,"current_range_meters":12800,"station_id":"ce4bhlh2rcd13ifvqgig","pricing_plan_id":"cebpf4jnsgd1na2vs0mg"},{"bike_id":"ef43369c-c460-4280-ade9-cd6f21b92a29","system_id":"levelo_inurba_marseille","lat":43.2931,"lon":5.37456,"is_reserved":false,"is_disabled":false,"rental_uris":{"android":"levelo://app?vid=ef43369c-c460-4280-ade9-cd6f21b92a29","ios":"levelo://app?vid=ef43369c-c460-4280-ade9-cd6f21b92a29"},"vehicle_type_id":"4","last_reported":1749485601,"current_range_meters":13600,"station_id":"ce4bgi12rcd13ifvqb70","pricing_plan_id":"cebpf4jnsgd1na2vs0mg"},{"bike_id":"7facd0d3-e088-4a5a-a896-d77e8e818ab6","system_id":"levelo_inurba_marseille","lat":43.29216,"lon":5.36055,"is_reserved":false,"is_disabled":true,"rental_uris":{"android":"levelo://app?vid=7facd0d3-e088-4a5a-a896-d77e8e818ab6","ios":"levelo://app?vid=7facd0d3-e088-4a5a-a896-d77e8e818ab6"},"vehicle_type_id":"4","last_reported":1749485601,"current_range_meters":14000,"station_id":"ce4bhbh2rcd13ifvqeqg","pricing_plan_id":"cebpf4jnsgd1na2vs0mg"},{"bike_id":"375dbaf3-b9a0-4111-a93b-9a2dda9b4026","system_id":"levelo_inurba_marseille","lat":43.31757,"lon":5.39016,"is_reserved":false,"is_disabled":false,"rental_uris":{"android":"levelo://app?vid=375dbaf3-b9a0-4111-a93b-9a2dda9b4026","ios":"levelo://app?vid=375dbaf3-b9a0-4111-a93b-9a2dda9b4026"},"vehicle_type_id":"4","last_reported":1749485601,"current_range_meters":14000,"station_id":"ce4bhqp2rcd13ifvqhng","pricing_plan_id":"cebpf4jnsgd1na2vs0mg"},{"bike_id":"5fda9a87-2b68-4421-b415-520c832f56e9","system_id":"levelo_inurba_marseille","lat":43.212,"lon":5.35051,"is_reserved":false,"is_disabled":false,"rental_uris":{"android":"levelo://app?vid=5fda9a87-2b68-4421-b415-520c832f56e9","ios":"levelo://app?vid=5fda9a87-2b68-4421-b415-520c832f56e9"},"vehicle_type_id":"4","last_reported":1749485601,"current_range_meters":14000,"station_id":"st_cvj6sg6p6f1abm77japg","pricing_plan_id":"cebpf4jnsgd1na2vs0mg"},{"bike_id":"8a18d655-3501-40cb-9145-19acce216d59","system_id":"levelo_inurba_marseille","lat":43.287,"lon":5.37388,"is_reserved":false,"is_disabled":false,"rental_uris":{"android":"levelo://app?vid=8a18d655-3501-40cb-9145-19acce216d59","ios":"levelo://app?vid=8a18d655-3501-40cb-9145-19acce216d59"},"vehicle_type_id":"4","last_reported":1749485601,"current_range_meters":14000,"station_id":"ce4bh3p2rcd13ifvqdq0","pricing_plan_id":"cebpf4jnsgd1na2vs0mg"},{"bike_id":"0882b1bc-be87-43fc-8ee6-586807606a31","system_id":"levelo_inurba_marseille","lat":43.27375,"lon":5.36256,"is_reserved":false,"is_disabled":false,"rental_uris":{"android":"levelo://app?vid=0882b1bc-be87-43fc-8ee6-586807606a31","ios":"levelo://app?vid=0882b1bc-be87-43fc-8ee6-586807606a31"},"vehicle_type_id":"4","last_reported":1749485601,"current_range_meters":14400,"station_id":"ce4bhbh2rcd13ifvqeo0","pricing_plan_id":"cebpf4jnsgd1na2vs0mg"},{"bike_id":"b1428231-f7d0-41b4-82e6-611a90031269","system_id":"levelo_inurba_marseille","lat":43.29892,"lon":5.436653,"is_reserved":false,"is_disabled":false,"rental_uris":{"android":"levelo://app?vid=b1428231-f7d0-41b4-82e6-611a90031269","ios":"levelo://app?vid=b1428231-f7d0-41b4-82e6-611a90031269"},"vehicle_type_id":"4","last_reported":1749485601,"current_range_meters":14400,"station_id":"ce4bhpp2rcd13ifvqhfg","pricing_plan_id":"cebpf4jnsgd1na2vs0mg"},{"bike_id":"c8642802-9224-497b-8f06-af2989f8a445","system_id":"levelo_inurba_marseille","lat":43.27369,"lon":5.36261,"is_reserved":false,"is_disabled":false,"rental_uris":{"android":"levelo://app?vid=c8642802-9224-497b-8f06-af2989f8a445","ios":"levelo://app?vid=c8642802-9224-497b-8f06-af2989f8a445"},"vehicle_type_id":"4","last_reported":1749485601,"current_range_meters":14400,"station_id":"ce4bhbh2rcd13ifvqeo0","pricing_plan_id":"cebpf4jnsgd1na2vs0mg"},{"bike_id":"6b566ac5-f5de-4ba0-a650-a81ea46fe09e","system_id":"levelo_inurba_marseille","lat":43.34153,"lon":5.40892,"is_reserved":false,"is_disabled":false,"rental_uris":{"android":"levelo://app?vid=6b566ac5-f5de-4ba0-a650-a81ea46fe09e","ios":"levelo://app?vid=6b566ac5-f5de-4ba0-a650-a81ea46fe09e"},"vehicle_type_id":"4","last_reported":1749485601,"current_range_meters":14400,"station_id":"ce4bhqh2rcd13ifvqhlg","pricing_plan_id":"cebpf4jnsgd1na2vs0mg"},{"bike_id":"cc01258c-60ed-4f29-8b82-ac1fffcbffef","system_id":"levelo_inurba_marseille","lat":43.29909,"lon":5.38144,"is_reserved":false,"is_disabled":false,"rental_uris":{"android":"levelo://app?vid=cc01258c-60ed-4f29-8b82-ac1fffcbffef","ios":"levelo://app?vid=cc01258c-60ed-4f29-8b82-ac1fffcbffef"},"vehicle_type_id":"4","last_reported":1749485601,"current_range_meters":14400,"station_id":"ce4bgj12rcd13ifvqbc0","pricing_plan_id":"cebpf4jnsgd1na2vs0mg"},{"bike_id":"3cad8b7e-a72d-4344-81c2-6a1626b705a4","system_id":"levelo_inurba_marseille","lat":43.28417,"lon":5.34989,"is_reserved":false,"is_disabled":false,"rental_uris":{"android":"levelo://app?vid=3cad8b7e-a72d-4344-81c2-6a1626b705a4","ios":"levelo://app?vid=3cad8b7e-a72d-4344-81c2-6a1626b705a4"},"vehicle_type_id":"4","last_reported":1749485601,"current_range_meters":14400,"station_id":"ce4bhbh2rcd13ifvqepg","pricing_plan_id":"cebpf4jnsgd1na2vs0mg"},{"bike_id":"9455d38b-6f8c-4442-87c1-499e849fe884","system_id":"levelo_inurba_marseille","lat":43.28423,"lon":5.35,"is_reserved":false,"is_disabled":true,"rental_uris":{"android":"levelo://app?vid=9455d38b-6f8c-4442-87c1-499e849fe884","ios":"levelo://app?vid=9455d38b-6f8c-4442-87c1-499e849fe884"},"vehicle_type_id":"4","last_reported":1749485601,"current_range_meters":14400,"station_id":"ce4bhbh2rcd13ifvqepg","pricing_plan_id":"cebpf4jnsgd1na2vs0mg"},{"bike_id":"6fd4cd93-a409-4da9-ad4b-b6025023458d","system_id":"levelo_inurba_marseille","lat":43.290126,"lon":5.38123,"is_reserved":false,"is_disabled":false,"rental_uris":{"android":"levelo://app?vid=6fd4cd93-a409-4da9-ad4b-b6025023458d","ios":"levelo://app?vid=6fd4cd93-a409-4da9-ad4b-b6025023458d"},"vehicle_type_id":"4","last_reported":1749485601,"current_range_meters":14800,"station_id":"","pricing_plan_id":"cebpf4jnsgd1na2vs0mg"},{"bike_id":"46c32037-b1c1-4d92-9549-0977c6365be3","system_id":"levelo_inurba_marseille","lat":43.28039,"lon":5.36948,"is_reserved":false,"is_disabled":false,"rental_uris":{"android":"levelo://app?vid=46c32037-b1c1-4d92-9549-0977c6365be3","ios":"levelo://app?vid=46c32037-b1c1-4d92-9549-0977c6365be3"},"vehicle_type_id":"4","last_reported":1749485601,"current_range_meters":14800,"station_id":"ce4bha12rcd13ifvqef0","pricing_plan_id":"cebpf4jnsgd1na2vs0mg"},{"bike_id":"435db09a-8d8e-4dc5-af7a-4ff7f0eaf09f","system_id":"levelo_inurba_marseille","lat":43.23968,"lon":5.36632,"is_reserved":false,"is_disabled":false,"rental_uris":{"android":"levelo://app?vid=435db09a-8d8e-4dc5-af7a-4ff7f0eaf09f","ios":"levelo://app?vid=435db09a-8d8e-4dc5-af7a-4ff7f0eaf09f"},"vehicle_type_id":"4","last_reported":1749485601,"current_range_meters":14800,"station_id":"ce4bhi12rcd13ifvqfp0","pricing_plan_id":"cebpf4jnsgd1na2vs0mg"},{"bike_id":"7b70201d-eb69-496e-916d-9d11503fea94","system_id":"levelo_inurba_marseille","lat":43.225049,"lon":5.347874,"is_reserved":false,"is_disabled":false,"rental_uris":{"android":"levelo://app?vid=7b70201d-eb69-496e-916d-9d11503fea94","ios":"levelo://app?vid=7b70201d-eb69-496e-916d-9d11503fea94"},"vehicle_type_id":"4","last_reported":1749485601,"current_range_meters":14800,"station_id":"","pricing_plan_id":"cebpf4jnsgd1na2vs0mg"},{"bike_id":"88113087-f0bb-4133-ab2a-bbfce1f3d99a","system_id":"levelo_inurba_marseille","lat":43.31735,"lon":5.40477,"is_reserved":false,"is_disabled":true,"rental_uris":{"android":"levelo://app?vid=88113087-f0bb-4133-ab2a-bbfce1f3d99a","ios":"levelo://app?vid=88113087-f0bb-4133-ab2a-bbfce1f3d99a"},"vehicle_type_id":"4","last_reported":1749485601,"current_range_meters":14800,"station_id":"","pricing_plan_id":"cebpf4jnsgd1na2vs0mg"},{"bike_id":"74438881-2737-4df4-b1ff-df284f1bab22","system_id":"levelo_inurba_marseille","lat":43.25119,"lon":5.40329,"is_reserved":false,"is_disabled":false,"rental_uris":{"android":"levelo://app?vid=74438881-2737-4df4-b1ff-df284f1bab22","ios":"levelo://app?vid=74438881-2737-4df4-b1ff-df284f1bab22"},"vehicle_type_id":"4","last_reported":1749485601,"current_range_meters":14800,"station_id":"ce4bhlh2rcd13ifvqgig","pricing_plan_id":"cebpf4jnsgd1na2vs0mg"},{"bike_id":"df7ae405-d3d9-4ff7-ad79-afd2828470f6","system_id":"levelo_inurba_marseille","lat":43.22926,"lon":5.353736,"is_reserved":false,"is_disabled":true,"rental_uris":{"android":"levelo://app?vid=df7ae405-d3d9-4ff7-ad79-afd2828470f6","ios":"levelo://app?vid=df7ae405-d3d9-4ff7-ad79-afd2828470f6"},"vehicle_type_id":"4","last_reported":1749485601,"current_range_meters":14800,"station_id":"","pricing_plan_id":"cebpf4jnsgd1na2vs0mg"},{"bike_id":"05a01055-1e1a-46e6-aa3f-4671da58ea43","system_id":"levelo_inurba_marseille","lat":43.27376,"lon":5.36257,"is_reserved":false,"is_disabled":false,"rental_uris":{"android":"levelo://app?vid=05a01055-1e1a-46e6-aa3f-4671da58ea43","ios":"levelo://app?vid=05a01055-1e1a-46e6-aa3f-4671da58ea43"},"vehicle_type_id":"4","last_reported":1749485601,"current_range_meters":14800,"station_id":"ce4bhbh2rcd13ifvqeo0","pricing_plan_id":"cebpf4jnsgd1na2vs0mg"},{"bike_id":"4162ad11-bf04-4b22-a71b-18408cacd0dd","system_id":"levelo_inurba_marseille","lat":43.29309,"lon":5.37175,"is_reserved":false,"is_disabled":false,"rental_uris":{"android":"levelo://app?vid=4162ad11-bf04-4b22-a71b-18408cacd0dd","ios":"levelo://app?vid=4162ad11-bf04-4b22-a71b-18408cacd0dd"},"vehicle_type_id":"4","last_reported":1749485601,"current_range_meters":14800,"station_id":"ce4bgh92rcd13ifvqb40","pricing_plan_id":"cebpf4jnsgd1na2vs0mg"},{"bike_id":"0053f0bd-3481-4f8f-a19e-7dd7a6624507","system_id":"levelo_inurba_marseille","lat":43.29897,"lon":5.43649,"is_reserved":false,"is_disabled":false,"rental_uris":{"android":"levelo://app?vid=0053f0bd-3481-4f8f-a19e-7dd7a6624507","ios":"levelo://app?vid=0053f0bd-3481-4f8f-a19e-7dd7a6624507"},"vehicle_type_id":"4","last_reported":1749485601,"current_range_meters":15200,"station_id":"ce4bhpp2rcd13ifvqhfg","pricing_plan_id":"cebpf4jnsgd1na2vs0mg"},{"bike_id":"8e317286-d121-41fb-88b8-5b957116b9fe","system_id":"levelo_inurba_marseille","lat":43.21173,"lon":5.35071,"is_reserved":false,"is_disabled":false,"rental_uris":{"android":"levelo://app?vid=8e317286-d121-41fb-88b8-5b957116b9fe","ios":"levelo://app?vid=8e317286-d121-41fb-88b8-5b957116b9fe"},"vehicle_type_id":"4","last_reported":1749485601,"current_range_meters":15200,"station_id":"st_cvj6sg6p6f1abm77japg","pricing_plan_id":"cebpf4jnsgd1na2vs0mg"},{"bike_id":"1e3c0132-c838-4f06-a6c3-46c3cb6ca49e","system_id":"levelo_inurba_marseille","lat":43.27364,"lon":5.36244,"is_reserved":false,"is_disabled":false,"rental_uris":{"android":"levelo://app?vid=1e3c0132-c838-4f06-a6c3-46c3cb6ca49e","ios":"levelo://app?vid=1e3c0132-c838-4f06-a6c3-46c3cb6ca49e"},"vehicle_type_id":"4","last_reported":1749485601,"current_range_meters":15200,"station_id":"ce4bhbh2rcd13ifvqeo0","pricing_plan_id":"cebpf4jnsgd1na2vs0mg"},{"bike_id":"b2f230b8-c7c6-43ac-b179-2d1795ac2e64","system_id":"levelo_inurba_marseille","lat":43.24802,"lon":5.37456,"is_reserved":false,"is_disabled":false,"rental_uris":{"android":"levelo://app?vid=b2f230b8-c7c6-43ac-b179-2d1795ac2e64","ios":"levelo://app?vid=b2f230b8-c7c6-43ac-b179-2d1795ac2e64"},"vehicle_type_id":"4","last_reported":1749485601,"current_range_meters":15200,"station_id":"ce4bhgh2rcd13ifvqfb0","pricing_plan_id":"cebpf4jnsgd1na2vs0mg"},{"bike_id":"a748d92b-cd24-4466-a83d-fbcec21be800","system_id":"levelo_inurba_marseille","lat":43.2734,"lon":5.36396,"is_reserved":false,"is_disabled":false,"rental_uris":{"android":"levelo://app?vid=a748d92b-cd24-4466-a83d-fbcec21be800","ios":"levelo://app?vid=a748d92b-cd24-4466-a83d-fbcec21be800"},"vehicle_type_id":"4","last_reported":1749485601,"current_range_meters":15200,"station_id":"","pricing_plan_id":"cebpf4jnsgd1na2vs0mg"},{"bike_id":"97bdaa90-f367-4eb6-9085-1ee225337d93","system_id":"levelo_inurba_marseille","lat":43.29683,"lon":5.37285,"is_reserved":false,"is_disabled":false,"rental_uris":{"android":"levelo://app?vid=97bdaa90-f367-4eb6-9085-1ee225337d93","ios":"levelo://app?vid=97bdaa90-f367-4eb6-9085-1ee225337d93"},"vehicle_type_id":"4","last_reported":1749485601,"current_range_meters":15200,"station_id":"ce4bgk12rcd13ifvqbj0","pricing_plan_id":"cebpf4jnsgd1na2vs0mg"},{"bike_id":"146bbc2c-b8ed-4017-b0d0-e3112abc464f","system_id":"levelo_inurba_marseille","lat":43.24164,"lon":5.36393,"is_reserved":false,"is_disabled":false,"rental_uris":{"android":"levelo://app?vid=146bbc2c-b8ed-4017-b0d0-e3112abc464f","ios":"levelo://app?vid=146bbc2c-b8ed-4017-b0d0-e3112abc464f"},"vehicle_type_id":"4","last_reported":1749485601,"current_range_meters":16000,"station_id":"cpo36qri1sfpv3e86is0","pricing_plan_id":"cebpf4jnsgd1na2vs0mg"},{"bike_id":"5077581b-cebb-46fc-ba69-4fa8272d4810","system_id":"levelo_inurba_marseille","lat":43.21357,"lon":5.35525,"is_reserved":false,"is_disabled":false,"rental_uris":{"android":"levelo://app?vid=5077581b-cebb-46fc-ba69-4fa8272d4810","ios":"levelo://app?vid=5077581b-cebb-46fc-ba69-4fa8272d4810"},"vehicle_type_id":"4","last_reported":1749485601,"current_range_meters":16000,"station_id":"","pricing_plan_id":"cebpf4jnsgd1na2vs0mg"},{"bike_id":"a2824cfe-99fd-4677-ab2b-2ca7e09b9260","system_id":"levelo_inurba_marseille","lat":43.323482,"lon":5.36689,"is_reserved":false,"is_disabled":false,"rental_uris":{"android":"levelo://app?vid=a2824cfe-99fd-4677-ab2b-2ca7e09b9260","ios":"levelo://app?vid=a2824cfe-99fd-4677-ab2b-2ca7e09b9260"},"vehicle_type_id":"4","last_reported":1749485601,"current_range_meters":16000,"station_id":"","pricing_plan_id":"cebpf4jnsgd1na2vs0mg"},{"bike_id":"e5e2ee53-1226-462a-82b9-a66f590d38b2","system_id":"levelo_inurba_marseille","lat":43.26195,"lon":5.3744,"is_reserved":false,"is_disabled":false,"rental_uris":{"android":"levelo://app?vid=e5e2ee53-1226-462a-82b9-a66f590d38b2","ios":"levelo://app?vid=e5e2ee53-1226-462a-82b9-a66f590d38b2"},"vehicle_type_id":"4","last_reported":1749485601,"current_range_meters":16000,"station_id":"ce4bhgp2rcd13ifvqfc0","pricing_plan_id":"cebpf4jnsgd1na2vs0mg"},{"bike_id":"f4d39fe3-afe9-4d85-87f9-457d9f9c136e","system_id":"levelo_inurba_marseille","lat":43.2761,"lon":5.36103,"is_reserved":false,"is_disabled":false,"rental_uris":{"android":"levelo://app?vid=f4d39fe3-afe9-4d85-87f9-457d9f9c136e","ios":"levelo://app?vid=f4d39fe3-afe9-4d85-87f9-457d9f9c136e"},"vehicle_type_id":"4","last_reported":1749485601,"current_range_meters":16000,"station_id":"ce4bgj92rcd13ifvqbe0","pricing_plan_id":"cebpf4jnsgd1na2vs0mg"},{"bike_id":"03d59587-88d1-4c33-80ae-b7745cc2b37e","system_id":"levelo_inurba_marseille","lat":43.230682,"lon":5.354977,"is_reserved":false,"is_disabled":false,"rental_uris":{"android":"levelo://app?vid=03d59587-88d1-4c33-80ae-b7745cc2b37e","ios":"levelo://app?vid=03d59587-88d1-4c33-80ae-b7745cc2b37e"},"vehicle_type_id":"4","last_reported":1749485601,"current_range_meters":16000,"station_id":"cpo3532slgdg3j2ikp40","pricing_plan_id":"cebpf4jnsgd1na2vs0mg"},{"bike_id":"e83c1c2a-1fcf-46e1-adbb-09f634aa3f06","system_id":"levelo_inurba_marseille","lat":43.29,"lon":5.35608,"is_reserved":false,"is_disabled":true,"rental_uris":{"android":"levelo://app?vid=e83c1c2a-1fcf-46e1-adbb-09f634aa3f06","ios":"levelo://app?vid=e83c1c2a-1fcf-46e1-adbb-09f634aa3f06"},"vehicle_type_id":"4","last_reported":1749485601,"current_range_meters":16000,"station_id":"ce4bhb92rcd13ifvqen0","pricing_plan_id":"cebpf4jnsgd1na2vs0mg"},{"bike_id":"de8e06e5-3b35-4f47-b97a-15327cfa528b","system_id":"levelo_inurba_marseille","lat":43.28439,"lon":5.34986,"is_reserved":false,"is_disabled":false,"rental_uris":{"android":"levelo://app?vid=de8e06e5-3b35-4f47-b97a-15327cfa528b","ios":"levelo://app?vid=de8e06e5-3b35-4f47-b97a-15327cfa528b"},"vehicle_type_id":"4","last_reported":1749485601,"current_range_meters":16000,"station_id":"ce4bhbh2rcd13ifvqepg","pricing_plan_id":"cebpf4jnsgd1na2vs0mg"},{"bike_id":"6a4cfdb5-a640-468f-a2c7-cf1c1cf26d49","system_id":"levelo_inurba_marseille","lat":43.27172,"lon":5.40993,"is_reserved":false,"is_disabled":false,"rental_uris":{"android":"levelo://app?vid=6a4cfdb5-a640-468f-a2c7-cf1c1cf26d49","ios":"levelo://app?vid=6a4cfdb5-a640-468f-a2c7-cf1c1cf26d49"},"vehicle_type_id":"4","last_reported":1749485601,"current_range_meters":16000,"station_id":"ce4bhl12rcd13ifvqgf0","pricing_plan_id":"cebpf4jnsgd1na2vs0mg"},{"bike_id":"6f5e2ae1-704e-47d7-8df4-a21571bbea82","system_id":"levelo_inurba_marseille","lat":43.32414,"lon":5.37438,"is_reserved":false,"is_disabled":false,"rental_uris":{"android":"levelo://app?vid=6f5e2ae1-704e-47d7-8df4-a21571bbea82","ios":"levelo://app?vid=6f5e2ae1-704e-47d7-8df4-a21571bbea82"},"vehicle_type_id":"4","last_reported":1749485601,"current_range_meters":16000,"station_id":"","pricing_plan_id":"cebpf4jnsgd1na2vs0mg"},{"bike_id":"f523cf6f-2abf-4f5b-82f5-4e5ee6d414de","system_id":"levelo_inurba_marseille","lat":43.308014,"lon":5.381565,"is_reserved":false,"is_disabled":false,"rental_uris":{"android":"levelo://app?vid=f523cf6f-2abf-4f5b-82f5-4e5ee6d414de","ios":"levelo://app?vid=f523cf6f-2abf-4f5b-82f5-4e5ee6d414de"},"vehicle_type_id":"4","last_reported":1749485601,"current_range_meters":16000,"station_id":"ce4bgt12rcd13ifvqce0","pricing_plan_id":"cebpf4jnsgd1na2vs0mg"},{"bike_id":"359b5ec1-8dd0-4460-8dae-600b6731d74f","system_id":"levelo_inurba_marseille","lat":43.31118,"lon":5.37772,"is_reserved":false,"is_disabled":false,"rental_uris":{"android":"levelo://app?vid=359b5ec1-8dd0-4460-8dae-600b6731d74f","ios":"levelo://app?vid=359b5ec1-8dd0-4460-8dae-600b6731d74f"},"vehicle_type_id":"4","last_reported":1749485601,"current_range_meters":16000,"station_id":"ce4bgt92rcd13ifvqcg0","pricing_plan_id":"cebpf4jnsgd1na2vs0mg"},{"bike_id":"ae1b61f4-0dca-4963-a89b-1ff082c44686","system_id":"levelo_inurba_marseille","lat":43.261948,"lon":5.37448,"is_reserved":false,"is_disabled":false,"rental_uris":{"android":"levelo://app?vid=ae1b61f4-0dca-4963-a89b-1ff082c44686","ios":"levelo://app?vid=ae1b61f4-0dca-4963-a89b-1ff082c44686"},"vehicle_type_id":"4","last_reported":1749485601,"current_range_meters":16000,"station_id":"ce4bhgp2rcd13ifvqfc0","pricing_plan_id":"cebpf4jnsgd1na2vs0mg"},{"bike_id":"3ea5c50a-3df8-4a34-84e5-b8586d9beb87","system_id":"levelo_inurba_marseille","lat":43.30427,"lon":5.39745,"is_reserved":false,"is_disabled":false,"rental_uris":{"android":"levelo://app?vid=3ea5c50a-3df8-4a34-84e5-b8586d9beb87","ios":"levelo://app?vid=3ea5c50a-3df8-4a34-84e5-b8586d9beb87"},"vehicle_type_id":"4","last_reported":1749485601,"current_range_meters":16000,"station_id":"ce4bh092rcd13ifvqd20","pricing_plan_id":"cebpf4jnsgd1na2vs0mg"},{"bike_id":"2e706ecc-6a9f-4af7-be06-a7a24091f5d7","system_id":"levelo_inurba_marseille","lat":43.291933,"lon":5.357903,"is_reserved":false,"is_disabled":false,"rental_uris":{"android":"levelo://app?vid=2e706ecc-6a9f-4af7-be06-a7a24091f5d7","ios":"levelo://app?vid=2e706ecc-6a9f-4af7-be06-a7a24091f5d7"},"vehicle_type_id":"4","last_reported":1749485601,"current_range_meters":16400,"station_id":"ce4bhb12rcd13ifvqel0","pricing_plan_id":"cebpf4jnsgd1na2vs0mg"},{"bike_id":"a6932b32-a7b9-4a74-9653-0ce32b5546e9","system_id":"levelo_inurba_marseille","lat":43.32348,"lon":5.36796,"is_reserved":false,"is_disabled":false,"rental_uris":{"android":"levelo://app?vid=a6932b32-a7b9-4a74-9653-0ce32b5546e9","ios":"levelo://app?vid=a6932b32-a7b9-4a74-9653-0ce32b5546e9"},"vehicle_type_id":"4","last_reported":1749485601,"current_range_meters":16400,"station_id":"ce4bhsh2rcd13ifvqi2g","pricing_plan_id":"cebpf4jnsgd1na2vs0mg"},{"bike_id":"5534adbf-4284-4ca8-99eb-a673e78afaf9","system_id":"levelo_inurba_marseille","lat":43.24168,"lon":5.36395,"is_reserved":false,"is_disabled":false,"rental_uris":{"android":"levelo://app?vid=5534adbf-4284-4ca8-99eb-a673e78afaf9","ios":"levelo://app?vid=5534adbf-4284-4ca8-99eb-a673e78afaf9"},"vehicle_type_id":"4","last_reported":1749485601,"current_range_meters":16400,"station_id":"cpo36qri1sfpv3e86is0","pricing_plan_id":"cebpf4jnsgd1na2vs0mg"},{"bike_id":"e1d9ab8a-de6e-4a59-815a-0c6ebde2cf3b","system_id":"levelo_inurba_marseille","lat":43.31719,"lon":5.42422,"is_reserved":false,"is_disabled":false,"rental_uris":{"android":"levelo://app?vid=e1d9ab8a-de6e-4a59-815a-0c6ebde2cf3b","ios":"levelo://app?vid=e1d9ab8a-de6e-4a59-815a-0c6ebde2cf3b"},"vehicle_type_id":"4","last_reported":1749485601,"current_range_meters":16400,"station_id":"ce4bhp92rcd13ifvqhbg","pricing_plan_id":"cebpf4jnsgd1na2vs0mg"},{"bike_id":"99ea979a-a7f2-45c3-b075-7b1250a4fda0","system_id":"levelo_inurba_marseille","lat":43.29071,"lon":5.37156,"is_reserved":false,"is_disabled":false,"rental_uris":{"android":"levelo://app?vid=99ea979a-a7f2-45c3-b075-7b1250a4fda0","ios":"levelo://app?vid=99ea979a-a7f2-45c3-b075-7b1250a4fda0"},"vehicle_type_id":"4","last_reported":1749485601,"current_range_meters":16400,"station_id":"ce4bh5p2rcd13ifvqe4g","pricing_plan_id":"cebpf4jnsgd1na2vs0mg"},{"bike_id":"b8117546-41fe-4c56-82e4-26dca8059854","system_id":"levelo_inurba_marseille","lat":43.27377,"lon":5.36253,"is_reserved":false,"is_disabled":false,"rental_uris":{"android":"levelo://app?vid=b8117546-41fe-4c56-82e4-26dca8059854","ios":"levelo://app?vid=b8117546-41fe-4c56-82e4-26dca8059854"},"vehicle_type_id":"4","last_reported":1749485601,"current_range_meters":16400,"station_id":"ce4bhbh2rcd13ifvqeo0","pricing_plan_id":"cebpf4jnsgd1na2vs0mg"},{"bike_id":"402b268f-51d8-4319-85da-3f411d4d5d91","system_id":"levelo_inurba_marseille","lat":43.2121,"lon":5.35045,"is_reserved":false,"is_disabled":false,"rental_uris":{"android":"levelo://app?vid=402b268f-51d8-4319-85da-3f411d4d5d91","ios":"levelo://app?vid=402b268f-51d8-4319-85da-3f411d4d5d91"},"vehicle_type_id":"4","last_reported":1749485601,"current_range_meters":16400,"station_id":"st_cvj6sg6p6f1abm77japg","pricing_plan_id":"cebpf4jnsgd1na2vs0mg"},{"bike_id":"3fab3e32-a1ab-4426-9da4-5f13016b97b9","system_id":"levelo_inurba_marseille","lat":43.24071,"lon":5.37762,"is_reserved":false,"is_disabled":false,"rental_uris":{"android":"levelo://app?vid=3fab3e32-a1ab-4426-9da4-5f13016b97b9","ios":"levelo://app?vid=3fab3e32-a1ab-4426-9da4-5f13016b97b9"},"vehicle_type_id":"4","last_reported":1749485601,"current_range_meters":16400,"station_id":"ce4bhnp2rcd13ifvqgvg","pricing_plan_id":"cebpf4jnsgd1na2vs0mg"},{"bike_id":"5a383c31-6a9d-486a-98d1-ffdfe40a3a2e","system_id":"levelo_inurba_marseille","lat":43.26209,"lon":5.37444,"is_reserved":false,"is_disabled":false,"rental_uris":{"android":"levelo://app?vid=5a383c31-6a9d-486a-98d1-ffdfe40a3a2e","ios":"levelo://app?vid=5a383c31-6a9d-486a-98d1-ffdfe40a3a2e"},"vehicle_type_id":"4","last_reported":1749485601,"current_range_meters":16400,"station_id":"ce4bhgp2rcd13ifvqfc0","pricing_plan_id":"cebpf4jnsgd1na2vs0mg"},{"bike_id":"498fa481-e070-4263-86e4-e91fdc7a07d0","system_id":"levelo_inurba_marseille","lat":43.28409,"lon":5.34994,"is_reserved":false,"is_disabled":false,"rental_uris":{"android":"levelo://app?vid=498fa481-e070-4263-86e4-e91fdc7a07d0","ios":"levelo://app?vid=498fa481-e070-4263-86e4-e91fdc7a07d0"},"vehicle_type_id":"4","last_reported":1749485601,"current_range_meters":16800,"station_id":"ce4bhbh2rcd13ifvqepg","pricing_plan_id":"cebpf4jnsgd1na2vs0mg"},{"bike_id":"136b8fbf-14bc-4a87-a822-8077a5afc251","system_id":"levelo_inurba_marseille","lat":43.28422,"lon":5.35003,"is_reserved":false,"is_disabled":false,"rental_uris":{"android":"levelo://app?vid=136b8fbf-14bc-4a87-a822-8077a5afc251","ios":"levelo://app?vid=136b8fbf-14bc-4a87-a822-8077a5afc251"},"vehicle_type_id":"4","last_reported":1749485601,"current_range_meters":16800,"station_id":"ce4bhbh2rcd13ifvqepg","pricing_plan_id":"cebpf4jnsgd1na2vs0mg"},{"bike_id":"6ddb5fa7-4997-4324-ab7f-5f095f4365f3","system_id":"levelo_inurba_marseille","lat":43.26834,"lon":5.42764,"is_reserved":false,"is_disabled":false,"rental_uris":{"android":"levelo://app?vid=6ddb5fa7-4997-4324-ab7f-5f095f4365f3","ios":"levelo://app?vid=6ddb5fa7-4997-4324-ab7f-5f095f4365f3"},"vehicle_type_id":"4","last_reported":1749485601,"current_range_meters":16800,"station_id":"","pricing_plan_id":"cebpf4jnsgd1na2vs0mg"},{"bike_id":"10a70f2c-55b2-4b29-a176-df92e1013498","system_id":"levelo_inurba_marseille","lat":43.26212,"lon":5.37437,"is_reserved":false,"is_disabled":false,"rental_uris":{"android":"levelo://app?vid=10a70f2c-55b2-4b29-a176-df92e1013498","ios":"levelo://app?vid=10a70f2c-55b2-4b29-a176-df92e1013498"},"vehicle_type_id":"4","last_reported":1749485601,"current_range_meters":16800,"station_id":"ce4bhgp2rcd13ifvqfc0","pricing_plan_id":"cebpf4jnsgd1na2vs0mg"},{"bike_id":"96c56758-3970-44ed-aa03-c28919bf7fe7","system_id":"levelo_inurba_marseille","lat":43.30226,"lon":5.39465,"is_reserved":false,"is_disabled":false,"rental_uris":{"android":"levelo://app?vid=96c56758-3970-44ed-aa03-c28919bf7fe7","ios":"levelo://app?vid=96c56758-3970-44ed-aa03-c28919bf7fe7"},"vehicle_type_id":"4","last_reported":1749485601,"current_range_meters":16800,"station_id":"ce4bh0p2rcd13ifvqd70","pricing_plan_id":"cebpf4jnsgd1na2vs0mg"},{"bike_id":"0ddee1f0-a9c8-4d75-b5da-71bffbbdfcdc","system_id":"levelo_inurba_marseille","lat":43.26064,"lon":5.39396,"is_reserved":false,"is_disabled":false,"rental_uris":{"android":"levelo://app?vid=0ddee1f0-a9c8-4d75-b5da-71bffbbdfcdc","ios":"levelo://app?vid=0ddee1f0-a9c8-4d75-b5da-71bffbbdfcdc"},"vehicle_type_id":"4","last_reported":1749485601,"current_range_meters":16400,"station_id":"ce4bhh92rcd13ifvqfj0","pricing_plan_id":"cebpf4jnsgd1na2vs0mg"},{"bike_id":"eb97646f-3406-4c6e-9792-f71f26ad1e74","system_id":"levelo_inurba_marseille","lat":43.29305,"lon":5.37176,"is_reserved":false,"is_disabled":false,"rental_uris":{"android":"levelo://app?vid=eb97646f-3406-4c6e-9792-f71f26ad1e74","ios":"levelo://app?vid=eb97646f-3406-4c6e-9792-f71f26ad1e74"},"vehicle_type_id":"4","last_reported":1749485601,"current_range_meters":16800,"station_id":"ce4bgh92rcd13ifvqb40","pricing_plan_id":"cebpf4jnsgd1na2vs0mg"},{"bike_id":"01a4d6e0-e13e-4860-b605-15f0bef4fdd6","system_id":"levelo_inurba_marseille","lat":43.21196,"lon":5.35065,"is_reserved":false,"is_disabled":false,"rental_uris":{"android":"levelo://app?vid=01a4d6e0-e13e-4860-b605-15f0bef4fdd6","ios":"levelo://app?vid=01a4d6e0-e13e-4860-b605-15f0bef4fdd6"},"vehicle_type_id":"4","last_reported":1749485601,"current_range_meters":16800,"station_id":"st_cvj6sg6p6f1abm77japg","pricing_plan_id":"cebpf4jnsgd1na2vs0mg"},{"bike_id":"ca27e12a-1f2d-4cf2-be29-12a2b9ff1547","system_id":"levelo_inurba_marseille","lat":43.31723,"lon":5.42408,"is_reserved":false,"is_disabled":false,"rental_uris":{"android":"levelo://app?vid=ca27e12a-1f2d-4cf2-be29-12a2b9ff1547","ios":"levelo://app?vid=ca27e12a-1f2d-4cf2-be29-12a2b9ff1547"},"vehicle_type_id":"4","last_reported":1749485601,"current_range_meters":16800,"station_id":"ce4bhp92rcd13ifvqhbg","pricing_plan_id":"cebpf4jnsgd1na2vs0mg"},{"bike_id":"4f2cbb97-7e2f-479b-aa3a-963a72f545e6","system_id":"levelo_inurba_marseille","lat":43.21196,"lon":5.35083,"is_reserved":false,"is_disabled":false,"rental_uris":{"android":"levelo://app?vid=4f2cbb97-7e2f-479b-aa3a-963a72f545e6","ios":"levelo://app?vid=4f2cbb97-7e2f-479b-aa3a-963a72f545e6"},"vehicle_type_id":"4","last_reported":1749485601,"current_range_meters":16800,"station_id":"st_cvj6sg6p6f1abm77japg","pricing_plan_id":"cebpf4jnsgd1na2vs0mg"},{"bike_id":"b2a55171-9e11-4eba-beeb-f2e7c5d27df2","system_id":"levelo_inurba_marseille","lat":43.21191,"lon":5.35076,"is_reserved":false,"is_disabled":false,"rental_uris":{"android":"levelo://app?vid=b2a55171-9e11-4eba-beeb-f2e7c5d27df2","ios":"levelo://app?vid=b2a55171-9e11-4eba-beeb-f2e7c5d27df2"},"vehicle_type_id":"4","last_reported":1749485601,"current_range_meters":16800,"station_id":"st_cvj6sg6p6f1abm77japg","pricing_plan_id":"cebpf4jnsgd1na2vs0mg"},{"bike_id":"e055dd94-9a18-4715-b0a3-48320d828816","system_id":"levelo_inurba_marseille","lat":43.28412,"lon":5.34998,"is_reserved":false,"is_disabled":false,"rental_uris":{"android":"levelo://app?vid=e055dd94-9a18-4715-b0a3-48320d828816","ios":"levelo://app?vid=e055dd94-9a18-4715-b0a3-48320d828816"},"vehicle_type_id":"4","last_reported":1749485601,"current_range_meters":17200,"station_id":"ce4bhbh2rcd13ifvqepg","pricing_plan_id":"cebpf4jnsgd1na2vs0mg"},{"bike_id":"736b8c9b-6c95-40c6-8ace-da316acc3c15","system_id":"levelo_inurba_marseille","lat":43.29973,"lon":5.3849,"is_reserved":false,"is_disabled":false,"rental_uris":{"android":"levelo://app?vid=736b8c9b-6c95-40c6-8ace-da316acc3c15","ios":"levelo://app?vid=736b8c9b-6c95-40c6-8ace-da316acc3c15"},"vehicle_type_id":"4","last_reported":1749485601,"current_range_meters":17200,"station_id":"ce4bgj92rcd13ifvqbd0","pricing_plan_id":"cebpf4jnsgd1na2vs0mg"},{"bike_id":"23e89bac-e2bf-4e89-8e08-1f432b7a4188","system_id":"levelo_inurba_marseille","lat":43.21205,"lon":5.35066,"is_reserved":false,"is_disabled":true,"rental_uris":{"android":"levelo://app?vid=23e89bac-e2bf-4e89-8e08-1f432b7a4188","ios":"levelo://app?vid=23e89bac-e2bf-4e89-8e08-1f432b7a4188"},"vehicle_type_id":"4","last_reported":1749485601,"current_range_meters":17200,"station_id":"st_cvj6sg6p6f1abm77japg","pricing_plan_id":"cebpf4jnsgd1na2vs0mg"},{"bike_id":"3c4d7a42-e24c-466c-9d1a-7a2a5b94b606","system_id":"levelo_inurba_marseille","lat":43.28616,"lon":5.35094,"is_reserved":false,"is_disabled":false,"rental_uris":{"android":"levelo://app?vid=3c4d7a42-e24c-466c-9d1a-7a2a5b94b606","ios":"levelo://app?vid=3c4d7a42-e24c-466c-9d1a-7a2a5b94b606"},"vehicle_type_id":"4","last_reported":1749485601,"current_range_meters":17200,"station_id":"ce4bhch2rcd13ifvqeug","pricing_plan_id":"cebpf4jnsgd1na2vs0mg"},{"bike_id":"03c0db53-7bee-41cf-9720-4c41e24c0048","system_id":"levelo_inurba_marseille","lat":43.28271,"lon":5.35081,"is_reserved":false,"is_disabled":true,"rental_uris":{"android":"levelo://app?vid=03c0db53-7bee-41cf-9720-4c41e24c0048","ios":"levelo://app?vid=03c0db53-7bee-41cf-9720-4c41e24c0048"},"vehicle_type_id":"4","last_reported":1749485601,"current_range_meters":17200,"station_id":"ce4bhbp2rcd13ifvqerg","pricing_plan_id":"cebpf4jnsgd1na2vs0mg"},{"bike_id":"b7651752-8eb3-4b67-91fc-0a6e006c8d1f","system_id":"levelo_inurba_marseille","lat":43.2117,"lon":5.35076,"is_reserved":false,"is_disabled":false,"rental_uris":{"android":"levelo://app?vid=b7651752-8eb3-4b67-91fc-0a6e006c8d1f","ios":"levelo://app?vid=b7651752-8eb3-4b67-91fc-0a6e006c8d1f"},"vehicle_type_id":"4","last_reported":1749485601,"current_range_meters":17200,"station_id":"st_cvj6sg6p6f1abm77japg","pricing_plan_id":"cebpf4jnsgd1na2vs0mg"},{"bike_id":"01a575ed-1f03-4cd7-9534-24b45d98f89d","system_id":"levelo_inurba_marseille","lat":43.28431,"lon":5.35002,"is_reserved":false,"is_disabled":false,"rental_uris":{"android":"levelo://app?vid=01a575ed-1f03-4cd7-9534-24b45d98f89d","ios":"levelo://app?vid=01a575ed-1f03-4cd7-9534-24b45d98f89d"},"vehicle_type_id":"4","last_reported":1749485601,"current_range_meters":17200,"station_id":"ce4bhbh2rcd13ifvqepg","pricing_plan_id":"cebpf4jnsgd1na2vs0mg"},{"bike_id":"2138ff97-c5bf-410d-b7b3-dbef5874d459","system_id":"levelo_inurba_marseille","lat":43.21207,"lon":5.35066,"is_reserved":false,"is_disabled":false,"rental_uris":{"android":"levelo://app?vid=2138ff97-c5bf-410d-b7b3-dbef5874d459","ios":"levelo://app?vid=2138ff97-c5bf-410d-b7b3-dbef5874d459"},"vehicle_type_id":"4","last_reported":1749485601,"current_range_meters":17200,"station_id":"st_cvj6sg6p6f1abm77japg","pricing_plan_id":"cebpf4jnsgd1na2vs0mg"},{"bike_id":"94e19f97-2d2d-4a59-a4f1-fa19c1bb3098","system_id":"levelo_inurba_marseille","lat":43.246445,"lon":5.388837,"is_reserved":false,"is_disabled":false,"rental_uris":{"android":"levelo://app?vid=94e19f97-2d2d-4a59-a4f1-fa19c1bb3098","ios":"levelo://app?vid=94e19f97-2d2d-4a59-a4f1-fa19c1bb3098"},"vehicle_type_id":"4","last_reported":1749485601,"current_range_meters":17200,"station_id":"ce4bhg12rcd13ifvqf60","pricing_plan_id":"cebpf4jnsgd1na2vs0mg"},{"bike_id":"ccd30667-3313-4506-8250-52dc80817a08","system_id":"levelo_inurba_marseille","lat":43.225029,"lon":5.347878,"is_reserved":false,"is_disabled":false,"rental_uris":{"android":"levelo://app?vid=ccd30667-3313-4506-8250-52dc80817a08","ios":"levelo://app?vid=ccd30667-3313-4506-8250-52dc80817a08"},"vehicle_type_id":"4","last_reported":1749485601,"current_range_meters":17200,"station_id":"st_cvj5dfep6f1abm77gieg","pricing_plan_id":"cebpf4jnsgd1na2vs0mg"},{"bike_id":"e925ed2b-babc-4cf9-b75b-bac898fd5635","system_id":"levelo_inurba_marseille","lat":43.21191,"lon":5.35072,"is_reserved":false,"is_disabled":false,"rental_uris":{"android":"levelo://app?vid=e925ed2b-babc-4cf9-b75b-bac898fd5635","ios":"levelo://app?vid=e925ed2b-babc-4cf9-b75b-bac898fd5635"},"vehicle_type_id":"4","last_reported":1749485601,"current_range_meters":17200,"station_id":"st_cvj6sg6p6f1abm77japg","pricing_plan_id":"cebpf4jnsgd1na2vs0mg"},{"bike_id":"7c2ad8a5-4b30-4eca-a016-b09bc7c4cfd5","system_id":"levelo_inurba_marseille","lat":43.33099,"lon":5.38106,"is_reserved":false,"is_disabled":false,"rental_uris":{"android":"levelo://app?vid=7c2ad8a5-4b30-4eca-a016-b09bc7c4cfd5","ios":"levelo://app?vid=7c2ad8a5-4b30-4eca-a016-b09bc7c4cfd5"},"vehicle_type_id":"4","last_reported":1749485601,"current_range_meters":17600,"station_id":"","pricing_plan_id":"cebpf4jnsgd1na2vs0mg"},{"bike_id":"7fbb8cf5-f563-4c4a-90cf-1a5ac10b01c4","system_id":"levelo_inurba_marseille","lat":43.21186,"lon":5.35069,"is_reserved":false,"is_disabled":false,"rental_uris":{"android":"levelo://app?vid=7fbb8cf5-f563-4c4a-90cf-1a5ac10b01c4","ios":"levelo://app?vid=7fbb8cf5-f563-4c4a-90cf-1a5ac10b01c4"},"vehicle_type_id":"4","last_reported":1749485601,"current_range_meters":17600,"station_id":"st_cvj6sg6p6f1abm77japg","pricing_plan_id":"cebpf4jnsgd1na2vs0mg"},{"bike_id":"6e7c5a7d-f7d1-4b24-aae8-e226cc54f300","system_id":"levelo_inurba_marseille","lat":43.2904,"lon":5.39961,"is_reserved":false,"is_disabled":false,"rental_uris":{"android":"levelo://app?vid=6e7c5a7d-f7d1-4b24-aae8-e226cc54f300","ios":"levelo://app?vid=6e7c5a7d-f7d1-4b24-aae8-e226cc54f300"},"vehicle_type_id":"4","last_reported":1749485601,"current_range_meters":17600,"station_id":"ce4bh392rcd13ifvqdm0","pricing_plan_id":"cebpf4jnsgd1na2vs0mg"},{"bike_id":"68031324-088d-46c3-9d1c-9fd46c75a745","system_id":"levelo_inurba_marseille","lat":43.28617,"lon":5.35099,"is_reserved":false,"is_disabled":false,"rental_uris":{"android":"levelo://app?vid=68031324-088d-46c3-9d1c-9fd46c75a745","ios":"levelo://app?vid=68031324-088d-46c3-9d1c-9fd46c75a745"},"vehicle_type_id":"4","last_reported":1749485601,"current_range_meters":17600,"station_id":"ce4bhch2rcd13ifvqeug","pricing_plan_id":"cebpf4jnsgd1na2vs0mg"},{"bike_id":"dbeeae7e-610b-46bc-bcaa-7414ee142b9c","system_id":"levelo_inurba_marseille","lat":43.22937,"lon":5.35373,"is_reserved":false,"is_disabled":false,"rental_uris":{"android":"levelo://app?vid=dbeeae7e-610b-46bc-bcaa-7414ee142b9c","ios":"levelo://app?vid=dbeeae7e-610b-46bc-bcaa-7414ee142b9c"},"vehicle_type_id":"4","last_reported":1749485601,"current_range_meters":17600,"station_id":"cpo3532slgdg3j2ikp40","pricing_plan_id":"cebpf4jnsgd1na2vs0mg"},{"bike_id":"c6830c0d-e468-46fa-b9c2-96c1aec56a2d","system_id":"levelo_inurba_marseille","lat":43.27275,"lon":5.43103,"is_reserved":false,"is_disabled":false,"rental_uris":{"android":"levelo://app?vid=c6830c0d-e468-46fa-b9c2-96c1aec56a2d","ios":"levelo://app?vid=c6830c0d-e468-46fa-b9c2-96c1aec56a2d"},"vehicle_type_id":"4","last_reported":1749485601,"current_range_meters":17600,"station_id":"","pricing_plan_id":"cebpf4jnsgd1na2vs0mg"},{"bike_id":"ed19b723-24bc-40b3-b2e8-62f940ce0c06","system_id":"levelo_inurba_marseille","lat":43.30294,"lon":5.37065,"is_reserved":false,"is_disabled":false,"rental_uris":{"android":"levelo://app?vid=ed19b723-24bc-40b3-b2e8-62f940ce0c06","ios":"levelo://app?vid=ed19b723-24bc-40b3-b2e8-62f940ce0c06"},"vehicle_type_id":"4","last_reported":1749485601,"current_range_meters":17600,"station_id":"","pricing_plan_id":"cebpf4jnsgd1na2vs0mg"},{"bike_id":"7495c481-bd76-472e-9d68-7cb5ceb9f093","system_id":"levelo_inurba_marseille","lat":43.29223,"lon":5.36061,"is_reserved":false,"is_disabled":false,"rental_uris":{"android":"levelo://app?vid=7495c481-bd76-472e-9d68-7cb5ceb9f093","ios":"levelo://app?vid=7495c481-bd76-472e-9d68-7cb5ceb9f093"},"vehicle_type_id":"4","last_reported":1749485601,"current_range_meters":18000,"station_id":"ce4bhbh2rcd13ifvqeqg","pricing_plan_id":"cebpf4jnsgd1na2vs0mg"},{"bike_id":"3b337bf4-603a-45c6-a751-a27007bd1b9a","system_id":"levelo_inurba_marseille","lat":43.24069,"lon":5.37757,"is_reserved":false,"is_disabled":false,"rental_uris":{"android":"levelo://app?vid=3b337bf4-603a-45c6-a751-a27007bd1b9a","ios":"levelo://app?vid=3b337bf4-603a-45c6-a751-a27007bd1b9a"},"vehicle_type_id":"4","last_reported":1749485601,"current_range_meters":18000,"station_id":"ce4bhnp2rcd13ifvqgvg","pricing_plan_id":"cebpf4jnsgd1na2vs0mg"},{"bike_id":"ff85e0f3-db4f-464a-94fc-375a21c05db3","system_id":"levelo_inurba_marseille","lat":43.29418,"lon":5.38628,"is_reserved":false,"is_disabled":false,"rental_uris":{"android":"levelo://app?vid=ff85e0f3-db4f-464a-94fc-375a21c05db3","ios":"levelo://app?vid=ff85e0f3-db4f-464a-94fc-375a21c05db3"},"vehicle_type_id":"4","last_reported":1749485601,"current_range_meters":18000,"station_id":"ce4bh2h2rcd13ifvqdh0","pricing_plan_id":"cebpf4jnsgd1na2vs0mg"},{"bike_id":"8fb76447-ac5a-409d-924d-1cc8a0034996","system_id":"levelo_inurba_marseille","lat":43.23187,"lon":5.35547,"is_reserved":false,"is_disabled":false,"rental_uris":{"android":"levelo://app?vid=8fb76447-ac5a-409d-924d-1cc8a0034996","ios":"levelo://app?vid=8fb76447-ac5a-409d-924d-1cc8a0034996"},"vehicle_type_id":"4","last_reported":1749485601,"current_range_meters":18000,"station_id":"ce4bhu92rcd13ifvqi70","pricing_plan_id":"cebpf4jnsgd1na2vs0mg"},{"bike_id":"9600924b-63cd-4041-bd94-293af287f20c","system_id":"levelo_inurba_marseille","lat":43.24158,"lon":5.36407,"is_reserved":false,"is_disabled":false,"rental_uris":{"android":"levelo://app?vid=9600924b-63cd-4041-bd94-293af287f20c","ios":"levelo://app?vid=9600924b-63cd-4041-bd94-293af287f20c"},"vehicle_type_id":"4","last_reported":1749485601,"current_range_meters":18000,"station_id":"cpo36qri1sfpv3e86is0","pricing_plan_id":"cebpf4jnsgd1na2vs0mg"},{"bike_id":"0254e436-244e-4138-a80c-af28ea8deb83","system_id":"levelo_inurba_marseille","lat":43.28405,"lon":5.37519,"is_reserved":false,"is_disabled":false,"rental_uris":{"android":"levelo://app?vid=0254e436-244e-4138-a80c-af28ea8deb83","ios":"levelo://app?vid=0254e436-244e-4138-a80c-af28ea8deb83"},"vehicle_type_id":"4","last_reported":1749485601,"current_range_meters":18000,"station_id":"ce4bh412rcd13ifvqds0","pricing_plan_id":"cebpf4jnsgd1na2vs0mg"},{"bike_id":"5d767fc6-6e65-4f55-bf59-def7dc8ae8f0","system_id":"levelo_inurba_marseille","lat":43.32352,"lon":5.3889,"is_reserved":false,"is_disabled":false,"rental_uris":{"android":"levelo://app?vid=5d767fc6-6e65-4f55-bf59-def7dc8ae8f0","ios":"levelo://app?vid=5d767fc6-6e65-4f55-bf59-def7dc8ae8f0"},"vehicle_type_id":"4","last_reported":1749485601,"current_range_meters":18000,"station_id":"ce4bhqp2rcd13ifvqhog","pricing_plan_id":"cebpf4jnsgd1na2vs0mg"},{"bike_id":"eab2a554-a92c-4b9d-b0b5-7a2c6e73a3d6","system_id":"levelo_inurba_marseille","lat":43.30253,"lon":5.400796,"is_reserved":false,"is_disabled":false,"rental_uris":{"android":"levelo://app?vid=eab2a554-a92c-4b9d-b0b5-7a2c6e73a3d6","ios":"levelo://app?vid=eab2a554-a92c-4b9d-b0b5-7a2c6e73a3d6"},"vehicle_type_id":"4","last_reported":1749485601,"current_range_meters":18000,"station_id":"ce4bgvh2rcd13ifvqcs0","pricing_plan_id":"cebpf4jnsgd1na2vs0mg"},{"bike_id":"5d4ed61f-89af-4c3b-83a6-be417c3a07e0","system_id":"levelo_inurba_marseille","lat":43.29266,"lon":5.37629,"is_reserved":false,"is_disabled":false,"rental_uris":{"android":"levelo://app?vid=5d4ed61f-89af-4c3b-83a6-be417c3a07e0","ios":"levelo://app?vid=5d4ed61f-89af-4c3b-83a6-be417c3a07e0"},"vehicle_type_id":"4","last_reported":1749485601,"current_range_meters":18000,"station_id":"ce4bgi12rcd13ifvqb80","pricing_plan_id":"cebpf4jnsgd1na2vs0mg"},{"bike_id":"a87a0f3a-ee24-4735-a7de-287b9d433587","system_id":"levelo_inurba_marseille","lat":43.22924,"lon":5.35377,"is_reserved":false,"is_disabled":false,"rental_uris":{"android":"levelo://app?vid=a87a0f3a-ee24-4735-a7de-287b9d433587","ios":"levelo://app?vid=a87a0f3a-ee24-4735-a7de-287b9d433587"},"vehicle_type_id":"4","last_reported":1749485601,"current_range_meters":18800,"station_id":"cpo3532slgdg3j2ikp40","pricing_plan_id":"cebpf4jnsgd1na2vs0mg"},{"bike_id":"5416c55a-ff05-43af-a689-61d908215faf","system_id":"levelo_inurba_marseille","lat":43.28415,"lon":5.35001,"is_reserved":false,"is_disabled":false,"rental_uris":{"android":"levelo://app?vid=5416c55a-ff05-43af-a689-61d908215faf","ios":"levelo://app?vid=5416c55a-ff05-43af-a689-61d908215faf"},"vehicle_type_id":"4","last_reported":1749485601,"current_range_meters":18800,"station_id":"ce4bhbh2rcd13ifvqepg","pricing_plan_id":"cebpf4jnsgd1na2vs0mg"},{"bike_id":"7702b3f7-6b2d-446a-b086-3b082076f633","system_id":"levelo_inurba_marseille","lat":43.27614,"lon":5.36103,"is_reserved":false,"is_disabled":false,"rental_uris":{"android":"levelo://app?vid=7702b3f7-6b2d-446a-b086-3b082076f633","ios":"levelo://app?vid=7702b3f7-6b2d-446a-b086-3b082076f633"},"vehicle_type_id":"4","last_reported":1749485601,"current_range_meters":18800,"station_id":"ce4bgj92rcd13ifvqbe0","pricing_plan_id":"cebpf4jnsgd1na2vs0mg"},{"bike_id":"73f11bb6-9ad4-48f0-9ad7-3c0ffb28a6ee","system_id":"levelo_inurba_marseille","lat":43.26214,"lon":5.3744,"is_reserved":false,"is_disabled":false,"rental_uris":{"android":"levelo://app?vid=73f11bb6-9ad4-48f0-9ad7-3c0ffb28a6ee","ios":"levelo://app?vid=73f11bb6-9ad4-48f0-9ad7-3c0ffb28a6ee"},"vehicle_type_id":"4","last_reported":1749485601,"current_range_meters":18800,"station_id":"ce4bhgp2rcd13ifvqfc0","pricing_plan_id":"cebpf4jnsgd1na2vs0mg"},{"bike_id":"187b0a7b-e256-4c19-9794-bb250a6c5653","system_id":"levelo_inurba_marseille","lat":43.31386,"lon":5.39196,"is_reserved":false,"is_disabled":false,"rental_uris":{"android":"levelo://app?vid=187b0a7b-e256-4c19-9794-bb250a6c5653","ios":"levelo://app?vid=187b0a7b-e256-4c19-9794-bb250a6c5653"},"vehicle_type_id":"4","last_reported":1749485601,"current_range_meters":18800,"station_id":"","pricing_plan_id":"cebpf4jnsgd1na2vs0mg"},