{"last_updated":1701727593,"ttl":30,"version":"2.2","data":{"bikes":[{"bike_id":"28ebd374-feba-4125-a83b-550c37c27d57","system_id":"levelo_inurba_marseille","lat":43.309039,"lon":5.371797,"is_reserved":false,"is_disabled":false,"rental_uris":{"android":"levelo://app?vid=28ebd374-feba-4125-a83b-550c37c27d57","ios":"levelo://app?vid=28ebd374-feba-4125-a83b-550c37c27d57"},"vehicle_type_id":"4","last_reported":1701727593,"current_range_meters":19200,"station_id":"ce4bguh2rcd13ifvqckg","pricing_plan_id":"free"},{"bike_id":"33ec66da-f674-4551-b631-67b01d83989f","system_id":"levelo_inurba_marseille","lat":43.309039,"lon":5.371797,"is_reserved":false,"is_disabled":false,"rental_uris":{"android":"levelo://app?vid=33ec66da-f674-4551-b631-67b01d83989f","ios":"levelo://app?vid=33ec66da-f674-4551-b631-67b01d83989f"},"vehicle_type_id":"4","last_reported":1701727593,"current_range_meters":2800,"station_id":"ce4bguh2rcd13ifvqckg","pricing_plan_id":"free"},{"bike_id":"cb0843b8-23fd-49d3-a25d-dbe6680203e1","system_id":"levelo_inurba_marseille","lat":43.305989,"lon":5.37225,"is_reserved":false,"is_disabled":false,"rental_uris":{"android":"levelo://app?vid=cb0843b8-23fd-49d3-a25d-dbe6680203e1","ios":"levelo://app?vid=cb0843b8-23fd-49d3-a25d-dbe6680203e1"},"vehicle_type_id":"4","last_reported":1701727593,"current_range_meters":21600,"station_id":"ce4bgqh2rcd13ifvqc4g","pricing_plan_id":"free"},{"bike_id":"16e479b9-92d9-413f-ab92-1c69bcc940e7","system_id":"levelo_inurba_marseille","lat":43.305989,"lon":5.37225,"is_reserved":false,"is_disabled":false,"rental_uris":{"android":"levelo://app?vid=16e479b9-92d9-413f-ab92-1c69bcc940e7","ios":"levelo://app?vid=16e479b9-92d9-413f-ab92-1c69bcc940e7"},"vehicle_type_id":"4","last_reported":1701727593,"current_range_meters":28000,"station_id":"ce4bgqh2rcd13ifvqc4g","pricing_plan_id":"free"},{"bike_id":"b065b12a-ef87-47d8-8ac6-a38844050d40","system_id":"levelo_inurba_marseille","lat":43.319351,"lon":5.372931,"is_reserved":false,"is_disabled":false,"rental_uris":{"android":"levelo://app?vid=b065b12a-ef87-47d8-8ac6-a38844050d40","ios":"levelo://app?vid=b065b12a-ef87-47d8-8ac6-a38844050d40"},"vehicle_type_id":"4","last_reported":1701727593,"current_range_meters":0,"station_id":"","pricing_plan_id":"free"},{"bike_id":"c0799d16-c8a8-4cee-9b0a-69ef1a765b40","system_id":"levelo_inurba_marseille","lat":43.308195,"lon":5.376581,"is_reserved":false,"is_disabled":false,"rental_uris":{"android":"levelo://app?vid=c0799d16-c8a8-4cee-9b0a-69ef1a765b40","ios":"levelo://app?vid=c0799d16-c8a8-4cee-9b0a-69ef1a765b40"},"vehicle_type_id":"4","last_reported":1701727593,"current_range_meters":27600,"station_id":"ce4bgv92rcd13ifvqcq0","pricing_plan_id":"free"},{"bike_id":"60540dcf-05e7-4692-a96c-72fe195087f5","system_id":"levelo_inurba_marseille","lat":43.307945,"lon":5.376487,"is_reserved":false,"is_disabled":false,"rental_uris":{"android":"levelo://app?vid=60540dcf-05e7-4692-a96c-72fe195087f5","ios":"levelo://app?vid=60540dcf-05e7-4692-a96c-72fe195087f5"},"vehicle_type_id":"4","last_reported":1701727593,"current_range_meters":25200,"station_id":"ce4bgv92rcd13ifvqcq0","pricing_plan_id":"free"},{"bike_id":"fb6fd937-527b-4585-9058-0dfdc6436ac8","system_id":"levelo_inurba_marseille","lat":43.31351,"lon":5.37909,"is_reserved":false,"is_disabled":false,"rental_uris":{"android":"levelo://app?vid=fb6fd937-527b-4585-9058-0dfdc6436ac8","ios":"levelo://app?vid=fb6fd937-527b-4585-9058-0dfdc6436ac8"},"vehicle_type_id":"4","last_reported":1701727593,"current_range_meters":12400,"station_id":"","pricing_plan_id":"free"},{"bike_id":"fc0ceea5-fd35-42eb-82d2-c19b4e37df98","system_id":"levelo_inurba_marseille","lat":43.30304,"lon":5.368987,"is_reserved":false,"is_disabled":false,"rental_uris":{"android":"levelo://app?vid=fc0ceea5-fd35-42eb-82d2-c19b4e37df98","ios":"levelo://app?vid=fc0ceea5-fd35-42eb-82d2-c19b4e37df98"},"vehicle_type_id":"4","last_reported":1701727593,"current_range_meters":28800,"station_id":"ce4bgqh2rcd13ifvqc5g","pricing_plan_id":"free"},{"bike_id":"3279ab10-c559-4255-80ce-132e262777da","system_id":"levelo_inurba_marseille","lat":43.32185,"lon":5.37502,"is_reserved":false,"is_disabled":false,"rental_uris":{"android":"levelo://app?vid=3279ab10-c559-4255-80ce-132e262777da","ios":"levelo://app?vid=3279ab10-c559-4255-80ce-132e262777da"},"vehicle_type_id":"4","last_reported":1701727593,"current_range_meters":28000,"station_id":"","pricing_plan_id":"free"},{"bike_id":"17db11e9-ff6b-4265-a772-9fca0f8a787a","system_id":"levelo_inurba_marseille","lat":43.321896,"lon":5.374982,"is_reserved":false,"is_disabled":false,"rental_uris":{"android":"levelo://app?vid=17db11e9-ff6b-4265-a772-9fca0f8a787a","ios":"levelo://app?vid=17db11e9-ff6b-4265-a772-9fca0f8a787a"},"vehicle_type_id":"4","last_reported":1701727593,"current_range_meters":26400,"station_id":"","pricing_plan_id":"free"},{"bike_id":"3b31c0d0-26a6-4b0a-a252-589aa3dce220","system_id":"levelo_inurba_marseille","lat":43.304606,"lon":5.379026,"is_reserved":false,"is_disabled":false,"rental_uris":{"android":"levelo://app?vid=3b31c0d0-26a6-4b0a-a252-589aa3dce220","ios":"levelo://app?vid=3b31c0d0-26a6-4b0a-a252-589aa3dce220"},"vehicle_type_id":"4","last_reported":1701727593,"current_range_meters":15600,"station_id":"ce4bgup2rcd13ifvqcn0","pricing_plan_id":"free"},{"bike_id":"5995a684-a558-4d16-89b7-8fb96c21ebdb","system_id":"levelo_inurba_marseille","lat":43.304606,"lon":5.379026,"is_reserved":false,"is_disabled":false,"rental_uris":{"android":"levelo://app?vid=5995a684-a558-4d16-89b7-8fb96c21ebdb","ios":"levelo://app?vid=5995a684-a558-4d16-89b7-8fb96c21ebdb"},"vehicle_type_id":"4","last_reported":1701727593,"current_range_meters":12400,"station_id":"ce4bgup2rcd13ifvqcn0","pricing_plan_id":"free"},{"bike_id":"f585e912-d0c7-4894-9a70-ec5c738edd71","system_id":"levelo_inurba_marseille","lat":43.304606,"lon":5.379026,"is_reserved":false,"is_disabled":false,"rental_uris":{"android":"levelo://app?vid=f585e912-d0c7-4894-9a70-ec5c738edd71","ios":"levelo://app?vid=f585e912-d0c7-4894-9a70-ec5c738edd71"},"vehicle_type_id":"4","last_reported":1701727593,"current_range_meters":23600,"station_id":"ce4bgup2rcd13ifvqcn0","pricing_plan_id":"free"},{"bike_id":"349dfaee-3ed5-42be-8292-0ab2ba4552e5","system_id":"levelo_inurba_marseille","lat":43.324779,"lon":5.365632,"is_reserved":false,"is_disabled":false,"rental_uris":{"android":"levelo://app?vid=349dfaee-3ed5-42be-8292-0ab2ba4552e5","ios":"levelo://app?vid=349dfaee-3ed5-42be-8292-0ab2ba4552e5"},"vehicle_type_id":"4","last_reported":1701727593,"current_range_meters":29600,"station_id":"ce4bhs12rcd13ifvqhvg","pricing_plan_id":"free"},{"bike_id":"2275aca5-3158-4c2c-8022-ca5d2714bc86","system_id":"levelo_inurba_marseille","lat":43.319997,"lon":5.381594,"is_reserved":false,"is_disabled":false,"rental_uris":{"android":"levelo://app?vid=2275aca5-3158-4c2c-8022-ca5d2714bc86","ios":"levelo://app?vid=2275aca5-3158-4c2c-8022-ca5d2714bc86"},"vehicle_type_id":"4","last_reported":1701727593,"current_range_meters":6000,"station_id":"ce4bhr12rcd13ifvqhpg","pricing_plan_id":"free"},{"bike_id":"68de79b2-5f72-46e5-b687-df13f2b8b3de","system_id":"levelo_inurba_marseille","lat":43.313571,"lon":5.384829,"is_reserved":false,"is_disabled":false,"rental_uris":{"android":"levelo://app?vid=68de79b2-5f72-46e5-b687-df13f2b8b3de","ios":"levelo://app?vid=68de79b2-5f72-46e5-b687-df13f2b8b3de"},"vehicle_type_id":"4","last_reported":1701727593,"current_range_meters":30000,"station_id":"ce4bgt92rcd13ifvqcf0","pricing_plan_id":"free"},{"bike_id":"9fdb7f97-586d-42d2-befd-15216ba2e422","system_id":"levelo_inurba_marseille","lat":43.31183,"lon":5.38523,"is_reserved":false,"is_disabled":false,"rental_uris":{"android":"levelo://app?vid=9fdb7f97-586d-42d2-befd-15216ba2e422","ios":"levelo://app?vid=9fdb7f97-586d-42d2-befd-15216ba2e422"},"vehicle_type_id":"4","last_reported":1701727593,"current_range_meters":0,"station_id":"","pricing_plan_id":"free"},{"bike_id":"581a941c-76ca-4579-8ea2-7b985f64cf2d","system_id":"levelo_inurba_marseille","lat":43.313571,"lon":5.384829,"is_reserved":false,"is_disabled":false,"rental_uris":{"android":"levelo://app?vid=581a941c-76ca-4579-8ea2-7b985f64cf2d","ios":"levelo://app?vid=581a941c-76ca-4579-8ea2-7b985f64cf2d"},"vehicle_type_id":"4","last_reported":1701727593,"current_range_meters":28000,"station_id":"ce4bgt92rcd13ifvqcf0","pricing_plan_id":"free"},{"bike_id":"728f8c45-c98c-4acf-a7a7-e1bdee0d6563","system_id":"levelo_inurba_marseille","lat":43.297794,"lon":5.370888,"is_reserved":false,"is_disabled":false,"rental_uris":{"android":"levelo://app?vid=728f8c45-c98c-4acf-a7a7-e1bdee0d6563","ios":"levelo://app?vid=728f8c45-c98c-4acf-a7a7-e1bdee0d6563"},"vehicle_type_id":"4","last_reported":1701727593,"current_range_meters":14000,"station_id":"ce4bgop2rcd13ifvqc1g","pricing_plan_id":"free"},{"bike_id":"f0ef6289-153d-4698-ba01-689b95884f68","system_id":"levelo_inurba_marseille","lat":43.284787,"lon":5.384116,"is_reserved":false,"is_disabled":false,"rental_uris":{"android":"levelo://app?vid=f0ef6289-153d-4698-ba01-689b95884f68","ios":"levelo://app?vid=f0ef6289-153d-4698-ba01-689b95884f68"},"vehicle_type_id":"4","last_reported":1701727593,"current_range_meters":24800,"station_id":"ce4bh512rcd13ifvqe3g","pricing_plan_id":"free"},{"bike_id":"273df213-851f-4e1a-98e6-236cea7e7fcb","system_id":"levelo_inurba_marseille","lat":43.297794,"lon":5.370888,"is_reserved":false,"is_disabled":false,"rental_uris":{"android":"levelo://app?vid=273df213-851f-4e1a-98e6-236cea7e7fcb","ios":"levelo://app?vid=273df213-851f-4e1a-98e6-236cea7e7fcb"},"vehicle_type_id":"4","last_reported":1701727593,"current_range_meters":21600,"station_id":"ce4bgop2rcd13ifvqc1g","pricing_plan_id":"free"},{"bike_id":"47321b85-2ddb-4fa3-8d13-00bea002eae7","system_id":"levelo_inurba_marseille","lat":43.32287,"lon":5.38275,"is_reserved":false,"is_disabled":false,"rental_uris":{"android":"levelo://app?vid=47321b85-2ddb-4fa3-8d13-00bea002eae7","ios":"levelo://app?vid=47321b85-2ddb-4fa3-8d13-00bea002eae7"},"vehicle_type_id":"4","last_reported":1701727593,"current_range_meters":28000,"station_id":"ce4bhr12rcd13ifvqhqg","pricing_plan_id":"free"},{"bike_id":"cb8f4c3a-456c-4d50-8ea3-298e057d608b","system_id":"levelo_inurba_marseille","lat":43.322872,"lon":5.382756,"is_reserved":false,"is_disabled":false,"rental_uris":{"android":"levelo://app?vid=cb8f4c3a-456c-4d50-8ea3-298e057d608b","ios":"levelo://app?vid=cb8f4c3a-456c-4d50-8ea3-298e057d608b"},"vehicle_type_id":"4","last_reported":1701727593,"current_range_meters":30000,"station_id":"ce4bhr12rcd13ifvqhqg","pricing_plan_id":"free"},{"bike_id":"b4879a0b-f87c-476b-ba9f-57011b8686d8","system_id":"levelo_inurba_marseille","lat":43.298218,"lon":5.374416,"is_reserved":false,"is_disabled":false,"rental_uris":{"android":"levelo://app?vid=b4879a0b-f87c-476b-ba9f-57011b8686d8","ios":"levelo://app?vid=b4879a0b-f87c-476b-ba9f-57011b8686d8"},"vehicle_type_id":"4","last_reported":1701727593,"current_range_meters":20000,"station_id":"","pricing_plan_id":"free"},{"bike_id":"c6ce3b8f-2076-4eb8-b7d5-d674dca50e8e","system_id":"levelo_inurba_marseille","lat":43.32832,"lon":5.36676,"is_reserved":false,"is_disabled":false,"rental_uris":{"android":"levelo://app?vid=c6ce3b8f-2076-4eb8-b7d5-d674dca50e8e","ios":"levelo://app?vid=c6ce3b8f-2076-4eb8-b7d5-d674dca50e8e"},"vehicle_type_id":"4","last_reported":1701727593,"current_range_meters":5200,"station_id":"ce4bhs92rcd13ifvqi0g","pricing_plan_id":"free"},{"bike_id":"f8284d70-c5e7-490d-9c5a-74a62dd38512","system_id":"levelo_inurba_marseille","lat":43.328349,"lon":5.366836,"is_reserved":false,"is_disabled":false,"rental_uris":{"android":"levelo://app?vid=f8284d70-c5e7-490d-9c5a-74a62dd38512","ios":"levelo://app?vid=f8284d70-c5e7-490d-9c5a-74a62dd38512"},"vehicle_type_id":"4","last_reported":1701727593,"current_range_meters":31200,"station_id":"ce4bhs92rcd13ifvqi0g","pricing_plan_id":"free"},{"bike_id":"78c463ab-e51d-4743-96d4-f054e6423ba8","system_id":"levelo_inurba_marseille","lat":43.297163,"lon":5.365866,"is_reserved":false,"is_disabled":false,"rental_uris":{"android":"levelo://app?vid=78c463ab-e51d-4743-96d4-f054e6423ba8","ios":"levelo://app?vid=78c463ab-e51d-4743-96d4-f054e6423ba8"},"vehicle_type_id":"4","last_reported":1701727593,"current_range_meters":4800,"station_id":"ce4bgn12rcd13ifvqbt0","pricing_plan_id":"free"},{"bike_id":"92862562-b240-4732-b487-fff0f7a628b1","system_id":"levelo_inurba_marseille","lat":43.297163,"lon":5.365866,"is_reserved":false,"is_disabled":false,"rental_uris":{"android":"levelo://app?vid=92862562-b240-4732-b487-fff0f7a628b1","ios":"levelo://app?vid=92862562-b240-4732-b487-fff0f7a628b1"},"vehicle_type_id":"4","last_reported":1701727593,"current_range_meters":16800,"station_id":"ce4bgn12rcd13ifvqbt0","pricing_plan_id":"free"},{"bike_id":"eb6e7f47-d703-40d3-b365-ef330215af35","system_id":"levelo_inurba_marseille","lat":43.29598,"lon":5.36804,"is_reserved":false,"is_disabled":false,"rental_uris":{"android":"levelo://app?vid=eb6e7f47-d703-40d3-b365-ef330215af35","ios":"levelo://app?vid=eb6e7f47-d703-40d3-b365-ef330215af35"},"vehicle_type_id":"4","last_reported":1701727593,"current_range_meters":27200,"station_id":"","pricing_plan_id":"free"},{"bike_id":"71448ccd-9d25-4704-b48a-d448c4dbcd14","system_id":"levelo_inurba_marseille","lat":43.295966,"lon":5.367942,"is_reserved":false,"is_disabled":false,"rental_uris":{"android":"levelo://app?vid=71448ccd-9d25-4704-b48a-d448c4dbcd14","ios":"levelo://app?vid=71448ccd-9d25-4704-b48a-d448c4dbcd14"},"vehicle_type_id":"4","last_reported":1701727593,"current_range_meters":8000,"station_id":"","pricing_plan_id":"free"},{"bike_id":"eaa0e7e7-2390-47fa-909b-7b240952cbef","system_id":"levelo_inurba_marseille","lat":43.316538,"lon":5.38954,"is_reserved":false,"is_disabled":false,"rental_uris":{"android":"levelo://app?vid=eaa0e7e7-2390-47fa-909b-7b240952cbef","ios":"levelo://app?vid=eaa0e7e7-2390-47fa-909b-7b240952cbef"},"vehicle_type_id":"4","last_reported":1701727593,"current_range_meters":15600,"station_id":"","pricing_plan_id":"free"},{"bike_id":"df914548-d996-4a74-a7a5-c358bc8a1f8c","system_id":"levelo_inurba_marseille","lat":43.29573,"lon":5.367355,"is_reserved":false,"is_disabled":false,"rental_uris":{"android":"levelo://app?vid=df914548-d996-4a74-a7a5-c358bc8a1f8c","ios":"levelo://app?vid=df914548-d996-4a74-a7a5-c358bc8a1f8c"},"vehicle_type_id":"4","last_reported":1701727593,"current_range_meters":25200,"station_id":"ce4bgph2rcd13ifvqc2g","pricing_plan_id":"free"},{"bike_id":"70c33660-bf74-403c-a0ae-384880103157","system_id":"levelo_inurba_marseille","lat":43.317557,"lon":5.390173,"is_reserved":false,"is_disabled":false,"rental_uris":{"android":"levelo://app?vid=70c33660-bf74-403c-a0ae-384880103157","ios":"levelo://app?vid=70c33660-bf74-403c-a0ae-384880103157"},"vehicle_type_id":"4","last_reported":1701727593,"current_range_meters":30800,"station_id":"ce4bhqp2rcd13ifvqhng","pricing_plan_id":"free"},{"bike_id":"1fd32647-2ae8-40e6-b39f-09b46bfcb5f7","system_id":"levelo_inurba_marseille","lat":43.317613,"lon":5.3901,"is_reserved":false,"is_disabled":false,"rental_uris":{"android":"levelo://app?vid=1fd32647-2ae8-40e6-b39f-09b46bfcb5f7","ios":"levelo://app?vid=1fd32647-2ae8-40e6-b39f-09b46bfcb5f7"},"vehicle_type_id":"4","last_reported":1701727593,"current_range_meters":13600,"station_id":"ce4bhqp2rcd13ifvqhng","pricing_plan_id":"free"},{"bike_id":"b51fdc1b-ab99-45a5-b4e7-d3adaed7df60","system_id":"levelo_inurba_marseille","lat":43.317557,"lon":5.390173,"is_reserved":false,"is_disabled":false,"rental_uris":{"android":"levelo://app?vid=b51fdc1b-ab99-45a5-b4e7-d3adaed7df60","ios":"levelo://app?vid=b51fdc1b-ab99-45a5-b4e7-d3adaed7df60"},"vehicle_type_id":"4","last_reported":1701727593,"current_range_meters":29200,"station_id":"ce4bhqp2rcd13ifvqhng","pricing_plan_id":"free"},{"bike_id":"ba56007f-9a72-4563-801c-1a936cc6bc3c","system_id":"levelo_inurba_marseille","lat":43.317557,"lon":5.390173,"is_reserved":false,"is_disabled":false,"rental_uris":{"android":"levelo://app?vid=ba56007f-9a72-4563-801c-1a936cc6bc3c","ios":"levelo://app?vid=ba56007f-9a72-4563-801c-1a936cc6bc3c"},"vehicle_type_id":"4","last_reported":1701727593,"current_range_meters":24000,"station_id":"ce4bhqp2rcd13ifvqhng","pricing_plan_id":"free"},{"bike_id":"cbdb1b26-1b7b-4316-9220-24d1960a98cf","system_id":"levelo_inurba_marseille","lat":43.31755,"lon":5.39022,"is_reserved":false,"is_disabled":false,"rental_uris":{"android":"levelo://app?vid=cbdb1b26-1b7b-4316-9220-24d1960a98cf","ios":"levelo://app?vid=cbdb1b26-1b7b-4316-9220-24d1960a98cf"},"vehicle_type_id":"4","last_reported":1701727593,"current_range_meters":31200,"station_id":"ce4bhqp2rcd13ifvqhng","pricing_plan_id":"free"},{"bike_id":"c6c5acc0-3971-43b9-ba4d-33c881a5a76e","system_id":"levelo_inurba_marseille","lat":43.317591,"lon":5.390256,"is_reserved":false,"is_disabled":false,"rental_uris":{"android":"levelo://app?vid=c6c5acc0-3971-43b9-ba4d-33c881a5a76e","ios":"levelo://app?vid=c6c5acc0-3971-43b9-ba4d-33c881a5a76e"},"vehicle_type_id":"4","last_reported":1701727593,"current_range_meters":29600,"station_id":"ce4bhqp2rcd13ifvqhng","pricing_plan_id":"free"},{"bike_id":"f6fcc9e0-fad1-4765-8be2-dd378c148933","system_id":"levelo_inurba_marseille","lat":43.31756,"lon":5.39028,"is_reserved":false,"is_disabled":false,"rental_uris":{"android":"levelo://app?vid=f6fcc9e0-fad1-4765-8be2-dd378c148933","ios":"levelo://app?vid=f6fcc9e0-fad1-4765-8be2-dd378c148933"},"vehicle_type_id":"4","last_reported":1701727593,"current_range_meters":22400,"station_id":"ce4bhqp2rcd13ifvqhng","pricing_plan_id":"free"},{"bike_id":"6d5a8d0a-92ca-44c7-ac23-1355a2daad17","system_id":"levelo_inurba_marseille","lat":43.304274,"lon":5.388873,"is_reserved":false,"is_disabled":false,"rental_uris":{"android":"levelo://app?vid=6d5a8d0a-92ca-44c7-ac23-1355a2daad17","ios":"levelo://app?vid=6d5a8d0a-92ca-44c7-ac23-1355a2daad17"},"vehicle_type_id":"4","last_reported":1701727593,"current_range_meters":14800,"station_id":"ce4bgk12rcd13ifvqbi0","pricing_plan_id":"free"},{"bike_id":"a70d469f-e216-48ac-97af-18864b864162","system_id":"levelo_inurba_marseille","lat":43.30441,"lon":5.389055,"is_reserved":false,"is_disabled":false,"rental_uris":{"android":"levelo://app?vid=a70d469f-e216-48ac-97af-18864b864162","ios":"levelo://app?vid=a70d469f-e216-48ac-97af-18864b864162"},"vehicle_type_id":"4","last_reported":1701727593,"current_range_meters":22800,"station_id":"ce4bgk12rcd13ifvqbi0","pricing_plan_id":"free"},{"bike_id":"a2c1ebf7-4596-4615-a203-279cb621f6e8","system_id":"levelo_inurba_marseille","lat":43.308012,"lon":5.381511,"is_reserved":false,"is_disabled":false,"rental_uris":{"android":"levelo://app?vid=a2c1ebf7-4596-4615-a203-279cb621f6e8","ios":"levelo://app?vid=a2c1ebf7-4596-4615-a203-279cb621f6e8"},"vehicle_type_id":"4","last_reported":1701727593,"current_range_meters":4800,"station_id":"ce4bgt12rcd13ifvqce0","pricing_plan_id":"free"},{"bike_id":"31307a27-90db-4c9f-9f99-95880bc6b240","system_id":"levelo_inurba_marseille","lat":43.32369,"lon":5.38884,"is_reserved":false,"is_disabled":false,"rental_uris":{"android":"levelo://app?vid=31307a27-90db-4c9f-9f99-95880bc6b240","ios":"levelo://app?vid=31307a27-90db-4c9f-9f99-95880bc6b240"},"vehicle_type_id":"4","last_reported":1701727593,"current_range_meters":800,"station_id":"ce4bhqp2rcd13ifvqhog","pricing_plan_id":"free"},{"bike_id":"09572b63-1260-4412-8fde-69933324f002","system_id":"levelo_inurba_marseille","lat":43.29601,"lon":5.381084,"is_reserved":false,"is_disabled":false,"rental_uris":{"android":"levelo://app?vid=09572b63-1260-4412-8fde-69933324f002","ios":"levelo://app?vid=09572b63-1260-4412-8fde-69933324f002"},"vehicle_type_id":"4","last_reported":1701727593,"current_range_meters":17200,"station_id":"ce4bgl12rcd13ifvqbo0","pricing_plan_id":"free"},{"bike_id":"81cbf789-5927-4004-970c-5f75701c2678","system_id":"levelo_inurba_marseille","lat":43.29602,"lon":5.381084,"is_reserved":false,"is_disabled":false,"rental_uris":{"android":"levelo://app?vid=81cbf789-5927-4004-970c-5f75701c2678","ios":"levelo://app?vid=81cbf789-5927-4004-970c-5f75701c2678"},"vehicle_type_id":"4","last_reported":1701727593,"current_range_meters":24000,"station_id":"ce4bgl12rcd13ifvqbo0","pricing_plan_id":"free"},{"bike_id":"0ea02ebe-ce3b-4e23-a428-ec0f998ec34c","system_id":"levelo_inurba_marseille","lat":43.292749,"lon":5.368398,"is_reserved":false,"is_disabled":false,"rental_uris":{"android":"levelo://app?vid=0ea02ebe-ce3b-4e23-a428-ec0f998ec34c","ios":"levelo://app?vid=0ea02ebe-ce3b-4e23-a428-ec0f998ec34c"},"vehicle_type_id":"4","last_reported":1701727593,"current_range_meters":28800,"station_id":"ce4bhbp2rcd13ifvqesg","pricing_plan_id":"free"},{"bike_id":"56883146-5697-4af9-ac9a-e2152d46b669","system_id":"levelo_inurba_marseille","lat":43.293009,"lon":5.374584,"is_reserved":false,"is_disabled":false,"rental_uris":{"android":"levelo://app?vid=56883146-5697-4af9-ac9a-e2152d46b669","ios":"levelo://app?vid=56883146-5697-4af9-ac9a-e2152d46b669"},"vehicle_type_id":"4","last_reported":1701727593,"current_range_meters":17200,"station_id":"ce4bgi12rcd13ifvqb70","pricing_plan_id":"free"},{"bike_id":"dbe381a3-bb94-4cfd-bcb6-0a104f6dc358","system_id":"levelo_inurba_marseille","lat":43.291675,"lon":5.371583,"is_reserved":false,"is_disabled":false,"rental_uris":{"android":"levelo://app?vid=dbe381a3-bb94-4cfd-bcb6-0a104f6dc358","ios":"levelo://app?vid=dbe381a3-bb94-4cfd-bcb6-0a104f6dc358"},"vehicle_type_id":"4","last_reported":1701727593,"current_range_meters":18800,"station_id":"ce4bha92rcd13ifvqeh0","pricing_plan_id":"free"},{"bike_id":"3db1934a-e896-49da-80b4-93211200d326","system_id":"levelo_inurba_marseille","lat":43.291995,"lon":5.358088,"is_reserved":false,"is_disabled":false,"rental_uris":{"android":"levelo://app?vid=3db1934a-e896-49da-80b4-93211200d326","ios":"levelo://app?vid=3db1934a-e896-49da-80b4-93211200d326"},"vehicle_type_id":"4","last_reported":1701727593,"current_range_meters":24400,"station_id":"ce4bhb12rcd13ifvqel0","pricing_plan_id":"free"},{"bike_id":"191a7774-cf16-47b2-abfa-5049722c78c6","system_id":"levelo_inurba_marseille","lat":43.309038,"lon":5.396546,"is_reserved":false,"is_disabled":false,"rental_uris":{"android":"levelo://app?vid=191a7774-cf16-47b2-abfa-5049722c78c6","ios":"levelo://app?vid=191a7774-cf16-47b2-abfa-5049722c78c6"},"vehicle_type_id":"4","last_reported":1701727593,"current_range_meters":13600,"station_id":"ce4bh012rcd13ifvqcv0","pricing_plan_id":"free"},{"bike_id":"d03c2969-8fac-4de7-8c10-81f4110e927e","system_id":"levelo_inurba_marseille","lat":43.313291,"lon":5.396838,"is_reserved":false,"is_disabled":false,"rental_uris":{"android":"levelo://app?vid=d03c2969-8fac-4de7-8c10-81f4110e927e","ios":"levelo://app?vid=d03c2969-8fac-4de7-8c10-81f4110e927e"},"vehicle_type_id":"4","last_reported":1701727593,"current_range_meters":21200,"station_id":"ce4bgvp2rcd13ifvqcu0","pricing_plan_id":"free"},{"bike_id":"4b3817ab-57d5-420c-bef1-9792dfc4568a","system_id":"levelo_inurba_marseille","lat":43.31333,"lon":5.39687,"is_reserved":false,"is_disabled":false,"rental_uris":{"android":"levelo://app?vid=4b3817ab-57d5-420c-bef1-9792dfc4568a","ios":"levelo://app?vid=4b3817ab-57d5-420c-bef1-9792dfc4568a"},"vehicle_type_id":"4","last_reported":1701727593,"current_range_meters":15600,"station_id":"ce4bgvp2rcd13ifvqcu0","pricing_plan_id":"free"},{"bike_id":"5c7fbe37-874b-4e68-bfbb-5e06c304c2ce","system_id":"levelo_inurba_marseille","lat":43.3133,"lon":5.39689,"is_reserved":false,"is_disabled":false,"rental_uris":{"android":"levelo://app?vid=5c7fbe37-874b-4e68-bfbb-5e06c304c2ce","ios":"levelo://app?vid=5c7fbe37-874b-4e68-bfbb-5e06c304c2ce"},"vehicle_type_id":"4","last_reported":1701727593,"current_range_meters":2400,"station_id":"ce4bgvp2rcd13ifvqcu0","pricing_plan_id":"free"},{"bike_id":"32a878b2-dd3d-4c40-aa5a-8513930b94e4","system_id":"levelo_inurba_marseille","lat":43.313302,"lon":5.396902,"is_reserved":false,"is_disabled":false,"rental_uris":{"android":"levelo://app?vid=32a878b2-dd3d-4c40-aa5a-8513930b94e4","ios":"levelo://app?vid=32a878b2-dd3d-4c40-aa5a-8513930b94e4"},"vehicle_type_id":"4","last_reported":1701727593,"current_range_meters":5200,"station_id":"ce4bgvp2rcd13ifvqcu0","pricing_plan_id":"free"},{"bike_id":"38ba266b-9fbb-4293-86e9-00105520b41a","system_id":"levelo_inurba_marseille","lat":43.31329,"lon":5.39691,"is_reserved":false,"is_disabled":false,"rental_uris":{"android":"levelo://app?vid=38ba266b-9fbb-4293-86e9-00105520b41a","ios":"levelo://app?vid=38ba266b-9fbb-4293-86e9-00105520b41a"},"vehicle_type_id":"4","last_reported":1701727593,"current_range_meters":22800,"station_id":"ce4bgvp2rcd13ifvqcu0","pricing_plan_id":"free"},{"bike_id":"76aec414-cc29-4815-850b-4164447a72db","system_id":"levelo_inurba_marseille","lat":43.309038,"lon":5.396546,"is_reserved":false,"is_disabled":false,"rental_uris":{"android":"levelo://app?vid=76aec414-cc29-4815-850b-4164447a72db","ios":"levelo://app?vid=76aec414-cc29-4815-850b-4164447a72db"},"vehicle_type_id":"4","last_reported":1701727593,"current_range_meters":28400,"station_id":"ce4bh012rcd13ifvqcv0","pricing_plan_id":"free"},{"bike_id":"dfabbaf4-a870-473d-816c-1943083f2de2","system_id":"levelo_inurba_marseille","lat":43.30889,"lon":5.39658,"is_reserved":false,"is_disabled":false,"rental_uris":{"android":"levelo://app?vid=dfabbaf4-a870-473d-816c-1943083f2de2","ios":"levelo://app?vid=dfabbaf4-a870-473d-816c-1943083f2de2"},"vehicle_type_id":"4","last_reported":1701727593,"current_range_meters":22000,"station_id":"ce4bh012rcd13ifvqcv0","pricing_plan_id":"free"},{"bike_id":"d6aadfac-d267-4a6b-b3ef-364b999267b3","system_id":"levelo_inurba_marseille","lat":43.309047,"lon":5.396551,"is_reserved":false,"is_disabled":false,"rental_uris":{"android":"levelo://app?vid=d6aadfac-d267-4a6b-b3ef-364b999267b3","ios":"levelo://app?vid=d6aadfac-d267-4a6b-b3ef-364b999267b3"},"vehicle_type_id":"4","last_reported":1701727593,"current_range_meters":4800,"station_id":"ce4bh012rcd13ifvqcv0","pricing_plan_id":"free"},{"bike_id":"7327bc30-234a-4168-9eae-7580edea5961","system_id":"levelo_inurba_marseille","lat":43.29529,"lon":5.385581,"is_reserved":false,"is_disabled":false,"rental_uris":{"android":"levelo://app?vid=7327bc30-234a-4168-9eae-7580edea5961","ios":"levelo://app?vid=7327bc30-234a-4168-9eae-7580edea5961"},"vehicle_type_id":"4","last_reported":1701727593,"current_range_meters":14000,"station_id":"ce4bgih2rcd13ifvqba0","pricing_plan_id":"free"},{"bike_id":"0cd9f74a-f534-4d1e-bcf0-c35201d46e2a","system_id":"levelo_inurba_marseille","lat":43.29529,"lon":5.385581,"is_reserved":false,"is_disabled":false,"rental_uris":{"android":"levelo://app?vid=0cd9f74a-f534-4d1e-bcf0-c35201d46e2a","ios":"levelo://app?vid=0cd9f74a-f534-4d1e-bcf0-c35201d46e2a"},"vehicle_type_id":"4","last_reported":1701727593,"current_range_meters":22800,"station_id":"ce4bgih2rcd13ifvqba0","pricing_plan_id":"free"},{"bike_id":"9854c0a3-b8dd-45af-8c80-d74addc75b65","system_id":"levelo_inurba_marseille","lat":43.290779,"lon":5.371482,"is_reserved":false,"is_disabled":false,"rental_uris":{"android":"levelo://app?vid=9854c0a3-b8dd-45af-8c80-d74addc75b65","ios":"levelo://app?vid=9854c0a3-b8dd-45af-8c80-d74addc75b65"},"vehicle_type_id":"4","last_reported":1701727593,"current_range_meters":15200,"station_id":"ce4bh5p2rcd13ifvqe4g","pricing_plan_id":"free"},{"bike_id":"307cdeba-2133-4a3a-8285-9e30fa6a1b73","system_id":"levelo_inurba_marseille","lat":43.290624,"lon":5.359245,"is_reserved":false,"is_disabled":false,"rental_uris":{"android":"levelo://app?vid=307cdeba-2133-4a3a-8285-9e30fa6a1b73","ios":"levelo://app?vid=307cdeba-2133-4a3a-8285-9e30fa6a1b73"},"vehicle_type_id":"4","last_reported":1701727593,"current_range_meters":26800,"station_id":"ce4bha92rcd13ifvqeg0","pricing_plan_id":"free"},{"bike_id":"b7aeffb7-62eb-4596-8e64-9a4750dd2ead","system_id":"levelo_inurba_marseille","lat":43.290624,"lon":5.359245,"is_reserved":false,"is_disabled":false,"rental_uris":{"android":"levelo://app?vid=b7aeffb7-62eb-4596-8e64-9a4750dd2ead","ios":"levelo://app?vid=b7aeffb7-62eb-4596-8e64-9a4750dd2ead"},"vehicle_type_id":"4","last_reported":1701727593,"current_range_meters":20400,"station_id":"ce4bha92rcd13ifvqeg0","pricing_plan_id":"free"},{"bike_id":"13dca715-8744-4d06-b451-d6686626d9ea","system_id":"levelo_inurba_marseille","lat":43.28949,"lon":5.36415,"is_reserved":false,"is_disabled":false,"rental_uris":{"android":"levelo://app?vid=13dca715-8744-4d06-b451-d6686626d9ea","ios":"levelo://app?vid=13dca715-8744-4d06-b451-d6686626d9ea"},"vehicle_type_id":"4","last_reported":1701727593,"current_range_meters":27200,"station_id":"ce4bhc92rcd13ifvqetg","pricing_plan_id":"free"},{"bike_id":"100cec12-32c1-4c56-80b5-32cbd68babd9","system_id":"levelo_inurba_marseille","lat":43.289184,"lon":5.366408,"is_reserved":false,"is_disabled":false,"rental_uris":{"android":"levelo://app?vid=100cec12-32c1-4c56-80b5-32cbd68babd9","ios":"levelo://app?vid=100cec12-32c1-4c56-80b5-32cbd68babd9"},"vehicle_type_id":"4","last_reported":1701727593,"current_range_meters":0,"station_id":"ce4bhap2rcd13ifvqek0","pricing_plan_id":"free"},{"bike_id":"7f749e51-5b80-4970-8e85-be17fc07251f","system_id":"levelo_inurba_marseille","lat":43.289468,"lon":5.363719,"is_reserved":false,"is_disabled":false,"rental_uris":{"android":"levelo://app?vid=7f749e51-5b80-4970-8e85-be17fc07251f","ios":"levelo://app?vid=7f749e51-5b80-4970-8e85-be17fc07251f"},"vehicle_type_id":"4","last_reported":1701727593,"current_range_meters":26000,"station_id":"ce4bhc92rcd13ifvqetg","pricing_plan_id":"free"},{"bike_id":"777da234-5c08-4d18-bc53-ff5b3fbe2a72","system_id":"levelo_inurba_marseille","lat":43.290103,"lon":5.356114,"is_reserved":false,"is_disabled":false,"rental_uris":{"android":"levelo://app?vid=777da234-5c08-4d18-bc53-ff5b3fbe2a72","ios":"levelo://app?vid=777da234-5c08-4d18-bc53-ff5b3fbe2a72"},"vehicle_type_id":"4","last_reported":1701727593,"current_range_meters":30000,"station_id":"ce4bhb92rcd13ifvqen0","pricing_plan_id":"free"},{"bike_id":"5e5d09fd-96a2-43af-9a05-6593abbb0e2f","system_id":"levelo_inurba_marseille","lat":43.295169,"lon":5.390426,"is_reserved":false,"is_disabled":false,"rental_uris":{"android":"levelo://app?vid=5e5d09fd-96a2-43af-9a05-6593abbb0e2f","ios":"levelo://app?vid=5e5d09fd-96a2-43af-9a05-6593abbb0e2f"},"vehicle_type_id":"4","last_reported":1701727593,"current_range_meters":26400,"station_id":"ce4bh3p2rcd13ifvqdp0","pricing_plan_id":"free"},{"bike_id":"509d6d28-68f7-4660-8452-229ed7438d83","system_id":"levelo_inurba_marseille","lat":43.28858,"lon":5.35864,"is_reserved":false,"is_disabled":false,"rental_uris":{"android":"levelo://app?vid=509d6d28-68f7-4660-8452-229ed7438d83","ios":"levelo://app?vid=509d6d28-68f7-4660-8452-229ed7438d83"},"vehicle_type_id":"4","last_reported":1701727593,"current_range_meters":12000,"station_id":"ce4bhb12rcd13ifvqem0","pricing_plan_id":"free"},{"bike_id":"dde14e32-7317-4630-bdcd-e591ba48777c","system_id":"levelo_inurba_marseille","lat":43.28856,"lon":5.358371,"is_reserved":false,"is_disabled":false,"rental_uris":{"android":"levelo://app?vid=dde14e32-7317-4630-bdcd-e591ba48777c","ios":"levelo://app?vid=dde14e32-7317-4630-bdcd-e591ba48777c"},"vehicle_type_id":"4","last_reported":1701727593,"current_range_meters":20400,"station_id":"ce4bhb12rcd13ifvqem0","pricing_plan_id":"free"},{"bike_id":"e9b751b7-c050-44e4-a848-70af9a1dc42e","system_id":"levelo_inurba_marseille","lat":43.31276,"lon":5.40171,"is_reserved":false,"is_disabled":false,"rental_uris":{"android":"levelo://app?vid=e9b751b7-c050-44e4-a848-70af9a1dc42e","ios":"levelo://app?vid=e9b751b7-c050-44e4-a848-70af9a1dc42e"},"vehicle_type_id":"4","last_reported":1701727593,"current_range_meters":25600,"station_id":"ce4bh092rcd13ifvqd30","pricing_plan_id":"free"},{"bike_id":"799c0d1d-4dbb-441f-8418-b8e953994f7d","system_id":"levelo_inurba_marseille","lat":43.31278,"lon":5.40172,"is_reserved":false,"is_disabled":false,"rental_uris":{"android":"levelo://app?vid=799c0d1d-4dbb-441f-8418-b8e953994f7d","ios":"levelo://app?vid=799c0d1d-4dbb-441f-8418-b8e953994f7d"},"vehicle_type_id":"4","last_reported":1701727593,"current_range_meters":25200,"station_id":"ce4bh092rcd13ifvqd30","pricing_plan_id":"free"},{"bike_id":"61e94894-252e-4e6e-9735-b09eceabfad5","system_id":"levelo_inurba_marseille","lat":43.33745,"lon":5.374737,"is_reserved":false,"is_disabled":false,"rental_uris":{"android":"levelo://app?vid=61e94894-252e-4e6e-9735-b09eceabfad5","ios":"levelo://app?vid=61e94894-252e-4e6e-9735-b09eceabfad5"},"vehicle_type_id":"4","last_reported":1701727593,"current_range_meters":31200,"station_id":"","pricing_plan_id":"free"},{"bike_id":"45278979-3d35-4cf8-afa4-740305960434","system_id":"levelo_inurba_marseille","lat":43.312609,"lon":5.401662,"is_reserved":false,"is_disabled":false,"rental_uris":{"android":"levelo://app?vid=45278979-3d35-4cf8-afa4-740305960434","ios":"levelo://app?vid=45278979-3d35-4cf8-afa4-740305960434"},"vehicle_type_id":"4","last_reported":1701727593,"current_range_meters":7600,"station_id":"ce4bh092rcd13ifvqd30","pricing_plan_id":"free"},{"bike_id":"b1da507f-59bc-4bfa-9de7-dd18b0d37739","system_id":"levelo_inurba_marseille","lat":43.3375,"lon":5.37457,"is_reserved":false,"is_disabled":false,"rental_uris":{"android":"levelo://app?vid=b1da507f-59bc-4bfa-9de7-dd18b0d37739","ios":"levelo://app?vid=b1da507f-59bc-4bfa-9de7-dd18b0d37739"},"vehicle_type_id":"4","last_reported":1701727593,"current_range_meters":30400,"station_id":"","pricing_plan_id":"free"},{"bike_id":"2fbea006-0d22-445c-bfc1-d379dcddc1c1","system_id":"levelo_inurba_marseille","lat":43.33748,"lon":5.374733,"is_reserved":false,"is_disabled":false,"rental_uris":{"android":"levelo://app?vid=2fbea006-0d22-445c-bfc1-d379dcddc1c1","ios":"levelo://app?vid=2fbea006-0d22-445c-bfc1-d379dcddc1c1"},"vehicle_type_id":"4","last_reported":1701727593,"current_range_meters":30800,"station_id":"","pricing_plan_id":"free"},{"bike_id":"1924c2d2-2d71-4c5e-882f-3bbcc07fa56e","system_id":"levelo_inurba_marseille","lat":43.306412,"lon":5.401035,"is_reserved":false,"is_disabled":false,"rental_uris":{"android":"levelo://app?vid=1924c2d2-2d71-4c5e-882f-3bbcc07fa56e","ios":"levelo://app?vid=1924c2d2-2d71-4c5e-882f-3bbcc07fa56e"},"vehicle_type_id":"4","last_reported":1701727593,"current_range_meters":27200,"station_id":"ce4bh112rcd13ifvqda0","pricing_plan_id":"free"},{"bike_id":"d3fac186-69ad-442c-9ac5-0cdeb228e2a8","system_id":"levelo_inurba_marseille","lat":43.30642,"lon":5.401031,"is_reserved":false,"is_disabled":false,"rental_uris":{"android":"levelo://app?vid=d3fac186-69ad-442c-9ac5-0cdeb228e2a8","ios":"levelo://app?vid=d3fac186-69ad-442c-9ac5-0cdeb228e2a8"},"vehicle_type_id":"4","last_reported":1701727593,"current_range_meters":13200,"station_id":"ce4bh112rcd13ifvqda0","pricing_plan_id":"free"},{"bike_id":"4afc425b-2cb4-4ed6-98f1-14e3da44a827","system_id":"levelo_inurba_marseille","lat":43.28727,"lon":5.36078,"is_reserved":false,"is_disabled":false,"rental_uris":{"android":"levelo://app?vid=4afc425b-2cb4-4ed6-98f1-14e3da44a827","ios":"levelo://app?vid=4afc425b-2cb4-4ed6-98f1-14e3da44a827"},"vehicle_type_id":"4","last_reported":1701727593,"current_range_meters":26400,"station_id":"cki0cbj6b192h4jlfktg","pricing_plan_id":"free"},{"bike_id":"8ebda87e-5002-4c98-92ac-f7f34c3f1718","system_id":"levelo_inurba_marseille","lat":43.28727,"lon":5.36078,"is_reserved":false,"is_disabled":false,"rental_uris":{"android":"levelo://app?vid=8ebda87e-5002-4c98-92ac-f7f34c3f1718","ios":"levelo://app?vid=8ebda87e-5002-4c98-92ac-f7f34c3f1718"},"vehicle_type_id":"4","last_reported":1701727593,"current_range_meters":29600,"station_id":"cki0cbj6b192h4jlfktg","pricing_plan_id":"free"},{"bike_id":"55b36980-5956-41d3-b99e-b8f444d3ea45","system_id":"levelo_inurba_marseille","lat":43.301117,"lon":5.398795,"is_reserved":false,"is_disabled":false,"rental_uris":{"android":"levelo://app?vid=55b36980-5956-41d3-b99e-b8f444d3ea45","ios":"levelo://app?vid=55b36980-5956-41d3-b99e-b8f444d3ea45"},"vehicle_type_id":"4","last_reported":1701727593,"current_range_meters":26000,"station_id":"ce4bh0h2rcd13ifvqd40","pricing_plan_id":"free"},{"bike_id":"5712d1bd-d7ca-4eed-936e-3f59bba706f9","system_id":"levelo_inurba_marseille","lat":43.286591,"lon":5.363346,"is_reserved":false,"is_disabled":false,"rental_uris":{"android":"levelo://app?vid=5712d1bd-d7ca-4eed-936e-3f59bba706f9","ios":"levelo://app?vid=5712d1bd-d7ca-4eed-936e-3f59bba706f9"},"vehicle_type_id":"4","last_reported":1701727593,"current_range_meters":6400,"station_id":"ce4bhah2rcd13ifvqej0","pricing_plan_id":"free"},{"bike_id":"53351952-0515-4603-ac07-a2dff8a19163","system_id":"levelo_inurba_marseille","lat":43.286591,"lon":5.363346,"is_reserved":false,"is_disabled":false,"rental_uris":{"android":"levelo://app?vid=53351952-0515-4603-ac07-a2dff8a19163","ios":"levelo://app?vid=53351952-0515-4603-ac07-a2dff8a19163"},"vehicle_type_id":"4","last_reported":1701727593,"current_range_meters":19200,"station_id":"ce4bhah2rcd13ifvqej0","pricing_plan_id":"free"},{"bike_id":"a1d02f2c-33dc-4efb-a617-4647e6f00f6f","system_id":"levelo_inurba_marseille","lat":43.28704,"lon":5.373937,"is_reserved":false,"is_disabled":false,"rental_uris":{"android":"levelo://app?vid=a1d02f2c-33dc-4efb-a617-4647e6f00f6f","ios":"levelo://app?vid=a1d02f2c-33dc-4efb-a617-4647e6f00f6f"},"vehicle_type_id":"4","last_reported":1701727593,"current_range_meters":11600,"station_id":"ce4bh3p2rcd13ifvqdq0","pricing_plan_id":"free"},{"bike_id":"7ddaece8-d431-4da4-b09c-4e0cfdc79c46","system_id":"levelo_inurba_marseille","lat":43.286961,"lon":5.373785,"is_reserved":false,"is_disabled":false,"rental_uris":{"android":"levelo://app?vid=7ddaece8-d431-4da4-b09c-4e0cfdc79c46","ios":"levelo://app?vid=7ddaece8-d431-4da4-b09c-4e0cfdc79c46"},"vehicle_type_id":"4","last_reported":1701727593,"current_range_meters":27200,"station_id":"ce4bh3p2rcd13ifvqdq0","pricing_plan_id":"free"},{"bike_id":"bd2286a2-861b-45d4-af38-02a6a5725e1c","system_id":"levelo_inurba_marseille","lat":43.289307,"lon":5.38406,"is_reserved":false,"is_disabled":false,"rental_uris":{"android":"levelo://app?vid=bd2286a2-861b-45d4-af38-02a6a5725e1c","ios":"levelo://app?vid=bd2286a2-861b-45d4-af38-02a6a5725e1c"},"vehicle_type_id":"4","last_reported":1701727593,"current_range_meters":21600,"station_id":"ce4bh612rcd13ifvqe6g","pricing_plan_id":"free"},{"bike_id":"8333eb78-f2db-43f3-a062-75bd222408d1","system_id":"levelo_inurba_marseille","lat":43.289307,"lon":5.38406,"is_reserved":false,"is_disabled":false,"rental_uris":{"android":"levelo://app?vid=8333eb78-f2db-43f3-a062-75bd222408d1","ios":"levelo://app?vid=8333eb78-f2db-43f3-a062-75bd222408d1"},"vehicle_type_id":"4","last_reported":1701727593,"current_range_meters":26400,"station_id":"ce4bh612rcd13ifvqe6g","pricing_plan_id":"free"},{"bike_id":"5bdeab8c-ac3a-4bf4-aa4b-46aa7e726206","system_id":"levelo_inurba_marseille","lat":43.289307,"lon":5.38406,"is_reserved":false,"is_disabled":false,"rental_uris":{"android":"levelo://app?vid=5bdeab8c-ac3a-4bf4-aa4b-46aa7e726206","ios":"levelo://app?vid=5bdeab8c-ac3a-4bf4-aa4b-46aa7e726206"},"vehicle_type_id":"4","last_reported":1701727593,"current_range_meters":18400,"station_id":"ce4bh612rcd13ifvqe6g","pricing_plan_id":"free"},{"bike_id":"72d6ed3d-7683-4476-b2ad-b81c61b32e69","system_id":"levelo_inurba_marseille","lat":43.302759,"lon":5.400793,"is_reserved":false,"is_disabled":false,"rental_uris":{"android":"levelo://app?vid=72d6ed3d-7683-4476-b2ad-b81c61b32e69","ios":"levelo://app?vid=72d6ed3d-7683-4476-b2ad-b81c61b32e69"},"vehicle_type_id":"4","last_reported":1701727593,"current_range_meters":18800,"station_id":"ce4bgvh2rcd13ifvqcs0","pricing_plan_id":"free"},{"bike_id":"b0937df3-6a56-4e12-a1a6-56251082b14e","system_id":"levelo_inurba_marseille","lat":43.286039,"lon":5.370679,"is_reserved":false,"is_disabled":false,"rental_uris":{"android":"levelo://app?vid=b0937df3-6a56-4e12-a1a6-56251082b14e","ios":"levelo://app?vid=b0937df3-6a56-4e12-a1a6-56251082b14e"},"vehicle_type_id":"4","last_reported":1701727593,"current_range_meters":26400,"station_id":"ce4bht12rcd13ifvqi60","pricing_plan_id":"free"},{"bike_id":"cebc581c-d768-4d70-9a38-1a47c44e063e","system_id":"levelo_inurba_marseille","lat":43.286039,"lon":5.370679,"is_reserved":false,"is_disabled":false,"rental_uris":{"android":"levelo://app?vid=cebc581c-d768-4d70-9a38-1a47c44e063e","ios":"levelo://app?vid=cebc581c-d768-4d70-9a38-1a47c44e063e"},"vehicle_type_id":"4","last_reported":1701727593,"current_range_meters":31200,"station_id":"ce4bht12rcd13ifvqi60","pricing_plan_id":"free"},{"bike_id":"0b6a2e09-7dcd-4569-9ce5-37609243ba7d","system_id":"levelo_inurba_marseille","lat":43.316517,"lon":5.404375,"is_reserved":false,"is_disabled":false,"rental_uris":{"android":"levelo://app?vid=0b6a2e09-7dcd-4569-9ce5-37609243ba7d","ios":"levelo://app?vid=0b6a2e09-7dcd-4569-9ce5-37609243ba7d"},"vehicle_type_id":"4","last_reported":1701727593,"current_range_meters":0,"station_id":"ce4bh012rcd13ifvqd00","pricing_plan_id":"free"},{"bike_id":"edd495ad-15aa-465e-9bde-a723fa9bb1ef","system_id":"levelo_inurba_marseille","lat":43.31645,"lon":5.40443,"is_reserved":false,"is_disabled":false,"rental_uris":{"android":"levelo://app?vid=edd495ad-15aa-465e-9bde-a723fa9bb1ef","ios":"levelo://app?vid=edd495ad-15aa-465e-9bde-a723fa9bb1ef"},"vehicle_type_id":"4","last_reported":1701727593,"current_range_meters":4000,"station_id":"ce4bh012rcd13ifvqd00","pricing_plan_id":"free"},{"bike_id":"c5196234-415f-4f28-9be5-2ee8a4748d00","system_id":"levelo_inurba_marseille","lat":43.291994,"lon":5.392907,"is_reserved":false,"is_disabled":false,"rental_uris":{"android":"levelo://app?vid=c5196234-415f-4f28-9be5-2ee8a4748d00","ios":"levelo://app?vid=c5196234-415f-4f28-9be5-2ee8a4748d00"},"vehicle_type_id":"4","last_reported":1701727593,"current_range_meters":9600,"station_id":"ce4bh192rcd13ifvqdd0","pricing_plan_id":"free"},{"bike_id":"571d129b-98b5-4d9a-8467-10f6a8fa473d","system_id":"levelo_inurba_marseille","lat":43.291994,"lon":5.392907,"is_reserved":false,"is_disabled":false,"rental_uris":{"android":"levelo://app?vid=571d129b-98b5-4d9a-8467-10f6a8fa473d","ios":"levelo://app?vid=571d129b-98b5-4d9a-8467-10f6a8fa473d"},"vehicle_type_id":"4","last_reported":1701727593,"current_range_meters":31200,"station_id":"ce4bh192rcd13ifvqdd0","pricing_plan_id":"free"},{"bike_id":"cb44d5cb-05f1-4044-9cec-a2bd7ca862f4","system_id":"levelo_inurba_marseille","lat":43.291928,"lon":5.393244,"is_reserved":false,"is_disabled":false,"rental_uris":{"android":"levelo://app?vid=cb44d5cb-05f1-4044-9cec-a2bd7ca862f4","ios":"levelo://app?vid=cb44d5cb-05f1-4044-9cec-a2bd7ca862f4"},"vehicle_type_id":"4","last_reported":1701727593,"current_range_meters":0,"station_id":"ce4bh192rcd13ifvqdd0","pricing_plan_id":"free"},{"bike_id":"d58314f1-eceb-4068-b21c-c7c3312f3888","system_id":"levelo_inurba_marseille","lat":43.284219,"lon":5.3497,"is_reserved":false,"is_disabled":false,"rental_uris":{"android":"levelo://app?vid=d58314f1-eceb-4068-b21c-c7c3312f3888","ios":"levelo://app?vid=d58314f1-eceb-4068-b21c-c7c3312f3888"},"vehicle_type_id":"4","last_reported":1701727593,"current_range_meters":22800,"station_id":"ce4bhbh2rcd13ifvqepg","pricing_plan_id":"free"},{"bike_id":"f243fdf9-f670-4310-8368-8afa1db43a39","system_id":"levelo_inurba_marseille","lat":43.284534,"lon":5.358662,"is_reserved":false,"is_disabled":false,"rental_uris":{"android":"levelo://app?vid=f243fdf9-f670-4310-8368-8afa1db43a39","ios":"levelo://app?vid=f243fdf9-f670-4310-8368-8afa1db43a39"},"vehicle_type_id":"4","last_reported":1701727593,"current_range_meters":15600,"station_id":"ce4bhah2rcd13ifvqei0","pricing_plan_id":"free"},{"bike_id":"f4b5151a-97bd-49c2-be13-26e748213dde","system_id":"levelo_inurba_marseille","lat":43.284534,"lon":5.358662,"is_reserved":false,"is_disabled":false,"rental_uris":{"android":"levelo://app?vid=f4b5151a-97bd-49c2-be13-26e748213dde","ios":"levelo://app?vid=f4b5151a-97bd-49c2-be13-26e748213dde"},"vehicle_type_id":"4","last_reported":1701727593,"current_range_meters":28800,"station_id":"ce4bhah2rcd13ifvqei0","pricing_plan_id":"free"},{"bike_id":"0385ca16-b998-46fc-8ded-07ad052c6377","system_id":"levelo_inurba_marseille","lat":43.284595,"lon":5.358958,"is_reserved":false,"is_disabled":false,"rental_uris":{"android":"levelo://app?vid=0385ca16-b998-46fc-8ded-07ad052c6377","ios":"levelo://app?vid=0385ca16-b998-46fc-8ded-07ad052c6377"},"vehicle_type_id":"4","last_reported":1701727593,"current_range_meters":22000,"station_id":"ce4bhah2rcd13ifvqei0","pricing_plan_id":"free"},{"bike_id":"74215b8f-5a98-407b-8406-c10d82d0037d","system_id":"levelo_inurba_marseille","lat":43.294314,"lon":5.397498,"is_reserved":false,"is_disabled":false,"rental_uris":{"android":"levelo://app?vid=74215b8f-5a98-407b-8406-c10d82d0037d","ios":"levelo://app?vid=74215b8f-5a98-407b-8406-c10d82d0037d"},"vehicle_type_id":"4","last_reported":1701727593,"current_range_meters":14000,"station_id":"ce4bh3h2rcd13ifvqdo0","pricing_plan_id":"free"},{"bike_id":"63950e9f-b916-49d6-ae7f-7e241686aa20","system_id":"levelo_inurba_marseille","lat":43.285856,"lon":5.350771,"is_reserved":false,"is_disabled":false,"rental_uris":{"android":"levelo://app?vid=63950e9f-b916-49d6-ae7f-7e241686aa20","ios":"levelo://app?vid=63950e9f-b916-49d6-ae7f-7e241686aa20"},"vehicle_type_id":"4","last_reported":1701727593,"current_range_meters":2000,"station_id":"ce4bhch2rcd13ifvqeug","pricing_plan_id":"free"},{"bike_id":"169c6444-b60b-49f0-b7a2-c93e30dfdc65","system_id":"levelo_inurba_marseille","lat":43.28615,"lon":5.35105,"is_reserved":false,"is_disabled":false,"rental_uris":{"android":"levelo://app?vid=169c6444-b60b-49f0-b7a2-c93e30dfdc65","ios":"levelo://app?vid=169c6444-b60b-49f0-b7a2-c93e30dfdc65"},"vehicle_type_id":"4","last_reported":1701727593,"current_range_meters":20000,"station_id":"ce4bhch2rcd13ifvqeug","pricing_plan_id":"free"},{"bike_id":"18c02c14-36c0-4cf5-b980-7dd3dcf817cf","system_id":"levelo_inurba_marseille","lat":43.28615,"lon":5.35104,"is_reserved":false,"is_disabled":false,"rental_uris":{"android":"levelo://app?vid=18c02c14-36c0-4cf5-b980-7dd3dcf817cf","ios":"levelo://app?vid=18c02c14-36c0-4cf5-b980-7dd3dcf817cf"},"vehicle_type_id":"4","last_reported":1701727593,"current_range_meters":18800,"station_id":"ce4bhch2rcd13ifvqeug","pricing_plan_id":"free"},{"bike_id":"8c9d1716-3fd0-4559-9e75-969d7b769d14","system_id":"levelo_inurba_marseille","lat":43.285856,"lon":5.350771,"is_reserved":false,"is_disabled":false,"rental_uris":{"android":"levelo://app?vid=8c9d1716-3fd0-4559-9e75-969d7b769d14","ios":"levelo://app?vid=8c9d1716-3fd0-4559-9e75-969d7b769d14"},"vehicle_type_id":"4","last_reported":1701727593,"current_range_meters":27600,"station_id":"ce4bhch2rcd13ifvqeug","pricing_plan_id":"free"},{"bike_id":"2933ab71-7a5a-48a9-8ff1-3f3616ca8f32","system_id":"levelo_inurba_marseille","lat":43.28614,"lon":5.35103,"is_reserved":false,"is_disabled":false,"rental_uris":{"android":"levelo://app?vid=2933ab71-7a5a-48a9-8ff1-3f3616ca8f32","ios":"levelo://app?vid=2933ab71-7a5a-48a9-8ff1-3f3616ca8f32"},"vehicle_type_id":"4","last_reported":1701727593,"current_range_meters":26000,"station_id":"ce4bhch2rcd13ifvqeug","pricing_plan_id":"free"},{"bike_id":"f8d8bffe-15fa-4d6c-b2a4-b1ff37424973","system_id":"levelo_inurba_marseille","lat":43.283998,"lon":5.375062,"is_reserved":false,"is_disabled":false,"rental_uris":{"android":"levelo://app?vid=f8d8bffe-15fa-4d6c-b2a4-b1ff37424973","ios":"levelo://app?vid=f8d8bffe-15fa-4d6c-b2a4-b1ff37424973"},"vehicle_type_id":"4","last_reported":1701727593,"current_range_meters":17200,"station_id":"ce4bh412rcd13ifvqds0","pricing_plan_id":"free"},{"bike_id":"4b472d2d-8db3-42ed-9a8f-2268fbbde39f","system_id":"levelo_inurba_marseille","lat":43.283998,"lon":5.375062,"is_reserved":false,"is_disabled":false,"rental_uris":{"android":"levelo://app?vid=4b472d2d-8db3-42ed-9a8f-2268fbbde39f","ios":"levelo://app?vid=4b472d2d-8db3-42ed-9a8f-2268fbbde39f"},"vehicle_type_id":"4","last_reported":1701727593,"current_range_meters":2800,"station_id":"ce4bh412rcd13ifvqds0","pricing_plan_id":"free"},{"bike_id":"62c8e170-2395-4b44-b91a-addbcd373f70","system_id":"levelo_inurba_marseille","lat":43.283998,"lon":5.375062,"is_reserved":false,"is_disabled":false,"rental_uris":{"android":"levelo://app?vid=62c8e170-2395-4b44-b91a-addbcd373f70","ios":"levelo://app?vid=62c8e170-2395-4b44-b91a-addbcd373f70"},"vehicle_type_id":"4","last_reported":1701727593,"current_range_meters":14400,"station_id":"ce4bh412rcd13ifvqds0","pricing_plan_id":"free"},{"bike_id":"49dee513-0a8c-4774-9bc6-ba9e146d354a","system_id":"levelo_inurba_marseille","lat":43.295713,"lon":5.399639,"is_reserved":false,"is_disabled":false,"rental_uris":{"android":"levelo://app?vid=49dee513-0a8c-4774-9bc6-ba9e146d354a","ios":"levelo://app?vid=49dee513-0a8c-4774-9bc6-ba9e146d354a"},"vehicle_type_id":"4","last_reported":1701727593,"current_range_meters":22000,"station_id":"ce4bh312rcd13ifvqdj0","pricing_plan_id":"free"},{"bike_id":"3aaa766c-12c1-4485-850d-b495677f1267","system_id":"levelo_inurba_marseille","lat":43.319179,"lon":5.407725,"is_reserved":false,"is_disabled":false,"rental_uris":{"android":"levelo://app?vid=3aaa766c-12c1-4485-850d-b495677f1267","ios":"levelo://app?vid=3aaa766c-12c1-4485-850d-b495677f1267"},"vehicle_type_id":"4","last_reported":1701727593,"current_range_meters":29600,"station_id":"ce4bhq12rcd13ifvqhig","pricing_plan_id":"free"},{"bike_id":"c322d5f1-0c82-44a4-866c-216b659395fa","system_id":"levelo_inurba_marseille","lat":43.319179,"lon":5.407725,"is_reserved":false,"is_disabled":false,"rental_uris":{"android":"levelo://app?vid=c322d5f1-0c82-44a4-866c-216b659395fa","ios":"levelo://app?vid=c322d5f1-0c82-44a4-866c-216b659395fa"},"vehicle_type_id":"4","last_reported":1701727593,"current_range_meters":14400,"station_id":"ce4bhq12rcd13ifvqhig","pricing_plan_id":"free"},{"bike_id":"37637d11-0d2c-4d6c-8684-6f3fad115197","system_id":"levelo_inurba_marseille","lat":43.323464,"lon":5.406297,"is_reserved":false,"is_disabled":false,"rental_uris":{"android":"levelo://app?vid=37637d11-0d2c-4d6c-8684-6f3fad115197","ios":"levelo://app?vid=37637d11-0d2c-4d6c-8684-6f3fad115197"},"vehicle_type_id":"4","last_reported":1701727593,"current_range_meters":28800,"station_id":"ce4bhq92rcd13ifvqhjg","pricing_plan_id":"free"},{"bike_id":"60e8c703-d82c-49c9-bc5f-f7e8deb1ac94","system_id":"levelo_inurba_marseille","lat":43.323464,"lon":5.406297,"is_reserved":false,"is_disabled":false,"rental_uris":{"android":"levelo://app?vid=60e8c703-d82c-49c9-bc5f-f7e8deb1ac94","ios":"levelo://app?vid=60e8c703-d82c-49c9-bc5f-f7e8deb1ac94"},"vehicle_type_id":"4","last_reported":1701727593,"current_range_meters":30000,"station_id":"ce4bhq92rcd13ifvqhjg","pricing_plan_id":"free"},{"bike_id":"23a6e18e-5ad6-40cf-b6fb-7a4b1a6034c9","system_id":"levelo_inurba_marseille","lat":43.337168,"lon":5.391825,"is_reserved":false,"is_disabled":false,"rental_uris":{"android":"levelo://app?vid=23a6e18e-5ad6-40cf-b6fb-7a4b1a6034c9","ios":"levelo://app?vid=23a6e18e-5ad6-40cf-b6fb-7a4b1a6034c9"},"vehicle_type_id":"4","last_reported":1701727593,"current_range_meters":28000,"station_id":"ce4bhr92rcd13ifvqhsg","pricing_plan_id":"free"},{"bike_id":"7b0450f9-c7dc-481e-a241-9a02bda55cd8","system_id":"levelo_inurba_marseille","lat":43.283494,"lon":5.380945,"is_reserved":false,"is_disabled":false,"rental_uris":{"android":"levelo://app?vid=7b0450f9-c7dc-481e-a241-9a02bda55cd8","ios":"levelo://app?vid=7b0450f9-c7dc-481e-a241-9a02bda55cd8"},"vehicle_type_id":"4","last_reported":1701727593,"current_range_meters":24400,"station_id":"ce4bh412rcd13ifvqdr0","pricing_plan_id":"free"},{"bike_id":"79bc28a3-b13c-4976-888f-4eab3bb38178","system_id":"levelo_inurba_marseille","lat":43.289363,"lon":5.396322,"is_reserved":false,"is_disabled":false,"rental_uris":{"android":"levelo://app?vid=79bc28a3-b13c-4976-888f-4eab3bb38178","ios":"levelo://app?vid=79bc28a3-b13c-4976-888f-4eab3bb38178"},"vehicle_type_id":"4","last_reported":1701727593,"current_range_meters":24400,"station_id":"ce4bh3h2rcd13ifvqdn0","pricing_plan_id":"free"},{"bike_id":"fd6050c3-c017-4673-9072-354eb2f0b7d3","system_id":"levelo_inurba_marseille","lat":43.289363,"lon":5.396322,"is_reserved":false,"is_disabled":false,"rental_uris":{"android":"levelo://app?vid=fd6050c3-c017-4673-9072-354eb2f0b7d3","ios":"levelo://app?vid=fd6050c3-c017-4673-9072-354eb2f0b7d3"},"vehicle_type_id":"4","last_reported":1701727593,"current_range_meters":8800,"station_id":"ce4bh3h2rcd13ifvqdn0","pricing_plan_id":"free"},{"bike_id":"70dbfcaa-143d-4ac1-a49d-a8fedb207a85","system_id":"levelo_inurba_marseille","lat":43.292724,"lon":5.401131,"is_reserved":false,"is_disabled":false,"rental_uris":{"android":"levelo://app?vid=70dbfcaa-143d-4ac1-a49d-a8fedb207a85","ios":"levelo://app?vid=70dbfcaa-143d-4ac1-a49d-a8fedb207a85"},"vehicle_type_id":"4","last_reported":1701727593,"current_range_meters":20000,"station_id":"ce4bh312rcd13ifvqdk0","pricing_plan_id":"free"},{"bike_id":"6ccf948d-6eb0-444e-aee6-d769f399f4e4","system_id":"levelo_inurba_marseille","lat":43.28275,"lon":5.3508,"is_reserved":false,"is_disabled":false,"rental_uris":{"android":"levelo://app?vid=6ccf948d-6eb0-444e-aee6-d769f399f4e4","ios":"levelo://app?vid=6ccf948d-6eb0-444e-aee6-d769f399f4e4"},"vehicle_type_id":"4","last_reported":1701727593,"current_range_meters":25600,"station_id":"ce4bhbp2rcd13ifvqerg","pricing_plan_id":"free"},{"bike_id":"77b18657-b569-4b90-9dc8-34338ee25c17","system_id":"levelo_inurba_marseille","lat":43.282744,"lon":5.350533,"is_reserved":false,"is_disabled":false,"rental_uris":{"android":"levelo://app?vid=77b18657-b569-4b90-9dc8-34338ee25c17","ios":"levelo://app?vid=77b18657-b569-4b90-9dc8-34338ee25c17"},"vehicle_type_id":"4","last_reported":1701727593,"current_range_meters":27200,"station_id":"ce4bhbp2rcd13ifvqerg","pricing_plan_id":"free"},{"bike_id":"052c7fc7-ace5-456c-a6c3-741f73450385","system_id":"levelo_inurba_marseille","lat":43.28039,"lon":5.369297,"is_reserved":false,"is_disabled":false,"rental_uris":{"android":"levelo://app?vid=052c7fc7-ace5-456c-a6c3-741f73450385","ios":"levelo://app?vid=052c7fc7-ace5-456c-a6c3-741f73450385"},"vehicle_type_id":"4","last_reported":1701727593,"current_range_meters":31200,"station_id":"ce4bha12rcd13ifvqef0","pricing_plan_id":"free"},{"bike_id":"fb17d47e-3f8e-47e7-a8f8-5ac35613e1ae","system_id":"levelo_inurba_marseille","lat":43.28039,"lon":5.369297,"is_reserved":false,"is_disabled":false,"rental_uris":{"android":"levelo://app?vid=fb17d47e-3f8e-47e7-a8f8-5ac35613e1ae","ios":"levelo://app?vid=fb17d47e-3f8e-47e7-a8f8-5ac35613e1ae"},"vehicle_type_id":"4","last_reported":1701727593,"current_range_meters":26400,"station_id":"ce4bha12rcd13ifvqef0","pricing_plan_id":"free"},{"bike_id":"8bf9564f-62b1-426c-bced-de4c15a4c0ad","system_id":"levelo_inurba_marseille","lat":43.28039,"lon":5.369297,"is_reserved":false,"is_disabled":false,"rental_uris":{"android":"levelo://app?vid=8bf9564f-62b1-426c-bced-de4c15a4c0ad","ios":"levelo://app?vid=8bf9564f-62b1-426c-bced-de4c15a4c0ad"},"vehicle_type_id":"4","last_reported":1701727593,"current_range_meters":29600,"station_id":"ce4bha12rcd13ifvqef0","pricing_plan_id":"free"},{"bike_id":"4f144858-d244-4c5d-9c53-6a6b16cc8e58","system_id":"levelo_inurba_marseille","lat":43.280382,"lon":5.369291,"is_reserved":false,"is_disabled":false,"rental_uris":{"android":"levelo://app?vid=4f144858-d244-4c5d-9c53-6a6b16cc8e58","ios":"levelo://app?vid=4f144858-d244-4c5d-9c53-6a6b16cc8e58"},"vehicle_type_id":"4","last_reported":1701727593,"current_range_meters":27200,"station_id":"ce4bha12rcd13ifvqef0","pricing_plan_id":"free"},{"bike_id":"dd3edbec-e53d-4db9-9a2b-757cc47bce65","system_id":"levelo_inurba_marseille","lat":43.28039,"lon":5.369297,"is_reserved":false,"is_disabled":false,"rental_uris":{"android":"levelo://app?vid=dd3edbec-e53d-4db9-9a2b-757cc47bce65","ios":"levelo://app?vid=dd3edbec-e53d-4db9-9a2b-757cc47bce65"},"vehicle_type_id":"4","last_reported":1701727593,"current_range_meters":29600,"station_id":"ce4bha12rcd13ifvqef0","pricing_plan_id":"free"},{"bike_id":"378e06e1-57f0-47f1-a348-dd7d576fe732","system_id":"levelo_inurba_marseille","lat":43.280382,"lon":5.369291,"is_reserved":false,"is_disabled":false,"rental_uris":{"android":"levelo://app?vid=378e06e1-57f0-47f1-a348-dd7d576fe732","ios":"levelo://app?vid=378e06e1-57f0-47f1-a348-dd7d576fe732"},"vehicle_type_id":"4","last_reported":1701727593,"current_range_meters":31200,"station_id":"ce4bha12rcd13ifvqef0","pricing_plan_id":"free"},{"bike_id":"f23235c2-e3ab-417e-b9e8-1d0ae6d124bb","system_id":"levelo_inurba_marseille","lat":43.281044,"lon":5.378308,"is_reserved":false,"is_disabled":false,"rental_uris":{"android":"levelo://app?vid=f23235c2-e3ab-417e-b9e8-1d0ae6d124bb","ios":"levelo://app?vid=f23235c2-e3ab-417e-b9e8-1d0ae6d124bb"},"vehicle_type_id":"4","last_reported":1701727593,"current_range_meters":31200,"station_id":"ce4bha12rcd13ifvqee0","pricing_plan_id":"free"},{"bike_id":"8845e4a2-6943-416c-ab1d-a5bfe388ae71","system_id":"levelo_inurba_marseille","lat":43.29041,"lon":5.399634,"is_reserved":false,"is_disabled":false,"rental_uris":{"android":"levelo://app?vid=8845e4a2-6943-416c-ab1d-a5bfe388ae71","ios":"levelo://app?vid=8845e4a2-6943-416c-ab1d-a5bfe388ae71"},"vehicle_type_id":"4","last_reported":1701727593,"current_range_meters":4800,"station_id":"ce4bh392rcd13ifvqdm0","pricing_plan_id":"free"},{"bike_id":"01cd0cbb-ee6a-412a-b70b-1208d0cab111","system_id":"levelo_inurba_marseille","lat":43.281044,"lon":5.378308,"is_reserved":false,"is_disabled":false,"rental_uris":{"android":"levelo://app?vid=01cd0cbb-ee6a-412a-b70b-1208d0cab111","ios":"levelo://app?vid=01cd0cbb-ee6a-412a-b70b-1208d0cab111"},"vehicle_type_id":"4","last_reported":1701727593,"current_range_meters":22400,"station_id":"ce4bha12rcd13ifvqee0","pricing_plan_id":"free"},{"bike_id":"057c79a0-eb7d-4580-8105-f6f62e67596c","system_id":"levelo_inurba_marseille","lat":43.29041,"lon":5.399634,"is_reserved":false,"is_disabled":false,"rental_uris":{"android":"levelo://app?vid=057c79a0-eb7d-4580-8105-f6f62e67596c","ios":"levelo://app?vid=057c79a0-eb7d-4580-8105-f6f62e67596c"},"vehicle_type_id":"4","last_reported":1701727593,"current_range_meters":16400,"station_id":"ce4bh392rcd13ifvqdm0","pricing_plan_id":"free"},{"bike_id":"c7272a63-85be-42a0-8a5a-05fe95cb8e00","system_id":"levelo_inurba_marseille","lat":43.281044,"lon":5.378308,"is_reserved":false,"is_disabled":false,"rental_uris":{"android":"levelo://app?vid=c7272a63-85be-42a0-8a5a-05fe95cb8e00","ios":"levelo://app?vid=c7272a63-85be-42a0-8a5a-05fe95cb8e00"},"vehicle_type_id":"4","last_reported":1701727593,"current_range_meters":25200,"station_id":"ce4bha12rcd13ifvqee0","pricing_plan_id":"free"},{"bike_id":"eafc9053-2555-4229-962c-9943b31b9017","system_id":"levelo_inurba_marseille","lat":43.290412,"lon":5.399633,"is_reserved":false,"is_disabled":false,"rental_uris":{"android":"levelo://app?vid=eafc9053-2555-4229-962c-9943b31b9017","ios":"levelo://app?vid=eafc9053-2555-4229-962c-9943b31b9017"},"vehicle_type_id":"4","last_reported":1701727593,"current_range_meters":28800,"station_id":"ce4bh392rcd13ifvqdm0","pricing_plan_id":"free"},{"bike_id":"03abf90b-e319-4f6f-b30a-09e8216c98fa","system_id":"levelo_inurba_marseille","lat":43.281044,"lon":5.378308,"is_reserved":false,"is_disabled":false,"rental_uris":{"android":"levelo://app?vid=03abf90b-e319-4f6f-b30a-09e8216c98fa","ios":"levelo://app?vid=03abf90b-e319-4f6f-b30a-09e8216c98fa"},"vehicle_type_id":"4","last_reported":1701727593,"current_range_meters":12400,"station_id":"ce4bha12rcd13ifvqee0","pricing_plan_id":"free"},{"bike_id":"6cf8fb24-7039-41a7-9b93-67f1b1f5c672","system_id":"levelo_inurba_marseille","lat":43.296263,"lon":5.40601,"is_reserved":false,"is_disabled":false,"rental_uris":{"android":"levelo://app?vid=6cf8fb24-7039-41a7-9b93-67f1b1f5c672","ios":"levelo://app?vid=6cf8fb24-7039-41a7-9b93-67f1b1f5c672"},"vehicle_type_id":"4","last_reported":1701727593,"current_range_meters":13600,"station_id":"ce4bh0h2rcd13ifvqd60","pricing_plan_id":"free"},{"bike_id":"825e2c74-eca6-4f89-b747-bb99e398849e","system_id":"levelo_inurba_marseille","lat":43.281044,"lon":5.378308,"is_reserved":false,"is_disabled":false,"rental_uris":{"android":"levelo://app?vid=825e2c74-eca6-4f89-b747-bb99e398849e","ios":"levelo://app?vid=825e2c74-eca6-4f89-b747-bb99e398849e"},"vehicle_type_id":"4","last_reported":1701727593,"current_range_meters":13600,"station_id":"ce4bha12rcd13ifvqee0","pricing_plan_id":"free"},{"bike_id":"3ed6cd63-fb09-4187-aa99-27f59a66ef12","system_id":"levelo_inurba_marseille","lat":43.296263,"lon":5.40601,"is_reserved":false,"is_disabled":false,"rental_uris":{"android":"levelo://app?vid=3ed6cd63-fb09-4187-aa99-27f59a66ef12","ios":"levelo://app?vid=3ed6cd63-fb09-4187-aa99-27f59a66ef12"},"vehicle_type_id":"4","last_reported":1701727593,"current_range_meters":26400,"station_id":"ce4bh0h2rcd13ifvqd60","pricing_plan_id":"free"},{"bike_id":"ae800d28-e3ee-47b8-8a37-cdf7e5e517a7","system_id":"levelo_inurba_marseille","lat":43.281044,"lon":5.378308,"is_reserved":false,"is_disabled":false,"rental_uris":{"android":"levelo://app?vid=ae800d28-e3ee-47b8-8a37-cdf7e5e517a7","ios":"levelo://app?vid=ae800d28-e3ee-47b8-8a37-cdf7e5e517a7"},"vehicle_type_id":"4","last_reported":1701727593,"current_range_meters":31600,"station_id":"ce4bha12rcd13ifvqee0","pricing_plan_id":"free"},{"bike_id":"44cfc62b-232e-4d7d-aa55-798eaa87c981","system_id":"levelo_inurba_marseille","lat":43.281,"lon":5.37848,"is_reserved":false,"is_disabled":false,"rental_uris":{"android":"levelo://app?vid=44cfc62b-232e-4d7d-aa55-798eaa87c981","ios":"levelo://app?vid=44cfc62b-232e-4d7d-aa55-798eaa87c981"},"vehicle_type_id":"4","last_reported":1701727593,"current_range_meters":0,"station_id":"ce4bha12rcd13ifvqee0","pricing_plan_id":"free"},{"bike_id":"9312401b-eaa6-46a2-88f2-33f35fffb341","system_id":"levelo_inurba_marseille","lat":43.296263,"lon":5.40601,"is_reserved":false,"is_disabled":false,"rental_uris":{"android":"levelo://app?vid=9312401b-eaa6-46a2-88f2-33f35fffb341","ios":"levelo://app?vid=9312401b-eaa6-46a2-88f2-33f35fffb341"},"vehicle_type_id":"4","last_reported":1701727593,"current_range_meters":29600,"station_id":"ce4bh0h2rcd13ifvqd60","pricing_plan_id":"free"},{"bike_id":"fc11a931-1ca4-484c-9cab-159de4e4fdc9","system_id":"levelo_inurba_marseille","lat":43.284462,"lon":5.392121,"is_reserved":false,"is_disabled":false,"rental_uris":{"android":"levelo://app?vid=fc11a931-1ca4-484c-9cab-159de4e4fdc9","ios":"levelo://app?vid=fc11a931-1ca4-484c-9cab-159de4e4fdc9"},"vehicle_type_id":"4","last_reported":1701727593,"current_range_meters":30000,"station_id":"ce4bhoh2rcd13ifvqh5g","pricing_plan_id":"free"},{"bike_id":"e5b3d878-4d19-47ec-994a-ec39745188fd","system_id":"levelo_inurba_marseille","lat":43.28573,"lon":5.394992,"is_reserved":false,"is_disabled":false,"rental_uris":{"android":"levelo://app?vid=e5b3d878-4d19-47ec-994a-ec39745188fd","ios":"levelo://app?vid=e5b3d878-4d19-47ec-994a-ec39745188fd"},"vehicle_type_id":"4","last_reported":1701727593,"current_range_meters":24000,"station_id":"ce4bh292rcd13ifvqdg0","pricing_plan_id":"free"},{"bike_id":"f71c3e4b-56cc-4b56-8ba6-eea098969b60","system_id":"levelo_inurba_marseille","lat":43.326605,"lon":5.409903,"is_reserved":false,"is_disabled":false,"rental_uris":{"android":"levelo://app?vid=f71c3e4b-56cc-4b56-8ba6-eea098969b60","ios":"levelo://app?vid=f71c3e4b-56cc-4b56-8ba6-eea098969b60"},"vehicle_type_id":"4","last_reported":1701727593,"current_range_meters":26400,"station_id":"ce4bhpp2rcd13ifvqhgg","pricing_plan_id":"free"},{"bike_id":"a80ed89f-3589-45cf-80ca-3459072dfb32","system_id":"levelo_inurba_marseille","lat":43.304188,"lon":5.412904,"is_reserved":false,"is_disabled":false,"rental_uris":{"android":"levelo://app?vid=a80ed89f-3589-45cf-80ca-3459072dfb32","ios":"levelo://app?vid=a80ed89f-3589-45cf-80ca-3459072dfb32"},"vehicle_type_id":"4","last_reported":1701727593,"current_range_meters":24400,"station_id":"ce4bhop2rcd13ifvqh8g","pricing_plan_id":"free"},{"bike_id":"bd21c7ec-215f-4653-bafe-20f78ed8cf64","system_id":"levelo_inurba_marseille","lat":43.304188,"lon":5.412904,"is_reserved":false,"is_disabled":false,"rental_uris":{"android":"levelo://app?vid=bd21c7ec-215f-4653-bafe-20f78ed8cf64","ios":"levelo://app?vid=bd21c7ec-215f-4653-bafe-20f78ed8cf64"},"vehicle_type_id":"4","last_reported":1701727593,"current_range_meters":25600,"station_id":"ce4bhop2rcd13ifvqh8g","pricing_plan_id":"free"},{"bike_id":"d8beca11-8afb-495c-bcdc-d9740b7c9990","system_id":"levelo_inurba_marseille","lat":43.279087,"lon":5.380114,"is_reserved":false,"is_disabled":false,"rental_uris":{"android":"levelo://app?vid=d8beca11-8afb-495c-bcdc-d9740b7c9990","ios":"levelo://app?vid=d8beca11-8afb-495c-bcdc-d9740b7c9990"},"vehicle_type_id":"4","last_reported":1701727593,"current_range_meters":24800,"station_id":"ce4bhf92rcd13ifvqf50","pricing_plan_id":"free"},{"bike_id":"bd30cb65-1e0f-400d-99f2-56529aa71895","system_id":"levelo_inurba_marseille","lat":43.279087,"lon":5.380114,"is_reserved":false,"is_disabled":false,"rental_uris":{"android":"levelo://app?vid=bd30cb65-1e0f-400d-99f2-56529aa71895","ios":"levelo://app?vid=bd30cb65-1e0f-400d-99f2-56529aa71895"},"vehicle_type_id":"4","last_reported":1701727593,"current_range_meters":27200,"station_id":"ce4bhf92rcd13ifvqf50","pricing_plan_id":"free"},{"bike_id":"4fb6dafa-08fe-43a8-bd2c-4b877a7e489f","system_id":"levelo_inurba_marseille","lat":43.287154,"lon":5.399979,"is_reserved":false,"is_disabled":false,"rental_uris":{"android":"levelo://app?vid=4fb6dafa-08fe-43a8-bd2c-4b877a7e489f","ios":"levelo://app?vid=4fb6dafa-08fe-43a8-bd2c-4b877a7e489f"},"vehicle_type_id":"4","last_reported":1701727593,"current_range_meters":22400,"station_id":"ce4bho92rcd13ifvqh3g","pricing_plan_id":"free"},{"bike_id":"bfe58320-f079-4449-bbf5-a01627491005","system_id":"levelo_inurba_marseille","lat":43.287154,"lon":5.399979,"is_reserved":false,"is_disabled":false,"rental_uris":{"android":"levelo://app?vid=bfe58320-f079-4449-bbf5-a01627491005","ios":"levelo://app?vid=bfe58320-f079-4449-bbf5-a01627491005"},"vehicle_type_id":"4","last_reported":1701727593,"current_range_meters":26400,"station_id":"ce4bho92rcd13ifvqh3g","pricing_plan_id":"free"},{"bike_id":"6818f081-7f0d-4004-8f7d-fbbd5cf2e221","system_id":"levelo_inurba_marseille","lat":43.292569,"lon":5.409107,"is_reserved":false,"is_disabled":false,"rental_uris":{"android":"levelo://app?vid=6818f081-7f0d-4004-8f7d-fbbd5cf2e221","ios":"levelo://app?vid=6818f081-7f0d-4004-8f7d-fbbd5cf2e221"},"vehicle_type_id":"4","last_reported":1701727593,"current_range_meters":13600,"station_id":"ce4bh192rcd13ifvqdc0","pricing_plan_id":"free"},{"bike_id":"3ea28be1-d23c-49b6-a64f-225039a206c7","system_id":"levelo_inurba_marseille","lat":43.273613,"lon":5.362705,"is_reserved":false,"is_disabled":false,"rental_uris":{"android":"levelo://app?vid=3ea28be1-d23c-49b6-a64f-225039a206c7","ios":"levelo://app?vid=3ea28be1-d23c-49b6-a64f-225039a206c7"},"vehicle_type_id":"4","last_reported":1701727593,"current_range_meters":30400,"station_id":"ce4bhbh2rcd13ifvqeo0","pricing_plan_id":"free"},{"bike_id":"1258299f-d7e4-429c-a530-9c376d622f15","system_id":"levelo_inurba_marseille","lat":43.33612,"lon":5.410321,"is_reserved":false,"is_disabled":false,"rental_uris":{"android":"levelo://app?vid=1258299f-d7e4-429c-a530-9c376d622f15","ios":"levelo://app?vid=1258299f-d7e4-429c-a530-9c376d622f15"},"vehicle_type_id":"4","last_reported":1701727593,"current_range_meters":5200,"station_id":"ce4bhqh2rcd13ifvqhmg","pricing_plan_id":"free"},{"bike_id":"faf55bbe-f5c0-4dc6-afde-2de7efdac4da","system_id":"levelo_inurba_marseille","lat":43.33612,"lon":5.410321,"is_reserved":false,"is_disabled":false,"rental_uris":{"android":"levelo://app?vid=faf55bbe-f5c0-4dc6-afde-2de7efdac4da","ios":"levelo://app?vid=faf55bbe-f5c0-4dc6-afde-2de7efdac4da"},"vehicle_type_id":"4","last_reported":1701727593,"current_range_meters":21600,"station_id":"ce4bhqh2rcd13ifvqhmg","pricing_plan_id":"free"},{"bike_id":"502feb3a-2ccb-4cfe-9d56-9e94c6b630e7","system_id":"levelo_inurba_marseille","lat":43.33612,"lon":5.410321,"is_reserved":false,"is_disabled":false,"rental_uris":{"android":"levelo://app?vid=502feb3a-2ccb-4cfe-9d56-9e94c6b630e7","ios":"levelo://app?vid=502feb3a-2ccb-4cfe-9d56-9e94c6b630e7"},"vehicle_type_id":"4","last_reported":1701727593,"current_range_meters":19200,"station_id":"ce4bhqh2rcd13ifvqhmg","pricing_plan_id":"free"},{"bike_id":"671fb5f1-2a82-4780-a5b0-30c24b7c7c9c","system_id":"levelo_inurba_marseille","lat":43.33612,"lon":5.410321,"is_reserved":false,"is_disabled":false,"rental_uris":{"android":"levelo://app?vid=671fb5f1-2a82-4780-a5b0-30c24b7c7c9c","ios":"levelo://app?vid=671fb5f1-2a82-4780-a5b0-30c24b7c7c9c"},"vehicle_type_id":"4","last_reported":1701727593,"current_range_meters":30000,"station_id":"ce4bhqh2rcd13ifvqhmg","pricing_plan_id":"free"},{"bike_id":"6dee21f9-0077-4751-a68d-f121846d4b85","system_id":"levelo_inurba_marseille","lat":43.336134,"lon":5.410341,"is_reserved":false,"is_disabled":false,"rental_uris":{"android":"levelo://app?vid=6dee21f9-0077-4751-a68d-f121846d4b85","ios":"levelo://app?vid=6dee21f9-0077-4751-a68d-f121846d4b85"},"vehicle_type_id":"4","last_reported":1701727593,"current_range_meters":12800,"station_id":"ce4bhqh2rcd13ifvqhmg","pricing_plan_id":"free"},{"bike_id":"650086f7-a4cd-447e-816d-d905cd9236c5","system_id":"levelo_inurba_marseille","lat":43.336134,"lon":5.410341,"is_reserved":false,"is_disabled":false,"rental_uris":{"android":"levelo://app?vid=650086f7-a4cd-447e-816d-d905cd9236c5","ios":"levelo://app?vid=650086f7-a4cd-447e-816d-d905cd9236c5"},"vehicle_type_id":"4","last_reported":1701727593,"current_range_meters":16400,"station_id":"ce4bhqh2rcd13ifvqhmg","pricing_plan_id":"free"},{"bike_id":"5f3f65df-c08a-48bd-9c38-56c6eb8de133","system_id":"levelo_inurba_marseille","lat":43.279975,"lon":5.40009,"is_reserved":false,"is_disabled":false,"rental_uris":{"android":"levelo://app?vid=5f3f65df-c08a-48bd-9c38-56c6eb8de133","ios":"levelo://app?vid=5f3f65df-c08a-48bd-9c38-56c6eb8de133"},"vehicle_type_id":"4","last_reported":1701727593,"current_range_meters":17200,"station_id":"ce4bho92rcd13ifvqh4g","pricing_plan_id":"free"},{"bike_id":"1cfc9c10-b769-4622-8b17-c929c7638b3b","system_id":"levelo_inurba_marseille","lat":43.279952,"lon":5.400085,"is_reserved":false,"is_disabled":false,"rental_uris":{"android":"levelo://app?vid=1cfc9c10-b769-4622-8b17-c929c7638b3b","ios":"levelo://app?vid=1cfc9c10-b769-4622-8b17-c929c7638b3b"},"vehicle_type_id":"4","last_reported":1701727593,"current_range_meters":7200,"station_id":"ce4bho92rcd13ifvqh4g","pricing_plan_id":"free"},{"bike_id":"e8996239-bac7-4ee1-815d-f1a52210aefa","system_id":"levelo_inurba_marseille","lat":43.317121,"lon":5.423936,"is_reserved":false,"is_disabled":false,"rental_uris":{"android":"levelo://app?vid=e8996239-bac7-4ee1-815d-f1a52210aefa","ios":"levelo://app?vid=e8996239-bac7-4ee1-815d-f1a52210aefa"},"vehicle_type_id":"4","last_reported":1701727593,"current_range_meters":28800,"station_id":"ce4bhp92rcd13ifvqhbg","pricing_plan_id":"free"},{"bike_id":"a3aef011-b611-4e5e-bf0b-b705e09a22b1","system_id":"levelo_inurba_marseille","lat":43.317121,"lon":5.423936,"is_reserved":false,"is_disabled":false,"rental_uris":{"android":"levelo://app?vid=a3aef011-b611-4e5e-bf0b-b705e09a22b1","ios":"levelo://app?vid=a3aef011-b611-4e5e-bf0b-b705e09a22b1"},"vehicle_type_id":"4","last_reported":1701727593,"current_range_meters":27600,"station_id":"ce4bhp92rcd13ifvqhbg","pricing_plan_id":"free"},{"bike_id":"49d03b61-ccf2-4434-94f9-b61e327e1f7c","system_id":"levelo_inurba_marseille","lat":43.317121,"lon":5.423936,"is_reserved":false,"is_disabled":false,"rental_uris":{"android":"levelo://app?vid=49d03b61-ccf2-4434-94f9-b61e327e1f7c","ios":"levelo://app?vid=49d03b61-ccf2-4434-94f9-b61e327e1f7c"},"vehicle_type_id":"4","last_reported":1701727593,"current_range_meters":25600,"station_id":"ce4bhp92rcd13ifvqhbg","pricing_plan_id":"free"},{"bike_id":"fb7b11b6-2e5c-4a6c-b668-e3de222703b6","system_id":"levelo_inurba_marseille","lat":43.310785,"lon":5.424305,"is_reserved":false,"is_disabled":false,"rental_uris":{"android":"levelo://app?vid=fb7b11b6-2e5c-4a6c-b668-e3de222703b6","ios":"levelo://app?vid=fb7b11b6-2e5c-4a6c-b668-e3de222703b6"},"vehicle_type_id":"4","last_reported":1701727593,"current_range_meters":27200,"station_id":"ce4bhp92rcd13ifvqhag","pricing_plan_id":"free"},{"bike_id":"910fd3aa-d2e0-4553-894a-6161d41c7fcd","system_id":"levelo_inurba_marseille","lat":43.27609,"lon":5.39475,"is_reserved":false,"is_disabled":false,"rental_uris":{"android":"levelo://app?vid=910fd3aa-d2e0-4553-894a-6161d41c7fcd","ios":"levelo://app?vid=910fd3aa-d2e0-4553-894a-6161d41c7fcd"},"vehicle_type_id":"4","last_reported":1701727593,"current_range_meters":8800,"station_id":"","pricing_plan_id":"free"},{"bike_id":"4f4e5d52-124e-4276-8af2-2d2503944d2e","system_id":"levelo_inurba_marseille","lat":43.340804,"lon":5.410219,"is_reserved":false,"is_disabled":false,"rental_uris":{"android":"levelo://app?vid=4f4e5d52-124e-4276-8af2-2d2503944d2e","ios":"levelo://app?vid=4f4e5d52-124e-4276-8af2-2d2503944d2e"},"vehicle_type_id":"4","last_reported":1701727593,"current_range_meters":6800,"station_id":"ce4bhqh2rcd13ifvqhlg","pricing_plan_id":"free"},{"bike_id":"55c23f66-31a6-4882-8fa6-769301f13946","system_id":"levelo_inurba_marseille","lat":43.295523,"lon":5.422926,"is_reserved":false,"is_disabled":false,"rental_uris":{"android":"levelo://app?vid=55c23f66-31a6-4882-8fa6-769301f13946","ios":"levelo://app?vid=55c23f66-31a6-4882-8fa6-769301f13946"},"vehicle_type_id":"4","last_reported":1701727593,"current_range_meters":31200,"station_id":"ce4bhph2rcd13ifvqhdg","pricing_plan_id":"free"},{"bike_id":"719c96fd-cbaf-4302-8ee1-bacd622624b7","system_id":"levelo_inurba_marseille","lat":43.295511,"lon":5.422926,"is_reserved":false,"is_disabled":false,"rental_uris":{"android":"levelo://app?vid=719c96fd-cbaf-4302-8ee1-bacd622624b7","ios":"levelo://app?vid=719c96fd-cbaf-4302-8ee1-bacd622624b7"},"vehicle_type_id":"4","last_reported":1701727593,"current_range_meters":19600,"station_id":"ce4bhph2rcd13ifvqhdg","pricing_plan_id":"free"},{"bike_id":"4d227eb7-d36a-425e-8f14-420e16d126ca","system_id":"levelo_inurba_marseille","lat":43.272068,"lon":5.392609,"is_reserved":false,"is_disabled":false,"rental_uris":{"android":"levelo://app?vid=4d227eb7-d36a-425e-8f14-420e16d126ca","ios":"levelo://app?vid=4d227eb7-d36a-425e-8f14-420e16d126ca"},"vehicle_type_id":"4","last_reported":1701727593,"current_range_meters":24400,"station_id":"","pricing_plan_id":"free"},{"bike_id":"e9556114-db65-4d9b-9e5f-f0337ad415a0","system_id":"levelo_inurba_marseille","lat":43.278128,"lon":5.407195,"is_reserved":false,"is_disabled":false,"rental_uris":{"android":"levelo://app?vid=e9556114-db65-4d9b-9e5f-f0337ad415a0","ios":"levelo://app?vid=e9556114-db65-4d9b-9e5f-f0337ad415a0"},"vehicle_type_id":"4","last_reported":1701727593,"current_range_meters":21600,"station_id":"ce4bhnh2rcd13ifvqgtg","pricing_plan_id":"free"},{"bike_id":"f6c9747c-d603-4edd-bae6-504ef60d0756","system_id":"levelo_inurba_marseille","lat":43.278128,"lon":5.407195,"is_reserved":false,"is_disabled":false,"rental_uris":{"android":"levelo://app?vid=f6c9747c-d603-4edd-bae6-504ef60d0756","ios":"levelo://app?vid=f6c9747c-d603-4edd-bae6-504ef60d0756"},"vehicle_type_id":"4","last_reported":1701727593,"current_range_meters":18000,"station_id":"ce4bhnh2rcd13ifvqgtg","pricing_plan_id":"free"},{"bike_id":"1212c2c1-349b-4da8-a22b-a470229a9b19","system_id":"levelo_inurba_marseille","lat":43.27809,"lon":5.40701,"is_reserved":false,"is_disabled":false,"rental_uris":{"android":"levelo://app?vid=1212c2c1-349b-4da8-a22b-a470229a9b19","ios":"levelo://app?vid=1212c2c1-349b-4da8-a22b-a470229a9b19"},"vehicle_type_id":"4","last_reported":1701727593,"current_range_meters":6000,"station_id":"ce4bhnh2rcd13ifvqgtg","pricing_plan_id":"free"},{"bike_id":"3318d069-295b-4dfa-b9fb-69de068c2dae","system_id":"levelo_inurba_marseille","lat":43.278098,"lon":5.407061,"is_reserved":false,"is_disabled":false,"rental_uris":{"android":"levelo://app?vid=3318d069-295b-4dfa-b9fb-69de068c2dae","ios":"levelo://app?vid=3318d069-295b-4dfa-b9fb-69de068c2dae"},"vehicle_type_id":"4","last_reported":1701727593,"current_range_meters":6000,"station_id":"ce4bhnh2rcd13ifvqgtg","pricing_plan_id":"free"},{"bike_id":"903cfa4a-32ee-4a67-9af2-578aaa00edb8","system_id":"levelo_inurba_marseille","lat":43.27809,"lon":5.40706,"is_reserved":false,"is_disabled":false,"rental_uris":{"android":"levelo://app?vid=903cfa4a-32ee-4a67-9af2-578aaa00edb8","ios":"levelo://app?vid=903cfa4a-32ee-4a67-9af2-578aaa00edb8"},"vehicle_type_id":"4","last_reported":1701727593,"current_range_meters":1600,"station_id":"ce4bhnh2rcd13ifvqgtg","pricing_plan_id":"free"},{"bike_id":"77e1b16a-b057-42f0-940a-e4f493319ff3","system_id":"levelo_inurba_marseille","lat":43.2781,"lon":5.40709,"is_reserved":false,"is_disabled":false,"rental_uris":{"android":"levelo://app?vid=77e1b16a-b057-42f0-940a-e4f493319ff3","ios":"levelo://app?vid=77e1b16a-b057-42f0-940a-e4f493319ff3"},"vehicle_type_id":"4","last_reported":1701727593,"current_range_meters":3600,"station_id":"ce4bhnh2rcd13ifvqgtg","pricing_plan_id":"free"},{"bike_id":"1b586783-2eae-41cc-93f3-6538647f14b8","system_id":"levelo_inurba_marseille","lat":43.27813,"lon":5.40714,"is_reserved":false,"is_disabled":false,"rental_uris":{"android":"levelo://app?vid=1b586783-2eae-41cc-93f3-6538647f14b8","ios":"levelo://app?vid=1b586783-2eae-41cc-93f3-6538647f14b8"},"vehicle_type_id":"4","last_reported":1701727593,"current_range_meters":6800,"station_id":"ce4bhnh2rcd13ifvqgtg","pricing_plan_id":"free"},{"bike_id":"ab645f70-277b-4165-b4a1-4af3a3587654","system_id":"levelo_inurba_marseille","lat":43.27945,"lon":5.41035,"is_reserved":false,"is_disabled":false,"rental_uris":{"android":"levelo://app?vid=ab645f70-277b-4165-b4a1-4af3a3587654","ios":"levelo://app?vid=ab645f70-277b-4165-b4a1-4af3a3587654"},"vehicle_type_id":"4","last_reported":1701727593,"current_range_meters":4000,"station_id":"ce4bhnp2rcd13ifvqh0g","pricing_plan_id":"free"},{"bike_id":"a9b3236d-7277-490f-ac03-6038f514ca34","system_id":"levelo_inurba_marseille","lat":43.279465,"lon":5.410561,"is_reserved":false,"is_disabled":false,"rental_uris":{"android":"levelo://app?vid=a9b3236d-7277-490f-ac03-6038f514ca34","ios":"levelo://app?vid=a9b3236d-7277-490f-ac03-6038f514ca34"},"vehicle_type_id":"4","last_reported":1701727593,"current_range_meters":30400,"station_id":"ce4bhnp2rcd13ifvqh0g","pricing_plan_id":"free"},{"bike_id":"cef6297d-6212-4387-90e7-cdfdddd287f3","system_id":"levelo_inurba_marseille","lat":43.281044,"lon":5.378308,"is_reserved":false,"is_disabled":false,"rental_uris":{"android":"levelo://app?vid=cef6297d-6212-4387-90e7-cdfdddd287f3","ios":"levelo://app?vid=cef6297d-6212-4387-90e7-cdfdddd287f3"},"vehicle_type_id":"4","last_reported":1701727593,"current_range_meters":9600,"station_id":"ce4bha12rcd13ifvqee0","pricing_plan_id":"free"},{"bike_id":"463f52ce-c4f1-4b4c-9c46-e985dad7875f","system_id":"levelo_inurba_marseille","lat":43.269319,"lon":5.389397,"is_reserved":false,"is_disabled":false,"rental_uris":{"android":"levelo://app?vid=463f52ce-c4f1-4b4c-9c46-e985dad7875f","ios":"levelo://app?vid=463f52ce-c4f1-4b4c-9c46-e985dad7875f"},"vehicle_type_id":"4","last_reported":1701727593,"current_range_meters":12400,"station_id":"ce4bhhh2rcd13ifvqfl0","pricing_plan_id":"free"},{"bike_id":"492877f8-6ffd-4a1f-8092-39c6171a829a","system_id":"levelo_inurba_marseille","lat":43.26681,"lon":5.382694,"is_reserved":false,"is_disabled":false,"rental_uris":{"android":"levelo://app?vid=492877f8-6ffd-4a1f-8092-39c6171a829a","ios":"levelo://app?vid=492877f8-6ffd-4a1f-8092-39c6171a829a"},"vehicle_type_id":"4","last_reported":1701727593,"current_range_meters":3200,"station_id":"ce4bhg92rcd13ifvqf90","pricing_plan_id":"free"},{"bike_id":"e96163bb-9d57-4e99-bb5e-bca5afccddbb","system_id":"levelo_inurba_marseille","lat":43.27996,"lon":5.416624,"is_reserved":false,"is_disabled":false,"rental_uris":{"android":"levelo://app?vid=e96163bb-9d57-4e99-bb5e-bca5afccddbb","ios":"levelo://app?vid=e96163bb-9d57-4e99-bb5e-bca5afccddbb"},"vehicle_type_id":"4","last_reported":1701727593,"current_range_meters":28400,"station_id":"ce4bho12rcd13ifvqh1g","pricing_plan_id":"free"},{"bike_id":"32a86bae-1ca0-4804-a6e8-23f8d711720a","system_id":"levelo_inurba_marseille","lat":43.267966,"lon":5.393976,"is_reserved":false,"is_disabled":false,"rental_uris":{"android":"levelo://app?vid=32a86bae-1ca0-4804-a6e8-23f8d711720a","ios":"levelo://app?vid=32a86bae-1ca0-4804-a6e8-23f8d711720a"},"vehicle_type_id":"4","last_reported":1701727593,"current_range_meters":18000,"station_id":"ce4bhh12rcd13ifvqfg0","pricing_plan_id":"free"},{"bike_id":"c603ebe0-7bba-4739-9538-1f0044e728ca","system_id":"levelo_inurba_marseille","lat":43.31712,"lon":5.43709,"is_reserved":false,"is_disabled":false,"rental_uris":{"android":"levelo://app?vid=c603ebe0-7bba-4739-9538-1f0044e728ca","ios":"levelo://app?vid=c603ebe0-7bba-4739-9538-1f0044e728ca"},"vehicle_type_id":"4","last_reported":1701727593,"current_range_meters":26400,"station_id":"ce4bhp92rcd13ifvqhcg","pricing_plan_id":"free"},{"bike_id":"9bb2ab38-b524-43ce-80c2-4441064383e4","system_id":"levelo_inurba_marseille","lat":43.27178,"lon":5.40984,"is_reserved":false,"is_disabled":false,"rental_uris":{"android":"levelo://app?vid=9bb2ab38-b524-43ce-80c2-4441064383e4","ios":"levelo://app?vid=9bb2ab38-b524-43ce-80c2-4441064383e4"},"vehicle_type_id":"4","last_reported":1701727593,"current_range_meters":29200,"station_id":"ce4bhl12rcd13ifvqgf0","pricing_plan_id":"free"},{"bike_id":"a959e5e9-fa4a-46b4-861f-df429abd67e0","system_id":"levelo_inurba_marseille","lat":43.271802,"lon":5.409926,"is_reserved":false,"is_disabled":false,"rental_uris":{"android":"levelo://app?vid=a959e5e9-fa4a-46b4-861f-df429abd67e0","ios":"levelo://app?vid=a959e5e9-fa4a-46b4-861f-df429abd67e0"},"vehicle_type_id":"4","last_reported":1701727593,"current_range_meters":23600,"station_id":"ce4bhl12rcd13ifvqgf0","pricing_plan_id":"free"},{"bike_id":"1074b912-6888-48a3-a725-7daee73d6728","system_id":"levelo_inurba_marseille","lat":43.27177,"lon":5.4099,"is_reserved":false,"is_disabled":false,"rental_uris":{"android":"levelo://app?vid=1074b912-6888-48a3-a725-7daee73d6728","ios":"levelo://app?vid=1074b912-6888-48a3-a725-7daee73d6728"},"vehicle_type_id":"4","last_reported":1701727593,"current_range_meters":18800,"station_id":"ce4bhl12rcd13ifvqgf0","pricing_plan_id":"free"},{"bike_id":"cb6b1f8a-ba93-46a0-9d9a-9b060df04760","system_id":"levelo_inurba_marseille","lat":43.267959,"lon":5.402687,"is_reserved":false,"is_disabled":false,"rental_uris":{"android":"levelo://app?vid=cb6b1f8a-ba93-46a0-9d9a-9b060df04760","ios":"levelo://app?vid=cb6b1f8a-ba93-46a0-9d9a-9b060df04760"},"vehicle_type_id":"4","last_reported":1701727593,"current_range_meters":12400,"station_id":"ce501612rcd8frsf0b60","pricing_plan_id":"free"},{"bike_id":"21696287-8bc6-493f-a856-ae98911f37d3","system_id":"levelo_inurba_marseille","lat":43.298768,"lon":5.43643,"is_reserved":false,"is_disabled":false,"rental_uris":{"android":"levelo://app?vid=21696287-8bc6-493f-a856-ae98911f37d3","ios":"levelo://app?vid=21696287-8bc6-493f-a856-ae98911f37d3"},"vehicle_type_id":"4","last_reported":1701727593,"current_range_meters":26800,"station_id":"ce4bhpp2rcd13ifvqhfg","pricing_plan_id":"free"},{"bike_id":"23e5ff1f-b20a-4b96-950d-fd6efb151d76","system_id":"levelo_inurba_marseille","lat":43.27069,"lon":5.42269,"is_reserved":false,"is_disabled":false,"rental_uris":{"android":"levelo://app?vid=23e5ff1f-b20a-4b96-950d-fd6efb151d76","ios":"levelo://app?vid=23e5ff1f-b20a-4b96-950d-fd6efb151d76"},"vehicle_type_id":"4","last_reported":1701727593,"current_range_meters":17200,"station_id":"ce4bhk92rcd13ifvqgb0","pricing_plan_id":"free"},{"bike_id":"b5302ae3-478a-4b1b-9641-4a725a9f0de3","system_id":"levelo_inurba_marseille","lat":43.270721,"lon":5.422764,"is_reserved":false,"is_disabled":false,"rental_uris":{"android":"levelo://app?vid=b5302ae3-478a-4b1b-9641-4a725a9f0de3","ios":"levelo://app?vid=b5302ae3-478a-4b1b-9641-4a725a9f0de3"},"vehicle_type_id":"4","last_reported":1701727593,"current_range_meters":27600,"station_id":"ce4bhk92rcd13ifvqgb0","pricing_plan_id":"free"},{"bike_id":"f3f584f6-d1cf-42d5-930f-0d2ec3d902f5","system_id":"levelo_inurba_marseille","lat":43.27066,"lon":5.42276,"is_reserved":false,"is_disabled":false,"rental_uris":{"android":"levelo://app?vid=f3f584f6-d1cf-42d5-930f-0d2ec3d902f5","ios":"levelo://app?vid=f3f584f6-d1cf-42d5-930f-0d2ec3d902f5"},"vehicle_type_id":"4","last_reported":1701727593,"current_range_meters":26400,"station_id":"ce4bhk92rcd13ifvqgb0","pricing_plan_id":"free"},{"bike_id":"d042c477-043a-4299-969a-9242c77c5144","system_id":"levelo_inurba_marseille","lat":43.258658,"lon":5.398935,"is_reserved":false,"is_disabled":false,"rental_uris":{"android":"levelo://app?vid=d042c477-043a-4299-969a-9242c77c5144","ios":"levelo://app?vid=d042c477-043a-4299-969a-9242c77c5144"},"vehicle_type_id":"4","last_reported":1701727593,"current_range_meters":26800,"station_id":"ce4bhl92rcd13ifvqghg","pricing_plan_id":"free"},{"bike_id":"01034a8f-e737-4887-80f7-ed7c6fbdb149","system_id":"levelo_inurba_marseille","lat":43.250009,"lon":5.389195,"is_reserved":false,"is_disabled":false,"rental_uris":{"android":"levelo://app?vid=01034a8f-e737-4887-80f7-ed7c6fbdb149","ios":"levelo://app?vid=01034a8f-e737-4887-80f7-ed7c6fbdb149"},"vehicle_type_id":"4","last_reported":1701727593,"current_range_meters":26800,"station_id":"ce4bhgp2rcd13ifvqfd0","pricing_plan_id":"free"},{"bike_id":"fbf4d356-d4bd-493c-9171-b23e8af8b26d","system_id":"levelo_inurba_marseille","lat":43.250009,"lon":5.389195,"is_reserved":false,"is_disabled":false,"rental_uris":{"android":"levelo://app?vid=fbf4d356-d4bd-493c-9171-b23e8af8b26d","ios":"levelo://app?vid=fbf4d356-d4bd-493c-9171-b23e8af8b26d"},"vehicle_type_id":"4","last_reported":1701727593,"current_range_meters":23600,"station_id":"ce4bhgp2rcd13ifvqfd0","pricing_plan_id":"free"},{"bike_id":"a1f07619-1579-4fdb-9037-c01741dff529","system_id":"levelo_inurba_marseille","lat":43.25088,"lon":5.395247,"is_reserved":false,"is_disabled":false,"rental_uris":{"android":"levelo://app?vid=a1f07619-1579-4fdb-9037-c01741dff529","ios":"levelo://app?vid=a1f07619-1579-4fdb-9037-c01741dff529"},"vehicle_type_id":"4","last_reported":1701727593,"current_range_meters":0,"station_id":"ce4bhm12rcd13ifvqgkg","pricing_plan_id":"free"},{"bike_id":"11cd32e7-517b-49d8-95fd-bdc2fe3ba685","system_id":"levelo_inurba_marseille","lat":43.250803,"lon":5.395159,"is_reserved":false,"is_disabled":false,"rental_uris":{"android":"levelo://app?vid=11cd32e7-517b-49d8-95fd-bdc2fe3ba685","ios":"levelo://app?vid=11cd32e7-517b-49d8-95fd-bdc2fe3ba685"},"vehicle_type_id":"4","last_reported":1701727593,"current_range_meters":17600,"station_id":"ce4bhm12rcd13ifvqgkg","pricing_plan_id":"free"},{"bike_id":"20c85448-d10f-403e-86be-a89151db2b3c","system_id":"levelo_inurba_marseille","lat":43.24693,"lon":5.382096,"is_reserved":false,"is_disabled":false,"rental_uris":{"android":"levelo://app?vid=20c85448-d10f-403e-86be-a89151db2b3c","ios":"levelo://app?vid=20c85448-d10f-403e-86be-a89151db2b3c"},"vehicle_type_id":"4","last_reported":1701727593,"current_range_meters":30000,"station_id":"ce4bhih2rcd13ifvqfr0","pricing_plan_id":"free"},{"bike_id":"573ba776-2bb8-4ff6-9549-4ede0468314d","system_id":"levelo_inurba_marseille","lat":43.24693,"lon":5.382096,"is_reserved":false,"is_disabled":false,"rental_uris":{"android":"levelo://app?vid=573ba776-2bb8-4ff6-9549-4ede0468314d","ios":"levelo://app?vid=573ba776-2bb8-4ff6-9549-4ede0468314d"},"vehicle_type_id":"4","last_reported":1701727593,"current_range_meters":30400,"station_id":"ce4bhih2rcd13ifvqfr0","pricing_plan_id":"free"},{"bike_id":"3606662b-c95b-47e0-b40c-2840c6331fb6","system_id":"levelo_inurba_marseille","lat":43.25102,"lon":5.403214,"is_reserved":false,"is_disabled":false,"rental_uris":{"android":"levelo://app?vid=3606662b-c95b-47e0-b40c-2840c6331fb6","ios":"levelo://app?vid=3606662b-c95b-47e0-b40c-2840c6331fb6"},"vehicle_type_id":"4","last_reported":1701727593,"current_range_meters":3600,"station_id":"ce4bhlh2rcd13ifvqgig","pricing_plan_id":"free"},{"bike_id":"a08ecca1-ef8c-45bc-8d30-601c087c218d","system_id":"levelo_inurba_marseille","lat":43.25102,"lon":5.403214,"is_reserved":false,"is_disabled":false,"rental_uris":{"android":"levelo://app?vid=a08ecca1-ef8c-45bc-8d30-601c087c218d","ios":"levelo://app?vid=a08ecca1-ef8c-45bc-8d30-601c087c218d"},"vehicle_type_id":"4","last_reported":1701727593,"current_range_meters":1200,"station_id":"ce4bhlh2rcd13ifvqgig","pricing_plan_id":"free"},{"bike_id":"6b0a7c82-1089-4eee-817c-ffe8ce2df2dc","system_id":"levelo_inurba_marseille","lat":43.25109,"lon":5.40326,"is_reserved":false,"is_disabled":false,"rental_uris":{"android":"levelo://app?vid=6b0a7c82-1089-4eee-817c-ffe8ce2df2dc","ios":"levelo://app?vid=6b0a7c82-1089-4eee-817c-ffe8ce2df2dc"},"vehicle_type_id":"4","last_reported":1701727593,"current_range_meters":0,"station_id":"ce4bhlh2rcd13ifvqgig","pricing_plan_id":"free"},{"bike_id":"fab15115-d972-4f82-9867-bc84399b6055","system_id":"levelo_inurba_marseille","lat":43.25102,"lon":5.403214,"is_reserved":false,"is_disabled":false,"rental_uris":{"android":"levelo://app?vid=fab15115-d972-4f82-9867-bc84399b6055","ios":"levelo://app?vid=fab15115-d972-4f82-9867-bc84399b6055"},"vehicle_type_id":"4","last_reported":1701727593,"current_range_meters":12800,"station_id":"ce4bhlh2rcd13ifvqgig","pricing_plan_id":"free"},{"bike_id":"fc925304-b6cf-4279-8293-371e4ab3436d","system_id":"levelo_inurba_marseille","lat":43.25102,"lon":5.403214,"is_reserved":false,"is_disabled":false,"rental_uris":{"android":"levelo://app?vid=fc925304-b6cf-4279-8293-371e4ab3436d","ios":"levelo://app?vid=fc925304-b6cf-4279-8293-371e4ab3436d"},"vehicle_type_id":"4","last_reported":1701727593,"current_range_meters":31200,"station_id":"ce4bhlh2rcd13ifvqgig","pricing_plan_id":"free"},{"bike_id":"075c5af7-8a66-44a0-ae30-a6b648947e96","system_id":"levelo_inurba_marseille","lat":43.246461,"lon":5.389014,"is_reserved":false,"is_disabled":false,"rental_uris":{"android":"levelo://app?vid=075c5af7-8a66-44a0-ae30-a6b648947e96","ios":"levelo://app?vid=075c5af7-8a66-44a0-ae30-a6b648947e96"},"vehicle_type_id":"4","last_reported":1701727593,"current_range_meters":30800,"station_id":"ce4bhg12rcd13ifvqf60","pricing_plan_id":"free"},{"bike_id":"c712a2b9-b1c7-48ca-a7b7-72d23ebbe56f","system_id":"levelo_inurba_marseille","lat":43.246461,"lon":5.389014,"is_reserved":false,"is_disabled":false,"rental_uris":{"android":"levelo://app?vid=c712a2b9-b1c7-48ca-a7b7-72d23ebbe56f","ios":"levelo://app?vid=c712a2b9-b1c7-48ca-a7b7-72d23ebbe56f"},"vehicle_type_id":"4","last_reported":1701727593,"current_range_meters":30000,"station_id":"ce4bhg12rcd13ifvqf60","pricing_plan_id":"free"},{"bike_id":"a1c0e568-b494-4bf3-ae03-9682d2653665","system_id":"levelo_inurba_marseille","lat":43.246461,"lon":5.389014,"is_reserved":false,"is_disabled":false,"rental_uris":{"android":"levelo://app?vid=a1c0e568-b494-4bf3-ae03-9682d2653665","ios":"levelo://app?vid=a1c0e568-b494-4bf3-ae03-9682d2653665"},"vehicle_type_id":"4","last_reported":1701727593,"current_range_meters":13200,"station_id":"ce4bhg12rcd13ifvqf60","pricing_plan_id":"free"},{"bike_id":"7ec16487-cc72-4870-a286-56d3e3b45a04","system_id":"levelo_inurba_marseille","lat":43.245581,"lon":5.395069,"is_reserved":false,"is_disabled":false,"rental_uris":{"android":"levelo://app?vid=7ec16487-cc72-4870-a286-56d3e3b45a04","ios":"levelo://app?vid=7ec16487-cc72-4870-a286-56d3e3b45a04"},"vehicle_type_id":"4","last_reported":1701727593,"current_range_meters":12800,"station_id":"ce4bhlp2rcd13ifvqgjg","pricing_plan_id":"free"},{"bike_id":"8af28d66-daba-47c3-af30-7e896a5300de","system_id":"levelo_inurba_marseille","lat":43.245581,"lon":5.395069,"is_reserved":false,"is_disabled":false,"rental_uris":{"android":"levelo://app?vid=8af28d66-daba-47c3-af30-7e896a5300de","ios":"levelo://app?vid=8af28d66-daba-47c3-af30-7e896a5300de"},"vehicle_type_id":"4","last_reported":1701727593,"current_range_meters":29600,"station_id":"ce4bhlp2rcd13ifvqgjg","pricing_plan_id":"free"},{"bike_id":"ee8de862-9d88-45bb-b1d6-aff082bc930d","system_id":"levelo_inurba_marseille","lat":43.24074,"lon":5.37754,"is_reserved":false,"is_disabled":false,"rental_uris":{"android":"levelo://app?vid=ee8de862-9d88-45bb-b1d6-aff082bc930d","ios":"levelo://app?vid=ee8de862-9d88-45bb-b1d6-aff082bc930d"},"vehicle_type_id":"4","last_reported":1701727593,"current_range_meters":10000,"station_id":"ce4bhnp2rcd13ifvqgvg","pricing_plan_id":"free"},{"bike_id":"de2621b1-4c55-4796-8bac-dc8cce74672b","system_id":"levelo_inurba_marseille","lat":43.240623,"lon":5.377642,"is_reserved":false,"is_disabled":false,"rental_uris":{"android":"levelo://app?vid=de2621b1-4c55-4796-8bac-dc8cce74672b","ios":"levelo://app?vid=de2621b1-4c55-4796-8bac-dc8cce74672b"},"vehicle_type_id":"4","last_reported":1701727593,"current_range_meters":28400,"station_id":"ce4bhnp2rcd13ifvqgvg","pricing_plan_id":"free"},{"bike_id":"af051b45-0d26-4307-9a54-968ef6a25caa","system_id":"levelo_inurba_marseille","lat":43.24069,"lon":5.37762,"is_reserved":false,"is_disabled":false,"rental_uris":{"android":"levelo://app?vid=af051b45-0d26-4307-9a54-968ef6a25caa","ios":"levelo://app?vid=af051b45-0d26-4307-9a54-968ef6a25caa"},"vehicle_type_id":"4","last_reported":1701727593,"current_range_meters":14800,"station_id":"ce4bhnp2rcd13ifvqgvg","pricing_plan_id":"free"},{"bike_id":"7ffa733d-3283-44cf-bc6c-8873f0729d27","system_id":"levelo_inurba_marseille","lat":43.240623,"lon":5.377642,"is_reserved":false,"is_disabled":false,"rental_uris":{"android":"levelo://app?vid=7ffa733d-3283-44cf-bc6c-8873f0729d27","ios":"levelo://app?vid=7ffa733d-3283-44cf-bc6c-8873f0729d27"},"vehicle_type_id":"4","last_reported":1701727593,"current_range_meters":31200,"station_id":"ce4bhnp2rcd13ifvqgvg","pricing_plan_id":"free"},{"bike_id":"2b04708e-eed8-4471-916a-9fdeea01eec7","system_id":"levelo_inurba_marseille","lat":43.231923,"lon":5.355545,"is_reserved":false,"is_disabled":false,"rental_uris":{"android":"levelo://app?vid=2b04708e-eed8-4471-916a-9fdeea01eec7","ios":"levelo://app?vid=2b04708e-eed8-4471-916a-9fdeea01eec7"},"vehicle_type_id":"4","last_reported":1701727593,"current_range_meters":26800,"station_id":"ce4bhu92rcd13ifvqi70","pricing_plan_id":"free"},{"bike_id":"8756435f-ebd3-4df3-89fa-6a5a1e380d37","system_id":"levelo_inurba_marseille","lat":43.231919,"lon":5.355532,"is_reserved":false,"is_disabled":false,"rental_uris":{"android":"levelo://app?vid=8756435f-ebd3-4df3-89fa-6a5a1e380d37","ios":"levelo://app?vid=8756435f-ebd3-4df3-89fa-6a5a1e380d37"},"vehicle_type_id":"4","last_reported":1701727593,"current_range_meters":31200,"station_id":"ce4bhu92rcd13ifvqi70","pricing_plan_id":"free"},{"bike_id":"9e01ee59-41e6-425c-ae1f-3e33312fefcd","system_id":"levelo_inurba_marseille","lat":43.231923,"lon":5.355545,"is_reserved":false,"is_disabled":false,"rental_uris":{"android":"levelo://app?vid=9e01ee59-41e6-425c-ae1f-3e33312fefcd","ios":"levelo://app?vid=9e01ee59-41e6-425c-ae1f-3e33312fefcd"},"vehicle_type_id":"4","last_reported":1701727593,"current_range_meters":10400,"station_id":"ce4bhu92rcd13ifvqi70","pricing_plan_id":"free"},{"bike_id":"cf3102c4-88e0-4a41-86b7-69a76932d3e6","system_id":"levelo_inurba_marseille","lat":43.231923,"lon":5.355545,"is_reserved":false,"is_disabled":false,"rental_uris":{"android":"levelo://app?vid=cf3102c4-88e0-4a41-86b7-69a76932d3e6","ios":"levelo://app?vid=cf3102c4-88e0-4a41-86b7-69a76932d3e6"},"vehicle_type_id":"4","last_reported":1701727593,"current_range_meters":31200,"station_id":"ce4bhu92rcd13ifvqi70","pricing_plan_id":"free"},{"bike_id":"6041d620-664b-4836-b597-a0e62593a032","system_id":"levelo_inurba_marseille","lat":43.231923,"lon":5.355545,"is_reserved":false,"is_disabled":false,"rental_uris":{"android":"levelo://app?vid=6041d620-664b-4836-b597-a0e62593a032","ios":"levelo://app?vid=6041d620-664b-4836-b597-a0e62593a032"},"vehicle_type_id":"4","last_reported":1701727593,"current_range_meters":22800,"station_id":"ce4bhu92rcd13ifvqi70","pricing_plan_id":"free"},{"bike_id":"88cf855f-bb31-40e0-8afc-686df3c193ab","system_id":"levelo_inurba_marseille","lat":43.231794,"lon":5.400052,"is_reserved":false,"is_disabled":false,"rental_uris":{"android":"levelo://app?vid=88cf855f-bb31-40e0-8afc-686df3c193ab","ios":"levelo://app?vid=88cf855f-bb31-40e0-8afc-686df3c193ab"},"vehicle_type_id":"4","last_reported":1701727593,"current_range_meters":29200,"station_id":"ce4bhn12rcd13ifvqgqg","pricing_plan_id":"free"},{"bike_id":"554e18bc-f6bd-448a-9d3a-a49810d0b6de","system_id":"levelo_inurba_marseille","lat":43.231897,"lon":5.399823,"is_reserved":false,"is_disabled":false,"rental_uris":{"android":"levelo://app?vid=554e18bc-f6bd-448a-9d3a-a49810d0b6de","ios":"levelo://app?vid=554e18bc-f6bd-448a-9d3a-a49810d0b6de"},"vehicle_type_id":"4","last_reported":1701727593,"current_range_meters":12800,"station_id":"ce4bhn12rcd13ifvqgqg","pricing_plan_id":"free"},{"bike_id":"d6f1b06d-6100-4b51-8fdd-b5dbe00f7ca7","system_id":"levelo_inurba_marseille","lat":43.23187,"lon":5.39975,"is_reserved":false,"is_disabled":false,"rental_uris":{"android":"levelo://app?vid=d6f1b06d-6100-4b51-8fdd-b5dbe00f7ca7","ios":"levelo://app?vid=d6f1b06d-6100-4b51-8fdd-b5dbe00f7ca7"},"vehicle_type_id":"4","last_reported":1701727593,"current_range_meters":11200,"station_id":"ce4bhn12rcd13ifvqgqg","pricing_plan_id":"free"},{"bike_id":"6bd9f065-50d9-4657-9ca0-a006f413d305","system_id":"levelo_inurba_marseille","lat":43.231794,"lon":5.400052,"is_reserved":false,"is_disabled":false,"rental_uris":{"android":"levelo://app?vid=6bd9f065-50d9-4657-9ca0-a006f413d305","ios":"levelo://app?vid=6bd9f065-50d9-4657-9ca0-a006f413d305"},"vehicle_type_id":"4","last_reported":1701727593,"current_range_meters":31200,"station_id":"ce4bhn12rcd13ifvqgqg","pricing_plan_id":"free"},{"bike_id":"ab5eae98-96ca-4718-91b7-353de917f40d","system_id":"levelo_inurba_marseille","lat":43.231875,"lon":5.399798,"is_reserved":false,"is_disabled":false,"rental_uris":{"android":"levelo://app?vid=ab5eae98-96ca-4718-91b7-353de917f40d","ios":"levelo://app?vid=ab5eae98-96ca-4718-91b7-353de917f40d"},"vehicle_type_id":"4","last_reported":1701727593,"current_range_meters":31200,"station_id":"ce4bhn12rcd13ifvqgqg","pricing_plan_id":"free"},{"bike_id":"c649eff1-b727-4a3a-ae80-4002093c2a17","system_id":"levelo_inurba_marseille","lat":43.23189,"lon":5.39987,"is_reserved":false,"is_disabled":false,"rental_uris":{"android":"levelo://app?vid=c649eff1-b727-4a3a-ae80-4002093c2a17","ios":"levelo://app?vid=c649eff1-b727-4a3a-ae80-4002093c2a17"},"vehicle_type_id":"4","last_reported":1701727593,"current_range_meters":24000,"station_id":"ce4bhn12rcd13ifvqgqg","pricing_plan_id":"free"},{"bike_id":"e47e98e0-4256-4c41-ae86-e531a41b9213","system_id":"levelo_inurba_marseille","lat":43.231794,"lon":5.400052,"is_reserved":false,"is_disabled":false,"rental_uris":{"android":"levelo://app?vid=e47e98e0-4256-4c41-ae86-e531a41b9213","ios":"levelo://app?vid=e47e98e0-4256-4c41-ae86-e531a41b9213"},"vehicle_type_id":"4","last_reported":1701727593,"current_range_meters":31200,"station_id":"ce4bhn12rcd13ifvqgqg","pricing_plan_id":"free"},{"bike_id":"5d9be6d5-2985-432d-ac4f-8e0798b2a0ac","system_id":"levelo_inurba_marseille","lat":43.231872,"lon":5.399841,"is_reserved":false,"is_disabled":false,"rental_uris":{"android":"levelo://app?vid=5d9be6d5-2985-432d-ac4f-8e0798b2a0ac","ios":"levelo://app?vid=5d9be6d5-2985-432d-ac4f-8e0798b2a0ac"},"vehicle_type_id":"4","last_reported":1701727593,"current_range_meters":29600,"station_id":"ce4bhn12rcd13ifvqgqg","pricing_plan_id":"free"},