{"last_updated":1743491449,"ttl":60,"version":"2.2","data":{"bikes":[{"bike_id":"406a15e5-1ca6-44a7-83a6-866b130c91f5","system_id":"levelo_inurba_marseille","lat":43.30948,"lon":5.39036,"is_reserved":false,"is_disabled":false,"rental_uris":{"android":"levelo://app?vid=406a15e5-1ca6-44a7-83a6-866b130c91f5","ios":"levelo://app?vid=406a15e5-1ca6-44a7-83a6-866b130c91f5"},"vehicle_type_id":"4","last_reported":1743491450,"current_range_meters":2800,"station_id":"ce4bgup2rcd13ifvqco0","pricing_plan_id":"cebpf4jnsgd1na2vs0mg"},{"bike_id":"82d8e203-da64-466b-9b1d-e9f0a9bfebfe","system_id":"levelo_inurba_marseille","lat":43.32538,"lon":5.41469,"is_reserved":false,"is_disabled":true,"rental_uris":{"android":"levelo://app?vid=82d8e203-da64-466b-9b1d-e9f0a9bfebfe","ios":"levelo://app?vid=82d8e203-da64-466b-9b1d-e9f0a9bfebfe"},"vehicle_type_id":"4","last_reported":1743491450,"current_range_meters":2800,"station_id":"ce4bhq12rcd13ifvqhhg","pricing_plan_id":"cebpf4jnsgd1na2vs0mg"},{"bike_id":"4c48ee66-bc7a-4e4c-919f-97a7cc27a0f6","system_id":"levelo_inurba_marseille","lat":43.2957,"lon":5.39964,"is_reserved":false,"is_disabled":false,"rental_uris":{"android":"levelo://app?vid=4c48ee66-bc7a-4e4c-919f-97a7cc27a0f6","ios":"levelo://app?vid=4c48ee66-bc7a-4e4c-919f-97a7cc27a0f6"},"vehicle_type_id":"4","last_reported":1743491450,"current_range_meters":0,"station_id":"ce4bh312rcd13ifvqdj0","pricing_plan_id":"cebpf4jnsgd1na2vs0mg"},{"bike_id":"cc0fabf3-f7a0-44c9-a7cb-21f7567bcb6f","system_id":"levelo_inurba_marseille","lat":43.30096,"lon":5.39079,"is_reserved":false,"is_disabled":false,"rental_uris":{"android":"levelo://app?vid=cc0fabf3-f7a0-44c9-a7cb-21f7567bcb6f","ios":"levelo://app?vid=cc0fabf3-f7a0-44c9-a7cb-21f7567bcb6f"},"vehicle_type_id":"4","last_reported":1743491450,"current_range_meters":2800,"station_id":"ce4bh192rcd13ifvqdb0","pricing_plan_id":"cebpf4jnsgd1na2vs0mg"},{"bike_id":"7ef83db8-ac5b-4f08-b74f-e96442381670","system_id":"levelo_inurba_marseille","lat":43.25491,"lon":5.37651,"is_reserved":false,"is_disabled":false,"rental_uris":{"android":"levelo://app?vid=7ef83db8-ac5b-4f08-b74f-e96442381670","ios":"levelo://app?vid=7ef83db8-ac5b-4f08-b74f-e96442381670"},"vehicle_type_id":"4","last_reported":1743491450,"current_range_meters":2800,"station_id":"ce4bhh12rcd13ifvqff0","pricing_plan_id":"cebpf4jnsgd1na2vs0mg"},{"bike_id":"513ce05b-c94f-4e5c-92ef-43b994b5a544","system_id":"levelo_inurba_marseille","lat":43.30331,"lon":5.40441,"is_reserved":false,"is_disabled":false,"rental_uris":{"android":"levelo://app?vid=513ce05b-c94f-4e5c-92ef-43b994b5a544","ios":"levelo://app?vid=513ce05b-c94f-4e5c-92ef-43b994b5a544"},"vehicle_type_id":"4","last_reported":1743491450,"current_range_meters":2800,"station_id":"ce4bh012rcd13ifvqd10","pricing_plan_id":"cebpf4jnsgd1na2vs0mg"},{"bike_id":"12a6d3bb-8e15-40da-bb3c-10958275bc88","system_id":"levelo_inurba_marseille","lat":43.309489,"lon":5.390294,"is_reserved":false,"is_disabled":false,"rental_uris":{"android":"levelo://app?vid=12a6d3bb-8e15-40da-bb3c-10958275bc88","ios":"levelo://app?vid=12a6d3bb-8e15-40da-bb3c-10958275bc88"},"vehicle_type_id":"4","last_reported":1743491450,"current_range_meters":2800,"station_id":"ce4bgup2rcd13ifvqco0","pricing_plan_id":"cebpf4jnsgd1na2vs0mg"},{"bike_id":"a25e50f5-4ee9-468c-b542-0833324479ff","system_id":"levelo_inurba_marseille","lat":43.27489,"lon":5.42463,"is_reserved":false,"is_disabled":false,"rental_uris":{"android":"levelo://app?vid=a25e50f5-4ee9-468c-b542-0833324479ff","ios":"levelo://app?vid=a25e50f5-4ee9-468c-b542-0833324479ff"},"vehicle_type_id":"4","last_reported":1743491450,"current_range_meters":3200,"station_id":"ce4bhn92rcd13ifvqgrg","pricing_plan_id":"cebpf4jnsgd1na2vs0mg"},{"bike_id":"22186989-3952-4331-a17c-414be9fdefe5","system_id":"levelo_inurba_marseille","lat":43.27911,"lon":5.39582,"is_reserved":false,"is_disabled":false,"rental_uris":{"android":"levelo://app?vid=22186989-3952-4331-a17c-414be9fdefe5","ios":"levelo://app?vid=22186989-3952-4331-a17c-414be9fdefe5"},"vehicle_type_id":"4","last_reported":1743491450,"current_range_meters":3200,"station_id":"ce4bhf92rcd13ifvqf40","pricing_plan_id":"cebpf4jnsgd1na2vs0mg"},{"bike_id":"d080a9e2-041c-495e-a514-1575a7dff2d4","system_id":"levelo_inurba_marseille","lat":43.2835,"lon":5.38104,"is_reserved":false,"is_disabled":false,"rental_uris":{"android":"levelo://app?vid=d080a9e2-041c-495e-a514-1575a7dff2d4","ios":"levelo://app?vid=d080a9e2-041c-495e-a514-1575a7dff2d4"},"vehicle_type_id":"4","last_reported":1743491450,"current_range_meters":3200,"station_id":"ce4bh412rcd13ifvqdr0","pricing_plan_id":"cebpf4jnsgd1na2vs0mg"},{"bike_id":"1b8f9f45-6e93-4a56-af52-953d66694570","system_id":"levelo_inurba_marseille","lat":43.29582,"lon":5.37508,"is_reserved":false,"is_disabled":false,"rental_uris":{"android":"levelo://app?vid=1b8f9f45-6e93-4a56-af52-953d66694570","ios":"levelo://app?vid=1b8f9f45-6e93-4a56-af52-953d66694570"},"vehicle_type_id":"4","last_reported":1743491450,"current_range_meters":3200,"station_id":"ce4bgh92rcd13ifvqb50","pricing_plan_id":"cebpf4jnsgd1na2vs0mg"},{"bike_id":"1ec08633-84a0-4ef8-b954-3a48e83753f8","system_id":"levelo_inurba_marseille","lat":43.30813,"lon":5.36878,"is_reserved":false,"is_disabled":false,"rental_uris":{"android":"levelo://app?vid=1ec08633-84a0-4ef8-b954-3a48e83753f8","ios":"levelo://app?vid=1ec08633-84a0-4ef8-b954-3a48e83753f8"},"vehicle_type_id":"4","last_reported":1743491450,"current_range_meters":3200,"station_id":"","pricing_plan_id":"cebpf4jnsgd1na2vs0mg"},{"bike_id":"6797338f-51bd-4b44-891f-9bfd92384650","system_id":"levelo_inurba_marseille","lat":43.290813,"lon":5.371659,"is_reserved":false,"is_disabled":false,"rental_uris":{"android":"levelo://app?vid=6797338f-51bd-4b44-891f-9bfd92384650","ios":"levelo://app?vid=6797338f-51bd-4b44-891f-9bfd92384650"},"vehicle_type_id":"4","last_reported":1743491450,"current_range_meters":4800,"station_id":"ce4bhah2rcd13ifvqei0","pricing_plan_id":"cebpf4jnsgd1na2vs0mg"},{"bike_id":"02995205-f95b-4889-9d47-b5a3c99a8719","system_id":"levelo_inurba_marseille","lat":43.25865,"lon":5.39898,"is_reserved":false,"is_disabled":false,"rental_uris":{"android":"levelo://app?vid=02995205-f95b-4889-9d47-b5a3c99a8719","ios":"levelo://app?vid=02995205-f95b-4889-9d47-b5a3c99a8719"},"vehicle_type_id":"4","last_reported":1743491450,"current_range_meters":3600,"station_id":"ce4bhl92rcd13ifvqghg","pricing_plan_id":"cebpf4jnsgd1na2vs0mg"},{"bike_id":"7af5fdc4-d2af-4123-b036-a63e153d03c5","system_id":"levelo_inurba_marseille","lat":43.2749,"lon":5.42452,"is_reserved":false,"is_disabled":false,"rental_uris":{"android":"levelo://app?vid=7af5fdc4-d2af-4123-b036-a63e153d03c5","ios":"levelo://app?vid=7af5fdc4-d2af-4123-b036-a63e153d03c5"},"vehicle_type_id":"4","last_reported":1743491450,"current_range_meters":3600,"station_id":"ce4bhn92rcd13ifvqgrg","pricing_plan_id":"cebpf4jnsgd1na2vs0mg"},{"bike_id":"478a55c6-f75f-4f7f-8317-111b75b8f930","system_id":"levelo_inurba_marseille","lat":43.29532,"lon":5.39036,"is_reserved":false,"is_disabled":false,"rental_uris":{"android":"levelo://app?vid=478a55c6-f75f-4f7f-8317-111b75b8f930","ios":"levelo://app?vid=478a55c6-f75f-4f7f-8317-111b75b8f930"},"vehicle_type_id":"4","last_reported":1743491450,"current_range_meters":3600,"station_id":"ce4bh3p2rcd13ifvqdp0","pricing_plan_id":"cebpf4jnsgd1na2vs0mg"},{"bike_id":"e582113f-afd5-4c61-85c5-499c813117b3","system_id":"levelo_inurba_marseille","lat":43.323575,"lon":5.367232,"is_reserved":false,"is_disabled":false,"rental_uris":{"android":"levelo://app?vid=e582113f-afd5-4c61-85c5-499c813117b3","ios":"levelo://app?vid=e582113f-afd5-4c61-85c5-499c813117b3"},"vehicle_type_id":"4","last_reported":1743491450,"current_range_meters":5600,"station_id":"ce4bhs12rcd13ifvqhvg","pricing_plan_id":"cebpf4jnsgd1na2vs0mg"},{"bike_id":"6dd615ed-3f5e-4e44-a637-7dd8e8fc991c","system_id":"levelo_inurba_marseille","lat":43.290315,"lon":5.399603,"is_reserved":false,"is_disabled":false,"rental_uris":{"android":"levelo://app?vid=6dd615ed-3f5e-4e44-a637-7dd8e8fc991c","ios":"levelo://app?vid=6dd615ed-3f5e-4e44-a637-7dd8e8fc991c"},"vehicle_type_id":"4","last_reported":1743491450,"current_range_meters":3600,"station_id":"ce4bh392rcd13ifvqdm0","pricing_plan_id":"cebpf4jnsgd1na2vs0mg"},{"bike_id":"fd2e01c0-afa7-40ad-9a55-fd49601371fd","system_id":"levelo_inurba_marseille","lat":43.259329,"lon":5.409156,"is_reserved":false,"is_disabled":false,"rental_uris":{"android":"levelo://app?vid=fd2e01c0-afa7-40ad-9a55-fd49601371fd","ios":"levelo://app?vid=fd2e01c0-afa7-40ad-9a55-fd49601371fd"},"vehicle_type_id":"4","last_reported":1743491450,"current_range_meters":3600,"station_id":"ce4bhm92rcd13ifvqglg","pricing_plan_id":"cebpf4jnsgd1na2vs0mg"},{"bike_id":"d681bc91-36db-42cc-ab09-a980616e32e4","system_id":"levelo_inurba_marseille","lat":43.30947,"lon":5.3904,"is_reserved":false,"is_disabled":false,"rental_uris":{"android":"levelo://app?vid=d681bc91-36db-42cc-ab09-a980616e32e4","ios":"levelo://app?vid=d681bc91-36db-42cc-ab09-a980616e32e4"},"vehicle_type_id":"4","last_reported":1743491450,"current_range_meters":3600,"station_id":"ce4bgup2rcd13ifvqco0","pricing_plan_id":"cebpf4jnsgd1na2vs0mg"},{"bike_id":"33c55660-0541-469b-a476-383fff04337f","system_id":"levelo_inurba_marseille","lat":43.22917,"lon":5.35372,"is_reserved":false,"is_disabled":false,"rental_uris":{"android":"levelo://app?vid=33c55660-0541-469b-a476-383fff04337f","ios":"levelo://app?vid=33c55660-0541-469b-a476-383fff04337f"},"vehicle_type_id":"4","last_reported":1743491450,"current_range_meters":3600,"station_id":"cpo3532slgdg3j2ikp40","pricing_plan_id":"cebpf4jnsgd1na2vs0mg"},{"bike_id":"941b90df-2eeb-408c-83c0-f50138bf9959","system_id":"levelo_inurba_marseille","lat":43.29798,"lon":5.37127,"is_reserved":false,"is_disabled":false,"rental_uris":{"android":"levelo://app?vid=941b90df-2eeb-408c-83c0-f50138bf9959","ios":"levelo://app?vid=941b90df-2eeb-408c-83c0-f50138bf9959"},"vehicle_type_id":"4","last_reported":1743491450,"current_range_meters":4000,"station_id":"ce4bgop2rcd13ifvqc1g","pricing_plan_id":"cebpf4jnsgd1na2vs0mg"},{"bike_id":"85fad29d-07fa-4834-92ea-a24165516ebf","system_id":"levelo_inurba_marseille","lat":43.23066,"lon":5.354989,"is_reserved":false,"is_disabled":false,"rental_uris":{"android":"levelo://app?vid=85fad29d-07fa-4834-92ea-a24165516ebf","ios":"levelo://app?vid=85fad29d-07fa-4834-92ea-a24165516ebf"},"vehicle_type_id":"4","last_reported":1743491450,"current_range_meters":4000,"station_id":"cpo3342slgdg3j2ifvpg","pricing_plan_id":"cebpf4jnsgd1na2vs0mg"},{"bike_id":"9015224f-f892-47ae-a908-ba1cac0876ad","system_id":"levelo_inurba_marseille","lat":43.29788,"lon":5.38111,"is_reserved":false,"is_disabled":false,"rental_uris":{"android":"levelo://app?vid=9015224f-f892-47ae-a908-ba1cac0876ad","ios":"levelo://app?vid=9015224f-f892-47ae-a908-ba1cac0876ad"},"vehicle_type_id":"4","last_reported":1743491450,"current_range_meters":4000,"station_id":"ce4bgip2rcd13ifvqbb0","pricing_plan_id":"cebpf4jnsgd1na2vs0mg"},{"bike_id":"0f66d719-00f1-4251-aef8-dd7e7c760693","system_id":"levelo_inurba_marseille","lat":43.2593,"lon":5.40911,"is_reserved":false,"is_disabled":true,"rental_uris":{"android":"levelo://app?vid=0f66d719-00f1-4251-aef8-dd7e7c760693","ios":"levelo://app?vid=0f66d719-00f1-4251-aef8-dd7e7c760693"},"vehicle_type_id":"4","last_reported":1743491450,"current_range_meters":4000,"station_id":"","pricing_plan_id":"cebpf4jnsgd1na2vs0mg"},{"bike_id":"1da808a6-36fb-434e-b2cb-2df77d77936e","system_id":"levelo_inurba_marseille","lat":43.27385,"lon":5.36258,"is_reserved":false,"is_disabled":false,"rental_uris":{"android":"levelo://app?vid=1da808a6-36fb-434e-b2cb-2df77d77936e","ios":"levelo://app?vid=1da808a6-36fb-434e-b2cb-2df77d77936e"},"vehicle_type_id":"4","last_reported":1743491450,"current_range_meters":4000,"station_id":"ce4bhbh2rcd13ifvqeo0","pricing_plan_id":"cebpf4jnsgd1na2vs0mg"},{"bike_id":"88b5ba7d-47d2-4ed0-9cc4-0fd0adbb911f","system_id":"levelo_inurba_marseille","lat":43.272,"lon":5.41004,"is_reserved":false,"is_disabled":false,"rental_uris":{"android":"levelo://app?vid=88b5ba7d-47d2-4ed0-9cc4-0fd0adbb911f","ios":"levelo://app?vid=88b5ba7d-47d2-4ed0-9cc4-0fd0adbb911f"},"vehicle_type_id":"4","last_reported":1743491450,"current_range_meters":4000,"station_id":"ce4bhl12rcd13ifvqgf0","pricing_plan_id":"cebpf4jnsgd1na2vs0mg"},{"bike_id":"b3593ea0-f10f-4d2d-8fd4-ca8847ced39c","system_id":"levelo_inurba_marseille","lat":43.33602,"lon":5.41033,"is_reserved":false,"is_disabled":false,"rental_uris":{"android":"levelo://app?vid=b3593ea0-f10f-4d2d-8fd4-ca8847ced39c","ios":"levelo://app?vid=b3593ea0-f10f-4d2d-8fd4-ca8847ced39c"},"vehicle_type_id":"4","last_reported":1743491450,"current_range_meters":4000,"station_id":"ce4bhqh2rcd13ifvqhmg","pricing_plan_id":"cebpf4jnsgd1na2vs0mg"},{"bike_id":"08032ccb-f1fa-4372-8b36-65f6dc9a89b2","system_id":"levelo_inurba_marseille","lat":43.30464,"lon":5.37915,"is_reserved":false,"is_disabled":false,"rental_uris":{"android":"levelo://app?vid=08032ccb-f1fa-4372-8b36-65f6dc9a89b2","ios":"levelo://app?vid=08032ccb-f1fa-4372-8b36-65f6dc9a89b2"},"vehicle_type_id":"4","last_reported":1743491450,"current_range_meters":4000,"station_id":"ce4bgup2rcd13ifvqcn0","pricing_plan_id":"cebpf4jnsgd1na2vs0mg"},{"bike_id":"1fafd429-4688-47f8-889c-5c3ed03c7ee4","system_id":"levelo_inurba_marseille","lat":43.337444,"lon":5.374475,"is_reserved":false,"is_disabled":false,"rental_uris":{"android":"levelo://app?vid=1fafd429-4688-47f8-889c-5c3ed03c7ee4","ios":"levelo://app?vid=1fafd429-4688-47f8-889c-5c3ed03c7ee4"},"vehicle_type_id":"4","last_reported":1743491450,"current_range_meters":4400,"station_id":"","pricing_plan_id":"cebpf4jnsgd1na2vs0mg"},{"bike_id":"917fd2ad-3122-47c6-9760-cfe2ca5b53f5","system_id":"levelo_inurba_marseille","lat":43.28987,"lon":5.37828,"is_reserved":false,"is_disabled":false,"rental_uris":{"android":"levelo://app?vid=917fd2ad-3122-47c6-9760-cfe2ca5b53f5","ios":"levelo://app?vid=917fd2ad-3122-47c6-9760-cfe2ca5b53f5"},"vehicle_type_id":"4","last_reported":1743491450,"current_range_meters":4000,"station_id":"ce4bh9p2rcd13ifvqed0","pricing_plan_id":"cebpf4jnsgd1na2vs0mg"},{"bike_id":"8dc0b004-47b3-49ed-b4ab-0f96abdb6651","system_id":"levelo_inurba_marseille","lat":43.24083,"lon":5.3778,"is_reserved":false,"is_disabled":false,"rental_uris":{"android":"levelo://app?vid=8dc0b004-47b3-49ed-b4ab-0f96abdb6651","ios":"levelo://app?vid=8dc0b004-47b3-49ed-b4ab-0f96abdb6651"},"vehicle_type_id":"4","last_reported":1743491450,"current_range_meters":4400,"station_id":"ce4bhnp2rcd13ifvqgvg","pricing_plan_id":"cebpf4jnsgd1na2vs0mg"},{"bike_id":"1c8d61c3-943e-43ac-940d-c1dcf3e1aa69","system_id":"levelo_inurba_marseille","lat":43.30141,"lon":5.37408,"is_reserved":false,"is_disabled":false,"rental_uris":{"android":"levelo://app?vid=1c8d61c3-943e-43ac-940d-c1dcf3e1aa69","ios":"levelo://app?vid=1c8d61c3-943e-43ac-940d-c1dcf3e1aa69"},"vehicle_type_id":"4","last_reported":1743491450,"current_range_meters":4400,"station_id":"ce4bgs92rcd13ifvqcc0","pricing_plan_id":"cebpf4jnsgd1na2vs0mg"},{"bike_id":"00d61976-17e0-440b-8586-301c5d1b91c1","system_id":"levelo_inurba_marseille","lat":43.29273,"lon":5.38443,"is_reserved":false,"is_disabled":true,"rental_uris":{"android":"levelo://app?vid=00d61976-17e0-440b-8586-301c5d1b91c1","ios":"levelo://app?vid=00d61976-17e0-440b-8586-301c5d1b91c1"},"vehicle_type_id":"4","last_reported":1743491450,"current_range_meters":4800,"station_id":"ce4bh692rcd13ifvqea0","pricing_plan_id":"cebpf4jnsgd1na2vs0mg"},{"bike_id":"1842b946-b20f-4197-b890-ec6a2faa3002","system_id":"levelo_inurba_marseille","lat":43.25932,"lon":5.40909,"is_reserved":false,"is_disabled":false,"rental_uris":{"android":"levelo://app?vid=1842b946-b20f-4197-b890-ec6a2faa3002","ios":"levelo://app?vid=1842b946-b20f-4197-b890-ec6a2faa3002"},"vehicle_type_id":"4","last_reported":1743491450,"current_range_meters":4800,"station_id":"ce4bhm92rcd13ifvqglg","pricing_plan_id":"cebpf4jnsgd1na2vs0mg"},{"bike_id":"6165c5e1-15f4-4779-ba2f-91df8ba3f8c0","system_id":"levelo_inurba_marseille","lat":43.28893,"lon":5.42995,"is_reserved":false,"is_disabled":false,"rental_uris":{"android":"levelo://app?vid=6165c5e1-15f4-4779-ba2f-91df8ba3f8c0","ios":"levelo://app?vid=6165c5e1-15f4-4779-ba2f-91df8ba3f8c0"},"vehicle_type_id":"4","last_reported":1743491450,"current_range_meters":4800,"station_id":"","pricing_plan_id":"cebpf4jnsgd1na2vs0mg"},{"bike_id":"a04aca5b-0988-449d-a9cf-43ccbda2f34b","system_id":"levelo_inurba_marseille","lat":43.32002,"lon":5.38156,"is_reserved":false,"is_disabled":true,"rental_uris":{"android":"levelo://app?vid=a04aca5b-0988-449d-a9cf-43ccbda2f34b","ios":"levelo://app?vid=a04aca5b-0988-449d-a9cf-43ccbda2f34b"},"vehicle_type_id":"4","last_reported":1743491450,"current_range_meters":4800,"station_id":"ce4bhr12rcd13ifvqhpg","pricing_plan_id":"cebpf4jnsgd1na2vs0mg"},{"bike_id":"c7285f97-0ec5-4793-a137-0a2ace6b7f9a","system_id":"levelo_inurba_marseille","lat":43.28486,"lon":5.38419,"is_reserved":false,"is_disabled":false,"rental_uris":{"android":"levelo://app?vid=c7285f97-0ec5-4793-a137-0a2ace6b7f9a","ios":"levelo://app?vid=c7285f97-0ec5-4793-a137-0a2ace6b7f9a"},"vehicle_type_id":"4","last_reported":1743491450,"current_range_meters":4800,"station_id":"ce4bh512rcd13ifvqe3g","pricing_plan_id":"cebpf4jnsgd1na2vs0mg"},{"bike_id":"daaf22c0-9aa6-4d80-b789-dcc57f86ce1e","system_id":"levelo_inurba_marseille","lat":43.313487,"lon":5.374784,"is_reserved":false,"is_disabled":false,"rental_uris":{"android":"levelo://app?vid=daaf22c0-9aa6-4d80-b789-dcc57f86ce1e","ios":"levelo://app?vid=daaf22c0-9aa6-4d80-b789-dcc57f86ce1e"},"vehicle_type_id":"4","last_reported":1743491450,"current_range_meters":3200,"station_id":"ce4bgl92rcd13ifvqbq0","pricing_plan_id":"cebpf4jnsgd1na2vs0mg"},{"bike_id":"e2c66353-098b-4a7b-97a0-06f673e82514","system_id":"levelo_inurba_marseille","lat":43.32483,"lon":5.36573,"is_reserved":false,"is_disabled":true,"rental_uris":{"android":"levelo://app?vid=e2c66353-098b-4a7b-97a0-06f673e82514","ios":"levelo://app?vid=e2c66353-098b-4a7b-97a0-06f673e82514"},"vehicle_type_id":"4","last_reported":1743491450,"current_range_meters":4800,"station_id":"ce4bhs12rcd13ifvqhvg","pricing_plan_id":"cebpf4jnsgd1na2vs0mg"},{"bike_id":"9ee253b4-992a-4a0a-9de3-f97c58301027","system_id":"levelo_inurba_marseille","lat":43.287,"lon":5.39992,"is_reserved":false,"is_disabled":false,"rental_uris":{"android":"levelo://app?vid=9ee253b4-992a-4a0a-9de3-f97c58301027","ios":"levelo://app?vid=9ee253b4-992a-4a0a-9de3-f97c58301027"},"vehicle_type_id":"4","last_reported":1743491450,"current_range_meters":5600,"station_id":"ce4bho92rcd13ifvqh3g","pricing_plan_id":"cebpf4jnsgd1na2vs0mg"},{"bike_id":"7ff9309a-2955-4e32-8535-d0ddab831b16","system_id":"levelo_inurba_marseille","lat":43.2397,"lon":5.36631,"is_reserved":false,"is_disabled":false,"rental_uris":{"android":"levelo://app?vid=7ff9309a-2955-4e32-8535-d0ddab831b16","ios":"levelo://app?vid=7ff9309a-2955-4e32-8535-d0ddab831b16"},"vehicle_type_id":"4","last_reported":1743491450,"current_range_meters":5600,"station_id":"ce4bhi12rcd13ifvqfp0","pricing_plan_id":"cebpf4jnsgd1na2vs0mg"},{"bike_id":"3e6f399e-ea99-4bee-bf19-68240615b5e1","system_id":"levelo_inurba_marseille","lat":43.29015,"lon":5.38668,"is_reserved":false,"is_disabled":true,"rental_uris":{"android":"levelo://app?vid=3e6f399e-ea99-4bee-bf19-68240615b5e1","ios":"levelo://app?vid=3e6f399e-ea99-4bee-bf19-68240615b5e1"},"vehicle_type_id":"4","last_reported":1743491450,"current_range_meters":5600,"station_id":"ce4bh4p2rcd13ifvqe0g","pricing_plan_id":"cebpf4jnsgd1na2vs0mg"},{"bike_id":"c22553a1-6c36-46f8-82db-e50d4ac7385e","system_id":"levelo_inurba_marseille","lat":43.27987,"lon":5.40013,"is_reserved":false,"is_disabled":true,"rental_uris":{"android":"levelo://app?vid=c22553a1-6c36-46f8-82db-e50d4ac7385e","ios":"levelo://app?vid=c22553a1-6c36-46f8-82db-e50d4ac7385e"},"vehicle_type_id":"4","last_reported":1743491450,"current_range_meters":5600,"station_id":"ce4bho92rcd13ifvqh4g","pricing_plan_id":"cebpf4jnsgd1na2vs0mg"},{"bike_id":"9a2af466-2aa8-49f7-bfd5-fc815a2aa07c","system_id":"levelo_inurba_marseille","lat":43.30678,"lon":5.40104,"is_reserved":false,"is_disabled":true,"rental_uris":{"android":"levelo://app?vid=9a2af466-2aa8-49f7-bfd5-fc815a2aa07c","ios":"levelo://app?vid=9a2af466-2aa8-49f7-bfd5-fc815a2aa07c"},"vehicle_type_id":"4","last_reported":1743491450,"current_range_meters":5600,"station_id":"ce4bh112rcd13ifvqda0","pricing_plan_id":"cebpf4jnsgd1na2vs0mg"},{"bike_id":"ef612f88-892b-4680-97d8-df2ac53b4b94","system_id":"levelo_inurba_marseille","lat":43.27066,"lon":5.42281,"is_reserved":false,"is_disabled":false,"rental_uris":{"android":"levelo://app?vid=ef612f88-892b-4680-97d8-df2ac53b4b94","ios":"levelo://app?vid=ef612f88-892b-4680-97d8-df2ac53b4b94"},"vehicle_type_id":"4","last_reported":1743491450,"current_range_meters":6000,"station_id":"ce4bhk92rcd13ifvqgb0","pricing_plan_id":"cebpf4jnsgd1na2vs0mg"},{"bike_id":"c093a4b3-578b-4606-ad4a-a7391033dadc","system_id":"levelo_inurba_marseille","lat":43.29919,"lon":5.37478,"is_reserved":false,"is_disabled":false,"rental_uris":{"android":"levelo://app?vid=c093a4b3-578b-4606-ad4a-a7391033dadc","ios":"levelo://app?vid=c093a4b3-578b-4606-ad4a-a7391033dadc"},"vehicle_type_id":"4","last_reported":1743491450,"current_range_meters":6000,"station_id":"ce4bgjh2rcd13ifvqbg0","pricing_plan_id":"cebpf4jnsgd1na2vs0mg"},{"bike_id":"fcefd603-4cea-4a5a-b73e-076ae58dd139","system_id":"levelo_inurba_marseille","lat":43.2315,"lon":5.43704,"is_reserved":false,"is_disabled":false,"rental_uris":{"android":"levelo://app?vid=fcefd603-4cea-4a5a-b73e-076ae58dd139","ios":"levelo://app?vid=fcefd603-4cea-4a5a-b73e-076ae58dd139"},"vehicle_type_id":"4","last_reported":1743491450,"current_range_meters":5600,"station_id":"ce4bhmp2rcd13ifvqgog","pricing_plan_id":"cebpf4jnsgd1na2vs0mg"},{"bike_id":"4cc8652f-9b93-4bcd-b7ae-2a834e530011","system_id":"levelo_inurba_marseille","lat":43.26558,"lon":5.39022,"is_reserved":false,"is_disabled":false,"rental_uris":{"android":"levelo://app?vid=4cc8652f-9b93-4bcd-b7ae-2a834e530011","ios":"levelo://app?vid=4cc8652f-9b93-4bcd-b7ae-2a834e530011"},"vehicle_type_id":"4","last_reported":1743491450,"current_range_meters":6000,"station_id":"ce4bhe12rcd13ifvqf30","pricing_plan_id":"cebpf4jnsgd1na2vs0mg"},{"bike_id":"a7ce6a9d-46a5-4eb6-8de6-d98dca558ca4","system_id":"levelo_inurba_marseille","lat":43.3059,"lon":5.39356,"is_reserved":false,"is_disabled":false,"rental_uris":{"android":"levelo://app?vid=a7ce6a9d-46a5-4eb6-8de6-d98dca558ca4","ios":"levelo://app?vid=a7ce6a9d-46a5-4eb6-8de6-d98dca558ca4"},"vehicle_type_id":"4","last_reported":1743491450,"current_range_meters":6000,"station_id":"ce4bh0p2rcd13ifvqd80","pricing_plan_id":"cebpf4jnsgd1na2vs0mg"},{"bike_id":"cd3dee57-d2fb-4109-ba0f-50d622a7fad9","system_id":"levelo_inurba_marseille","lat":43.30945,"lon":5.39034,"is_reserved":false,"is_disabled":false,"rental_uris":{"android":"levelo://app?vid=cd3dee57-d2fb-4109-ba0f-50d622a7fad9","ios":"levelo://app?vid=cd3dee57-d2fb-4109-ba0f-50d622a7fad9"},"vehicle_type_id":"4","last_reported":1743491450,"current_range_meters":6000,"station_id":"ce4bgup2rcd13ifvqco0","pricing_plan_id":"cebpf4jnsgd1na2vs0mg"},{"bike_id":"d1a4d67b-c4f6-4c82-b90e-ac279dc5003d","system_id":"levelo_inurba_marseille","lat":43.26682,"lon":5.38254,"is_reserved":false,"is_disabled":false,"rental_uris":{"android":"levelo://app?vid=d1a4d67b-c4f6-4c82-b90e-ac279dc5003d","ios":"levelo://app?vid=d1a4d67b-c4f6-4c82-b90e-ac279dc5003d"},"vehicle_type_id":"4","last_reported":1743491450,"current_range_meters":6400,"station_id":"ce4bhg92rcd13ifvqf90","pricing_plan_id":"cebpf4jnsgd1na2vs0mg"},{"bike_id":"dc29ad83-dc33-4450-bcb7-be0813f84471","system_id":"levelo_inurba_marseille","lat":43.31211,"lon":5.36836,"is_reserved":false,"is_disabled":false,"rental_uris":{"android":"levelo://app?vid=dc29ad83-dc33-4450-bcb7-be0813f84471","ios":"levelo://app?vid=dc29ad83-dc33-4450-bcb7-be0813f84471"},"vehicle_type_id":"4","last_reported":1743491450,"current_range_meters":6400,"station_id":"ce4bgl92rcd13ifvqbq0","pricing_plan_id":"cebpf4jnsgd1na2vs0mg"},{"bike_id":"2bf31f9f-c5c0-434c-ab3b-b017d7dc966d","system_id":"levelo_inurba_marseille","lat":43.23051,"lon":5.35487,"is_reserved":false,"is_disabled":false,"rental_uris":{"android":"levelo://app?vid=2bf31f9f-c5c0-434c-ab3b-b017d7dc966d","ios":"levelo://app?vid=2bf31f9f-c5c0-434c-ab3b-b017d7dc966d"},"vehicle_type_id":"4","last_reported":1743491450,"current_range_meters":6400,"station_id":"cpo3342slgdg3j2ifvpg","pricing_plan_id":"cebpf4jnsgd1na2vs0mg"},{"bike_id":"81d00ac0-5bda-4ea6-a402-28468e990945","system_id":"levelo_inurba_marseille","lat":43.27214,"lon":5.39184,"is_reserved":false,"is_disabled":false,"rental_uris":{"android":"levelo://app?vid=81d00ac0-5bda-4ea6-a402-28468e990945","ios":"levelo://app?vid=81d00ac0-5bda-4ea6-a402-28468e990945"},"vehicle_type_id":"4","last_reported":1743491450,"current_range_meters":6400,"station_id":"ce4bhhp2rcd13ifvqfm0","pricing_plan_id":"cebpf4jnsgd1na2vs0mg"},{"bike_id":"d8482f7c-3bf2-449f-a399-64c2c6a987ce","system_id":"levelo_inurba_marseille","lat":43.30429,"lon":5.39745,"is_reserved":false,"is_disabled":false,"rental_uris":{"android":"levelo://app?vid=d8482f7c-3bf2-449f-a399-64c2c6a987ce","ios":"levelo://app?vid=d8482f7c-3bf2-449f-a399-64c2c6a987ce"},"vehicle_type_id":"4","last_reported":1743491450,"current_range_meters":6400,"station_id":"ce4bh092rcd13ifvqd20","pricing_plan_id":"cebpf4jnsgd1na2vs0mg"},{"bike_id":"60d1a674-7878-4290-a190-fb793e8a7d4e","system_id":"levelo_inurba_marseille","lat":43.336,"lon":5.41031,"is_reserved":false,"is_disabled":false,"rental_uris":{"android":"levelo://app?vid=60d1a674-7878-4290-a190-fb793e8a7d4e","ios":"levelo://app?vid=60d1a674-7878-4290-a190-fb793e8a7d4e"},"vehicle_type_id":"4","last_reported":1743491450,"current_range_meters":6400,"station_id":"ce4bhqh2rcd13ifvqhmg","pricing_plan_id":"cebpf4jnsgd1na2vs0mg"},{"bike_id":"0499cb05-2138-4638-b173-7885893903c2","system_id":"levelo_inurba_marseille","lat":43.290466,"lon":5.39982,"is_reserved":false,"is_disabled":false,"rental_uris":{"android":"levelo://app?vid=0499cb05-2138-4638-b173-7885893903c2","ios":"levelo://app?vid=0499cb05-2138-4638-b173-7885893903c2"},"vehicle_type_id":"4","last_reported":1743491450,"current_range_meters":6400,"station_id":"ce4bhdp2rcd13ifvqf20","pricing_plan_id":"cebpf4jnsgd1na2vs0mg"},{"bike_id":"a070a7ce-23ad-48d1-895a-31225e7624ed","system_id":"levelo_inurba_marseille","lat":43.30952,"lon":5.3903,"is_reserved":false,"is_disabled":false,"rental_uris":{"android":"levelo://app?vid=a070a7ce-23ad-48d1-895a-31225e7624ed","ios":"levelo://app?vid=a070a7ce-23ad-48d1-895a-31225e7624ed"},"vehicle_type_id":"4","last_reported":1743491450,"current_range_meters":6400,"station_id":"ce4bgup2rcd13ifvqco0","pricing_plan_id":"cebpf4jnsgd1na2vs0mg"},{"bike_id":"6b7f2b11-03ac-4a0c-9fb1-71dc0bbdd506","system_id":"levelo_inurba_marseille","lat":43.32,"lon":5.38134,"is_reserved":false,"is_disabled":false,"rental_uris":{"android":"levelo://app?vid=6b7f2b11-03ac-4a0c-9fb1-71dc0bbdd506","ios":"levelo://app?vid=6b7f2b11-03ac-4a0c-9fb1-71dc0bbdd506"},"vehicle_type_id":"4","last_reported":1743491450,"current_range_meters":6800,"station_id":"ce4bhr12rcd13ifvqhpg","pricing_plan_id":"cebpf4jnsgd1na2vs0mg"},{"bike_id":"59b3e666-7fa2-48e6-bfd8-15740fad04fc","system_id":"levelo_inurba_marseille","lat":43.30947,"lon":5.39031,"is_reserved":false,"is_disabled":false,"rental_uris":{"android":"levelo://app?vid=59b3e666-7fa2-48e6-bfd8-15740fad04fc","ios":"levelo://app?vid=59b3e666-7fa2-48e6-bfd8-15740fad04fc"},"vehicle_type_id":"4","last_reported":1743491450,"current_range_meters":6800,"station_id":"ce4bgup2rcd13ifvqco0","pricing_plan_id":"cebpf4jnsgd1na2vs0mg"},{"bike_id":"d8f70170-4924-47d8-bca2-902eeb07f843","system_id":"levelo_inurba_marseille","lat":43.30953,"lon":5.39035,"is_reserved":false,"is_disabled":false,"rental_uris":{"android":"levelo://app?vid=d8f70170-4924-47d8-bca2-902eeb07f843","ios":"levelo://app?vid=d8f70170-4924-47d8-bca2-902eeb07f843"},"vehicle_type_id":"4","last_reported":1743491450,"current_range_meters":6800,"station_id":"ce4bgup2rcd13ifvqco0","pricing_plan_id":"cebpf4jnsgd1na2vs0mg"},{"bike_id":"dee1a939-aa68-4721-b626-3b16a22e5a8d","system_id":"levelo_inurba_marseille","lat":43.24078,"lon":5.37754,"is_reserved":false,"is_disabled":false,"rental_uris":{"android":"levelo://app?vid=dee1a939-aa68-4721-b626-3b16a22e5a8d","ios":"levelo://app?vid=dee1a939-aa68-4721-b626-3b16a22e5a8d"},"vehicle_type_id":"4","last_reported":1743491450,"current_range_meters":6800,"station_id":"ce4bhnp2rcd13ifvqgvg","pricing_plan_id":"cebpf4jnsgd1na2vs0mg"},{"bike_id":"d281585d-1d60-42d5-bdc2-e6bfc9051e7c","system_id":"levelo_inurba_marseille","lat":43.27583,"lon":5.38433,"is_reserved":false,"is_disabled":false,"rental_uris":{"android":"levelo://app?vid=d281585d-1d60-42d5-bdc2-e6bfc9051e7c","ios":"levelo://app?vid=d281585d-1d60-42d5-bdc2-e6bfc9051e7c"},"vehicle_type_id":"4","last_reported":1743491450,"current_range_meters":6400,"station_id":"ce4bhh92rcd13ifvqfi0","pricing_plan_id":"cebpf4jnsgd1na2vs0mg"},{"bike_id":"0f8f638f-6c59-4dfb-ab4f-882d40e453aa","system_id":"levelo_inurba_marseille","lat":43.29284,"lon":5.42784,"is_reserved":false,"is_disabled":false,"rental_uris":{"android":"levelo://app?vid=0f8f638f-6c59-4dfb-ab4f-882d40e453aa","ios":"levelo://app?vid=0f8f638f-6c59-4dfb-ab4f-882d40e453aa"},"vehicle_type_id":"4","last_reported":1743491450,"current_range_meters":6800,"station_id":"","pricing_plan_id":"cebpf4jnsgd1na2vs0mg"},{"bike_id":"f50dd1be-9ee4-480d-920f-0721f0997798","system_id":"levelo_inurba_marseille","lat":43.23175,"lon":5.39995,"is_reserved":false,"is_disabled":false,"rental_uris":{"android":"levelo://app?vid=f50dd1be-9ee4-480d-920f-0721f0997798","ios":"levelo://app?vid=f50dd1be-9ee4-480d-920f-0721f0997798"},"vehicle_type_id":"4","last_reported":1743491450,"current_range_meters":6800,"station_id":"ce4bhn12rcd13ifvqgqg","pricing_plan_id":"cebpf4jnsgd1na2vs0mg"},{"bike_id":"2005ecc7-15bd-40c7-abeb-09bd81917a4a","system_id":"levelo_inurba_marseille","lat":43.259351,"lon":5.409134,"is_reserved":false,"is_disabled":false,"rental_uris":{"android":"levelo://app?vid=2005ecc7-15bd-40c7-abeb-09bd81917a4a","ios":"levelo://app?vid=2005ecc7-15bd-40c7-abeb-09bd81917a4a"},"vehicle_type_id":"4","last_reported":1743491450,"current_range_meters":6800,"station_id":"","pricing_plan_id":"cebpf4jnsgd1na2vs0mg"},{"bike_id":"672d4500-3325-45a5-9b08-ac625495a4fb","system_id":"levelo_inurba_marseille","lat":43.28355,"lon":5.38116,"is_reserved":false,"is_disabled":true,"rental_uris":{"android":"levelo://app?vid=672d4500-3325-45a5-9b08-ac625495a4fb","ios":"levelo://app?vid=672d4500-3325-45a5-9b08-ac625495a4fb"},"vehicle_type_id":"4","last_reported":1743491450,"current_range_meters":6800,"station_id":"ce4bh412rcd13ifvqdr0","pricing_plan_id":"cebpf4jnsgd1na2vs0mg"},{"bike_id":"27b63ee8-40bf-4514-9e9b-7f5301d43c80","system_id":"levelo_inurba_marseille","lat":43.2743,"lon":5.39427,"is_reserved":false,"is_disabled":false,"rental_uris":{"android":"levelo://app?vid=27b63ee8-40bf-4514-9e9b-7f5301d43c80","ios":"levelo://app?vid=27b63ee8-40bf-4514-9e9b-7f5301d43c80"},"vehicle_type_id":"4","last_reported":1743491450,"current_range_meters":6800,"station_id":"ce4bhdp2rcd13ifvqf20","pricing_plan_id":"cebpf4jnsgd1na2vs0mg"},{"bike_id":"323c49b1-0c8f-495c-899a-003c84f7cf30","system_id":"levelo_inurba_marseille","lat":43.25937,"lon":5.40899,"is_reserved":false,"is_disabled":false,"rental_uris":{"android":"levelo://app?vid=323c49b1-0c8f-495c-899a-003c84f7cf30","ios":"levelo://app?vid=323c49b1-0c8f-495c-899a-003c84f7cf30"},"vehicle_type_id":"4","last_reported":1743491450,"current_range_meters":6800,"station_id":"ce4bhm92rcd13ifvqglg","pricing_plan_id":"cebpf4jnsgd1na2vs0mg"},{"bike_id":"121010d1-d0ea-475b-97a6-f9054736109c","system_id":"levelo_inurba_marseille","lat":43.23166,"lon":5.40015,"is_reserved":false,"is_disabled":false,"rental_uris":{"android":"levelo://app?vid=121010d1-d0ea-475b-97a6-f9054736109c","ios":"levelo://app?vid=121010d1-d0ea-475b-97a6-f9054736109c"},"vehicle_type_id":"4","last_reported":1743491450,"current_range_meters":7200,"station_id":"ce4bhn12rcd13ifvqgqg","pricing_plan_id":"cebpf4jnsgd1na2vs0mg"},{"bike_id":"d2f2ddd5-8dd4-436f-ba30-fd70dfe59da3","system_id":"levelo_inurba_marseille","lat":43.32081,"lon":5.36761,"is_reserved":false,"is_disabled":false,"rental_uris":{"android":"levelo://app?vid=d2f2ddd5-8dd4-436f-ba30-fd70dfe59da3","ios":"levelo://app?vid=d2f2ddd5-8dd4-436f-ba30-fd70dfe59da3"},"vehicle_type_id":"4","last_reported":1743491450,"current_range_meters":7200,"station_id":"ce4bhrh2rcd13ifvqhug","pricing_plan_id":"cebpf4jnsgd1na2vs0mg"},{"bike_id":"49810080-90c1-49b4-921f-dc96b27343ff","system_id":"levelo_inurba_marseille","lat":43.26097,"lon":5.41476,"is_reserved":false,"is_disabled":false,"rental_uris":{"android":"levelo://app?vid=49810080-90c1-49b4-921f-dc96b27343ff","ios":"levelo://app?vid=49810080-90c1-49b4-921f-dc96b27343ff"},"vehicle_type_id":"4","last_reported":1743491450,"current_range_meters":7200,"station_id":"","pricing_plan_id":"cebpf4jnsgd1na2vs0mg"},{"bike_id":"27242c4e-c0d7-4d86-b765-a543e2bb9b87","system_id":"levelo_inurba_marseille","lat":43.29976,"lon":5.37176,"is_reserved":false,"is_disabled":false,"rental_uris":{"android":"levelo://app?vid=27242c4e-c0d7-4d86-b765-a543e2bb9b87","ios":"levelo://app?vid=27242c4e-c0d7-4d86-b765-a543e2bb9b87"},"vehicle_type_id":"4","last_reported":1743491450,"current_range_meters":7200,"station_id":"ce4bgr92rcd13ifvqc7g","pricing_plan_id":"cebpf4jnsgd1na2vs0mg"},{"bike_id":"5203ccbe-ce3c-4351-a8e9-f9ee5ad38a9c","system_id":"levelo_inurba_marseille","lat":43.231912,"lon":5.399797,"is_reserved":false,"is_disabled":false,"rental_uris":{"android":"levelo://app?vid=5203ccbe-ce3c-4351-a8e9-f9ee5ad38a9c","ios":"levelo://app?vid=5203ccbe-ce3c-4351-a8e9-f9ee5ad38a9c"},"vehicle_type_id":"4","last_reported":1743491450,"current_range_meters":7200,"station_id":"ce4bhn12rcd13ifvqgqg","pricing_plan_id":"cebpf4jnsgd1na2vs0mg"},{"bike_id":"20f5d5b6-da1b-4ad8-8de5-42887a69d068","system_id":"levelo_inurba_marseille","lat":43.29003,"lon":5.35628,"is_reserved":false,"is_disabled":true,"rental_uris":{"android":"levelo://app?vid=20f5d5b6-da1b-4ad8-8de5-42887a69d068","ios":"levelo://app?vid=20f5d5b6-da1b-4ad8-8de5-42887a69d068"},"vehicle_type_id":"4","last_reported":1743491450,"current_range_meters":7200,"station_id":"ce4bhb92rcd13ifvqen0","pricing_plan_id":"cebpf4jnsgd1na2vs0mg"},{"bike_id":"a2df4ab3-3fed-4b25-96d9-470209121d78","system_id":"levelo_inurba_marseille","lat":43.24065,"lon":5.37771,"is_reserved":false,"is_disabled":false,"rental_uris":{"android":"levelo://app?vid=a2df4ab3-3fed-4b25-96d9-470209121d78","ios":"levelo://app?vid=a2df4ab3-3fed-4b25-96d9-470209121d78"},"vehicle_type_id":"4","last_reported":1743491450,"current_range_meters":7200,"station_id":"ce4bhnp2rcd13ifvqgvg","pricing_plan_id":"cebpf4jnsgd1na2vs0mg"},{"bike_id":"4d9b5982-1cfd-451e-8cbb-7a7d2c840d10","system_id":"levelo_inurba_marseille","lat":43.24081,"lon":5.37755,"is_reserved":false,"is_disabled":false,"rental_uris":{"android":"levelo://app?vid=4d9b5982-1cfd-451e-8cbb-7a7d2c840d10","ios":"levelo://app?vid=4d9b5982-1cfd-451e-8cbb-7a7d2c840d10"},"vehicle_type_id":"4","last_reported":1743491450,"current_range_meters":7200,"station_id":"ce4bhnp2rcd13ifvqgvg","pricing_plan_id":"cebpf4jnsgd1na2vs0mg"},{"bike_id":"604d04be-c028-4ab1-8834-f33df09c2f76","system_id":"levelo_inurba_marseille","lat":43.30913,"lon":5.36853,"is_reserved":false,"is_disabled":false,"rental_uris":{"android":"levelo://app?vid=604d04be-c028-4ab1-8834-f33df09c2f76","ios":"levelo://app?vid=604d04be-c028-4ab1-8834-f33df09c2f76"},"vehicle_type_id":"4","last_reported":1743491450,"current_range_meters":7200,"station_id":"ce4bgn92rcd13ifvqbvg","pricing_plan_id":"cebpf4jnsgd1na2vs0mg"},{"bike_id":"5e4daa1c-a589-4fa2-9b62-5a50cbb29bf5","system_id":"levelo_inurba_marseille","lat":43.28975,"lon":5.39637,"is_reserved":false,"is_disabled":false,"rental_uris":{"android":"levelo://app?vid=5e4daa1c-a589-4fa2-9b62-5a50cbb29bf5","ios":"levelo://app?vid=5e4daa1c-a589-4fa2-9b62-5a50cbb29bf5"},"vehicle_type_id":"4","last_reported":1743491450,"current_range_meters":7200,"station_id":"ce4bh3h2rcd13ifvqdn0","pricing_plan_id":"cebpf4jnsgd1na2vs0mg"},{"bike_id":"58742414-604d-4661-8d94-2096dd4e4ad7","system_id":"levelo_inurba_marseille","lat":43.31221,"lon":5.36853,"is_reserved":false,"is_disabled":false,"rental_uris":{"android":"levelo://app?vid=58742414-604d-4661-8d94-2096dd4e4ad7","ios":"levelo://app?vid=58742414-604d-4661-8d94-2096dd4e4ad7"},"vehicle_type_id":"4","last_reported":1743491450,"current_range_meters":7200,"station_id":"ce4bgl92rcd13ifvqbq0","pricing_plan_id":"cebpf4jnsgd1na2vs0mg"},{"bike_id":"f0b29359-b5ca-4e20-9697-b7938b35a30e","system_id":"levelo_inurba_marseille","lat":43.30539,"lon":5.3652,"is_reserved":false,"is_disabled":false,"rental_uris":{"android":"levelo://app?vid=f0b29359-b5ca-4e20-9697-b7938b35a30e","ios":"levelo://app?vid=f0b29359-b5ca-4e20-9697-b7938b35a30e"},"vehicle_type_id":"4","last_reported":1743491450,"current_range_meters":7200,"station_id":"ce4bgs12rcd13ifvqcag","pricing_plan_id":"cebpf4jnsgd1na2vs0mg"},{"bike_id":"3cad4e88-3f6e-4698-8e66-6b471bc4e123","system_id":"levelo_inurba_marseille","lat":43.25932,"lon":5.40909,"is_reserved":false,"is_disabled":false,"rental_uris":{"android":"levelo://app?vid=3cad4e88-3f6e-4698-8e66-6b471bc4e123","ios":"levelo://app?vid=3cad4e88-3f6e-4698-8e66-6b471bc4e123"},"vehicle_type_id":"4","last_reported":1743491450,"current_range_meters":7200,"station_id":"ce4bhm92rcd13ifvqglg","pricing_plan_id":"cebpf4jnsgd1na2vs0mg"},{"bike_id":"c291c91b-0223-40ed-b720-c71fa80b712b","system_id":"levelo_inurba_marseille","lat":43.27431,"lon":5.39426,"is_reserved":false,"is_disabled":false,"rental_uris":{"android":"levelo://app?vid=c291c91b-0223-40ed-b720-c71fa80b712b","ios":"levelo://app?vid=c291c91b-0223-40ed-b720-c71fa80b712b"},"vehicle_type_id":"4","last_reported":1743491450,"current_range_meters":9600,"station_id":"ce4bhdp2rcd13ifvqf20","pricing_plan_id":"cebpf4jnsgd1na2vs0mg"},{"bike_id":"23a2997f-acca-44d1-a72c-cccdd94a796c","system_id":"levelo_inurba_marseille","lat":43.30918,"lon":5.40161,"is_reserved":false,"is_disabled":true,"rental_uris":{"android":"levelo://app?vid=23a2997f-acca-44d1-a72c-cccdd94a796c","ios":"levelo://app?vid=23a2997f-acca-44d1-a72c-cccdd94a796c"},"vehicle_type_id":"4","last_reported":1743491450,"current_range_meters":8000,"station_id":"ce4bgvp2rcd13ifvqct0","pricing_plan_id":"cebpf4jnsgd1na2vs0mg"},{"bike_id":"205ae04a-8639-474b-9c33-b86792a8744d","system_id":"levelo_inurba_marseille","lat":43.29035,"lon":5.39974,"is_reserved":false,"is_disabled":false,"rental_uris":{"android":"levelo://app?vid=205ae04a-8639-474b-9c33-b86792a8744d","ios":"levelo://app?vid=205ae04a-8639-474b-9c33-b86792a8744d"},"vehicle_type_id":"4","last_reported":1743491450,"current_range_meters":8000,"station_id":"ce4bh392rcd13ifvqdm0","pricing_plan_id":"cebpf4jnsgd1na2vs0mg"},{"bike_id":"c4b11d2d-ae73-4692-9f78-8d22d2d3d952","system_id":"levelo_inurba_marseille","lat":43.3126,"lon":5.36909,"is_reserved":false,"is_disabled":true,"rental_uris":{"android":"levelo://app?vid=c4b11d2d-ae73-4692-9f78-8d22d2d3d952","ios":"levelo://app?vid=c4b11d2d-ae73-4692-9f78-8d22d2d3d952"},"vehicle_type_id":"4","last_reported":1743491450,"current_range_meters":8000,"station_id":"","pricing_plan_id":"cebpf4jnsgd1na2vs0mg"},{"bike_id":"2123c8ed-873a-4b42-94ee-329a3c5e8e7c","system_id":"levelo_inurba_marseille","lat":43.30535,"lon":5.36546,"is_reserved":false,"is_disabled":false,"rental_uris":{"android":"levelo://app?vid=2123c8ed-873a-4b42-94ee-329a3c5e8e7c","ios":"levelo://app?vid=2123c8ed-873a-4b42-94ee-329a3c5e8e7c"},"vehicle_type_id":"4","last_reported":1743491450,"current_range_meters":8000,"station_id":"ce4bgs12rcd13ifvqcag","pricing_plan_id":"cebpf4jnsgd1na2vs0mg"},{"bike_id":"726173fe-3e33-4e27-8b67-4bfb4b9a2a6c","system_id":"levelo_inurba_marseille","lat":43.27997,"lon":5.41664,"is_reserved":false,"is_disabled":false,"rental_uris":{"android":"levelo://app?vid=726173fe-3e33-4e27-8b67-4bfb4b9a2a6c","ios":"levelo://app?vid=726173fe-3e33-4e27-8b67-4bfb4b9a2a6c"},"vehicle_type_id":"4","last_reported":1743491450,"current_range_meters":12000,"station_id":"ce4bho12rcd13ifvqh1g","pricing_plan_id":"cebpf4jnsgd1na2vs0mg"},{"bike_id":"452ea8fa-6193-47ef-87b8-2e866dee1b3f","system_id":"levelo_inurba_marseille","lat":43.30898,"lon":5.3721,"is_reserved":false,"is_disabled":false,"rental_uris":{"android":"levelo://app?vid=452ea8fa-6193-47ef-87b8-2e866dee1b3f","ios":"levelo://app?vid=452ea8fa-6193-47ef-87b8-2e866dee1b3f"},"vehicle_type_id":"4","last_reported":1743491450,"current_range_meters":8000,"station_id":"ce4bguh2rcd13ifvqckg","pricing_plan_id":"cebpf4jnsgd1na2vs0mg"},{"bike_id":"16964b70-5e96-4eaf-967b-b7b90401a860","system_id":"levelo_inurba_marseille","lat":43.284825,"lon":5.385616,"is_reserved":false,"is_disabled":false,"rental_uris":{"android":"levelo://app?vid=16964b70-5e96-4eaf-967b-b7b90401a860","ios":"levelo://app?vid=16964b70-5e96-4eaf-967b-b7b90401a860"},"vehicle_type_id":"4","last_reported":1743491450,"current_range_meters":8000,"station_id":"ce4bh8p2rcd13ifvqeb0","pricing_plan_id":"cebpf4jnsgd1na2vs0mg"},{"bike_id":"7e5b4f8b-5831-4add-ac41-6a17bdee50ce","system_id":"levelo_inurba_marseille","lat":43.25928,"lon":5.40898,"is_reserved":false,"is_disabled":false,"rental_uris":{"android":"levelo://app?vid=7e5b4f8b-5831-4add-ac41-6a17bdee50ce","ios":"levelo://app?vid=7e5b4f8b-5831-4add-ac41-6a17bdee50ce"},"vehicle_type_id":"4","last_reported":1743491450,"current_range_meters":8000,"station_id":"ce4bhm92rcd13ifvqglg","pricing_plan_id":"cebpf4jnsgd1na2vs0mg"},{"bike_id":"37ee6147-3637-4830-9800-9d01c070e547","system_id":"levelo_inurba_marseille","lat":43.289764,"lon":5.378369,"is_reserved":false,"is_disabled":false,"rental_uris":{"android":"levelo://app?vid=37ee6147-3637-4830-9800-9d01c070e547","ios":"levelo://app?vid=37ee6147-3637-4830-9800-9d01c070e547"},"vehicle_type_id":"4","last_reported":1743491450,"current_range_meters":8000,"station_id":"ce4bh9p2rcd13ifvqed0","pricing_plan_id":"cebpf4jnsgd1na2vs0mg"},{"bike_id":"47e8be51-97ef-4865-a7d3-8794dda5ac8f","system_id":"levelo_inurba_marseille","lat":43.27916,"lon":5.39571,"is_reserved":false,"is_disabled":false,"rental_uris":{"android":"levelo://app?vid=47e8be51-97ef-4865-a7d3-8794dda5ac8f","ios":"levelo://app?vid=47e8be51-97ef-4865-a7d3-8794dda5ac8f"},"vehicle_type_id":"4","last_reported":1743491450,"current_range_meters":8000,"station_id":"ce4bhf92rcd13ifvqf40","pricing_plan_id":"cebpf4jnsgd1na2vs0mg"},{"bike_id":"668c01cb-7bea-48c9-8f15-6bcc0c19c832","system_id":"levelo_inurba_marseille","lat":43.26205,"lon":5.37934,"is_reserved":false,"is_disabled":true,"rental_uris":{"android":"levelo://app?vid=668c01cb-7bea-48c9-8f15-6bcc0c19c832","ios":"levelo://app?vid=668c01cb-7bea-48c9-8f15-6bcc0c19c832"},"vehicle_type_id":"4","last_reported":1743491450,"current_range_meters":8400,"station_id":"ce4bhjp2rcd13ifvqg90","pricing_plan_id":"cebpf4jnsgd1na2vs0mg"},{"bike_id":"de103d50-bc8d-4d45-9b12-9997f6b9381f","system_id":"levelo_inurba_marseille","lat":43.30618,"lon":5.40164,"is_reserved":false,"is_disabled":false,"rental_uris":{"android":"levelo://app?vid=de103d50-bc8d-4d45-9b12-9997f6b9381f","ios":"levelo://app?vid=de103d50-bc8d-4d45-9b12-9997f6b9381f"},"vehicle_type_id":"4","last_reported":1743491450,"current_range_meters":8400,"station_id":"","pricing_plan_id":"cebpf4jnsgd1na2vs0mg"},{"bike_id":"c9968b65-f81d-41ec-8c2f-403679233fff","system_id":"levelo_inurba_marseille","lat":43.30277,"lon":5.37701,"is_reserved":false,"is_disabled":false,"rental_uris":{"android":"levelo://app?vid=c9968b65-f81d-41ec-8c2f-403679233fff","ios":"levelo://app?vid=c9968b65-f81d-41ec-8c2f-403679233fff"},"vehicle_type_id":"4","last_reported":1743491450,"current_range_meters":8400,"station_id":"ce4bguh2rcd13ifvqcj0","pricing_plan_id":"cebpf4jnsgd1na2vs0mg"},{"bike_id":"3ca424a7-e0ca-4df5-8439-9f714ad26ba4","system_id":"levelo_inurba_marseille","lat":43.337444,"lon":5.374475,"is_reserved":false,"is_disabled":false,"rental_uris":{"android":"levelo://app?vid=3ca424a7-e0ca-4df5-8439-9f714ad26ba4","ios":"levelo://app?vid=3ca424a7-e0ca-4df5-8439-9f714ad26ba4"},"vehicle_type_id":"4","last_reported":1743491450,"current_range_meters":8400,"station_id":"ce4bhf92rcd13ifvqf40","pricing_plan_id":"cebpf4jnsgd1na2vs0mg"},{"bike_id":"bc2731c5-d1f1-4f43-bf16-ed3324b6f121","system_id":"levelo_inurba_marseille","lat":43.27862,"lon":5.41075,"is_reserved":false,"is_disabled":true,"rental_uris":{"android":"levelo://app?vid=bc2731c5-d1f1-4f43-bf16-ed3324b6f121","ios":"levelo://app?vid=bc2731c5-d1f1-4f43-bf16-ed3324b6f121"},"vehicle_type_id":"4","last_reported":1743491450,"current_range_meters":8400,"station_id":"ce4bhnp2rcd13ifvqh0g","pricing_plan_id":"cebpf4jnsgd1na2vs0mg"},{"bike_id":"98116208-f0d9-448e-914d-e1f5219f8c07","system_id":"levelo_inurba_marseille","lat":43.30955,"lon":5.39057,"is_reserved":false,"is_disabled":false,"rental_uris":{"android":"levelo://app?vid=98116208-f0d9-448e-914d-e1f5219f8c07","ios":"levelo://app?vid=98116208-f0d9-448e-914d-e1f5219f8c07"},"vehicle_type_id":"4","last_reported":1743491450,"current_range_meters":8400,"station_id":"ce4bgup2rcd13ifvqco0","pricing_plan_id":"cebpf4jnsgd1na2vs0mg"},{"bike_id":"76b6490a-8cd2-4dc4-99fd-9a65b8435fd4","system_id":"levelo_inurba_marseille","lat":43.30124,"lon":5.38775,"is_reserved":false,"is_disabled":false,"rental_uris":{"android":"levelo://app?vid=76b6490a-8cd2-4dc4-99fd-9a65b8435fd4","ios":"levelo://app?vid=76b6490a-8cd2-4dc4-99fd-9a65b8435fd4"},"vehicle_type_id":"4","last_reported":1743491450,"current_range_meters":8400,"station_id":"ce4bghh2rcd13ifvqb60","pricing_plan_id":"cebpf4jnsgd1na2vs0mg"},{"bike_id":"222d98c4-2214-4711-bc9e-cc41c67df0e7","system_id":"levelo_inurba_marseille","lat":43.27319,"lon":5.39083,"is_reserved":false,"is_disabled":false,"rental_uris":{"android":"levelo://app?vid=222d98c4-2214-4711-bc9e-cc41c67df0e7","ios":"levelo://app?vid=222d98c4-2214-4711-bc9e-cc41c67df0e7"},"vehicle_type_id":"4","last_reported":1743491450,"current_range_meters":8400,"station_id":"ce4bhgp2rcd13ifvqfe0","pricing_plan_id":"cebpf4jnsgd1na2vs0mg"},{"bike_id":"c5582ea9-e4db-4033-969d-b17cba54189e","system_id":"levelo_inurba_marseille","lat":43.31222,"lon":5.36872,"is_reserved":false,"is_disabled":false,"rental_uris":{"android":"levelo://app?vid=c5582ea9-e4db-4033-969d-b17cba54189e","ios":"levelo://app?vid=c5582ea9-e4db-4033-969d-b17cba54189e"},"vehicle_type_id":"4","last_reported":1743491450,"current_range_meters":8400,"station_id":"ce4bgl92rcd13ifvqbq0","pricing_plan_id":"cebpf4jnsgd1na2vs0mg"},{"bike_id":"241d62a7-84d0-4eb8-ab17-fd67306a391c","system_id":"levelo_inurba_marseille","lat":43.30967,"lon":5.39066,"is_reserved":false,"is_disabled":false,"rental_uris":{"android":"levelo://app?vid=241d62a7-84d0-4eb8-ab17-fd67306a391c","ios":"levelo://app?vid=241d62a7-84d0-4eb8-ab17-fd67306a391c"},"vehicle_type_id":"4","last_reported":1743491450,"current_range_meters":8800,"station_id":"ce4bgup2rcd13ifvqco0","pricing_plan_id":"cebpf4jnsgd1na2vs0mg"},{"bike_id":"bca387f4-85a3-4e2e-90de-cd9f2ee29451","system_id":"levelo_inurba_marseille","lat":43.30276,"lon":5.37697,"is_reserved":false,"is_disabled":false,"rental_uris":{"android":"levelo://app?vid=bca387f4-85a3-4e2e-90de-cd9f2ee29451","ios":"levelo://app?vid=bca387f4-85a3-4e2e-90de-cd9f2ee29451"},"vehicle_type_id":"4","last_reported":1743491450,"current_range_meters":8800,"station_id":"ce4bguh2rcd13ifvqcj0","pricing_plan_id":"cebpf4jnsgd1na2vs0mg"},{"bike_id":"3adc3ad1-1dd6-4a4c-af81-9e6df341c6ce","system_id":"levelo_inurba_marseille","lat":43.25932,"lon":5.40908,"is_reserved":false,"is_disabled":false,"rental_uris":{"android":"levelo://app?vid=3adc3ad1-1dd6-4a4c-af81-9e6df341c6ce","ios":"levelo://app?vid=3adc3ad1-1dd6-4a4c-af81-9e6df341c6ce"},"vehicle_type_id":"4","last_reported":1743491450,"current_range_meters":8800,"station_id":"ce4bhm92rcd13ifvqglg","pricing_plan_id":"cebpf4jnsgd1na2vs0mg"},{"bike_id":"70b1412a-5466-45ee-b0f6-f4bf77f2d89c","system_id":"levelo_inurba_marseille","lat":43.31997,"lon":5.38158,"is_reserved":false,"is_disabled":false,"rental_uris":{"android":"levelo://app?vid=70b1412a-5466-45ee-b0f6-f4bf77f2d89c","ios":"levelo://app?vid=70b1412a-5466-45ee-b0f6-f4bf77f2d89c"},"vehicle_type_id":"4","last_reported":1743491450,"current_range_meters":8800,"station_id":"ce4bhr12rcd13ifvqhpg","pricing_plan_id":"cebpf4jnsgd1na2vs0mg"},{"bike_id":"cb31ef46-5921-40d6-9b8e-ac8f6f3fe45d","system_id":"levelo_inurba_marseille","lat":43.31999,"lon":5.38158,"is_reserved":false,"is_disabled":false,"rental_uris":{"android":"levelo://app?vid=cb31ef46-5921-40d6-9b8e-ac8f6f3fe45d","ios":"levelo://app?vid=cb31ef46-5921-40d6-9b8e-ac8f6f3fe45d"},"vehicle_type_id":"4","last_reported":1743491450,"current_range_meters":8800,"station_id":"ce4bhr12rcd13ifvqhpg","pricing_plan_id":"cebpf4jnsgd1na2vs0mg"},{"bike_id":"d35c3bb5-ba85-44c4-bb27-2141e1971ef4","system_id":"levelo_inurba_marseille","lat":43.29529,"lon":5.39029,"is_reserved":false,"is_disabled":false,"rental_uris":{"android":"levelo://app?vid=d35c3bb5-ba85-44c4-bb27-2141e1971ef4","ios":"levelo://app?vid=d35c3bb5-ba85-44c4-bb27-2141e1971ef4"},"vehicle_type_id":"4","last_reported":1743491450,"current_range_meters":9200,"station_id":"ce4bh3p2rcd13ifvqdp0","pricing_plan_id":"cebpf4jnsgd1na2vs0mg"},{"bike_id":"356446ae-6201-45f6-adce-78a53ca87d33","system_id":"levelo_inurba_marseille","lat":43.27314,"lon":5.39083,"is_reserved":false,"is_disabled":false,"rental_uris":{"android":"levelo://app?vid=356446ae-6201-45f6-adce-78a53ca87d33","ios":"levelo://app?vid=356446ae-6201-45f6-adce-78a53ca87d33"},"vehicle_type_id":"4","last_reported":1743491450,"current_range_meters":9200,"station_id":"ce4bhgp2rcd13ifvqfe0","pricing_plan_id":"cebpf4jnsgd1na2vs0mg"},{"bike_id":"c89c3622-a163-47e2-af38-8a2916d858b1","system_id":"levelo_inurba_marseille","lat":43.267923,"lon":5.402684,"is_reserved":false,"is_disabled":false,"rental_uris":{"android":"levelo://app?vid=c89c3622-a163-47e2-af38-8a2916d858b1","ios":"levelo://app?vid=c89c3622-a163-47e2-af38-8a2916d858b1"},"vehicle_type_id":"4","last_reported":1743491450,"current_range_meters":9200,"station_id":"ce4bhm92rcd13ifvqglg","pricing_plan_id":"cebpf4jnsgd1na2vs0mg"},{"bike_id":"0849fcf9-f26f-4a4b-b756-b0a2951a91fe","system_id":"levelo_inurba_marseille","lat":43.299744,"lon":5.371731,"is_reserved":false,"is_disabled":false,"rental_uris":{"android":"levelo://app?vid=0849fcf9-f26f-4a4b-b756-b0a2951a91fe","ios":"levelo://app?vid=0849fcf9-f26f-4a4b-b756-b0a2951a91fe"},"vehicle_type_id":"4","last_reported":1743491450,"current_range_meters":9200,"station_id":"ce4bgr92rcd13ifvqc7g","pricing_plan_id":"cebpf4jnsgd1na2vs0mg"},{"bike_id":"2165df71-d107-4015-b07d-8ad70fb5a68a","system_id":"levelo_inurba_marseille","lat":43.274902,"lon":5.424481,"is_reserved":false,"is_disabled":false,"rental_uris":{"android":"levelo://app?vid=2165df71-d107-4015-b07d-8ad70fb5a68a","ios":"levelo://app?vid=2165df71-d107-4015-b07d-8ad70fb5a68a"},"vehicle_type_id":"4","last_reported":1743491450,"current_range_meters":9200,"station_id":"ce4bhn92rcd13ifvqgrg","pricing_plan_id":"cebpf4jnsgd1na2vs0mg"},{"bike_id":"68dbaf4e-4b4a-43f6-a58c-921a9b9402c0","system_id":"levelo_inurba_marseille","lat":43.3095,"lon":5.39049,"is_reserved":false,"is_disabled":false,"rental_uris":{"android":"levelo://app?vid=68dbaf4e-4b4a-43f6-a58c-921a9b9402c0","ios":"levelo://app?vid=68dbaf4e-4b4a-43f6-a58c-921a9b9402c0"},"vehicle_type_id":"4","last_reported":1743491450,"current_range_meters":9200,"station_id":"ce4bgup2rcd13ifvqco0","pricing_plan_id":"cebpf4jnsgd1na2vs0mg"},{"bike_id":"923c9637-7dbb-4f8f-938b-41fa2be754f1","system_id":"levelo_inurba_marseille","lat":43.29539,"lon":5.39034,"is_reserved":false,"is_disabled":false,"rental_uris":{"android":"levelo://app?vid=923c9637-7dbb-4f8f-938b-41fa2be754f1","ios":"levelo://app?vid=923c9637-7dbb-4f8f-938b-41fa2be754f1"},"vehicle_type_id":"4","last_reported":1743491450,"current_range_meters":9200,"station_id":"ce4bh3p2rcd13ifvqdp0","pricing_plan_id":"cebpf4jnsgd1na2vs0mg"},{"bike_id":"38e0645a-6527-44fb-bda8-77d2756d02e3","system_id":"levelo_inurba_marseille","lat":43.31364,"lon":5.36691,"is_reserved":false,"is_disabled":false,"rental_uris":{"android":"levelo://app?vid=38e0645a-6527-44fb-bda8-77d2756d02e3","ios":"levelo://app?vid=38e0645a-6527-44fb-bda8-77d2756d02e3"},"vehicle_type_id":"4","last_reported":1743491450,"current_range_meters":9200,"station_id":"ce4bgr92rcd13ifvqc6g","pricing_plan_id":"cebpf4jnsgd1na2vs0mg"},{"bike_id":"ab44caac-d617-4c4f-baa7-23d68173bc1b","system_id":"levelo_inurba_marseille","lat":43.24161,"lon":5.39694,"is_reserved":false,"is_disabled":false,"rental_uris":{"android":"levelo://app?vid=ab44caac-d617-4c4f-baa7-23d68173bc1b","ios":"levelo://app?vid=ab44caac-d617-4c4f-baa7-23d68173bc1b"},"vehicle_type_id":"4","last_reported":1743491450,"current_range_meters":9600,"station_id":"ce4bhn12rcd13ifvqgpg","pricing_plan_id":"cebpf4jnsgd1na2vs0mg"},{"bike_id":"d4a8e9cc-cbba-45a1-b302-de75f3102baa","system_id":"levelo_inurba_marseille","lat":43.31361,"lon":5.36711,"is_reserved":false,"is_disabled":false,"rental_uris":{"android":"levelo://app?vid=d4a8e9cc-cbba-45a1-b302-de75f3102baa","ios":"levelo://app?vid=d4a8e9cc-cbba-45a1-b302-de75f3102baa"},"vehicle_type_id":"4","last_reported":1743491450,"current_range_meters":9600,"station_id":"ce4bgr92rcd13ifvqc6g","pricing_plan_id":"cebpf4jnsgd1na2vs0mg"},{"bike_id":"47f5b21d-a327-4601-b659-015a64e5754a","system_id":"levelo_inurba_marseille","lat":43.3028,"lon":5.37699,"is_reserved":false,"is_disabled":false,"rental_uris":{"android":"levelo://app?vid=47f5b21d-a327-4601-b659-015a64e5754a","ios":"levelo://app?vid=47f5b21d-a327-4601-b659-015a64e5754a"},"vehicle_type_id":"4","last_reported":1743491450,"current_range_meters":9600,"station_id":"ce4bguh2rcd13ifvqcj0","pricing_plan_id":"cebpf4jnsgd1na2vs0mg"},{"bike_id":"5c990ee9-46ae-47e7-a660-38a1a434d20c","system_id":"levelo_inurba_marseille","lat":43.33725,"lon":5.39178,"is_reserved":false,"is_disabled":false,"rental_uris":{"android":"levelo://app?vid=5c990ee9-46ae-47e7-a660-38a1a434d20c","ios":"levelo://app?vid=5c990ee9-46ae-47e7-a660-38a1a434d20c"},"vehicle_type_id":"4","last_reported":1743491450,"current_range_meters":9600,"station_id":"ce4bhr92rcd13ifvqhsg","pricing_plan_id":"cebpf4jnsgd1na2vs0mg"},{"bike_id":"2286499e-afb3-42f0-be29-239621d5e7b7","system_id":"levelo_inurba_marseille","lat":43.24187,"lon":5.39734,"is_reserved":false,"is_disabled":false,"rental_uris":{"android":"levelo://app?vid=2286499e-afb3-42f0-be29-239621d5e7b7","ios":"levelo://app?vid=2286499e-afb3-42f0-be29-239621d5e7b7"},"vehicle_type_id":"4","last_reported":1743491450,"current_range_meters":9600,"station_id":"ce4bhn12rcd13ifvqgpg","pricing_plan_id":"cebpf4jnsgd1na2vs0mg"},{"bike_id":"417482a7-f398-4538-9117-f67734c309ce","system_id":"levelo_inurba_marseille","lat":43.28709,"lon":5.3999,"is_reserved":false,"is_disabled":false,"rental_uris":{"android":"levelo://app?vid=417482a7-f398-4538-9117-f67734c309ce","ios":"levelo://app?vid=417482a7-f398-4538-9117-f67734c309ce"},"vehicle_type_id":"4","last_reported":1743491450,"current_range_meters":16000,"station_id":"ce4bho92rcd13ifvqh3g","pricing_plan_id":"cebpf4jnsgd1na2vs0mg"},{"bike_id":"b076ce24-dac9-486b-a7f8-51e27f04e332","system_id":"levelo_inurba_marseille","lat":43.27887,"lon":5.38003,"is_reserved":false,"is_disabled":false,"rental_uris":{"android":"levelo://app?vid=b076ce24-dac9-486b-a7f8-51e27f04e332","ios":"levelo://app?vid=b076ce24-dac9-486b-a7f8-51e27f04e332"},"vehicle_type_id":"4","last_reported":1743491450,"current_range_meters":9600,"station_id":"ce4bhf92rcd13ifvqf50","pricing_plan_id":"cebpf4jnsgd1na2vs0mg"},{"bike_id":"a0f0c14e-d0a6-47b7-baf8-7523b26f576b","system_id":"levelo_inurba_marseille","lat":43.29972,"lon":5.37174,"is_reserved":false,"is_disabled":false,"rental_uris":{"android":"levelo://app?vid=a0f0c14e-d0a6-47b7-baf8-7523b26f576b","ios":"levelo://app?vid=a0f0c14e-d0a6-47b7-baf8-7523b26f576b"},"vehicle_type_id":"4","last_reported":1743491450,"current_range_meters":9600,"station_id":"ce4bgr92rcd13ifvqc7g","pricing_plan_id":"cebpf4jnsgd1na2vs0mg"},{"bike_id":"82e9f927-a2f7-4b24-a679-db0f3922d2f0","system_id":"levelo_inurba_marseille","lat":43.29301,"lon":5.37467,"is_reserved":false,"is_disabled":false,"rental_uris":{"android":"levelo://app?vid=82e9f927-a2f7-4b24-a679-db0f3922d2f0","ios":"levelo://app?vid=82e9f927-a2f7-4b24-a679-db0f3922d2f0"},"vehicle_type_id":"4","last_reported":1743491450,"current_range_meters":9600,"station_id":"ce4bgi12rcd13ifvqb70","pricing_plan_id":"cebpf4jnsgd1na2vs0mg"},{"bike_id":"c5f908d3-4610-4cae-8aeb-e89ca0e64cc1","system_id":"levelo_inurba_marseille","lat":43.33595,"lon":5.41034,"is_reserved":false,"is_disabled":false,"rental_uris":{"android":"levelo://app?vid=c5f908d3-4610-4cae-8aeb-e89ca0e64cc1","ios":"levelo://app?vid=c5f908d3-4610-4cae-8aeb-e89ca0e64cc1"},"vehicle_type_id":"4","last_reported":1743491450,"current_range_meters":9600,"station_id":"ce4bhqh2rcd13ifvqhmg","pricing_plan_id":"cebpf4jnsgd1na2vs0mg"},{"bike_id":"ca1ef741-c411-418f-b272-bb49948f9c3f","system_id":"levelo_inurba_marseille","lat":43.24077,"lon":5.37755,"is_reserved":false,"is_disabled":false,"rental_uris":{"android":"levelo://app?vid=ca1ef741-c411-418f-b272-bb49948f9c3f","ios":"levelo://app?vid=ca1ef741-c411-418f-b272-bb49948f9c3f"},"vehicle_type_id":"4","last_reported":1743491450,"current_range_meters":9600,"station_id":"ce4bhnp2rcd13ifvqgvg","pricing_plan_id":"cebpf4jnsgd1na2vs0mg"},{"bike_id":"b47f79b2-85c6-4703-aaee-d89c9fa986c7","system_id":"levelo_inurba_marseille","lat":43.28477,"lon":5.38547,"is_reserved":false,"is_disabled":false,"rental_uris":{"android":"levelo://app?vid=b47f79b2-85c6-4703-aaee-d89c9fa986c7","ios":"levelo://app?vid=b47f79b2-85c6-4703-aaee-d89c9fa986c7"},"vehicle_type_id":"4","last_reported":1743491450,"current_range_meters":9600,"station_id":"ce4bh8p2rcd13ifvqeb0","pricing_plan_id":"cebpf4jnsgd1na2vs0mg"},{"bike_id":"4facba6b-3408-412d-95cd-d43295b75c28","system_id":"levelo_inurba_marseille","lat":43.30516,"lon":5.37905,"is_reserved":false,"is_disabled":false,"rental_uris":{"android":"levelo://app?vid=4facba6b-3408-412d-95cd-d43295b75c28","ios":"levelo://app?vid=4facba6b-3408-412d-95cd-d43295b75c28"},"vehicle_type_id":"4","last_reported":1743491450,"current_range_meters":10000,"station_id":"","pricing_plan_id":"cebpf4jnsgd1na2vs0mg"},{"bike_id":"192e4076-b3db-4f87-9e9d-cbff777926a6","system_id":"levelo_inurba_marseille","lat":43.31993,"lon":5.38132,"is_reserved":false,"is_disabled":false,"rental_uris":{"android":"levelo://app?vid=192e4076-b3db-4f87-9e9d-cbff777926a6","ios":"levelo://app?vid=192e4076-b3db-4f87-9e9d-cbff777926a6"},"vehicle_type_id":"4","last_reported":1743491450,"current_range_meters":10800,"station_id":"ce4bhr12rcd13ifvqhpg","pricing_plan_id":"cebpf4jnsgd1na2vs0mg"},{"bike_id":"38f0380d-34f1-47f6-8f3f-86307daa8b1c","system_id":"levelo_inurba_marseille","lat":43.23151,"lon":5.43723,"is_reserved":false,"is_disabled":true,"rental_uris":{"android":"levelo://app?vid=38f0380d-34f1-47f6-8f3f-86307daa8b1c","ios":"levelo://app?vid=38f0380d-34f1-47f6-8f3f-86307daa8b1c"},"vehicle_type_id":"4","last_reported":1743491450,"current_range_meters":10800,"station_id":"ce4bhmp2rcd13ifvqgog","pricing_plan_id":"cebpf4jnsgd1na2vs0mg"},{"bike_id":"e5628a4c-27ee-47a8-917f-f617da041f7f","system_id":"levelo_inurba_marseille","lat":43.29039,"lon":5.3996,"is_reserved":false,"is_disabled":false,"rental_uris":{"android":"levelo://app?vid=e5628a4c-27ee-47a8-917f-f617da041f7f","ios":"levelo://app?vid=e5628a4c-27ee-47a8-917f-f617da041f7f"},"vehicle_type_id":"4","last_reported":1743491450,"current_range_meters":10800,"station_id":"ce4bh392rcd13ifvqdm0","pricing_plan_id":"cebpf4jnsgd1na2vs0mg"},{"bike_id":"054d4318-0d4c-4ecd-9b34-0085eb9f6d54","system_id":"levelo_inurba_marseille","lat":43.29268,"lon":5.38447,"is_reserved":false,"is_disabled":false,"rental_uris":{"android":"levelo://app?vid=054d4318-0d4c-4ecd-9b34-0085eb9f6d54","ios":"levelo://app?vid=054d4318-0d4c-4ecd-9b34-0085eb9f6d54"},"vehicle_type_id":"4","last_reported":1743491450,"current_range_meters":10800,"station_id":"ce4bh692rcd13ifvqea0","pricing_plan_id":"cebpf4jnsgd1na2vs0mg"},{"bike_id":"bcb4aadb-39e9-4d73-9fde-478055361bb7","system_id":"levelo_inurba_marseille","lat":43.31692,"lon":5.40472,"is_reserved":false,"is_disabled":false,"rental_uris":{"android":"levelo://app?vid=bcb4aadb-39e9-4d73-9fde-478055361bb7","ios":"levelo://app?vid=bcb4aadb-39e9-4d73-9fde-478055361bb7"},"vehicle_type_id":"4","last_reported":1743491450,"current_range_meters":10800,"station_id":"ce4bh012rcd13ifvqd00","pricing_plan_id":"cebpf4jnsgd1na2vs0mg"},{"bike_id":"cdb2e7a3-c999-497e-a9de-b43472b97dae","system_id":"levelo_inurba_marseille","lat":43.28729,"lon":5.37952,"is_reserved":false,"is_disabled":false,"rental_uris":{"android":"levelo://app?vid=cdb2e7a3-c999-497e-a9de-b43472b97dae","ios":"levelo://app?vid=cdb2e7a3-c999-497e-a9de-b43472b97dae"},"vehicle_type_id":"4","last_reported":1743491450,"current_range_meters":10800,"station_id":"ce4bh9p2rcd13ifvqec0","pricing_plan_id":"cebpf4jnsgd1na2vs0mg"},{"bike_id":"dcfe4c03-ddcc-4a07-b68f-d4daf2ff2d39","system_id":"levelo_inurba_marseille","lat":43.24073,"lon":5.37766,"is_reserved":false,"is_disabled":false,"rental_uris":{"android":"levelo://app?vid=dcfe4c03-ddcc-4a07-b68f-d4daf2ff2d39","ios":"levelo://app?vid=dcfe4c03-ddcc-4a07-b68f-d4daf2ff2d39"},"vehicle_type_id":"4","last_reported":1743491450,"current_range_meters":10800,"station_id":"ce4bhnp2rcd13ifvqgvg","pricing_plan_id":"cebpf4jnsgd1na2vs0mg"},{"bike_id":"01173674-64e2-492d-b7da-d7fbf648e502","system_id":"levelo_inurba_marseille","lat":43.287871,"lon":5.384794,"is_reserved":false,"is_disabled":false,"rental_uris":{"android":"levelo://app?vid=01173674-64e2-492d-b7da-d7fbf648e502","ios":"levelo://app?vid=01173674-64e2-492d-b7da-d7fbf648e502"},"vehicle_type_id":"4","last_reported":1743491450,"current_range_meters":10800,"station_id":"ce4bgjh2rcd13ifvqbf0","pricing_plan_id":"cebpf4jnsgd1na2vs0mg"},{"bike_id":"649b5ad5-62ac-4bfd-a6cd-60fc43d8fef1","system_id":"levelo_inurba_marseille","lat":43.29252,"lon":5.39822,"is_reserved":false,"is_disabled":false,"rental_uris":{"android":"levelo://app?vid=649b5ad5-62ac-4bfd-a6cd-60fc43d8fef1","ios":"levelo://app?vid=649b5ad5-62ac-4bfd-a6cd-60fc43d8fef1"},"vehicle_type_id":"4","last_reported":1743491450,"current_range_meters":10800,"station_id":"","pricing_plan_id":"cebpf4jnsgd1na2vs0mg"},{"bike_id":"2247e634-bcf4-4d8c-8eb7-925d3e9e9daf","system_id":"levelo_inurba_marseille","lat":43.30433,"lon":5.39743,"is_reserved":false,"is_disabled":true,"rental_uris":{"android":"levelo://app?vid=2247e634-bcf4-4d8c-8eb7-925d3e9e9daf","ios":"levelo://app?vid=2247e634-bcf4-4d8c-8eb7-925d3e9e9daf"},"vehicle_type_id":"4","last_reported":1743491450,"current_range_meters":10800,"station_id":"ce4bh092rcd13ifvqd20","pricing_plan_id":"cebpf4jnsgd1na2vs0mg"},{"bike_id":"5e5bb63f-5ed0-40f2-90d2-12faf51e0b4f","system_id":"levelo_inurba_marseille","lat":43.29046,"lon":5.39993,"is_reserved":false,"is_disabled":false,"rental_uris":{"android":"levelo://app?vid=5e5bb63f-5ed0-40f2-90d2-12faf51e0b4f","ios":"levelo://app?vid=5e5bb63f-5ed0-40f2-90d2-12faf51e0b4f"},"vehicle_type_id":"4","last_reported":1743491450,"current_range_meters":11200,"station_id":"ce4bh392rcd13ifvqdm0","pricing_plan_id":"cebpf4jnsgd1na2vs0mg"},{"bike_id":"4d1ef574-507a-4fec-a6d9-b5b49b8c445e","system_id":"levelo_inurba_marseille","lat":43.29274,"lon":5.3684,"is_reserved":false,"is_disabled":true,"rental_uris":{"android":"levelo://app?vid=4d1ef574-507a-4fec-a6d9-b5b49b8c445e","ios":"levelo://app?vid=4d1ef574-507a-4fec-a6d9-b5b49b8c445e"},"vehicle_type_id":"4","last_reported":1743491450,"current_range_meters":11200,"station_id":"ce4bhbp2rcd13ifvqesg","pricing_plan_id":"cebpf4jnsgd1na2vs0mg"},{"bike_id":"0a3c50b2-306a-46cd-9b1e-a336c2e836dc","system_id":"levelo_inurba_marseille","lat":43.26213,"lon":5.3744,"is_reserved":false,"is_disabled":true,"rental_uris":{"android":"levelo://app?vid=0a3c50b2-306a-46cd-9b1e-a336c2e836dc","ios":"levelo://app?vid=0a3c50b2-306a-46cd-9b1e-a336c2e836dc"},"vehicle_type_id":"4","last_reported":1743491450,"current_range_meters":8400,"station_id":"ce4bhgp2rcd13ifvqfc0","pricing_plan_id":"cebpf4jnsgd1na2vs0mg"},{"bike_id":"a61d69b6-c682-4e51-b65c-90e9332cb9b6","system_id":"levelo_inurba_marseille","lat":43.29241,"lon":5.37632,"is_reserved":false,"is_disabled":false,"rental_uris":{"android":"levelo://app?vid=a61d69b6-c682-4e51-b65c-90e9332cb9b6","ios":"levelo://app?vid=a61d69b6-c682-4e51-b65c-90e9332cb9b6"},"vehicle_type_id":"4","last_reported":1743491450,"current_range_meters":11200,"station_id":"ce4bgi12rcd13ifvqb80","pricing_plan_id":"cebpf4jnsgd1na2vs0mg"},{"bike_id":"9489ddc3-c725-45a3-8634-b310a274d375","system_id":"levelo_inurba_marseille","lat":43.3109,"lon":5.42439,"is_reserved":false,"is_disabled":false,"rental_uris":{"android":"levelo://app?vid=9489ddc3-c725-45a3-8634-b310a274d375","ios":"levelo://app?vid=9489ddc3-c725-45a3-8634-b310a274d375"},"vehicle_type_id":"4","last_reported":1743491450,"current_range_meters":11200,"station_id":"ce4bhp92rcd13ifvqhag","pricing_plan_id":"cebpf4jnsgd1na2vs0mg"},{"bike_id":"4a4796dd-cd83-47cb-a56d-b61e11276fdb","system_id":"levelo_inurba_marseille","lat":43.25926,"lon":5.40905,"is_reserved":false,"is_disabled":false,"rental_uris":{"android":"levelo://app?vid=4a4796dd-cd83-47cb-a56d-b61e11276fdb","ios":"levelo://app?vid=4a4796dd-cd83-47cb-a56d-b61e11276fdb"},"vehicle_type_id":"4","last_reported":1743491450,"current_range_meters":11200,"station_id":"ce4bhm92rcd13ifvqglg","pricing_plan_id":"cebpf4jnsgd1na2vs0mg"},{"bike_id":"113ede65-b1f6-4626-b25b-286b34c111c2","system_id":"levelo_inurba_marseille","lat":43.28944,"lon":5.36635,"is_reserved":false,"is_disabled":true,"rental_uris":{"android":"levelo://app?vid=113ede65-b1f6-4626-b25b-286b34c111c2","ios":"levelo://app?vid=113ede65-b1f6-4626-b25b-286b34c111c2"},"vehicle_type_id":"4","last_reported":1743491450,"current_range_meters":11200,"station_id":"ce4bhap2rcd13ifvqek0","pricing_plan_id":"cebpf4jnsgd1na2vs0mg"},{"bike_id":"af8c818b-f7fe-47e2-828d-b358fed904c1","system_id":"levelo_inurba_marseille","lat":43.33615,"lon":5.4102,"is_reserved":false,"is_disabled":false,"rental_uris":{"android":"levelo://app?vid=af8c818b-f7fe-47e2-828d-b358fed904c1","ios":"levelo://app?vid=af8c818b-f7fe-47e2-828d-b358fed904c1"},"vehicle_type_id":"4","last_reported":1743491450,"current_range_meters":11200,"station_id":"ce4bhqh2rcd13ifvqhmg","pricing_plan_id":"cebpf4jnsgd1na2vs0mg"},{"bike_id":"0f5fb32a-6246-4f0e-bcb4-a17676d5f572","system_id":"levelo_inurba_marseille","lat":43.23185,"lon":5.39985,"is_reserved":false,"is_disabled":false,"rental_uris":{"android":"levelo://app?vid=0f5fb32a-6246-4f0e-bcb4-a17676d5f572","ios":"levelo://app?vid=0f5fb32a-6246-4f0e-bcb4-a17676d5f572"},"vehicle_type_id":"4","last_reported":1743491450,"current_range_meters":11200,"station_id":"ce4bhn12rcd13ifvqgqg","pricing_plan_id":"cebpf4jnsgd1na2vs0mg"},{"bike_id":"5b1ffc7a-efeb-4d60-adf5-fc486c0e713a","system_id":"levelo_inurba_marseille","lat":43.250031,"lon":5.389258,"is_reserved":false,"is_disabled":false,"rental_uris":{"android":"levelo://app?vid=5b1ffc7a-efeb-4d60-adf5-fc486c0e713a","ios":"levelo://app?vid=5b1ffc7a-efeb-4d60-adf5-fc486c0e713a"},"vehicle_type_id":"4","last_reported":1743491450,"current_range_meters":11600,"station_id":"ce4bhgp2rcd13ifvqfd0","pricing_plan_id":"cebpf4jnsgd1na2vs0mg"},{"bike_id":"6821443d-8835-4f1b-b131-8bd3f5c087eb","system_id":"levelo_inurba_marseille","lat":43.30944,"lon":5.39024,"is_reserved":false,"is_disabled":false,"rental_uris":{"android":"levelo://app?vid=6821443d-8835-4f1b-b131-8bd3f5c087eb","ios":"levelo://app?vid=6821443d-8835-4f1b-b131-8bd3f5c087eb"},"vehicle_type_id":"4","last_reported":1743491450,"current_range_meters":11600,"station_id":"ce4bgup2rcd13ifvqco0","pricing_plan_id":"cebpf4jnsgd1na2vs0mg"},{"bike_id":"41e7a323-5090-4c6c-9dbf-b8655af19255","system_id":"levelo_inurba_marseille","lat":43.31245,"lon":5.36859,"is_reserved":false,"is_disabled":true,"rental_uris":{"android":"levelo://app?vid=41e7a323-5090-4c6c-9dbf-b8655af19255","ios":"levelo://app?vid=41e7a323-5090-4c6c-9dbf-b8655af19255"},"vehicle_type_id":"4","last_reported":1743491450,"current_range_meters":11600,"station_id":"ce4bgl92rcd13ifvqbq0","pricing_plan_id":"cebpf4jnsgd1na2vs0mg"},{"bike_id":"c86f3dd7-4af6-4e32-832d-8c711682ef46","system_id":"levelo_inurba_marseille","lat":43.259856,"lon":5.409827,"is_reserved":false,"is_disabled":false,"rental_uris":{"android":"levelo://app?vid=c86f3dd7-4af6-4e32-832d-8c711682ef46","ios":"levelo://app?vid=c86f3dd7-4af6-4e32-832d-8c711682ef46"},"vehicle_type_id":"4","last_reported":1743491450,"current_range_meters":11600,"station_id":"ce4bhm92rcd13ifvqglg","pricing_plan_id":"cebpf4jnsgd1na2vs0mg"},{"bike_id":"80e28d79-26fb-48ce-b60a-07d4b4173c00","system_id":"levelo_inurba_marseille","lat":43.30897,"lon":5.36842,"is_reserved":false,"is_disabled":false,"rental_uris":{"android":"levelo://app?vid=80e28d79-26fb-48ce-b60a-07d4b4173c00","ios":"levelo://app?vid=80e28d79-26fb-48ce-b60a-07d4b4173c00"},"vehicle_type_id":"4","last_reported":1743491450,"current_range_meters":11600,"station_id":"ce4bgn92rcd13ifvqbvg","pricing_plan_id":"cebpf4jnsgd1na2vs0mg"},{"bike_id":"159b1a57-d33a-4c4e-9de5-425002d00e96","system_id":"levelo_inurba_marseille","lat":43.25909,"lon":5.40909,"is_reserved":false,"is_disabled":false,"rental_uris":{"android":"levelo://app?vid=159b1a57-d33a-4c4e-9de5-425002d00e96","ios":"levelo://app?vid=159b1a57-d33a-4c4e-9de5-425002d00e96"},"vehicle_type_id":"4","last_reported":1743491450,"current_range_meters":11600,"station_id":"ce4bhm92rcd13ifvqglg","pricing_plan_id":"cebpf4jnsgd1na2vs0mg"},{"bike_id":"bbb111d2-b0ef-402b-a141-b4d89e2670ef","system_id":"levelo_inurba_marseille","lat":43.31358,"lon":5.36708,"is_reserved":false,"is_disabled":false,"rental_uris":{"android":"levelo://app?vid=bbb111d2-b0ef-402b-a141-b4d89e2670ef","ios":"levelo://app?vid=bbb111d2-b0ef-402b-a141-b4d89e2670ef"},"vehicle_type_id":"4","last_reported":1743491450,"current_range_meters":11600,"station_id":"ce4bgr92rcd13ifvqc6g","pricing_plan_id":"cebpf4jnsgd1na2vs0mg"},{"bike_id":"0e641d4c-4c84-4ea7-ab75-9647bc8dfd36","system_id":"levelo_inurba_marseille","lat":43.30837,"lon":5.396588,"is_reserved":false,"is_disabled":false,"rental_uris":{"android":"levelo://app?vid=0e641d4c-4c84-4ea7-ab75-9647bc8dfd36","ios":"levelo://app?vid=0e641d4c-4c84-4ea7-ab75-9647bc8dfd36"},"vehicle_type_id":"4","last_reported":1743491450,"current_range_meters":11200,"station_id":"ce4bh012rcd13ifvqcv0","pricing_plan_id":"cebpf4jnsgd1na2vs0mg"},{"bike_id":"a65c60d0-9838-4fce-ab82-173f64a7b595","system_id":"levelo_inurba_marseille","lat":43.24181,"lon":5.39722,"is_reserved":false,"is_disabled":false,"rental_uris":{"android":"levelo://app?vid=a65c60d0-9838-4fce-ab82-173f64a7b595","ios":"levelo://app?vid=a65c60d0-9838-4fce-ab82-173f64a7b595"},"vehicle_type_id":"4","last_reported":1743491450,"current_range_meters":12000,"station_id":"ce4bhn12rcd13ifvqgpg","pricing_plan_id":"cebpf4jnsgd1na2vs0mg"},{"bike_id":"2c567be4-626d-4614-8796-6c92d09d2fa1","system_id":"levelo_inurba_marseille","lat":43.28908,"lon":5.37097,"is_reserved":false,"is_disabled":false,"rental_uris":{"android":"levelo://app?vid=2c567be4-626d-4614-8796-6c92d09d2fa1","ios":"levelo://app?vid=2c567be4-626d-4614-8796-6c92d09d2fa1"},"vehicle_type_id":"4","last_reported":1743491450,"current_range_meters":12000,"station_id":"","pricing_plan_id":"cebpf4jnsgd1na2vs0mg"},{"bike_id":"f2faeaa9-a2bd-4151-8981-ef2bdc75f34d","system_id":"levelo_inurba_marseille","lat":43.31358,"lon":5.36704,"is_reserved":false,"is_disabled":false,"rental_uris":{"android":"levelo://app?vid=f2faeaa9-a2bd-4151-8981-ef2bdc75f34d","ios":"levelo://app?vid=f2faeaa9-a2bd-4151-8981-ef2bdc75f34d"},"vehicle_type_id":"4","last_reported":1743491450,"current_range_meters":12000,"station_id":"ce4bgr92rcd13ifvqc6g","pricing_plan_id":"cebpf4jnsgd1na2vs0mg"},{"bike_id":"c884ea63-085e-42fe-adc5-99bac559525a","system_id":"levelo_inurba_marseille","lat":43.29242,"lon":5.40108,"is_reserved":false,"is_disabled":true,"rental_uris":{"android":"levelo://app?vid=c884ea63-085e-42fe-adc5-99bac559525a","ios":"levelo://app?vid=c884ea63-085e-42fe-adc5-99bac559525a"},"vehicle_type_id":"4","last_reported":1743491450,"current_range_meters":12000,"station_id":"ce4bh312rcd13ifvqdk0","pricing_plan_id":"cebpf4jnsgd1na2vs0mg"},{"bike_id":"e47bc61d-df2d-41b3-b26b-dd94e6e5e301","system_id":"levelo_inurba_marseille","lat":43.26288,"lon":5.42193,"is_reserved":false,"is_disabled":false,"rental_uris":{"android":"levelo://app?vid=e47bc61d-df2d-41b3-b26b-dd94e6e5e301","ios":"levelo://app?vid=e47bc61d-df2d-41b3-b26b-dd94e6e5e301"},"vehicle_type_id":"4","last_reported":1743491450,"current_range_meters":12000,"station_id":"","pricing_plan_id":"cebpf4jnsgd1na2vs0mg"},{"bike_id":"27773214-4312-4127-aa54-e74cba3d6d07","system_id":"levelo_inurba_marseille","lat":43.27783,"lon":5.4072,"is_reserved":false,"is_disabled":false,"rental_uris":{"android":"levelo://app?vid=27773214-4312-4127-aa54-e74cba3d6d07","ios":"levelo://app?vid=27773214-4312-4127-aa54-e74cba3d6d07"},"vehicle_type_id":"4","last_reported":1743491450,"current_range_meters":12000,"station_id":"ce4bhnh2rcd13ifvqgtg","pricing_plan_id":"cebpf4jnsgd1na2vs0mg"},{"bike_id":"536ba4f2-6326-4b02-b6f0-b28fefa5dd7b","system_id":"levelo_inurba_marseille","lat":43.34151,"lon":5.40905,"is_reserved":false,"is_disabled":false,"rental_uris":{"android":"levelo://app?vid=536ba4f2-6326-4b02-b6f0-b28fefa5dd7b","ios":"levelo://app?vid=536ba4f2-6326-4b02-b6f0-b28fefa5dd7b"},"vehicle_type_id":"4","last_reported":1743491450,"current_range_meters":12400,"station_id":"ce4bhqh2rcd13ifvqhlg","pricing_plan_id":"cebpf4jnsgd1na2vs0mg"},{"bike_id":"e3346993-b18a-46d2-87d7-a70652b73900","system_id":"levelo_inurba_marseille","lat":43.2455,"lon":5.39524,"is_reserved":false,"is_disabled":false,"rental_uris":{"android":"levelo://app?vid=e3346993-b18a-46d2-87d7-a70652b73900","ios":"levelo://app?vid=e3346993-b18a-46d2-87d7-a70652b73900"},"vehicle_type_id":"4","last_reported":1743491450,"current_range_meters":12400,"station_id":"ce4bhlp2rcd13ifvqgjg","pricing_plan_id":"cebpf4jnsgd1na2vs0mg"},{"bike_id":"be10fa1b-37c8-4b0c-b1d0-c98d956cd467","system_id":"levelo_inurba_marseille","lat":43.293598,"lon":5.378345,"is_reserved":false,"is_disabled":false,"rental_uris":{"android":"levelo://app?vid=be10fa1b-37c8-4b0c-b1d0-c98d956cd467","ios":"levelo://app?vid=be10fa1b-37c8-4b0c-b1d0-c98d956cd467"},"vehicle_type_id":"4","last_reported":1743491450,"current_range_meters":12000,"station_id":"ce4bha92rcd13ifvqeh0","pricing_plan_id":"cebpf4jnsgd1na2vs0mg"},{"bike_id":"06357cc9-b5a2-4479-a20a-541038310ad8","system_id":"levelo_inurba_marseille","lat":43.268014,"lon":5.402677,"is_reserved":false,"is_disabled":true,"rental_uris":{"android":"levelo://app?vid=06357cc9-b5a2-4479-a20a-541038310ad8","ios":"levelo://app?vid=06357cc9-b5a2-4479-a20a-541038310ad8"},"vehicle_type_id":"4","last_reported":1743491450,"current_range_meters":12400,"station_id":"ce501612rcd8frsf0b60","pricing_plan_id":"cebpf4jnsgd1na2vs0mg"},{"bike_id":"1b63ccb2-1298-4d96-b7f3-6ad6cace00e9","system_id":"levelo_inurba_marseille","lat":43.26121,"lon":5.40095,"is_reserved":false,"is_disabled":false,"rental_uris":{"android":"levelo://app?vid=1b63ccb2-1298-4d96-b7f3-6ad6cace00e9","ios":"levelo://app?vid=1b63ccb2-1298-4d96-b7f3-6ad6cace00e9"},"vehicle_type_id":"4","last_reported":1743491450,"current_range_meters":12400,"station_id":"","pricing_plan_id":"cebpf4jnsgd1na2vs0mg"},{"bike_id":"a8b58ed4-7bfa-4d3a-988d-92dd309b5e3d","system_id":"levelo_inurba_marseille","lat":43.30882,"lon":5.39631,"is_reserved":false,"is_disabled":false,"rental_uris":{"android":"levelo://app?vid=a8b58ed4-7bfa-4d3a-988d-92dd309b5e3d","ios":"levelo://app?vid=a8b58ed4-7bfa-4d3a-988d-92dd309b5e3d"},"vehicle_type_id":"4","last_reported":1743491450,"current_range_meters":12400,"station_id":"ce4bh012rcd13ifvqcv0","pricing_plan_id":"cebpf4jnsgd1na2vs0mg"},{"bike_id":"476e30d7-334d-49d2-b23b-4150fb1ce367","system_id":"levelo_inurba_marseille","lat":43.30511,"lon":5.36712,"is_reserved":false,"is_disabled":false,"rental_uris":{"android":"levelo://app?vid=476e30d7-334d-49d2-b23b-4150fb1ce367","ios":"levelo://app?vid=476e30d7-334d-49d2-b23b-4150fb1ce367"},"vehicle_type_id":"4","last_reported":1743491450,"current_range_meters":12800,"station_id":"ce4bgrp2rcd13ifvqc9g","pricing_plan_id":"cebpf4jnsgd1na2vs0mg"},{"bike_id":"050aa1d6-bf6e-4edf-b901-0bc0bf8c15c9","system_id":"levelo_inurba_marseille","lat":43.28873,"lon":5.39312,"is_reserved":false,"is_disabled":false,"rental_uris":{"android":"levelo://app?vid=050aa1d6-bf6e-4edf-b901-0bc0bf8c15c9","ios":"levelo://app?vid=050aa1d6-bf6e-4edf-b901-0bc0bf8c15c9"},"vehicle_type_id":"4","last_reported":1743491450,"current_range_meters":12800,"station_id":"ce4bhr12rcd13ifvqhqg","pricing_plan_id":"cebpf4jnsgd1na2vs0mg"},{"bike_id":"f9556671-f8e9-4ef6-b997-21a30e85c7b2","system_id":"levelo_inurba_marseille","lat":43.23143,"lon":5.4372,"is_reserved":false,"is_disabled":false,"rental_uris":{"android":"levelo://app?vid=f9556671-f8e9-4ef6-b997-21a30e85c7b2","ios":"levelo://app?vid=f9556671-f8e9-4ef6-b997-21a30e85c7b2"},"vehicle_type_id":"4","last_reported":1743491450,"current_range_meters":12800,"station_id":"ce4bhmp2rcd13ifvqgog","pricing_plan_id":"cebpf4jnsgd1na2vs0mg"},{"bike_id":"9d8b51bf-fd65-426c-9799-839498b24ee9","system_id":"levelo_inurba_marseille","lat":43.30667,"lon":5.36625,"is_reserved":false,"is_disabled":true,"rental_uris":{"android":"levelo://app?vid=9d8b51bf-fd65-426c-9799-839498b24ee9","ios":"levelo://app?vid=9d8b51bf-fd65-426c-9799-839498b24ee9"},"vehicle_type_id":"4","last_reported":1743491450,"current_range_meters":12800,"station_id":"","pricing_plan_id":"cebpf4jnsgd1na2vs0mg"},{"bike_id":"16dd592e-7732-47c3-a664-305413913b8b","system_id":"levelo_inurba_marseille","lat":43.28458,"lon":5.35899,"is_reserved":false,"is_disabled":true,"rental_uris":{"android":"levelo://app?vid=16dd592e-7732-47c3-a664-305413913b8b","ios":"levelo://app?vid=16dd592e-7732-47c3-a664-305413913b8b"},"vehicle_type_id":"4","last_reported":1743491450,"current_range_meters":12800,"station_id":"ce4bhah2rcd13ifvqei0","pricing_plan_id":"cebpf4jnsgd1na2vs0mg"},{"bike_id":"a32f7781-a1b5-44a3-aa6b-479ac097cd80","system_id":"levelo_inurba_marseille","lat":43.26686,"lon":5.38272,"is_reserved":false,"is_disabled":true,"rental_uris":{"android":"levelo://app?vid=a32f7781-a1b5-44a3-aa6b-479ac097cd80","ios":"levelo://app?vid=a32f7781-a1b5-44a3-aa6b-479ac097cd80"},"vehicle_type_id":"4","last_reported":1743491450,"current_range_meters":12800,"station_id":"ce4bhg92rcd13ifvqf90","pricing_plan_id":"cebpf4jnsgd1na2vs0mg"},{"bike_id":"9c5f4948-04b3-494a-afb4-612ce94ced7e","system_id":"levelo_inurba_marseille","lat":43.30478,"lon":5.3792,"is_reserved":false,"is_disabled":false,"rental_uris":{"android":"levelo://app?vid=9c5f4948-04b3-494a-afb4-612ce94ced7e","ios":"levelo://app?vid=9c5f4948-04b3-494a-afb4-612ce94ced7e"},"vehicle_type_id":"4","last_reported":1743491450,"current_range_meters":12800,"station_id":"ce4bgup2rcd13ifvqcn0","pricing_plan_id":"cebpf4jnsgd1na2vs0mg"},{"bike_id":"7d24f7f3-5a91-46ae-971d-a7a715309919","system_id":"levelo_inurba_marseille","lat":43.23188,"lon":5.39993,"is_reserved":false,"is_disabled":false,"rental_uris":{"android":"levelo://app?vid=7d24f7f3-5a91-46ae-971d-a7a715309919","ios":"levelo://app?vid=7d24f7f3-5a91-46ae-971d-a7a715309919"},"vehicle_type_id":"4","last_reported":1743491450,"current_range_meters":12800,"station_id":"ce4bhn12rcd13ifvqgqg","pricing_plan_id":"cebpf4jnsgd1na2vs0mg"},{"bike_id":"b18d61be-1314-4787-bdc3-677619cdb9f9","system_id":"levelo_inurba_marseille","lat":43.299288,"lon":5.3704,"is_reserved":false,"is_disabled":false,"rental_uris":{"android":"levelo://app?vid=b18d61be-1314-4787-bdc3-677619cdb9f9","ios":"levelo://app?vid=b18d61be-1314-4787-bdc3-677619cdb9f9"},"vehicle_type_id":"4","last_reported":1743491450,"current_range_meters":12800,"station_id":"","pricing_plan_id":"cebpf4jnsgd1na2vs0mg"},{"bike_id":"ef6842a3-ab60-40ed-bdec-ef20aefd6b19","system_id":"levelo_inurba_marseille","lat":43.27897,"lon":5.4236,"is_reserved":false,"is_disabled":false,"rental_uris":{"android":"levelo://app?vid=ef6842a3-ab60-40ed-bdec-ef20aefd6b19","ios":"levelo://app?vid=ef6842a3-ab60-40ed-bdec-ef20aefd6b19"},"vehicle_type_id":"4","last_reported":1743491450,"current_range_meters":12800,"station_id":"","pricing_plan_id":"cebpf4jnsgd1na2vs0mg"},{"bike_id":"4799d4b4-6e26-4e69-a702-0d0bfb84d2b8","system_id":"levelo_inurba_marseille","lat":43.30908,"lon":5.3685,"is_reserved":false,"is_disabled":false,"rental_uris":{"android":"levelo://app?vid=4799d4b4-6e26-4e69-a702-0d0bfb84d2b8","ios":"levelo://app?vid=4799d4b4-6e26-4e69-a702-0d0bfb84d2b8"},"vehicle_type_id":"4","last_reported":1743491450,"current_range_meters":12800,"station_id":"ce4bgn92rcd13ifvqbvg","pricing_plan_id":"cebpf4jnsgd1na2vs0mg"},{"bike_id":"6fc1edc9-5560-411b-87fb-ef7cc7f8f6d0","system_id":"levelo_inurba_marseille","lat":43.3015,"lon":5.37413,"is_reserved":false,"is_disabled":false,"rental_uris":{"android":"levelo://app?vid=6fc1edc9-5560-411b-87fb-ef7cc7f8f6d0","ios":"levelo://app?vid=6fc1edc9-5560-411b-87fb-ef7cc7f8f6d0"},"vehicle_type_id":"4","last_reported":1743491450,"current_range_meters":13600,"station_id":"ce4bgs92rcd13ifvqcc0","pricing_plan_id":"cebpf4jnsgd1na2vs0mg"},{"bike_id":"4220d26d-272d-4b23-9cec-a79c1d919b49","system_id":"levelo_inurba_marseille","lat":43.30582,"lon":5.37133,"is_reserved":false,"is_disabled":false,"rental_uris":{"android":"levelo://app?vid=4220d26d-272d-4b23-9cec-a79c1d919b49","ios":"levelo://app?vid=4220d26d-272d-4b23-9cec-a79c1d919b49"},"vehicle_type_id":"4","last_reported":1743491450,"current_range_meters":13600,"station_id":"","pricing_plan_id":"cebpf4jnsgd1na2vs0mg"},{"bike_id":"6500f750-e8bd-46f6-ac0d-fa3ae306ea70","system_id":"levelo_inurba_marseille","lat":43.26681,"lon":5.382682,"is_reserved":false,"is_disabled":false,"rental_uris":{"android":"levelo://app?vid=6500f750-e8bd-46f6-ac0d-fa3ae306ea70","ios":"levelo://app?vid=6500f750-e8bd-46f6-ac0d-fa3ae306ea70"},"vehicle_type_id":"4","last_reported":1743491450,"current_range_meters":13600,"station_id":"ce4bhg92rcd13ifvqf90","pricing_plan_id":"cebpf4jnsgd1na2vs0mg"},{"bike_id":"637a7291-0b62-41ab-a1d1-aad7651093db","system_id":"levelo_inurba_marseille","lat":43.27834,"lon":5.40721,"is_reserved":false,"is_disabled":true,"rental_uris":{"android":"levelo://app?vid=637a7291-0b62-41ab-a1d1-aad7651093db","ios":"levelo://app?vid=637a7291-0b62-41ab-a1d1-aad7651093db"},"vehicle_type_id":"4","last_reported":1743491450,"current_range_meters":13600,"station_id":"ce4bhnh2rcd13ifvqgtg","pricing_plan_id":"cebpf4jnsgd1na2vs0mg"},{"bike_id":"398ca055-084d-42d0-8ca9-ed591e77e956","system_id":"levelo_inurba_marseille","lat":43.23153,"lon":5.4372,"is_reserved":false,"is_disabled":false,"rental_uris":{"android":"levelo://app?vid=398ca055-084d-42d0-8ca9-ed591e77e956","ios":"levelo://app?vid=398ca055-084d-42d0-8ca9-ed591e77e956"},"vehicle_type_id":"4","last_reported":1743491450,"current_range_meters":13600,"station_id":"ce4bhmp2rcd13ifvqgog","pricing_plan_id":"cebpf4jnsgd1na2vs0mg"},{"bike_id":"be73b588-beba-47fe-9e99-8721927b3931","system_id":"levelo_inurba_marseille","lat":43.2318,"lon":5.39996,"is_reserved":false,"is_disabled":false,"rental_uris":{"android":"levelo://app?vid=be73b588-beba-47fe-9e99-8721927b3931","ios":"levelo://app?vid=be73b588-beba-47fe-9e99-8721927b3931"},"vehicle_type_id":"4","last_reported":1743491450,"current_range_meters":13600,"station_id":"ce4bhn12rcd13ifvqgqg","pricing_plan_id":"cebpf4jnsgd1na2vs0mg"},{"bike_id":"9d68877f-4c6a-4029-bdb7-fe05cdfb2717","system_id":"levelo_inurba_marseille","lat":43.30779,"lon":5.37645,"is_reserved":false,"is_disabled":false,"rental_uris":{"android":"levelo://app?vid=9d68877f-4c6a-4029-bdb7-fe05cdfb2717","ios":"levelo://app?vid=9d68877f-4c6a-4029-bdb7-fe05cdfb2717"},"vehicle_type_id":"4","last_reported":1743491450,"current_range_meters":13600,"station_id":"ce4bgv92rcd13ifvqcq0","pricing_plan_id":"cebpf4jnsgd1na2vs0mg"},{"bike_id":"825e10be-8605-4b99-9df8-97e71f119517","system_id":"levelo_inurba_marseille","lat":43.324786,"lon":5.365646,"is_reserved":false,"is_disabled":false,"rental_uris":{"android":"levelo://app?vid=825e10be-8605-4b99-9df8-97e71f119517","ios":"levelo://app?vid=825e10be-8605-4b99-9df8-97e71f119517"},"vehicle_type_id":"4","last_reported":1743491450,"current_range_meters":12800,"station_id":"ce4bhs12rcd13ifvqhvg","pricing_plan_id":"cebpf4jnsgd1na2vs0mg"},{"bike_id":"65f9fdad-31a8-4fb3-87a1-c4fa64c86ebe","system_id":"levelo_inurba_marseille","lat":43.32481,"lon":5.36578,"is_reserved":false,"is_disabled":false,"rental_uris":{"android":"levelo://app?vid=65f9fdad-31a8-4fb3-87a1-c4fa64c86ebe","ios":"levelo://app?vid=65f9fdad-31a8-4fb3-87a1-c4fa64c86ebe"},"vehicle_type_id":"4","last_reported":1743491450,"current_range_meters":10800,"station_id":"ce4bhs12rcd13ifvqhvg","pricing_plan_id":"cebpf4jnsgd1na2vs0mg"},{"bike_id":"2f994f62-ac50-4bfd-94b7-30983b35d3ed","system_id":"levelo_inurba_marseille","lat":43.341393,"lon":5.40908,"is_reserved":false,"is_disabled":false,"rental_uris":{"android":"levelo://app?vid=2f994f62-ac50-4bfd-94b7-30983b35d3ed","ios":"levelo://app?vid=2f994f62-ac50-4bfd-94b7-30983b35d3ed"},"vehicle_type_id":"4","last_reported":1743491450,"current_range_meters":14000,"station_id":"ce4bhqh2rcd13ifvqhlg","pricing_plan_id":"cebpf4jnsgd1na2vs0mg"},{"bike_id":"e8d0aa06-cd67-4f17-b433-100f36f14143","system_id":"levelo_inurba_marseille","lat":43.30543,"lon":5.38431,"is_reserved":false,"is_disabled":false,"rental_uris":{"android":"levelo://app?vid=e8d0aa06-cd67-4f17-b433-100f36f14143","ios":"levelo://app?vid=e8d0aa06-cd67-4f17-b433-100f36f14143"},"vehicle_type_id":"4","last_reported":1743491450,"current_range_meters":14000,"station_id":"ce4bgg92rcd13ifvqb30","pricing_plan_id":"cebpf4jnsgd1na2vs0mg"},{"bike_id":"20e37ee5-4144-46f6-ae82-ff86e3144909","system_id":"levelo_inurba_marseille","lat":43.305371,"lon":5.366995,"is_reserved":false,"is_disabled":false,"rental_uris":{"android":"levelo://app?vid=20e37ee5-4144-46f6-ae82-ff86e3144909","ios":"levelo://app?vid=20e37ee5-4144-46f6-ae82-ff86e3144909"},"vehicle_type_id":"4","last_reported":1743491450,"current_range_meters":14000,"station_id":"","pricing_plan_id":"cebpf4jnsgd1na2vs0mg"},{"bike_id":"86354ae6-2ad3-4c03-a340-c661e15634b2","system_id":"levelo_inurba_marseille","lat":43.30137,"lon":5.37423,"is_reserved":false,"is_disabled":false,"rental_uris":{"android":"levelo://app?vid=86354ae6-2ad3-4c03-a340-c661e15634b2","ios":"levelo://app?vid=86354ae6-2ad3-4c03-a340-c661e15634b2"},"vehicle_type_id":"4","last_reported":1743491450,"current_range_meters":14400,"station_id":"ce4bgs92rcd13ifvqcc0","pricing_plan_id":"cebpf4jnsgd1na2vs0mg"},{"bike_id":"09ce80f6-0dec-45c1-8cc8-bcde7c239aa9","system_id":"levelo_inurba_marseille","lat":43.25938,"lon":5.40892,"is_reserved":false,"is_disabled":false,"rental_uris":{"android":"levelo://app?vid=09ce80f6-0dec-45c1-8cc8-bcde7c239aa9","ios":"levelo://app?vid=09ce80f6-0dec-45c1-8cc8-bcde7c239aa9"},"vehicle_type_id":"4","last_reported":1743491450,"current_range_meters":14400,"station_id":"ce4bhm92rcd13ifvqglg","pricing_plan_id":"cebpf4jnsgd1na2vs0mg"},{"bike_id":"d8fca211-60fb-4285-9cb7-34b2ec70b471","system_id":"levelo_inurba_marseille","lat":43.30583,"lon":5.3654,"is_reserved":false,"is_disabled":false,"rental_uris":{"android":"levelo://app?vid=d8fca211-60fb-4285-9cb7-34b2ec70b471","ios":"levelo://app?vid=d8fca211-60fb-4285-9cb7-34b2ec70b471"},"vehicle_type_id":"4","last_reported":1743491450,"current_range_meters":14400,"station_id":"ce4bgs12rcd13ifvqcag","pricing_plan_id":"cebpf4jnsgd1na2vs0mg"},{"bike_id":"6e6a66e5-58ca-4db1-9695-b46ed5c28827","system_id":"levelo_inurba_marseille","lat":43.31615,"lon":5.36368,"is_reserved":false,"is_disabled":false,"rental_uris":{"android":"levelo://app?vid=6e6a66e5-58ca-4db1-9695-b46ed5c28827","ios":"levelo://app?vid=6e6a66e5-58ca-4db1-9695-b46ed5c28827"},"vehicle_type_id":"4","last_reported":1743491450,"current_range_meters":14400,"station_id":"","pricing_plan_id":"cebpf4jnsgd1na2vs0mg"},{"bike_id":"15b222ba-7758-4135-9ab2-7767423c6d21","system_id":"levelo_inurba_marseille","lat":43.29022,"lon":5.38649,"is_reserved":false,"is_disabled":true,"rental_uris":{"android":"levelo://app?vid=15b222ba-7758-4135-9ab2-7767423c6d21","ios":"levelo://app?vid=15b222ba-7758-4135-9ab2-7767423c6d21"},"vehicle_type_id":"4","last_reported":1743491450,"current_range_meters":14400,"station_id":"ce4bh4p2rcd13ifvqe0g","pricing_plan_id":"cebpf4jnsgd1na2vs0mg"},{"bike_id":"0e18e82e-f72f-466a-82ce-746d91185f2d","system_id":"levelo_inurba_marseille","lat":43.24078,"lon":5.37756,"is_reserved":false,"is_disabled":false,"rental_uris":{"android":"levelo://app?vid=0e18e82e-f72f-466a-82ce-746d91185f2d","ios":"levelo://app?vid=0e18e82e-f72f-466a-82ce-746d91185f2d"},"vehicle_type_id":"4","last_reported":1743491450,"current_range_meters":14400,"station_id":"ce4bhnp2rcd13ifvqgvg","pricing_plan_id":"cebpf4jnsgd1na2vs0mg"},{"bike_id":"f9e7ce35-3227-47b4-a498-abe217ce9198","system_id":"levelo_inurba_marseille","lat":43.28941,"lon":5.3964,"is_reserved":false,"is_disabled":false,"rental_uris":{"android":"levelo://app?vid=f9e7ce35-3227-47b4-a498-abe217ce9198","ios":"levelo://app?vid=f9e7ce35-3227-47b4-a498-abe217ce9198"},"vehicle_type_id":"4","last_reported":1743491450,"current_range_meters":14800,"station_id":"ce4bh3h2rcd13ifvqdn0","pricing_plan_id":"cebpf4jnsgd1na2vs0mg"},{"bike_id":"8c6fffa1-3b3a-420d-80ad-032042f28d37","system_id":"levelo_inurba_marseille","lat":43.293,"lon":5.37466,"is_reserved":false,"is_disabled":false,"rental_uris":{"android":"levelo://app?vid=8c6fffa1-3b3a-420d-80ad-032042f28d37","ios":"levelo://app?vid=8c6fffa1-3b3a-420d-80ad-032042f28d37"},"vehicle_type_id":"4","last_reported":1743491450,"current_range_meters":14800,"station_id":"ce4bgi12rcd13ifvqb70","pricing_plan_id":"cebpf4jnsgd1na2vs0mg"},{"bike_id":"ba9895d7-228c-4468-b2a3-7e61f625cb0b","system_id":"levelo_inurba_marseille","lat":43.31716,"lon":5.42436,"is_reserved":false,"is_disabled":false,"rental_uris":{"android":"levelo://app?vid=ba9895d7-228c-4468-b2a3-7e61f625cb0b","ios":"levelo://app?vid=ba9895d7-228c-4468-b2a3-7e61f625cb0b"},"vehicle_type_id":"4","last_reported":1743491450,"current_range_meters":14800,"station_id":"ce4bhp92rcd13ifvqhbg","pricing_plan_id":"cebpf4jnsgd1na2vs0mg"},{"bike_id":"5f6ce697-4e60-4410-9fdb-c4eaa3187c73","system_id":"levelo_inurba_marseille","lat":43.30947,"lon":5.39036,"is_reserved":false,"is_disabled":false,"rental_uris":{"android":"levelo://app?vid=5f6ce697-4e60-4410-9fdb-c4eaa3187c73","ios":"levelo://app?vid=5f6ce697-4e60-4410-9fdb-c4eaa3187c73"},"vehicle_type_id":"4","last_reported":1743491450,"current_range_meters":14800,"station_id":"ce4bgup2rcd13ifvqco0","pricing_plan_id":"cebpf4jnsgd1na2vs0mg"},{"bike_id":"b69b79d2-f4ec-4aa1-91d3-efc558dabaa7","system_id":"levelo_inurba_marseille","lat":43.274947,"lon":5.424522,"is_reserved":false,"is_disabled":false,"rental_uris":{"android":"levelo://app?vid=b69b79d2-f4ec-4aa1-91d3-efc558dabaa7","ios":"levelo://app?vid=b69b79d2-f4ec-4aa1-91d3-efc558dabaa7"},"vehicle_type_id":"4","last_reported":1743491450,"current_range_meters":14800,"station_id":"ce4bhn92rcd13ifvqgrg","pricing_plan_id":"cebpf4jnsgd1na2vs0mg"},{"bike_id":"45670ed9-6008-4ccb-acb3-a1fbab8fed22","system_id":"levelo_inurba_marseille","lat":43.278874,"lon":5.395659,"is_reserved":false,"is_disabled":false,"rental_uris":{"android":"levelo://app?vid=45670ed9-6008-4ccb-acb3-a1fbab8fed22","ios":"levelo://app?vid=45670ed9-6008-4ccb-acb3-a1fbab8fed22"},"vehicle_type_id":"4","last_reported":1743491450,"current_range_meters":16000,"station_id":"ce4bhnp2rcd13ifvqgvg","pricing_plan_id":"cebpf4jnsgd1na2vs0mg"},{"bike_id":"4474f66b-3eb6-4aea-af7b-d43fdaacf384","system_id":"levelo_inurba_marseille","lat":43.28024,"lon":5.40571,"is_reserved":false,"is_disabled":false,"rental_uris":{"android":"levelo://app?vid=4474f66b-3eb6-4aea-af7b-d43fdaacf384","ios":"levelo://app?vid=4474f66b-3eb6-4aea-af7b-d43fdaacf384"},"vehicle_type_id":"4","last_reported":1743491450,"current_range_meters":14800,"station_id":"","pricing_plan_id":"cebpf4jnsgd1na2vs0mg"},{"bike_id":"717d162c-3ca4-45dd-b0c2-b24f37daa8ba","system_id":"levelo_inurba_marseille","lat":43.25933,"lon":5.40907,"is_reserved":false,"is_disabled":false,"rental_uris":{"android":"levelo://app?vid=717d162c-3ca4-45dd-b0c2-b24f37daa8ba","ios":"levelo://app?vid=717d162c-3ca4-45dd-b0c2-b24f37daa8ba"},"vehicle_type_id":"4","last_reported":1743491450,"current_range_meters":14800,"station_id":"ce4bhm92rcd13ifvqglg","pricing_plan_id":"cebpf4jnsgd1na2vs0mg"},{"bike_id":"f616f89a-6b5f-47f2-be4a-c1252268f5f4","system_id":"levelo_inurba_marseille","lat":43.29418,"lon":5.38613,"is_reserved":false,"is_disabled":true,"rental_uris":{"android":"levelo://app?vid=f616f89a-6b5f-47f2-be4a-c1252268f5f4","ios":"levelo://app?vid=f616f89a-6b5f-47f2-be4a-c1252268f5f4"},"vehicle_type_id":"4","last_reported":1743491450,"current_range_meters":15200,"station_id":"ce4bh2h2rcd13ifvqdh0","pricing_plan_id":"cebpf4jnsgd1na2vs0mg"},{"bike_id":"8dc01da3-5fa2-4009-813a-58b44a415568","system_id":"levelo_inurba_marseille","lat":43.24178,"lon":5.39733,"is_reserved":false,"is_disabled":false,"rental_uris":{"android":"levelo://app?vid=8dc01da3-5fa2-4009-813a-58b44a415568","ios":"levelo://app?vid=8dc01da3-5fa2-4009-813a-58b44a415568"},"vehicle_type_id":"4","last_reported":1743491450,"current_range_meters":15200,"station_id":"ce4bhn12rcd13ifvqgpg","pricing_plan_id":"cebpf4jnsgd1na2vs0mg"},{"bike_id":"601e80f4-ff19-405f-9329-93e696a02a94","system_id":"levelo_inurba_marseille","lat":43.26056,"lon":5.39401,"is_reserved":false,"is_disabled":false,"rental_uris":{"android":"levelo://app?vid=601e80f4-ff19-405f-9329-93e696a02a94","ios":"levelo://app?vid=601e80f4-ff19-405f-9329-93e696a02a94"},"vehicle_type_id":"4","last_reported":1743491450,"current_range_meters":15200,"station_id":"ce4bhh92rcd13ifvqfj0","pricing_plan_id":"cebpf4jnsgd1na2vs0mg"},{"bike_id":"770a4271-3ad0-4be5-b1d9-ed4edd728b74","system_id":"levelo_inurba_marseille","lat":43.30496,"lon":5.37908,"is_reserved":false,"is_disabled":false,"rental_uris":{"android":"levelo://app?vid=770a4271-3ad0-4be5-b1d9-ed4edd728b74","ios":"levelo://app?vid=770a4271-3ad0-4be5-b1d9-ed4edd728b74"},"vehicle_type_id":"4","last_reported":1743491450,"current_range_meters":15200,"station_id":"ce4bgup2rcd13ifvqcn0","pricing_plan_id":"cebpf4jnsgd1na2vs0mg"},{"bike_id":"6444dfdd-e17b-4c5c-91ee-09fb82879d4d","system_id":"levelo_inurba_marseille","lat":43.284826,"lon":5.384156,"is_reserved":false,"is_disabled":false,"rental_uris":{"android":"levelo://app?vid=6444dfdd-e17b-4c5c-91ee-09fb82879d4d","ios":"levelo://app?vid=6444dfdd-e17b-4c5c-91ee-09fb82879d4d"},"vehicle_type_id":"4","last_reported":1743491450,"current_range_meters":15200,"station_id":"ce4bh512rcd13ifvqe3g","pricing_plan_id":"cebpf4jnsgd1na2vs0mg"},{"bike_id":"4c564b34-6817-415a-8489-26db1ea03ff9","system_id":"levelo_inurba_marseille","lat":43.23139,"lon":5.43719,"is_reserved":false,"is_disabled":false,"rental_uris":{"android":"levelo://app?vid=4c564b34-6817-415a-8489-26db1ea03ff9","ios":"levelo://app?vid=4c564b34-6817-415a-8489-26db1ea03ff9"},"vehicle_type_id":"4","last_reported":1743491450,"current_range_meters":15200,"station_id":"ce4bhmp2rcd13ifvqgog","pricing_plan_id":"cebpf4jnsgd1na2vs0mg"},{"bike_id":"c638cf61-a76d-4d68-9245-6ad888e070be","system_id":"levelo_inurba_marseille","lat":43.26956,"lon":5.3862,"is_reserved":false,"is_disabled":false,"rental_uris":{"android":"levelo://app?vid=c638cf61-a76d-4d68-9245-6ad888e070be","ios":"levelo://app?vid=c638cf61-a76d-4d68-9245-6ad888e070be"},"vehicle_type_id":"4","last_reported":1743491450,"current_range_meters":16000,"station_id":"ce4bhh92rcd13ifvqfh0","pricing_plan_id":"cebpf4jnsgd1na2vs0mg"},{"bike_id":"7d5e4519-e793-494c-bdd7-fe9dccc9b7c8","system_id":"levelo_inurba_marseille","lat":43.26934,"lon":5.38927,"is_reserved":false,"is_disabled":false,"rental_uris":{"android":"levelo://app?vid=7d5e4519-e793-494c-bdd7-fe9dccc9b7c8","ios":"levelo://app?vid=7d5e4519-e793-494c-bdd7-fe9dccc9b7c8"},"vehicle_type_id":"4","last_reported":1743491450,"current_range_meters":16000,"station_id":"ce4bhhh2rcd13ifvqfl0","pricing_plan_id":"cebpf4jnsgd1na2vs0mg"},{"bike_id":"dd3db03f-0f43-4986-9ec8-2a76818fb28c","system_id":"levelo_inurba_marseille","lat":43.23196,"lon":5.35551,"is_reserved":false,"is_disabled":false,"rental_uris":{"android":"levelo://app?vid=dd3db03f-0f43-4986-9ec8-2a76818fb28c","ios":"levelo://app?vid=dd3db03f-0f43-4986-9ec8-2a76818fb28c"},"vehicle_type_id":"4","last_reported":1743491450,"current_range_meters":16000,"station_id":"ce4bhu92rcd13ifvqi70","pricing_plan_id":"cebpf4jnsgd1na2vs0mg"},{"bike_id":"6421c72f-ec72-40de-a058-36d3fcc87132","system_id":"levelo_inurba_marseille","lat":43.31209,"lon":5.36836,"is_reserved":false,"is_disabled":true,"rental_uris":{"android":"levelo://app?vid=6421c72f-ec72-40de-a058-36d3fcc87132","ios":"levelo://app?vid=6421c72f-ec72-40de-a058-36d3fcc87132"},"vehicle_type_id":"4","last_reported":1743491450,"current_range_meters":16000,"station_id":"ce4bgl92rcd13ifvqbq0","pricing_plan_id":"cebpf4jnsgd1na2vs0mg"},{"bike_id":"dd8eb8ef-4e76-4e50-a068-19aab2791b35","system_id":"levelo_inurba_marseille","lat":43.30531,"lon":5.36515,"is_reserved":false,"is_disabled":false,"rental_uris":{"android":"levelo://app?vid=dd8eb8ef-4e76-4e50-a068-19aab2791b35","ios":"levelo://app?vid=dd8eb8ef-4e76-4e50-a068-19aab2791b35"},"vehicle_type_id":"4","last_reported":1743491450,"current_range_meters":16000,"station_id":"","pricing_plan_id":"cebpf4jnsgd1na2vs0mg"},{"bike_id":"333ff9cd-7b1d-4bcc-8c33-2285623131bf","system_id":"levelo_inurba_marseille","lat":43.230497,"lon":5.354978,"is_reserved":false,"is_disabled":false,"rental_uris":{"android":"levelo://app?vid=333ff9cd-7b1d-4bcc-8c33-2285623131bf","ios":"levelo://app?vid=333ff9cd-7b1d-4bcc-8c33-2285623131bf"},"vehicle_type_id":"4","last_reported":1743491450,"current_range_meters":16000,"station_id":"cpo3342slgdg3j2ifvpg","pricing_plan_id":"cebpf4jnsgd1na2vs0mg"},{"bike_id":"7990dee0-3845-4924-a10e-d8eed309bb76","system_id":"levelo_inurba_marseille","lat":43.30919,"lon":5.36853,"is_reserved":false,"is_disabled":false,"rental_uris":{"android":"levelo://app?vid=7990dee0-3845-4924-a10e-d8eed309bb76","ios":"levelo://app?vid=7990dee0-3845-4924-a10e-d8eed309bb76"},"vehicle_type_id":"4","last_reported":1743491450,"current_range_meters":16000,"station_id":"ce4bgn92rcd13ifvqbvg","pricing_plan_id":"cebpf4jnsgd1na2vs0mg"},{"bike_id":"7c900f8d-ab84-4400-a7b6-72af82fcab07","system_id":"levelo_inurba_marseille","lat":43.31237,"lon":5.36862,"is_reserved":false,"is_disabled":false,"rental_uris":{"android":"levelo://app?vid=7c900f8d-ab84-4400-a7b6-72af82fcab07","ios":"levelo://app?vid=7c900f8d-ab84-4400-a7b6-72af82fcab07"},"vehicle_type_id":"4","last_reported":1743491450,"current_range_meters":16000,"station_id":"ce4bgl92rcd13ifvqbq0","pricing_plan_id":"cebpf4jnsgd1na2vs0mg"},{"bike_id":"17011927-5eb5-4a38-a132-35a6858ea1fb","system_id":"levelo_inurba_marseille","lat":43.30259,"lon":5.39176,"is_reserved":false,"is_disabled":true,"rental_uris":{"android":"levelo://app?vid=17011927-5eb5-4a38-a132-35a6858ea1fb","ios":"levelo://app?vid=17011927-5eb5-4a38-a132-35a6858ea1fb"},