{"last_updated":1742840037,"ttl":60,"version":"2.2","data":{"bikes":[{"bike_id":"71766c1f-8a73-40ee-9c76-d95c932ef439","system_id":"levelo_inurba_marseille","lat":43.28079,"lon":5.39647,"is_reserved":false,"is_disabled":false,"rental_uris":{"android":"levelo://app?vid=71766c1f-8a73-40ee-9c76-d95c932ef439","ios":"levelo://app?vid=71766c1f-8a73-40ee-9c76-d95c932ef439"},"vehicle_type_id":"4","last_reported":1742840037,"current_range_meters":2800,"station_id":"ce4bho12rcd13ifvqh2g","pricing_plan_id":"cebpf4jnsgd1na2vs0mg"},{"bike_id":"c2778361-c2b7-48da-9b17-57feb34bb71e","system_id":"levelo_inurba_marseille","lat":43.25942,"lon":5.40902,"is_reserved":false,"is_disabled":false,"rental_uris":{"android":"levelo://app?vid=c2778361-c2b7-48da-9b17-57feb34bb71e","ios":"levelo://app?vid=c2778361-c2b7-48da-9b17-57feb34bb71e"},"vehicle_type_id":"4","last_reported":1742840037,"current_range_meters":2800,"station_id":"ce4bhm92rcd13ifvqglg","pricing_plan_id":"cebpf4jnsgd1na2vs0mg"},{"bike_id":"5a719ffb-e413-4093-8a7e-e5fb94551014","system_id":"levelo_inurba_marseille","lat":43.30318,"lon":5.40454,"is_reserved":false,"is_disabled":false,"rental_uris":{"android":"levelo://app?vid=5a719ffb-e413-4093-8a7e-e5fb94551014","ios":"levelo://app?vid=5a719ffb-e413-4093-8a7e-e5fb94551014"},"vehicle_type_id":"4","last_reported":1742840037,"current_range_meters":2800,"station_id":"ce4bh012rcd13ifvqd10","pricing_plan_id":"cebpf4jnsgd1na2vs0mg"},{"bike_id":"750cc4f3-7dca-4074-b44e-f001c24811e0","system_id":"levelo_inurba_marseille","lat":43.28462,"lon":5.35883,"is_reserved":false,"is_disabled":false,"rental_uris":{"android":"levelo://app?vid=750cc4f3-7dca-4074-b44e-f001c24811e0","ios":"levelo://app?vid=750cc4f3-7dca-4074-b44e-f001c24811e0"},"vehicle_type_id":"4","last_reported":1742840037,"current_range_meters":2800,"station_id":"ce4bhah2rcd13ifvqei0","pricing_plan_id":"cebpf4jnsgd1na2vs0mg"},{"bike_id":"942167dc-cfa0-4955-814c-3c8e85385a96","system_id":"levelo_inurba_marseille","lat":43.23057,"lon":5.35497,"is_reserved":false,"is_disabled":true,"rental_uris":{"android":"levelo://app?vid=942167dc-cfa0-4955-814c-3c8e85385a96","ios":"levelo://app?vid=942167dc-cfa0-4955-814c-3c8e85385a96"},"vehicle_type_id":"4","last_reported":1742840037,"current_range_meters":3200,"station_id":"cpo3342slgdg3j2ifvpg","pricing_plan_id":"cebpf4jnsgd1na2vs0mg"},{"bike_id":"b4bbba48-f0b8-4968-8df2-733a68348cd4","system_id":"levelo_inurba_marseille","lat":43.31233,"lon":5.36854,"is_reserved":false,"is_disabled":false,"rental_uris":{"android":"levelo://app?vid=b4bbba48-f0b8-4968-8df2-733a68348cd4","ios":"levelo://app?vid=b4bbba48-f0b8-4968-8df2-733a68348cd4"},"vehicle_type_id":"4","last_reported":1742840037,"current_range_meters":3200,"station_id":"ce4bgl92rcd13ifvqbq0","pricing_plan_id":"cebpf4jnsgd1na2vs0mg"},{"bike_id":"2e5c3384-1873-494e-8faa-0ed376757580","system_id":"levelo_inurba_marseille","lat":43.30806,"lon":5.43527,"is_reserved":false,"is_disabled":false,"rental_uris":{"android":"levelo://app?vid=2e5c3384-1873-494e-8faa-0ed376757580","ios":"levelo://app?vid=2e5c3384-1873-494e-8faa-0ed376757580"},"vehicle_type_id":"4","last_reported":1742840037,"current_range_meters":3600,"station_id":"ce4bhph2rcd13ifvqheg","pricing_plan_id":"cebpf4jnsgd1na2vs0mg"},{"bike_id":"4ed591ba-6d54-454d-aa9b-a890a99ee5e1","system_id":"levelo_inurba_marseille","lat":43.27978,"lon":5.38733,"is_reserved":false,"is_disabled":false,"rental_uris":{"android":"levelo://app?vid=4ed591ba-6d54-454d-aa9b-a890a99ee5e1","ios":"levelo://app?vid=4ed591ba-6d54-454d-aa9b-a890a99ee5e1"},"vehicle_type_id":"4","last_reported":1742840037,"current_range_meters":3600,"station_id":"ce4bhg12rcd13ifvqf80","pricing_plan_id":"cebpf4jnsgd1na2vs0mg"},{"bike_id":"0194bf2a-13df-40ca-967e-a03ed84713cc","system_id":"levelo_inurba_marseille","lat":43.3033,"lon":5.40437,"is_reserved":false,"is_disabled":false,"rental_uris":{"android":"levelo://app?vid=0194bf2a-13df-40ca-967e-a03ed84713cc","ios":"levelo://app?vid=0194bf2a-13df-40ca-967e-a03ed84713cc"},"vehicle_type_id":"4","last_reported":1742840037,"current_range_meters":3600,"station_id":"ce4bh012rcd13ifvqd10","pricing_plan_id":"cebpf4jnsgd1na2vs0mg"},{"bike_id":"7841c6a1-3638-4d37-872d-ceca7d722e12","system_id":"levelo_inurba_marseille","lat":43.2606,"lon":5.39402,"is_reserved":false,"is_disabled":false,"rental_uris":{"android":"levelo://app?vid=7841c6a1-3638-4d37-872d-ceca7d722e12","ios":"levelo://app?vid=7841c6a1-3638-4d37-872d-ceca7d722e12"},"vehicle_type_id":"4","last_reported":1742840037,"current_range_meters":4000,"station_id":"ce4bhh92rcd13ifvqfj0","pricing_plan_id":"cebpf4jnsgd1na2vs0mg"},{"bike_id":"f91ac846-9979-4f34-831e-c9c8d355e55b","system_id":"levelo_inurba_marseille","lat":43.315762,"lon":5.403155,"is_reserved":false,"is_disabled":false,"rental_uris":{"android":"levelo://app?vid=f91ac846-9979-4f34-831e-c9c8d355e55b","ios":"levelo://app?vid=f91ac846-9979-4f34-831e-c9c8d355e55b"},"vehicle_type_id":"4","last_reported":1742840037,"current_range_meters":4000,"station_id":"ce4bgt92rcd13ifvqcf0","pricing_plan_id":"cebpf4jnsgd1na2vs0mg"},{"bike_id":"d2ca8a5c-0c19-4729-8760-0626f1745316","system_id":"levelo_inurba_marseille","lat":43.24652,"lon":5.38885,"is_reserved":false,"is_disabled":false,"rental_uris":{"android":"levelo://app?vid=d2ca8a5c-0c19-4729-8760-0626f1745316","ios":"levelo://app?vid=d2ca8a5c-0c19-4729-8760-0626f1745316"},"vehicle_type_id":"4","last_reported":1742840037,"current_range_meters":4000,"station_id":"ce4bhg12rcd13ifvqf60","pricing_plan_id":"cebpf4jnsgd1na2vs0mg"},{"bike_id":"4197c32b-5ad7-4c00-9220-f97216f2985f","system_id":"levelo_inurba_marseille","lat":43.25584,"lon":5.3823,"is_reserved":false,"is_disabled":false,"rental_uris":{"android":"levelo://app?vid=4197c32b-5ad7-4c00-9220-f97216f2985f","ios":"levelo://app?vid=4197c32b-5ad7-4c00-9220-f97216f2985f"},"vehicle_type_id":"4","last_reported":1742840037,"current_range_meters":4000,"station_id":"ce4bhih2rcd13ifvqfs0","pricing_plan_id":"cebpf4jnsgd1na2vs0mg"},{"bike_id":"532b6f8d-6098-42c9-8102-b2b5135e3ed1","system_id":"levelo_inurba_marseille","lat":43.27214,"lon":5.39179,"is_reserved":false,"is_disabled":false,"rental_uris":{"android":"levelo://app?vid=532b6f8d-6098-42c9-8102-b2b5135e3ed1","ios":"levelo://app?vid=532b6f8d-6098-42c9-8102-b2b5135e3ed1"},"vehicle_type_id":"4","last_reported":1742840037,"current_range_meters":4000,"station_id":"ce4bhhp2rcd13ifvqfm0","pricing_plan_id":"cebpf4jnsgd1na2vs0mg"},{"bike_id":"2a7b03e1-e896-4ffc-a40f-c008d78f4b4a","system_id":"levelo_inurba_marseille","lat":43.29042,"lon":5.35921,"is_reserved":false,"is_disabled":true,"rental_uris":{"android":"levelo://app?vid=2a7b03e1-e896-4ffc-a40f-c008d78f4b4a","ios":"levelo://app?vid=2a7b03e1-e896-4ffc-a40f-c008d78f4b4a"},"vehicle_type_id":"4","last_reported":1742840037,"current_range_meters":4400,"station_id":"ce4bha92rcd13ifvqeg0","pricing_plan_id":"cebpf4jnsgd1na2vs0mg"},{"bike_id":"2b97c6c8-6b27-48dc-abad-8bcf29b097e0","system_id":"levelo_inurba_marseille","lat":43.26803,"lon":5.39425,"is_reserved":false,"is_disabled":true,"rental_uris":{"android":"levelo://app?vid=2b97c6c8-6b27-48dc-abad-8bcf29b097e0","ios":"levelo://app?vid=2b97c6c8-6b27-48dc-abad-8bcf29b097e0"},"vehicle_type_id":"4","last_reported":1742840037,"current_range_meters":4400,"station_id":"ce4bhh12rcd13ifvqfg0","pricing_plan_id":"cebpf4jnsgd1na2vs0mg"},{"bike_id":"f7554dbb-76d6-4cc2-8f20-ed8d91f2de72","system_id":"levelo_inurba_marseille","lat":43.268,"lon":5.4014,"is_reserved":false,"is_disabled":false,"rental_uris":{"android":"levelo://app?vid=f7554dbb-76d6-4cc2-8f20-ed8d91f2de72","ios":"levelo://app?vid=f7554dbb-76d6-4cc2-8f20-ed8d91f2de72"},"vehicle_type_id":"4","last_reported":1742840037,"current_range_meters":4800,"station_id":"","pricing_plan_id":"cebpf4jnsgd1na2vs0mg"},{"bike_id":"2faec15f-1e47-4789-b8b5-06b7887e0257","system_id":"levelo_inurba_marseille","lat":43.32039,"lon":5.41557,"is_reserved":false,"is_disabled":false,"rental_uris":{"android":"levelo://app?vid=2faec15f-1e47-4789-b8b5-06b7887e0257","ios":"levelo://app?vid=2faec15f-1e47-4789-b8b5-06b7887e0257"},"vehicle_type_id":"4","last_reported":1742840037,"current_range_meters":4400,"station_id":"ce4bhq92rcd13ifvqhkg","pricing_plan_id":"cebpf4jnsgd1na2vs0mg"},{"bike_id":"e6ce6821-aa41-4e0b-ac83-095b87c839ce","system_id":"levelo_inurba_marseille","lat":43.29531,"lon":5.39041,"is_reserved":false,"is_disabled":false,"rental_uris":{"android":"levelo://app?vid=e6ce6821-aa41-4e0b-ac83-095b87c839ce","ios":"levelo://app?vid=e6ce6821-aa41-4e0b-ac83-095b87c839ce"},"vehicle_type_id":"4","last_reported":1742840037,"current_range_meters":4800,"station_id":"ce4bh3p2rcd13ifvqdp0","pricing_plan_id":"cebpf4jnsgd1na2vs0mg"},{"bike_id":"515c9ef6-8580-4696-9b95-380634ee713c","system_id":"levelo_inurba_marseille","lat":43.31079,"lon":5.38349,"is_reserved":false,"is_disabled":false,"rental_uris":{"android":"levelo://app?vid=515c9ef6-8580-4696-9b95-380634ee713c","ios":"levelo://app?vid=515c9ef6-8580-4696-9b95-380634ee713c"},"vehicle_type_id":"4","last_reported":1742840037,"current_range_meters":4800,"station_id":"ce4bgv92rcd13ifvqcr0","pricing_plan_id":"cebpf4jnsgd1na2vs0mg"},{"bike_id":"a300d620-91bb-421f-8269-1bc62553436e","system_id":"levelo_inurba_marseille","lat":43.27996,"lon":5.40014,"is_reserved":false,"is_disabled":false,"rental_uris":{"android":"levelo://app?vid=a300d620-91bb-421f-8269-1bc62553436e","ios":"levelo://app?vid=a300d620-91bb-421f-8269-1bc62553436e"},"vehicle_type_id":"4","last_reported":1742840037,"current_range_meters":4800,"station_id":"ce4bho92rcd13ifvqh4g","pricing_plan_id":"cebpf4jnsgd1na2vs0mg"},{"bike_id":"104cc99f-8d56-4538-b3dc-9e541eaad603","system_id":"levelo_inurba_marseille","lat":43.29522,"lon":5.3906,"is_reserved":false,"is_disabled":false,"rental_uris":{"android":"levelo://app?vid=104cc99f-8d56-4538-b3dc-9e541eaad603","ios":"levelo://app?vid=104cc99f-8d56-4538-b3dc-9e541eaad603"},"vehicle_type_id":"4","last_reported":1742840037,"current_range_meters":4800,"station_id":"ce4bh3p2rcd13ifvqdp0","pricing_plan_id":"cebpf4jnsgd1na2vs0mg"},{"bike_id":"a8a90f3b-e99a-4a49-9b91-01ba2232dc32","system_id":"levelo_inurba_marseille","lat":43.3109,"lon":5.42423,"is_reserved":false,"is_disabled":false,"rental_uris":{"android":"levelo://app?vid=a8a90f3b-e99a-4a49-9b91-01ba2232dc32","ios":"levelo://app?vid=a8a90f3b-e99a-4a49-9b91-01ba2232dc32"},"vehicle_type_id":"4","last_reported":1742840037,"current_range_meters":5600,"station_id":"ce4bhp92rcd13ifvqhag","pricing_plan_id":"cebpf4jnsgd1na2vs0mg"},{"bike_id":"784cdf88-9e53-462e-a8fe-98095b1db3ff","system_id":"levelo_inurba_marseille","lat":43.25717,"lon":5.41116,"is_reserved":false,"is_disabled":false,"rental_uris":{"android":"levelo://app?vid=784cdf88-9e53-462e-a8fe-98095b1db3ff","ios":"levelo://app?vid=784cdf88-9e53-462e-a8fe-98095b1db3ff"},"vehicle_type_id":"4","last_reported":1742840037,"current_range_meters":5600,"station_id":"ce4bhkp2rcd13ifvqgd0","pricing_plan_id":"cebpf4jnsgd1na2vs0mg"},{"bike_id":"c09425b1-e650-4cb8-b2df-ec541c9b51f0","system_id":"levelo_inurba_marseille","lat":43.29973,"lon":5.37174,"is_reserved":false,"is_disabled":false,"rental_uris":{"android":"levelo://app?vid=c09425b1-e650-4cb8-b2df-ec541c9b51f0","ios":"levelo://app?vid=c09425b1-e650-4cb8-b2df-ec541c9b51f0"},"vehicle_type_id":"4","last_reported":1742840037,"current_range_meters":5600,"station_id":"ce4bgr92rcd13ifvqc7g","pricing_plan_id":"cebpf4jnsgd1na2vs0mg"},{"bike_id":"4ae6a537-f44c-48a8-9359-fd842e404e54","system_id":"levelo_inurba_marseille","lat":43.304342,"lon":5.388876,"is_reserved":false,"is_disabled":false,"rental_uris":{"android":"levelo://app?vid=4ae6a537-f44c-48a8-9359-fd842e404e54","ios":"levelo://app?vid=4ae6a537-f44c-48a8-9359-fd842e404e54"},"vehicle_type_id":"4","last_reported":1742840037,"current_range_meters":5600,"station_id":"ce4bgk12rcd13ifvqbi0","pricing_plan_id":"cebpf4jnsgd1na2vs0mg"},{"bike_id":"ec47b621-0fa7-4b48-b122-bffe26d4b5c9","system_id":"levelo_inurba_marseille","lat":43.24171,"lon":5.36401,"is_reserved":false,"is_disabled":false,"rental_uris":{"android":"levelo://app?vid=ec47b621-0fa7-4b48-b122-bffe26d4b5c9","ios":"levelo://app?vid=ec47b621-0fa7-4b48-b122-bffe26d4b5c9"},"vehicle_type_id":"4","last_reported":1742840037,"current_range_meters":5600,"station_id":"cpo36qri1sfpv3e86is0","pricing_plan_id":"cebpf4jnsgd1na2vs0mg"},{"bike_id":"e4deba16-9a71-40ef-9c0f-990cf7308de9","system_id":"levelo_inurba_marseille","lat":43.31365,"lon":5.38504,"is_reserved":false,"is_disabled":false,"rental_uris":{"android":"levelo://app?vid=e4deba16-9a71-40ef-9c0f-990cf7308de9","ios":"levelo://app?vid=e4deba16-9a71-40ef-9c0f-990cf7308de9"},"vehicle_type_id":"4","last_reported":1742840037,"current_range_meters":6000,"station_id":"ce4bgt92rcd13ifvqcf0","pricing_plan_id":"cebpf4jnsgd1na2vs0mg"},{"bike_id":"411b428a-be3d-4303-a051-cffaae886dc8","system_id":"levelo_inurba_marseille","lat":43.24168,"lon":5.36411,"is_reserved":false,"is_disabled":false,"rental_uris":{"android":"levelo://app?vid=411b428a-be3d-4303-a051-cffaae886dc8","ios":"levelo://app?vid=411b428a-be3d-4303-a051-cffaae886dc8"},"vehicle_type_id":"4","last_reported":1742840037,"current_range_meters":6000,"station_id":"cpo36qri1sfpv3e86is0","pricing_plan_id":"cebpf4jnsgd1na2vs0mg"},{"bike_id":"503b1b9c-633c-479a-b29c-d5e2ca1ea543","system_id":"levelo_inurba_marseille","lat":43.304163,"lon":5.412958,"is_reserved":false,"is_disabled":false,"rental_uris":{"android":"levelo://app?vid=503b1b9c-633c-479a-b29c-d5e2ca1ea543","ios":"levelo://app?vid=503b1b9c-633c-479a-b29c-d5e2ca1ea543"},"vehicle_type_id":"4","last_reported":1742840037,"current_range_meters":6000,"station_id":"ce4bhop2rcd13ifvqh8g","pricing_plan_id":"cebpf4jnsgd1na2vs0mg"},{"bike_id":"c36cefb3-0db7-45d8-b171-a7dea51fd330","system_id":"levelo_inurba_marseille","lat":43.25724,"lon":5.41115,"is_reserved":false,"is_disabled":false,"rental_uris":{"android":"levelo://app?vid=c36cefb3-0db7-45d8-b171-a7dea51fd330","ios":"levelo://app?vid=c36cefb3-0db7-45d8-b171-a7dea51fd330"},"vehicle_type_id":"4","last_reported":1742840037,"current_range_meters":6400,"station_id":"ce4bhkp2rcd13ifvqgd0","pricing_plan_id":"cebpf4jnsgd1na2vs0mg"},{"bike_id":"1efb9839-1b24-4c68-ab26-ba66482c7f07","system_id":"levelo_inurba_marseille","lat":43.29019,"lon":5.38646,"is_reserved":false,"is_disabled":false,"rental_uris":{"android":"levelo://app?vid=1efb9839-1b24-4c68-ab26-ba66482c7f07","ios":"levelo://app?vid=1efb9839-1b24-4c68-ab26-ba66482c7f07"},"vehicle_type_id":"4","last_reported":1742840037,"current_range_meters":6400,"station_id":"ce4bh4p2rcd13ifvqe0g","pricing_plan_id":"cebpf4jnsgd1na2vs0mg"},{"bike_id":"7e18434c-ec35-4a69-911a-4141825b7861","system_id":"levelo_inurba_marseille","lat":43.28439,"lon":5.39177,"is_reserved":false,"is_disabled":false,"rental_uris":{"android":"levelo://app?vid=7e18434c-ec35-4a69-911a-4141825b7861","ios":"levelo://app?vid=7e18434c-ec35-4a69-911a-4141825b7861"},"vehicle_type_id":"4","last_reported":1742840037,"current_range_meters":6400,"station_id":"ce4bhoh2rcd13ifvqh5g","pricing_plan_id":"cebpf4jnsgd1na2vs0mg"},{"bike_id":"d1f993ec-8e82-4e82-a38b-e848ded0cf74","system_id":"levelo_inurba_marseille","lat":43.25099,"lon":5.39519,"is_reserved":false,"is_disabled":false,"rental_uris":{"android":"levelo://app?vid=d1f993ec-8e82-4e82-a38b-e848ded0cf74","ios":"levelo://app?vid=d1f993ec-8e82-4e82-a38b-e848ded0cf74"},"vehicle_type_id":"4","last_reported":1742840037,"current_range_meters":6400,"station_id":"ce4bhm12rcd13ifvqgkg","pricing_plan_id":"cebpf4jnsgd1na2vs0mg"},{"bike_id":"7ab97dca-e72a-4eeb-b77a-7abe75788bee","system_id":"levelo_inurba_marseille","lat":43.28856,"lon":5.35851,"is_reserved":false,"is_disabled":false,"rental_uris":{"android":"levelo://app?vid=7ab97dca-e72a-4eeb-b77a-7abe75788bee","ios":"levelo://app?vid=7ab97dca-e72a-4eeb-b77a-7abe75788bee"},"vehicle_type_id":"4","last_reported":1742840037,"current_range_meters":6400,"station_id":"ce4bhb12rcd13ifvqem0","pricing_plan_id":"cebpf4jnsgd1na2vs0mg"},{"bike_id":"686be2f4-e01a-4479-ab93-a19b8dda7c1d","system_id":"levelo_inurba_marseille","lat":43.28469,"lon":5.38414,"is_reserved":false,"is_disabled":false,"rental_uris":{"android":"levelo://app?vid=686be2f4-e01a-4479-ab93-a19b8dda7c1d","ios":"levelo://app?vid=686be2f4-e01a-4479-ab93-a19b8dda7c1d"},"vehicle_type_id":"4","last_reported":1742840037,"current_range_meters":6400,"station_id":"ce4bh512rcd13ifvqe3g","pricing_plan_id":"cebpf4jnsgd1na2vs0mg"},{"bike_id":"bd13a9b0-d427-4d51-9885-01d020eb44e7","system_id":"levelo_inurba_marseille","lat":43.28085,"lon":5.39666,"is_reserved":false,"is_disabled":false,"rental_uris":{"android":"levelo://app?vid=bd13a9b0-d427-4d51-9885-01d020eb44e7","ios":"levelo://app?vid=bd13a9b0-d427-4d51-9885-01d020eb44e7"},"vehicle_type_id":"4","last_reported":1742840037,"current_range_meters":6800,"station_id":"ce4bho12rcd13ifvqh2g","pricing_plan_id":"cebpf4jnsgd1na2vs0mg"},{"bike_id":"6f89ba1c-cc98-40d8-8f71-adbc0f7e53b7","system_id":"levelo_inurba_marseille","lat":43.28043,"lon":5.36946,"is_reserved":false,"is_disabled":false,"rental_uris":{"android":"levelo://app?vid=6f89ba1c-cc98-40d8-8f71-adbc0f7e53b7","ios":"levelo://app?vid=6f89ba1c-cc98-40d8-8f71-adbc0f7e53b7"},"vehicle_type_id":"4","last_reported":1742840037,"current_range_meters":6800,"station_id":"ce4bha12rcd13ifvqef0","pricing_plan_id":"cebpf4jnsgd1na2vs0mg"},{"bike_id":"cee5d65d-4728-4de0-a31b-e1ee654abd90","system_id":"levelo_inurba_marseille","lat":43.27944,"lon":5.41052,"is_reserved":false,"is_disabled":false,"rental_uris":{"android":"levelo://app?vid=cee5d65d-4728-4de0-a31b-e1ee654abd90","ios":"levelo://app?vid=cee5d65d-4728-4de0-a31b-e1ee654abd90"},"vehicle_type_id":"4","last_reported":1742840037,"current_range_meters":6800,"station_id":"ce4bhnp2rcd13ifvqh0g","pricing_plan_id":"cebpf4jnsgd1na2vs0mg"},{"bike_id":"1b7c5e4e-130d-4e75-8db2-feee0d51fa46","system_id":"levelo_inurba_marseille","lat":43.24188,"lon":5.39713,"is_reserved":false,"is_disabled":false,"rental_uris":{"android":"levelo://app?vid=1b7c5e4e-130d-4e75-8db2-feee0d51fa46","ios":"levelo://app?vid=1b7c5e4e-130d-4e75-8db2-feee0d51fa46"},"vehicle_type_id":"4","last_reported":1742840037,"current_range_meters":6800,"station_id":"ce4bhn12rcd13ifvqgpg","pricing_plan_id":"cebpf4jnsgd1na2vs0mg"},{"bike_id":"c328c08b-84d1-40c7-ac2b-4e12c9cee56c","system_id":"levelo_inurba_marseille","lat":43.26555,"lon":5.37287,"is_reserved":false,"is_disabled":false,"rental_uris":{"android":"levelo://app?vid=c328c08b-84d1-40c7-ac2b-4e12c9cee56c","ios":"levelo://app?vid=c328c08b-84d1-40c7-ac2b-4e12c9cee56c"},"vehicle_type_id":"4","last_reported":1742840037,"current_range_meters":6800,"station_id":"ce4bhg12rcd13ifvqf70","pricing_plan_id":"cebpf4jnsgd1na2vs0mg"},{"bike_id":"bebbaaa4-9324-461e-b685-01f74c9202e0","system_id":"levelo_inurba_marseille","lat":43.23952,"lon":5.36635,"is_reserved":false,"is_disabled":false,"rental_uris":{"android":"levelo://app?vid=bebbaaa4-9324-461e-b685-01f74c9202e0","ios":"levelo://app?vid=bebbaaa4-9324-461e-b685-01f74c9202e0"},"vehicle_type_id":"4","last_reported":1742840037,"current_range_meters":6800,"station_id":"ce4bhi12rcd13ifvqfp0","pricing_plan_id":"cebpf4jnsgd1na2vs0mg"},{"bike_id":"bc1f75c7-c85f-4ecc-bbbd-b9b4a2e47822","system_id":"levelo_inurba_marseille","lat":43.31126,"lon":5.37755,"is_reserved":false,"is_disabled":false,"rental_uris":{"android":"levelo://app?vid=bc1f75c7-c85f-4ecc-bbbd-b9b4a2e47822","ios":"levelo://app?vid=bc1f75c7-c85f-4ecc-bbbd-b9b4a2e47822"},"vehicle_type_id":"4","last_reported":1742840037,"current_range_meters":6800,"station_id":"ce4bgt92rcd13ifvqcg0","pricing_plan_id":"cebpf4jnsgd1na2vs0mg"},{"bike_id":"7e392b4b-f521-41ae-841e-fe8a3cccc001","system_id":"levelo_inurba_marseille","lat":43.30804,"lon":5.43524,"is_reserved":false,"is_disabled":false,"rental_uris":{"android":"levelo://app?vid=7e392b4b-f521-41ae-841e-fe8a3cccc001","ios":"levelo://app?vid=7e392b4b-f521-41ae-841e-fe8a3cccc001"},"vehicle_type_id":"4","last_reported":1742840037,"current_range_meters":6800,"station_id":"ce4bhph2rcd13ifvqheg","pricing_plan_id":"cebpf4jnsgd1na2vs0mg"},{"bike_id":"9979e4d6-0c43-4449-bceb-bd3b6f21eae6","system_id":"levelo_inurba_marseille","lat":43.29855,"lon":5.36289,"is_reserved":false,"is_disabled":false,"rental_uris":{"android":"levelo://app?vid=9979e4d6-0c43-4449-bceb-bd3b6f21eae6","ios":"levelo://app?vid=9979e4d6-0c43-4449-bceb-bd3b6f21eae6"},"vehicle_type_id":"4","last_reported":1742840037,"current_range_meters":6800,"station_id":"ce4bgpp2rcd13ifvqc3g","pricing_plan_id":"cebpf4jnsgd1na2vs0mg"},{"bike_id":"0e680333-b1df-418a-9e56-bc70c69af5af","system_id":"levelo_inurba_marseille","lat":43.27921,"lon":5.39576,"is_reserved":false,"is_disabled":false,"rental_uris":{"android":"levelo://app?vid=0e680333-b1df-418a-9e56-bc70c69af5af","ios":"levelo://app?vid=0e680333-b1df-418a-9e56-bc70c69af5af"},"vehicle_type_id":"4","last_reported":1742840037,"current_range_meters":6800,"station_id":"ce4bhf92rcd13ifvqf40","pricing_plan_id":"cebpf4jnsgd1na2vs0mg"},{"bike_id":"732a627f-01b2-4ae6-a8e5-331bcbff3b4f","system_id":"levelo_inurba_marseille","lat":43.251,"lon":5.40361,"is_reserved":false,"is_disabled":false,"rental_uris":{"android":"levelo://app?vid=732a627f-01b2-4ae6-a8e5-331bcbff3b4f","ios":"levelo://app?vid=732a627f-01b2-4ae6-a8e5-331bcbff3b4f"},"vehicle_type_id":"4","last_reported":1742840037,"current_range_meters":6800,"station_id":"ce4bhlh2rcd13ifvqgig","pricing_plan_id":"cebpf4jnsgd1na2vs0mg"},{"bike_id":"d9242ed6-515d-4a5e-bdea-86c5ab3f2c00","system_id":"levelo_inurba_marseille","lat":43.29281,"lon":5.36843,"is_reserved":false,"is_disabled":false,"rental_uris":{"android":"levelo://app?vid=d9242ed6-515d-4a5e-bdea-86c5ab3f2c00","ios":"levelo://app?vid=d9242ed6-515d-4a5e-bdea-86c5ab3f2c00"},"vehicle_type_id":"4","last_reported":1742840037,"current_range_meters":6800,"station_id":"ce4bhbp2rcd13ifvqesg","pricing_plan_id":"cebpf4jnsgd1na2vs0mg"},{"bike_id":"6f023766-497a-44b5-8b39-a397e2b8fcb8","system_id":"levelo_inurba_marseille","lat":43.31081,"lon":5.42431,"is_reserved":false,"is_disabled":false,"rental_uris":{"android":"levelo://app?vid=6f023766-497a-44b5-8b39-a397e2b8fcb8","ios":"levelo://app?vid=6f023766-497a-44b5-8b39-a397e2b8fcb8"},"vehicle_type_id":"4","last_reported":1742840037,"current_range_meters":7200,"station_id":"ce4bhp92rcd13ifvqhag","pricing_plan_id":"cebpf4jnsgd1na2vs0mg"},{"bike_id":"fa90bee8-1990-457a-b560-cb202a82d93d","system_id":"levelo_inurba_marseille","lat":43.30659,"lon":5.40058,"is_reserved":false,"is_disabled":false,"rental_uris":{"android":"levelo://app?vid=fa90bee8-1990-457a-b560-cb202a82d93d","ios":"levelo://app?vid=fa90bee8-1990-457a-b560-cb202a82d93d"},"vehicle_type_id":"4","last_reported":1742840037,"current_range_meters":7200,"station_id":"ce4bh112rcd13ifvqda0","pricing_plan_id":"cebpf4jnsgd1na2vs0mg"},{"bike_id":"0994d898-755c-4316-8a12-457613df1c9c","system_id":"levelo_inurba_marseille","lat":43.32004,"lon":5.38146,"is_reserved":false,"is_disabled":false,"rental_uris":{"android":"levelo://app?vid=0994d898-755c-4316-8a12-457613df1c9c","ios":"levelo://app?vid=0994d898-755c-4316-8a12-457613df1c9c"},"vehicle_type_id":"4","last_reported":1742840037,"current_range_meters":7200,"station_id":"","pricing_plan_id":"cebpf4jnsgd1na2vs0mg"},{"bike_id":"b3cc2601-f942-48c4-871e-4f84b8e45296","system_id":"levelo_inurba_marseille","lat":43.28678,"lon":5.38673,"is_reserved":false,"is_disabled":false,"rental_uris":{"android":"levelo://app?vid=b3cc2601-f942-48c4-871e-4f84b8e45296","ios":"levelo://app?vid=b3cc2601-f942-48c4-871e-4f84b8e45296"},"vehicle_type_id":"4","last_reported":1742840037,"current_range_meters":7200,"station_id":"ce4bh492rcd13ifvqdug","pricing_plan_id":"cebpf4jnsgd1na2vs0mg"},{"bike_id":"f1e1d07a-3bff-4255-9c5d-1b199dc2e88c","system_id":"levelo_inurba_marseille","lat":43.30898,"lon":5.37203,"is_reserved":false,"is_disabled":false,"rental_uris":{"android":"levelo://app?vid=f1e1d07a-3bff-4255-9c5d-1b199dc2e88c","ios":"levelo://app?vid=f1e1d07a-3bff-4255-9c5d-1b199dc2e88c"},"vehicle_type_id":"4","last_reported":1742840037,"current_range_meters":7200,"station_id":"ce4bguh2rcd13ifvqckg","pricing_plan_id":"cebpf4jnsgd1na2vs0mg"},{"bike_id":"21e3a6e5-11f0-467c-9e11-90aab4ee0f83","system_id":"levelo_inurba_marseille","lat":43.27388,"lon":5.36244,"is_reserved":false,"is_disabled":false,"rental_uris":{"android":"levelo://app?vid=21e3a6e5-11f0-467c-9e11-90aab4ee0f83","ios":"levelo://app?vid=21e3a6e5-11f0-467c-9e11-90aab4ee0f83"},"vehicle_type_id":"4","last_reported":1742840037,"current_range_meters":7200,"station_id":"ce4bhbh2rcd13ifvqeo0","pricing_plan_id":"cebpf4jnsgd1na2vs0mg"},{"bike_id":"76f3d16e-d7a5-4684-96dc-ab38a67e3c56","system_id":"levelo_inurba_marseille","lat":43.27818,"lon":5.40711,"is_reserved":false,"is_disabled":false,"rental_uris":{"android":"levelo://app?vid=76f3d16e-d7a5-4684-96dc-ab38a67e3c56","ios":"levelo://app?vid=76f3d16e-d7a5-4684-96dc-ab38a67e3c56"},"vehicle_type_id":"4","last_reported":1742840037,"current_range_meters":7200,"station_id":"ce4bhnh2rcd13ifvqgtg","pricing_plan_id":"cebpf4jnsgd1na2vs0mg"},{"bike_id":"91456e3b-facc-45cb-b00f-aea26e6eaf6c","system_id":"levelo_inurba_marseille","lat":43.27808,"lon":5.40786,"is_reserved":false,"is_disabled":true,"rental_uris":{"android":"levelo://app?vid=91456e3b-facc-45cb-b00f-aea26e6eaf6c","ios":"levelo://app?vid=91456e3b-facc-45cb-b00f-aea26e6eaf6c"},"vehicle_type_id":"4","last_reported":1742840037,"current_range_meters":7200,"station_id":"ce4bhnh2rcd13ifvqgtg","pricing_plan_id":"cebpf4jnsgd1na2vs0mg"},{"bike_id":"86a65fab-1faf-4fc4-885c-2b086e92c069","system_id":"levelo_inurba_marseille","lat":43.24162,"lon":5.36406,"is_reserved":false,"is_disabled":false,"rental_uris":{"android":"levelo://app?vid=86a65fab-1faf-4fc4-885c-2b086e92c069","ios":"levelo://app?vid=86a65fab-1faf-4fc4-885c-2b086e92c069"},"vehicle_type_id":"4","last_reported":1742840037,"current_range_meters":7200,"station_id":"cpo36qri1sfpv3e86is0","pricing_plan_id":"cebpf4jnsgd1na2vs0mg"},{"bike_id":"6da44af1-8b7c-4791-bcb1-30013b0638eb","system_id":"levelo_inurba_marseille","lat":43.2729,"lon":5.39193,"is_reserved":false,"is_disabled":true,"rental_uris":{"android":"levelo://app?vid=6da44af1-8b7c-4791-bcb1-30013b0638eb","ios":"levelo://app?vid=6da44af1-8b7c-4791-bcb1-30013b0638eb"},"vehicle_type_id":"4","last_reported":1742840037,"current_range_meters":8000,"station_id":"ce4bhhp2rcd13ifvqfm0","pricing_plan_id":"cebpf4jnsgd1na2vs0mg"},{"bike_id":"7dc177f4-73bc-4a70-8c36-4c14f45d3918","system_id":"levelo_inurba_marseille","lat":43.29517,"lon":5.39042,"is_reserved":false,"is_disabled":false,"rental_uris":{"android":"levelo://app?vid=7dc177f4-73bc-4a70-8c36-4c14f45d3918","ios":"levelo://app?vid=7dc177f4-73bc-4a70-8c36-4c14f45d3918"},"vehicle_type_id":"4","last_reported":1742840037,"current_range_meters":8000,"station_id":"ce4bh3p2rcd13ifvqdp0","pricing_plan_id":"cebpf4jnsgd1na2vs0mg"},{"bike_id":"3b80d575-b6f6-47f6-86af-968f2f87e0de","system_id":"levelo_inurba_marseille","lat":43.3087,"lon":5.39653,"is_reserved":false,"is_disabled":false,"rental_uris":{"android":"levelo://app?vid=3b80d575-b6f6-47f6-86af-968f2f87e0de","ios":"levelo://app?vid=3b80d575-b6f6-47f6-86af-968f2f87e0de"},"vehicle_type_id":"4","last_reported":1742840037,"current_range_meters":8000,"station_id":"ce4bh012rcd13ifvqcv0","pricing_plan_id":"cebpf4jnsgd1na2vs0mg"},{"bike_id":"8a080269-c7fc-4ff2-918f-13f2e45250e4","system_id":"levelo_inurba_marseille","lat":43.30657,"lon":5.40068,"is_reserved":false,"is_disabled":false,"rental_uris":{"android":"levelo://app?vid=8a080269-c7fc-4ff2-918f-13f2e45250e4","ios":"levelo://app?vid=8a080269-c7fc-4ff2-918f-13f2e45250e4"},"vehicle_type_id":"4","last_reported":1742840037,"current_range_meters":8000,"station_id":"ce4bh112rcd13ifvqda0","pricing_plan_id":"cebpf4jnsgd1na2vs0mg"},{"bike_id":"bb7d553e-f91c-478a-a14a-5f3ea0dc4964","system_id":"levelo_inurba_marseille","lat":43.24541,"lon":5.39539,"is_reserved":false,"is_disabled":false,"rental_uris":{"android":"levelo://app?vid=bb7d553e-f91c-478a-a14a-5f3ea0dc4964","ios":"levelo://app?vid=bb7d553e-f91c-478a-a14a-5f3ea0dc4964"},"vehicle_type_id":"4","last_reported":1742840037,"current_range_meters":8000,"station_id":"ce4bhlp2rcd13ifvqgjg","pricing_plan_id":"cebpf4jnsgd1na2vs0mg"},{"bike_id":"ba77c809-1111-412f-8eae-c3c885fbd6c5","system_id":"levelo_inurba_marseille","lat":43.24168,"lon":5.36401,"is_reserved":false,"is_disabled":false,"rental_uris":{"android":"levelo://app?vid=ba77c809-1111-412f-8eae-c3c885fbd6c5","ios":"levelo://app?vid=ba77c809-1111-412f-8eae-c3c885fbd6c5"},"vehicle_type_id":"4","last_reported":1742840037,"current_range_meters":8000,"station_id":"cpo36qri1sfpv3e86is0","pricing_plan_id":"cebpf4jnsgd1na2vs0mg"},{"bike_id":"e4d464b4-29c3-4b44-a250-b6522bfbac86","system_id":"levelo_inurba_marseille","lat":43.29277,"lon":5.40127,"is_reserved":false,"is_disabled":false,"rental_uris":{"android":"levelo://app?vid=e4d464b4-29c3-4b44-a250-b6522bfbac86","ios":"levelo://app?vid=e4d464b4-29c3-4b44-a250-b6522bfbac86"},"vehicle_type_id":"4","last_reported":1742840037,"current_range_meters":7200,"station_id":"ce4bh312rcd13ifvqdk0","pricing_plan_id":"cebpf4jnsgd1na2vs0mg"},{"bike_id":"1eb575cd-9993-4858-b557-1410d02c934f","system_id":"levelo_inurba_marseille","lat":43.32009,"lon":5.38146,"is_reserved":false,"is_disabled":false,"rental_uris":{"android":"levelo://app?vid=1eb575cd-9993-4858-b557-1410d02c934f","ios":"levelo://app?vid=1eb575cd-9993-4858-b557-1410d02c934f"},"vehicle_type_id":"4","last_reported":1742840037,"current_range_meters":8000,"station_id":"ce4bhr12rcd13ifvqhpg","pricing_plan_id":"cebpf4jnsgd1na2vs0mg"},{"bike_id":"038267b9-650d-41d1-bd34-b96ff4438926","system_id":"levelo_inurba_marseille","lat":43.297146,"lon":5.380979,"is_reserved":false,"is_disabled":false,"rental_uris":{"android":"levelo://app?vid=038267b9-650d-41d1-bd34-b96ff4438926","ios":"levelo://app?vid=038267b9-650d-41d1-bd34-b96ff4438926"},"vehicle_type_id":"4","last_reported":1742840037,"current_range_meters":8000,"station_id":"ce4bgl12rcd13ifvqbo0","pricing_plan_id":"cebpf4jnsgd1na2vs0mg"},{"bike_id":"e3c6d100-9b3b-44e1-abd1-7cf3538ee12c","system_id":"levelo_inurba_marseille","lat":43.231886,"lon":5.355488,"is_reserved":false,"is_disabled":false,"rental_uris":{"android":"levelo://app?vid=e3c6d100-9b3b-44e1-abd1-7cf3538ee12c","ios":"levelo://app?vid=e3c6d100-9b3b-44e1-abd1-7cf3538ee12c"},"vehicle_type_id":"4","last_reported":1742840037,"current_range_meters":8400,"station_id":"ce4bhu92rcd13ifvqi70","pricing_plan_id":"cebpf4jnsgd1na2vs0mg"},{"bike_id":"f02a77b8-f810-41ff-bf5b-5ab742b469a7","system_id":"levelo_inurba_marseille","lat":43.23152,"lon":5.43703,"is_reserved":false,"is_disabled":false,"rental_uris":{"android":"levelo://app?vid=f02a77b8-f810-41ff-bf5b-5ab742b469a7","ios":"levelo://app?vid=f02a77b8-f810-41ff-bf5b-5ab742b469a7"},"vehicle_type_id":"4","last_reported":1742840037,"current_range_meters":8400,"station_id":"ce4bhmp2rcd13ifvqgog","pricing_plan_id":"cebpf4jnsgd1na2vs0mg"},{"bike_id":"521e05a1-b600-4573-8587-eda965d49bb7","system_id":"levelo_inurba_marseille","lat":43.30319,"lon":5.4044,"is_reserved":false,"is_disabled":false,"rental_uris":{"android":"levelo://app?vid=521e05a1-b600-4573-8587-eda965d49bb7","ios":"levelo://app?vid=521e05a1-b600-4573-8587-eda965d49bb7"},"vehicle_type_id":"4","last_reported":1742840037,"current_range_meters":8400,"station_id":"ce4bh012rcd13ifvqd10","pricing_plan_id":"cebpf4jnsgd1na2vs0mg"},{"bike_id":"3d50d2d4-f98c-466f-af60-d375a9debb10","system_id":"levelo_inurba_marseille","lat":43.322855,"lon":5.382795,"is_reserved":false,"is_disabled":false,"rental_uris":{"android":"levelo://app?vid=3d50d2d4-f98c-466f-af60-d375a9debb10","ios":"levelo://app?vid=3d50d2d4-f98c-466f-af60-d375a9debb10"},"vehicle_type_id":"4","last_reported":1742840037,"current_range_meters":8400,"station_id":"ce4bhr12rcd13ifvqhqg","pricing_plan_id":"cebpf4jnsgd1na2vs0mg"},{"bike_id":"c77ba74c-34b4-4065-8232-671a3f8577ef","system_id":"levelo_inurba_marseille","lat":43.26194,"lon":5.37928,"is_reserved":false,"is_disabled":false,"rental_uris":{"android":"levelo://app?vid=c77ba74c-34b4-4065-8232-671a3f8577ef","ios":"levelo://app?vid=c77ba74c-34b4-4065-8232-671a3f8577ef"},"vehicle_type_id":"4","last_reported":1742840037,"current_range_meters":8400,"station_id":"","pricing_plan_id":"cebpf4jnsgd1na2vs0mg"},{"bike_id":"65383782-0c14-4377-bdff-9f651f12122e","system_id":"levelo_inurba_marseille","lat":43.32009,"lon":5.38169,"is_reserved":false,"is_disabled":false,"rental_uris":{"android":"levelo://app?vid=65383782-0c14-4377-bdff-9f651f12122e","ios":"levelo://app?vid=65383782-0c14-4377-bdff-9f651f12122e"},"vehicle_type_id":"4","last_reported":1742840037,"current_range_meters":8400,"station_id":"ce4bhr12rcd13ifvqhpg","pricing_plan_id":"cebpf4jnsgd1na2vs0mg"},{"bike_id":"f71227bc-cd9b-4b20-aca1-8d85818dc59b","system_id":"levelo_inurba_marseille","lat":43.30149,"lon":5.39894,"is_reserved":false,"is_disabled":false,"rental_uris":{"android":"levelo://app?vid=f71227bc-cd9b-4b20-aca1-8d85818dc59b","ios":"levelo://app?vid=f71227bc-cd9b-4b20-aca1-8d85818dc59b"},"vehicle_type_id":"4","last_reported":1742840037,"current_range_meters":8400,"station_id":"ce4bh0h2rcd13ifvqd40","pricing_plan_id":"cebpf4jnsgd1na2vs0mg"},{"bike_id":"75d6b41a-7167-48bc-9484-6c1ee787337f","system_id":"levelo_inurba_marseille","lat":43.29528,"lon":5.39029,"is_reserved":false,"is_disabled":false,"rental_uris":{"android":"levelo://app?vid=75d6b41a-7167-48bc-9484-6c1ee787337f","ios":"levelo://app?vid=75d6b41a-7167-48bc-9484-6c1ee787337f"},"vehicle_type_id":"4","last_reported":1742840037,"current_range_meters":8400,"station_id":"ce4bh3p2rcd13ifvqdp0","pricing_plan_id":"cebpf4jnsgd1na2vs0mg"},{"bike_id":"994e53ca-d013-4edc-a497-956de3818ed7","system_id":"levelo_inurba_marseille","lat":43.25829,"lon":5.39438,"is_reserved":false,"is_disabled":false,"rental_uris":{"android":"levelo://app?vid=994e53ca-d013-4edc-a497-956de3818ed7","ios":"levelo://app?vid=994e53ca-d013-4edc-a497-956de3818ed7"},"vehicle_type_id":"4","last_reported":1742840037,"current_range_meters":8400,"station_id":"ce4bhip2rcd13ifvqft0","pricing_plan_id":"cebpf4jnsgd1na2vs0mg"},{"bike_id":"d942f3e8-444a-4f08-8153-7c5e4dca0232","system_id":"levelo_inurba_marseille","lat":43.31703,"lon":5.43718,"is_reserved":false,"is_disabled":false,"rental_uris":{"android":"levelo://app?vid=d942f3e8-444a-4f08-8153-7c5e4dca0232","ios":"levelo://app?vid=d942f3e8-444a-4f08-8153-7c5e4dca0232"},"vehicle_type_id":"4","last_reported":1742840037,"current_range_meters":8400,"station_id":"ce4bhp92rcd13ifvqhcg","pricing_plan_id":"cebpf4jnsgd1na2vs0mg"},{"bike_id":"f736076c-1e96-4005-a890-b7303b2026f0","system_id":"levelo_inurba_marseille","lat":43.285055,"lon":5.385524,"is_reserved":false,"is_disabled":false,"rental_uris":{"android":"levelo://app?vid=f736076c-1e96-4005-a890-b7303b2026f0","ios":"levelo://app?vid=f736076c-1e96-4005-a890-b7303b2026f0"},"vehicle_type_id":"4","last_reported":1742840037,"current_range_meters":8800,"station_id":"ce4bhdp2rcd13ifvqf20","pricing_plan_id":"cebpf4jnsgd1na2vs0mg"},{"bike_id":"89e21462-a2eb-4a1f-9ac2-dd12c0078c73","system_id":"levelo_inurba_marseille","lat":43.3266,"lon":5.40993,"is_reserved":false,"is_disabled":false,"rental_uris":{"android":"levelo://app?vid=89e21462-a2eb-4a1f-9ac2-dd12c0078c73","ios":"levelo://app?vid=89e21462-a2eb-4a1f-9ac2-dd12c0078c73"},"vehicle_type_id":"4","last_reported":1742840037,"current_range_meters":8800,"station_id":"ce4bhpp2rcd13ifvqhgg","pricing_plan_id":"cebpf4jnsgd1na2vs0mg"},{"bike_id":"98347456-1997-4c83-ae02-4fea91c7ff4f","system_id":"levelo_inurba_marseille","lat":43.28949,"lon":5.36386,"is_reserved":false,"is_disabled":false,"rental_uris":{"android":"levelo://app?vid=98347456-1997-4c83-ae02-4fea91c7ff4f","ios":"levelo://app?vid=98347456-1997-4c83-ae02-4fea91c7ff4f"},"vehicle_type_id":"4","last_reported":1742840037,"current_range_meters":8800,"station_id":"ce4bhc92rcd13ifvqetg","pricing_plan_id":"cebpf4jnsgd1na2vs0mg"},{"bike_id":"ab109a35-cb7d-438b-8db8-1c92b3f80847","system_id":"levelo_inurba_marseille","lat":43.32002,"lon":5.38154,"is_reserved":false,"is_disabled":false,"rental_uris":{"android":"levelo://app?vid=ab109a35-cb7d-438b-8db8-1c92b3f80847","ios":"levelo://app?vid=ab109a35-cb7d-438b-8db8-1c92b3f80847"},"vehicle_type_id":"4","last_reported":1742840037,"current_range_meters":8800,"station_id":"ce4bhr12rcd13ifvqhpg","pricing_plan_id":"cebpf4jnsgd1na2vs0mg"},{"bike_id":"cee28011-e56f-491b-aebe-a0910075f003","system_id":"levelo_inurba_marseille","lat":43.28687,"lon":5.37407,"is_reserved":false,"is_disabled":false,"rental_uris":{"android":"levelo://app?vid=cee28011-e56f-491b-aebe-a0910075f003","ios":"levelo://app?vid=cee28011-e56f-491b-aebe-a0910075f003"},"vehicle_type_id":"4","last_reported":1742840037,"current_range_meters":9200,"station_id":"ce4bh3p2rcd13ifvqdq0","pricing_plan_id":"cebpf4jnsgd1na2vs0mg"},{"bike_id":"19c4d38c-721f-4a6d-8de0-ad162aee3dc3","system_id":"levelo_inurba_marseille","lat":43.2987,"lon":5.38912,"is_reserved":false,"is_disabled":true,"rental_uris":{"android":"levelo://app?vid=19c4d38c-721f-4a6d-8de0-ad162aee3dc3","ios":"levelo://app?vid=19c4d38c-721f-4a6d-8de0-ad162aee3dc3"},"vehicle_type_id":"4","last_reported":1742840037,"current_range_meters":9200,"station_id":"ce4bh392rcd13ifvqdl0","pricing_plan_id":"cebpf4jnsgd1na2vs0mg"},{"bike_id":"42a0b69b-f29a-4ea2-80ed-6573bad37aeb","system_id":"levelo_inurba_marseille","lat":43.24551,"lon":5.39529,"is_reserved":false,"is_disabled":false,"rental_uris":{"android":"levelo://app?vid=42a0b69b-f29a-4ea2-80ed-6573bad37aeb","ios":"levelo://app?vid=42a0b69b-f29a-4ea2-80ed-6573bad37aeb"},"vehicle_type_id":"4","last_reported":1742840037,"current_range_meters":9200,"station_id":"ce4bhlp2rcd13ifvqgjg","pricing_plan_id":"cebpf4jnsgd1na2vs0mg"},{"bike_id":"4b1a2085-0d65-43af-a4a7-3a9ef2d3d270","system_id":"levelo_inurba_marseille","lat":43.27683,"lon":5.38891,"is_reserved":false,"is_disabled":false,"rental_uris":{"android":"levelo://app?vid=4b1a2085-0d65-43af-a4a7-3a9ef2d3d270","ios":"levelo://app?vid=4b1a2085-0d65-43af-a4a7-3a9ef2d3d270"},"vehicle_type_id":"4","last_reported":1742840037,"current_range_meters":9200,"station_id":"ce4bhi12rcd13ifvqfo0","pricing_plan_id":"cebpf4jnsgd1na2vs0mg"},{"bike_id":"bd8048a1-6614-474f-9279-3ec4b8330dc0","system_id":"levelo_inurba_marseille","lat":43.32271,"lon":5.38296,"is_reserved":false,"is_disabled":false,"rental_uris":{"android":"levelo://app?vid=bd8048a1-6614-474f-9279-3ec4b8330dc0","ios":"levelo://app?vid=bd8048a1-6614-474f-9279-3ec4b8330dc0"},"vehicle_type_id":"4","last_reported":1742840037,"current_range_meters":9200,"station_id":"ce4bhr12rcd13ifvqhqg","pricing_plan_id":"cebpf4jnsgd1na2vs0mg"},{"bike_id":"5083bd7a-eca8-4fd6-a300-8270ac2d996b","system_id":"levelo_inurba_marseille","lat":43.28853,"lon":5.35849,"is_reserved":false,"is_disabled":false,"rental_uris":{"android":"levelo://app?vid=5083bd7a-eca8-4fd6-a300-8270ac2d996b","ios":"levelo://app?vid=5083bd7a-eca8-4fd6-a300-8270ac2d996b"},"vehicle_type_id":"4","last_reported":1742840037,"current_range_meters":9200,"station_id":"ce4bhb12rcd13ifvqem0","pricing_plan_id":"cebpf4jnsgd1na2vs0mg"},{"bike_id":"ae7aa3dd-7755-481c-9fe1-ef1d518137c2","system_id":"levelo_inurba_marseille","lat":43.28079,"lon":5.39641,"is_reserved":false,"is_disabled":false,"rental_uris":{"android":"levelo://app?vid=ae7aa3dd-7755-481c-9fe1-ef1d518137c2","ios":"levelo://app?vid=ae7aa3dd-7755-481c-9fe1-ef1d518137c2"},"vehicle_type_id":"4","last_reported":1742840037,"current_range_meters":9200,"station_id":"ce4bho12rcd13ifvqh2g","pricing_plan_id":"cebpf4jnsgd1na2vs0mg"},{"bike_id":"f5f0914c-6e6b-4ef5-97f8-530e51ad2543","system_id":"levelo_inurba_marseille","lat":43.28406,"lon":5.3751,"is_reserved":false,"is_disabled":false,"rental_uris":{"android":"levelo://app?vid=f5f0914c-6e6b-4ef5-97f8-530e51ad2543","ios":"levelo://app?vid=f5f0914c-6e6b-4ef5-97f8-530e51ad2543"},"vehicle_type_id":"4","last_reported":1742840037,"current_range_meters":9600,"station_id":"ce4bh412rcd13ifvqds0","pricing_plan_id":"cebpf4jnsgd1na2vs0mg"},{"bike_id":"2462aff4-312c-46a9-ae18-d864ef42c20c","system_id":"levelo_inurba_marseille","lat":43.24163,"lon":5.36413,"is_reserved":false,"is_disabled":false,"rental_uris":{"android":"levelo://app?vid=2462aff4-312c-46a9-ae18-d864ef42c20c","ios":"levelo://app?vid=2462aff4-312c-46a9-ae18-d864ef42c20c"},"vehicle_type_id":"4","last_reported":1742840037,"current_range_meters":9600,"station_id":"cpo36qri1sfpv3e86is0","pricing_plan_id":"cebpf4jnsgd1na2vs0mg"},{"bike_id":"1b8779ee-15bd-411f-8230-66fb3b9d06b8","system_id":"levelo_inurba_marseille","lat":43.29905,"lon":5.43661,"is_reserved":false,"is_disabled":false,"rental_uris":{"android":"levelo://app?vid=1b8779ee-15bd-411f-8230-66fb3b9d06b8","ios":"levelo://app?vid=1b8779ee-15bd-411f-8230-66fb3b9d06b8"},"vehicle_type_id":"4","last_reported":1742840037,"current_range_meters":9600,"station_id":"","pricing_plan_id":"cebpf4jnsgd1na2vs0mg"},{"bike_id":"0645919f-9dda-4ed0-b513-9ca60289b446","system_id":"levelo_inurba_marseille","lat":43.30519,"lon":5.36549,"is_reserved":false,"is_disabled":false,"rental_uris":{"android":"levelo://app?vid=0645919f-9dda-4ed0-b513-9ca60289b446","ios":"levelo://app?vid=0645919f-9dda-4ed0-b513-9ca60289b446"},"vehicle_type_id":"4","last_reported":1742840037,"current_range_meters":9600,"station_id":"","pricing_plan_id":"cebpf4jnsgd1na2vs0mg"},{"bike_id":"2ff570d2-4d8e-48ed-9e8e-8a83ca9149b2","system_id":"levelo_inurba_marseille","lat":43.27059,"lon":5.42219,"is_reserved":false,"is_disabled":true,"rental_uris":{"android":"levelo://app?vid=2ff570d2-4d8e-48ed-9e8e-8a83ca9149b2","ios":"levelo://app?vid=2ff570d2-4d8e-48ed-9e8e-8a83ca9149b2"},"vehicle_type_id":"4","last_reported":1742840037,"current_range_meters":9600,"station_id":"ce4bhk92rcd13ifvqgb0","pricing_plan_id":"cebpf4jnsgd1na2vs0mg"},{"bike_id":"4db7f2fa-c3ca-4108-ad58-1644c419963f","system_id":"levelo_inurba_marseille","lat":43.23153,"lon":5.4373,"is_reserved":false,"is_disabled":false,"rental_uris":{"android":"levelo://app?vid=4db7f2fa-c3ca-4108-ad58-1644c419963f","ios":"levelo://app?vid=4db7f2fa-c3ca-4108-ad58-1644c419963f"},"vehicle_type_id":"4","last_reported":1742840037,"current_range_meters":9600,"station_id":"","pricing_plan_id":"cebpf4jnsgd1na2vs0mg"},{"bike_id":"16a20090-4290-4041-8a23-3f924e32764f","system_id":"levelo_inurba_marseille","lat":43.30879,"lon":5.39664,"is_reserved":false,"is_disabled":false,"rental_uris":{"android":"levelo://app?vid=16a20090-4290-4041-8a23-3f924e32764f","ios":"levelo://app?vid=16a20090-4290-4041-8a23-3f924e32764f"},"vehicle_type_id":"4","last_reported":1742840037,"current_range_meters":9600,"station_id":"ce4bh012rcd13ifvqcv0","pricing_plan_id":"cebpf4jnsgd1na2vs0mg"},{"bike_id":"cc799e13-4938-4b46-8479-9b3783ed8fb9","system_id":"levelo_inurba_marseille","lat":43.30891,"lon":5.39638,"is_reserved":false,"is_disabled":false,"rental_uris":{"android":"levelo://app?vid=cc799e13-4938-4b46-8479-9b3783ed8fb9","ios":"levelo://app?vid=cc799e13-4938-4b46-8479-9b3783ed8fb9"},"vehicle_type_id":"4","last_reported":1742840037,"current_range_meters":9600,"station_id":"ce4bh012rcd13ifvqcv0","pricing_plan_id":"cebpf4jnsgd1na2vs0mg"},{"bike_id":"1a4189cd-66ed-4ee8-968b-423e8573a9a4","system_id":"levelo_inurba_marseille","lat":43.24665,"lon":5.38169,"is_reserved":false,"is_disabled":false,"rental_uris":{"android":"levelo://app?vid=1a4189cd-66ed-4ee8-968b-423e8573a9a4","ios":"levelo://app?vid=1a4189cd-66ed-4ee8-968b-423e8573a9a4"},"vehicle_type_id":"4","last_reported":1742840037,"current_range_meters":9200,"station_id":"ce4bhih2rcd13ifvqfr0","pricing_plan_id":"cebpf4jnsgd1na2vs0mg"},{"bike_id":"c094919f-14ee-4ffc-9259-e33190fa310d","system_id":"levelo_inurba_marseille","lat":43.29964,"lon":5.38493,"is_reserved":false,"is_disabled":false,"rental_uris":{"android":"levelo://app?vid=c094919f-14ee-4ffc-9259-e33190fa310d","ios":"levelo://app?vid=c094919f-14ee-4ffc-9259-e33190fa310d"},"vehicle_type_id":"4","last_reported":1742840037,"current_range_meters":9600,"station_id":"ce4bgj92rcd13ifvqbd0","pricing_plan_id":"cebpf4jnsgd1na2vs0mg"},{"bike_id":"75927f7b-b7af-425d-be41-2c9e710eb30a","system_id":"levelo_inurba_marseille","lat":43.32315,"lon":5.40626,"is_reserved":false,"is_disabled":false,"rental_uris":{"android":"levelo://app?vid=75927f7b-b7af-425d-be41-2c9e710eb30a","ios":"levelo://app?vid=75927f7b-b7af-425d-be41-2c9e710eb30a"},"vehicle_type_id":"4","last_reported":1742840037,"current_range_meters":9600,"station_id":"ce4bhq92rcd13ifvqhjg","pricing_plan_id":"cebpf4jnsgd1na2vs0mg"},{"bike_id":"1a345399-a05c-4260-adfc-39945aa96c9c","system_id":"levelo_inurba_marseille","lat":43.29039,"lon":5.37569,"is_reserved":false,"is_disabled":false,"rental_uris":{"android":"levelo://app?vid=1a345399-a05c-4260-adfc-39945aa96c9c","ios":"levelo://app?vid=1a345399-a05c-4260-adfc-39945aa96c9c"},"vehicle_type_id":"4","last_reported":1742840037,"current_range_meters":9600,"station_id":"ce4bh692rcd13ifvqe90","pricing_plan_id":"cebpf4jnsgd1na2vs0mg"},{"bike_id":"199581d8-7bdd-4042-bb23-5cb44e92075f","system_id":"levelo_inurba_marseille","lat":43.28159,"lon":5.4264,"is_reserved":false,"is_disabled":false,"rental_uris":{"android":"levelo://app?vid=199581d8-7bdd-4042-bb23-5cb44e92075f","ios":"levelo://app?vid=199581d8-7bdd-4042-bb23-5cb44e92075f"},"vehicle_type_id":"4","last_reported":1742840037,"current_range_meters":10000,"station_id":"ce4bhnh2rcd13ifvqgug","pricing_plan_id":"cebpf4jnsgd1na2vs0mg"},{"bike_id":"3b8a0271-0f13-4dad-8f77-fd6435ca4130","system_id":"levelo_inurba_marseille","lat":43.28264,"lon":5.35069,"is_reserved":false,"is_disabled":false,"rental_uris":{"android":"levelo://app?vid=3b8a0271-0f13-4dad-8f77-fd6435ca4130","ios":"levelo://app?vid=3b8a0271-0f13-4dad-8f77-fd6435ca4130"},"vehicle_type_id":"4","last_reported":1742840037,"current_range_meters":10000,"station_id":"ce4bhbp2rcd13ifvqerg","pricing_plan_id":"cebpf4jnsgd1na2vs0mg"},{"bike_id":"9eef2c13-4412-429d-a6b0-e32bea5d5b99","system_id":"levelo_inurba_marseille","lat":43.32481,"lon":5.36593,"is_reserved":false,"is_disabled":false,"rental_uris":{"android":"levelo://app?vid=9eef2c13-4412-429d-a6b0-e32bea5d5b99","ios":"levelo://app?vid=9eef2c13-4412-429d-a6b0-e32bea5d5b99"},"vehicle_type_id":"4","last_reported":1742840037,"current_range_meters":10000,"station_id":"ce4bhs12rcd13ifvqhvg","pricing_plan_id":"cebpf4jnsgd1na2vs0mg"},{"bike_id":"08353e5b-8b58-439c-a52a-a46ddd9017f5","system_id":"levelo_inurba_marseille","lat":43.30413,"lon":5.41308,"is_reserved":false,"is_disabled":false,"rental_uris":{"android":"levelo://app?vid=08353e5b-8b58-439c-a52a-a46ddd9017f5","ios":"levelo://app?vid=08353e5b-8b58-439c-a52a-a46ddd9017f5"},"vehicle_type_id":"4","last_reported":1742840037,"current_range_meters":10000,"station_id":"ce4bhop2rcd13ifvqh8g","pricing_plan_id":"cebpf4jnsgd1na2vs0mg"},{"bike_id":"0dfb0d89-73f2-49b8-91e9-15d856e46939","system_id":"levelo_inurba_marseille","lat":43.24179,"lon":5.39732,"is_reserved":false,"is_disabled":false,"rental_uris":{"android":"levelo://app?vid=0dfb0d89-73f2-49b8-91e9-15d856e46939","ios":"levelo://app?vid=0dfb0d89-73f2-49b8-91e9-15d856e46939"},"vehicle_type_id":"4","last_reported":1742840037,"current_range_meters":10000,"station_id":"ce4bhn12rcd13ifvqgpg","pricing_plan_id":"cebpf4jnsgd1na2vs0mg"},{"bike_id":"e1b0e5a5-4d2c-439f-a035-eadd5217d570","system_id":"levelo_inurba_marseille","lat":43.31293,"lon":5.36818,"is_reserved":false,"is_disabled":true,"rental_uris":{"android":"levelo://app?vid=e1b0e5a5-4d2c-439f-a035-eadd5217d570","ios":"levelo://app?vid=e1b0e5a5-4d2c-439f-a035-eadd5217d570"},"vehicle_type_id":"4","last_reported":1742840037,"current_range_meters":10000,"station_id":"ce4bgl92rcd13ifvqbq0","pricing_plan_id":"cebpf4jnsgd1na2vs0mg"},{"bike_id":"d6b9068b-bec0-4f76-9c03-273151aa3d54","system_id":"levelo_inurba_marseille","lat":43.26511,"lon":5.37334,"is_reserved":false,"is_disabled":false,"rental_uris":{"android":"levelo://app?vid=d6b9068b-bec0-4f76-9c03-273151aa3d54","ios":"levelo://app?vid=d6b9068b-bec0-4f76-9c03-273151aa3d54"},"vehicle_type_id":"4","last_reported":1742840037,"current_range_meters":10000,"station_id":"","pricing_plan_id":"cebpf4jnsgd1na2vs0mg"},{"bike_id":"1bf06481-d9a0-4112-85ce-090f0c187592","system_id":"levelo_inurba_marseille","lat":43.30803,"lon":5.4352,"is_reserved":false,"is_disabled":false,"rental_uris":{"android":"levelo://app?vid=1bf06481-d9a0-4112-85ce-090f0c187592","ios":"levelo://app?vid=1bf06481-d9a0-4112-85ce-090f0c187592"},"vehicle_type_id":"4","last_reported":1742840037,"current_range_meters":10800,"station_id":"ce4bhph2rcd13ifvqheg","pricing_plan_id":"cebpf4jnsgd1na2vs0mg"},{"bike_id":"ebf86de8-a3f7-4563-b9cd-62f5316ef4ec","system_id":"levelo_inurba_marseille","lat":43.30923,"lon":5.40184,"is_reserved":false,"is_disabled":true,"rental_uris":{"android":"levelo://app?vid=ebf86de8-a3f7-4563-b9cd-62f5316ef4ec","ios":"levelo://app?vid=ebf86de8-a3f7-4563-b9cd-62f5316ef4ec"},"vehicle_type_id":"4","last_reported":1742840037,"current_range_meters":10800,"station_id":"ce4bgvp2rcd13ifvqct0","pricing_plan_id":"cebpf4jnsgd1na2vs0mg"},{"bike_id":"26fa24fb-ac6c-440b-833a-f02e8547dc9a","system_id":"levelo_inurba_marseille","lat":43.30951,"lon":5.36784,"is_reserved":false,"is_disabled":false,"rental_uris":{"android":"levelo://app?vid=26fa24fb-ac6c-440b-833a-f02e8547dc9a","ios":"levelo://app?vid=26fa24fb-ac6c-440b-833a-f02e8547dc9a"},"vehicle_type_id":"4","last_reported":1742840037,"current_range_meters":10800,"station_id":"","pricing_plan_id":"cebpf4jnsgd1na2vs0mg"},{"bike_id":"dcf19b71-e419-4131-b366-2b2d698b362d","system_id":"levelo_inurba_marseille","lat":43.29533,"lon":5.39015,"is_reserved":false,"is_disabled":false,"rental_uris":{"android":"levelo://app?vid=dcf19b71-e419-4131-b366-2b2d698b362d","ios":"levelo://app?vid=dcf19b71-e419-4131-b366-2b2d698b362d"},"vehicle_type_id":"4","last_reported":1742840037,"current_range_meters":10800,"station_id":"ce4bh3p2rcd13ifvqdp0","pricing_plan_id":"cebpf4jnsgd1na2vs0mg"},{"bike_id":"94d77310-a4d9-4d32-b502-28768c2f3bc9","system_id":"levelo_inurba_marseille","lat":43.28616,"lon":5.35102,"is_reserved":false,"is_disabled":false,"rental_uris":{"android":"levelo://app?vid=94d77310-a4d9-4d32-b502-28768c2f3bc9","ios":"levelo://app?vid=94d77310-a4d9-4d32-b502-28768c2f3bc9"},"vehicle_type_id":"4","last_reported":1742840037,"current_range_meters":10800,"station_id":"ce4bhch2rcd13ifvqeug","pricing_plan_id":"cebpf4jnsgd1na2vs0mg"},{"bike_id":"a0a460eb-34d7-43d6-85ef-87b30455cbf0","system_id":"levelo_inurba_marseille","lat":43.23956,"lon":5.3663,"is_reserved":false,"is_disabled":false,"rental_uris":{"android":"levelo://app?vid=a0a460eb-34d7-43d6-85ef-87b30455cbf0","ios":"levelo://app?vid=a0a460eb-34d7-43d6-85ef-87b30455cbf0"},"vehicle_type_id":"4","last_reported":1742840037,"current_range_meters":10800,"station_id":"ce4bhi12rcd13ifvqfp0","pricing_plan_id":"cebpf4jnsgd1na2vs0mg"},{"bike_id":"7c56eb58-0d15-44d2-86e9-11736c2aadc4","system_id":"levelo_inurba_marseille","lat":43.28493,"lon":5.38531,"is_reserved":false,"is_disabled":false,"rental_uris":{"android":"levelo://app?vid=7c56eb58-0d15-44d2-86e9-11736c2aadc4","ios":"levelo://app?vid=7c56eb58-0d15-44d2-86e9-11736c2aadc4"},"vehicle_type_id":"4","last_reported":1742840037,"current_range_meters":10800,"station_id":"ce4bh8p2rcd13ifvqeb0","pricing_plan_id":"cebpf4jnsgd1na2vs0mg"},{"bike_id":"64adbcbb-37f3-4d34-96ad-85a4c3f6d688","system_id":"levelo_inurba_marseille","lat":43.291975,"lon":5.39325,"is_reserved":false,"is_disabled":false,"rental_uris":{"android":"levelo://app?vid=64adbcbb-37f3-4d34-96ad-85a4c3f6d688","ios":"levelo://app?vid=64adbcbb-37f3-4d34-96ad-85a4c3f6d688"},"vehicle_type_id":"4","last_reported":1742840037,"current_range_meters":10800,"station_id":"ce4bh192rcd13ifvqdd0","pricing_plan_id":"cebpf4jnsgd1na2vs0mg"},{"bike_id":"f64a5f06-bff4-4284-a64d-ce271f664dc4","system_id":"levelo_inurba_marseille","lat":43.26172,"lon":5.40535,"is_reserved":false,"is_disabled":false,"rental_uris":{"android":"levelo://app?vid=f64a5f06-bff4-4284-a64d-ce271f664dc4","ios":"levelo://app?vid=f64a5f06-bff4-4284-a64d-ce271f664dc4"},"vehicle_type_id":"4","last_reported":1742840037,"current_range_meters":10800,"station_id":"","pricing_plan_id":"cebpf4jnsgd1na2vs0mg"},{"bike_id":"a33ea316-a477-4b21-9e1a-cb1f468813f7","system_id":"levelo_inurba_marseille","lat":43.31326,"lon":5.39698,"is_reserved":false,"is_disabled":false,"rental_uris":{"android":"levelo://app?vid=a33ea316-a477-4b21-9e1a-cb1f468813f7","ios":"levelo://app?vid=a33ea316-a477-4b21-9e1a-cb1f468813f7"},"vehicle_type_id":"4","last_reported":1742840037,"current_range_meters":10800,"station_id":"ce4bgvp2rcd13ifvqcu0","pricing_plan_id":"cebpf4jnsgd1na2vs0mg"},{"bike_id":"f04fbbfa-855c-4949-a848-c804afbc1b21","system_id":"levelo_inurba_marseille","lat":43.24073,"lon":5.37763,"is_reserved":false,"is_disabled":false,"rental_uris":{"android":"levelo://app?vid=f04fbbfa-855c-4949-a848-c804afbc1b21","ios":"levelo://app?vid=f04fbbfa-855c-4949-a848-c804afbc1b21"},"vehicle_type_id":"4","last_reported":1742840037,"current_range_meters":10800,"station_id":"ce4bhnp2rcd13ifvqgvg","pricing_plan_id":"cebpf4jnsgd1na2vs0mg"},{"bike_id":"3439b900-06b3-4cb5-bf7b-69c8709cde63","system_id":"levelo_inurba_marseille","lat":43.308904,"lon":5.396628,"is_reserved":false,"is_disabled":false,"rental_uris":{"android":"levelo://app?vid=3439b900-06b3-4cb5-bf7b-69c8709cde63","ios":"levelo://app?vid=3439b900-06b3-4cb5-bf7b-69c8709cde63"},"vehicle_type_id":"4","last_reported":1742840037,"current_range_meters":11200,"station_id":"ce4bh012rcd13ifvqcv0","pricing_plan_id":"cebpf4jnsgd1na2vs0mg"},{"bike_id":"a0d4632a-7a87-4031-aeeb-061ca0feaca6","system_id":"levelo_inurba_marseille","lat":43.2396,"lon":5.36628,"is_reserved":false,"is_disabled":false,"rental_uris":{"android":"levelo://app?vid=a0d4632a-7a87-4031-aeeb-061ca0feaca6","ios":"levelo://app?vid=a0d4632a-7a87-4031-aeeb-061ca0feaca6"},"vehicle_type_id":"4","last_reported":1742840037,"current_range_meters":11200,"station_id":"ce4bhi12rcd13ifvqfp0","pricing_plan_id":"cebpf4jnsgd1na2vs0mg"},{"bike_id":"e4a0e7b2-f208-4c7c-8304-f7319e5db269","system_id":"levelo_inurba_marseille","lat":43.24074,"lon":5.37759,"is_reserved":false,"is_disabled":false,"rental_uris":{"android":"levelo://app?vid=e4a0e7b2-f208-4c7c-8304-f7319e5db269","ios":"levelo://app?vid=e4a0e7b2-f208-4c7c-8304-f7319e5db269"},"vehicle_type_id":"4","last_reported":1742840037,"current_range_meters":11200,"station_id":"ce4bhnp2rcd13ifvqgvg","pricing_plan_id":"cebpf4jnsgd1na2vs0mg"},{"bike_id":"c9c19aa6-3fe4-401b-ab2c-9612f3df5e72","system_id":"levelo_inurba_marseille","lat":43.30945,"lon":5.39027,"is_reserved":false,"is_disabled":true,"rental_uris":{"android":"levelo://app?vid=c9c19aa6-3fe4-401b-ab2c-9612f3df5e72","ios":"levelo://app?vid=c9c19aa6-3fe4-401b-ab2c-9612f3df5e72"},"vehicle_type_id":"4","last_reported":1742840037,"current_range_meters":11200,"station_id":"ce4bgup2rcd13ifvqco0","pricing_plan_id":"cebpf4jnsgd1na2vs0mg"},{"bike_id":"73ca7590-4979-484f-92b8-e8cfbd0d4d0b","system_id":"levelo_inurba_marseille","lat":43.29203,"lon":5.35798,"is_reserved":false,"is_disabled":false,"rental_uris":{"android":"levelo://app?vid=73ca7590-4979-484f-92b8-e8cfbd0d4d0b","ios":"levelo://app?vid=73ca7590-4979-484f-92b8-e8cfbd0d4d0b"},"vehicle_type_id":"4","last_reported":1742840037,"current_range_meters":11200,"station_id":"ce4bhb12rcd13ifvqel0","pricing_plan_id":"cebpf4jnsgd1na2vs0mg"},{"bike_id":"7d1ce1b6-330a-4eb2-b5cf-0f12c6b4ddd4","system_id":"levelo_inurba_marseille","lat":43.29242,"lon":5.38448,"is_reserved":false,"is_disabled":false,"rental_uris":{"android":"levelo://app?vid=7d1ce1b6-330a-4eb2-b5cf-0f12c6b4ddd4","ios":"levelo://app?vid=7d1ce1b6-330a-4eb2-b5cf-0f12c6b4ddd4"},"vehicle_type_id":"4","last_reported":1742840037,"current_range_meters":11200,"station_id":"ce4bh692rcd13ifvqea0","pricing_plan_id":"cebpf4jnsgd1na2vs0mg"},{"bike_id":"a0d05f03-0e02-4b04-8fa4-3561235d49f8","system_id":"levelo_inurba_marseille","lat":43.2892,"lon":5.38405,"is_reserved":false,"is_disabled":true,"rental_uris":{"android":"levelo://app?vid=a0d05f03-0e02-4b04-8fa4-3561235d49f8","ios":"levelo://app?vid=a0d05f03-0e02-4b04-8fa4-3561235d49f8"},"vehicle_type_id":"4","last_reported":1742840037,"current_range_meters":11600,"station_id":"ce4bh612rcd13ifvqe6g","pricing_plan_id":"cebpf4jnsgd1na2vs0mg"},{"bike_id":"8284de5c-d227-47cd-b1ac-1bc2e0170d0f","system_id":"levelo_inurba_marseille","lat":43.27849,"lon":5.40722,"is_reserved":false,"is_disabled":true,"rental_uris":{"android":"levelo://app?vid=8284de5c-d227-47cd-b1ac-1bc2e0170d0f","ios":"levelo://app?vid=8284de5c-d227-47cd-b1ac-1bc2e0170d0f"},"vehicle_type_id":"4","last_reported":1742840037,"current_range_meters":11600,"station_id":"ce4bhnh2rcd13ifvqgtg","pricing_plan_id":"cebpf4jnsgd1na2vs0mg"},{"bike_id":"42e12277-2404-40c1-a358-f3ca2810181d","system_id":"levelo_inurba_marseille","lat":43.29839,"lon":5.36317,"is_reserved":false,"is_disabled":false,"rental_uris":{"android":"levelo://app?vid=42e12277-2404-40c1-a358-f3ca2810181d","ios":"levelo://app?vid=42e12277-2404-40c1-a358-f3ca2810181d"},"vehicle_type_id":"4","last_reported":1742840037,"current_range_meters":11600,"station_id":"ce4bgpp2rcd13ifvqc3g","pricing_plan_id":"cebpf4jnsgd1na2vs0mg"},{"bike_id":"8acdff4e-0dd6-4e65-ac17-6a7143dc93ec","system_id":"levelo_inurba_marseille","lat":43.30273,"lon":5.40063,"is_reserved":false,"is_disabled":false,"rental_uris":{"android":"levelo://app?vid=8acdff4e-0dd6-4e65-ac17-6a7143dc93ec","ios":"levelo://app?vid=8acdff4e-0dd6-4e65-ac17-6a7143dc93ec"},"vehicle_type_id":"4","last_reported":1742840037,"current_range_meters":11600,"station_id":"ce4bgvh2rcd13ifvqcs0","pricing_plan_id":"cebpf4jnsgd1na2vs0mg"},{"bike_id":"9f8a43fc-80d1-45c4-9e5f-2ac1acc77564","system_id":"levelo_inurba_marseille","lat":43.30325,"lon":5.40438,"is_reserved":false,"is_disabled":false,"rental_uris":{"android":"levelo://app?vid=9f8a43fc-80d1-45c4-9e5f-2ac1acc77564","ios":"levelo://app?vid=9f8a43fc-80d1-45c4-9e5f-2ac1acc77564"},"vehicle_type_id":"4","last_reported":1742840037,"current_range_meters":11600,"station_id":"ce4bh012rcd13ifvqd10","pricing_plan_id":"cebpf4jnsgd1na2vs0mg"},{"bike_id":"008c8db6-be2b-43ce-8a53-8af51fd8b577","system_id":"levelo_inurba_marseille","lat":43.24181,"lon":5.39721,"is_reserved":false,"is_disabled":false,"rental_uris":{"android":"levelo://app?vid=008c8db6-be2b-43ce-8a53-8af51fd8b577","ios":"levelo://app?vid=008c8db6-be2b-43ce-8a53-8af51fd8b577"},"vehicle_type_id":"4","last_reported":1742840037,"current_range_meters":11600,"station_id":"ce4bhn12rcd13ifvqgpg","pricing_plan_id":"cebpf4jnsgd1na2vs0mg"},{"bike_id":"f9c93f73-9cc6-410b-bc7f-fd722b9631a4","system_id":"levelo_inurba_marseille","lat":43.30098,"lon":5.39074,"is_reserved":false,"is_disabled":false,"rental_uris":{"android":"levelo://app?vid=f9c93f73-9cc6-410b-bc7f-fd722b9631a4","ios":"levelo://app?vid=f9c93f73-9cc6-410b-bc7f-fd722b9631a4"},"vehicle_type_id":"4","last_reported":1742840037,"current_range_meters":11600,"station_id":"ce4bh192rcd13ifvqdb0","pricing_plan_id":"cebpf4jnsgd1na2vs0mg"},{"bike_id":"438c3484-329d-4a76-9d36-5a5cb3614c3e","system_id":"levelo_inurba_marseille","lat":43.31328,"lon":5.39692,"is_reserved":false,"is_disabled":false,"rental_uris":{"android":"levelo://app?vid=438c3484-329d-4a76-9d36-5a5cb3614c3e","ios":"levelo://app?vid=438c3484-329d-4a76-9d36-5a5cb3614c3e"},"vehicle_type_id":"4","last_reported":1742840037,"current_range_meters":11600,"station_id":"ce4bgvp2rcd13ifvqcu0","pricing_plan_id":"cebpf4jnsgd1na2vs0mg"},{"bike_id":"fbfecbb6-5794-4d9a-9176-1810e4b4a7ef","system_id":"levelo_inurba_marseille","lat":43.23079,"lon":5.35477,"is_reserved":false,"is_disabled":false,"rental_uris":{"android":"levelo://app?vid=fbfecbb6-5794-4d9a-9176-1810e4b4a7ef","ios":"levelo://app?vid=fbfecbb6-5794-4d9a-9176-1810e4b4a7ef"},"vehicle_type_id":"4","last_reported":1742840037,"current_range_meters":11600,"station_id":"cpo3342slgdg3j2ifvpg","pricing_plan_id":"cebpf4jnsgd1na2vs0mg"},{"bike_id":"b63ecf35-b9e2-4de2-a206-25909fa3473b","system_id":"levelo_inurba_marseille","lat":43.2862,"lon":5.35108,"is_reserved":false,"is_disabled":false,"rental_uris":{"android":"levelo://app?vid=b63ecf35-b9e2-4de2-a206-25909fa3473b","ios":"levelo://app?vid=b63ecf35-b9e2-4de2-a206-25909fa3473b"},"vehicle_type_id":"4","last_reported":1742840037,"current_range_meters":11600,"station_id":"ce4bhch2rcd13ifvqeug","pricing_plan_id":"cebpf4jnsgd1na2vs0mg"},{"bike_id":"1c9b7878-bf52-4c92-9ccb-3fed3ea1b494","system_id":"levelo_inurba_marseille","lat":43.2868,"lon":5.38671,"is_reserved":false,"is_disabled":false,"rental_uris":{"android":"levelo://app?vid=1c9b7878-bf52-4c92-9ccb-3fed3ea1b494","ios":"levelo://app?vid=1c9b7878-bf52-4c92-9ccb-3fed3ea1b494"},"vehicle_type_id":"4","last_reported":1742840037,"current_range_meters":12000,"station_id":"ce4bh492rcd13ifvqdug","pricing_plan_id":"cebpf4jnsgd1na2vs0mg"},{"bike_id":"8b939fe7-37e4-4224-a2fa-f22cfbe50705","system_id":"levelo_inurba_marseille","lat":43.30128,"lon":5.3985,"is_reserved":false,"is_disabled":false,"rental_uris":{"android":"levelo://app?vid=8b939fe7-37e4-4224-a2fa-f22cfbe50705","ios":"levelo://app?vid=8b939fe7-37e4-4224-a2fa-f22cfbe50705"},"vehicle_type_id":"4","last_reported":1742840037,"current_range_meters":12000,"station_id":"ce4bh0h2rcd13ifvqd40","pricing_plan_id":"cebpf4jnsgd1na2vs0mg"},{"bike_id":"b80cef71-9250-491f-bbd3-83ef9ed785b3","system_id":"levelo_inurba_marseille","lat":43.27632,"lon":5.38877,"is_reserved":false,"is_disabled":false,"rental_uris":{"android":"levelo://app?vid=b80cef71-9250-491f-bbd3-83ef9ed785b3","ios":"levelo://app?vid=b80cef71-9250-491f-bbd3-83ef9ed785b3"},"vehicle_type_id":"4","last_reported":1742840037,"current_range_meters":12000,"station_id":"","pricing_plan_id":"cebpf4jnsgd1na2vs0mg"},{"bike_id":"e5fd83fd-1909-49c9-9ba4-81553db9f016","system_id":"levelo_inurba_marseille","lat":43.32542,"lon":5.41425,"is_reserved":false,"is_disabled":false,"rental_uris":{"android":"levelo://app?vid=e5fd83fd-1909-49c9-9ba4-81553db9f016","ios":"levelo://app?vid=e5fd83fd-1909-49c9-9ba4-81553db9f016"},"vehicle_type_id":"4","last_reported":1742840037,"current_range_meters":12000,"station_id":"ce4bhq12rcd13ifvqhhg","pricing_plan_id":"cebpf4jnsgd1na2vs0mg"},{"bike_id":"4fe82e65-425c-453e-9e10-5bbbfdd7a6b8","system_id":"levelo_inurba_marseille","lat":43.24183,"lon":5.39726,"is_reserved":false,"is_disabled":false,"rental_uris":{"android":"levelo://app?vid=4fe82e65-425c-453e-9e10-5bbbfdd7a6b8","ios":"levelo://app?vid=4fe82e65-425c-453e-9e10-5bbbfdd7a6b8"},"vehicle_type_id":"4","last_reported":1742840037,"current_range_meters":12000,"station_id":"ce4bhn12rcd13ifvqgpg","pricing_plan_id":"cebpf4jnsgd1na2vs0mg"},{"bike_id":"938c0f4e-65bf-479a-ba6e-fe7a68ff9b08","system_id":"levelo_inurba_marseille","lat":43.26525,"lon":5.37319,"is_reserved":false,"is_disabled":false,"rental_uris":{"android":"levelo://app?vid=938c0f4e-65bf-479a-ba6e-fe7a68ff9b08","ios":"levelo://app?vid=938c0f4e-65bf-479a-ba6e-fe7a68ff9b08"},"vehicle_type_id":"4","last_reported":1742840037,"current_range_meters":12000,"station_id":"","pricing_plan_id":"cebpf4jnsgd1na2vs0mg"},{"bike_id":"a6c20288-f5a1-4928-9f6b-d04bd827a79e","system_id":"levelo_inurba_marseille","lat":43.24548,"lon":5.3954,"is_reserved":false,"is_disabled":false,"rental_uris":{"android":"levelo://app?vid=a6c20288-f5a1-4928-9f6b-d04bd827a79e","ios":"levelo://app?vid=a6c20288-f5a1-4928-9f6b-d04bd827a79e"},"vehicle_type_id":"4","last_reported":1742840037,"current_range_meters":12000,"station_id":"ce4bhlp2rcd13ifvqgjg","pricing_plan_id":"cebpf4jnsgd1na2vs0mg"},{"bike_id":"168c7134-99c1-4fe4-bdc8-8dceba76f389","system_id":"levelo_inurba_marseille","lat":43.28363,"lon":5.3863,"is_reserved":false,"is_disabled":false,"rental_uris":{"android":"levelo://app?vid=168c7134-99c1-4fe4-bdc8-8dceba76f389","ios":"levelo://app?vid=168c7134-99c1-4fe4-bdc8-8dceba76f389"},"vehicle_type_id":"4","last_reported":1742840037,"current_range_meters":12000,"station_id":"ce4bh492rcd13ifvqdvg","pricing_plan_id":"cebpf4jnsgd1na2vs0mg"},{"bike_id":"fea9030c-6393-4db9-9888-0bd1800ae00a","system_id":"levelo_inurba_marseille","lat":43.2961,"lon":5.38099,"is_reserved":false,"is_disabled":false,"rental_uris":{"android":"levelo://app?vid=fea9030c-6393-4db9-9888-0bd1800ae00a","ios":"levelo://app?vid=fea9030c-6393-4db9-9888-0bd1800ae00a"},"vehicle_type_id":"4","last_reported":1742840037,"current_range_meters":11200,"station_id":"ce4bgl12rcd13ifvqbo0","pricing_plan_id":"cebpf4jnsgd1na2vs0mg"},{"bike_id":"2a99ecb7-4bf0-4c00-89bb-11ff019b8a6d","system_id":"levelo_inurba_marseille","lat":43.22939,"lon":5.35389,"is_reserved":false,"is_disabled":false,"rental_uris":{"android":"levelo://app?vid=2a99ecb7-4bf0-4c00-89bb-11ff019b8a6d","ios":"levelo://app?vid=2a99ecb7-4bf0-4c00-89bb-11ff019b8a6d"},"vehicle_type_id":"4","last_reported":1742840037,"current_range_meters":12400,"station_id":"cpo3532slgdg3j2ikp40","pricing_plan_id":"cebpf4jnsgd1na2vs0mg"},{"bike_id":"37edeb0d-9f2a-4ca7-a5e6-671985783cf6","system_id":"levelo_inurba_marseille","lat":43.28103,"lon":5.37846,"is_reserved":false,"is_disabled":false,"rental_uris":{"android":"levelo://app?vid=37edeb0d-9f2a-4ca7-a5e6-671985783cf6","ios":"levelo://app?vid=37edeb0d-9f2a-4ca7-a5e6-671985783cf6"},"vehicle_type_id":"4","last_reported":1742840037,"current_range_meters":12400,"station_id":"ce4bha12rcd13ifvqee0","pricing_plan_id":"cebpf4jnsgd1na2vs0mg"},{"bike_id":"dc3e2b99-48a3-40fa-9272-f84a8f4ef874","system_id":"levelo_inurba_marseille","lat":43.24551,"lon":5.39521,"is_reserved":false,"is_disabled":false,"rental_uris":{"android":"levelo://app?vid=dc3e2b99-48a3-40fa-9272-f84a8f4ef874","ios":"levelo://app?vid=dc3e2b99-48a3-40fa-9272-f84a8f4ef874"},"vehicle_type_id":"4","last_reported":1742840037,"current_range_meters":12400,"station_id":"ce4bhlp2rcd13ifvqgjg","pricing_plan_id":"cebpf4jnsgd1na2vs0mg"},{"bike_id":"a5282f74-4fae-4145-92e0-0b61390c0994","system_id":"levelo_inurba_marseille","lat":43.23968,"lon":5.36627,"is_reserved":false,"is_disabled":false,"rental_uris":{"android":"levelo://app?vid=a5282f74-4fae-4145-92e0-0b61390c0994","ios":"levelo://app?vid=a5282f74-4fae-4145-92e0-0b61390c0994"},"vehicle_type_id":"4","last_reported":1742840037,"current_range_meters":12400,"station_id":"ce4bhi12rcd13ifvqfp0","pricing_plan_id":"cebpf4jnsgd1na2vs0mg"},{"bike_id":"c353c957-fbb8-408a-9097-46c8d6b68074","system_id":"levelo_inurba_marseille","lat":43.24176,"lon":5.39698,"is_reserved":false,"is_disabled":false,"rental_uris":{"android":"levelo://app?vid=c353c957-fbb8-408a-9097-46c8d6b68074","ios":"levelo://app?vid=c353c957-fbb8-408a-9097-46c8d6b68074"},"vehicle_type_id":"4","last_reported":1742840037,"current_range_meters":12400,"station_id":"ce4bhn12rcd13ifvqgpg","pricing_plan_id":"cebpf4jnsgd1na2vs0mg"},{"bike_id":"6bb6f1fc-5b4f-4f3d-97c1-f093e7e9a8ef","system_id":"levelo_inurba_marseille","lat":43.23045,"lon":5.35516,"is_reserved":false,"is_disabled":false,"rental_uris":{"android":"levelo://app?vid=6bb6f1fc-5b4f-4f3d-97c1-f093e7e9a8ef","ios":"levelo://app?vid=6bb6f1fc-5b4f-4f3d-97c1-f093e7e9a8ef"},"vehicle_type_id":"4","last_reported":1742840037,"current_range_meters":12400,"station_id":"cpo3342slgdg3j2ifvpg","pricing_plan_id":"cebpf4jnsgd1na2vs0mg"},{"bike_id":"6fd591ac-b490-445e-92c5-3b2f810b75d9","system_id":"levelo_inurba_marseille","lat":43.29532,"lon":5.39048,"is_reserved":false,"is_disabled":false,"rental_uris":{"android":"levelo://app?vid=6fd591ac-b490-445e-92c5-3b2f810b75d9","ios":"levelo://app?vid=6fd591ac-b490-445e-92c5-3b2f810b75d9"},"vehicle_type_id":"4","last_reported":1742840037,"current_range_meters":12400,"station_id":"ce4bh3p2rcd13ifvqdp0","pricing_plan_id":"cebpf4jnsgd1na2vs0mg"},{"bike_id":"8871fee1-c30f-4721-bb9f-022f22051a94","system_id":"levelo_inurba_marseille","lat":43.24183,"lon":5.39747,"is_reserved":false,"is_disabled":false,"rental_uris":{"android":"levelo://app?vid=8871fee1-c30f-4721-bb9f-022f22051a94","ios":"levelo://app?vid=8871fee1-c30f-4721-bb9f-022f22051a94"},"vehicle_type_id":"4","last_reported":1742840037,"current_range_meters":12800,"station_id":"ce4bhn12rcd13ifvqgpg","pricing_plan_id":"cebpf4jnsgd1na2vs0mg"},{"bike_id":"fe1816da-da08-4661-8bde-69e34af47cfc","system_id":"levelo_inurba_marseille","lat":43.28439,"lon":5.39191,"is_reserved":false,"is_disabled":false,"rental_uris":{"android":"levelo://app?vid=fe1816da-da08-4661-8bde-69e34af47cfc","ios":"levelo://app?vid=fe1816da-da08-4661-8bde-69e34af47cfc"},"vehicle_type_id":"4","last_reported":1742840037,"current_range_meters":12800,"station_id":"ce4bhoh2rcd13ifvqh5g","pricing_plan_id":"cebpf4jnsgd1na2vs0mg"},{"bike_id":"1887fe37-51a0-4284-bd26-ea9ec274ce5e","system_id":"levelo_inurba_marseille","lat":43.25709,"lon":5.41117,"is_reserved":false,"is_disabled":false,"rental_uris":{"android":"levelo://app?vid=1887fe37-51a0-4284-bd26-ea9ec274ce5e","ios":"levelo://app?vid=1887fe37-51a0-4284-bd26-ea9ec274ce5e"},"vehicle_type_id":"4","last_reported":1742840037,"current_range_meters":12800,"station_id":"ce4bhkp2rcd13ifvqgd0","pricing_plan_id":"cebpf4jnsgd1na2vs0mg"},{"bike_id":"224108c1-ee14-48b1-b0da-815166b9c50f","system_id":"levelo_inurba_marseille","lat":43.25498,"lon":5.37673,"is_reserved":false,"is_disabled":false,"rental_uris":{"android":"levelo://app?vid=224108c1-ee14-48b1-b0da-815166b9c50f","ios":"levelo://app?vid=224108c1-ee14-48b1-b0da-815166b9c50f"},"vehicle_type_id":"4","last_reported":1742840037,"current_range_meters":12800,"station_id":"ce4bhh12rcd13ifvqff0","pricing_plan_id":"cebpf4jnsgd1na2vs0mg"},{"bike_id":"d1347470-dce7-4bf6-b57b-e50d13e6362d","system_id":"levelo_inurba_marseille","lat":43.31066,"lon":5.38363,"is_reserved":false,"is_disabled":false,"rental_uris":{"android":"levelo://app?vid=d1347470-dce7-4bf6-b57b-e50d13e6362d","ios":"levelo://app?vid=d1347470-dce7-4bf6-b57b-e50d13e6362d"},"vehicle_type_id":"4","last_reported":1742840037,"current_range_meters":12800,"station_id":"ce4bgv92rcd13ifvqcr0","pricing_plan_id":"cebpf4jnsgd1na2vs0mg"},{"bike_id":"7da1780c-a707-4e5c-9536-83f171012129","system_id":"levelo_inurba_marseille","lat":43.31049,"lon":5.38353,"is_reserved":false,"is_disabled":false,"rental_uris":{"android":"levelo://app?vid=7da1780c-a707-4e5c-9536-83f171012129","ios":"levelo://app?vid=7da1780c-a707-4e5c-9536-83f171012129"},"vehicle_type_id":"4","last_reported":1742840037,"current_range_meters":13600,"station_id":"ce4bgv92rcd13ifvqcr0","pricing_plan_id":"cebpf4jnsgd1na2vs0mg"},{"bike_id":"5d964be5-a48c-4c90-955e-4953f4d1a178","system_id":"levelo_inurba_marseille","lat":43.24549,"lon":5.39527,"is_reserved":false,"is_disabled":false,"rental_uris":{"android":"levelo://app?vid=5d964be5-a48c-4c90-955e-4953f4d1a178","ios":"levelo://app?vid=5d964be5-a48c-4c90-955e-4953f4d1a178"},"vehicle_type_id":"4","last_reported":1742840037,"current_range_meters":13600,"station_id":"ce4bhlp2rcd13ifvqgjg","pricing_plan_id":"cebpf4jnsgd1na2vs0mg"},{"bike_id":"9db3844b-2fbe-406b-9294-79ee94b32c3a","system_id":"levelo_inurba_marseille","lat":43.29873,"lon":5.3975,"is_reserved":false,"is_disabled":false,"rental_uris":{"android":"levelo://app?vid=9db3844b-2fbe-406b-9294-79ee94b32c3a","ios":"levelo://app?vid=9db3844b-2fbe-406b-9294-79ee94b32c3a"},"vehicle_type_id":"4","last_reported":1742840037,"current_range_meters":13600,"station_id":"ce4bh0h2rcd13ifvqd50","pricing_plan_id":"cebpf4jnsgd1na2vs0mg"},{"bike_id":"67e75c37-0fa6-497c-aefa-7bfa090ad8a5","system_id":"levelo_inurba_marseille","lat":43.2951,"lon":5.39042,"is_reserved":false,"is_disabled":false,"rental_uris":{"android":"levelo://app?vid=67e75c37-0fa6-497c-aefa-7bfa090ad8a5","ios":"levelo://app?vid=67e75c37-0fa6-497c-aefa-7bfa090ad8a5"},"vehicle_type_id":"4","last_reported":1742840037,"current_range_meters":13600,"station_id":"ce4bh3p2rcd13ifvqdp0","pricing_plan_id":"cebpf4jnsgd1na2vs0mg"},{"bike_id":"2c49ac05-b437-4e53-a732-dd335b95df30","system_id":"levelo_inurba_marseille","lat":43.31099,"lon":5.42415,"is_reserved":false,"is_disabled":false,"rental_uris":{"android":"levelo://app?vid=2c49ac05-b437-4e53-a732-dd335b95df30","ios":"levelo://app?vid=2c49ac05-b437-4e53-a732-dd335b95df30"},"vehicle_type_id":"4","last_reported":1742840037,"current_range_meters":13600,"station_id":"ce4bhp92rcd13ifvqhag","pricing_plan_id":"cebpf4jnsgd1na2vs0mg"},{"bike_id":"0a2fd2bd-0465-4490-8bf0-a948a7c174a7","system_id":"levelo_inurba_marseille","lat":43.26555,"lon":5.3902,"is_reserved":false,"is_disabled":true,"rental_uris":{"android":"levelo://app?vid=0a2fd2bd-0465-4490-8bf0-a948a7c174a7","ios":"levelo://app?vid=0a2fd2bd-0465-4490-8bf0-a948a7c174a7"},"vehicle_type_id":"4","last_reported":1742840037,"current_range_meters":13600,"station_id":"ce4bhe12rcd13ifvqf30","pricing_plan_id":"cebpf4jnsgd1na2vs0mg"},{"bike_id":"38171531-6ca1-4268-b3ee-776bb97e7855","system_id":"levelo_inurba_marseille","lat":43.28153,"lon":5.42643,"is_reserved":false,"is_disabled":false,"rental_uris":{"android":"levelo://app?vid=38171531-6ca1-4268-b3ee-776bb97e7855","ios":"levelo://app?vid=38171531-6ca1-4268-b3ee-776bb97e7855"},"vehicle_type_id":"4","last_reported":1742840037,"current_range_meters":13600,"station_id":"ce4bhnh2rcd13ifvqgug","pricing_plan_id":"cebpf4jnsgd1na2vs0mg"},{"bike_id":"707a5fbc-b3e0-4c7a-81f3-d3a4ec533399","system_id":"levelo_inurba_marseille","lat":43.28106,"lon":5.37834,"is_reserved":false,"is_disabled":false,"rental_uris":{"android":"levelo://app?vid=707a5fbc-b3e0-4c7a-81f3-d3a4ec533399","ios":"levelo://app?vid=707a5fbc-b3e0-4c7a-81f3-d3a4ec533399"},"vehicle_type_id":"4","last_reported":1742840037,"current_range_meters":12800,"station_id":"ce4bha12rcd13ifvqee0","pricing_plan_id":"cebpf4jnsgd1na2vs0mg"},{"bike_id":"e3f76d45-4904-44a7-aac2-e04832e991bb","system_id":"levelo_inurba_marseille","lat":43.29974,"lon":5.41333,"is_reserved":false,"is_disabled":true,"rental_uris":{"android":"levelo://app?vid=e3f76d45-4904-44a7-aac2-e04832e991bb","ios":"levelo://app?vid=e3f76d45-4904-44a7-aac2-e04832e991bb"},"vehicle_type_id":"4","last_reported":1742840037,"current_range_meters":14000,"station_id":"ce4bhp12rcd13ifvqh9g","pricing_plan_id":"cebpf4jnsgd1na2vs0mg"},{"bike_id":"2f3e2a92-1301-4a27-8eaa-7b0ea525530e","system_id":"levelo_inurba_marseille","lat":43.31717,"lon":5.43722,"is_reserved":false,"is_disabled":false,"rental_uris":{"android":"levelo://app?vid=2f3e2a92-1301-4a27-8eaa-7b0ea525530e","ios":"levelo://app?vid=2f3e2a92-1301-4a27-8eaa-7b0ea525530e"},"vehicle_type_id":"4","last_reported":1742840037,"current_range_meters":14000,"station_id":"ce4bhp92rcd13ifvqhcg","pricing_plan_id":"cebpf4jnsgd1na2vs0mg"},{"bike_id":"552fb8ff-98a7-4106-b06d-1880af44f89c","system_id":"levelo_inurba_marseille","lat":43.30101,"lon":5.39078,"is_reserved":false,"is_disabled":false,"rental_uris":{"android":"levelo://app?vid=552fb8ff-98a7-4106-b06d-1880af44f89c","ios":"levelo://app?vid=552fb8ff-98a7-4106-b06d-1880af44f89c"},"vehicle_type_id":"4","last_reported":1742840037,"current_range_meters":14000,"station_id":"ce4bh192rcd13ifvqdb0","pricing_plan_id":"cebpf4jnsgd1na2vs0mg"},{"bike_id":"0715524f-3244-424d-8fde-6a8c7e44afa2","system_id":"levelo_inurba_marseille","lat":43.31887,"lon":5.40739,"is_reserved":false,"is_disabled":false,"rental_uris":{"android":"levelo://app?vid=0715524f-3244-424d-8fde-6a8c7e44afa2","ios":"levelo://app?vid=0715524f-3244-424d-8fde-6a8c7e44afa2"},"vehicle_type_id":"4","last_reported":1742840037,"current_range_meters":13600,"station_id":"ce4bhq12rcd13ifvqhig","pricing_plan_id":"cebpf4jnsgd1na2vs0mg"},{"bike_id":"fee8dabf-4af3-4655-9fe1-7a1172d14609","system_id":"levelo_inurba_marseille","lat":43.27813,"lon":5.40737,"is_reserved":false,"is_disabled":false,"rental_uris":{"android":"levelo://app?vid=fee8dabf-4af3-4655-9fe1-7a1172d14609","ios":"levelo://app?vid=fee8dabf-4af3-4655-9fe1-7a1172d14609"},"vehicle_type_id":"4","last_reported":1742840037,"current_range_meters":14000,"station_id":"ce4bhnh2rcd13ifvqgtg","pricing_plan_id":"cebpf4jnsgd1na2vs0mg"},{"bike_id":"8f208df7-81e0-45c5-bd98-a49c85a38fa2","system_id":"levelo_inurba_marseille","lat":43.30308,"lon":5.36919,"is_reserved":false,"is_disabled":false,"rental_uris":{"android":"levelo://app?vid=8f208df7-81e0-45c5-bd98-a49c85a38fa2","ios":"levelo://app?vid=8f208df7-81e0-45c5-bd98-a49c85a38fa2"},"vehicle_type_id":"4","last_reported":1742840037,"current_range_meters":14000,"station_id":"ce4bgqh2rcd13ifvqc5g","pricing_plan_id":"cebpf4jnsgd1na2vs0mg"},{"bike_id":"e0559549-f8d7-492f-bc99-04681de8cbc8","system_id":"levelo_inurba_marseille","lat":43.25873,"lon":5.39892,"is_reserved":false,"is_disabled":false,"rental_uris":{"android":"levelo://app?vid=e0559549-f8d7-492f-bc99-04681de8cbc8","ios":"levelo://app?vid=e0559549-f8d7-492f-bc99-04681de8cbc8"},"vehicle_type_id":"4","last_reported":1742840037,"current_range_meters":14000,"station_id":"ce4bhl92rcd13ifvqghg","pricing_plan_id":"cebpf4jnsgd1na2vs0mg"},{"bike_id":"6adb5407-e228-44f4-a1da-80d9852b3164","system_id":"levelo_inurba_marseille","lat":43.24998,"lon":5.38928,"is_reserved":false,"is_disabled":false,"rental_uris":{"android":"levelo://app?vid=6adb5407-e228-44f4-a1da-80d9852b3164","ios":"levelo://app?vid=6adb5407-e228-44f4-a1da-80d9852b3164"},"vehicle_type_id":"4","last_reported":1742840037,"current_range_meters":14000,"station_id":"ce4bhgp2rcd13ifvqfd0","pricing_plan_id":"cebpf4jnsgd1na2vs0mg"},{"bike_id":"cfba7878-c036-461e-a1a6-18cd6c9a5373","system_id":"levelo_inurba_marseille","lat":43.3025,"lon":5.40068,"is_reserved":false,"is_disabled":false,"rental_uris":{"android":"levelo://app?vid=cfba7878-c036-461e-a1a6-18cd6c9a5373","ios":"levelo://app?vid=cfba7878-c036-461e-a1a6-18cd6c9a5373"},"vehicle_type_id":"4","last_reported":1742840037,"current_range_meters":14000,"station_id":"ce4bgvh2rcd13ifvqcs0","pricing_plan_id":"cebpf4jnsgd1na2vs0mg"},{"bike_id":"b28ecb00-2b9b-4665-8ad5-1aeb61554a5a","system_id":"levelo_inurba_marseille","lat":43.29884,"lon":5.3976,"is_reserved":false,"is_disabled":false,"rental_uris":{"android":"levelo://app?vid=b28ecb00-2b9b-4665-8ad5-1aeb61554a5a","ios":"levelo://app?vid=b28ecb00-2b9b-4665-8ad5-1aeb61554a5a"},"vehicle_type_id":"4","last_reported":1742840037,"current_range_meters":14400,"station_id":"ce4bh0h2rcd13ifvqd50","pricing_plan_id":"cebpf4jnsgd1na2vs0mg"},{"bike_id":"134a205d-46ae-4dee-8c1a-5e151dd78ec4","system_id":"levelo_inurba_marseille","lat":43.33024,"lon":5.39035,"is_reserved":false,"is_disabled":false,"rental_uris":{"android":"levelo://app?vid=134a205d-46ae-4dee-8c1a-5e151dd78ec4","ios":"levelo://app?vid=134a205d-46ae-4dee-8c1a-5e151dd78ec4"},"vehicle_type_id":"4","last_reported":1742840037,"current_range_meters":14400,"station_id":"ce4bhr92rcd13ifvqhrg","pricing_plan_id":"cebpf4jnsgd1na2vs0mg"},{"bike_id":"cb1acdd8-2fdc-44c0-865b-532ef2ce4bda","system_id":"levelo_inurba_marseille","lat":43.27952,"lon":5.41019,"is_reserved":false,"is_disabled":false,"rental_uris":{"android":"levelo://app?vid=cb1acdd8-2fdc-44c0-865b-532ef2ce4bda","ios":"levelo://app?vid=cb1acdd8-2fdc-44c0-865b-532ef2ce4bda"},"vehicle_type_id":"4","last_reported":1742840037,"current_range_meters":14400,"station_id":"ce4bhnp2rcd13ifvqh0g","pricing_plan_id":"cebpf4jnsgd1na2vs0mg"},{"bike_id":"158ab04a-6f5b-4d50-a317-e4b8dce31435","system_id":"levelo_inurba_marseille","lat":43.27819,"lon":5.4072,"is_reserved":false,"is_disabled":false,"rental_uris":{"android":"levelo://app?vid=158ab04a-6f5b-4d50-a317-e4b8dce31435","ios":"levelo://app?vid=158ab04a-6f5b-4d50-a317-e4b8dce31435"},"vehicle_type_id":"4","last_reported":1742840037,"current_range_meters":14400,"station_id":"ce4bhnh2rcd13ifvqgtg","pricing_plan_id":"cebpf4jnsgd1na2vs0mg"},{"bike_id":"b82c062b-ed6f-4114-8bdf-6d996a293c90","system_id":"levelo_inurba_marseille","lat":43.32148,"lon":5.36789,"is_reserved":false,"is_disabled":false,"rental_uris":{"android":"levelo://app?vid=b82c062b-ed6f-4114-8bdf-6d996a293c90","ios":"levelo://app?vid=b82c062b-ed6f-4114-8bdf-6d996a293c90"},"vehicle_type_id":"4","last_reported":1742840037,"current_range_meters":14400,"station_id":"ce4bhrh2rcd13ifvqhug","pricing_plan_id":"cebpf4jnsgd1na2vs0mg"},{"bike_id":"b57d45ec-006a-43dd-8c78-98af2774a80b","system_id":"levelo_inurba_marseille","lat":43.298928,"lon":5.397503,"is_reserved":false,"is_disabled":false,"rental_uris":{"android":"levelo://app?vid=b57d45ec-006a-43dd-8c78-98af2774a80b","ios":"levelo://app?vid=b57d45ec-006a-43dd-8c78-98af2774a80b"},"vehicle_type_id":"4","last_reported":1742840037,"current_range_meters":14400,"station_id":"","pricing_plan_id":"cebpf4jnsgd1na2vs0mg"},{"bike_id":"b660fd94-23bb-46f0-a25a-cc610b33f5b8","system_id":"levelo_inurba_marseille","lat":43.28354,"lon":5.38105,"is_reserved":false,"is_disabled":false,"rental_uris":{"android":"levelo://app?vid=b660fd94-23bb-46f0-a25a-cc610b33f5b8","ios":"levelo://app?vid=b660fd94-23bb-46f0-a25a-cc610b33f5b8"},"vehicle_type_id":"4","last_reported":1742840037,"current_range_meters":14000,"station_id":"ce4bh412rcd13ifvqdr0","pricing_plan_id":"cebpf4jnsgd1na2vs0mg"},{"bike_id":"4057a6be-e566-4b80-9cc1-2e46f9b46404","system_id":"levelo_inurba_marseille","lat":43.27555,"lon":5.3845,"is_reserved":false,"is_disabled":false,"rental_uris":{"android":"levelo://app?vid=4057a6be-e566-4b80-9cc1-2e46f9b46404","ios":"levelo://app?vid=4057a6be-e566-4b80-9cc1-2e46f9b46404"},"vehicle_type_id":"4","last_reported":1742840037,"current_range_meters":14400,"station_id":"ce4bhh92rcd13ifvqfi0","pricing_plan_id":"cebpf4jnsgd1na2vs0mg"},{"bike_id":"89e75ed9-7f20-48f7-ad37-e0033e47c633","system_id":"levelo_inurba_marseille","lat":43.24645,"lon":5.38883,"is_reserved":false,"is_disabled":false,"rental_uris":{"android":"levelo://app?vid=89e75ed9-7f20-48f7-ad37-e0033e47c633","ios":"levelo://app?vid=89e75ed9-7f20-48f7-ad37-e0033e47c633"},"vehicle_type_id":"4","last_reported":1742840037,"current_range_meters":14400,"station_id":"ce4bhg12rcd13ifvqf60","pricing_plan_id":"cebpf4jnsgd1na2vs0mg"},{"bike_id":"cc044282-5912-4e6f-82e6-e39583370e0d","system_id":"levelo_inurba_marseille","lat":43.26795,"lon":5.39409,"is_reserved":false,"is_disabled":false,"rental_uris":{"android":"levelo://app?vid=cc044282-5912-4e6f-82e6-e39583370e0d","ios":"levelo://app?vid=cc044282-5912-4e6f-82e6-e39583370e0d"},"vehicle_type_id":"4","last_reported":1742840037,"current_range_meters":14800,"station_id":"ce4bhh12rcd13ifvqfg0","pricing_plan_id":"cebpf4jnsgd1na2vs0mg"},{"bike_id":"1b2054d0-96c6-4335-8f94-0ebcd6f3446b","system_id":"levelo_inurba_marseille","lat":43.27617,"lon":5.36127,"is_reserved":false,"is_disabled":false,"rental_uris":{"android":"levelo://app?vid=1b2054d0-96c6-4335-8f94-0ebcd6f3446b","ios":"levelo://app?vid=1b2054d0-96c6-4335-8f94-0ebcd6f3446b"},"vehicle_type_id":"4","last_reported":1742840037,"current_range_meters":14800,"station_id":"ce4bgj92rcd13ifvqbe0","pricing_plan_id":"cebpf4jnsgd1na2vs0mg"},{"bike_id":"4a2d27cc-4700-4c00-923b-7bccb7c46c8d","system_id":"levelo_inurba_marseille","lat":43.30641,"lon":5.40069,"is_reserved":false,"is_disabled":false,"rental_uris":{"android":"levelo://app?vid=4a2d27cc-4700-4c00-923b-7bccb7c46c8d","ios":"levelo://app?vid=4a2d27cc-4700-4c00-923b-7bccb7c46c8d"},"vehicle_type_id":"4","last_reported":1742840037,"current_range_meters":14800,"station_id":"ce4bh112rcd13ifvqda0","pricing_plan_id":"cebpf4jnsgd1na2vs0mg"},{"bike_id":"3378cd06-7fe1-4c7b-a04d-3fa16fc4a8b1","system_id":"levelo_inurba_marseille","lat":43.30105,"lon":5.39077,"is_reserved":false,"is_disabled":false,"rental_uris":{"android":"levelo://app?vid=3378cd06-7fe1-4c7b-a04d-3fa16fc4a8b1","ios":"levelo://app?vid=3378cd06-7fe1-4c7b-a04d-3fa16fc4a8b1"},"vehicle_type_id":"4","last_reported":1742840037,"current_range_meters":14800,"station_id":"ce4bh192rcd13ifvqdb0","pricing_plan_id":"cebpf4jnsgd1na2vs0mg"},{"bike_id":"d7c9b119-99cc-4acd-80c4-6ecaf67a26b1","system_id":"levelo_inurba_marseille","lat":43.23067,"lon":5.35498,"is_reserved":false,"is_disabled":false,"rental_uris":{"android":"levelo://app?vid=d7c9b119-99cc-4acd-80c4-6ecaf67a26b1","ios":"levelo://app?vid=d7c9b119-99cc-4acd-80c4-6ecaf67a26b1"},"vehicle_type_id":"4","last_reported":1742840037,"current_range_meters":14800,"station_id":"cpo3342slgdg3j2ifvpg","pricing_plan_id":"cebpf4jnsgd1na2vs0mg"},{"bike_id":"75433386-527c-4886-a740-aad143890352","system_id":"levelo_inurba_marseille","lat":43.27807,"lon":5.40715,"is_reserved":false,"is_disabled":false,"rental_uris":{"android":"levelo://app?vid=75433386-527c-4886-a740-aad143890352","ios":"levelo://app?vid=75433386-527c-4886-a740-aad143890352"},"vehicle_type_id":"4","last_reported":1742840037,"current_range_meters":14800,"station_id":"ce4bhnh2rcd13ifvqgtg","pricing_plan_id":"cebpf4jnsgd1na2vs0mg"},{"bike_id":"f7b5164a-79ba-498e-a337-5cbfd042e7ee","system_id":"levelo_inurba_marseille","lat":43.24074,"lon":5.37762,"is_reserved":false,"is_disabled":false,"rental_uris":{"android":"levelo://app?vid=f7b5164a-79ba-498e-a337-5cbfd042e7ee","ios":"levelo://app?vid=f7b5164a-79ba-498e-a337-5cbfd042e7ee"},"vehicle_type_id":"4","last_reported":1742840037,"current_range_meters":14800,"station_id":"ce4bhnp2rcd13ifvqgvg","pricing_plan_id":"cebpf4jnsgd1na2vs0mg"},{"bike_id":"c2c62d26-10e3-45f8-9c39-f066fba002c4","system_id":"levelo_inurba_marseille","lat":43.29972,"lon":5.38499,"is_reserved":false,"is_disabled":false,"rental_uris":{"android":"levelo://app?vid=c2c62d26-10e3-45f8-9c39-f066fba002c4","ios":"levelo://app?vid=c2c62d26-10e3-45f8-9c39-f066fba002c4"},"vehicle_type_id":"4","last_reported":1742840037,"current_range_meters":14800,"station_id":"ce4bgj92rcd13ifvqbd0","pricing_plan_id":"cebpf4jnsgd1na2vs0mg"},{"bike_id":"2f95d84a-f03d-40d7-98e6-71c071e2bbde","system_id":"levelo_inurba_marseille","lat":43.28088,"lon":5.39646,"is_reserved":false,"is_disabled":false,"rental_uris":{"android":"levelo://app?vid=2f95d84a-f03d-40d7-98e6-71c071e2bbde","ios":"levelo://app?vid=2f95d84a-f03d-40d7-98e6-71c071e2bbde"},"vehicle_type_id":"4","last_reported":1742840037,"current_range_meters":15200,"station_id":"ce4bho12rcd13ifvqh2g","pricing_plan_id":"cebpf4jnsgd1na2vs0mg"},{"bike_id":"7348a5df-167d-4aba-bb51-53a566c25d9b","system_id":"levelo_inurba_marseille","lat":43.29375,"lon":5.3784,"is_reserved":false,"is_disabled":false,"rental_uris":{"android":"levelo://app?vid=7348a5df-167d-4aba-bb51-53a566c25d9b","ios":"levelo://app?vid=7348a5df-167d-4aba-bb51-53a566c25d9b"},"vehicle_type_id":"4","last_reported":1742840037,"current_range_meters":15200,"station_id":"ce4bgjh2rcd13ifvqbf0","pricing_plan_id":"cebpf4jnsgd1na2vs0mg"},{"bike_id":"74406c35-ee35-437d-be26-2d7711378046","system_id":"levelo_inurba_marseille","lat":43.32358,"lon":5.36759,"is_reserved":false,"is_disabled":false,"rental_uris":{"android":"levelo://app?vid=74406c35-ee35-437d-be26-2d7711378046","ios":"levelo://app?vid=74406c35-ee35-437d-be26-2d7711378046"},"vehicle_type_id":"4","last_reported":1742840037,"current_range_meters":15200,"station_id":"ce4bhsh2rcd13ifvqi2g","pricing_plan_id":"cebpf4jnsgd1na2vs0mg"},{"bike_id":"0ccd79b2-51ea-4b93-86a9-89925d01380f","system_id":"levelo_inurba_marseille","lat":43.23955,"lon":5.36636,"is_reserved":false,"is_disabled":false,"rental_uris":{"android":"levelo://app?vid=0ccd79b2-51ea-4b93-86a9-89925d01380f","ios":"levelo://app?vid=0ccd79b2-51ea-4b93-86a9-89925d01380f"},"vehicle_type_id":"4","last_reported":1742840037,"current_range_meters":15200,"station_id":"ce4bhi12rcd13ifvqfp0","pricing_plan_id":"cebpf4jnsgd1na2vs0mg"},{"bike_id":"9d901bcb-7adf-402a-b67f-43b2cf34de78","system_id":"levelo_inurba_marseille","lat":43.28726,"lon":5.36127,"is_reserved":false,"is_disabled":false,"rental_uris":{"android":"levelo://app?vid=9d901bcb-7adf-402a-b67f-43b2cf34de78","ios":"levelo://app?vid=9d901bcb-7adf-402a-b67f-43b2cf34de78"},"vehicle_type_id":"4","last_reported":1742840037,"current_range_meters":15200,"station_id":"cki0cbj6b192h4jlfktg","pricing_plan_id":"cebpf4jnsgd1na2vs0mg"},{"bike_id":"0ac92826-79fa-4891-992f-76f6676093a9","system_id":"levelo_inurba_marseille","lat":43.28015,"lon":5.41619,"is_reserved":false,"is_disabled":false,"rental_uris":{"android":"levelo://app?vid=0ac92826-79fa-4891-992f-76f6676093a9","ios":"levelo://app?vid=0ac92826-79fa-4891-992f-76f6676093a9"},"vehicle_type_id":"4","last_reported":1742840037,"current_range_meters":15200,"station_id":"ce4bho12rcd13ifvqh1g","pricing_plan_id":"cebpf4jnsgd1na2vs0mg"},{"bike_id":"31853493-08cd-48ca-8af6-a1f588cefafe","system_id":"levelo_inurba_marseille","lat":43.25827,"lon":5.39449,"is_reserved":false,"is_disabled":false,"rental_uris":{"android":"levelo://app?vid=31853493-08cd-48ca-8af6-a1f588cefafe","ios":"levelo://app?vid=31853493-08cd-48ca-8af6-a1f588cefafe"},"vehicle_type_id":"4","last_reported":1742840037,"current_range_meters":15200,"station_id":"ce4bhip2rcd13ifvqft0","pricing_plan_id":"cebpf4jnsgd1na2vs0mg"},{"bike_id":"8583bcae-e817-4db7-ab92-448c595780ea","system_id":"levelo_inurba_marseille","lat":43.330329,"lon":5.39218,"is_reserved":false,"is_disabled":false,"rental_uris":{"android":"levelo://app?vid=8583bcae-e817-4db7-ab92-448c595780ea","ios":"levelo://app?vid=8583bcae-e817-4db7-ab92-448c595780ea"},"vehicle_type_id":"4","last_reported":1742840037,"current_range_meters":15200,"station_id":"","pricing_plan_id":"cebpf4jnsgd1na2vs0mg"},{"bike_id":"c5ab9c49-62eb-4006-912a-1a9bf3d5661e","system_id":"levelo_inurba_marseille","lat":43.28706,"lon":5.37381,"is_reserved":false,"is_disabled":false,"rental_uris":{"android":"levelo://app?vid=c5ab9c49-62eb-4006-912a-1a9bf3d5661e","ios":"levelo://app?vid=c5ab9c49-62eb-4006-912a-1a9bf3d5661e"},"vehicle_type_id":"4","last_reported":1742840037,"current_range_meters":15200,"station_id":"ce4bh3p2rcd13ifvqdq0","pricing_plan_id":"cebpf4jnsgd1na2vs0mg"},{"bike_id":"f63f6712-ef4c-4cb9-90a0-7395cb7dbd15","system_id":"levelo_inurba_marseille","lat":43.24173,"lon":5.364,"is_reserved":false,"is_disabled":false,"rental_uris":{"android":"levelo://app?vid=f63f6712-ef4c-4cb9-90a0-7395cb7dbd15","ios":"levelo://app?vid=f63f6712-ef4c-4cb9-90a0-7395cb7dbd15"},"vehicle_type_id":"4","last_reported":1742840037,"current_range_meters":15200,"station_id":"cpo36qri1sfpv3e86is0","pricing_plan_id":"cebpf4jnsgd1na2vs0mg"},{"bike_id":"11638dcf-c183-4940-bebb-985f736789bf","system_id":"levelo_inurba_marseille","lat":43.27663,"lon":5.38906,"is_reserved":false,"is_disabled":true,"rental_uris":{"android":"levelo://app?vid=11638dcf-c183-4940-bebb-985f736789bf","ios":"levelo://app?vid=11638dcf-c183-4940-bebb-985f736789bf"},"vehicle_type_id":"4","last_reported":1742840037,"current_range_meters":16000,"station_id":"ce4bhi12rcd13ifvqfo0","pricing_plan_id":"cebpf4jnsgd1na2vs0mg"},{"bike_id":"e1e35c11-11be-4d6b-9a98-3de91e1bd819","system_id":"levelo_inurba_marseille","lat":43.32477,"lon":5.36599,"is_reserved":false,"is_disabled":false,"rental_uris":{"android":"levelo://app?vid=e1e35c11-11be-4d6b-9a98-3de91e1bd819","ios":"levelo://app?vid=e1e35c11-11be-4d6b-9a98-3de91e1bd819"},"vehicle_type_id":"4","last_reported":1742840037,"current_range_meters":16000,"station_id":"ce4bhs12rcd13ifvqhvg","pricing_plan_id":"cebpf4jnsgd1na2vs0mg"},{"bike_id":"aec28b31-c20a-4ff3-a964-a4e5ed4c60e5","system_id":"levelo_inurba_marseille","lat":43.30533,"lon":5.36548,"is_reserved":false,"is_disabled":false,"rental_uris":{"android":"levelo://app?vid=aec28b31-c20a-4ff3-a964-a4e5ed4c60e5","ios":"levelo://app?vid=aec28b31-c20a-4ff3-a964-a4e5ed4c60e5"},"vehicle_type_id":"4","last_reported":1742840037,"current_range_meters":16000,"station_id":"","pricing_plan_id":"cebpf4jnsgd1na2vs0mg"},{"bike_id":"18a7fec5-cd4f-470b-b4aa-49a452d96c3f","system_id":"levelo_inurba_marseille","lat":43.30587,"lon":5.39373,"is_reserved":false,"is_disabled":true,"rental_uris":{"android":"levelo://app?vid=18a7fec5-cd4f-470b-b4aa-49a452d96c3f","ios":"levelo://app?vid=18a7fec5-cd4f-470b-b4aa-49a452d96c3f"},"vehicle_type_id":"4","last_reported":1742840037,"current_range_meters":16000,"station_id":"ce4bh0p2rcd13ifvqd80","pricing_plan_id":"cebpf4jnsgd1na2vs0mg"},{"bike_id":"dea1f70c-3a59-4563-bb09-a9d3b04a8744","system_id":"levelo_inurba_marseille","lat":43.25835,"lon":5.38932,"is_reserved":false,"is_disabled":false,"rental_uris":{"android":"levelo://app?vid=dea1f70c-3a59-4563-bb09-a9d3b04a8744","ios":"levelo://app?vid=dea1f70c-3a59-4563-bb09-a9d3b04a8744"},"vehicle_type_id":"4","last_reported":1742840037,"current_range_meters":16000,"station_id":"","pricing_plan_id":"cebpf4jnsgd1na2vs0mg"},{"bike_id":"bf360ed1-b9e1-41d4-8511-c274e90912a8","system_id":"levelo_inurba_marseille","lat":43.28272,"lon":5.35077,"is_reserved":false,"is_disabled":false,"rental_uris":{"android":"levelo://app?vid=bf360ed1-b9e1-41d4-8511-c274e90912a8","ios":"levelo://app?vid=bf360ed1-b9e1-41d4-8511-c274e90912a8"},"vehicle_type_id":"4","last_reported":1742840037,"current_range_meters":16000,"station_id":"ce4bhbp2rcd13ifvqerg","pricing_plan_id":"cebpf4jnsgd1na2vs0mg"},{"bike_id":"facc09a9-1f95-4f48-9754-0c99999f3fc1","system_id":"levelo_inurba_marseille","lat":43.26574,"lon":5.39011,"is_reserved":false,"is_disabled":false,"rental_uris":{"android":"levelo://app?vid=facc09a9-1f95-4f48-9754-0c99999f3fc1","ios":"levelo://app?vid=facc09a9-1f95-4f48-9754-0c99999f3fc1"},"vehicle_type_id":"4","last_reported":1742840037,"current_range_meters":16000,"station_id":"ce4bhe12rcd13ifvqf30","pricing_plan_id":"cebpf4jnsgd1na2vs0mg"},{"bike_id":"844d3370-21e5-4de2-9d45-2b091e1157d6","system_id":"levelo_inurba_marseille","lat":43.239656,"lon":5.366385,"is_reserved":false,"is_disabled":false,"rental_uris":{"android":"levelo://app?vid=844d3370-21e5-4de2-9d45-2b091e1157d6","ios":"levelo://app?vid=844d3370-21e5-4de2-9d45-2b091e1157d6"},"vehicle_type_id":"4","last_reported":1742840037,"current_range_meters":16000,"station_id":"ce4bhi12rcd13ifvqfp0","pricing_plan_id":"cebpf4jnsgd1na2vs0mg"},{"bike_id":"de8ed37f-1fd3-4667-9518-65e212de4a17","system_id":"levelo_inurba_marseille","lat":43.3124,"lon":5.36865,"is_reserved":false,"is_disabled":false,"rental_uris":{"android":"levelo://app?vid=de8ed37f-1fd3-4667-9518-65e212de4a17","ios":"levelo://app?vid=de8ed37f-1fd3-4667-9518-65e212de4a17"},"vehicle_type_id":"4","last_reported":1742840037,"current_range_meters":16000,"station_id":"ce4bgl92rcd13ifvqbq0","pricing_plan_id":"cebpf4jnsgd1na2vs0mg"},{"bike_id":"93949e32-0ff0-487a-86d4-d1650d8e5134","system_id":"levelo_inurba_marseille","lat":43.3056,"lon":5.36534,"is_reserved":false,"is_disabled":false,"rental_uris":{"android":"levelo://app?vid=93949e32-0ff0-487a-86d4-d1650d8e5134","ios":"levelo://app?vid=93949e32-0ff0-487a-86d4-d1650d8e5134"},"vehicle_type_id":"4","last_reported":1742840037,"current_range_meters":16000,"station_id":"ce4bgs12rcd13ifvqcag","pricing_plan_id":"cebpf4jnsgd1na2vs0mg"},{"bike_id":"ac9e6ecd-3eec-4bba-83c8-26223ac4b83d","system_id":"levelo_inurba_marseille","lat":43.28432,"lon":5.39192,"is_reserved":false,"is_disabled":false,"rental_uris":{"android":"levelo://app?vid=ac9e6ecd-3eec-4bba-83c8-26223ac4b83d","ios":"levelo://app?vid=ac9e6ecd-3eec-4bba-83c8-26223ac4b83d"},"vehicle_type_id":"4","last_reported":1742840037,"current_range_meters":16000,"station_id":"ce4bhoh2rcd13ifvqh5g","pricing_plan_id":"cebpf4jnsgd1na2vs0mg"},{"bike_id":"5cb078f8-4719-4e92-b4cf-fa9c529ba0ca","system_id":"levelo_inurba_marseille","lat":43.28713,"lon":5.39975,"is_reserved":false,"is_disabled":false,"rental_uris":{"android":"levelo://app?vid=5cb078f8-4719-4e92-b4cf-fa9c529ba0ca","ios":"levelo://app?vid=5cb078f8-4719-4e92-b4cf-fa9c529ba0ca"},"vehicle_type_id":"4","last_reported":1742840037,"current_range_meters":16000,"station_id":"ce4bho92rcd13ifvqh3g","pricing_plan_id":"cebpf4jnsgd1na2vs0mg"},{"bike_id":"183da567-1d09-42b1-b83f-f4b17ede99ba","system_id":"levelo_inurba_marseille","lat":43.30329,"lon":5.40431,"is_reserved":false,"is_disabled":false,"rental_uris":{"android":"levelo://app?vid=183da567-1d09-42b1-b83f-f4b17ede99ba","ios":"levelo://app?vid=183da567-1d09-42b1-b83f-f4b17ede99ba"},"vehicle_type_id":"4","last_reported":1742840037,"current_range_meters":16000,"station_id":"ce4bh012rcd13ifvqd10","pricing_plan_id":"cebpf4jnsgd1na2vs0mg"},{"bike_id":"104c90a7-a99a-40c5-9c04-3ddbae10dfa4","system_id":"levelo_inurba_marseille","lat":43.29198,"lon":5.39323,"is_reserved":false,"is_disabled":false,"rental_uris":{"android":"levelo://app?vid=104c90a7-a99a-40c5-9c04-3ddbae10dfa4","ios":"levelo://app?vid=104c90a7-a99a-40c5-9c04-3ddbae10dfa4"},"vehicle_type_id":"4","last_reported":1742840037,"current_range_meters":16000,"station_id":"ce4bh192rcd13ifvqdd0","pricing_plan_id":"cebpf4jnsgd1na2vs0mg"},{"bike_id":"0d89eca0-5671-404f-88cc-d263b1555cb5","system_id":"levelo_inurba_marseille","lat":43.2573,"lon":5.41108,"is_reserved":false,"is_disabled":false,"rental_uris":{"android":"levelo://app?vid=0d89eca0-5671-404f-88cc-d263b1555cb5","ios":"levelo://app?vid=0d89eca0-5671-404f-88cc-d263b1555cb5"},"vehicle_type_id":"4","last_reported":1742840037,"current_range_meters":16000,"station_id":"","pricing_plan_id":"cebpf4jnsgd1na2vs0mg"},{"bike_id":"5c4684ba-d2e3-4bf2-a4c7-e03c5888ccf4","system_id":"levelo_inurba_marseille","lat":43.29035,"lon":5.38634,"is_reserved":false,"is_disabled":false,"rental_uris":{"android":"levelo://app?vid=5c4684ba-d2e3-4bf2-a4c7-e03c5888ccf4","ios":"levelo://app?vid=5c4684ba-d2e3-4bf2-a4c7-e03c5888ccf4"},"vehicle_type_id":"4","last_reported":1742840037,"current_range_meters":16000,"station_id":"ce4bh4p2rcd13ifvqe0g","pricing_plan_id":"cebpf4jnsgd1na2vs0mg"},{"bike_id":"75cb588b-e126-4498-9bca-67a0b81a9063","system_id":"levelo_inurba_marseille","lat":43.31241,"lon":5.36871,"is_reserved":false,"is_disabled":false,"rental_uris":{"android":"levelo://app?vid=75cb588b-e126-4498-9bca-67a0b81a9063","ios":"levelo://app?vid=75cb588b-e126-4498-9bca-67a0b81a9063"},"vehicle_type_id":"4","last_reported":1742840037,"current_range_meters":16400,"station_id":"ce4bgl92rcd13ifvqbq0","pricing_plan_id":"cebpf4jnsgd1na2vs0mg"},{"bike_id":"319fbde0-f02d-47c8-9ea3-00bb37a99bb2","system_id":"levelo_inurba_marseille","lat":43.24544,"lon":5.39509,"is_reserved":false,"is_disabled":false,"rental_uris":{"android":"levelo://app?vid=319fbde0-f02d-47c8-9ea3-00bb37a99bb2","ios":"levelo://app?vid=319fbde0-f02d-47c8-9ea3-00bb37a99bb2"},"vehicle_type_id":"4","last_reported":1742840037,"current_range_meters":16400,"station_id":"ce4bhlp2rcd13ifvqgjg","pricing_plan_id":"cebpf4jnsgd1na2vs0mg"},{"bike_id":"481bb1ff-e869-4e0c-bff6-d144a56689b8","system_id":"levelo_inurba_marseille","lat":43.31362,"lon":5.38501,"is_reserved":false,"is_disabled":false,"rental_uris":{"android":"levelo://app?vid=481bb1ff-e869-4e0c-bff6-d144a56689b8","ios":"levelo://app?vid=481bb1ff-e869-4e0c-bff6-d144a56689b8"},"vehicle_type_id":"4","last_reported":1742840037,"current_range_meters":16400,"station_id":"ce4bgt92rcd13ifvqcf0","pricing_plan_id":"cebpf4jnsgd1na2vs0mg"},{"bike_id":"04357187-31a2-4621-9b88-fc476381d72a","system_id":"levelo_inurba_marseille","lat":43.25823,"lon":5.39428,"is_reserved":false,"is_disabled":false,"rental_uris":{"android":"levelo://app?vid=04357187-31a2-4621-9b88-fc476381d72a","ios":"levelo://app?vid=04357187-31a2-4621-9b88-fc476381d72a"},"vehicle_type_id":"4","last_reported":1742840037,"current_range_meters":16400,"station_id":"ce4bhip2rcd13ifvqft0","pricing_plan_id":"cebpf4jnsgd1na2vs0mg"},{"bike_id":"b599ec8c-9116-4cb3-980c-d0a7d1e83114","system_id":"levelo_inurba_marseille","lat":43.32455,"lon":5.36545,"is_reserved":false,"is_disabled":false,"rental_uris":{"android":"levelo://app?vid=b599ec8c-9116-4cb3-980c-d0a7d1e83114","ios":"levelo://app?vid=b599ec8c-9116-4cb3-980c-d0a7d1e83114"},"vehicle_type_id":"4","last_reported":1742840037,"current_range_meters":16400,"station_id":"ce4bhs12rcd13ifvqhvg","pricing_plan_id":"cebpf4jnsgd1na2vs0mg"},{"bike_id":"16d1a1e8-6833-46ef-8ac2-dd05daf383fb","system_id":"levelo_inurba_marseille","lat":43.27137,"lon":5.41689,"is_reserved":false,"is_disabled":false,"rental_uris":{"android":"levelo://app?vid=16d1a1e8-6833-46ef-8ac2-dd05daf383fb","ios":"levelo://app?vid=16d1a1e8-6833-46ef-8ac2-dd05daf383fb"},