{"last_updated":1752898937,"ttl":60,"version":"2.2","data":{"bikes":[{"bike_id":"53b742a7-31ae-4272-9bba-7740339e2a2f","system_id":"levelo_inurba_marseille","lat":43.33747,"lon":5.37463,"is_reserved":false,"is_disabled":false,"rental_uris":{"android":"levelo://app?vid=53b742a7-31ae-4272-9bba-7740339e2a2f","ios":"levelo://app?vid=53b742a7-31ae-4272-9bba-7740339e2a2f"},"vehicle_type_id":"1","last_reported":1752898937,"current_range_meters":16800,"station_id":"","pricing_plan_id":"cebpf4jnsgd1na2vs0mg"},{"bike_id":"cf161601-953e-48d6-b1b0-6c14bf6d4c60","system_id":"levelo_inurba_marseille","lat":43.28156,"lon":5.3862,"is_reserved":false,"is_disabled":false,"rental_uris":{"android":"levelo://app?vid=cf161601-953e-48d6-b1b0-6c14bf6d4c60","ios":"levelo://app?vid=cf161601-953e-48d6-b1b0-6c14bf6d4c60"},"vehicle_type_id":"4","last_reported":1752898937,"current_range_meters":2800,"station_id":"","pricing_plan_id":"cebpf4jnsgd1na2vs0mg"},{"bike_id":"20e1cc30-ccbe-478e-bcb7-dc20e13576d1","system_id":"levelo_inurba_marseille","lat":43.28429,"lon":5.34985,"is_reserved":false,"is_disabled":true,"rental_uris":{"android":"levelo://app?vid=20e1cc30-ccbe-478e-bcb7-dc20e13576d1","ios":"levelo://app?vid=20e1cc30-ccbe-478e-bcb7-dc20e13576d1"},"vehicle_type_id":"4","last_reported":1752898937,"current_range_meters":3200,"station_id":"ce4bhbh2rcd13ifvqepg","pricing_plan_id":"cebpf4jnsgd1na2vs0mg"},{"bike_id":"c02db753-75b6-4162-849b-6e4fadb2edc1","system_id":"levelo_inurba_marseille","lat":43.24061,"lon":5.37745,"is_reserved":false,"is_disabled":false,"rental_uris":{"android":"levelo://app?vid=c02db753-75b6-4162-849b-6e4fadb2edc1","ios":"levelo://app?vid=c02db753-75b6-4162-849b-6e4fadb2edc1"},"vehicle_type_id":"4","last_reported":1752898937,"current_range_meters":4000,"station_id":"ce4bhnp2rcd13ifvqgvg","pricing_plan_id":"cebpf4jnsgd1na2vs0mg"},{"bike_id":"b7f99f04-6000-45a5-a245-cf98124bdfde","system_id":"levelo_inurba_marseille","lat":43.303727,"lon":5.424841,"is_reserved":false,"is_disabled":false,"rental_uris":{"android":"levelo://app?vid=b7f99f04-6000-45a5-a245-cf98124bdfde","ios":"levelo://app?vid=b7f99f04-6000-45a5-a245-cf98124bdfde"},"vehicle_type_id":"4","last_reported":1752898937,"current_range_meters":4000,"station_id":"ce4bhoh2rcd13ifvqh6g","pricing_plan_id":"cebpf4jnsgd1na2vs0mg"},{"bike_id":"e95b1477-33a1-48a7-a021-3878a6895222","system_id":"levelo_inurba_marseille","lat":43.21762,"lon":5.3457,"is_reserved":false,"is_disabled":false,"rental_uris":{"android":"levelo://app?vid=e95b1477-33a1-48a7-a021-3878a6895222","ios":"levelo://app?vid=e95b1477-33a1-48a7-a021-3878a6895222"},"vehicle_type_id":"4","last_reported":1752898937,"current_range_meters":4000,"station_id":"st_cvj6r9ubvosntc0bgbag","pricing_plan_id":"cebpf4jnsgd1na2vs0mg"},{"bike_id":"901c303b-9f6d-428e-98ab-cd6302a6371d","system_id":"levelo_inurba_marseille","lat":43.27495,"lon":5.42449,"is_reserved":false,"is_disabled":false,"rental_uris":{"android":"levelo://app?vid=901c303b-9f6d-428e-98ab-cd6302a6371d","ios":"levelo://app?vid=901c303b-9f6d-428e-98ab-cd6302a6371d"},"vehicle_type_id":"4","last_reported":1752898937,"current_range_meters":4000,"station_id":"ce4bhn92rcd13ifvqgrg","pricing_plan_id":"cebpf4jnsgd1na2vs0mg"},{"bike_id":"75a21491-57a5-4198-a34e-94a9e7346b3b","system_id":"levelo_inurba_marseille","lat":43.297131,"lon":5.365956,"is_reserved":false,"is_disabled":true,"rental_uris":{"android":"levelo://app?vid=75a21491-57a5-4198-a34e-94a9e7346b3b","ios":"levelo://app?vid=75a21491-57a5-4198-a34e-94a9e7346b3b"},"vehicle_type_id":"4","last_reported":1752898937,"current_range_meters":4400,"station_id":"ce4bgn12rcd13ifvqbt0","pricing_plan_id":"cebpf4jnsgd1na2vs0mg"},{"bike_id":"0552ea12-01c1-4fc3-9631-ab4df8c50dde","system_id":"levelo_inurba_marseille","lat":43.22506,"lon":5.34783,"is_reserved":false,"is_disabled":false,"rental_uris":{"android":"levelo://app?vid=0552ea12-01c1-4fc3-9631-ab4df8c50dde","ios":"levelo://app?vid=0552ea12-01c1-4fc3-9631-ab4df8c50dde"},"vehicle_type_id":"4","last_reported":1752898937,"current_range_meters":4400,"station_id":"st_cvj5dfep6f1abm77gieg","pricing_plan_id":"cebpf4jnsgd1na2vs0mg"},{"bike_id":"fcb43646-13dd-4cea-b3e4-460cae3cbed7","system_id":"levelo_inurba_marseille","lat":43.22512,"lon":5.34789,"is_reserved":false,"is_disabled":false,"rental_uris":{"android":"levelo://app?vid=fcb43646-13dd-4cea-b3e4-460cae3cbed7","ios":"levelo://app?vid=fcb43646-13dd-4cea-b3e4-460cae3cbed7"},"vehicle_type_id":"4","last_reported":1752898937,"current_range_meters":4800,"station_id":"st_cvj5dfep6f1abm77gieg","pricing_plan_id":"cebpf4jnsgd1na2vs0mg"},{"bike_id":"9c8adec5-3e78-4a7c-a3fc-09311a934347","system_id":"levelo_inurba_marseille","lat":43.28494,"lon":5.385856,"is_reserved":false,"is_disabled":false,"rental_uris":{"android":"levelo://app?vid=9c8adec5-3e78-4a7c-a3fc-09311a934347","ios":"levelo://app?vid=9c8adec5-3e78-4a7c-a3fc-09311a934347"},"vehicle_type_id":"4","last_reported":1752898937,"current_range_meters":4800,"station_id":"ce4bh8p2rcd13ifvqeb0","pricing_plan_id":"cebpf4jnsgd1na2vs0mg"},{"bike_id":"37437322-8c8c-42de-b8fa-18f1317c54a8","system_id":"levelo_inurba_marseille","lat":43.2329,"lon":5.36793,"is_reserved":false,"is_disabled":false,"rental_uris":{"android":"levelo://app?vid=37437322-8c8c-42de-b8fa-18f1317c54a8","ios":"levelo://app?vid=37437322-8c8c-42de-b8fa-18f1317c54a8"},"vehicle_type_id":"4","last_reported":1752898937,"current_range_meters":4800,"station_id":"","pricing_plan_id":"cebpf4jnsgd1na2vs0mg"},{"bike_id":"04d15a50-cb94-495c-969c-c09473f1fcda","system_id":"levelo_inurba_marseille","lat":43.296196,"lon":5.377039,"is_reserved":false,"is_disabled":true,"rental_uris":{"android":"levelo://app?vid=04d15a50-cb94-495c-969c-c09473f1fcda","ios":"levelo://app?vid=04d15a50-cb94-495c-969c-c09473f1fcda"},"vehicle_type_id":"4","last_reported":1752898937,"current_range_meters":5600,"station_id":"","pricing_plan_id":"cebpf4jnsgd1na2vs0mg"},{"bike_id":"3444bdc6-514a-4ba6-9650-f9073305e33d","system_id":"levelo_inurba_marseille","lat":43.29682,"lon":5.3698,"is_reserved":false,"is_disabled":false,"rental_uris":{"android":"levelo://app?vid=3444bdc6-514a-4ba6-9650-f9073305e33d","ios":"levelo://app?vid=3444bdc6-514a-4ba6-9650-f9073305e33d"},"vehicle_type_id":"4","last_reported":1752898937,"current_range_meters":6000,"station_id":"","pricing_plan_id":"cebpf4jnsgd1na2vs0mg"},{"bike_id":"2786f0da-3923-4b84-a366-56fa35372059","system_id":"levelo_inurba_marseille","lat":43.302529,"lon":5.400673,"is_reserved":false,"is_disabled":false,"rental_uris":{"android":"levelo://app?vid=2786f0da-3923-4b84-a366-56fa35372059","ios":"levelo://app?vid=2786f0da-3923-4b84-a366-56fa35372059"},"vehicle_type_id":"4","last_reported":1752898937,"current_range_meters":6000,"station_id":"ce4bgvh2rcd13ifvqcs0","pricing_plan_id":"cebpf4jnsgd1na2vs0mg"},{"bike_id":"555bc53e-5286-4fb6-9154-af42b3fd9792","system_id":"levelo_inurba_marseille","lat":43.3009,"lon":5.37266,"is_reserved":false,"is_disabled":false,"rental_uris":{"android":"levelo://app?vid=555bc53e-5286-4fb6-9154-af42b3fd9792","ios":"levelo://app?vid=555bc53e-5286-4fb6-9154-af42b3fd9792"},"vehicle_type_id":"4","last_reported":1752898937,"current_range_meters":6000,"station_id":"","pricing_plan_id":"cebpf4jnsgd1na2vs0mg"},{"bike_id":"28d27c17-e6ca-4cec-aec9-f1f6696b8a12","system_id":"levelo_inurba_marseille","lat":43.29901,"lon":5.43655,"is_reserved":false,"is_disabled":true,"rental_uris":{"android":"levelo://app?vid=28d27c17-e6ca-4cec-aec9-f1f6696b8a12","ios":"levelo://app?vid=28d27c17-e6ca-4cec-aec9-f1f6696b8a12"},"vehicle_type_id":"4","last_reported":1752898937,"current_range_meters":6000,"station_id":"ce4bhpp2rcd13ifvqhfg","pricing_plan_id":"cebpf4jnsgd1na2vs0mg"},{"bike_id":"da203d9f-febe-409c-bfb6-53c8e79e9c54","system_id":"levelo_inurba_marseille","lat":43.2919,"lon":5.39315,"is_reserved":false,"is_disabled":false,"rental_uris":{"android":"levelo://app?vid=da203d9f-febe-409c-bfb6-53c8e79e9c54","ios":"levelo://app?vid=da203d9f-febe-409c-bfb6-53c8e79e9c54"},"vehicle_type_id":"4","last_reported":1752898937,"current_range_meters":6400,"station_id":"ce4bh192rcd13ifvqdd0","pricing_plan_id":"cebpf4jnsgd1na2vs0mg"},{"bike_id":"4298709f-d90a-45df-8a57-9ba59538e3fc","system_id":"levelo_inurba_marseille","lat":43.28146,"lon":5.4074,"is_reserved":false,"is_disabled":false,"rental_uris":{"android":"levelo://app?vid=4298709f-d90a-45df-8a57-9ba59538e3fc","ios":"levelo://app?vid=4298709f-d90a-45df-8a57-9ba59538e3fc"},"vehicle_type_id":"4","last_reported":1752898937,"current_range_meters":6400,"station_id":"","pricing_plan_id":"cebpf4jnsgd1na2vs0mg"},{"bike_id":"d1b1ae6f-562f-42f0-a958-cbc912a1619d","system_id":"levelo_inurba_marseille","lat":43.276116,"lon":5.361146,"is_reserved":false,"is_disabled":true,"rental_uris":{"android":"levelo://app?vid=d1b1ae6f-562f-42f0-a958-cbc912a1619d","ios":"levelo://app?vid=d1b1ae6f-562f-42f0-a958-cbc912a1619d"},"vehicle_type_id":"4","last_reported":1752898937,"current_range_meters":6400,"station_id":"ce4bgj92rcd13ifvqbe0","pricing_plan_id":"cebpf4jnsgd1na2vs0mg"},{"bike_id":"caf58642-45cf-498b-b251-d67b7f0b5667","system_id":"levelo_inurba_marseille","lat":43.287046,"lon":5.39983,"is_reserved":false,"is_disabled":false,"rental_uris":{"android":"levelo://app?vid=caf58642-45cf-498b-b251-d67b7f0b5667","ios":"levelo://app?vid=caf58642-45cf-498b-b251-d67b7f0b5667"},"vehicle_type_id":"4","last_reported":1752898937,"current_range_meters":6400,"station_id":"ce4bho92rcd13ifvqh3g","pricing_plan_id":"cebpf4jnsgd1na2vs0mg"},{"bike_id":"d80bcf2f-394b-44c4-860d-b4707a90fe8f","system_id":"levelo_inurba_marseille","lat":43.30145,"lon":5.39897,"is_reserved":false,"is_disabled":false,"rental_uris":{"android":"levelo://app?vid=d80bcf2f-394b-44c4-860d-b4707a90fe8f","ios":"levelo://app?vid=d80bcf2f-394b-44c4-860d-b4707a90fe8f"},"vehicle_type_id":"4","last_reported":1752898937,"current_range_meters":6800,"station_id":"ce4bh0h2rcd13ifvqd40","pricing_plan_id":"cebpf4jnsgd1na2vs0mg"},{"bike_id":"56d35fb4-c3fa-422a-a14b-9ed987a4f56f","system_id":"levelo_inurba_marseille","lat":43.248161,"lon":5.374489,"is_reserved":false,"is_disabled":true,"rental_uris":{"android":"levelo://app?vid=56d35fb4-c3fa-422a-a14b-9ed987a4f56f","ios":"levelo://app?vid=56d35fb4-c3fa-422a-a14b-9ed987a4f56f"},"vehicle_type_id":"4","last_reported":1752898937,"current_range_meters":7200,"station_id":"ce4bhgh2rcd13ifvqfb0","pricing_plan_id":"cebpf4jnsgd1na2vs0mg"},{"bike_id":"6d6c24f3-1aa8-42f5-8064-4e7c25e25148","system_id":"levelo_inurba_marseille","lat":43.287049,"lon":5.373877,"is_reserved":false,"is_disabled":false,"rental_uris":{"android":"levelo://app?vid=6d6c24f3-1aa8-42f5-8064-4e7c25e25148","ios":"levelo://app?vid=6d6c24f3-1aa8-42f5-8064-4e7c25e25148"},"vehicle_type_id":"4","last_reported":1752898937,"current_range_meters":7200,"station_id":"ce4bh3p2rcd13ifvqdq0","pricing_plan_id":"cebpf4jnsgd1na2vs0mg"},{"bike_id":"62d1abcb-5665-424e-b2ef-a13f787f5b3c","system_id":"levelo_inurba_marseille","lat":43.29269,"lon":5.4014,"is_reserved":false,"is_disabled":false,"rental_uris":{"android":"levelo://app?vid=62d1abcb-5665-424e-b2ef-a13f787f5b3c","ios":"levelo://app?vid=62d1abcb-5665-424e-b2ef-a13f787f5b3c"},"vehicle_type_id":"4","last_reported":1752898937,"current_range_meters":7200,"station_id":"ce4bh312rcd13ifvqdk0","pricing_plan_id":"cebpf4jnsgd1na2vs0mg"},{"bike_id":"8a66b07f-1eed-424c-95bb-32b33b24cdca","system_id":"levelo_inurba_marseille","lat":43.284825,"lon":5.384231,"is_reserved":false,"is_disabled":false,"rental_uris":{"android":"levelo://app?vid=8a66b07f-1eed-424c-95bb-32b33b24cdca","ios":"levelo://app?vid=8a66b07f-1eed-424c-95bb-32b33b24cdca"},"vehicle_type_id":"4","last_reported":1752898937,"current_range_meters":8000,"station_id":"ce4bh512rcd13ifvqe3g","pricing_plan_id":"cebpf4jnsgd1na2vs0mg"},{"bike_id":"2ac93549-5c94-4228-8eea-782a21384d10","system_id":"levelo_inurba_marseille","lat":43.29634,"lon":5.37793,"is_reserved":false,"is_disabled":false,"rental_uris":{"android":"levelo://app?vid=2ac93549-5c94-4228-8eea-782a21384d10","ios":"levelo://app?vid=2ac93549-5c94-4228-8eea-782a21384d10"},"vehicle_type_id":"4","last_reported":1752898937,"current_range_meters":8000,"station_id":"","pricing_plan_id":"cebpf4jnsgd1na2vs0mg"},{"bike_id":"acc9b040-5a73-4aae-99a1-0308048b9887","system_id":"levelo_inurba_marseille","lat":43.28093,"lon":5.37861,"is_reserved":false,"is_disabled":false,"rental_uris":{"android":"levelo://app?vid=acc9b040-5a73-4aae-99a1-0308048b9887","ios":"levelo://app?vid=acc9b040-5a73-4aae-99a1-0308048b9887"},"vehicle_type_id":"4","last_reported":1752898937,"current_range_meters":8000,"station_id":"ce4bha12rcd13ifvqee0","pricing_plan_id":"cebpf4jnsgd1na2vs0mg"},{"bike_id":"a8319aff-6485-4fd1-94a9-a438594b5b32","system_id":"levelo_inurba_marseille","lat":43.287123,"lon":5.379434,"is_reserved":false,"is_disabled":false,"rental_uris":{"android":"levelo://app?vid=a8319aff-6485-4fd1-94a9-a438594b5b32","ios":"levelo://app?vid=a8319aff-6485-4fd1-94a9-a438594b5b32"},"vehicle_type_id":"4","last_reported":1752898937,"current_range_meters":8000,"station_id":"ce4bh9p2rcd13ifvqec0","pricing_plan_id":"cebpf4jnsgd1na2vs0mg"},{"bike_id":"333b8ba6-5f5e-4d99-ac4d-ddf553beb76d","system_id":"levelo_inurba_marseille","lat":43.293065,"lon":5.371695,"is_reserved":false,"is_disabled":false,"rental_uris":{"android":"levelo://app?vid=333b8ba6-5f5e-4d99-ac4d-ddf553beb76d","ios":"levelo://app?vid=333b8ba6-5f5e-4d99-ac4d-ddf553beb76d"},"vehicle_type_id":"4","last_reported":1752898937,"current_range_meters":8000,"station_id":"ce4bgh92rcd13ifvqb40","pricing_plan_id":"cebpf4jnsgd1na2vs0mg"},{"bike_id":"4be4bd2c-0260-46f3-8683-ca215580d4d7","system_id":"levelo_inurba_marseille","lat":43.303808,"lon":5.424836,"is_reserved":false,"is_disabled":false,"rental_uris":{"android":"levelo://app?vid=4be4bd2c-0260-46f3-8683-ca215580d4d7","ios":"levelo://app?vid=4be4bd2c-0260-46f3-8683-ca215580d4d7"},"vehicle_type_id":"4","last_reported":1752898937,"current_range_meters":8400,"station_id":"ce4bhoh2rcd13ifvqh6g","pricing_plan_id":"cebpf4jnsgd1na2vs0mg"},{"bike_id":"c35c3650-8980-4ec3-8bc0-7670f7c6c970","system_id":"levelo_inurba_marseille","lat":43.24674,"lon":5.38145,"is_reserved":false,"is_disabled":true,"rental_uris":{"android":"levelo://app?vid=c35c3650-8980-4ec3-8bc0-7670f7c6c970","ios":"levelo://app?vid=c35c3650-8980-4ec3-8bc0-7670f7c6c970"},"vehicle_type_id":"4","last_reported":1752898937,"current_range_meters":8400,"station_id":"ce4bhih2rcd13ifvqfr0","pricing_plan_id":"cebpf4jnsgd1na2vs0mg"},{"bike_id":"da891840-0cec-4ccc-961c-48903736c6fa","system_id":"levelo_inurba_marseille","lat":43.31139,"lon":5.37692,"is_reserved":false,"is_disabled":false,"rental_uris":{"android":"levelo://app?vid=da891840-0cec-4ccc-961c-48903736c6fa","ios":"levelo://app?vid=da891840-0cec-4ccc-961c-48903736c6fa"},"vehicle_type_id":"4","last_reported":1752898937,"current_range_meters":8400,"station_id":"","pricing_plan_id":"cebpf4jnsgd1na2vs0mg"},{"bike_id":"e555b545-304c-4dce-8496-1643c0f2600e","system_id":"levelo_inurba_marseille","lat":43.337444,"lon":5.374475,"is_reserved":false,"is_disabled":false,"rental_uris":{"android":"levelo://app?vid=e555b545-304c-4dce-8496-1643c0f2600e","ios":"levelo://app?vid=e555b545-304c-4dce-8496-1643c0f2600e"},"vehicle_type_id":"4","last_reported":1752898937,"current_range_meters":8400,"station_id":"","pricing_plan_id":"cebpf4jnsgd1na2vs0mg"},{"bike_id":"537df271-1e3d-4ffc-ad70-ada379266803","system_id":"levelo_inurba_marseille","lat":43.21746,"lon":5.34603,"is_reserved":false,"is_disabled":false,"rental_uris":{"android":"levelo://app?vid=537df271-1e3d-4ffc-ad70-ada379266803","ios":"levelo://app?vid=537df271-1e3d-4ffc-ad70-ada379266803"},"vehicle_type_id":"4","last_reported":1752898937,"current_range_meters":8800,"station_id":"st_cvj6r9ubvosntc0bgbag","pricing_plan_id":"cebpf4jnsgd1na2vs0mg"},{"bike_id":"5c512656-cb55-4e17-89ea-c883f7f63553","system_id":"levelo_inurba_marseille","lat":43.21749,"lon":5.34597,"is_reserved":false,"is_disabled":true,"rental_uris":{"android":"levelo://app?vid=5c512656-cb55-4e17-89ea-c883f7f63553","ios":"levelo://app?vid=5c512656-cb55-4e17-89ea-c883f7f63553"},"vehicle_type_id":"4","last_reported":1752898937,"current_range_meters":8800,"station_id":"st_cvj6r9ubvosntc0bgbag","pricing_plan_id":"cebpf4jnsgd1na2vs0mg"},{"bike_id":"a198bfec-3db2-402f-a311-e1361c0d3e2b","system_id":"levelo_inurba_marseille","lat":43.281031,"lon":5.378487,"is_reserved":false,"is_disabled":false,"rental_uris":{"android":"levelo://app?vid=a198bfec-3db2-402f-a311-e1361c0d3e2b","ios":"levelo://app?vid=a198bfec-3db2-402f-a311-e1361c0d3e2b"},"vehicle_type_id":"4","last_reported":1752898937,"current_range_meters":9200,"station_id":"ce4bha12rcd13ifvqee0","pricing_plan_id":"cebpf4jnsgd1na2vs0mg"},{"bike_id":"07df70eb-969d-4e15-ab24-5a2955eb3ea1","system_id":"levelo_inurba_marseille","lat":43.29573,"lon":5.3997,"is_reserved":false,"is_disabled":false,"rental_uris":{"android":"levelo://app?vid=07df70eb-969d-4e15-ab24-5a2955eb3ea1","ios":"levelo://app?vid=07df70eb-969d-4e15-ab24-5a2955eb3ea1"},"vehicle_type_id":"4","last_reported":1752898937,"current_range_meters":9200,"station_id":"ce4bh312rcd13ifvqdj0","pricing_plan_id":"cebpf4jnsgd1na2vs0mg"},{"bike_id":"79e00cba-979b-4370-b320-7e4857db9893","system_id":"levelo_inurba_marseille","lat":43.337649,"lon":5.37432,"is_reserved":false,"is_disabled":false,"rental_uris":{"android":"levelo://app?vid=79e00cba-979b-4370-b320-7e4857db9893","ios":"levelo://app?vid=79e00cba-979b-4370-b320-7e4857db9893"},"vehicle_type_id":"4","last_reported":1752898937,"current_range_meters":9200,"station_id":"","pricing_plan_id":"cebpf4jnsgd1na2vs0mg"},{"bike_id":"a168d389-ea1d-4756-ad9b-cf73a31ab442","system_id":"levelo_inurba_marseille","lat":43.288747,"lon":5.400098,"is_reserved":false,"is_disabled":false,"rental_uris":{"android":"levelo://app?vid=a168d389-ea1d-4756-ad9b-cf73a31ab442","ios":"levelo://app?vid=a168d389-ea1d-4756-ad9b-cf73a31ab442"},"vehicle_type_id":"4","last_reported":1752898937,"current_range_meters":9200,"station_id":"ce4bho92rcd13ifvqh3g","pricing_plan_id":"cebpf4jnsgd1na2vs0mg"},{"bike_id":"7ce9d5df-0b1c-44f4-9519-e6af90a9ff04","system_id":"levelo_inurba_marseille","lat":43.284035,"lon":5.37518,"is_reserved":false,"is_disabled":false,"rental_uris":{"android":"levelo://app?vid=7ce9d5df-0b1c-44f4-9519-e6af90a9ff04","ios":"levelo://app?vid=7ce9d5df-0b1c-44f4-9519-e6af90a9ff04"},"vehicle_type_id":"4","last_reported":1752898937,"current_range_meters":9600,"station_id":"ce4bh412rcd13ifvqds0","pricing_plan_id":"cebpf4jnsgd1na2vs0mg"},{"bike_id":"2d95b47d-d06f-40a4-bb6e-c13e954e3c8f","system_id":"levelo_inurba_marseille","lat":43.277236,"lon":5.414139,"is_reserved":false,"is_disabled":false,"rental_uris":{"android":"levelo://app?vid=2d95b47d-d06f-40a4-bb6e-c13e954e3c8f","ios":"levelo://app?vid=2d95b47d-d06f-40a4-bb6e-c13e954e3c8f"},"vehicle_type_id":"4","last_reported":1752898937,"current_range_meters":9600,"station_id":"","pricing_plan_id":"cebpf4jnsgd1na2vs0mg"},{"bike_id":"1b9b3b50-de92-4b2e-a432-56a3ae52efcd","system_id":"levelo_inurba_marseille","lat":43.28935,"lon":5.39636,"is_reserved":false,"is_disabled":false,"rental_uris":{"android":"levelo://app?vid=1b9b3b50-de92-4b2e-a432-56a3ae52efcd","ios":"levelo://app?vid=1b9b3b50-de92-4b2e-a432-56a3ae52efcd"},"vehicle_type_id":"4","last_reported":1752898937,"current_range_meters":9600,"station_id":"ce4bh3h2rcd13ifvqdn0","pricing_plan_id":"cebpf4jnsgd1na2vs0mg"},{"bike_id":"c303801a-6294-4a01-934c-70bee3fb65ba","system_id":"levelo_inurba_marseille","lat":43.27072,"lon":5.42279,"is_reserved":false,"is_disabled":false,"rental_uris":{"android":"levelo://app?vid=c303801a-6294-4a01-934c-70bee3fb65ba","ios":"levelo://app?vid=c303801a-6294-4a01-934c-70bee3fb65ba"},"vehicle_type_id":"4","last_reported":1752898937,"current_range_meters":9200,"station_id":"ce4bhk92rcd13ifvqgb0","pricing_plan_id":"cebpf4jnsgd1na2vs0mg"},{"bike_id":"694b7cd3-26a7-4904-ad7c-2bacf9c7282c","system_id":"levelo_inurba_marseille","lat":43.33394,"lon":5.4398,"is_reserved":false,"is_disabled":false,"rental_uris":{"android":"levelo://app?vid=694b7cd3-26a7-4904-ad7c-2bacf9c7282c","ios":"levelo://app?vid=694b7cd3-26a7-4904-ad7c-2bacf9c7282c"},"vehicle_type_id":"4","last_reported":1752898937,"current_range_meters":9600,"station_id":"","pricing_plan_id":"cebpf4jnsgd1na2vs0mg"},{"bike_id":"ade6b85c-6a6c-4230-abc0-6dc967d7d481","system_id":"levelo_inurba_marseille","lat":43.292765,"lon":5.401751,"is_reserved":false,"is_disabled":false,"rental_uris":{"android":"levelo://app?vid=ade6b85c-6a6c-4230-abc0-6dc967d7d481","ios":"levelo://app?vid=ade6b85c-6a6c-4230-abc0-6dc967d7d481"},"vehicle_type_id":"4","last_reported":1752898937,"current_range_meters":9600,"station_id":"ce4bh312rcd13ifvqdk0","pricing_plan_id":"cebpf4jnsgd1na2vs0mg"},{"bike_id":"792c6d19-d2aa-43d0-ba46-67942c12daaa","system_id":"levelo_inurba_marseille","lat":43.28609,"lon":5.37054,"is_reserved":false,"is_disabled":false,"rental_uris":{"android":"levelo://app?vid=792c6d19-d2aa-43d0-ba46-67942c12daaa","ios":"levelo://app?vid=792c6d19-d2aa-43d0-ba46-67942c12daaa"},"vehicle_type_id":"4","last_reported":1752898937,"current_range_meters":9600,"station_id":"ce4bht12rcd13ifvqi60","pricing_plan_id":"cebpf4jnsgd1na2vs0mg"},{"bike_id":"603995bf-5ba4-4bb5-b239-cd14a6a17b41","system_id":"levelo_inurba_marseille","lat":43.28945,"lon":5.39639,"is_reserved":false,"is_disabled":false,"rental_uris":{"android":"levelo://app?vid=603995bf-5ba4-4bb5-b239-cd14a6a17b41","ios":"levelo://app?vid=603995bf-5ba4-4bb5-b239-cd14a6a17b41"},"vehicle_type_id":"4","last_reported":1752898937,"current_range_meters":9600,"station_id":"ce4bh3h2rcd13ifvqdn0","pricing_plan_id":"cebpf4jnsgd1na2vs0mg"},{"bike_id":"b004baab-db70-453e-84a5-9312df4bd1d6","system_id":"levelo_inurba_marseille","lat":43.22508,"lon":5.34777,"is_reserved":false,"is_disabled":false,"rental_uris":{"android":"levelo://app?vid=b004baab-db70-453e-84a5-9312df4bd1d6","ios":"levelo://app?vid=b004baab-db70-453e-84a5-9312df4bd1d6"},"vehicle_type_id":"4","last_reported":1752898937,"current_range_meters":10000,"station_id":"st_cvj5dfep6f1abm77gieg","pricing_plan_id":"cebpf4jnsgd1na2vs0mg"},{"bike_id":"29c44405-5852-4d48-a871-a9bc5e60ce4b","system_id":"levelo_inurba_marseille","lat":43.28675,"lon":5.38655,"is_reserved":false,"is_disabled":true,"rental_uris":{"android":"levelo://app?vid=29c44405-5852-4d48-a871-a9bc5e60ce4b","ios":"levelo://app?vid=29c44405-5852-4d48-a871-a9bc5e60ce4b"},"vehicle_type_id":"4","last_reported":1752898937,"current_range_meters":10000,"station_id":"ce4bh492rcd13ifvqdug","pricing_plan_id":"cebpf4jnsgd1na2vs0mg"},{"bike_id":"97d335ba-fdf4-4ae7-89d2-d064c8f00a22","system_id":"levelo_inurba_marseille","lat":43.29278,"lon":5.40111,"is_reserved":false,"is_disabled":false,"rental_uris":{"android":"levelo://app?vid=97d335ba-fdf4-4ae7-89d2-d064c8f00a22","ios":"levelo://app?vid=97d335ba-fdf4-4ae7-89d2-d064c8f00a22"},"vehicle_type_id":"4","last_reported":1752898937,"current_range_meters":10000,"station_id":"ce4bh312rcd13ifvqdk0","pricing_plan_id":"cebpf4jnsgd1na2vs0mg"},{"bike_id":"a698a155-b061-416a-8ca1-9055e8bd06cb","system_id":"levelo_inurba_marseille","lat":43.248122,"lon":5.374572,"is_reserved":false,"is_disabled":false,"rental_uris":{"android":"levelo://app?vid=a698a155-b061-416a-8ca1-9055e8bd06cb","ios":"levelo://app?vid=a698a155-b061-416a-8ca1-9055e8bd06cb"},"vehicle_type_id":"4","last_reported":1752898937,"current_range_meters":10000,"station_id":"ce4bhgh2rcd13ifvqfb0","pricing_plan_id":"cebpf4jnsgd1na2vs0mg"},{"bike_id":"ce7bd25b-5213-4881-a28b-f582e6a1d712","system_id":"levelo_inurba_marseille","lat":43.31356,"lon":5.36719,"is_reserved":false,"is_disabled":true,"rental_uris":{"android":"levelo://app?vid=ce7bd25b-5213-4881-a28b-f582e6a1d712","ios":"levelo://app?vid=ce7bd25b-5213-4881-a28b-f582e6a1d712"},"vehicle_type_id":"4","last_reported":1752898937,"current_range_meters":10000,"station_id":"ce4bgr92rcd13ifvqc6g","pricing_plan_id":"cebpf4jnsgd1na2vs0mg"},{"bike_id":"44bf74f9-0a90-4bf5-bc27-21dada9d010a","system_id":"levelo_inurba_marseille","lat":43.29179,"lon":5.39319,"is_reserved":false,"is_disabled":false,"rental_uris":{"android":"levelo://app?vid=44bf74f9-0a90-4bf5-bc27-21dada9d010a","ios":"levelo://app?vid=44bf74f9-0a90-4bf5-bc27-21dada9d010a"},"vehicle_type_id":"4","last_reported":1752898937,"current_range_meters":10800,"station_id":"ce4bh192rcd13ifvqdd0","pricing_plan_id":"cebpf4jnsgd1na2vs0mg"},{"bike_id":"a2ea175a-cfd0-4dde-a138-8280b63692f1","system_id":"levelo_inurba_marseille","lat":43.248045,"lon":5.374574,"is_reserved":false,"is_disabled":true,"rental_uris":{"android":"levelo://app?vid=a2ea175a-cfd0-4dde-a138-8280b63692f1","ios":"levelo://app?vid=a2ea175a-cfd0-4dde-a138-8280b63692f1"},"vehicle_type_id":"4","last_reported":1752898937,"current_range_meters":10800,"station_id":"ce4bhgh2rcd13ifvqfb0","pricing_plan_id":"cebpf4jnsgd1na2vs0mg"},{"bike_id":"183a2501-80ca-421a-b6b9-a857bb3ea2fb","system_id":"levelo_inurba_marseille","lat":43.28693,"lon":5.39981,"is_reserved":false,"is_disabled":false,"rental_uris":{"android":"levelo://app?vid=183a2501-80ca-421a-b6b9-a857bb3ea2fb","ios":"levelo://app?vid=183a2501-80ca-421a-b6b9-a857bb3ea2fb"},"vehicle_type_id":"4","last_reported":1752898937,"current_range_meters":10800,"station_id":"ce4bho92rcd13ifvqh3g","pricing_plan_id":"cebpf4jnsgd1na2vs0mg"},{"bike_id":"35965273-4af4-457c-87a3-4f7523a4ce80","system_id":"levelo_inurba_marseille","lat":43.29005,"lon":5.35618,"is_reserved":false,"is_disabled":true,"rental_uris":{"android":"levelo://app?vid=35965273-4af4-457c-87a3-4f7523a4ce80","ios":"levelo://app?vid=35965273-4af4-457c-87a3-4f7523a4ce80"},"vehicle_type_id":"4","last_reported":1752898937,"current_range_meters":10800,"station_id":"ce4bhb92rcd13ifvqen0","pricing_plan_id":"cebpf4jnsgd1na2vs0mg"},{"bike_id":"4dd02715-0aa1-486a-a4d8-01f96f8c7a72","system_id":"levelo_inurba_marseille","lat":43.28156,"lon":5.42631,"is_reserved":false,"is_disabled":false,"rental_uris":{"android":"levelo://app?vid=4dd02715-0aa1-486a-a4d8-01f96f8c7a72","ios":"levelo://app?vid=4dd02715-0aa1-486a-a4d8-01f96f8c7a72"},"vehicle_type_id":"4","last_reported":1752898937,"current_range_meters":10800,"station_id":"ce4bhnh2rcd13ifvqgug","pricing_plan_id":"cebpf4jnsgd1na2vs0mg"},{"bike_id":"90f0ed75-ae52-4d06-9fc4-ba57bb16e37f","system_id":"levelo_inurba_marseille","lat":43.302403,"lon":5.400469,"is_reserved":false,"is_disabled":true,"rental_uris":{"android":"levelo://app?vid=90f0ed75-ae52-4d06-9fc4-ba57bb16e37f","ios":"levelo://app?vid=90f0ed75-ae52-4d06-9fc4-ba57bb16e37f"},"vehicle_type_id":"4","last_reported":1752898937,"current_range_meters":10800,"station_id":"ce4bgvh2rcd13ifvqcs0","pricing_plan_id":"cebpf4jnsgd1na2vs0mg"},{"bike_id":"5ac93e7c-286a-4c1e-b6c0-4e9963e5a9f8","system_id":"levelo_inurba_marseille","lat":43.21191,"lon":5.35072,"is_reserved":false,"is_disabled":false,"rental_uris":{"android":"levelo://app?vid=5ac93e7c-286a-4c1e-b6c0-4e9963e5a9f8","ios":"levelo://app?vid=5ac93e7c-286a-4c1e-b6c0-4e9963e5a9f8"},"vehicle_type_id":"4","last_reported":1752898937,"current_range_meters":10800,"station_id":"st_cvj6sg6p6f1abm77japg","pricing_plan_id":"cebpf4jnsgd1na2vs0mg"},{"bike_id":"c6db0f6a-96fe-4e1d-8ded-c2ef38c9bab4","system_id":"levelo_inurba_marseille","lat":43.305688,"lon":5.418387,"is_reserved":false,"is_disabled":true,"rental_uris":{"android":"levelo://app?vid=c6db0f6a-96fe-4e1d-8ded-c2ef38c9bab4","ios":"levelo://app?vid=c6db0f6a-96fe-4e1d-8ded-c2ef38c9bab4"},"vehicle_type_id":"4","last_reported":1752898937,"current_range_meters":11200,"station_id":"ce4bht12rcd13ifvqi60","pricing_plan_id":"cebpf4jnsgd1na2vs0mg"},{"bike_id":"fc06e41c-66d3-44b8-b2ec-6ecd3a389a1c","system_id":"levelo_inurba_marseille","lat":43.271854,"lon":5.362776,"is_reserved":false,"is_disabled":false,"rental_uris":{"android":"levelo://app?vid=fc06e41c-66d3-44b8-b2ec-6ecd3a389a1c","ios":"levelo://app?vid=fc06e41c-66d3-44b8-b2ec-6ecd3a389a1c"},"vehicle_type_id":"4","last_reported":1752898937,"current_range_meters":11200,"station_id":"","pricing_plan_id":"cebpf4jnsgd1na2vs0mg"},{"bike_id":"be60c88c-1453-4626-be80-200258f79626","system_id":"levelo_inurba_marseille","lat":43.231944,"lon":5.355517,"is_reserved":false,"is_disabled":false,"rental_uris":{"android":"levelo://app?vid=be60c88c-1453-4626-be80-200258f79626","ios":"levelo://app?vid=be60c88c-1453-4626-be80-200258f79626"},"vehicle_type_id":"4","last_reported":1752898937,"current_range_meters":11200,"station_id":"ce4bhu92rcd13ifvqi70","pricing_plan_id":"cebpf4jnsgd1na2vs0mg"},{"bike_id":"436db807-5cc4-41ed-be34-f329b8d9bbd5","system_id":"levelo_inurba_marseille","lat":43.2886,"lon":5.393116,"is_reserved":false,"is_disabled":false,"rental_uris":{"android":"levelo://app?vid=436db807-5cc4-41ed-be34-f329b8d9bbd5","ios":"levelo://app?vid=436db807-5cc4-41ed-be34-f329b8d9bbd5"},"vehicle_type_id":"4","last_reported":1752898937,"current_range_meters":11600,"station_id":"ce4bh2p2rcd13ifvqdi0","pricing_plan_id":"cebpf4jnsgd1na2vs0mg"},{"bike_id":"25d3b560-6a49-4668-805e-cd625849b9f4","system_id":"levelo_inurba_marseille","lat":43.323475,"lon":5.40621,"is_reserved":false,"is_disabled":false,"rental_uris":{"android":"levelo://app?vid=25d3b560-6a49-4668-805e-cd625849b9f4","ios":"levelo://app?vid=25d3b560-6a49-4668-805e-cd625849b9f4"},"vehicle_type_id":"4","last_reported":1752898937,"current_range_meters":11600,"station_id":"ce4bhq92rcd13ifvqhjg","pricing_plan_id":"cebpf4jnsgd1na2vs0mg"},{"bike_id":"0b250332-c99a-4726-ac2a-74deb04ffed3","system_id":"levelo_inurba_marseille","lat":43.27916,"lon":5.39567,"is_reserved":false,"is_disabled":true,"rental_uris":{"android":"levelo://app?vid=0b250332-c99a-4726-ac2a-74deb04ffed3","ios":"levelo://app?vid=0b250332-c99a-4726-ac2a-74deb04ffed3"},"vehicle_type_id":"4","last_reported":1752898937,"current_range_meters":11600,"station_id":"ce4bhf92rcd13ifvqf40","pricing_plan_id":"cebpf4jnsgd1na2vs0mg"},{"bike_id":"57a30f0b-84eb-4b98-8989-8d3c02b43bf0","system_id":"levelo_inurba_marseille","lat":43.286024,"lon":5.370719,"is_reserved":false,"is_disabled":false,"rental_uris":{"android":"levelo://app?vid=57a30f0b-84eb-4b98-8989-8d3c02b43bf0","ios":"levelo://app?vid=57a30f0b-84eb-4b98-8989-8d3c02b43bf0"},"vehicle_type_id":"4","last_reported":1752898937,"current_range_meters":11600,"station_id":"","pricing_plan_id":"cebpf4jnsgd1na2vs0mg"},{"bike_id":"b7fe52dd-f025-4212-9e78-19e7f6f09593","system_id":"levelo_inurba_marseille","lat":43.211955,"lon":5.350733,"is_reserved":false,"is_disabled":false,"rental_uris":{"android":"levelo://app?vid=b7fe52dd-f025-4212-9e78-19e7f6f09593","ios":"levelo://app?vid=b7fe52dd-f025-4212-9e78-19e7f6f09593"},"vehicle_type_id":"4","last_reported":1752898937,"current_range_meters":11600,"station_id":"st_cvj6sg6p6f1abm77japg","pricing_plan_id":"cebpf4jnsgd1na2vs0mg"},{"bike_id":"cfb52d04-9134-4c86-8269-771716b20f27","system_id":"levelo_inurba_marseille","lat":43.211941,"lon":5.350736,"is_reserved":false,"is_disabled":false,"rental_uris":{"android":"levelo://app?vid=cfb52d04-9134-4c86-8269-771716b20f27","ios":"levelo://app?vid=cfb52d04-9134-4c86-8269-771716b20f27"},"vehicle_type_id":"4","last_reported":1752898937,"current_range_meters":11600,"station_id":"st_cvj6sg6p6f1abm77japg","pricing_plan_id":"cebpf4jnsgd1na2vs0mg"},{"bike_id":"8ab77867-8c31-4aa6-82eb-9dca1a4cb06d","system_id":"levelo_inurba_marseille","lat":43.31119,"lon":5.37789,"is_reserved":false,"is_disabled":true,"rental_uris":{"android":"levelo://app?vid=8ab77867-8c31-4aa6-82eb-9dca1a4cb06d","ios":"levelo://app?vid=8ab77867-8c31-4aa6-82eb-9dca1a4cb06d"},"vehicle_type_id":"4","last_reported":1752898937,"current_range_meters":11600,"station_id":"ce4bgt92rcd13ifvqcg0","pricing_plan_id":"cebpf4jnsgd1na2vs0mg"},{"bike_id":"70a3940c-c40a-4ef4-8e48-8b68d4968bc7","system_id":"levelo_inurba_marseille","lat":43.239569,"lon":5.366269,"is_reserved":false,"is_disabled":true,"rental_uris":{"android":"levelo://app?vid=70a3940c-c40a-4ef4-8e48-8b68d4968bc7","ios":"levelo://app?vid=70a3940c-c40a-4ef4-8e48-8b68d4968bc7"},"vehicle_type_id":"4","last_reported":1752898937,"current_range_meters":12000,"station_id":"ce4bhi12rcd13ifvqfp0","pricing_plan_id":"cebpf4jnsgd1na2vs0mg"},{"bike_id":"5ed7e33c-75eb-4f80-9ced-f5eee5190af4","system_id":"levelo_inurba_marseille","lat":43.29561,"lon":5.42267,"is_reserved":false,"is_disabled":false,"rental_uris":{"android":"levelo://app?vid=5ed7e33c-75eb-4f80-9ced-f5eee5190af4","ios":"levelo://app?vid=5ed7e33c-75eb-4f80-9ced-f5eee5190af4"},"vehicle_type_id":"4","last_reported":1752898937,"current_range_meters":12000,"station_id":"ce4bhph2rcd13ifvqhdg","pricing_plan_id":"cebpf4jnsgd1na2vs0mg"},{"bike_id":"9d26a0e8-52a9-4afd-8a23-859b3c0d8c1a","system_id":"levelo_inurba_marseille","lat":43.28715,"lon":5.39979,"is_reserved":false,"is_disabled":false,"rental_uris":{"android":"levelo://app?vid=9d26a0e8-52a9-4afd-8a23-859b3c0d8c1a","ios":"levelo://app?vid=9d26a0e8-52a9-4afd-8a23-859b3c0d8c1a"},"vehicle_type_id":"4","last_reported":1752898937,"current_range_meters":12000,"station_id":"ce4bho92rcd13ifvqh3g","pricing_plan_id":"cebpf4jnsgd1na2vs0mg"},{"bike_id":"a67156ae-789e-45f5-ab3f-ed7d95b24540","system_id":"levelo_inurba_marseille","lat":43.21193,"lon":5.3507,"is_reserved":false,"is_disabled":false,"rental_uris":{"android":"levelo://app?vid=a67156ae-789e-45f5-ab3f-ed7d95b24540","ios":"levelo://app?vid=a67156ae-789e-45f5-ab3f-ed7d95b24540"},"vehicle_type_id":"4","last_reported":1752898937,"current_range_meters":12000,"station_id":"st_cvj6sg6p6f1abm77japg","pricing_plan_id":"cebpf4jnsgd1na2vs0mg"},{"bike_id":"69d3f137-4dd7-4a32-bc5c-571e1585d8bc","system_id":"levelo_inurba_marseille","lat":43.31714,"lon":5.37769,"is_reserved":false,"is_disabled":false,"rental_uris":{"android":"levelo://app?vid=69d3f137-4dd7-4a32-bc5c-571e1585d8bc","ios":"levelo://app?vid=69d3f137-4dd7-4a32-bc5c-571e1585d8bc"},"vehicle_type_id":"4","last_reported":1752898937,"current_range_meters":12000,"station_id":"ce4bgth2rcd13ifvqch0","pricing_plan_id":"cebpf4jnsgd1na2vs0mg"},{"bike_id":"6f18ab1b-0c74-47b1-bed8-837677176207","system_id":"levelo_inurba_marseille","lat":43.32047,"lon":5.4091,"is_reserved":false,"is_disabled":false,"rental_uris":{"android":"levelo://app?vid=6f18ab1b-0c74-47b1-bed8-837677176207","ios":"levelo://app?vid=6f18ab1b-0c74-47b1-bed8-837677176207"},"vehicle_type_id":"4","last_reported":1752898937,"current_range_meters":12000,"station_id":"","pricing_plan_id":"cebpf4jnsgd1na2vs0mg"},{"bike_id":"ec2b2fdf-c717-4d0d-a5a1-388d9260ccf0","system_id":"levelo_inurba_marseille","lat":43.28159,"lon":5.42639,"is_reserved":false,"is_disabled":false,"rental_uris":{"android":"levelo://app?vid=ec2b2fdf-c717-4d0d-a5a1-388d9260ccf0","ios":"levelo://app?vid=ec2b2fdf-c717-4d0d-a5a1-388d9260ccf0"},"vehicle_type_id":"4","last_reported":1752898937,"current_range_meters":12800,"station_id":"ce4bhnh2rcd13ifvqgug","pricing_plan_id":"cebpf4jnsgd1na2vs0mg"},{"bike_id":"45116b5f-7ce7-43b6-8809-64d550470aaa","system_id":"levelo_inurba_marseille","lat":43.30549,"lon":5.38403,"is_reserved":false,"is_disabled":false,"rental_uris":{"android":"levelo://app?vid=45116b5f-7ce7-43b6-8809-64d550470aaa","ios":"levelo://app?vid=45116b5f-7ce7-43b6-8809-64d550470aaa"},"vehicle_type_id":"4","last_reported":1752898937,"current_range_meters":12800,"station_id":"ce4bgg92rcd13ifvqb30","pricing_plan_id":"cebpf4jnsgd1na2vs0mg"},{"bike_id":"c368fc82-43c0-40c2-8fb4-86d9ba62dde7","system_id":"levelo_inurba_marseille","lat":43.26933,"lon":5.38593,"is_reserved":false,"is_disabled":false,"rental_uris":{"android":"levelo://app?vid=c368fc82-43c0-40c2-8fb4-86d9ba62dde7","ios":"levelo://app?vid=c368fc82-43c0-40c2-8fb4-86d9ba62dde7"},"vehicle_type_id":"4","last_reported":1752898937,"current_range_meters":12800,"station_id":"ce4bhh92rcd13ifvqfh0","pricing_plan_id":"cebpf4jnsgd1na2vs0mg"},{"bike_id":"0ffec689-ea73-4886-a8a8-e9075fc0366f","system_id":"levelo_inurba_marseille","lat":43.30739,"lon":5.42488,"is_reserved":false,"is_disabled":true,"rental_uris":{"android":"levelo://app?vid=0ffec689-ea73-4886-a8a8-e9075fc0366f","ios":"levelo://app?vid=0ffec689-ea73-4886-a8a8-e9075fc0366f"},"vehicle_type_id":"4","last_reported":1752898937,"current_range_meters":12800,"station_id":"st_cvj6ca6bvosntc0bfgr0","pricing_plan_id":"cebpf4jnsgd1na2vs0mg"},{"bike_id":"ac0ed4be-466c-4caa-b855-3c6bbe5a11b5","system_id":"levelo_inurba_marseille","lat":43.267642,"lon":5.371758,"is_reserved":false,"is_disabled":false,"rental_uris":{"android":"levelo://app?vid=ac0ed4be-466c-4caa-b855-3c6bbe5a11b5","ios":"levelo://app?vid=ac0ed4be-466c-4caa-b855-3c6bbe5a11b5"},"vehicle_type_id":"4","last_reported":1752898937,"current_range_meters":12800,"station_id":"","pricing_plan_id":"cebpf4jnsgd1na2vs0mg"},{"bike_id":"993ad6d2-500e-4da7-8010-d4cae0c69d98","system_id":"levelo_inurba_marseille","lat":43.27963,"lon":5.38739,"is_reserved":false,"is_disabled":false,"rental_uris":{"android":"levelo://app?vid=993ad6d2-500e-4da7-8010-d4cae0c69d98","ios":"levelo://app?vid=993ad6d2-500e-4da7-8010-d4cae0c69d98"},"vehicle_type_id":"4","last_reported":1752898937,"current_range_meters":12800,"station_id":"ce4bhg12rcd13ifvqf80","pricing_plan_id":"cebpf4jnsgd1na2vs0mg"},{"bike_id":"8e79a85b-71cd-44e2-9769-4ad285ff7c49","system_id":"levelo_inurba_marseille","lat":43.21755,"lon":5.34597,"is_reserved":false,"is_disabled":false,"rental_uris":{"android":"levelo://app?vid=8e79a85b-71cd-44e2-9769-4ad285ff7c49","ios":"levelo://app?vid=8e79a85b-71cd-44e2-9769-4ad285ff7c49"},"vehicle_type_id":"4","last_reported":1752898937,"current_range_meters":12800,"station_id":"st_cvj6r9ubvosntc0bgbag","pricing_plan_id":"cebpf4jnsgd1na2vs0mg"},{"bike_id":"2fd3d782-24a7-42a3-b248-8e69e5a88f8a","system_id":"levelo_inurba_marseille","lat":43.316989,"lon":5.404532,"is_reserved":false,"is_disabled":false,"rental_uris":{"android":"levelo://app?vid=2fd3d782-24a7-42a3-b248-8e69e5a88f8a","ios":"levelo://app?vid=2fd3d782-24a7-42a3-b248-8e69e5a88f8a"},"vehicle_type_id":"4","last_reported":1752898937,"current_range_meters":12800,"station_id":"ce4bh012rcd13ifvqd00","pricing_plan_id":"cebpf4jnsgd1na2vs0mg"},{"bike_id":"edd0079d-996b-4ae3-9a31-d781f3a059ec","system_id":"levelo_inurba_marseille","lat":43.33786,"lon":5.37426,"is_reserved":false,"is_disabled":false,"rental_uris":{"android":"levelo://app?vid=edd0079d-996b-4ae3-9a31-d781f3a059ec","ios":"levelo://app?vid=edd0079d-996b-4ae3-9a31-d781f3a059ec"},"vehicle_type_id":"4","last_reported":1752898937,"current_range_meters":12800,"station_id":"","pricing_plan_id":"cebpf4jnsgd1na2vs0mg"},{"bike_id":"50a36931-63e6-4819-9058-f86f9fcd0ab3","system_id":"levelo_inurba_marseille","lat":43.32532,"lon":5.4147,"is_reserved":false,"is_disabled":false,"rental_uris":{"android":"levelo://app?vid=50a36931-63e6-4819-9058-f86f9fcd0ab3","ios":"levelo://app?vid=50a36931-63e6-4819-9058-f86f9fcd0ab3"},"vehicle_type_id":"4","last_reported":1752898937,"current_range_meters":13600,"station_id":"ce4bhq12rcd13ifvqhhg","pricing_plan_id":"cebpf4jnsgd1na2vs0mg"},{"bike_id":"08a94e68-7279-4c26-9ca7-7cd2e2f2fe4c","system_id":"levelo_inurba_marseille","lat":43.241675,"lon":5.36393,"is_reserved":false,"is_disabled":true,"rental_uris":{"android":"levelo://app?vid=08a94e68-7279-4c26-9ca7-7cd2e2f2fe4c","ios":"levelo://app?vid=08a94e68-7279-4c26-9ca7-7cd2e2f2fe4c"},"vehicle_type_id":"4","last_reported":1752898937,"current_range_meters":13600,"station_id":"cpo36qri1sfpv3e86is0","pricing_plan_id":"cebpf4jnsgd1na2vs0mg"},{"bike_id":"782021d6-37ef-4fe1-8e48-2f487b2e357c","system_id":"levelo_inurba_marseille","lat":43.26575,"lon":5.39024,"is_reserved":false,"is_disabled":false,"rental_uris":{"android":"levelo://app?vid=782021d6-37ef-4fe1-8e48-2f487b2e357c","ios":"levelo://app?vid=782021d6-37ef-4fe1-8e48-2f487b2e357c"},"vehicle_type_id":"4","last_reported":1752898937,"current_range_meters":13600,"station_id":"ce4bhe12rcd13ifvqf30","pricing_plan_id":"cebpf4jnsgd1na2vs0mg"},{"bike_id":"227109b7-4063-4114-8546-c20e3f2bd6c8","system_id":"levelo_inurba_marseille","lat":43.30261,"lon":5.40051,"is_reserved":false,"is_disabled":false,"rental_uris":{"android":"levelo://app?vid=227109b7-4063-4114-8546-c20e3f2bd6c8","ios":"levelo://app?vid=227109b7-4063-4114-8546-c20e3f2bd6c8"},"vehicle_type_id":"4","last_reported":1752898937,"current_range_meters":14000,"station_id":"ce4bgvh2rcd13ifvqcs0","pricing_plan_id":"cebpf4jnsgd1na2vs0mg"},{"bike_id":"1ec4eaa5-8358-4ab4-9a43-bd805d4f9a92","system_id":"levelo_inurba_marseille","lat":43.29281,"lon":5.40133,"is_reserved":false,"is_disabled":false,"rental_uris":{"android":"levelo://app?vid=1ec4eaa5-8358-4ab4-9a43-bd805d4f9a92","ios":"levelo://app?vid=1ec4eaa5-8358-4ab4-9a43-bd805d4f9a92"},"vehicle_type_id":"4","last_reported":1752898937,"current_range_meters":14000,"station_id":"ce4bh312rcd13ifvqdk0","pricing_plan_id":"cebpf4jnsgd1na2vs0mg"},{"bike_id":"262bba80-9a85-4074-97aa-225c3aedc3b7","system_id":"levelo_inurba_marseille","lat":43.30659,"lon":5.400942,"is_reserved":false,"is_disabled":true,"rental_uris":{"android":"levelo://app?vid=262bba80-9a85-4074-97aa-225c3aedc3b7","ios":"levelo://app?vid=262bba80-9a85-4074-97aa-225c3aedc3b7"},"vehicle_type_id":"4","last_reported":1752898937,"current_range_meters":14000,"station_id":"ce4bh112rcd13ifvqda0","pricing_plan_id":"cebpf4jnsgd1na2vs0mg"},{"bike_id":"1a794689-0399-4bd8-871c-778f85fe0438","system_id":"levelo_inurba_marseille","lat":43.274951,"lon":5.424588,"is_reserved":false,"is_disabled":false,"rental_uris":{"android":"levelo://app?vid=1a794689-0399-4bd8-871c-778f85fe0438","ios":"levelo://app?vid=1a794689-0399-4bd8-871c-778f85fe0438"},"vehicle_type_id":"4","last_reported":1752898937,"current_range_meters":14000,"station_id":"ce4bhn92rcd13ifvqgrg","pricing_plan_id":"cebpf4jnsgd1na2vs0mg"},{"bike_id":"380d9762-7aa7-482d-9fc2-515ae61b009c","system_id":"levelo_inurba_marseille","lat":43.24073,"lon":5.3776,"is_reserved":false,"is_disabled":false,"rental_uris":{"android":"levelo://app?vid=380d9762-7aa7-482d-9fc2-515ae61b009c","ios":"levelo://app?vid=380d9762-7aa7-482d-9fc2-515ae61b009c"},"vehicle_type_id":"4","last_reported":1752898937,"current_range_meters":14400,"station_id":"ce4bhnp2rcd13ifvqgvg","pricing_plan_id":"cebpf4jnsgd1na2vs0mg"},{"bike_id":"223cebf6-a660-41bf-b041-5bddcc036514","system_id":"levelo_inurba_marseille","lat":43.26939,"lon":5.402536,"is_reserved":false,"is_disabled":false,"rental_uris":{"android":"levelo://app?vid=223cebf6-a660-41bf-b041-5bddcc036514","ios":"levelo://app?vid=223cebf6-a660-41bf-b041-5bddcc036514"},"vehicle_type_id":"4","last_reported":1752898937,"current_range_meters":14400,"station_id":"cjm6bp8fraef2m0cb0m0","pricing_plan_id":"cebpf4jnsgd1na2vs0mg"},{"bike_id":"90f1924f-336d-4405-b5b1-03dcfd5afe7c","system_id":"levelo_inurba_marseille","lat":43.27822,"lon":5.38515,"is_reserved":false,"is_disabled":false,"rental_uris":{"android":"levelo://app?vid=90f1924f-336d-4405-b5b1-03dcfd5afe7c","ios":"levelo://app?vid=90f1924f-336d-4405-b5b1-03dcfd5afe7c"},"vehicle_type_id":"4","last_reported":1752898937,"current_range_meters":14400,"station_id":"","pricing_plan_id":"cebpf4jnsgd1na2vs0mg"},{"bike_id":"e571b882-1b31-481a-9f98-8ab8eeeef29c","system_id":"levelo_inurba_marseille","lat":43.28716,"lon":5.37376,"is_reserved":false,"is_disabled":false,"rental_uris":{"android":"levelo://app?vid=e571b882-1b31-481a-9f98-8ab8eeeef29c","ios":"levelo://app?vid=e571b882-1b31-481a-9f98-8ab8eeeef29c"},"vehicle_type_id":"4","last_reported":1752898937,"current_range_meters":14400,"station_id":"ce4bh3p2rcd13ifvqdq0","pricing_plan_id":"cebpf4jnsgd1na2vs0mg"},{"bike_id":"0916292f-c60f-4ec2-a3c5-bb862cec8507","system_id":"levelo_inurba_marseille","lat":43.231922,"lon":5.355557,"is_reserved":false,"is_disabled":false,"rental_uris":{"android":"levelo://app?vid=0916292f-c60f-4ec2-a3c5-bb862cec8507","ios":"levelo://app?vid=0916292f-c60f-4ec2-a3c5-bb862cec8507"},"vehicle_type_id":"4","last_reported":1752898937,"current_range_meters":14400,"station_id":"ce4bhu92rcd13ifvqi70","pricing_plan_id":"cebpf4jnsgd1na2vs0mg"},{"bike_id":"3dbe5912-b178-4d6a-b0a5-780c833ee7fa","system_id":"levelo_inurba_marseille","lat":43.29058,"lon":5.35571,"is_reserved":false,"is_disabled":false,"rental_uris":{"android":"levelo://app?vid=3dbe5912-b178-4d6a-b0a5-780c833ee7fa","ios":"levelo://app?vid=3dbe5912-b178-4d6a-b0a5-780c833ee7fa"},"vehicle_type_id":"4","last_reported":1752898937,"current_range_meters":14800,"station_id":"","pricing_plan_id":"cebpf4jnsgd1na2vs0mg"},{"bike_id":"7f02cd16-abf2-40a4-97c2-19dc0dd97d66","system_id":"levelo_inurba_marseille","lat":43.262204,"lon":5.404626,"is_reserved":false,"is_disabled":false,"rental_uris":{"android":"levelo://app?vid=7f02cd16-abf2-40a4-97c2-19dc0dd97d66","ios":"levelo://app?vid=7f02cd16-abf2-40a4-97c2-19dc0dd97d66"},"vehicle_type_id":"4","last_reported":1752898937,"current_range_meters":14800,"station_id":"ce4bhmh2rcd13ifvqgmg","pricing_plan_id":"cebpf4jnsgd1na2vs0mg"},{"bike_id":"0e3e9a19-a32e-45e2-bce2-fa6c5fad95bf","system_id":"levelo_inurba_marseille","lat":43.310671,"lon":5.383537,"is_reserved":false,"is_disabled":false,"rental_uris":{"android":"levelo://app?vid=0e3e9a19-a32e-45e2-bce2-fa6c5fad95bf","ios":"levelo://app?vid=0e3e9a19-a32e-45e2-bce2-fa6c5fad95bf"},"vehicle_type_id":"4","last_reported":1752898937,"current_range_meters":14800,"station_id":"ce4bgv92rcd13ifvqcr0","pricing_plan_id":"cebpf4jnsgd1na2vs0mg"},{"bike_id":"cf16ee3c-6e8f-4c6c-b6e3-1a5890453db4","system_id":"levelo_inurba_marseille","lat":43.29196,"lon":5.35796,"is_reserved":false,"is_disabled":false,"rental_uris":{"android":"levelo://app?vid=cf16ee3c-6e8f-4c6c-b6e3-1a5890453db4","ios":"levelo://app?vid=cf16ee3c-6e8f-4c6c-b6e3-1a5890453db4"},"vehicle_type_id":"4","last_reported":1752898937,"current_range_meters":14400,"station_id":"ce4bhb12rcd13ifvqel0","pricing_plan_id":"cebpf4jnsgd1na2vs0mg"},{"bike_id":"909ff96a-76aa-4e1c-b682-b3361ada4793","system_id":"levelo_inurba_marseille","lat":43.240734,"lon":5.377539,"is_reserved":false,"is_disabled":false,"rental_uris":{"android":"levelo://app?vid=909ff96a-76aa-4e1c-b682-b3361ada4793","ios":"levelo://app?vid=909ff96a-76aa-4e1c-b682-b3361ada4793"},"vehicle_type_id":"4","last_reported":1752898937,"current_range_meters":14800,"station_id":"ce4bhnp2rcd13ifvqgvg","pricing_plan_id":"cebpf4jnsgd1na2vs0mg"},{"bike_id":"31ce5e9c-04fe-46ac-8221-cc9c8885ab79","system_id":"levelo_inurba_marseille","lat":43.323348,"lon":5.406181,"is_reserved":false,"is_disabled":false,"rental_uris":{"android":"levelo://app?vid=31ce5e9c-04fe-46ac-8221-cc9c8885ab79","ios":"levelo://app?vid=31ce5e9c-04fe-46ac-8221-cc9c8885ab79"},"vehicle_type_id":"4","last_reported":1752898937,"current_range_meters":14800,"station_id":"ce4bhq92rcd13ifvqhjg","pricing_plan_id":"cebpf4jnsgd1na2vs0mg"},{"bike_id":"552f10ae-ebe9-4a43-9161-2070e2842bf6","system_id":"levelo_inurba_marseille","lat":43.32344,"lon":5.40606,"is_reserved":false,"is_disabled":false,"rental_uris":{"android":"levelo://app?vid=552f10ae-ebe9-4a43-9161-2070e2842bf6","ios":"levelo://app?vid=552f10ae-ebe9-4a43-9161-2070e2842bf6"},"vehicle_type_id":"4","last_reported":1752898937,"current_range_meters":14800,"station_id":"ce4bhq92rcd13ifvqhjg","pricing_plan_id":"cebpf4jnsgd1na2vs0mg"},{"bike_id":"94c07cb2-0943-4d24-99f2-97bdab47aa3f","system_id":"levelo_inurba_marseille","lat":43.337444,"lon":5.374475,"is_reserved":false,"is_disabled":false,"rental_uris":{"android":"levelo://app?vid=94c07cb2-0943-4d24-99f2-97bdab47aa3f","ios":"levelo://app?vid=94c07cb2-0943-4d24-99f2-97bdab47aa3f"},"vehicle_type_id":"4","last_reported":1752898937,"current_range_meters":14800,"station_id":"","pricing_plan_id":"cebpf4jnsgd1na2vs0mg"},{"bike_id":"afc91c81-7042-4270-a28e-07e325ae83c9","system_id":"levelo_inurba_marseille","lat":43.21197,"lon":5.3506,"is_reserved":false,"is_disabled":false,"rental_uris":{"android":"levelo://app?vid=afc91c81-7042-4270-a28e-07e325ae83c9","ios":"levelo://app?vid=afc91c81-7042-4270-a28e-07e325ae83c9"},"vehicle_type_id":"4","last_reported":1752898937,"current_range_meters":15200,"station_id":"st_cvj6sg6p6f1abm77japg","pricing_plan_id":"cebpf4jnsgd1na2vs0mg"},{"bike_id":"221a8f03-67cb-485b-8573-9abcf816d5d5","system_id":"levelo_inurba_marseille","lat":43.29868,"lon":5.39734,"is_reserved":false,"is_disabled":false,"rental_uris":{"android":"levelo://app?vid=221a8f03-67cb-485b-8573-9abcf816d5d5","ios":"levelo://app?vid=221a8f03-67cb-485b-8573-9abcf816d5d5"},"vehicle_type_id":"4","last_reported":1752898937,"current_range_meters":15200,"station_id":"","pricing_plan_id":"cebpf4jnsgd1na2vs0mg"},{"bike_id":"d5cf0ddb-4301-4e01-9253-a4393d968d0a","system_id":"levelo_inurba_marseille","lat":43.22514,"lon":5.34777,"is_reserved":false,"is_disabled":false,"rental_uris":{"android":"levelo://app?vid=d5cf0ddb-4301-4e01-9253-a4393d968d0a","ios":"levelo://app?vid=d5cf0ddb-4301-4e01-9253-a4393d968d0a"},"vehicle_type_id":"4","last_reported":1752898937,"current_range_meters":16000,"station_id":"st_cvj5dfep6f1abm77gieg","pricing_plan_id":"cebpf4jnsgd1na2vs0mg"},{"bike_id":"58d6c207-a20a-4ba1-b2e5-5a25118f1861","system_id":"levelo_inurba_marseille","lat":43.29566,"lon":5.37521,"is_reserved":false,"is_disabled":true,"rental_uris":{"android":"levelo://app?vid=58d6c207-a20a-4ba1-b2e5-5a25118f1861","ios":"levelo://app?vid=58d6c207-a20a-4ba1-b2e5-5a25118f1861"},"vehicle_type_id":"4","last_reported":1752898937,"current_range_meters":16000,"station_id":"ce4bgh92rcd13ifvqb50","pricing_plan_id":"cebpf4jnsgd1na2vs0mg"},{"bike_id":"11a10c3e-2518-452e-9534-fe8c7d8faf7f","system_id":"levelo_inurba_marseille","lat":43.24806,"lon":5.41179,"is_reserved":false,"is_disabled":false,"rental_uris":{"android":"levelo://app?vid=11a10c3e-2518-452e-9534-fe8c7d8faf7f","ios":"levelo://app?vid=11a10c3e-2518-452e-9534-fe8c7d8faf7f"},"vehicle_type_id":"4","last_reported":1752898937,"current_range_meters":16000,"station_id":"","pricing_plan_id":"cebpf4jnsgd1na2vs0mg"},{"bike_id":"9e944c0d-2dd7-4c1a-b131-d5121e0f348e","system_id":"levelo_inurba_marseille","lat":43.310708,"lon":5.383432,"is_reserved":false,"is_disabled":false,"rental_uris":{"android":"levelo://app?vid=9e944c0d-2dd7-4c1a-b131-d5121e0f348e","ios":"levelo://app?vid=9e944c0d-2dd7-4c1a-b131-d5121e0f348e"},"vehicle_type_id":"4","last_reported":1752898937,"current_range_meters":16000,"station_id":"ce4bgv92rcd13ifvqcr0","pricing_plan_id":"cebpf4jnsgd1na2vs0mg"},{"bike_id":"ab6c1c2d-c3a8-4a50-8537-c191d4400e5e","system_id":"levelo_inurba_marseille","lat":43.23156,"lon":5.43715,"is_reserved":false,"is_disabled":false,"rental_uris":{"android":"levelo://app?vid=ab6c1c2d-c3a8-4a50-8537-c191d4400e5e","ios":"levelo://app?vid=ab6c1c2d-c3a8-4a50-8537-c191d4400e5e"},"vehicle_type_id":"4","last_reported":1752898937,"current_range_meters":16000,"station_id":"ce4bhmp2rcd13ifvqgog","pricing_plan_id":"cebpf4jnsgd1na2vs0mg"},{"bike_id":"e7184304-2571-4324-a17d-f339f53cb33e","system_id":"levelo_inurba_marseille","lat":43.279409,"lon":5.410431,"is_reserved":false,"is_disabled":true,"rental_uris":{"android":"levelo://app?vid=e7184304-2571-4324-a17d-f339f53cb33e","ios":"levelo://app?vid=e7184304-2571-4324-a17d-f339f53cb33e"},"vehicle_type_id":"4","last_reported":1752898937,"current_range_meters":16000,"station_id":"ce4bhnp2rcd13ifvqh0g","pricing_plan_id":"cebpf4jnsgd1na2vs0mg"},{"bike_id":"f4d50b9f-67c5-4a4e-82cd-5fb34bc9ddef","system_id":"levelo_inurba_marseille","lat":43.254601,"lon":5.382108,"is_reserved":false,"is_disabled":false,"rental_uris":{"android":"levelo://app?vid=f4d50b9f-67c5-4a4e-82cd-5fb34bc9ddef","ios":"levelo://app?vid=f4d50b9f-67c5-4a4e-82cd-5fb34bc9ddef"},"vehicle_type_id":"4","last_reported":1752898937,"current_range_meters":16000,"station_id":"","pricing_plan_id":"cebpf4jnsgd1na2vs0mg"},{"bike_id":"b970126c-c1c3-439a-8880-44ad88bd90cf","system_id":"levelo_inurba_marseille","lat":43.32104,"lon":5.3676,"is_reserved":false,"is_disabled":false,"rental_uris":{"android":"levelo://app?vid=b970126c-c1c3-439a-8880-44ad88bd90cf","ios":"levelo://app?vid=b970126c-c1c3-439a-8880-44ad88bd90cf"},"vehicle_type_id":"4","last_reported":1752898937,"current_range_meters":16000,"station_id":"ce4bhrh2rcd13ifvqhug","pricing_plan_id":"cebpf4jnsgd1na2vs0mg"},{"bike_id":"cd5a9591-6e46-4776-8003-ff3824872e9f","system_id":"levelo_inurba_marseille","lat":43.29008,"lon":5.35603,"is_reserved":false,"is_disabled":true,"rental_uris":{"android":"levelo://app?vid=cd5a9591-6e46-4776-8003-ff3824872e9f","ios":"levelo://app?vid=cd5a9591-6e46-4776-8003-ff3824872e9f"},"vehicle_type_id":"4","last_reported":1752898937,"current_range_meters":16000,"station_id":"ce4bhb92rcd13ifvqen0","pricing_plan_id":"cebpf4jnsgd1na2vs0mg"},{"bike_id":"7360b2c1-827d-4a45-ba07-948ef7d2fc35","system_id":"levelo_inurba_marseille","lat":43.229295,"lon":5.353761,"is_reserved":false,"is_disabled":false,"rental_uris":{"android":"levelo://app?vid=7360b2c1-827d-4a45-ba07-948ef7d2fc35","ios":"levelo://app?vid=7360b2c1-827d-4a45-ba07-948ef7d2fc35"},"vehicle_type_id":"4","last_reported":1752898937,"current_range_meters":16000,"station_id":"","pricing_plan_id":"cebpf4jnsgd1na2vs0mg"},{"bike_id":"0e545f9b-dad9-43b0-aef2-7627db5ff989","system_id":"levelo_inurba_marseille","lat":43.28721,"lon":5.40004,"is_reserved":false,"is_disabled":false,"rental_uris":{"android":"levelo://app?vid=0e545f9b-dad9-43b0-aef2-7627db5ff989","ios":"levelo://app?vid=0e545f9b-dad9-43b0-aef2-7627db5ff989"},"vehicle_type_id":"4","last_reported":1752898937,"current_range_meters":16000,"station_id":"ce4bho92rcd13ifvqh3g","pricing_plan_id":"cebpf4jnsgd1na2vs0mg"},{"bike_id":"96579d04-b9e9-484c-9b9a-af500e5e8552","system_id":"levelo_inurba_marseille","lat":43.326793,"lon":5.363972,"is_reserved":false,"is_disabled":false,"rental_uris":{"android":"levelo://app?vid=96579d04-b9e9-484c-9b9a-af500e5e8552","ios":"levelo://app?vid=96579d04-b9e9-484c-9b9a-af500e5e8552"},"vehicle_type_id":"4","last_reported":1752898937,"current_range_meters":16000,"station_id":"","pricing_plan_id":"cebpf4jnsgd1na2vs0mg"},{"bike_id":"9eee562f-c74b-4c1a-8fa0-1792764207de","system_id":"levelo_inurba_marseille","lat":43.2549,"lon":5.37643,"is_reserved":false,"is_disabled":true,"rental_uris":{"android":"levelo://app?vid=9eee562f-c74b-4c1a-8fa0-1792764207de","ios":"levelo://app?vid=9eee562f-c74b-4c1a-8fa0-1792764207de"},"vehicle_type_id":"4","last_reported":1752898937,"current_range_meters":16400,"station_id":"ce4bhh12rcd13ifvqff0","pricing_plan_id":"cebpf4jnsgd1na2vs0mg"},{"bike_id":"859628bb-a028-4272-a625-b9ebc6757b53","system_id":"levelo_inurba_marseille","lat":43.28711,"lon":5.37348,"is_reserved":false,"is_disabled":false,"rental_uris":{"android":"levelo://app?vid=859628bb-a028-4272-a625-b9ebc6757b53","ios":"levelo://app?vid=859628bb-a028-4272-a625-b9ebc6757b53"},"vehicle_type_id":"4","last_reported":1752898937,"current_range_meters":16400,"station_id":"ce4bh3p2rcd13ifvqdq0","pricing_plan_id":"cebpf4jnsgd1na2vs0mg"},{"bike_id":"f9f7ee83-39ae-4757-8ebe-f558eef3800a","system_id":"levelo_inurba_marseille","lat":43.284639,"lon":5.358902,"is_reserved":false,"is_disabled":false,"rental_uris":{"android":"levelo://app?vid=f9f7ee83-39ae-4757-8ebe-f558eef3800a","ios":"levelo://app?vid=f9f7ee83-39ae-4757-8ebe-f558eef3800a"},"vehicle_type_id":"4","last_reported":1752898937,"current_range_meters":16400,"station_id":"ce4bhah2rcd13ifvqei0","pricing_plan_id":"cebpf4jnsgd1na2vs0mg"},{"bike_id":"225d66f8-fc28-4c84-a6a4-39026d9439ff","system_id":"levelo_inurba_marseille","lat":43.317,"lon":5.40458,"is_reserved":false,"is_disabled":false,"rental_uris":{"android":"levelo://app?vid=225d66f8-fc28-4c84-a6a4-39026d9439ff","ios":"levelo://app?vid=225d66f8-fc28-4c84-a6a4-39026d9439ff"},"vehicle_type_id":"4","last_reported":1752898937,"current_range_meters":16400,"station_id":"ce4bh012rcd13ifvqd00","pricing_plan_id":"cebpf4jnsgd1na2vs0mg"},{"bike_id":"cb7b541b-4aa0-476b-ac1b-c83b6acaa65d","system_id":"levelo_inurba_marseille","lat":43.24163,"lon":5.364049,"is_reserved":false,"is_disabled":false,"rental_uris":{"android":"levelo://app?vid=cb7b541b-4aa0-476b-ac1b-c83b6acaa65d","ios":"levelo://app?vid=cb7b541b-4aa0-476b-ac1b-c83b6acaa65d"},"vehicle_type_id":"4","last_reported":1752898937,"current_range_meters":16400,"station_id":"cpo36qri1sfpv3e86is0","pricing_plan_id":"cebpf4jnsgd1na2vs0mg"},{"bike_id":"6a157030-de0e-43bf-b121-1c326a6250da","system_id":"levelo_inurba_marseille","lat":43.30321,"lon":5.40441,"is_reserved":false,"is_disabled":false,"rental_uris":{"android":"levelo://app?vid=6a157030-de0e-43bf-b121-1c326a6250da","ios":"levelo://app?vid=6a157030-de0e-43bf-b121-1c326a6250da"},"vehicle_type_id":"4","last_reported":1752898937,"current_range_meters":16400,"station_id":"ce4bh012rcd13ifvqd10","pricing_plan_id":"cebpf4jnsgd1na2vs0mg"},{"bike_id":"2e73ca94-9293-404b-9207-03d0f48ea2b6","system_id":"levelo_inurba_marseille","lat":43.29882,"lon":5.39731,"is_reserved":false,"is_disabled":false,"rental_uris":{"android":"levelo://app?vid=2e73ca94-9293-404b-9207-03d0f48ea2b6","ios":"levelo://app?vid=2e73ca94-9293-404b-9207-03d0f48ea2b6"},"vehicle_type_id":"4","last_reported":1752898937,"current_range_meters":16400,"station_id":"ce4bh0h2rcd13ifvqd50","pricing_plan_id":"cebpf4jnsgd1na2vs0mg"},{"bike_id":"94384395-6746-44d0-8207-c06965f79dc0","system_id":"levelo_inurba_marseille","lat":43.33614,"lon":5.41007,"is_reserved":false,"is_disabled":false,"rental_uris":{"android":"levelo://app?vid=94384395-6746-44d0-8207-c06965f79dc0","ios":"levelo://app?vid=94384395-6746-44d0-8207-c06965f79dc0"},"vehicle_type_id":"4","last_reported":1752898937,"current_range_meters":16400,"station_id":"ce4bhqh2rcd13ifvqhmg","pricing_plan_id":"cebpf4jnsgd1na2vs0mg"},{"bike_id":"5de510b7-74a7-44d9-b827-3f81b08075ae","system_id":"levelo_inurba_marseille","lat":43.296255,"lon":5.406048,"is_reserved":false,"is_disabled":false,"rental_uris":{"android":"levelo://app?vid=5de510b7-74a7-44d9-b827-3f81b08075ae","ios":"levelo://app?vid=5de510b7-74a7-44d9-b827-3f81b08075ae"},"vehicle_type_id":"4","last_reported":1752898937,"current_range_meters":16400,"station_id":"ce4bh0h2rcd13ifvqd60","pricing_plan_id":"cebpf4jnsgd1na2vs0mg"},{"bike_id":"9a6b8bd4-5485-421b-a54c-77c37f2dcf0e","system_id":"levelo_inurba_marseille","lat":43.29532,"lon":5.38535,"is_reserved":false,"is_disabled":false,"rental_uris":{"android":"levelo://app?vid=9a6b8bd4-5485-421b-a54c-77c37f2dcf0e","ios":"levelo://app?vid=9a6b8bd4-5485-421b-a54c-77c37f2dcf0e"},"vehicle_type_id":"4","last_reported":1752898937,"current_range_meters":16800,"station_id":"ce4bgih2rcd13ifvqba0","pricing_plan_id":"cebpf4jnsgd1na2vs0mg"},{"bike_id":"6b0369e0-1a9c-45ab-b6d2-a03906c62531","system_id":"levelo_inurba_marseille","lat":43.25127,"lon":5.40318,"is_reserved":false,"is_disabled":false,"rental_uris":{"android":"levelo://app?vid=6b0369e0-1a9c-45ab-b6d2-a03906c62531","ios":"levelo://app?vid=6b0369e0-1a9c-45ab-b6d2-a03906c62531"},"vehicle_type_id":"4","last_reported":1752898937,"current_range_meters":16800,"station_id":"ce4bhlh2rcd13ifvqgig","pricing_plan_id":"cebpf4jnsgd1na2vs0mg"},{"bike_id":"18d3b0c1-124b-42ee-8e3b-c61a80a919e9","system_id":"levelo_inurba_marseille","lat":43.287004,"lon":5.399786,"is_reserved":false,"is_disabled":false,"rental_uris":{"android":"levelo://app?vid=18d3b0c1-124b-42ee-8e3b-c61a80a919e9","ios":"levelo://app?vid=18d3b0c1-124b-42ee-8e3b-c61a80a919e9"},"vehicle_type_id":"4","last_reported":1752898937,"current_range_meters":16800,"station_id":"ce4bho92rcd13ifvqh3g","pricing_plan_id":"cebpf4jnsgd1na2vs0mg"},{"bike_id":"fdbeb289-adb3-4e25-b0dd-c635efbe92b2","system_id":"levelo_inurba_marseille","lat":43.31686,"lon":5.40444,"is_reserved":false,"is_disabled":false,"rental_uris":{"android":"levelo://app?vid=fdbeb289-adb3-4e25-b0dd-c635efbe92b2","ios":"levelo://app?vid=fdbeb289-adb3-4e25-b0dd-c635efbe92b2"},"vehicle_type_id":"4","last_reported":1752898937,"current_range_meters":16800,"station_id":"ce4bh012rcd13ifvqd00","pricing_plan_id":"cebpf4jnsgd1na2vs0mg"},{"bike_id":"d2d2016d-4dcc-4d79-a96f-162002d57e1b","system_id":"levelo_inurba_marseille","lat":43.29616,"lon":5.40602,"is_reserved":false,"is_disabled":false,"rental_uris":{"android":"levelo://app?vid=d2d2016d-4dcc-4d79-a96f-162002d57e1b","ios":"levelo://app?vid=d2d2016d-4dcc-4d79-a96f-162002d57e1b"},"vehicle_type_id":"4","last_reported":1752898937,"current_range_meters":16800,"station_id":"ce4bh0h2rcd13ifvqd60","pricing_plan_id":"cebpf4jnsgd1na2vs0mg"},{"bike_id":"d1e9c72e-7489-4052-b944-813b64bc55b4","system_id":"levelo_inurba_marseille","lat":43.31602,"lon":5.3899,"is_reserved":false,"is_disabled":false,"rental_uris":{"android":"levelo://app?vid=d1e9c72e-7489-4052-b944-813b64bc55b4","ios":"levelo://app?vid=d1e9c72e-7489-4052-b944-813b64bc55b4"},"vehicle_type_id":"4","last_reported":1752898937,"current_range_meters":16800,"station_id":"","pricing_plan_id":"cebpf4jnsgd1na2vs0mg"},{"bike_id":"9eb19af1-3ac3-436d-805d-794abdcba832","system_id":"levelo_inurba_marseille","lat":43.231924,"lon":5.355458,"is_reserved":false,"is_disabled":false,"rental_uris":{"android":"levelo://app?vid=9eb19af1-3ac3-436d-805d-794abdcba832","ios":"levelo://app?vid=9eb19af1-3ac3-436d-805d-794abdcba832"},"vehicle_type_id":"4","last_reported":1752898937,"current_range_meters":17200,"station_id":"ce4bhu92rcd13ifvqi70","pricing_plan_id":"cebpf4jnsgd1na2vs0mg"},{"bike_id":"0de05b34-904d-47c0-8357-10e20dcf4a73","system_id":"levelo_inurba_marseille","lat":43.30642,"lon":5.40077,"is_reserved":false,"is_disabled":false,"rental_uris":{"android":"levelo://app?vid=0de05b34-904d-47c0-8357-10e20dcf4a73","ios":"levelo://app?vid=0de05b34-904d-47c0-8357-10e20dcf4a73"},"vehicle_type_id":"4","last_reported":1752898937,"current_range_meters":17200,"station_id":"ce4bh112rcd13ifvqda0","pricing_plan_id":"cebpf4jnsgd1na2vs0mg"},{"bike_id":"a54008a8-d6df-4141-9c71-b657434298fc","system_id":"levelo_inurba_marseille","lat":43.31705,"lon":5.40462,"is_reserved":false,"is_disabled":false,"rental_uris":{"android":"levelo://app?vid=a54008a8-d6df-4141-9c71-b657434298fc","ios":"levelo://app?vid=a54008a8-d6df-4141-9c71-b657434298fc"},"vehicle_type_id":"4","last_reported":1752898937,"current_range_meters":17200,"station_id":"ce4bh012rcd13ifvqd00","pricing_plan_id":"cebpf4jnsgd1na2vs0mg"},{"bike_id":"bde5442b-2fd8-41b7-bd46-e8f10eead3f0","system_id":"levelo_inurba_marseille","lat":43.32335,"lon":5.40614,"is_reserved":false,"is_disabled":false,"rental_uris":{"android":"levelo://app?vid=bde5442b-2fd8-41b7-bd46-e8f10eead3f0","ios":"levelo://app?vid=bde5442b-2fd8-41b7-bd46-e8f10eead3f0"},"vehicle_type_id":"4","last_reported":1752898937,"current_range_meters":17200,"station_id":"ce4bhq92rcd13ifvqhjg","pricing_plan_id":"cebpf4jnsgd1na2vs0mg"},{"bike_id":"56be4ab9-5e92-449c-8994-c42709f936d2","system_id":"levelo_inurba_marseille","lat":43.27067,"lon":5.40251,"is_reserved":false,"is_disabled":false,"rental_uris":{"android":"levelo://app?vid=56be4ab9-5e92-449c-8994-c42709f936d2","ios":"levelo://app?vid=56be4ab9-5e92-449c-8994-c42709f936d2"},"vehicle_type_id":"4","last_reported":1752898937,"current_range_meters":17200,"station_id":"ce4bhk92rcd13ifvqgc0","pricing_plan_id":"cebpf4jnsgd1na2vs0mg"},{"bike_id":"83554a23-a358-4883-a715-c909e7b9d241","system_id":"levelo_inurba_marseille","lat":43.28488,"lon":5.38541,"is_reserved":false,"is_disabled":false,"rental_uris":{"android":"levelo://app?vid=83554a23-a358-4883-a715-c909e7b9d241","ios":"levelo://app?vid=83554a23-a358-4883-a715-c909e7b9d241"},"vehicle_type_id":"4","last_reported":1752898937,"current_range_meters":17200,"station_id":"ce4bh8p2rcd13ifvqeb0","pricing_plan_id":"cebpf4jnsgd1na2vs0mg"},{"bike_id":"ae514fe1-85ea-4b12-b065-9e5a24663928","system_id":"levelo_inurba_marseille","lat":43.21198,"lon":5.3505,"is_reserved":false,"is_disabled":false,"rental_uris":{"android":"levelo://app?vid=ae514fe1-85ea-4b12-b065-9e5a24663928","ios":"levelo://app?vid=ae514fe1-85ea-4b12-b065-9e5a24663928"},"vehicle_type_id":"4","last_reported":1752898937,"current_range_meters":17200,"station_id":"st_cvj6sg6p6f1abm77japg","pricing_plan_id":"cebpf4jnsgd1na2vs0mg"},{"bike_id":"9c914893-87e7-4e0e-b3e8-ed82f95c7685","system_id":"levelo_inurba_marseille","lat":43.23161,"lon":5.43703,"is_reserved":false,"is_disabled":false,"rental_uris":{"android":"levelo://app?vid=9c914893-87e7-4e0e-b3e8-ed82f95c7685","ios":"levelo://app?vid=9c914893-87e7-4e0e-b3e8-ed82f95c7685"},"vehicle_type_id":"4","last_reported":1752898937,"current_range_meters":17200,"station_id":"ce4bhmp2rcd13ifvqgog","pricing_plan_id":"cebpf4jnsgd1na2vs0mg"},{"bike_id":"b22b912d-c2aa-4638-b821-9588263e410c","system_id":"levelo_inurba_marseille","lat":43.323644,"lon":5.388926,"is_reserved":false,"is_disabled":false,"rental_uris":{"android":"levelo://app?vid=b22b912d-c2aa-4638-b821-9588263e410c","ios":"levelo://app?vid=b22b912d-c2aa-4638-b821-9588263e410c"},"vehicle_type_id":"4","last_reported":1752898937,"current_range_meters":17200,"station_id":"ce4bhqp2rcd13ifvqhog","pricing_plan_id":"cebpf4jnsgd1na2vs0mg"},{"bike_id":"d421927e-7ddd-40a0-904f-5b4ff0266a72","system_id":"levelo_inurba_marseille","lat":43.31867,"lon":5.4017,"is_reserved":false,"is_disabled":false,"rental_uris":{"android":"levelo://app?vid=d421927e-7ddd-40a0-904f-5b4ff0266a72","ios":"levelo://app?vid=d421927e-7ddd-40a0-904f-5b4ff0266a72"},"vehicle_type_id":"4","last_reported":1752898937,"current_range_meters":17600,"station_id":"","pricing_plan_id":"cebpf4jnsgd1na2vs0mg"},{"bike_id":"45dea0eb-918d-49f1-8341-001e35c226f0","system_id":"levelo_inurba_marseille","lat":43.21189,"lon":5.35085,"is_reserved":false,"is_disabled":false,"rental_uris":{"android":"levelo://app?vid=45dea0eb-918d-49f1-8341-001e35c226f0","ios":"levelo://app?vid=45dea0eb-918d-49f1-8341-001e35c226f0"},"vehicle_type_id":"4","last_reported":1752898937,"current_range_meters":17600,"station_id":"st_cvj6sg6p6f1abm77japg","pricing_plan_id":"cebpf4jnsgd1na2vs0mg"},{"bike_id":"dfa94b84-ac88-4a7a-be31-a75037d5303f","system_id":"levelo_inurba_marseille","lat":43.28665,"lon":5.40018,"is_reserved":false,"is_disabled":false,"rental_uris":{"android":"levelo://app?vid=dfa94b84-ac88-4a7a-be31-a75037d5303f","ios":"levelo://app?vid=dfa94b84-ac88-4a7a-be31-a75037d5303f"},"vehicle_type_id":"4","last_reported":1752898937,"current_range_meters":17600,"station_id":"","pricing_plan_id":"cebpf4jnsgd1na2vs0mg"},{"bike_id":"629769f2-97d8-4abd-b69d-8a93a126ec0a","system_id":"levelo_inurba_marseille","lat":43.30122,"lon":5.38079,"is_reserved":false,"is_disabled":false,"rental_uris":{"android":"levelo://app?vid=629769f2-97d8-4abd-b69d-8a93a126ec0a","ios":"levelo://app?vid=629769f2-97d8-4abd-b69d-8a93a126ec0a"},"vehicle_type_id":"4","last_reported":1752898937,"current_range_meters":17600,"station_id":"ce4bgjp2rcd13ifvqbh0","pricing_plan_id":"cebpf4jnsgd1na2vs0mg"},{"bike_id":"19294ff6-3995-4603-9d99-733afb04fb97","system_id":"levelo_inurba_marseille","lat":43.243934,"lon":5.370696,"is_reserved":false,"is_disabled":false,"rental_uris":{"android":"levelo://app?vid=19294ff6-3995-4603-9d99-733afb04fb97","ios":"levelo://app?vid=19294ff6-3995-4603-9d99-733afb04fb97"},"vehicle_type_id":"4","last_reported":1752898937,"current_range_meters":17600,"station_id":"ce4bhhh2rcd13ifvqfk0","pricing_plan_id":"cebpf4jnsgd1na2vs0mg"},{"bike_id":"44e89ad7-16a2-4910-805f-061f2aee5ab7","system_id":"levelo_inurba_marseille","lat":43.23189,"lon":5.35548,"is_reserved":false,"is_disabled":false,"rental_uris":{"android":"levelo://app?vid=44e89ad7-16a2-4910-805f-061f2aee5ab7","ios":"levelo://app?vid=44e89ad7-16a2-4910-805f-061f2aee5ab7"},"vehicle_type_id":"4","last_reported":1752898937,"current_range_meters":17600,"station_id":"ce4bhu92rcd13ifvqi70","pricing_plan_id":"cebpf4jnsgd1na2vs0mg"},{"bike_id":"c563397a-8e95-43de-9482-c447bf9c775e","system_id":"levelo_inurba_marseille","lat":43.293257,"lon":5.41168,"is_reserved":false,"is_disabled":false,"rental_uris":{"android":"levelo://app?vid=c563397a-8e95-43de-9482-c447bf9c775e","ios":"levelo://app?vid=c563397a-8e95-43de-9482-c447bf9c775e"},"vehicle_type_id":"4","last_reported":1752898937,"current_range_meters":17600,"station_id":"","pricing_plan_id":"cebpf4jnsgd1na2vs0mg"},{"bike_id":"3b8fa8a7-26fc-4aab-bee1-b8a56cdc1d43","system_id":"levelo_inurba_marseille","lat":43.286967,"lon":5.399785,"is_reserved":false,"is_disabled":true,"rental_uris":{"android":"levelo://app?vid=3b8fa8a7-26fc-4aab-bee1-b8a56cdc1d43","ios":"levelo://app?vid=3b8fa8a7-26fc-4aab-bee1-b8a56cdc1d43"},"vehicle_type_id":"4","last_reported":1752898937,"current_range_meters":17600,"station_id":"ce4bho92rcd13ifvqh3g","pricing_plan_id":"cebpf4jnsgd1na2vs0mg"},{"bike_id":"9f00b516-2e6c-49ff-b45a-2a85d3e69abf","system_id":"levelo_inurba_marseille","lat":43.29247,"lon":5.39168,"is_reserved":false,"is_disabled":false,"rental_uris":{"android":"levelo://app?vid=9f00b516-2e6c-49ff-b45a-2a85d3e69abf","ios":"levelo://app?vid=9f00b516-2e6c-49ff-b45a-2a85d3e69abf"},"vehicle_type_id":"4","last_reported":1752898937,"current_range_meters":18000,"station_id":"","pricing_plan_id":"cebpf4jnsgd1na2vs0mg"},{"bike_id":"ce2d33c7-f5ba-4c86-93e2-74fe4592b5f8","system_id":"levelo_inurba_marseille","lat":43.269383,"lon":5.402546,"is_reserved":false,"is_disabled":false,"rental_uris":{"android":"levelo://app?vid=ce2d33c7-f5ba-4c86-93e2-74fe4592b5f8","ios":"levelo://app?vid=ce2d33c7-f5ba-4c86-93e2-74fe4592b5f8"},"vehicle_type_id":"4","last_reported":1752898937,"current_range_meters":18000,"station_id":"cjm6bp8fraef2m0cb0m0","pricing_plan_id":"cebpf4jnsgd1na2vs0mg"},{"bike_id":"4a2af6fb-f040-4dff-9ff5-d70c4f952e83","system_id":"levelo_inurba_marseille","lat":43.31521,"lon":5.37299,"is_reserved":false,"is_disabled":true,"rental_uris":{"android":"levelo://app?vid=4a2af6fb-f040-4dff-9ff5-d70c4f952e83","ios":"levelo://app?vid=4a2af6fb-f040-4dff-9ff5-d70c4f952e83"},"vehicle_type_id":"4","last_reported":1752898937,"current_range_meters":18000,"station_id":"ce4bgt12rcd13ifvqcd0","pricing_plan_id":"cebpf4jnsgd1na2vs0mg"},{"bike_id":"1395c1ac-1ba2-4275-b0af-e1bef6f8f9e2","system_id":"levelo_inurba_marseille","lat":43.29524,"lon":5.3904,"is_reserved":false,"is_disabled":false,"rental_uris":{"android":"levelo://app?vid=1395c1ac-1ba2-4275-b0af-e1bef6f8f9e2","ios":"levelo://app?vid=1395c1ac-1ba2-4275-b0af-e1bef6f8f9e2"},"vehicle_type_id":"4","last_reported":1752898937,"current_range_meters":17600,"station_id":"ce4bh3p2rcd13ifvqdp0","pricing_plan_id":"cebpf4jnsgd1na2vs0mg"},{"bike_id":"25c61d91-92f9-47bc-ba2a-34ec5d0a2e05","system_id":"levelo_inurba_marseille","lat":43.22931,"lon":5.35371,"is_reserved":false,"is_disabled":false,"rental_uris":{"android":"levelo://app?vid=25c61d91-92f9-47bc-ba2a-34ec5d0a2e05","ios":"levelo://app?vid=25c61d91-92f9-47bc-ba2a-34ec5d0a2e05"},"vehicle_type_id":"4","last_reported":1752898937,"current_range_meters":18000,"station_id":"cpo3532slgdg3j2ikp40","pricing_plan_id":"cebpf4jnsgd1na2vs0mg"},{"bike_id":"733c402f-6bbd-4ff7-9cc1-681ba0e2f489","system_id":"levelo_inurba_marseille","lat":43.330274,"lon":5.390336,"is_reserved":false,"is_disabled":false,"rental_uris":{"android":"levelo://app?vid=733c402f-6bbd-4ff7-9cc1-681ba0e2f489","ios":"levelo://app?vid=733c402f-6bbd-4ff7-9cc1-681ba0e2f489"},"vehicle_type_id":"4","last_reported":1752898937,"current_range_meters":18000,"station_id":"ce4bhr92rcd13ifvqhrg","pricing_plan_id":"cebpf4jnsgd1na2vs0mg"},{"bike_id":"783cc84a-a041-4bdd-8002-c343b62c1731","system_id":"levelo_inurba_marseille","lat":43.292285,"lon":5.360555,"is_reserved":false,"is_disabled":true,"rental_uris":{"android":"levelo://app?vid=783cc84a-a041-4bdd-8002-c343b62c1731","ios":"levelo://app?vid=783cc84a-a041-4bdd-8002-c343b62c1731"},"vehicle_type_id":"4","last_reported":1752898937,"current_range_meters":18000,"station_id":"ce4bhbh2rcd13ifvqeqg","pricing_plan_id":"cebpf4jnsgd1na2vs0mg"},{"bike_id":"476b9d68-b82a-49d6-b328-73fe9b3366ca","system_id":"levelo_inurba_marseille","lat":43.26224,"lon":5.4046,"is_reserved":false,"is_disabled":false,"rental_uris":{"android":"levelo://app?vid=476b9d68-b82a-49d6-b328-73fe9b3366ca","ios":"levelo://app?vid=476b9d68-b82a-49d6-b328-73fe9b3366ca"},"vehicle_type_id":"4","last_reported":1752898937,"current_range_meters":18000,"station_id":"ce4bhmh2rcd13ifvqgmg","pricing_plan_id":"cebpf4jnsgd1na2vs0mg"},{"bike_id":"5a570911-22d0-41b1-a776-0fe138c4bdc4","system_id":"levelo_inurba_marseille","lat":43.211912,"lon":5.350734,"is_reserved":false,"is_disabled":false,"rental_uris":{"android":"levelo://app?vid=5a570911-22d0-41b1-a776-0fe138c4bdc4","ios":"levelo://app?vid=5a570911-22d0-41b1-a776-0fe138c4bdc4"},"vehicle_type_id":"4","last_reported":1752898937,"current_range_meters":18000,"station_id":"st_cvj6sg6p6f1abm77japg","pricing_plan_id":"cebpf4jnsgd1na2vs0mg"},{"bike_id":"7592d3b0-727d-4107-ba81-a2966cdc2b34","system_id":"levelo_inurba_marseille","lat":43.26227,"lon":5.40453,"is_reserved":false,"is_disabled":false,"rental_uris":{"android":"levelo://app?vid=7592d3b0-727d-4107-ba81-a2966cdc2b34","ios":"levelo://app?vid=7592d3b0-727d-4107-ba81-a2966cdc2b34"},"vehicle_type_id":"4","last_reported":1752898937,"current_range_meters":18000,"station_id":"ce4bhmh2rcd13ifvqgmg","pricing_plan_id":"cebpf4jnsgd1na2vs0mg"},{"bike_id":"f64d4495-c6c3-4047-b421-2e9c29951567","system_id":"levelo_inurba_marseille","lat":43.22504,"lon":5.34777,"is_reserved":false,"is_disabled":false,"rental_uris":{"android":"levelo://app?vid=f64d4495-c6c3-4047-b421-2e9c29951567","ios":"levelo://app?vid=f64d4495-c6c3-4047-b421-2e9c29951567"},"vehicle_type_id":"4","last_reported":1752898937,"current_range_meters":18800,"station_id":"st_cvj5dfep6f1abm77gieg","pricing_plan_id":"cebpf4jnsgd1na2vs0mg"},{"bike_id":"0ac9b427-819d-4139-8162-77866abdf07d","system_id":"levelo_inurba_marseille","lat":43.24642,"lon":5.3889,"is_reserved":false,"is_disabled":false,"rental_uris":{"android":"levelo://app?vid=0ac9b427-819d-4139-8162-77866abdf07d","ios":"levelo://app?vid=0ac9b427-819d-4139-8162-77866abdf07d"},"vehicle_type_id":"4","last_reported":1752898937,"current_range_meters":18800,"station_id":"ce4bhg12rcd13ifvqf60","pricing_plan_id":"cebpf4jnsgd1na2vs0mg"},{"bike_id":"2060869b-d87e-4c30-8864-6b1d75522919","system_id":"levelo_inurba_marseille","lat":43.29903,"lon":5.43676,"is_reserved":false,"is_disabled":false,"rental_uris":{"android":"levelo://app?vid=2060869b-d87e-4c30-8864-6b1d75522919","ios":"levelo://app?vid=2060869b-d87e-4c30-8864-6b1d75522919"},"vehicle_type_id":"4","last_reported":1752898937,"current_range_meters":18800,"station_id":"ce4bhpp2rcd13ifvqhfg","pricing_plan_id":"cebpf4jnsgd1na2vs0mg"},{"bike_id":"948cc778-4b52-43d4-bd05-9525cc0c3471","system_id":"levelo_inurba_marseille","lat":43.280987,"lon":5.39304,"is_reserved":false,"is_disabled":false,"rental_uris":{"android":"levelo://app?vid=948cc778-4b52-43d4-bd05-9525cc0c3471","ios":"levelo://app?vid=948cc778-4b52-43d4-bd05-9525cc0c3471"},"vehicle_type_id":"4","last_reported":1752898937,"current_range_meters":18800,"station_id":"","pricing_plan_id":"cebpf4jnsgd1na2vs0mg"},{"bike_id":"b2d8de19-5228-47c5-a04d-d8664c46de68","system_id":"levelo_inurba_marseille","lat":43.22929,"lon":5.35362,"is_reserved":false,"is_disabled":false,"rental_uris":{"android":"levelo://app?vid=b2d8de19-5228-47c5-a04d-d8664c46de68","ios":"levelo://app?vid=b2d8de19-5228-47c5-a04d-d8664c46de68"},"vehicle_type_id":"4","last_reported":1752898937,"current_range_meters":18800,"station_id":"cpo3532slgdg3j2ikp40","pricing_plan_id":"cebpf4jnsgd1na2vs0mg"},{"bike_id":"636add70-8724-48bf-aad9-09ddc751df36","system_id":"levelo_inurba_marseille","lat":43.22924,"lon":5.35397,"is_reserved":false,"is_disabled":false,"rental_uris":{"android":"levelo://app?vid=636add70-8724-48bf-aad9-09ddc751df36","ios":"levelo://app?vid=636add70-8724-48bf-aad9-09ddc751df36"},"vehicle_type_id":"4","last_reported":1752898937,"current_range_meters":18800,"station_id":"cpo3532slgdg3j2ikp40","pricing_plan_id":"cebpf4jnsgd1na2vs0mg"},{"bike_id":"2c77e1be-20d4-428a-b875-bc5d532780db","system_id":"levelo_inurba_marseille","lat":43.29,"lon":5.356145,"is_reserved":false,"is_disabled":true,"rental_uris":{"android":"levelo://app?vid=2c77e1be-20d4-428a-b875-bc5d532780db","ios":"levelo://app?vid=2c77e1be-20d4-428a-b875-bc5d532780db"},"vehicle_type_id":"4","last_reported":1752898937,"current_range_meters":18800,"station_id":"ce4bhb92rcd13ifvqen0","pricing_plan_id":"cebpf4jnsgd1na2vs0mg"},{"bike_id":"df313315-10f7-4c3a-bc0c-4354c58a0f51","system_id":"levelo_inurba_marseille","lat":43.28614,"lon":5.35103,"is_reserved":false,"is_disabled":false,"rental_uris":{"android":"levelo://app?vid=df313315-10f7-4c3a-bc0c-4354c58a0f51","ios":"levelo://app?vid=df313315-10f7-4c3a-bc0c-4354c58a0f51"},"vehicle_type_id":"4","last_reported":1752898937,"current_range_meters":18800,"station_id":"ce4bhch2rcd13ifvqeug","pricing_plan_id":"cebpf4jnsgd1na2vs0mg"},{"bike_id":"ea37c249-bc61-4eea-862b-e2e11472cda2","system_id":"levelo_inurba_marseille","lat":43.29282,"lon":5.3684,"is_reserved":false,"is_disabled":true,"rental_uris":{"android":"levelo://app?vid=ea37c249-bc61-4eea-862b-e2e11472cda2","ios":"levelo://app?vid=ea37c249-bc61-4eea-862b-e2e11472cda2"},"vehicle_type_id":"4","last_reported":1752898937,"current_range_meters":18800,"station_id":"ce4bhbp2rcd13ifvqesg","pricing_plan_id":"cebpf4jnsgd1na2vs0mg"},{"bike_id":"708d473d-3a18-4b3a-a8bf-b63e8155b71f","system_id":"levelo_inurba_marseille","lat":43.25112,"lon":5.40318,"is_reserved":false,"is_disabled":false,"rental_uris":{"android":"levelo://app?vid=708d473d-3a18-4b3a-a8bf-b63e8155b71f","ios":"levelo://app?vid=708d473d-3a18-4b3a-a8bf-b63e8155b71f"},"vehicle_type_id":"4","last_reported":1752898937,"current_range_meters":19200,"station_id":"ce4bhlh2rcd13ifvqgig","pricing_plan_id":"cebpf4jnsgd1na2vs0mg"},{"bike_id":"f734d1ab-e95f-49df-a640-db407264fdd1","system_id":"levelo_inurba_marseille","lat":43.29549,"lon":5.37478,"is_reserved":false,"is_disabled":true,"rental_uris":{"android":"levelo://app?vid=f734d1ab-e95f-49df-a640-db407264fdd1","ios":"levelo://app?vid=f734d1ab-e95f-49df-a640-db407264fdd1"},"vehicle_type_id":"4","last_reported":1752898937,"current_range_meters":19200,"station_id":"ce4bgkp2rcd13ifvqbmg","pricing_plan_id":"cebpf4jnsgd1na2vs0mg"},{"bike_id":"23fbf447-5ce5-4454-b58d-69c932099f2c","system_id":"levelo_inurba_marseille","lat":43.27046,"lon":5.40268,"is_reserved":false,"is_disabled":true,"rental_uris":{"android":"levelo://app?vid=23fbf447-5ce5-4454-b58d-69c932099f2c","ios":"levelo://app?vid=23fbf447-5ce5-4454-b58d-69c932099f2c"},"vehicle_type_id":"4","last_reported":1752898937,"current_range_meters":19200,"station_id":"ce4bhk92rcd13ifvqgc0","pricing_plan_id":"cebpf4jnsgd1na2vs0mg"},{"bike_id":"c27e27c1-46a1-4897-babc-4d201062abd5","system_id":"levelo_inurba_marseille","lat":43.231932,"lon":5.399884,"is_reserved":false,"is_disabled":false,"rental_uris":{"android":"levelo://app?vid=c27e27c1-46a1-4897-babc-4d201062abd5","ios":"levelo://app?vid=c27e27c1-46a1-4897-babc-4d201062abd5"},"vehicle_type_id":"4","last_reported":1752898937,"current_range_meters":19200,"station_id":"ce4bhn12rcd13ifvqgqg","pricing_plan_id":"cebpf4jnsgd1na2vs0mg"},{"bike_id":"e92263ed-3bc3-411f-8f4c-27ac84923f85","system_id":"levelo_inurba_marseille","lat":43.27062,"lon":5.4024,"is_reserved":false,"is_disabled":false,"rental_uris":{"android":"levelo://app?vid=e92263ed-3bc3-411f-8f4c-27ac84923f85","ios":"levelo://app?vid=e92263ed-3bc3-411f-8f4c-27ac84923f85"},"vehicle_type_id":"4","last_reported":1752898937,"current_range_meters":19200,"station_id":"ce4bhk92rcd13ifvqgc0","pricing_plan_id":"cebpf4jnsgd1na2vs0mg"},{"bike_id":"30bcf5a2-54ff-4a2c-8c02-bb341edfaa7c","system_id":"levelo_inurba_marseille","lat":43.25501,"lon":5.37644,"is_reserved":false,"is_disabled":true,"rental_uris":{"android":"levelo://app?vid=30bcf5a2-54ff-4a2c-8c02-bb341edfaa7c","ios":"levelo://app?vid=30bcf5a2-54ff-4a2c-8c02-bb341edfaa7c"},"vehicle_type_id":"4","last_reported":1752898937,"current_range_meters":19200,"station_id":"ce4bhh12rcd13ifvqff0","pricing_plan_id":"cebpf4jnsgd1na2vs0mg"},{"bike_id":"ea3d95ea-8a46-4756-8124-0ff791fd1160","system_id":"levelo_inurba_marseille","lat":43.305804,"lon":5.393387,"is_reserved":false,"is_disabled":false,"rental_uris":{"android":"levelo://app?vid=ea3d95ea-8a46-4756-8124-0ff791fd1160","ios":"levelo://app?vid=ea3d95ea-8a46-4756-8124-0ff791fd1160"},"vehicle_type_id":"4","last_reported":1752898937,"current_range_meters":19600,"station_id":"ce4bh0p2rcd13ifvqd80","pricing_plan_id":"cebpf4jnsgd1na2vs0mg"},{"bike_id":"5a3e87eb-bda4-4404-995f-7cc15a264fb9","system_id":"levelo_inurba_marseille","lat":43.306766,"lon":5.400744,"is_reserved":false,"is_disabled":false,"rental_uris":{"android":"levelo://app?vid=5a3e87eb-bda4-4404-995f-7cc15a264fb9","ios":"levelo://app?vid=5a3e87eb-bda4-4404-995f-7cc15a264fb9"},"vehicle_type_id":"4","last_reported":1752898937,"current_range_meters":19600,"station_id":"ce4bh112rcd13ifvqda0","pricing_plan_id":"cebpf4jnsgd1na2vs0mg"},{"bike_id":"b4ff73bc-df06-424d-a37d-4be9da7c8d2b","system_id":"levelo_inurba_marseille","lat":43.31073,"lon":5.38357,"is_reserved":false,"is_disabled":false,"rental_uris":{"android":"levelo://app?vid=b4ff73bc-df06-424d-a37d-4be9da7c8d2b","ios":"levelo://app?vid=b4ff73bc-df06-424d-a37d-4be9da7c8d2b"},"vehicle_type_id":"4","last_reported":1752898937,"current_range_meters":19600,"station_id":"ce4bgv92rcd13ifvqcr0","pricing_plan_id":"cebpf4jnsgd1na2vs0mg"},{"bike_id":"c9e13ae8-81d2-45a5-adef-f1b61a66153b","system_id":"levelo_inurba_marseille","lat":43.23963,"lon":5.36618,"is_reserved":false,"is_disabled":false,"rental_uris":{"android":"levelo://app?vid=c9e13ae8-81d2-45a5-adef-f1b61a66153b","ios":"levelo://app?vid=c9e13ae8-81d2-45a5-adef-f1b61a66153b"},"vehicle_type_id":"4","last_reported":1752898937,"current_range_meters":19600,"station_id":"ce4bhi12rcd13ifvqfp0","pricing_plan_id":"cebpf4jnsgd1na2vs0mg"},{"bike_id":"def684fe-5ae6-4eaf-af4f-a8755d3dab4f","system_id":"levelo_inurba_marseille","lat":43.284718,"lon":5.384179,"is_reserved":false,"is_disabled":false,"rental_uris":{"android":"levelo://app?vid=def684fe-5ae6-4eaf-af4f-a8755d3dab4f","ios":"levelo://app?vid=def684fe-5ae6-4eaf-af4f-a8755d3dab4f"},"vehicle_type_id":"4","last_reported":1752898937,"current_range_meters":19600,"station_id":"","pricing_plan_id":"cebpf4jnsgd1na2vs0mg"},{"bike_id":"17d492b2-89e7-447f-beac-a46026873d6a","system_id":"levelo_inurba_marseille","lat":43.28403,"lon":5.37525,"is_reserved":false,"is_disabled":false,"rental_uris":{"android":"levelo://app?vid=17d492b2-89e7-447f-beac-a46026873d6a","ios":"levelo://app?vid=17d492b2-89e7-447f-beac-a46026873d6a"},"vehicle_type_id":"4","last_reported":1752898937,"current_range_meters":19200,"station_id":"ce4bh412rcd13ifvqds0","pricing_plan_id":"cebpf4jnsgd1na2vs0mg"},{"bike_id":"b5fcc541-ec24-42be-b3fc-b9f250116949","system_id":"levelo_inurba_marseille","lat":43.284196,"lon":5.349899,"is_reserved":false,"is_disabled":true,"rental_uris":{"android":"levelo://app?vid=b5fcc541-ec24-42be-b3fc-b9f250116949","ios":"levelo://app?vid=b5fcc541-ec24-42be-b3fc-b9f250116949"},"vehicle_type_id":"4","last_reported":1752898937,"current_range_meters":19600,"station_id":"ce4bhbh2rcd13ifvqepg","pricing_plan_id":"cebpf4jnsgd1na2vs0mg"},{"bike_id":"95b5bcfa-54af-48c0-bd18-8f73f959ce2b","system_id":"levelo_inurba_marseille","lat":43.31935,"lon":5.37313,"is_reserved":false,"is_disabled":false,"rental_uris":{"android":"levelo://app?vid=95b5bcfa-54af-48c0-bd18-8f73f959ce2b","ios":"levelo://app?vid=95b5bcfa-54af-48c0-bd18-8f73f959ce2b"},"vehicle_type_id":"4","last_reported":1752898937,"current_range_meters":19600,"station_id":"","pricing_plan_id":"cebpf4jnsgd1na2vs0mg"},{"bike_id":"7501a2db-f384-42b6-96fb-cc2002fa8c14","system_id":"levelo_inurba_marseille","lat":43.29023,"lon":5.3753,"is_reserved":false,"is_disabled":true,"rental_uris":{"android":"levelo://app?vid=7501a2db-f384-42b6-96fb-cc2002fa8c14","ios":"levelo://app?vid=7501a2db-f384-42b6-96fb-cc2002fa8c14"},"vehicle_type_id":"4","last_reported":1752898937,"current_range_meters":20000,"station_id":"ce4bh692rcd13ifvqe90","pricing_plan_id":"cebpf4jnsgd1na2vs0mg"},{"bike_id":"81eb13de-7865-4c9c-8e88-d3f1494ca167","system_id":"levelo_inurba_marseille","lat":43.291912,"lon":5.393165,"is_reserved":false,"is_disabled":false,"rental_uris":{"android":"levelo://app?vid=81eb13de-7865-4c9c-8e88-d3f1494ca167","ios":"levelo://app?vid=81eb13de-7865-4c9c-8e88-d3f1494ca167"},"vehicle_type_id":"4","last_reported":1752898937,"current_range_meters":20000,"station_id":"ce4bh192rcd13ifvqdd0","pricing_plan_id":"cebpf4jnsgd1na2vs0mg"},{"bike_id":"b4a55f75-dfdd-41e1-96e1-43e7b52255da","system_id":"levelo_inurba_marseille","lat":43.253516,"lon":5.380929,"is_reserved":false,"is_disabled":false,"rental_uris":{"android":"levelo://app?vid=b4a55f75-dfdd-41e1-96e1-43e7b52255da","ios":"levelo://app?vid=b4a55f75-dfdd-41e1-96e1-43e7b52255da"},"vehicle_type_id":"4","last_reported":1752898937,"current_range_meters":20000,"station_id":"","pricing_plan_id":"cebpf4jnsgd1na2vs0mg"},{"bike_id":"f99ff1e4-4111-475a-aa3e-cb902d081040","system_id":"levelo_inurba_marseille","lat":43.23196,"lon":5.35537,"is_reserved":false,"is_disabled":false,"rental_uris":{"android":"levelo://app?vid=f99ff1e4-4111-475a-aa3e-cb902d081040","ios":"levelo://app?vid=f99ff1e4-4111-475a-aa3e-cb902d081040"},"vehicle_type_id":"4","last_reported":1752898937,"current_range_meters":20000,"station_id":"ce4bhu92rcd13ifvqi70","pricing_plan_id":"cebpf4jnsgd1na2vs0mg"},{"bike_id":"9c71d3ed-dd39-43c0-b5df-4145fbf9f2df","system_id":"levelo_inurba_marseille","lat":43.229331,"lon":5.353746,"is_reserved":false,"is_disabled":false,"rental_uris":{"android":"levelo://app?vid=9c71d3ed-dd39-43c0-b5df-4145fbf9f2df","ios":"levelo://app?vid=9c71d3ed-dd39-43c0-b5df-4145fbf9f2df"},"vehicle_type_id":"4","last_reported":1752898937,"current_range_meters":20000,"station_id":"cpo3532slgdg3j2ikp40","pricing_plan_id":"cebpf4jnsgd1na2vs0mg"},{"bike_id":"0dba9982-8391-42e0-9004-f04e3b0a9b9b","system_id":"levelo_inurba_marseille","lat":43.288424,"lon":5.393313,"is_reserved":false,"is_disabled":false,"rental_uris":{"android":"levelo://app?vid=0dba9982-8391-42e0-9004-f04e3b0a9b9b","ios":"levelo://app?vid=0dba9982-8391-42e0-9004-f04e3b0a9b9b"},"vehicle_type_id":"4","last_reported":1752898937,"current_range_meters":20000,"station_id":"ce4bh2p2rcd13ifvqdi0","pricing_plan_id":"cebpf4jnsgd1na2vs0mg"},{"bike_id":"fb451b24-2d99-4932-a116-e75501fa289e","system_id":"levelo_inurba_marseille","lat":43.29885,"lon":5.39751,"is_reserved":false,"is_disabled":false,"rental_uris":{"android":"levelo://app?vid=fb451b24-2d99-4932-a116-e75501fa289e","ios":"levelo://app?vid=fb451b24-2d99-4932-a116-e75501fa289e"},"vehicle_type_id":"4","last_reported":1752898937,"current_range_meters":20000,"station_id":"ce4bh0h2rcd13ifvqd50","pricing_plan_id":"cebpf4jnsgd1na2vs0mg"},{"bike_id":"2ba13de8-2053-45a6-bcbf-51b7a4e83469","system_id":"levelo_inurba_marseille","lat":43.23758,"lon":5.36151,"is_reserved":false,"is_disabled":false,"rental_uris":{"android":"levelo://app?vid=2ba13de8-2053-45a6-bcbf-51b7a4e83469","ios":"levelo://app?vid=2ba13de8-2053-45a6-bcbf-51b7a4e83469"},"vehicle_type_id":"4","last_reported":1752898937,"current_range_meters":20000,"station_id":"","pricing_plan_id":"cebpf4jnsgd1na2vs0mg"},{"bike_id":"f988ff1f-58b2-47ee-9882-3111d2575d54","system_id":"levelo_inurba_marseille","lat":43.24163,"lon":5.39719,"is_reserved":false,"is_disabled":false,"rental_uris":{"android":"levelo://app?vid=f988ff1f-58b2-47ee-9882-3111d2575d54","ios":"levelo://app?vid=f988ff1f-58b2-47ee-9882-3111d2575d54"},"vehicle_type_id":"4","last_reported":1752898937,"current_range_meters":20000,"station_id":"ce4bhn12rcd13ifvqgpg","pricing_plan_id":"cebpf4jnsgd1na2vs0mg"},{"bike_id":"47f78c3e-4232-4896-8b47-41740524b97c","system_id":"levelo_inurba_marseille","lat":43.28857,"lon":5.39333,"is_reserved":false,"is_disabled":false,"rental_uris":{"android":"levelo://app?vid=47f78c3e-4232-4896-8b47-41740524b97c","ios":"levelo://app?vid=47f78c3e-4232-4896-8b47-41740524b97c"},"vehicle_type_id":"4","last_reported":1752898937,"current_range_meters":20000,"station_id":"ce4bh2p2rcd13ifvqdi0","pricing_plan_id":"cebpf4jnsgd1na2vs0mg"},{"bike_id":"fa2ba3bd-f61a-4ac3-86fd-436eae66ee51","system_id":"levelo_inurba_marseille","lat":43.301374,"lon":5.398784,"is_reserved":false,"is_disabled":true,"rental_uris":{"android":"levelo://app?vid=fa2ba3bd-f61a-4ac3-86fd-436eae66ee51","ios":"levelo://app?vid=fa2ba3bd-f61a-4ac3-86fd-436eae66ee51"},"vehicle_type_id":"4","last_reported":1752898937,"current_range_meters":20000,"station_id":"ce4bh0h2rcd13ifvqd40","pricing_plan_id":"cebpf4jnsgd1na2vs0mg"},{"bike_id":"b84f9719-43cd-4797-b7de-e6aec5982bf0","system_id":"levelo_inurba_marseille","lat":43.2958,"lon":5.42278,"is_reserved":false,"is_disabled":false,"rental_uris":{"android":"levelo://app?vid=b84f9719-43cd-4797-b7de-e6aec5982bf0","ios":"levelo://app?vid=b84f9719-43cd-4797-b7de-e6aec5982bf0"},"vehicle_type_id":"4","last_reported":1752898937,"current_range_meters":20000,"station_id":"ce4bhph2rcd13ifvqhdg","pricing_plan_id":"cebpf4jnsgd1na2vs0mg"},{"bike_id":"dcfbf4fe-eddf-4fb3-8db1-48685394a2b0","system_id":"levelo_inurba_marseille","lat":43.312774,"lon":5.401764,"is_reserved":false,"is_disabled":false,"rental_uris":{"android":"levelo://app?vid=dcfbf4fe-eddf-4fb3-8db1-48685394a2b0","ios":"levelo://app?vid=dcfbf4fe-eddf-4fb3-8db1-48685394a2b0"},"vehicle_type_id":"4","last_reported":1752898937,"current_range_meters":20400,"station_id":"","pricing_plan_id":"cebpf4jnsgd1na2vs0mg"},{"bike_id":"52daf499-dc75-43c9-8864-210b5230e787","system_id":"levelo_inurba_marseille","lat":43.2756,"lon":5.384131,"is_reserved":false,"is_disabled":false,"rental_uris":{"android":"levelo://app?vid=52daf499-dc75-43c9-8864-210b5230e787","ios":"levelo://app?vid=52daf499-dc75-43c9-8864-210b5230e787"},"vehicle_type_id":"4","last_reported":1752898937,"current_range_meters":20400,"station_id":"ce4bhh92rcd13ifvqfi0","pricing_plan_id":"cebpf4jnsgd1na2vs0mg"},{"bike_id":"83fcea65-f5b1-4393-85bd-7aed6865452b","system_id":"levelo_inurba_marseille","lat":43.28103,"lon":5.37845,"is_reserved":false,"is_disabled":false,"rental_uris":{"android":"levelo://app?vid=83fcea65-f5b1-4393-85bd-7aed6865452b","ios":"levelo://app?vid=83fcea65-f5b1-4393-85bd-7aed6865452b"},"vehicle_type_id":"4","last_reported":1752898937,"current_range_meters":20400,"station_id":"ce4bha12rcd13ifvqee0","pricing_plan_id":"cebpf4jnsgd1na2vs0mg"},{"bike_id":"3b00adda-c6b8-43c0-ac39-5f1e22fce8e9","system_id":"levelo_inurba_marseille","lat":43.28673,"lon":5.38705,"is_reserved":false,"is_disabled":true,"rental_uris":{"android":"levelo://app?vid=3b00adda-c6b8-43c0-ac39-5f1e22fce8e9","ios":"levelo://app?vid=3b00adda-c6b8-43c0-ac39-5f1e22fce8e9"},"vehicle_type_id":"4","last_reported":1752898937,"current_range_meters":20400,"station_id":"ce4bh492rcd13ifvqdug","pricing_plan_id":"cebpf4jnsgd1na2vs0mg"},{"bike_id":"7cb87117-19f1-4d48-84b2-bec6ac38464c","system_id":"levelo_inurba_marseille","lat":43.29557,"lon":5.42266,"is_reserved":false,"is_disabled":false,"rental_uris":{"android":"levelo://app?vid=7cb87117-19f1-4d48-84b2-bec6ac38464c","ios":"levelo://app?vid=7cb87117-19f1-4d48-84b2-bec6ac38464c"},"vehicle_type_id":"4","last_reported":1752898937,"current_range_meters":20400,"station_id":"ce4bhph2rcd13ifvqhdg","pricing_plan_id":"cebpf4jnsgd1na2vs0mg"},{"bike_id":"22201799-46a6-442e-bfd7-86b18d119e60","system_id":"levelo_inurba_marseille","lat":43.28697,"lon":5.39971,"is_reserved":false,"is_disabled":false,"rental_uris":{"android":"levelo://app?vid=22201799-46a6-442e-bfd7-86b18d119e60","ios":"levelo://app?vid=22201799-46a6-442e-bfd7-86b18d119e60"},"vehicle_type_id":"4","last_reported":1752898937,"current_range_meters":20400,"station_id":"ce4bho92rcd13ifvqh3g","pricing_plan_id":"cebpf4jnsgd1na2vs0mg"},{"bike_id":"26b8cc06-1e63-495f-b599-843d277731ee","system_id":"levelo_inurba_marseille","lat":43.24057,"lon":5.3775,"is_reserved":false,"is_disabled":false,"rental_uris":{"android":"levelo://app?vid=26b8cc06-1e63-495f-b599-843d277731ee","ios":"levelo://app?vid=26b8cc06-1e63-495f-b599-843d277731ee"},"vehicle_type_id":"4","last_reported":1752898937,"current_range_meters":20400,"station_id":"ce4bhnp2rcd13ifvqgvg","pricing_plan_id":"cebpf4jnsgd1na2vs0mg"},{"bike_id":"276ee778-fa5a-492a-959f-072b5d2cb7b2","system_id":"levelo_inurba_marseille","lat":43.29004,"lon":5.35609,"is_reserved":false,"is_disabled":false,"rental_uris":{"android":"levelo://app?vid=276ee778-fa5a-492a-959f-072b5d2cb7b2","ios":"levelo://app?vid=276ee778-fa5a-492a-959f-072b5d2cb7b2"},"vehicle_type_id":"4","last_reported":1752898937,"current_range_meters":20400,"station_id":"ce4bhb92rcd13ifvqen0","pricing_plan_id":"cebpf4jnsgd1na2vs0mg"},{"bike_id":"be18fe6b-421b-4714-a746-7cfa1f61ae20","system_id":"levelo_inurba_marseille","lat":43.284326,"lon":5.39212,"is_reserved":false,"is_disabled":false,"rental_uris":{"android":"levelo://app?vid=be18fe6b-421b-4714-a746-7cfa1f61ae20","ios":"levelo://app?vid=be18fe6b-421b-4714-a746-7cfa1f61ae20"},"vehicle_type_id":"4","last_reported":1752898937,"current_range_meters":20800,"station_id":"ce4bhoh2rcd13ifvqh5g","pricing_plan_id":"cebpf4jnsgd1na2vs0mg"},{"bike_id":"d6704eb0-ad38-4b4d-aaf3-cbc31e84a6c3","system_id":"levelo_inurba_marseille","lat":43.28148,"lon":5.42628,"is_reserved":false,"is_disabled":false,"rental_uris":{"android":"levelo://app?vid=d6704eb0-ad38-4b4d-aaf3-cbc31e84a6c3","ios":"levelo://app?vid=d6704eb0-ad38-4b4d-aaf3-cbc31e84a6c3"},"vehicle_type_id":"4","last_reported":1752898937,"current_range_meters":20800,"station_id":"ce4bhnh2rcd13ifvqgug","pricing_plan_id":"cebpf4jnsgd1na2vs0mg"},{"bike_id":"6b47c0f5-4f81-4a82-8f29-1c7f28a4e708","system_id":"levelo_inurba_marseille","lat":43.314874,"lon":5.372771,"is_reserved":false,"is_disabled":false,"rental_uris":{"android":"levelo://app?vid=6b47c0f5-4f81-4a82-8f29-1c7f28a4e708","ios":"levelo://app?vid=6b47c0f5-4f81-4a82-8f29-1c7f28a4e708"},"vehicle_type_id":"4","last_reported":1752898937,"current_range_meters":21600,"station_id":"ce4bgt12rcd13ifvqcd0","pricing_plan_id":"cebpf4jnsgd1na2vs0mg"},{"bike_id":"d3aca52a-4e64-461a-8fd1-e9a035bafbdf","system_id":"levelo_inurba_marseille","lat":43.257213,"lon":5.411019,"is_reserved":false,"is_disabled":false,"rental_uris":{"android":"levelo://app?vid=d3aca52a-4e64-461a-8fd1-e9a035bafbdf","ios":"levelo://app?vid=d3aca52a-4e64-461a-8fd1-e9a035bafbdf"},"vehicle_type_id":"4","last_reported":1752898937,"current_range_meters":20800,"station_id":"","pricing_plan_id":"cebpf4jnsgd1na2vs0mg"},{"bike_id":"e0174573-e125-416e-aeeb-930eb384c5e0","system_id":"levelo_inurba_marseille","lat":43.28605,"lon":5.37073,"is_reserved":false,"is_disabled":false,"rental_uris":{"android":"levelo://app?vid=e0174573-e125-416e-aeeb-930eb384c5e0","ios":"levelo://app?vid=e0174573-e125-416e-aeeb-930eb384c5e0"},"vehicle_type_id":"4","last_reported":1752898937,"current_range_meters":20800,"station_id":"ce4bht12rcd13ifvqi60","pricing_plan_id":"cebpf4jnsgd1na2vs0mg"},{"bike_id":"c1b1f1d9-da19-4be4-a7de-54168418cced","system_id":"levelo_inurba_marseille","lat":43.28173,"lon":5.42618,"is_reserved":false,"is_disabled":true,"rental_uris":{"android":"levelo://app?vid=c1b1f1d9-da19-4be4-a7de-54168418cced","ios":"levelo://app?vid=c1b1f1d9-da19-4be4-a7de-54168418cced"},"vehicle_type_id":"4","last_reported":1752898937,"current_range_meters":20800,"station_id":"ce4bhnh2rcd13ifvqgug","pricing_plan_id":"cebpf4jnsgd1na2vs0mg"},{"bike_id":"2b712c2d-66be-4e8f-a055-6b236c858b90","system_id":"levelo_inurba_marseille","lat":43.295305,"lon":5.394118,"is_reserved":false,"is_disabled":false,"rental_uris":{"android":"levelo://app?vid=2b712c2d-66be-4e8f-a055-6b236c858b90","ios":"levelo://app?vid=2b712c2d-66be-4e8f-a055-6b236c858b90"},"vehicle_type_id":"4","last_reported":1752898937,"current_range_meters":20800,"station_id":"ce4bh292rcd13ifvqdf0","pricing_plan_id":"cebpf4jnsgd1na2vs0mg"},{"bike_id":"04382c46-bed7-41bc-a96c-befaf01eb19e","system_id":"levelo_inurba_marseille","lat":43.289367,"lon":5.36383,"is_reserved":false,"is_disabled":false,"rental_uris":{"android":"levelo://app?vid=04382c46-bed7-41bc-a96c-befaf01eb19e","ios":"levelo://app?vid=04382c46-bed7-41bc-a96c-befaf01eb19e"},"vehicle_type_id":"4","last_reported":1752898937,"current_range_meters":20800,"station_id":"","pricing_plan_id":"cebpf4jnsgd1na2vs0mg"},{"bike_id":"8907dc8d-b696-4064-8ce2-4bc0bbb446d6","system_id":"levelo_inurba_marseille","lat":43.25125,"lon":5.40308,"is_reserved":false,"is_disabled":false,"rental_uris":{"android":"levelo://app?vid=8907dc8d-b696-4064-8ce2-4bc0bbb446d6","ios":"levelo://app?vid=8907dc8d-b696-4064-8ce2-4bc0bbb446d6"},"vehicle_type_id":"4","last_reported":1752898937,"current_range_meters":20800,"station_id":"ce4bhlh2rcd13ifvqgig","pricing_plan_id":"cebpf4jnsgd1na2vs0mg"},{"bike_id":"31097692-f6ad-441d-9fe7-be61246e4853","system_id":"levelo_inurba_marseille","lat":43.32104,"lon":5.36798,"is_reserved":false,"is_disabled":false,"rental_uris":{"android":"levelo://app?vid=31097692-f6ad-441d-9fe7-be61246e4853","ios":"levelo://app?vid=31097692-f6ad-441d-9fe7-be61246e4853"},"vehicle_type_id":"4","last_reported":1752898937,"current_range_meters":21600,"station_id":"ce4bhrh2rcd13ifvqhug","pricing_plan_id":"cebpf4jnsgd1na2vs0mg"},{"bike_id":"a942ab9d-3a7c-45f8-b18f-85c554ac7f13","system_id":"levelo_inurba_marseille","lat":43.27065,"lon":5.40257,"is_reserved":false,"is_disabled":true,"rental_uris":{"android":"levelo://app?vid=a942ab9d-3a7c-45f8-b18f-85c554ac7f13","ios":"levelo://app?vid=a942ab9d-3a7c-45f8-b18f-85c554ac7f13"},"vehicle_type_id":"4","last_reported":1752898937,"current_range_meters":21600,"station_id":"ce4bhk92rcd13ifvqgc0","pricing_plan_id":"cebpf4jnsgd1na2vs0mg"},{"bike_id":"796dbdef-6774-4a18-b612-7799b09ec235","system_id":"levelo_inurba_marseille","lat":43.287022,"lon":5.373904,"is_reserved":false,"is_disabled":false,"rental_uris":{"android":"levelo://app?vid=796dbdef-6774-4a18-b612-7799b09ec235","ios":"levelo://app?vid=796dbdef-6774-4a18-b612-7799b09ec235"},"vehicle_type_id":"4","last_reported":1752898937,"current_range_meters":21600,"station_id":"ce4bh3p2rcd13ifvqdq0","pricing_plan_id":"cebpf4jnsgd1na2vs0mg"},{"bike_id":"9abbba3f-9e1c-401b-875e-85c26d1727ed","system_id":"levelo_inurba_marseille","lat":43.281,"lon":5.378392,"is_reserved":false,"is_disabled":false,"rental_uris":{"android":"levelo://app?vid=9abbba3f-9e1c-401b-875e-85c26d1727ed","ios":"levelo://app?vid=9abbba3f-9e1c-401b-875e-85c26d1727ed"},"vehicle_type_id":"4","last_reported":1752898937,"current_range_meters":21600,"station_id":"ce4bha12rcd13ifvqee0","pricing_plan_id":"cebpf4jnsgd1na2vs0mg"},{"bike_id":"21f1caf5-7e11-4f52-8f7b-754d8501d8d8","system_id":"levelo_inurba_marseille","lat":43.284825,"lon":5.385745,"is_reserved":false,"is_disabled":false,"rental_uris":{"android":"levelo://app?vid=21f1caf5-7e11-4f52-8f7b-754d8501d8d8","ios":"levelo://app?vid=21f1caf5-7e11-4f52-8f7b-754d8501d8d8"},"vehicle_type_id":"4","last_reported":1752898937,"current_range_meters":21600,"station_id":"ce4bh8p2rcd13ifvqeb0","pricing_plan_id":"cebpf4jnsgd1na2vs0mg"},{"bike_id":"9d1f4cc1-3789-4b71-9664-324a952fb6da","system_id":"levelo_inurba_marseille","lat":43.28851,"lon":5.35834,"is_reserved":false,"is_disabled":false,"rental_uris":{"android":"levelo://app?vid=9d1f4cc1-3789-4b71-9664-324a952fb6da","ios":"levelo://app?vid=9d1f4cc1-3789-4b71-9664-324a952fb6da"},"vehicle_type_id":"4","last_reported":1752898937,"current_range_meters":21600,"station_id":"ce4bhb12rcd13ifvqem0","pricing_plan_id":"cebpf4jnsgd1na2vs0mg"},{"bike_id":"f6027c4f-9716-4c64-88b6-c9c26d3e0649","system_id":"levelo_inurba_marseille","lat":43.31071,"lon":5.38355,"is_reserved":false,"is_disabled":true,"rental_uris":{"android":"levelo://app?vid=f6027c4f-9716-4c64-88b6-c9c26d3e0649","ios":"levelo://app?vid=f6027c4f-9716-4c64-88b6-c9c26d3e0649"},"vehicle_type_id":"4","last_reported":1752898937,"current_range_meters":22000,"station_id":"ce4bgv92rcd13ifvqcr0","pricing_plan_id":"cebpf4jnsgd1na2vs0mg"},