{"last_updated":1745478657,"ttl":60,"version":"2.2","data":{"bikes":[{"bike_id":"c92aa91e-f1cf-49c6-8d77-792f3c92ea9e","system_id":"levelo_inurba_marseille","lat":43.28717,"lon":5.37932,"is_reserved":false,"is_disabled":false,"rental_uris":{"android":"levelo://app?vid=c92aa91e-f1cf-49c6-8d77-792f3c92ea9e","ios":"levelo://app?vid=c92aa91e-f1cf-49c6-8d77-792f3c92ea9e"},"vehicle_type_id":"4","last_reported":1745478657,"current_range_meters":2000,"station_id":"ce4bh9p2rcd13ifvqec0","pricing_plan_id":"cebpf4jnsgd1na2vs0mg"},{"bike_id":"8d2789be-d356-436f-bee5-111c80e6604e","system_id":"levelo_inurba_marseille","lat":43.24182,"lon":5.3639,"is_reserved":false,"is_disabled":true,"rental_uris":{"android":"levelo://app?vid=8d2789be-d356-436f-bee5-111c80e6604e","ios":"levelo://app?vid=8d2789be-d356-436f-bee5-111c80e6604e"},"vehicle_type_id":"4","last_reported":1745478657,"current_range_meters":2800,"station_id":"cpo36qri1sfpv3e86is0","pricing_plan_id":"cebpf4jnsgd1na2vs0mg"},{"bike_id":"82ba0e00-e553-41e4-a716-c5929e6133e6","system_id":"levelo_inurba_marseille","lat":43.2594,"lon":5.40898,"is_reserved":false,"is_disabled":false,"rental_uris":{"android":"levelo://app?vid=82ba0e00-e553-41e4-a716-c5929e6133e6","ios":"levelo://app?vid=82ba0e00-e553-41e4-a716-c5929e6133e6"},"vehicle_type_id":"4","last_reported":1745478657,"current_range_meters":2800,"station_id":"ce4bhm92rcd13ifvqglg","pricing_plan_id":"cebpf4jnsgd1na2vs0mg"},{"bike_id":"6ddbdcbe-948e-4f11-a9f7-d7c7b0a37799","system_id":"levelo_inurba_marseille","lat":43.29063,"lon":5.3715,"is_reserved":false,"is_disabled":false,"rental_uris":{"android":"levelo://app?vid=6ddbdcbe-948e-4f11-a9f7-d7c7b0a37799","ios":"levelo://app?vid=6ddbdcbe-948e-4f11-a9f7-d7c7b0a37799"},"vehicle_type_id":"4","last_reported":1745478657,"current_range_meters":3200,"station_id":"ce4bh5p2rcd13ifvqe4g","pricing_plan_id":"cebpf4jnsgd1na2vs0mg"},{"bike_id":"5515a8d3-7c83-4fa4-9c2f-464e0f305db0","system_id":"levelo_inurba_marseille","lat":43.25114,"lon":5.40318,"is_reserved":false,"is_disabled":false,"rental_uris":{"android":"levelo://app?vid=5515a8d3-7c83-4fa4-9c2f-464e0f305db0","ios":"levelo://app?vid=5515a8d3-7c83-4fa4-9c2f-464e0f305db0"},"vehicle_type_id":"4","last_reported":1745478657,"current_range_meters":3200,"station_id":"ce4bhlh2rcd13ifvqgig","pricing_plan_id":"cebpf4jnsgd1na2vs0mg"},{"bike_id":"0e956a52-9f1c-4373-9fd9-05b1de4dc5a0","system_id":"levelo_inurba_marseille","lat":43.30878,"lon":5.39622,"is_reserved":false,"is_disabled":true,"rental_uris":{"android":"levelo://app?vid=0e956a52-9f1c-4373-9fd9-05b1de4dc5a0","ios":"levelo://app?vid=0e956a52-9f1c-4373-9fd9-05b1de4dc5a0"},"vehicle_type_id":"4","last_reported":1745478657,"current_range_meters":3200,"station_id":"ce4bh012rcd13ifvqcv0","pricing_plan_id":"cebpf4jnsgd1na2vs0mg"},{"bike_id":"2782ade1-694d-409a-acd2-9588f9e68640","system_id":"levelo_inurba_marseille","lat":43.290295,"lon":5.379351,"is_reserved":false,"is_disabled":false,"rental_uris":{"android":"levelo://app?vid=2782ade1-694d-409a-acd2-9588f9e68640","ios":"levelo://app?vid=2782ade1-694d-409a-acd2-9588f9e68640"},"vehicle_type_id":"4","last_reported":1745478657,"current_range_meters":3200,"station_id":"ce4bgph2rcd13ifvqc2g","pricing_plan_id":"cebpf4jnsgd1na2vs0mg"},{"bike_id":"c94e26c1-7575-4802-86ec-0bd6f82482cc","system_id":"levelo_inurba_marseille","lat":43.28618,"lon":5.37053,"is_reserved":false,"is_disabled":false,"rental_uris":{"android":"levelo://app?vid=c94e26c1-7575-4802-86ec-0bd6f82482cc","ios":"levelo://app?vid=c94e26c1-7575-4802-86ec-0bd6f82482cc"},"vehicle_type_id":"4","last_reported":1745478657,"current_range_meters":3600,"station_id":"ce4bht12rcd13ifvqi60","pricing_plan_id":"cebpf4jnsgd1na2vs0mg"},{"bike_id":"3c35911a-c99f-4c46-937f-be6f52dd755e","system_id":"levelo_inurba_marseille","lat":43.30287,"lon":5.37735,"is_reserved":false,"is_disabled":false,"rental_uris":{"android":"levelo://app?vid=3c35911a-c99f-4c46-937f-be6f52dd755e","ios":"levelo://app?vid=3c35911a-c99f-4c46-937f-be6f52dd755e"},"vehicle_type_id":"4","last_reported":1745478657,"current_range_meters":3600,"station_id":"ce4bguh2rcd13ifvqcj0","pricing_plan_id":"cebpf4jnsgd1na2vs0mg"},{"bike_id":"3c986d49-4c59-4fce-9389-7b631455012c","system_id":"levelo_inurba_marseille","lat":43.23148,"lon":5.43714,"is_reserved":false,"is_disabled":false,"rental_uris":{"android":"levelo://app?vid=3c986d49-4c59-4fce-9389-7b631455012c","ios":"levelo://app?vid=3c986d49-4c59-4fce-9389-7b631455012c"},"vehicle_type_id":"4","last_reported":1745478657,"current_range_meters":3600,"station_id":"ce4bhmp2rcd13ifvqgog","pricing_plan_id":"cebpf4jnsgd1na2vs0mg"},{"bike_id":"e88ac0aa-172e-418f-9134-2e3c247b5863","system_id":"levelo_inurba_marseille","lat":43.23988,"lon":5.36619,"is_reserved":false,"is_disabled":false,"rental_uris":{"android":"levelo://app?vid=e88ac0aa-172e-418f-9134-2e3c247b5863","ios":"levelo://app?vid=e88ac0aa-172e-418f-9134-2e3c247b5863"},"vehicle_type_id":"4","last_reported":1745478657,"current_range_meters":4000,"station_id":"ce4bhi12rcd13ifvqfp0","pricing_plan_id":"cebpf4jnsgd1na2vs0mg"},{"bike_id":"4921a9e9-8438-4eb7-a1f1-e60924aae80a","system_id":"levelo_inurba_marseille","lat":43.30932,"lon":5.40146,"is_reserved":false,"is_disabled":false,"rental_uris":{"android":"levelo://app?vid=4921a9e9-8438-4eb7-a1f1-e60924aae80a","ios":"levelo://app?vid=4921a9e9-8438-4eb7-a1f1-e60924aae80a"},"vehicle_type_id":"4","last_reported":1745478657,"current_range_meters":4000,"station_id":"ce4bgvp2rcd13ifvqct0","pricing_plan_id":"cebpf4jnsgd1na2vs0mg"},{"bike_id":"ad59afdf-0045-491d-9c00-a910aaa9dede","system_id":"levelo_inurba_marseille","lat":43.30953,"lon":5.39026,"is_reserved":false,"is_disabled":false,"rental_uris":{"android":"levelo://app?vid=ad59afdf-0045-491d-9c00-a910aaa9dede","ios":"levelo://app?vid=ad59afdf-0045-491d-9c00-a910aaa9dede"},"vehicle_type_id":"4","last_reported":1745478657,"current_range_meters":1600,"station_id":"ce4bgup2rcd13ifvqco0","pricing_plan_id":"cebpf4jnsgd1na2vs0mg"},{"bike_id":"afcc2130-4823-4ce8-b340-7a944965193d","system_id":"levelo_inurba_marseille","lat":43.283417,"lon":5.381122,"is_reserved":false,"is_disabled":false,"rental_uris":{"android":"levelo://app?vid=afcc2130-4823-4ce8-b340-7a944965193d","ios":"levelo://app?vid=afcc2130-4823-4ce8-b340-7a944965193d"},"vehicle_type_id":"4","last_reported":1745478657,"current_range_meters":4000,"station_id":"ce4bh412rcd13ifvqdr0","pricing_plan_id":"cebpf4jnsgd1na2vs0mg"},{"bike_id":"cd36d9ba-d2f2-4e42-9ff2-abe804e30731","system_id":"levelo_inurba_marseille","lat":43.24079,"lon":5.37749,"is_reserved":false,"is_disabled":false,"rental_uris":{"android":"levelo://app?vid=cd36d9ba-d2f2-4e42-9ff2-abe804e30731","ios":"levelo://app?vid=cd36d9ba-d2f2-4e42-9ff2-abe804e30731"},"vehicle_type_id":"4","last_reported":1745478657,"current_range_meters":4000,"station_id":"ce4bhnp2rcd13ifvqgvg","pricing_plan_id":"cebpf4jnsgd1na2vs0mg"},{"bike_id":"29a2772c-ccc8-4e7b-abc2-1c1c31ac4773","system_id":"levelo_inurba_marseille","lat":43.3046,"lon":5.37903,"is_reserved":false,"is_disabled":false,"rental_uris":{"android":"levelo://app?vid=29a2772c-ccc8-4e7b-abc2-1c1c31ac4773","ios":"levelo://app?vid=29a2772c-ccc8-4e7b-abc2-1c1c31ac4773"},"vehicle_type_id":"4","last_reported":1745478657,"current_range_meters":4000,"station_id":"ce4bgup2rcd13ifvqcn0","pricing_plan_id":"cebpf4jnsgd1na2vs0mg"},{"bike_id":"16fe3fc8-8341-4236-bff4-bb1139d83a7c","system_id":"levelo_inurba_marseille","lat":43.28851,"lon":5.393,"is_reserved":false,"is_disabled":false,"rental_uris":{"android":"levelo://app?vid=16fe3fc8-8341-4236-bff4-bb1139d83a7c","ios":"levelo://app?vid=16fe3fc8-8341-4236-bff4-bb1139d83a7c"},"vehicle_type_id":"4","last_reported":1745478657,"current_range_meters":4400,"station_id":"ce4bh2p2rcd13ifvqdi0","pricing_plan_id":"cebpf4jnsgd1na2vs0mg"},{"bike_id":"fe198ad5-3ed5-4a50-a120-80605df2593b","system_id":"levelo_inurba_marseille","lat":43.25583,"lon":5.38256,"is_reserved":false,"is_disabled":false,"rental_uris":{"android":"levelo://app?vid=fe198ad5-3ed5-4a50-a120-80605df2593b","ios":"levelo://app?vid=fe198ad5-3ed5-4a50-a120-80605df2593b"},"vehicle_type_id":"4","last_reported":1745478657,"current_range_meters":4400,"station_id":"ce4bhih2rcd13ifvqfs0","pricing_plan_id":"cebpf4jnsgd1na2vs0mg"},{"bike_id":"b41daa70-2bba-49b6-9ff6-d163bb3f7e0d","system_id":"levelo_inurba_marseille","lat":43.24078,"lon":5.37701,"is_reserved":false,"is_disabled":true,"rental_uris":{"android":"levelo://app?vid=b41daa70-2bba-49b6-9ff6-d163bb3f7e0d","ios":"levelo://app?vid=b41daa70-2bba-49b6-9ff6-d163bb3f7e0d"},"vehicle_type_id":"4","last_reported":1745478657,"current_range_meters":4800,"station_id":"ce4bhnp2rcd13ifvqgvg","pricing_plan_id":"cebpf4jnsgd1na2vs0mg"},{"bike_id":"0b7a9109-7668-4db4-9724-d01cac3cc1a1","system_id":"levelo_inurba_marseille","lat":43.291625,"lon":5.410034,"is_reserved":false,"is_disabled":false,"rental_uris":{"android":"levelo://app?vid=0b7a9109-7668-4db4-9724-d01cac3cc1a1","ios":"levelo://app?vid=0b7a9109-7668-4db4-9724-d01cac3cc1a1"},"vehicle_type_id":"4","last_reported":1745478657,"current_range_meters":4800,"station_id":"","pricing_plan_id":"cebpf4jnsgd1na2vs0mg"},{"bike_id":"0f36c06d-b34a-4b6a-9c76-b87640418fc7","system_id":"levelo_inurba_marseille","lat":43.230619,"lon":5.355051,"is_reserved":false,"is_disabled":false,"rental_uris":{"android":"levelo://app?vid=0f36c06d-b34a-4b6a-9c76-b87640418fc7","ios":"levelo://app?vid=0f36c06d-b34a-4b6a-9c76-b87640418fc7"},"vehicle_type_id":"4","last_reported":1745478657,"current_range_meters":4800,"station_id":"cpo3342slgdg3j2ifvpg","pricing_plan_id":"cebpf4jnsgd1na2vs0mg"},{"bike_id":"ac85f133-b220-4df8-98cb-f8996657b473","system_id":"levelo_inurba_marseille","lat":43.29026,"lon":5.37572,"is_reserved":false,"is_disabled":false,"rental_uris":{"android":"levelo://app?vid=ac85f133-b220-4df8-98cb-f8996657b473","ios":"levelo://app?vid=ac85f133-b220-4df8-98cb-f8996657b473"},"vehicle_type_id":"4","last_reported":1745478657,"current_range_meters":4800,"station_id":"ce4bh692rcd13ifvqe90","pricing_plan_id":"cebpf4jnsgd1na2vs0mg"},{"bike_id":"3dd50929-80e8-4861-abf3-0cc06f516279","system_id":"levelo_inurba_marseille","lat":43.24062,"lon":5.37726,"is_reserved":false,"is_disabled":false,"rental_uris":{"android":"levelo://app?vid=3dd50929-80e8-4861-abf3-0cc06f516279","ios":"levelo://app?vid=3dd50929-80e8-4861-abf3-0cc06f516279"},"vehicle_type_id":"4","last_reported":1745478657,"current_range_meters":4800,"station_id":"ce4bhnp2rcd13ifvqgvg","pricing_plan_id":"cebpf4jnsgd1na2vs0mg"},{"bike_id":"808f48c9-dd49-47da-ba20-9306ec35c0a1","system_id":"levelo_inurba_marseille","lat":43.2417,"lon":5.39731,"is_reserved":false,"is_disabled":false,"rental_uris":{"android":"levelo://app?vid=808f48c9-dd49-47da-ba20-9306ec35c0a1","ios":"levelo://app?vid=808f48c9-dd49-47da-ba20-9306ec35c0a1"},"vehicle_type_id":"4","last_reported":1745478657,"current_range_meters":4800,"station_id":"ce4bhn12rcd13ifvqgpg","pricing_plan_id":"cebpf4jnsgd1na2vs0mg"},{"bike_id":"a59bc513-6f43-4128-9d21-0b9eac2d238f","system_id":"levelo_inurba_marseille","lat":43.30519,"lon":5.36516,"is_reserved":false,"is_disabled":true,"rental_uris":{"android":"levelo://app?vid=a59bc513-6f43-4128-9d21-0b9eac2d238f","ios":"levelo://app?vid=a59bc513-6f43-4128-9d21-0b9eac2d238f"},"vehicle_type_id":"4","last_reported":1745478657,"current_range_meters":5600,"station_id":"ce4bgs12rcd13ifvqcag","pricing_plan_id":"cebpf4jnsgd1na2vs0mg"},{"bike_id":"1c5ec038-935d-45d4-ab05-1768d5c6745a","system_id":"levelo_inurba_marseille","lat":43.24065,"lon":5.37766,"is_reserved":false,"is_disabled":false,"rental_uris":{"android":"levelo://app?vid=1c5ec038-935d-45d4-ab05-1768d5c6745a","ios":"levelo://app?vid=1c5ec038-935d-45d4-ab05-1768d5c6745a"},"vehicle_type_id":"4","last_reported":1745478657,"current_range_meters":5600,"station_id":"ce4bhnp2rcd13ifvqgvg","pricing_plan_id":"cebpf4jnsgd1na2vs0mg"},{"bike_id":"ec0d7460-6ca6-4b2d-b87a-c10418671637","system_id":"levelo_inurba_marseille","lat":43.29844,"lon":5.36275,"is_reserved":false,"is_disabled":false,"rental_uris":{"android":"levelo://app?vid=ec0d7460-6ca6-4b2d-b87a-c10418671637","ios":"levelo://app?vid=ec0d7460-6ca6-4b2d-b87a-c10418671637"},"vehicle_type_id":"4","last_reported":1745478657,"current_range_meters":5600,"station_id":"ce4bgpp2rcd13ifvqc3g","pricing_plan_id":"cebpf4jnsgd1na2vs0mg"},{"bike_id":"ee6fe346-129a-4352-b7c7-aefa1e451c7a","system_id":"levelo_inurba_marseille","lat":43.30665,"lon":5.40087,"is_reserved":false,"is_disabled":true,"rental_uris":{"android":"levelo://app?vid=ee6fe346-129a-4352-b7c7-aefa1e451c7a","ios":"levelo://app?vid=ee6fe346-129a-4352-b7c7-aefa1e451c7a"},"vehicle_type_id":"4","last_reported":1745478657,"current_range_meters":6000,"station_id":"ce4bh112rcd13ifvqda0","pricing_plan_id":"cebpf4jnsgd1na2vs0mg"},{"bike_id":"4bf140cd-5cbb-461d-af7a-9bb609a3a161","system_id":"levelo_inurba_marseille","lat":43.30548,"lon":5.38429,"is_reserved":false,"is_disabled":false,"rental_uris":{"android":"levelo://app?vid=4bf140cd-5cbb-461d-af7a-9bb609a3a161","ios":"levelo://app?vid=4bf140cd-5cbb-461d-af7a-9bb609a3a161"},"vehicle_type_id":"4","last_reported":1745478657,"current_range_meters":6000,"station_id":"ce4bgg92rcd13ifvqb30","pricing_plan_id":"cebpf4jnsgd1na2vs0mg"},{"bike_id":"2b4ab592-be9f-438c-9820-2c189d299e2d","system_id":"levelo_inurba_marseille","lat":43.28963,"lon":5.37835,"is_reserved":false,"is_disabled":false,"rental_uris":{"android":"levelo://app?vid=2b4ab592-be9f-438c-9820-2c189d299e2d","ios":"levelo://app?vid=2b4ab592-be9f-438c-9820-2c189d299e2d"},"vehicle_type_id":"4","last_reported":1745478657,"current_range_meters":6000,"station_id":"ce4bh9p2rcd13ifvqed0","pricing_plan_id":"cebpf4jnsgd1na2vs0mg"},{"bike_id":"ec80776b-2426-4e37-9630-3cfe4dd543ec","system_id":"levelo_inurba_marseille","lat":43.24074,"lon":5.37761,"is_reserved":false,"is_disabled":false,"rental_uris":{"android":"levelo://app?vid=ec80776b-2426-4e37-9630-3cfe4dd543ec","ios":"levelo://app?vid=ec80776b-2426-4e37-9630-3cfe4dd543ec"},"vehicle_type_id":"4","last_reported":1745478657,"current_range_meters":6000,"station_id":"ce4bhnp2rcd13ifvqgvg","pricing_plan_id":"cebpf4jnsgd1na2vs0mg"},{"bike_id":"eb55b1ed-6fb5-4075-bde1-f3db57270b44","system_id":"levelo_inurba_marseille","lat":43.30313,"lon":5.36896,"is_reserved":false,"is_disabled":false,"rental_uris":{"android":"levelo://app?vid=eb55b1ed-6fb5-4075-bde1-f3db57270b44","ios":"levelo://app?vid=eb55b1ed-6fb5-4075-bde1-f3db57270b44"},"vehicle_type_id":"4","last_reported":1745478657,"current_range_meters":6000,"station_id":"ce4bgqh2rcd13ifvqc5g","pricing_plan_id":"cebpf4jnsgd1na2vs0mg"},{"bike_id":"06155f97-c323-4490-a6a6-116156e65710","system_id":"levelo_inurba_marseille","lat":43.305367,"lon":5.384217,"is_reserved":false,"is_disabled":false,"rental_uris":{"android":"levelo://app?vid=06155f97-c323-4490-a6a6-116156e65710","ios":"levelo://app?vid=06155f97-c323-4490-a6a6-116156e65710"},"vehicle_type_id":"4","last_reported":1745478657,"current_range_meters":6000,"station_id":"ce4bgg92rcd13ifvqb30","pricing_plan_id":"cebpf4jnsgd1na2vs0mg"},{"bike_id":"ea829747-0f69-4c90-873b-2c31041b1714","system_id":"levelo_inurba_marseille","lat":43.30309,"lon":5.3688,"is_reserved":false,"is_disabled":false,"rental_uris":{"android":"levelo://app?vid=ea829747-0f69-4c90-873b-2c31041b1714","ios":"levelo://app?vid=ea829747-0f69-4c90-873b-2c31041b1714"},"vehicle_type_id":"4","last_reported":1745478657,"current_range_meters":6400,"station_id":"ce4bgqh2rcd13ifvqc5g","pricing_plan_id":"cebpf4jnsgd1na2vs0mg"},{"bike_id":"b6553d69-feb1-4f55-99dc-e45ef526cd58","system_id":"levelo_inurba_marseille","lat":43.2956,"lon":5.423,"is_reserved":false,"is_disabled":true,"rental_uris":{"android":"levelo://app?vid=b6553d69-feb1-4f55-99dc-e45ef526cd58","ios":"levelo://app?vid=b6553d69-feb1-4f55-99dc-e45ef526cd58"},"vehicle_type_id":"4","last_reported":1745478657,"current_range_meters":6400,"station_id":"ce4bhph2rcd13ifvqhdg","pricing_plan_id":"cebpf4jnsgd1na2vs0mg"},{"bike_id":"05abebf7-ccc9-40a7-a97f-2c33c3d68521","system_id":"levelo_inurba_marseille","lat":43.28711,"lon":5.39994,"is_reserved":false,"is_disabled":false,"rental_uris":{"android":"levelo://app?vid=05abebf7-ccc9-40a7-a97f-2c33c3d68521","ios":"levelo://app?vid=05abebf7-ccc9-40a7-a97f-2c33c3d68521"},"vehicle_type_id":"4","last_reported":1745478657,"current_range_meters":6800,"station_id":"ce4bho92rcd13ifvqh3g","pricing_plan_id":"cebpf4jnsgd1na2vs0mg"},{"bike_id":"35ee1e7a-ed4b-489a-ad85-a78f3746e5e7","system_id":"levelo_inurba_marseille","lat":43.23152,"lon":5.43707,"is_reserved":false,"is_disabled":false,"rental_uris":{"android":"levelo://app?vid=35ee1e7a-ed4b-489a-ad85-a78f3746e5e7","ios":"levelo://app?vid=35ee1e7a-ed4b-489a-ad85-a78f3746e5e7"},"vehicle_type_id":"4","last_reported":1745478657,"current_range_meters":6800,"station_id":"ce4bhmp2rcd13ifvqgog","pricing_plan_id":"cebpf4jnsgd1na2vs0mg"},{"bike_id":"2ccc0ef5-567f-446d-8412-5de0554d95c7","system_id":"levelo_inurba_marseille","lat":43.285013,"lon":5.385522,"is_reserved":false,"is_disabled":true,"rental_uris":{"android":"levelo://app?vid=2ccc0ef5-567f-446d-8412-5de0554d95c7","ios":"levelo://app?vid=2ccc0ef5-567f-446d-8412-5de0554d95c7"},"vehicle_type_id":"4","last_reported":1745478657,"current_range_meters":6800,"station_id":"ce4bh3p2rcd13ifvqdq0","pricing_plan_id":"cebpf4jnsgd1na2vs0mg"},{"bike_id":"a47ff445-6097-423c-a4c0-a9dbb934547b","system_id":"levelo_inurba_marseille","lat":43.3014,"lon":5.37417,"is_reserved":false,"is_disabled":false,"rental_uris":{"android":"levelo://app?vid=a47ff445-6097-423c-a4c0-a9dbb934547b","ios":"levelo://app?vid=a47ff445-6097-423c-a4c0-a9dbb934547b"},"vehicle_type_id":"4","last_reported":1745478657,"current_range_meters":6800,"station_id":"ce4bgs92rcd13ifvqcc0","pricing_plan_id":"cebpf4jnsgd1na2vs0mg"},{"bike_id":"075a21bf-6683-486a-bf10-ca3fc1df7890","system_id":"levelo_inurba_marseille","lat":43.29157,"lon":5.37169,"is_reserved":false,"is_disabled":false,"rental_uris":{"android":"levelo://app?vid=075a21bf-6683-486a-bf10-ca3fc1df7890","ios":"levelo://app?vid=075a21bf-6683-486a-bf10-ca3fc1df7890"},"vehicle_type_id":"4","last_reported":1745478657,"current_range_meters":6800,"station_id":"ce4bha92rcd13ifvqeh0","pricing_plan_id":"cebpf4jnsgd1na2vs0mg"},{"bike_id":"6d85eac8-2807-47cf-9f6e-8094fefcf027","system_id":"levelo_inurba_marseille","lat":43.30557,"lon":5.38444,"is_reserved":false,"is_disabled":false,"rental_uris":{"android":"levelo://app?vid=6d85eac8-2807-47cf-9f6e-8094fefcf027","ios":"levelo://app?vid=6d85eac8-2807-47cf-9f6e-8094fefcf027"},"vehicle_type_id":"4","last_reported":1745478657,"current_range_meters":6800,"station_id":"ce4bgg92rcd13ifvqb30","pricing_plan_id":"cebpf4jnsgd1na2vs0mg"},{"bike_id":"49c0f902-eac7-4a79-adf0-d142aff51e11","system_id":"levelo_inurba_marseille","lat":43.24148,"lon":5.36466,"is_reserved":false,"is_disabled":false,"rental_uris":{"android":"levelo://app?vid=49c0f902-eac7-4a79-adf0-d142aff51e11","ios":"levelo://app?vid=49c0f902-eac7-4a79-adf0-d142aff51e11"},"vehicle_type_id":"4","last_reported":1745478657,"current_range_meters":6800,"station_id":"cpo36qri1sfpv3e86is0","pricing_plan_id":"cebpf4jnsgd1na2vs0mg"},{"bike_id":"34810234-94cb-4a90-b001-a2fd18f0af37","system_id":"levelo_inurba_marseille","lat":43.30903,"lon":5.36844,"is_reserved":false,"is_disabled":false,"rental_uris":{"android":"levelo://app?vid=34810234-94cb-4a90-b001-a2fd18f0af37","ios":"levelo://app?vid=34810234-94cb-4a90-b001-a2fd18f0af37"},"vehicle_type_id":"4","last_reported":1745478657,"current_range_meters":6800,"station_id":"ce4bgn92rcd13ifvqbvg","pricing_plan_id":"cebpf4jnsgd1na2vs0mg"},{"bike_id":"79de9a4a-6bac-40ab-a1a7-7cfcf12c5739","system_id":"levelo_inurba_marseille","lat":43.26498,"lon":5.39538,"is_reserved":false,"is_disabled":false,"rental_uris":{"android":"levelo://app?vid=79de9a4a-6bac-40ab-a1a7-7cfcf12c5739","ios":"levelo://app?vid=79de9a4a-6bac-40ab-a1a7-7cfcf12c5739"},"vehicle_type_id":"4","last_reported":1745478657,"current_range_meters":7200,"station_id":"ce4bhi12rcd13ifvqfq0","pricing_plan_id":"cebpf4jnsgd1na2vs0mg"},{"bike_id":"b8540a55-7b45-431f-94a9-3e701501528a","system_id":"levelo_inurba_marseille","lat":43.31221,"lon":5.3686,"is_reserved":false,"is_disabled":false,"rental_uris":{"android":"levelo://app?vid=b8540a55-7b45-431f-94a9-3e701501528a","ios":"levelo://app?vid=b8540a55-7b45-431f-94a9-3e701501528a"},"vehicle_type_id":"4","last_reported":1745478657,"current_range_meters":7200,"station_id":"ce4bgl92rcd13ifvqbq0","pricing_plan_id":"cebpf4jnsgd1na2vs0mg"},{"bike_id":"820b4151-620f-4b89-a7ed-758df0709835","system_id":"levelo_inurba_marseille","lat":43.30886,"lon":5.3719,"is_reserved":false,"is_disabled":false,"rental_uris":{"android":"levelo://app?vid=820b4151-620f-4b89-a7ed-758df0709835","ios":"levelo://app?vid=820b4151-620f-4b89-a7ed-758df0709835"},"vehicle_type_id":"4","last_reported":1745478657,"current_range_meters":7200,"station_id":"ce4bguh2rcd13ifvqckg","pricing_plan_id":"cebpf4jnsgd1na2vs0mg"},{"bike_id":"92fd15a3-7fe8-4bca-b9a7-642f5742fa0b","system_id":"levelo_inurba_marseille","lat":43.24063,"lon":5.37769,"is_reserved":false,"is_disabled":true,"rental_uris":{"android":"levelo://app?vid=92fd15a3-7fe8-4bca-b9a7-642f5742fa0b","ios":"levelo://app?vid=92fd15a3-7fe8-4bca-b9a7-642f5742fa0b"},"vehicle_type_id":"4","last_reported":1745478657,"current_range_meters":8000,"station_id":"ce4bhnp2rcd13ifvqgvg","pricing_plan_id":"cebpf4jnsgd1na2vs0mg"},{"bike_id":"d831c2fd-446b-4333-9b57-f651c84d4e20","system_id":"levelo_inurba_marseille","lat":43.24072,"lon":5.37754,"is_reserved":false,"is_disabled":false,"rental_uris":{"android":"levelo://app?vid=d831c2fd-446b-4333-9b57-f651c84d4e20","ios":"levelo://app?vid=d831c2fd-446b-4333-9b57-f651c84d4e20"},"vehicle_type_id":"4","last_reported":1745478657,"current_range_meters":8000,"station_id":"ce4bhnp2rcd13ifvqgvg","pricing_plan_id":"cebpf4jnsgd1na2vs0mg"},{"bike_id":"762535ea-8a00-46c4-b794-776d4cce5ef6","system_id":"levelo_inurba_marseille","lat":43.25085,"lon":5.39525,"is_reserved":false,"is_disabled":false,"rental_uris":{"android":"levelo://app?vid=762535ea-8a00-46c4-b794-776d4cce5ef6","ios":"levelo://app?vid=762535ea-8a00-46c4-b794-776d4cce5ef6"},"vehicle_type_id":"4","last_reported":1745478657,"current_range_meters":8000,"station_id":"ce4bhm12rcd13ifvqgkg","pricing_plan_id":"cebpf4jnsgd1na2vs0mg"},{"bike_id":"6cc56ada-94b7-4305-a68e-bd6eec67c1f9","system_id":"levelo_inurba_marseille","lat":43.24179,"lon":5.39725,"is_reserved":false,"is_disabled":false,"rental_uris":{"android":"levelo://app?vid=6cc56ada-94b7-4305-a68e-bd6eec67c1f9","ios":"levelo://app?vid=6cc56ada-94b7-4305-a68e-bd6eec67c1f9"},"vehicle_type_id":"4","last_reported":1745478657,"current_range_meters":8000,"station_id":"ce4bhn12rcd13ifvqgpg","pricing_plan_id":"cebpf4jnsgd1na2vs0mg"},{"bike_id":"805ea2d5-ec08-4b13-ba23-87cc0a37bf03","system_id":"levelo_inurba_marseille","lat":43.24049,"lon":5.37769,"is_reserved":false,"is_disabled":false,"rental_uris":{"android":"levelo://app?vid=805ea2d5-ec08-4b13-ba23-87cc0a37bf03","ios":"levelo://app?vid=805ea2d5-ec08-4b13-ba23-87cc0a37bf03"},"vehicle_type_id":"4","last_reported":1745478657,"current_range_meters":8000,"station_id":"ce4bhnp2rcd13ifvqgvg","pricing_plan_id":"cebpf4jnsgd1na2vs0mg"},{"bike_id":"3070cec2-559a-4cb5-b38b-e5f337917feb","system_id":"levelo_inurba_marseille","lat":43.23963,"lon":5.36633,"is_reserved":false,"is_disabled":false,"rental_uris":{"android":"levelo://app?vid=3070cec2-559a-4cb5-b38b-e5f337917feb","ios":"levelo://app?vid=3070cec2-559a-4cb5-b38b-e5f337917feb"},"vehicle_type_id":"4","last_reported":1745478657,"current_range_meters":8000,"station_id":"ce4bhi12rcd13ifvqfp0","pricing_plan_id":"cebpf4jnsgd1na2vs0mg"},{"bike_id":"94c4b56b-e2b5-4afa-9a43-30f61113e4c1","system_id":"levelo_inurba_marseille","lat":43.29849,"lon":5.36283,"is_reserved":false,"is_disabled":false,"rental_uris":{"android":"levelo://app?vid=94c4b56b-e2b5-4afa-9a43-30f61113e4c1","ios":"levelo://app?vid=94c4b56b-e2b5-4afa-9a43-30f61113e4c1"},"vehicle_type_id":"4","last_reported":1745478657,"current_range_meters":8000,"station_id":"ce4bgpp2rcd13ifvqc3g","pricing_plan_id":"cebpf4jnsgd1na2vs0mg"},{"bike_id":"c3569a44-0824-4dff-8a4f-ab1830c624b3","system_id":"levelo_inurba_marseille","lat":43.25935,"lon":5.409,"is_reserved":false,"is_disabled":false,"rental_uris":{"android":"levelo://app?vid=c3569a44-0824-4dff-8a4f-ab1830c624b3","ios":"levelo://app?vid=c3569a44-0824-4dff-8a4f-ab1830c624b3"},"vehicle_type_id":"4","last_reported":1745478657,"current_range_meters":8000,"station_id":"ce4bhm92rcd13ifvqglg","pricing_plan_id":"cebpf4jnsgd1na2vs0mg"},{"bike_id":"41bb7582-969f-4f7b-ac39-5a144f106ccc","system_id":"levelo_inurba_marseille","lat":43.27499,"lon":5.42457,"is_reserved":false,"is_disabled":false,"rental_uris":{"android":"levelo://app?vid=41bb7582-969f-4f7b-ac39-5a144f106ccc","ios":"levelo://app?vid=41bb7582-969f-4f7b-ac39-5a144f106ccc"},"vehicle_type_id":"4","last_reported":1745478657,"current_range_meters":8000,"station_id":"ce4bhn92rcd13ifvqgrg","pricing_plan_id":"cebpf4jnsgd1na2vs0mg"},{"bike_id":"235f2bae-0a04-4484-8459-9c3ece0a1b2c","system_id":"levelo_inurba_marseille","lat":43.30732,"lon":5.42457,"is_reserved":false,"is_disabled":false,"rental_uris":{"android":"levelo://app?vid=235f2bae-0a04-4484-8459-9c3ece0a1b2c","ios":"levelo://app?vid=235f2bae-0a04-4484-8459-9c3ece0a1b2c"},"vehicle_type_id":"4","last_reported":1745478657,"current_range_meters":8400,"station_id":"st_cvj6ca6bvosntc0bfgr0","pricing_plan_id":"cebpf4jnsgd1na2vs0mg"},{"bike_id":"7c3b76f6-6190-4b7f-b2c6-fc8d5a22d7a9","system_id":"levelo_inurba_marseille","lat":43.27491,"lon":5.42456,"is_reserved":false,"is_disabled":true,"rental_uris":{"android":"levelo://app?vid=7c3b76f6-6190-4b7f-b2c6-fc8d5a22d7a9","ios":"levelo://app?vid=7c3b76f6-6190-4b7f-b2c6-fc8d5a22d7a9"},"vehicle_type_id":"4","last_reported":1745478657,"current_range_meters":8400,"station_id":"ce4bhn92rcd13ifvqgrg","pricing_plan_id":"cebpf4jnsgd1na2vs0mg"},{"bike_id":"8b8c0d43-0f6c-4e98-bb72-06c0058c9ad3","system_id":"levelo_inurba_marseille","lat":43.29371,"lon":5.37852,"is_reserved":false,"is_disabled":false,"rental_uris":{"android":"levelo://app?vid=8b8c0d43-0f6c-4e98-bb72-06c0058c9ad3","ios":"levelo://app?vid=8b8c0d43-0f6c-4e98-bb72-06c0058c9ad3"},"vehicle_type_id":"4","last_reported":1745478657,"current_range_meters":8000,"station_id":"ce4bgjh2rcd13ifvqbf0","pricing_plan_id":"cebpf4jnsgd1na2vs0mg"},{"bike_id":"7e9d26b8-b748-4e10-b3e2-977d9fd05087","system_id":"levelo_inurba_marseille","lat":43.32583,"lon":5.36168,"is_reserved":false,"is_disabled":false,"rental_uris":{"android":"levelo://app?vid=7e9d26b8-b748-4e10-b3e2-977d9fd05087","ios":"levelo://app?vid=7e9d26b8-b748-4e10-b3e2-977d9fd05087"},"vehicle_type_id":"4","last_reported":1745478657,"current_range_meters":8400,"station_id":"","pricing_plan_id":"cebpf4jnsgd1na2vs0mg"},{"bike_id":"076bf52b-ff87-4143-9ba9-e217fecbca6d","system_id":"levelo_inurba_marseille","lat":43.27291,"lon":5.39327,"is_reserved":false,"is_disabled":false,"rental_uris":{"android":"levelo://app?vid=076bf52b-ff87-4143-9ba9-e217fecbca6d","ios":"levelo://app?vid=076bf52b-ff87-4143-9ba9-e217fecbca6d"},"vehicle_type_id":"4","last_reported":1745478657,"current_range_meters":8400,"station_id":"ce4bhhp2rcd13ifvqfm0","pricing_plan_id":"cebpf4jnsgd1na2vs0mg"},{"bike_id":"c97a8321-d4b7-4562-8ef3-855a605e6cf6","system_id":"levelo_inurba_marseille","lat":43.25935,"lon":5.40911,"is_reserved":false,"is_disabled":false,"rental_uris":{"android":"levelo://app?vid=c97a8321-d4b7-4562-8ef3-855a605e6cf6","ios":"levelo://app?vid=c97a8321-d4b7-4562-8ef3-855a605e6cf6"},"vehicle_type_id":"4","last_reported":1745478657,"current_range_meters":8400,"station_id":"ce4bhm92rcd13ifvqglg","pricing_plan_id":"cebpf4jnsgd1na2vs0mg"},{"bike_id":"3a148fc6-3ebe-43c6-b6e1-e255f073b2a3","system_id":"levelo_inurba_marseille","lat":43.32099,"lon":5.36769,"is_reserved":false,"is_disabled":false,"rental_uris":{"android":"levelo://app?vid=3a148fc6-3ebe-43c6-b6e1-e255f073b2a3","ios":"levelo://app?vid=3a148fc6-3ebe-43c6-b6e1-e255f073b2a3"},"vehicle_type_id":"4","last_reported":1745478657,"current_range_meters":8400,"station_id":"ce4bhrh2rcd13ifvqhug","pricing_plan_id":"cebpf4jnsgd1na2vs0mg"},{"bike_id":"9ac3ef30-659b-4bfa-be03-8c5d23f92efb","system_id":"levelo_inurba_marseille","lat":43.21742,"lon":5.34636,"is_reserved":false,"is_disabled":false,"rental_uris":{"android":"levelo://app?vid=9ac3ef30-659b-4bfa-be03-8c5d23f92efb","ios":"levelo://app?vid=9ac3ef30-659b-4bfa-be03-8c5d23f92efb"},"vehicle_type_id":"4","last_reported":1745478657,"current_range_meters":8400,"station_id":"st_cvj6r9ubvosntc0bgbag","pricing_plan_id":"cebpf4jnsgd1na2vs0mg"},{"bike_id":"62cb6edd-3660-4962-83e1-6950e0f1370a","system_id":"levelo_inurba_marseille","lat":43.28703,"lon":5.39984,"is_reserved":false,"is_disabled":false,"rental_uris":{"android":"levelo://app?vid=62cb6edd-3660-4962-83e1-6950e0f1370a","ios":"levelo://app?vid=62cb6edd-3660-4962-83e1-6950e0f1370a"},"vehicle_type_id":"4","last_reported":1745478657,"current_range_meters":8400,"station_id":"ce4bho92rcd13ifvqh3g","pricing_plan_id":"cebpf4jnsgd1na2vs0mg"},{"bike_id":"92c3b340-d069-4f1c-b55b-44c52f19597b","system_id":"levelo_inurba_marseille","lat":43.282518,"lon":5.377933,"is_reserved":false,"is_disabled":false,"rental_uris":{"android":"levelo://app?vid=92c3b340-d069-4f1c-b55b-44c52f19597b","ios":"levelo://app?vid=92c3b340-d069-4f1c-b55b-44c52f19597b"},"vehicle_type_id":"4","last_reported":1745478657,"current_range_meters":8800,"station_id":"","pricing_plan_id":"cebpf4jnsgd1na2vs0mg"},{"bike_id":"b96d48d5-fc65-423b-9a30-5d2c864e8939","system_id":"levelo_inurba_marseille","lat":43.22506,"lon":5.34784,"is_reserved":false,"is_disabled":false,"rental_uris":{"android":"levelo://app?vid=b96d48d5-fc65-423b-9a30-5d2c864e8939","ios":"levelo://app?vid=b96d48d5-fc65-423b-9a30-5d2c864e8939"},"vehicle_type_id":"4","last_reported":1745478657,"current_range_meters":8800,"station_id":"st_cvj5dfep6f1abm77gieg","pricing_plan_id":"cebpf4jnsgd1na2vs0mg"},{"bike_id":"63fe7eec-3f87-4192-bc20-0febf77d02e5","system_id":"levelo_inurba_marseille","lat":43.31492,"lon":5.37306,"is_reserved":false,"is_disabled":false,"rental_uris":{"android":"levelo://app?vid=63fe7eec-3f87-4192-bc20-0febf77d02e5","ios":"levelo://app?vid=63fe7eec-3f87-4192-bc20-0febf77d02e5"},"vehicle_type_id":"4","last_reported":1745478657,"current_range_meters":8800,"station_id":"ce4bgt12rcd13ifvqcd0","pricing_plan_id":"cebpf4jnsgd1na2vs0mg"},{"bike_id":"4d8ef366-36a3-4031-adee-5887b338bc35","system_id":"levelo_inurba_marseille","lat":43.31997,"lon":5.38169,"is_reserved":false,"is_disabled":false,"rental_uris":{"android":"levelo://app?vid=4d8ef366-36a3-4031-adee-5887b338bc35","ios":"levelo://app?vid=4d8ef366-36a3-4031-adee-5887b338bc35"},"vehicle_type_id":"4","last_reported":1745478657,"current_range_meters":8800,"station_id":"ce4bhr12rcd13ifvqhpg","pricing_plan_id":"cebpf4jnsgd1na2vs0mg"},{"bike_id":"ab62615a-d547-4800-b009-4c0fb7185893","system_id":"levelo_inurba_marseille","lat":43.30456,"lon":5.37908,"is_reserved":false,"is_disabled":true,"rental_uris":{"android":"levelo://app?vid=ab62615a-d547-4800-b009-4c0fb7185893","ios":"levelo://app?vid=ab62615a-d547-4800-b009-4c0fb7185893"},"vehicle_type_id":"4","last_reported":1745478657,"current_range_meters":8800,"station_id":"ce4bgup2rcd13ifvqcn0","pricing_plan_id":"cebpf4jnsgd1na2vs0mg"},{"bike_id":"417968c5-6810-46fe-8e87-a900f856d33b","system_id":"levelo_inurba_marseille","lat":43.296495,"lon":5.377959,"is_reserved":false,"is_disabled":false,"rental_uris":{"android":"levelo://app?vid=417968c5-6810-46fe-8e87-a900f856d33b","ios":"levelo://app?vid=417968c5-6810-46fe-8e87-a900f856d33b"},"vehicle_type_id":"4","last_reported":1745478657,"current_range_meters":10000,"station_id":"ce4bgkh2rcd13ifvqbl0","pricing_plan_id":"cebpf4jnsgd1na2vs0mg"},{"bike_id":"8c7cba96-a3d5-439a-9e64-c18b09dd7aa5","system_id":"levelo_inurba_marseille","lat":43.29546,"lon":5.42267,"is_reserved":false,"is_disabled":false,"rental_uris":{"android":"levelo://app?vid=8c7cba96-a3d5-439a-9e64-c18b09dd7aa5","ios":"levelo://app?vid=8c7cba96-a3d5-439a-9e64-c18b09dd7aa5"},"vehicle_type_id":"4","last_reported":1745478657,"current_range_meters":8800,"station_id":"ce4bhph2rcd13ifvqhdg","pricing_plan_id":"cebpf4jnsgd1na2vs0mg"},{"bike_id":"5cec985c-475e-4a47-afd7-2118745a458f","system_id":"levelo_inurba_marseille","lat":43.22928,"lon":5.35392,"is_reserved":false,"is_disabled":false,"rental_uris":{"android":"levelo://app?vid=5cec985c-475e-4a47-afd7-2118745a458f","ios":"levelo://app?vid=5cec985c-475e-4a47-afd7-2118745a458f"},"vehicle_type_id":"4","last_reported":1745478657,"current_range_meters":8800,"station_id":"cpo3532slgdg3j2ikp40","pricing_plan_id":"cebpf4jnsgd1na2vs0mg"},{"bike_id":"d6a00241-8f25-44db-ac6d-8e84872db2a8","system_id":"levelo_inurba_marseille","lat":43.33734,"lon":5.39177,"is_reserved":false,"is_disabled":false,"rental_uris":{"android":"levelo://app?vid=d6a00241-8f25-44db-ac6d-8e84872db2a8","ios":"levelo://app?vid=d6a00241-8f25-44db-ac6d-8e84872db2a8"},"vehicle_type_id":"4","last_reported":1745478657,"current_range_meters":9200,"station_id":"ce4bhr92rcd13ifvqhsg","pricing_plan_id":"cebpf4jnsgd1na2vs0mg"},{"bike_id":"61034bff-863b-4f17-b306-04653b14a109","system_id":"levelo_inurba_marseille","lat":43.30922,"lon":5.4013,"is_reserved":false,"is_disabled":true,"rental_uris":{"android":"levelo://app?vid=61034bff-863b-4f17-b306-04653b14a109","ios":"levelo://app?vid=61034bff-863b-4f17-b306-04653b14a109"},"vehicle_type_id":"4","last_reported":1745478657,"current_range_meters":9200,"station_id":"ce4bgvp2rcd13ifvqct0","pricing_plan_id":"cebpf4jnsgd1na2vs0mg"},{"bike_id":"abd226a8-d003-4133-b9d2-b7c952b7ead1","system_id":"levelo_inurba_marseille","lat":43.23058,"lon":5.35494,"is_reserved":false,"is_disabled":false,"rental_uris":{"android":"levelo://app?vid=abd226a8-d003-4133-b9d2-b7c952b7ead1","ios":"levelo://app?vid=abd226a8-d003-4133-b9d2-b7c952b7ead1"},"vehicle_type_id":"4","last_reported":1745478657,"current_range_meters":9200,"station_id":"cpo3342slgdg3j2ifvpg","pricing_plan_id":"cebpf4jnsgd1na2vs0mg"},{"bike_id":"b7603235-e400-4576-a763-cb12ae62822e","system_id":"levelo_inurba_marseille","lat":43.281345,"lon":5.351443,"is_reserved":false,"is_disabled":false,"rental_uris":{"android":"levelo://app?vid=b7603235-e400-4576-a763-cb12ae62822e","ios":"levelo://app?vid=b7603235-e400-4576-a763-cb12ae62822e"},"vehicle_type_id":"4","last_reported":1745478657,"current_range_meters":9200,"station_id":"ce4bhb12rcd13ifvqel0","pricing_plan_id":"cebpf4jnsgd1na2vs0mg"},{"bike_id":"d98a684b-1287-4cc3-8c6e-fbb08effed4f","system_id":"levelo_inurba_marseille","lat":43.28718,"lon":5.37938,"is_reserved":false,"is_disabled":false,"rental_uris":{"android":"levelo://app?vid=d98a684b-1287-4cc3-8c6e-fbb08effed4f","ios":"levelo://app?vid=d98a684b-1287-4cc3-8c6e-fbb08effed4f"},"vehicle_type_id":"4","last_reported":1745478657,"current_range_meters":9200,"station_id":"ce4bh9p2rcd13ifvqec0","pricing_plan_id":"cebpf4jnsgd1na2vs0mg"},{"bike_id":"8bdaa762-50c4-4608-8541-2e6fa0459ccf","system_id":"levelo_inurba_marseille","lat":43.30548,"lon":5.3669,"is_reserved":false,"is_disabled":true,"rental_uris":{"android":"levelo://app?vid=8bdaa762-50c4-4608-8541-2e6fa0459ccf","ios":"levelo://app?vid=8bdaa762-50c4-4608-8541-2e6fa0459ccf"},"vehicle_type_id":"4","last_reported":1745478657,"current_range_meters":9600,"station_id":"ce4bgrp2rcd13ifvqc9g","pricing_plan_id":"cebpf4jnsgd1na2vs0mg"},{"bike_id":"27fc9594-b16a-4e7d-8925-56d936c07a2f","system_id":"levelo_inurba_marseille","lat":43.29844,"lon":5.36266,"is_reserved":false,"is_disabled":false,"rental_uris":{"android":"levelo://app?vid=27fc9594-b16a-4e7d-8925-56d936c07a2f","ios":"levelo://app?vid=27fc9594-b16a-4e7d-8925-56d936c07a2f"},"vehicle_type_id":"4","last_reported":1745478657,"current_range_meters":9200,"station_id":"ce4bgpp2rcd13ifvqc3g","pricing_plan_id":"cebpf4jnsgd1na2vs0mg"},{"bike_id":"79e4f885-f837-4792-8fd3-fc8c2cdfbdfd","system_id":"levelo_inurba_marseille","lat":43.31349,"lon":5.36724,"is_reserved":false,"is_disabled":false,"rental_uris":{"android":"levelo://app?vid=79e4f885-f837-4792-8fd3-fc8c2cdfbdfd","ios":"levelo://app?vid=79e4f885-f837-4792-8fd3-fc8c2cdfbdfd"},"vehicle_type_id":"4","last_reported":1745478657,"current_range_meters":9600,"station_id":"ce4bgr92rcd13ifvqc6g","pricing_plan_id":"cebpf4jnsgd1na2vs0mg"},{"bike_id":"48ccfd11-f8bb-41a1-ac27-104e29a72006","system_id":"levelo_inurba_marseille","lat":43.29362,"lon":5.37835,"is_reserved":false,"is_disabled":false,"rental_uris":{"android":"levelo://app?vid=48ccfd11-f8bb-41a1-ac27-104e29a72006","ios":"levelo://app?vid=48ccfd11-f8bb-41a1-ac27-104e29a72006"},"vehicle_type_id":"4","last_reported":1745478657,"current_range_meters":8800,"station_id":"ce4bgjh2rcd13ifvqbf0","pricing_plan_id":"cebpf4jnsgd1na2vs0mg"},{"bike_id":"a8509173-dfdb-40ba-98b3-8d0f97d9b4de","system_id":"levelo_inurba_marseille","lat":43.274297,"lon":5.361756,"is_reserved":false,"is_disabled":false,"rental_uris":{"android":"levelo://app?vid=a8509173-dfdb-40ba-98b3-8d0f97d9b4de","ios":"levelo://app?vid=a8509173-dfdb-40ba-98b3-8d0f97d9b4de"},"vehicle_type_id":"4","last_reported":1745478657,"current_range_meters":9600,"station_id":"ce4bgkh2rcd13ifvqbl0","pricing_plan_id":"cebpf4jnsgd1na2vs0mg"},{"bike_id":"8b2155e4-900e-439b-a415-a2baf367dd39","system_id":"levelo_inurba_marseille","lat":43.29023,"lon":5.37575,"is_reserved":false,"is_disabled":false,"rental_uris":{"android":"levelo://app?vid=8b2155e4-900e-439b-a415-a2baf367dd39","ios":"levelo://app?vid=8b2155e4-900e-439b-a415-a2baf367dd39"},"vehicle_type_id":"4","last_reported":1745478657,"current_range_meters":9600,"station_id":"ce4bh692rcd13ifvqe90","pricing_plan_id":"cebpf4jnsgd1na2vs0mg"},{"bike_id":"8fb44261-49c3-4680-b8bd-36f293c27199","system_id":"levelo_inurba_marseille","lat":43.240663,"lon":5.377661,"is_reserved":false,"is_disabled":false,"rental_uris":{"android":"levelo://app?vid=8fb44261-49c3-4680-b8bd-36f293c27199","ios":"levelo://app?vid=8fb44261-49c3-4680-b8bd-36f293c27199"},"vehicle_type_id":"4","last_reported":1745478657,"current_range_meters":9600,"station_id":"ce4bhnp2rcd13ifvqgvg","pricing_plan_id":"cebpf4jnsgd1na2vs0mg"},{"bike_id":"8792fed3-1286-4e6e-817a-651bc95ae416","system_id":"levelo_inurba_marseille","lat":43.32479,"lon":5.36565,"is_reserved":false,"is_disabled":false,"rental_uris":{"android":"levelo://app?vid=8792fed3-1286-4e6e-817a-651bc95ae416","ios":"levelo://app?vid=8792fed3-1286-4e6e-817a-651bc95ae416"},"vehicle_type_id":"4","last_reported":1745478657,"current_range_meters":9600,"station_id":"ce4bhs12rcd13ifvqhvg","pricing_plan_id":"cebpf4jnsgd1na2vs0mg"},{"bike_id":"1b8b7145-49a7-4fe1-96a2-72a1d6e84a54","system_id":"levelo_inurba_marseille","lat":43.23058,"lon":5.35489,"is_reserved":false,"is_disabled":false,"rental_uris":{"android":"levelo://app?vid=1b8b7145-49a7-4fe1-96a2-72a1d6e84a54","ios":"levelo://app?vid=1b8b7145-49a7-4fe1-96a2-72a1d6e84a54"},"vehicle_type_id":"4","last_reported":1745478657,"current_range_meters":9600,"station_id":"cpo3342slgdg3j2ifvpg","pricing_plan_id":"cebpf4jnsgd1na2vs0mg"},{"bike_id":"29c53ac4-02a0-432a-9e4a-02ed48092088","system_id":"levelo_inurba_marseille","lat":43.299243,"lon":5.374723,"is_reserved":false,"is_disabled":false,"rental_uris":{"android":"levelo://app?vid=29c53ac4-02a0-432a-9e4a-02ed48092088","ios":"levelo://app?vid=29c53ac4-02a0-432a-9e4a-02ed48092088"},"vehicle_type_id":"4","last_reported":1745478657,"current_range_meters":9200,"station_id":"ce4bgjh2rcd13ifvqbg0","pricing_plan_id":"cebpf4jnsgd1na2vs0mg"},{"bike_id":"27c05df6-8a91-4ca8-984f-88f6525a00cd","system_id":"levelo_inurba_marseille","lat":43.24786,"lon":5.37348,"is_reserved":false,"is_disabled":false,"rental_uris":{"android":"levelo://app?vid=27c05df6-8a91-4ca8-984f-88f6525a00cd","ios":"levelo://app?vid=27c05df6-8a91-4ca8-984f-88f6525a00cd"},"vehicle_type_id":"4","last_reported":1745478657,"current_range_meters":10000,"station_id":"","pricing_plan_id":"cebpf4jnsgd1na2vs0mg"},{"bike_id":"bdcc29ba-c9ac-42ac-9da0-b21f9c5bf966","system_id":"levelo_inurba_marseille","lat":43.23152,"lon":5.43715,"is_reserved":false,"is_disabled":false,"rental_uris":{"android":"levelo://app?vid=bdcc29ba-c9ac-42ac-9da0-b21f9c5bf966","ios":"levelo://app?vid=bdcc29ba-c9ac-42ac-9da0-b21f9c5bf966"},"vehicle_type_id":"4","last_reported":1745478657,"current_range_meters":10800,"station_id":"ce4bhmp2rcd13ifvqgog","pricing_plan_id":"cebpf4jnsgd1na2vs0mg"},{"bike_id":"527ab9af-1602-4e3b-a3d5-77f5acec1ebf","system_id":"levelo_inurba_marseille","lat":43.26183,"lon":5.37462,"is_reserved":false,"is_disabled":true,"rental_uris":{"android":"levelo://app?vid=527ab9af-1602-4e3b-a3d5-77f5acec1ebf","ios":"levelo://app?vid=527ab9af-1602-4e3b-a3d5-77f5acec1ebf"},"vehicle_type_id":"4","last_reported":1745478657,"current_range_meters":10800,"station_id":"ce4bhgp2rcd13ifvqfc0","pricing_plan_id":"cebpf4jnsgd1na2vs0mg"},{"bike_id":"389ee9d3-8a2d-40be-ae6e-77a16175f5f1","system_id":"levelo_inurba_marseille","lat":43.29873,"lon":5.39725,"is_reserved":false,"is_disabled":false,"rental_uris":{"android":"levelo://app?vid=389ee9d3-8a2d-40be-ae6e-77a16175f5f1","ios":"levelo://app?vid=389ee9d3-8a2d-40be-ae6e-77a16175f5f1"},"vehicle_type_id":"4","last_reported":1745478657,"current_range_meters":10800,"station_id":"ce4bh0h2rcd13ifvqd50","pricing_plan_id":"cebpf4jnsgd1na2vs0mg"},{"bike_id":"5f47d0c6-ea7f-4031-beca-108ca52404d8","system_id":"levelo_inurba_marseille","lat":43.30535,"lon":5.36548,"is_reserved":false,"is_disabled":false,"rental_uris":{"android":"levelo://app?vid=5f47d0c6-ea7f-4031-beca-108ca52404d8","ios":"levelo://app?vid=5f47d0c6-ea7f-4031-beca-108ca52404d8"},"vehicle_type_id":"4","last_reported":1745478657,"current_range_meters":10800,"station_id":"ce4bgs12rcd13ifvqcag","pricing_plan_id":"cebpf4jnsgd1na2vs0mg"},{"bike_id":"6d08a97e-fed3-4413-8323-3a3548da0b33","system_id":"levelo_inurba_marseille","lat":43.2669,"lon":5.38267,"is_reserved":false,"is_disabled":false,"rental_uris":{"android":"levelo://app?vid=6d08a97e-fed3-4413-8323-3a3548da0b33","ios":"levelo://app?vid=6d08a97e-fed3-4413-8323-3a3548da0b33"},"vehicle_type_id":"4","last_reported":1745478657,"current_range_meters":10800,"station_id":"ce4bhg92rcd13ifvqf90","pricing_plan_id":"cebpf4jnsgd1na2vs0mg"},{"bike_id":"9ab7bf5e-724a-45c5-a946-61afe36b1204","system_id":"levelo_inurba_marseille","lat":43.30322,"lon":5.40433,"is_reserved":false,"is_disabled":true,"rental_uris":{"android":"levelo://app?vid=9ab7bf5e-724a-45c5-a946-61afe36b1204","ios":"levelo://app?vid=9ab7bf5e-724a-45c5-a946-61afe36b1204"},"vehicle_type_id":"4","last_reported":1745478657,"current_range_meters":11200,"station_id":"ce4bh012rcd13ifvqd10","pricing_plan_id":"cebpf4jnsgd1na2vs0mg"},{"bike_id":"ee4ff639-d287-4bdf-b3db-1844b57e4bf0","system_id":"levelo_inurba_marseille","lat":43.31344,"lon":5.36702,"is_reserved":false,"is_disabled":false,"rental_uris":{"android":"levelo://app?vid=ee4ff639-d287-4bdf-b3db-1844b57e4bf0","ios":"levelo://app?vid=ee4ff639-d287-4bdf-b3db-1844b57e4bf0"},"vehicle_type_id":"4","last_reported":1745478657,"current_range_meters":11200,"station_id":"ce4bgr92rcd13ifvqc6g","pricing_plan_id":"cebpf4jnsgd1na2vs0mg"},{"bike_id":"2374c26d-b9b2-4d62-8f1b-86d0d54b8840","system_id":"levelo_inurba_marseille","lat":43.24085,"lon":5.37765,"is_reserved":false,"is_disabled":false,"rental_uris":{"android":"levelo://app?vid=2374c26d-b9b2-4d62-8f1b-86d0d54b8840","ios":"levelo://app?vid=2374c26d-b9b2-4d62-8f1b-86d0d54b8840"},"vehicle_type_id":"4","last_reported":1745478657,"current_range_meters":11200,"station_id":"ce4bhnp2rcd13ifvqgvg","pricing_plan_id":"cebpf4jnsgd1na2vs0mg"},{"bike_id":"99c20a72-9868-4940-b443-cadbf07f72e2","system_id":"levelo_inurba_marseille","lat":43.30979,"lon":5.39048,"is_reserved":false,"is_disabled":true,"rental_uris":{"android":"levelo://app?vid=99c20a72-9868-4940-b443-cadbf07f72e2","ios":"levelo://app?vid=99c20a72-9868-4940-b443-cadbf07f72e2"},"vehicle_type_id":"4","last_reported":1745478657,"current_range_meters":11600,"station_id":"ce4bgup2rcd13ifvqco0","pricing_plan_id":"cebpf4jnsgd1na2vs0mg"},{"bike_id":"30e08c8c-a2b6-45d6-9704-9460af4f4d07","system_id":"levelo_inurba_marseille","lat":43.31078,"lon":5.42424,"is_reserved":false,"is_disabled":false,"rental_uris":{"android":"levelo://app?vid=30e08c8c-a2b6-45d6-9704-9460af4f4d07","ios":"levelo://app?vid=30e08c8c-a2b6-45d6-9704-9460af4f4d07"},"vehicle_type_id":"4","last_reported":1745478657,"current_range_meters":11600,"station_id":"ce4bhp92rcd13ifvqhag","pricing_plan_id":"cebpf4jnsgd1na2vs0mg"},{"bike_id":"79552dee-baba-453d-bdbf-620f9f8510aa","system_id":"levelo_inurba_marseille","lat":43.30899,"lon":5.36853,"is_reserved":false,"is_disabled":false,"rental_uris":{"android":"levelo://app?vid=79552dee-baba-453d-bdbf-620f9f8510aa","ios":"levelo://app?vid=79552dee-baba-453d-bdbf-620f9f8510aa"},"vehicle_type_id":"4","last_reported":1745478657,"current_range_meters":11600,"station_id":"ce4bgn92rcd13ifvqbvg","pricing_plan_id":"cebpf4jnsgd1na2vs0mg"},{"bike_id":"aae208e2-4035-414a-9c2d-d418ed074ba2","system_id":"levelo_inurba_marseille","lat":43.29067,"lon":5.37153,"is_reserved":false,"is_disabled":false,"rental_uris":{"android":"levelo://app?vid=aae208e2-4035-414a-9c2d-d418ed074ba2","ios":"levelo://app?vid=aae208e2-4035-414a-9c2d-d418ed074ba2"},"vehicle_type_id":"4","last_reported":1745478657,"current_range_meters":11600,"station_id":"ce4bh5p2rcd13ifvqe4g","pricing_plan_id":"cebpf4jnsgd1na2vs0mg"},{"bike_id":"c3ff3bbc-6848-4080-bb71-d60c3e8eb019","system_id":"levelo_inurba_marseille","lat":43.297777,"lon":5.374026,"is_reserved":false,"is_disabled":false,"rental_uris":{"android":"levelo://app?vid=c3ff3bbc-6848-4080-bb71-d60c3e8eb019","ios":"levelo://app?vid=c3ff3bbc-6848-4080-bb71-d60c3e8eb019"},"vehicle_type_id":"4","last_reported":1745478657,"current_range_meters":12000,"station_id":"ce4bgk12rcd13ifvqbj0","pricing_plan_id":"cebpf4jnsgd1na2vs0mg"},{"bike_id":"11ce02ec-5de1-4d28-b35b-b9d2498a4135","system_id":"levelo_inurba_marseille","lat":43.230604,"lon":5.355053,"is_reserved":false,"is_disabled":false,"rental_uris":{"android":"levelo://app?vid=11ce02ec-5de1-4d28-b35b-b9d2498a4135","ios":"levelo://app?vid=11ce02ec-5de1-4d28-b35b-b9d2498a4135"},"vehicle_type_id":"4","last_reported":1745478657,"current_range_meters":12000,"station_id":"cpo3342slgdg3j2ifvpg","pricing_plan_id":"cebpf4jnsgd1na2vs0mg"},{"bike_id":"f6341b5b-1f7b-4d13-869e-e14c081b350b","system_id":"levelo_inurba_marseille","lat":43.33022,"lon":5.3905,"is_reserved":false,"is_disabled":false,"rental_uris":{"android":"levelo://app?vid=f6341b5b-1f7b-4d13-869e-e14c081b350b","ios":"levelo://app?vid=f6341b5b-1f7b-4d13-869e-e14c081b350b"},"vehicle_type_id":"4","last_reported":1745478657,"current_range_meters":12000,"station_id":"ce4bhr92rcd13ifvqhrg","pricing_plan_id":"cebpf4jnsgd1na2vs0mg"},{"bike_id":"7bf0a64a-c745-4893-bcc7-703058a51e7f","system_id":"levelo_inurba_marseille","lat":43.28925,"lon":5.38388,"is_reserved":false,"is_disabled":true,"rental_uris":{"android":"levelo://app?vid=7bf0a64a-c745-4893-bcc7-703058a51e7f","ios":"levelo://app?vid=7bf0a64a-c745-4893-bcc7-703058a51e7f"},"vehicle_type_id":"4","last_reported":1745478657,"current_range_meters":12000,"station_id":"","pricing_plan_id":"cebpf4jnsgd1na2vs0mg"},{"bike_id":"162104c9-c9c3-41e8-9022-0f16a6a968c6","system_id":"levelo_inurba_marseille","lat":43.330062,"lon":5.390424,"is_reserved":false,"is_disabled":false,"rental_uris":{"android":"levelo://app?vid=162104c9-c9c3-41e8-9022-0f16a6a968c6","ios":"levelo://app?vid=162104c9-c9c3-41e8-9022-0f16a6a968c6"},"vehicle_type_id":"4","last_reported":1745478657,"current_range_meters":12400,"station_id":"ce4bhr92rcd13ifvqhrg","pricing_plan_id":"cebpf4jnsgd1na2vs0mg"},{"bike_id":"3cea1dc0-1bab-4d8b-955e-ad41dd10376b","system_id":"levelo_inurba_marseille","lat":43.31236,"lon":5.36758,"is_reserved":false,"is_disabled":false,"rental_uris":{"android":"levelo://app?vid=3cea1dc0-1bab-4d8b-955e-ad41dd10376b","ios":"levelo://app?vid=3cea1dc0-1bab-4d8b-955e-ad41dd10376b"},"vehicle_type_id":"4","last_reported":1745478657,"current_range_meters":12800,"station_id":"","pricing_plan_id":"cebpf4jnsgd1na2vs0mg"},{"bike_id":"46374c49-3adc-4c5a-8966-e00f056c0d57","system_id":"levelo_inurba_marseille","lat":43.27846,"lon":5.35442,"is_reserved":false,"is_disabled":false,"rental_uris":{"android":"levelo://app?vid=46374c49-3adc-4c5a-8966-e00f056c0d57","ios":"levelo://app?vid=46374c49-3adc-4c5a-8966-e00f056c0d57"},"vehicle_type_id":"4","last_reported":1745478657,"current_range_meters":12800,"station_id":"","pricing_plan_id":"cebpf4jnsgd1na2vs0mg"},{"bike_id":"29c27f6c-b172-4d99-add3-c74bdfc6be20","system_id":"levelo_inurba_marseille","lat":43.33024,"lon":5.39041,"is_reserved":false,"is_disabled":false,"rental_uris":{"android":"levelo://app?vid=29c27f6c-b172-4d99-add3-c74bdfc6be20","ios":"levelo://app?vid=29c27f6c-b172-4d99-add3-c74bdfc6be20"},"vehicle_type_id":"4","last_reported":1745478657,"current_range_meters":12800,"station_id":"ce4bhr92rcd13ifvqhrg","pricing_plan_id":"cebpf4jnsgd1na2vs0mg"},{"bike_id":"755abc1a-f797-479c-8e88-5f59f436c9d9","system_id":"levelo_inurba_marseille","lat":43.23955,"lon":5.36647,"is_reserved":false,"is_disabled":true,"rental_uris":{"android":"levelo://app?vid=755abc1a-f797-479c-8e88-5f59f436c9d9","ios":"levelo://app?vid=755abc1a-f797-479c-8e88-5f59f436c9d9"},"vehicle_type_id":"4","last_reported":1745478657,"current_range_meters":12800,"station_id":"ce4bhi12rcd13ifvqfp0","pricing_plan_id":"cebpf4jnsgd1na2vs0mg"},{"bike_id":"6f92f117-db41-48e4-8e04-0cb28a1484e0","system_id":"levelo_inurba_marseille","lat":43.30531,"lon":5.36708,"is_reserved":false,"is_disabled":false,"rental_uris":{"android":"levelo://app?vid=6f92f117-db41-48e4-8e04-0cb28a1484e0","ios":"levelo://app?vid=6f92f117-db41-48e4-8e04-0cb28a1484e0"},"vehicle_type_id":"4","last_reported":1745478657,"current_range_meters":13600,"station_id":"ce4bgrp2rcd13ifvqc9g","pricing_plan_id":"cebpf4jnsgd1na2vs0mg"},{"bike_id":"a919040d-3836-4c92-8d0b-f13f0f0b5cb5","system_id":"levelo_inurba_marseille","lat":43.31345,"lon":5.36726,"is_reserved":false,"is_disabled":false,"rental_uris":{"android":"levelo://app?vid=a919040d-3836-4c92-8d0b-f13f0f0b5cb5","ios":"levelo://app?vid=a919040d-3836-4c92-8d0b-f13f0f0b5cb5"},"vehicle_type_id":"4","last_reported":1745478657,"current_range_meters":13600,"station_id":"ce4bgr92rcd13ifvqc6g","pricing_plan_id":"cebpf4jnsgd1na2vs0mg"},{"bike_id":"4d8697b4-e520-4025-83e9-e9246902a88c","system_id":"levelo_inurba_marseille","lat":43.30911,"lon":5.36846,"is_reserved":false,"is_disabled":false,"rental_uris":{"android":"levelo://app?vid=4d8697b4-e520-4025-83e9-e9246902a88c","ios":"levelo://app?vid=4d8697b4-e520-4025-83e9-e9246902a88c"},"vehicle_type_id":"4","last_reported":1745478657,"current_range_meters":13600,"station_id":"ce4bgn92rcd13ifvqbvg","pricing_plan_id":"cebpf4jnsgd1na2vs0mg"},{"bike_id":"ee93a7ac-65d9-4de3-bb03-923142356189","system_id":"levelo_inurba_marseille","lat":43.28419,"lon":5.375,"is_reserved":false,"is_disabled":false,"rental_uris":{"android":"levelo://app?vid=ee93a7ac-65d9-4de3-bb03-923142356189","ios":"levelo://app?vid=ee93a7ac-65d9-4de3-bb03-923142356189"},"vehicle_type_id":"4","last_reported":1745478657,"current_range_meters":14000,"station_id":"ce4bh412rcd13ifvqds0","pricing_plan_id":"cebpf4jnsgd1na2vs0mg"},{"bike_id":"af65789b-0ffa-492c-bcb2-6d14bb3e2111","system_id":"levelo_inurba_marseille","lat":43.31329,"lon":5.36723,"is_reserved":false,"is_disabled":false,"rental_uris":{"android":"levelo://app?vid=af65789b-0ffa-492c-bcb2-6d14bb3e2111","ios":"levelo://app?vid=af65789b-0ffa-492c-bcb2-6d14bb3e2111"},"vehicle_type_id":"4","last_reported":1745478657,"current_range_meters":14000,"station_id":"ce4bgr92rcd13ifvqc6g","pricing_plan_id":"cebpf4jnsgd1na2vs0mg"},{"bike_id":"6593b2bc-ad9f-412d-9baa-4c321b96eb65","system_id":"levelo_inurba_marseille","lat":43.30895,"lon":5.3718,"is_reserved":false,"is_disabled":false,"rental_uris":{"android":"levelo://app?vid=6593b2bc-ad9f-412d-9baa-4c321b96eb65","ios":"levelo://app?vid=6593b2bc-ad9f-412d-9baa-4c321b96eb65"},"vehicle_type_id":"4","last_reported":1745478657,"current_range_meters":14000,"station_id":"ce4bguh2rcd13ifvqckg","pricing_plan_id":"cebpf4jnsgd1na2vs0mg"},{"bike_id":"11823a51-ce6a-4329-86c9-73570c28fb5e","system_id":"levelo_inurba_marseille","lat":43.29566,"lon":5.37507,"is_reserved":false,"is_disabled":false,"rental_uris":{"android":"levelo://app?vid=11823a51-ce6a-4329-86c9-73570c28fb5e","ios":"levelo://app?vid=11823a51-ce6a-4329-86c9-73570c28fb5e"},"vehicle_type_id":"4","last_reported":1745478657,"current_range_meters":14000,"station_id":"ce4bgh92rcd13ifvqb50","pricing_plan_id":"cebpf4jnsgd1na2vs0mg"},{"bike_id":"a8f81d52-5e6c-4c5e-b13b-df55b6989d86","system_id":"levelo_inurba_marseille","lat":43.303432,"lon":5.379108,"is_reserved":false,"is_disabled":true,"rental_uris":{"android":"levelo://app?vid=a8f81d52-5e6c-4c5e-b13b-df55b6989d86","ios":"levelo://app?vid=a8f81d52-5e6c-4c5e-b13b-df55b6989d86"},"vehicle_type_id":"4","last_reported":1745478657,"current_range_meters":14400,"station_id":"","pricing_plan_id":"cebpf4jnsgd1na2vs0mg"},{"bike_id":"2c3b0635-b6f1-4c0d-8323-cbcfcb300638","system_id":"levelo_inurba_marseille","lat":43.28616,"lon":5.35105,"is_reserved":false,"is_disabled":false,"rental_uris":{"android":"levelo://app?vid=2c3b0635-b6f1-4c0d-8323-cbcfcb300638","ios":"levelo://app?vid=2c3b0635-b6f1-4c0d-8323-cbcfcb300638"},"vehicle_type_id":"4","last_reported":1745478657,"current_range_meters":14400,"station_id":"ce4bhch2rcd13ifvqeug","pricing_plan_id":"cebpf4jnsgd1na2vs0mg"},{"bike_id":"abc6f68b-661b-4984-8200-d9b20829cc1d","system_id":"levelo_inurba_marseille","lat":43.3149,"lon":5.37324,"is_reserved":false,"is_disabled":false,"rental_uris":{"android":"levelo://app?vid=abc6f68b-661b-4984-8200-d9b20829cc1d","ios":"levelo://app?vid=abc6f68b-661b-4984-8200-d9b20829cc1d"},"vehicle_type_id":"4","last_reported":1745478657,"current_range_meters":14400,"station_id":"ce4bgt12rcd13ifvqcd0","pricing_plan_id":"cebpf4jnsgd1na2vs0mg"},{"bike_id":"ff70c1f4-4552-4170-a854-bc987c421b37","system_id":"levelo_inurba_marseille","lat":43.26784,"lon":5.39413,"is_reserved":false,"is_disabled":false,"rental_uris":{"android":"levelo://app?vid=ff70c1f4-4552-4170-a854-bc987c421b37","ios":"levelo://app?vid=ff70c1f4-4552-4170-a854-bc987c421b37"},"vehicle_type_id":"4","last_reported":1745478657,"current_range_meters":14800,"station_id":"ce4bhh12rcd13ifvqfg0","pricing_plan_id":"cebpf4jnsgd1na2vs0mg"},{"bike_id":"8ab2ed8d-364c-4252-a36f-2dad9a4f2a15","system_id":"levelo_inurba_marseille","lat":43.23964,"lon":5.36648,"is_reserved":false,"is_disabled":false,"rental_uris":{"android":"levelo://app?vid=8ab2ed8d-364c-4252-a36f-2dad9a4f2a15","ios":"levelo://app?vid=8ab2ed8d-364c-4252-a36f-2dad9a4f2a15"},"vehicle_type_id":"4","last_reported":1745478657,"current_range_meters":14800,"station_id":"ce4bhi12rcd13ifvqfp0","pricing_plan_id":"cebpf4jnsgd1na2vs0mg"},{"bike_id":"d2f9ab38-d77b-417d-8e17-1403be698e41","system_id":"levelo_inurba_marseille","lat":43.24059,"lon":5.37759,"is_reserved":false,"is_disabled":true,"rental_uris":{"android":"levelo://app?vid=d2f9ab38-d77b-417d-8e17-1403be698e41","ios":"levelo://app?vid=d2f9ab38-d77b-417d-8e17-1403be698e41"},"vehicle_type_id":"4","last_reported":1745478657,"current_range_meters":14800,"station_id":"ce4bhnp2rcd13ifvqgvg","pricing_plan_id":"cebpf4jnsgd1na2vs0mg"},{"bike_id":"3de7ba8d-ad4f-409b-8f92-39eefa9baa44","system_id":"levelo_inurba_marseille","lat":43.2582,"lon":5.39432,"is_reserved":false,"is_disabled":false,"rental_uris":{"android":"levelo://app?vid=3de7ba8d-ad4f-409b-8f92-39eefa9baa44","ios":"levelo://app?vid=3de7ba8d-ad4f-409b-8f92-39eefa9baa44"},"vehicle_type_id":"4","last_reported":1745478657,"current_range_meters":16000,"station_id":"ce4bhip2rcd13ifvqft0","pricing_plan_id":"cebpf4jnsgd1na2vs0mg"},{"bike_id":"c8cc5bc6-4aee-4811-8513-2b242b7ce89b","system_id":"levelo_inurba_marseille","lat":43.23193,"lon":5.35548,"is_reserved":false,"is_disabled":false,"rental_uris":{"android":"levelo://app?vid=c8cc5bc6-4aee-4811-8513-2b242b7ce89b","ios":"levelo://app?vid=c8cc5bc6-4aee-4811-8513-2b242b7ce89b"},"vehicle_type_id":"4","last_reported":1745478657,"current_range_meters":15200,"station_id":"ce4bhu92rcd13ifvqi70","pricing_plan_id":"cebpf4jnsgd1na2vs0mg"},{"bike_id":"fa8a552a-d2d3-4e8d-8d8e-02bdba037836","system_id":"levelo_inurba_marseille","lat":43.230699,"lon":5.35493,"is_reserved":false,"is_disabled":false,"rental_uris":{"android":"levelo://app?vid=fa8a552a-d2d3-4e8d-8d8e-02bdba037836","ios":"levelo://app?vid=fa8a552a-d2d3-4e8d-8d8e-02bdba037836"},"vehicle_type_id":"4","last_reported":1745478657,"current_range_meters":15200,"station_id":"cpo3342slgdg3j2ifvpg","pricing_plan_id":"cebpf4jnsgd1na2vs0mg"},{"bike_id":"8dff3327-c704-4870-8401-73b9c1029785","system_id":"levelo_inurba_marseille","lat":43.2586,"lon":5.39923,"is_reserved":false,"is_disabled":true,"rental_uris":{"android":"levelo://app?vid=8dff3327-c704-4870-8401-73b9c1029785","ios":"levelo://app?vid=8dff3327-c704-4870-8401-73b9c1029785"},"vehicle_type_id":"4","last_reported":1745478657,"current_range_meters":16000,"station_id":"ce4bhl92rcd13ifvqghg","pricing_plan_id":"cebpf4jnsgd1na2vs0mg"},{"bike_id":"97d1d895-4edd-4dc3-a917-efb64b92893c","system_id":"levelo_inurba_marseille","lat":43.298408,"lon":5.362702,"is_reserved":false,"is_disabled":false,"rental_uris":{"android":"levelo://app?vid=97d1d895-4edd-4dc3-a917-efb64b92893c","ios":"levelo://app?vid=97d1d895-4edd-4dc3-a917-efb64b92893c"},"vehicle_type_id":"4","last_reported":1745478657,"current_range_meters":16000,"station_id":"ce4bgpp2rcd13ifvqc3g","pricing_plan_id":"cebpf4jnsgd1na2vs0mg"},{"bike_id":"81f01c61-4451-4066-acf3-6e6a33e9ab33","system_id":"levelo_inurba_marseille","lat":43.30908,"lon":5.36844,"is_reserved":false,"is_disabled":false,"rental_uris":{"android":"levelo://app?vid=81f01c61-4451-4066-acf3-6e6a33e9ab33","ios":"levelo://app?vid=81f01c61-4451-4066-acf3-6e6a33e9ab33"},"vehicle_type_id":"4","last_reported":1745478657,"current_range_meters":16000,"station_id":"ce4bgn92rcd13ifvqbvg","pricing_plan_id":"cebpf4jnsgd1na2vs0mg"},{"bike_id":"bb96f4ed-6fa1-48c3-822f-97694b9f9b42","system_id":"levelo_inurba_marseille","lat":43.27501,"lon":5.42453,"is_reserved":false,"is_disabled":false,"rental_uris":{"android":"levelo://app?vid=bb96f4ed-6fa1-48c3-822f-97694b9f9b42","ios":"levelo://app?vid=bb96f4ed-6fa1-48c3-822f-97694b9f9b42"},"vehicle_type_id":"4","last_reported":1745478657,"current_range_meters":16000,"station_id":"ce4bhn92rcd13ifvqgrg","pricing_plan_id":"cebpf4jnsgd1na2vs0mg"},{"bike_id":"6a1b385f-4c37-4399-89d8-2a1bce2af65b","system_id":"levelo_inurba_marseille","lat":43.33742,"lon":5.39178,"is_reserved":false,"is_disabled":false,"rental_uris":{"android":"levelo://app?vid=6a1b385f-4c37-4399-89d8-2a1bce2af65b","ios":"levelo://app?vid=6a1b385f-4c37-4399-89d8-2a1bce2af65b"},"vehicle_type_id":"4","last_reported":1745478657,"current_range_meters":16000,"station_id":"ce4bhr92rcd13ifvqhsg","pricing_plan_id":"cebpf4jnsgd1na2vs0mg"},{"bike_id":"9faffb63-bd5c-4fe6-9088-c054b0a69369","system_id":"levelo_inurba_marseille","lat":43.29913,"lon":5.38146,"is_reserved":false,"is_disabled":false,"rental_uris":{"android":"levelo://app?vid=9faffb63-bd5c-4fe6-9088-c054b0a69369","ios":"levelo://app?vid=9faffb63-bd5c-4fe6-9088-c054b0a69369"},"vehicle_type_id":"4","last_reported":1745478657,"current_range_meters":16000,"station_id":"ce4bgj12rcd13ifvqbc0","pricing_plan_id":"cebpf4jnsgd1na2vs0mg"},{"bike_id":"155c4716-5d2c-4696-857e-64a120f9bd79","system_id":"levelo_inurba_marseille","lat":43.28474,"lon":5.35941,"is_reserved":false,"is_disabled":false,"rental_uris":{"android":"levelo://app?vid=155c4716-5d2c-4696-857e-64a120f9bd79","ios":"levelo://app?vid=155c4716-5d2c-4696-857e-64a120f9bd79"},"vehicle_type_id":"4","last_reported":1745478657,"current_range_meters":16000,"station_id":"","pricing_plan_id":"cebpf4jnsgd1na2vs0mg"},{"bike_id":"75470687-a9a6-4426-abb2-c43bc987de87","system_id":"levelo_inurba_marseille","lat":43.29842,"lon":5.36273,"is_reserved":false,"is_disabled":false,"rental_uris":{"android":"levelo://app?vid=75470687-a9a6-4426-abb2-c43bc987de87","ios":"levelo://app?vid=75470687-a9a6-4426-abb2-c43bc987de87"},"vehicle_type_id":"4","last_reported":1745478657,"current_range_meters":16000,"station_id":"ce4bgpp2rcd13ifvqc3g","pricing_plan_id":"cebpf4jnsgd1na2vs0mg"},{"bike_id":"fdb851bd-e1d2-49e7-bee9-81436e6d08eb","system_id":"levelo_inurba_marseille","lat":43.31693,"lon":5.40405,"is_reserved":false,"is_disabled":false,"rental_uris":{"android":"levelo://app?vid=fdb851bd-e1d2-49e7-bee9-81436e6d08eb","ios":"levelo://app?vid=fdb851bd-e1d2-49e7-bee9-81436e6d08eb"},"vehicle_type_id":"4","last_reported":1745478657,"current_range_meters":16400,"station_id":"ce4bh012rcd13ifvqd00","pricing_plan_id":"cebpf4jnsgd1na2vs0mg"},{"bike_id":"8492447e-6a4e-4de2-8526-5f1e1e6fd6a3","system_id":"levelo_inurba_marseille","lat":43.29252,"lon":5.37621,"is_reserved":false,"is_disabled":false,"rental_uris":{"android":"levelo://app?vid=8492447e-6a4e-4de2-8526-5f1e1e6fd6a3","ios":"levelo://app?vid=8492447e-6a4e-4de2-8526-5f1e1e6fd6a3"},"vehicle_type_id":"4","last_reported":1745478657,"current_range_meters":16400,"station_id":"ce4bgi12rcd13ifvqb80","pricing_plan_id":"cebpf4jnsgd1na2vs0mg"},{"bike_id":"b1c07f95-7af7-4bd4-b22a-a76a9d008b19","system_id":"levelo_inurba_marseille","lat":43.26558,"lon":5.37281,"is_reserved":false,"is_disabled":false,"rental_uris":{"android":"levelo://app?vid=b1c07f95-7af7-4bd4-b22a-a76a9d008b19","ios":"levelo://app?vid=b1c07f95-7af7-4bd4-b22a-a76a9d008b19"},"vehicle_type_id":"4","last_reported":1745478657,"current_range_meters":16400,"station_id":"ce4bhg12rcd13ifvqf70","pricing_plan_id":"cebpf4jnsgd1na2vs0mg"},{"bike_id":"493c34d3-8c93-4963-a11c-0ebe12b41514","system_id":"levelo_inurba_marseille","lat":43.32538,"lon":5.41436,"is_reserved":false,"is_disabled":false,"rental_uris":{"android":"levelo://app?vid=493c34d3-8c93-4963-a11c-0ebe12b41514","ios":"levelo://app?vid=493c34d3-8c93-4963-a11c-0ebe12b41514"},"vehicle_type_id":"4","last_reported":1745478657,"current_range_meters":16000,"station_id":"ce4bhq12rcd13ifvqhhg","pricing_plan_id":"cebpf4jnsgd1na2vs0mg"},{"bike_id":"5dd12b3b-eef7-4dab-a6de-2ed4ff99da38","system_id":"levelo_inurba_marseille","lat":43.29036,"lon":5.37556,"is_reserved":false,"is_disabled":true,"rental_uris":{"android":"levelo://app?vid=5dd12b3b-eef7-4dab-a6de-2ed4ff99da38","ios":"levelo://app?vid=5dd12b3b-eef7-4dab-a6de-2ed4ff99da38"},"vehicle_type_id":"4","last_reported":1745478657,"current_range_meters":16400,"station_id":"ce4bh692rcd13ifvqe90","pricing_plan_id":"cebpf4jnsgd1na2vs0mg"},{"bike_id":"1d169f8e-e602-4432-b7fd-911d41abd28f","system_id":"levelo_inurba_marseille","lat":43.3149,"lon":5.37296,"is_reserved":false,"is_disabled":false,"rental_uris":{"android":"levelo://app?vid=1d169f8e-e602-4432-b7fd-911d41abd28f","ios":"levelo://app?vid=1d169f8e-e602-4432-b7fd-911d41abd28f"},"vehicle_type_id":"4","last_reported":1745478657,"current_range_meters":16400,"station_id":"ce4bgt12rcd13ifvqcd0","pricing_plan_id":"cebpf4jnsgd1na2vs0mg"},{"bike_id":"5cc2ed1d-64a0-45d1-8e4b-c91452a1fc85","system_id":"levelo_inurba_marseille","lat":43.294341,"lon":5.397505,"is_reserved":false,"is_disabled":false,"rental_uris":{"android":"levelo://app?vid=5cc2ed1d-64a0-45d1-8e4b-c91452a1fc85","ios":"levelo://app?vid=5cc2ed1d-64a0-45d1-8e4b-c91452a1fc85"},"vehicle_type_id":"4","last_reported":1745478657,"current_range_meters":16000,"station_id":"ce4bh3h2rcd13ifvqdo0","pricing_plan_id":"cebpf4jnsgd1na2vs0mg"},{"bike_id":"97f00e91-4a81-4998-8f3d-60d5de3cea7c","system_id":"levelo_inurba_marseille","lat":43.30573,"lon":5.36714,"is_reserved":false,"is_disabled":false,"rental_uris":{"android":"levelo://app?vid=97f00e91-4a81-4998-8f3d-60d5de3cea7c","ios":"levelo://app?vid=97f00e91-4a81-4998-8f3d-60d5de3cea7c"},"vehicle_type_id":"4","last_reported":1745478657,"current_range_meters":16800,"station_id":"ce4bgrp2rcd13ifvqc9g","pricing_plan_id":"cebpf4jnsgd1na2vs0mg"},{"bike_id":"8425c1ca-8e4f-4dd7-87f3-4ba4f9a8e79d","system_id":"levelo_inurba_marseille","lat":43.30922,"lon":5.36844,"is_reserved":false,"is_disabled":false,"rental_uris":{"android":"levelo://app?vid=8425c1ca-8e4f-4dd7-87f3-4ba4f9a8e79d","ios":"levelo://app?vid=8425c1ca-8e4f-4dd7-87f3-4ba4f9a8e79d"},"vehicle_type_id":"4","last_reported":1745478657,"current_range_meters":16800,"station_id":"ce4bgn92rcd13ifvqbvg","pricing_plan_id":"cebpf4jnsgd1na2vs0mg"},{"bike_id":"ab660249-0742-4ee6-9f3c-cbf7eabd0145","system_id":"levelo_inurba_marseille","lat":43.28611,"lon":5.37064,"is_reserved":false,"is_disabled":false,"rental_uris":{"android":"levelo://app?vid=ab660249-0742-4ee6-9f3c-cbf7eabd0145","ios":"levelo://app?vid=ab660249-0742-4ee6-9f3c-cbf7eabd0145"},"vehicle_type_id":"4","last_reported":1745478657,"current_range_meters":16800,"station_id":"ce4bht12rcd13ifvqi60","pricing_plan_id":"cebpf4jnsgd1na2vs0mg"},{"bike_id":"19b1e669-c0ec-46a9-8c21-4f491a13468c","system_id":"levelo_inurba_marseille","lat":43.29523,"lon":5.38544,"is_reserved":false,"is_disabled":true,"rental_uris":{"android":"levelo://app?vid=19b1e669-c0ec-46a9-8c21-4f491a13468c","ios":"levelo://app?vid=19b1e669-c0ec-46a9-8c21-4f491a13468c"},"vehicle_type_id":"4","last_reported":1745478657,"current_range_meters":17200,"station_id":"ce4bgih2rcd13ifvqba0","pricing_plan_id":"cebpf4jnsgd1na2vs0mg"},{"bike_id":"cd906bce-52be-45be-8f08-cdeb623de131","system_id":"levelo_inurba_marseille","lat":43.28172,"lon":5.40375,"is_reserved":false,"is_disabled":false,"rental_uris":{"android":"levelo://app?vid=cd906bce-52be-45be-8f08-cdeb623de131","ios":"levelo://app?vid=cd906bce-52be-45be-8f08-cdeb623de131"},"vehicle_type_id":"4","last_reported":1745478657,"current_range_meters":17200,"station_id":"","pricing_plan_id":"cebpf4jnsgd1na2vs0mg"},{"bike_id":"1dac3e3b-a779-4b02-bdcd-eac9198a16e5","system_id":"levelo_inurba_marseille","lat":43.27065,"lon":5.42276,"is_reserved":false,"is_disabled":false,"rental_uris":{"android":"levelo://app?vid=1dac3e3b-a779-4b02-bdcd-eac9198a16e5","ios":"levelo://app?vid=1dac3e3b-a779-4b02-bdcd-eac9198a16e5"},"vehicle_type_id":"4","last_reported":1745478657,"current_range_meters":17200,"station_id":"ce4bhk92rcd13ifvqgb0","pricing_plan_id":"cebpf4jnsgd1na2vs0mg"},{"bike_id":"f7c25ff7-e5be-4a37-bb76-c1fb7e6b6059","system_id":"levelo_inurba_marseille","lat":43.30143,"lon":5.38082,"is_reserved":false,"is_disabled":false,"rental_uris":{"android":"levelo://app?vid=f7c25ff7-e5be-4a37-bb76-c1fb7e6b6059","ios":"levelo://app?vid=f7c25ff7-e5be-4a37-bb76-c1fb7e6b6059"},"vehicle_type_id":"4","last_reported":1745478657,"current_range_meters":17600,"station_id":"ce4bh012rcd13ifvqcv0","pricing_plan_id":"cebpf4jnsgd1na2vs0mg"},{"bike_id":"4e259911-67c1-4742-976c-ddc411ce90fd","system_id":"levelo_inurba_marseille","lat":43.24072,"lon":5.37713,"is_reserved":false,"is_disabled":false,"rental_uris":{"android":"levelo://app?vid=4e259911-67c1-4742-976c-ddc411ce90fd","ios":"levelo://app?vid=4e259911-67c1-4742-976c-ddc411ce90fd"},"vehicle_type_id":"4","last_reported":1745478657,"current_range_meters":17200,"station_id":"ce4bhnp2rcd13ifvqgvg","pricing_plan_id":"cebpf4jnsgd1na2vs0mg"},{"bike_id":"f1fa5147-19a1-4c10-8d84-9062dd61a629","system_id":"levelo_inurba_marseille","lat":43.2734,"lon":5.39133,"is_reserved":false,"is_disabled":false,"rental_uris":{"android":"levelo://app?vid=f1fa5147-19a1-4c10-8d84-9062dd61a629","ios":"levelo://app?vid=f1fa5147-19a1-4c10-8d84-9062dd61a629"},"vehicle_type_id":"4","last_reported":1745478657,"current_range_meters":17200,"station_id":"","pricing_plan_id":"cebpf4jnsgd1na2vs0mg"},{"bike_id":"93f3d99a-73cb-4e6f-96ac-43bc6b6658cf","system_id":"levelo_inurba_marseille","lat":43.29885,"lon":5.38651,"is_reserved":false,"is_disabled":true,"rental_uris":{"android":"levelo://app?vid=93f3d99a-73cb-4e6f-96ac-43bc6b6658cf","ios":"levelo://app?vid=93f3d99a-73cb-4e6f-96ac-43bc6b6658cf"},"vehicle_type_id":"4","last_reported":1745478657,"current_range_meters":17600,"station_id":"","pricing_plan_id":"cebpf4jnsgd1na2vs0mg"},{"bike_id":"71920feb-8449-41b7-b9b8-8fa1a74f4692","system_id":"levelo_inurba_marseille","lat":43.30451,"lon":5.37906,"is_reserved":false,"is_disabled":false,"rental_uris":{"android":"levelo://app?vid=71920feb-8449-41b7-b9b8-8fa1a74f4692","ios":"levelo://app?vid=71920feb-8449-41b7-b9b8-8fa1a74f4692"},"vehicle_type_id":"4","last_reported":1745478657,"current_range_meters":18000,"station_id":"ce4bgup2rcd13ifvqcn0","pricing_plan_id":"cebpf4jnsgd1na2vs0mg"},{"bike_id":"ab8406b2-4f8d-4381-8821-3db52b0a4d4d","system_id":"levelo_inurba_marseille","lat":43.273556,"lon":5.378343,"is_reserved":false,"is_disabled":false,"rental_uris":{"android":"levelo://app?vid=ab8406b2-4f8d-4381-8821-3db52b0a4d4d","ios":"levelo://app?vid=ab8406b2-4f8d-4381-8821-3db52b0a4d4d"},"vehicle_type_id":"4","last_reported":1745478657,"current_range_meters":17600,"station_id":"","pricing_plan_id":"cebpf4jnsgd1na2vs0mg"},{"bike_id":"587e0c3c-50df-43bf-b3b3-be5fb2df8161","system_id":"levelo_inurba_marseille","lat":43.24169,"lon":5.36398,"is_reserved":false,"is_disabled":false,"rental_uris":{"android":"levelo://app?vid=587e0c3c-50df-43bf-b3b3-be5fb2df8161","ios":"levelo://app?vid=587e0c3c-50df-43bf-b3b3-be5fb2df8161"},"vehicle_type_id":"4","last_reported":1745478657,"current_range_meters":17600,"station_id":"cpo36qri1sfpv3e86is0","pricing_plan_id":"cebpf4jnsgd1na2vs0mg"},{"bike_id":"0c3c4b30-c352-4d3a-808d-f568e71a0d61","system_id":"levelo_inurba_marseille","lat":43.313507,"lon":5.367149,"is_reserved":false,"is_disabled":false,"rental_uris":{"android":"levelo://app?vid=0c3c4b30-c352-4d3a-808d-f568e71a0d61","ios":"levelo://app?vid=0c3c4b30-c352-4d3a-808d-f568e71a0d61"},"vehicle_type_id":"4","last_reported":1745478657,"current_range_meters":17600,"station_id":"ce4bgr92rcd13ifvqc6g","pricing_plan_id":"cebpf4jnsgd1na2vs0mg"},{"bike_id":"4ad44271-4ca7-4dac-b8d2-6bb546d4598b","system_id":"levelo_inurba_marseille","lat":43.30945,"lon":5.39029,"is_reserved":false,"is_disabled":false,"rental_uris":{"android":"levelo://app?vid=4ad44271-4ca7-4dac-b8d2-6bb546d4598b","ios":"levelo://app?vid=4ad44271-4ca7-4dac-b8d2-6bb546d4598b"},"vehicle_type_id":"4","last_reported":1745478657,"current_range_meters":18000,"station_id":"ce4bgup2rcd13ifvqco0","pricing_plan_id":"cebpf4jnsgd1na2vs0mg"},{"bike_id":"cadd2a19-c37c-493d-b003-1c5753f859f2","system_id":"levelo_inurba_marseille","lat":43.30539,"lon":5.38416,"is_reserved":false,"is_disabled":false,"rental_uris":{"android":"levelo://app?vid=cadd2a19-c37c-493d-b003-1c5753f859f2","ios":"levelo://app?vid=cadd2a19-c37c-493d-b003-1c5753f859f2"},"vehicle_type_id":"4","last_reported":1745478657,"current_range_meters":18000,"station_id":"ce4bgg92rcd13ifvqb30","pricing_plan_id":"cebpf4jnsgd1na2vs0mg"},{"bike_id":"129ea9c4-35d8-4d8a-97f1-d90eefdd4cf8","system_id":"levelo_inurba_marseille","lat":43.29209,"lon":5.39372,"is_reserved":false,"is_disabled":true,"rental_uris":{"android":"levelo://app?vid=129ea9c4-35d8-4d8a-97f1-d90eefdd4cf8","ios":"levelo://app?vid=129ea9c4-35d8-4d8a-97f1-d90eefdd4cf8"},"vehicle_type_id":"4","last_reported":1745478657,"current_range_meters":18000,"station_id":"ce4bh192rcd13ifvqdd0","pricing_plan_id":"cebpf4jnsgd1na2vs0mg"},{"bike_id":"db21d451-543e-49c7-8465-c8b53e9510ed","system_id":"levelo_inurba_marseille","lat":43.27486,"lon":5.42461,"is_reserved":false,"is_disabled":false,"rental_uris":{"android":"levelo://app?vid=db21d451-543e-49c7-8465-c8b53e9510ed","ios":"levelo://app?vid=db21d451-543e-49c7-8465-c8b53e9510ed"},"vehicle_type_id":"4","last_reported":1745478657,"current_range_meters":18000,"station_id":"ce4bhn92rcd13ifvqgrg","pricing_plan_id":"cebpf4jnsgd1na2vs0mg"},{"bike_id":"c21f774d-3890-414d-82b8-9215c7a0936d","system_id":"levelo_inurba_marseille","lat":43.28546,"lon":5.401,"is_reserved":false,"is_disabled":false,"rental_uris":{"android":"levelo://app?vid=c21f774d-3890-414d-82b8-9215c7a0936d","ios":"levelo://app?vid=c21f774d-3890-414d-82b8-9215c7a0936d"},"vehicle_type_id":"4","last_reported":1745478657,"current_range_meters":18000,"station_id":"","pricing_plan_id":"cebpf4jnsgd1na2vs0mg"},{"bike_id":"83ce8635-e014-4d4b-b4bb-5f7a1fac789e","system_id":"levelo_inurba_marseille","lat":43.26691,"lon":5.38264,"is_reserved":false,"is_disabled":true,"rental_uris":{"android":"levelo://app?vid=83ce8635-e014-4d4b-b4bb-5f7a1fac789e","ios":"levelo://app?vid=83ce8635-e014-4d4b-b4bb-5f7a1fac789e"},"vehicle_type_id":"4","last_reported":1745478657,"current_range_meters":18000,"station_id":"ce4bhg92rcd13ifvqf90","pricing_plan_id":"cebpf4jnsgd1na2vs0mg"},{"bike_id":"af08a62a-2847-4555-ab16-42c4660ae434","system_id":"levelo_inurba_marseille","lat":43.27489,"lon":5.42465,"is_reserved":false,"is_disabled":false,"rental_uris":{"android":"levelo://app?vid=af08a62a-2847-4555-ab16-42c4660ae434","ios":"levelo://app?vid=af08a62a-2847-4555-ab16-42c4660ae434"},"vehicle_type_id":"4","last_reported":1745478657,"current_range_meters":18000,"station_id":"ce4bhn92rcd13ifvqgrg","pricing_plan_id":"cebpf4jnsgd1na2vs0mg"},{"bike_id":"c81523ce-879f-4197-a7b5-0d0f85eed162","system_id":"levelo_inurba_marseille","lat":43.28572,"lon":5.39485,"is_reserved":false,"is_disabled":false,"rental_uris":{"android":"levelo://app?vid=c81523ce-879f-4197-a7b5-0d0f85eed162","ios":"levelo://app?vid=c81523ce-879f-4197-a7b5-0d0f85eed162"},"vehicle_type_id":"4","last_reported":1745478657,"current_range_meters":19200,"station_id":"ce4bh292rcd13ifvqdg0","pricing_plan_id":"cebpf4jnsgd1na2vs0mg"},{"bike_id":"958d06f7-3bf0-43ca-977f-10d7a5320a29","system_id":"levelo_inurba_marseille","lat":43.23962,"lon":5.36632,"is_reserved":false,"is_disabled":false,"rental_uris":{"android":"levelo://app?vid=958d06f7-3bf0-43ca-977f-10d7a5320a29","ios":"levelo://app?vid=958d06f7-3bf0-43ca-977f-10d7a5320a29"},"vehicle_type_id":"4","last_reported":1745478657,"current_range_meters":17600,"station_id":"ce4bhi12rcd13ifvqfp0","pricing_plan_id":"cebpf4jnsgd1na2vs0mg"},{"bike_id":"b3601037-6ecf-462d-904a-e7917518ca41","system_id":"levelo_inurba_marseille","lat":43.31722,"lon":5.42394,"is_reserved":false,"is_disabled":false,"rental_uris":{"android":"levelo://app?vid=b3601037-6ecf-462d-904a-e7917518ca41","ios":"levelo://app?vid=b3601037-6ecf-462d-904a-e7917518ca41"},"vehicle_type_id":"4","last_reported":1745478657,"current_range_meters":18000,"station_id":"ce4bhp92rcd13ifvqhbg","pricing_plan_id":"cebpf4jnsgd1na2vs0mg"},{"bike_id":"ff1e2f5b-071c-4283-a49b-9c9f51ff4981","system_id":"levelo_inurba_marseille","lat":43.30539,"lon":5.36552,"is_reserved":false,"is_disabled":false,"rental_uris":{"android":"levelo://app?vid=ff1e2f5b-071c-4283-a49b-9c9f51ff4981","ios":"levelo://app?vid=ff1e2f5b-071c-4283-a49b-9c9f51ff4981"},"vehicle_type_id":"4","last_reported":1745478657,"current_range_meters":18000,"station_id":"ce4bgs12rcd13ifvqcag","pricing_plan_id":"cebpf4jnsgd1na2vs0mg"},{"bike_id":"907c036e-db4c-424b-8925-a182d5544497","system_id":"levelo_inurba_marseille","lat":43.30422,"lon":5.389,"is_reserved":false,"is_disabled":false,"rental_uris":{"android":"levelo://app?vid=907c036e-db4c-424b-8925-a182d5544497","ios":"levelo://app?vid=907c036e-db4c-424b-8925-a182d5544497"},"vehicle_type_id":"4","last_reported":1745478657,"current_range_meters":18800,"station_id":"ce4bgk12rcd13ifvqbi0","pricing_plan_id":"cebpf4jnsgd1na2vs0mg"},{"bike_id":"b5a7a20b-8783-4aa2-bad4-9ae0117f55f1","system_id":"levelo_inurba_marseille","lat":43.30948,"lon":5.39038,"is_reserved":false,"is_disabled":false,"rental_uris":{"android":"levelo://app?vid=b5a7a20b-8783-4aa2-bad4-9ae0117f55f1","ios":"levelo://app?vid=b5a7a20b-8783-4aa2-bad4-9ae0117f55f1"},"vehicle_type_id":"4","last_reported":1745478657,"current_range_meters":18800,"station_id":"ce4bgup2rcd13ifvqco0","pricing_plan_id":"cebpf4jnsgd1na2vs0mg"},{"bike_id":"d7d07326-c452-43c7-8901-4c4815d55407","system_id":"levelo_inurba_marseille","lat":43.29877,"lon":5.39731,"is_reserved":false,"is_disabled":false,"rental_uris":{"android":"levelo://app?vid=d7d07326-c452-43c7-8901-4c4815d55407","ios":"levelo://app?vid=d7d07326-c452-43c7-8901-4c4815d55407"},"vehicle_type_id":"4","last_reported":1745478657,"current_range_meters":18800,"station_id":"ce4bh0h2rcd13ifvqd50","pricing_plan_id":"cebpf4jnsgd1na2vs0mg"},{"bike_id":"73f40cff-bb71-4b7a-8ad7-f06c69fb0596","system_id":"levelo_inurba_marseille","lat":43.21194,"lon":5.350745,"is_reserved":false,"is_disabled":false,"rental_uris":{"android":"levelo://app?vid=73f40cff-bb71-4b7a-8ad7-f06c69fb0596","ios":"levelo://app?vid=73f40cff-bb71-4b7a-8ad7-f06c69fb0596"},"vehicle_type_id":"4","last_reported":1745478657,"current_range_meters":18800,"station_id":"st_cvj6sg6p6f1abm77japg","pricing_plan_id":"cebpf4jnsgd1na2vs0mg"},{"bike_id":"4b0ada37-3caa-4bc6-ba95-da3d07fb1c36","system_id":"levelo_inurba_marseille","lat":43.25933,"lon":5.40907,"is_reserved":false,"is_disabled":false,"rental_uris":{"android":"levelo://app?vid=4b0ada37-3caa-4bc6-ba95-da3d07fb1c36","ios":"levelo://app?vid=4b0ada37-3caa-4bc6-ba95-da3d07fb1c36"},"vehicle_type_id":"4","last_reported":1745478657,"current_range_meters":18800,"station_id":"ce4bhm92rcd13ifvqglg","pricing_plan_id":"cebpf4jnsgd1na2vs0mg"},{"bike_id":"30da752e-5450-4da3-965e-773778ce5d7d","system_id":"levelo_inurba_marseille","lat":43.24189,"lon":5.36398,"is_reserved":false,"is_disabled":false,"rental_uris":{"android":"levelo://app?vid=30da752e-5450-4da3-965e-773778ce5d7d","ios":"levelo://app?vid=30da752e-5450-4da3-965e-773778ce5d7d"},"vehicle_type_id":"4","last_reported":1745478657,"current_range_meters":18800,"station_id":"cpo36qri1sfpv3e86is0","pricing_plan_id":"cebpf4jnsgd1na2vs0mg"},{"bike_id":"eaf73369-bdd5-4351-8036-47f5e09d5e0f","system_id":"levelo_inurba_marseille","lat":43.29266,"lon":5.37622,"is_reserved":false,"is_disabled":false,"rental_uris":{"android":"levelo://app?vid=eaf73369-bdd5-4351-8036-47f5e09d5e0f","ios":"levelo://app?vid=eaf73369-bdd5-4351-8036-47f5e09d5e0f"},"vehicle_type_id":"4","last_reported":1745478657,"current_range_meters":18800,"station_id":"ce4bgi12rcd13ifvqb80","pricing_plan_id":"cebpf4jnsgd1na2vs0mg"},{"bike_id":"2a6aef12-4c7e-4789-8c6a-df0fda473c3f","system_id":"levelo_inurba_marseille","lat":43.304624,"lon":5.379059,"is_reserved":false,"is_disabled":true,"rental_uris":{"android":"levelo://app?vid=2a6aef12-4c7e-4789-8c6a-df0fda473c3f","ios":"levelo://app?vid=2a6aef12-4c7e-4789-8c6a-df0fda473c3f"},"vehicle_type_id":"4","last_reported":1745478657,"current_range_meters":18800,"station_id":"ce4bgup2rcd13ifvqcn0","pricing_plan_id":"cebpf4jnsgd1na2vs0mg"},{"bike_id":"8602e690-9434-402b-adf3-de9ff9d45330","system_id":"levelo_inurba_marseille","lat":43.27496,"lon":5.42446,"is_reserved":false,"is_disabled":false,"rental_uris":{"android":"levelo://app?vid=8602e690-9434-402b-adf3-de9ff9d45330","ios":"levelo://app?vid=8602e690-9434-402b-adf3-de9ff9d45330"},"vehicle_type_id":"4","last_reported":1745478657,"current_range_meters":18800,"station_id":"ce4bhn92rcd13ifvqgrg","pricing_plan_id":"cebpf4jnsgd1na2vs0mg"},{"bike_id":"95b67659-1497-4116-b8fb-b5cddb566e61","system_id":"levelo_inurba_marseille","lat":43.27612,"lon":5.36106,"is_reserved":false,"is_disabled":false,"rental_uris":{"android":"levelo://app?vid=95b67659-1497-4116-b8fb-b5cddb566e61","ios":"levelo://app?vid=95b67659-1497-4116-b8fb-b5cddb566e61"},"vehicle_type_id":"4","last_reported":1745478657,"current_range_meters":19200,"station_id":"ce4bgj92rcd13ifvqbe0","pricing_plan_id":"cebpf4jnsgd1na2vs0mg"},{"bike_id":"15849669-eb0e-4ddf-9c01-b3b64a9ffcbe","system_id":"levelo_inurba_marseille","lat":43.25933,"lon":5.40915,"is_reserved":false,"is_disabled":false,"rental_uris":{"android":"levelo://app?vid=15849669-eb0e-4ddf-9c01-b3b64a9ffcbe","ios":"levelo://app?vid=15849669-eb0e-4ddf-9c01-b3b64a9ffcbe"},"vehicle_type_id":"4","last_reported":1745478657,"current_range_meters":19200,"station_id":"ce4bhm92rcd13ifvqglg","pricing_plan_id":"cebpf4jnsgd1na2vs0mg"},{"bike_id":"e2dcabcf-64d8-4394-bb9a-ff877bee611a","system_id":"levelo_inurba_marseille","lat":43.32052,"lon":5.41533,"is_reserved":false,"is_disabled":false,"rental_uris":{"android":"levelo://app?vid=e2dcabcf-64d8-4394-bb9a-ff877bee611a","ios":"levelo://app?vid=e2dcabcf-64d8-4394-bb9a-ff877bee611a"},"vehicle_type_id":"4","last_reported":1745478657,"current_range_meters":19200,"station_id":"ce4bhq92rcd13ifvqhkg","pricing_plan_id":"cebpf4jnsgd1na2vs0mg"},{"bike_id":"1fad0618-6d26-4697-9bee-ec5e0a80c437","system_id":"levelo_inurba_marseille","lat":43.31338,"lon":5.36715,"is_reserved":false,"is_disabled":false,"rental_uris":{"android":"levelo://app?vid=1fad0618-6d26-4697-9bee-ec5e0a80c437","ios":"levelo://app?vid=1fad0618-6d26-4697-9bee-ec5e0a80c437"},"vehicle_type_id":"4","last_reported":1745478657,"current_range_meters":19200,"station_id":"ce4bgr92rcd13ifvqc6g","pricing_plan_id":"cebpf4jnsgd1na2vs0mg"},{"bike_id":"c69c507c-3a3c-408c-91a1-6219b7491dd1","system_id":"levelo_inurba_marseille","lat":43.30304,"lon":5.36884,"is_reserved":false,"is_disabled":false,"rental_uris":{"android":"levelo://app?vid=c69c507c-3a3c-408c-91a1-6219b7491dd1","ios":"levelo://app?vid=c69c507c-3a3c-408c-91a1-6219b7491dd1"},"vehicle_type_id":"4","last_reported":1745478657,"current_range_meters":19600,"station_id":"ce4bgqh2rcd13ifvqc5g","pricing_plan_id":"cebpf4jnsgd1na2vs0mg"},{"bike_id":"0ddb8ad7-8305-49ad-b8e4-db148fb76080","system_id":"levelo_inurba_marseille","lat":43.24646,"lon":5.38889,"is_reserved":false,"is_disabled":false,"rental_uris":{"android":"levelo://app?vid=0ddb8ad7-8305-49ad-b8e4-db148fb76080","ios":"levelo://app?vid=0ddb8ad7-8305-49ad-b8e4-db148fb76080"},"vehicle_type_id":"4","last_reported":1745478657,"current_range_meters":19600,"station_id":"ce4bhg12rcd13ifvqf60","pricing_plan_id":"cebpf4jnsgd1na2vs0mg"},{"bike_id":"9fc59aa9-c6a7-4718-892e-e2e245c50ba0","system_id":"levelo_inurba_marseille","lat":43.26789,"lon":5.3941,"is_reserved":false,"is_disabled":false,"rental_uris":{"android":"levelo://app?vid=9fc59aa9-c6a7-4718-892e-e2e245c50ba0","ios":"levelo://app?vid=9fc59aa9-c6a7-4718-892e-e2e245c50ba0"},"vehicle_type_id":"4","last_reported":1745478657,"current_range_meters":19200,"station_id":"ce4bhh12rcd13ifvqfg0","pricing_plan_id":"cebpf4jnsgd1na2vs0mg"},{"bike_id":"3bb37a34-ebbb-45e2-a26a-e5a036cd0b14","system_id":"levelo_inurba_marseille","lat":43.26794,"lon":5.39411,"is_reserved":false,"is_disabled":false,"rental_uris":{"android":"levelo://app?vid=3bb37a34-ebbb-45e2-a26a-e5a036cd0b14","ios":"levelo://app?vid=3bb37a34-ebbb-45e2-a26a-e5a036cd0b14"},"vehicle_type_id":"4","last_reported":1745478657,"current_range_meters":19600,"station_id":"ce4bhh12rcd13ifvqfg0","pricing_plan_id":"cebpf4jnsgd1na2vs0mg"},{"bike_id":"a823ec9d-7d2e-4894-8bcc-79b308d25452","system_id":"levelo_inurba_marseille","lat":43.33717,"lon":5.39178,"is_reserved":false,"is_disabled":false,"rental_uris":{"android":"levelo://app?vid=a823ec9d-7d2e-4894-8bcc-79b308d25452","ios":"levelo://app?vid=a823ec9d-7d2e-4894-8bcc-79b308d25452"},"vehicle_type_id":"4","last_reported":1745478657,"current_range_meters":19600,"station_id":"ce4bhr92rcd13ifvqhsg","pricing_plan_id":"cebpf4jnsgd1na2vs0mg"},{"bike_id":"84aced3e-ce1f-442e-9985-06a43ba87ff8","system_id":"levelo_inurba_marseille","lat":43.34149,"lon":5.40906,"is_reserved":false,"is_disabled":false,"rental_uris":{"android":"levelo://app?vid=84aced3e-ce1f-442e-9985-06a43ba87ff8","ios":"levelo://app?vid=84aced3e-ce1f-442e-9985-06a43ba87ff8"},"vehicle_type_id":"4","last_reported":1745478657,"current_range_meters":19600,"station_id":"ce4bhqh2rcd13ifvqhlg","pricing_plan_id":"cebpf4jnsgd1na2vs0mg"},{"bike_id":"58727b13-3ca0-4842-baa1-1faeff5caa77","system_id":"levelo_inurba_marseille","lat":43.23151,"lon":5.43711,"is_reserved":false,"is_disabled":true,"rental_uris":{"android":"levelo://app?vid=58727b13-3ca0-4842-baa1-1faeff5caa77","ios":"levelo://app?vid=58727b13-3ca0-4842-baa1-1faeff5caa77"},"vehicle_type_id":"4","last_reported":1745478657,"current_range_meters":19200,"station_id":"ce4bhmp2rcd13ifvqgog","pricing_plan_id":"cebpf4jnsgd1na2vs0mg"},{"bike_id":"a67d156e-ab1b-46ef-850e-d45a5858dd85","system_id":"levelo_inurba_marseille","lat":43.30279,"lon":5.37696,"is_reserved":false,"is_disabled":false,"rental_uris":{"android":"levelo://app?vid=a67d156e-ab1b-46ef-850e-d45a5858dd85","ios":"levelo://app?vid=a67d156e-ab1b-46ef-850e-d45a5858dd85"},"vehicle_type_id":"4","last_reported":1745478657,"current_range_meters":19200,"station_id":"ce4bguh2rcd13ifvqcj0","pricing_plan_id":"cebpf4jnsgd1na2vs0mg"},{"bike_id":"1bbc3649-a3e6-4317-a9e2-29a3590ca23e","system_id":"levelo_inurba_marseille","lat":43.26679,"lon":5.38267,"is_reserved":false,"is_disabled":false,"rental_uris":{"android":"levelo://app?vid=1bbc3649-a3e6-4317-a9e2-29a3590ca23e","ios":"levelo://app?vid=1bbc3649-a3e6-4317-a9e2-29a3590ca23e"},"vehicle_type_id":"4","last_reported":1745478657,"current_range_meters":19600,"station_id":"ce4bhg92rcd13ifvqf90","pricing_plan_id":"cebpf4jnsgd1na2vs0mg"},{"bike_id":"587c3d0e-e368-4ce6-82db-8519a0475ded","system_id":"levelo_inurba_marseille","lat":43.27503,"lon":5.42455,"is_reserved":false,"is_disabled":false,"rental_uris":{"android":"levelo://app?vid=587c3d0e-e368-4ce6-82db-8519a0475ded","ios":"levelo://app?vid=587c3d0e-e368-4ce6-82db-8519a0475ded"},"vehicle_type_id":"4","last_reported":1745478657,"current_range_meters":20000,"station_id":"ce4bhn92rcd13ifvqgrg","pricing_plan_id":"cebpf4jnsgd1na2vs0mg"},{"bike_id":"f106f414-13c3-4e0d-b872-f4010c13d223","system_id":"levelo_inurba_marseille","lat":43.30907,"lon":5.36848,"is_reserved":false,"is_disabled":false,"rental_uris":{"android":"levelo://app?vid=f106f414-13c3-4e0d-b872-f4010c13d223","ios":"levelo://app?vid=f106f414-13c3-4e0d-b872-f4010c13d223"},"vehicle_type_id":"4","last_reported":1745478657,"current_range_meters":20000,"station_id":"ce4bgn92rcd13ifvqbvg","pricing_plan_id":"cebpf4jnsgd1na2vs0mg"},{"bike_id":"d1fe9496-a999-4a2b-a52c-3916939301e6","system_id":"levelo_inurba_marseille","lat":43.30531,"lon":5.36562,"is_reserved":false,"is_disabled":false,"rental_uris":{"android":"levelo://app?vid=d1fe9496-a999-4a2b-a52c-3916939301e6","ios":"levelo://app?vid=d1fe9496-a999-4a2b-a52c-3916939301e6"},"vehicle_type_id":"4","last_reported":1745478657,"current_range_meters":20000,"station_id":"ce4bgs12rcd13ifvqcag","pricing_plan_id":"cebpf4jnsgd1na2vs0mg"},{"bike_id":"ea5dd29e-f7f0-401a-adda-e0cb0dfe66df","system_id":"levelo_inurba_marseille","lat":43.336182,"lon":5.410101,"is_reserved":false,"is_disabled":false,"rental_uris":{"android":"levelo://app?vid=ea5dd29e-f7f0-401a-adda-e0cb0dfe66df","ios":"levelo://app?vid=ea5dd29e-f7f0-401a-adda-e0cb0dfe66df"},"vehicle_type_id":"4","last_reported":1745478657,"current_range_meters":20400,"station_id":"ce4bhqh2rcd13ifvqhmg","pricing_plan_id":"cebpf4jnsgd1na2vs0mg"},{"bike_id":"016d1c33-236f-4281-bd30-10c7bc88d5ce","system_id":"levelo_inurba_marseille","lat":43.24063,"lon":5.37761,"is_reserved":false,"is_disabled":false,"rental_uris":{"android":"levelo://app?vid=016d1c33-236f-4281-bd30-10c7bc88d5ce","ios":"levelo://app?vid=016d1c33-236f-4281-bd30-10c7bc88d5ce"},"vehicle_type_id":"4","last_reported":1745478657,"current_range_meters":20000,"station_id":"ce4bhnp2rcd13ifvqgvg","pricing_plan_id":"cebpf4jnsgd1na2vs0mg"},{"bike_id":"b56742ce-ed33-4c69-8e84-cea0854c321f","system_id":"levelo_inurba_marseille","lat":43.27942,"lon":5.41046,"is_reserved":false,"is_disabled":false,"rental_uris":{"android":"levelo://app?vid=b56742ce-ed33-4c69-8e84-cea0854c321f","ios":"levelo://app?vid=b56742ce-ed33-4c69-8e84-cea0854c321f"},"vehicle_type_id":"4","last_reported":1745478657,"current_range_meters":20000,"station_id":"ce4bhnp2rcd13ifvqh0g","pricing_plan_id":"cebpf4jnsgd1na2vs0mg"},{"bike_id":"73b05d89-8586-4d94-8ac2-7f53dfee0c5a","system_id":"levelo_inurba_marseille","lat":43.25936,"lon":5.4091,"is_reserved":false,"is_disabled":false,"rental_uris":{"android":"levelo://app?vid=73b05d89-8586-4d94-8ac2-7f53dfee0c5a","ios":"levelo://app?vid=73b05d89-8586-4d94-8ac2-7f53dfee0c5a"},"vehicle_type_id":"4","last_reported":1745478657,"current_range_meters":20000,"station_id":"ce4bhm92rcd13ifvqglg","pricing_plan_id":"cebpf4jnsgd1na2vs0mg"},{"bike_id":"0bfff189-ec6a-4439-b345-e9dd168ab867","system_id":"levelo_inurba_marseille","lat":43.33727,"lon":5.39182,"is_reserved":false,"is_disabled":false,"rental_uris":{"android":"levelo://app?vid=0bfff189-ec6a-4439-b345-e9dd168ab867","ios":"levelo://app?vid=0bfff189-ec6a-4439-b345-e9dd168ab867"},"vehicle_type_id":"4","last_reported":1745478657,"current_range_meters":20000,"station_id":"ce4bhr92rcd13ifvqhsg","pricing_plan_id":"cebpf4jnsgd1na2vs0mg"},{"bike_id":"12ec22b7-eace-48c5-a499-de902e9b4874","system_id":"levelo_inurba_marseille","lat":43.317184,"lon":5.43679,"is_reserved":false,"is_disabled":false,"rental_uris":{"android":"levelo://app?vid=12ec22b7-eace-48c5-a499-de902e9b4874","ios":"levelo://app?vid=12ec22b7-eace-48c5-a499-de902e9b4874"},"vehicle_type_id":"4","last_reported":1745478657,"current_range_meters":20400,"station_id":"ce4bhph2rcd13ifvqhdg","pricing_plan_id":"cebpf4jnsgd1na2vs0mg"},{"bike_id":"dc2792cf-32cf-4fc0-9be5-e693b8dd8b43","system_id":"levelo_inurba_marseille","lat":43.27997,"lon":5.41662,"is_reserved":false,"is_disabled":false,"rental_uris":{"android":"levelo://app?vid=dc2792cf-32cf-4fc0-9be5-e693b8dd8b43","ios":"levelo://app?vid=dc2792cf-32cf-4fc0-9be5-e693b8dd8b43"},"vehicle_type_id":"4","last_reported":1745478657,"current_range_meters":20000,"station_id":"ce4bho12rcd13ifvqh1g","pricing_plan_id":"cebpf4jnsgd1na2vs0mg"},{"bike_id":"3ecbb1df-9239-4bd0-819e-fa2f475ebdde","system_id":"levelo_inurba_marseille","lat":43.29033,"lon":5.39995,"is_reserved":false,"is_disabled":false,"rental_uris":{"android":"levelo://app?vid=3ecbb1df-9239-4bd0-819e-fa2f475ebdde","ios":"levelo://app?vid=3ecbb1df-9239-4bd0-819e-fa2f475ebdde"},"vehicle_type_id":"4","last_reported":1745478657,"current_range_meters":20400,"station_id":"ce4bh392rcd13ifvqdm0","pricing_plan_id":"cebpf4jnsgd1na2vs0mg"},{"bike_id":"c0529602-2eb4-473c-9cde-860fc9905324","system_id":"levelo_inurba_marseille","lat":43.31345,"lon":5.36715,"is_reserved":false,"is_disabled":false,"rental_uris":{"android":"levelo://app?vid=c0529602-2eb4-473c-9cde-860fc9905324","ios":"levelo://app?vid=c0529602-2eb4-473c-9cde-860fc9905324"},"vehicle_type_id":"4","last_reported":1745478657,"current_range_meters":20400,"station_id":"ce4bgr92rcd13ifvqc6g","pricing_plan_id":"cebpf4jnsgd1na2vs0mg"},{"bike_id":"852ceacb-c748-4542-9a4d-fc85780f1ace","system_id":"levelo_inurba_marseille","lat":43.31339,"lon":5.36721,"is_reserved":false,"is_disabled":true,"rental_uris":{"android":"levelo://app?vid=852ceacb-c748-4542-9a4d-fc85780f1ace","ios":"levelo://app?vid=852ceacb-c748-4542-9a4d-fc85780f1ace"},"vehicle_type_id":"4","last_reported":1745478657,"current_range_meters":20400,"station_id":"ce4bgr92rcd13ifvqc6g","pricing_plan_id":"cebpf4jnsgd1na2vs0mg"},{"bike_id":"182e60f2-4393-4c8e-a6eb-08f563a7c1f1","system_id":"levelo_inurba_marseille","lat":43.33007,"lon":5.39043,"is_reserved":false,"is_disabled":true,"rental_uris":{"android":"levelo://app?vid=182e60f2-4393-4c8e-a6eb-08f563a7c1f1","ios":"levelo://app?vid=182e60f2-4393-4c8e-a6eb-08f563a7c1f1"},"vehicle_type_id":"4","last_reported":1745478657,"current_range_meters":20400,"station_id":"ce4bhr92rcd13ifvqhrg","pricing_plan_id":"cebpf4jnsgd1na2vs0mg"},{"bike_id":"aab5ce35-7a13-4ab1-b85f-8208f82549f8","system_id":"levelo_inurba_marseille","lat":43.24164,"lon":5.36391,"is_reserved":false,"is_disabled":false,"rental_uris":{"android":"levelo://app?vid=aab5ce35-7a13-4ab1-b85f-8208f82549f8","ios":"levelo://app?vid=aab5ce35-7a13-4ab1-b85f-8208f82549f8"},"vehicle_type_id":"4","last_reported":1745478657,"current_range_meters":20800,"station_id":"cpo36qri1sfpv3e86is0","pricing_plan_id":"cebpf4jnsgd1na2vs0mg"},{"bike_id":"78fdb1f2-201c-401d-9b37-2e0ecd708fff","system_id":"levelo_inurba_marseille","lat":43.29929,"lon":5.39459,"is_reserved":false,"is_disabled":true,"rental_uris":{"android":"levelo://app?vid=78fdb1f2-201c-401d-9b37-2e0ecd708fff","ios":"levelo://app?vid=78fdb1f2-201c-401d-9b37-2e0ecd708fff"},"vehicle_type_id":"4","last_reported":1745478657,"current_range_meters":20800,"station_id":"","pricing_plan_id":"cebpf4jnsgd1na2vs0mg"},{"bike_id":"0511eaef-e620-4443-8c39-8b9425063ec4","system_id":"levelo_inurba_marseille","lat":43.29091,"lon":5.38148,"is_reserved":false,"is_disabled":true,"rental_uris":{"android":"levelo://app?vid=0511eaef-e620-4443-8c39-8b9425063ec4","ios":"levelo://app?vid=0511eaef-e620-4443-8c39-8b9425063ec4"},"vehicle_type_id":"4","last_reported":1745478657,"current_range_meters":20800,"station_id":"ce4bh512rcd13ifvqe2g","pricing_plan_id":"cebpf4jnsgd1na2vs0mg"},{"bike_id":"903dd70b-985b-4c7a-8d32-b34e003d778e","system_id":"levelo_inurba_marseille","lat":43.26678,"lon":5.38277,"is_reserved":false,"is_disabled":false,"rental_uris":{"android":"levelo://app?vid=903dd70b-985b-4c7a-8d32-b34e003d778e","ios":"levelo://app?vid=903dd70b-985b-4c7a-8d32-b34e003d778e"},"vehicle_type_id":"4","last_reported":1745478657,"current_range_meters":20800,"station_id":"ce4bhg92rcd13ifvqf90","pricing_plan_id":"cebpf4jnsgd1na2vs0mg"},{"bike_id":"6b9f9a44-a063-48a1-a8b1-d6f91b280cf2","system_id":"levelo_inurba_marseille","lat":43.301969,"lon":5.366393,"is_reserved":false,"is_disabled":false,"rental_uris":{"android":"levelo://app?vid=6b9f9a44-a063-48a1-a8b1-d6f91b280cf2","ios":"levelo://app?vid=6b9f9a44-a063-48a1-a8b1-d6f91b280cf2"},"vehicle_type_id":"4","last_reported":1745478657,"current_range_meters":20800,"station_id":"ce4bgrh2rcd13ifvqc8g","pricing_plan_id":"cebpf4jnsgd1na2vs0mg"},{"bike_id":"73846bd8-bf7f-4015-97da-ea8632312616","system_id":"levelo_inurba_marseille","lat":43.30078,"lon":5.39081,"is_reserved":false,"is_disabled":false,"rental_uris":{"android":"levelo://app?vid=73846bd8-bf7f-4015-97da-ea8632312616","ios":"levelo://app?vid=73846bd8-bf7f-4015-97da-ea8632312616"},"vehicle_type_id":"4","last_reported":1745478657,"current_range_meters":20400,"station_id":"ce4bh192rcd13ifvqdb0","pricing_plan_id":"cebpf4jnsgd1na2vs0mg"},{"bike_id":"cb57edd2-fd1e-4809-8639-56a7a6a1e945","system_id":"levelo_inurba_marseille","lat":43.26681,"lon":5.38268,"is_reserved":false,"is_disabled":false,"rental_uris":{"android":"levelo://app?vid=cb57edd2-fd1e-4809-8639-56a7a6a1e945","ios":"levelo://app?vid=cb57edd2-fd1e-4809-8639-56a7a6a1e945"},"vehicle_type_id":"4","last_reported":1745478657,"current_range_meters":21600,"station_id":"ce4bhg92rcd13ifvqf90","pricing_plan_id":"cebpf4jnsgd1na2vs0mg"},{"bike_id":"06a6ec8d-f1b4-4120-8203-729d3c0a21f3","system_id":"levelo_inurba_marseille","lat":43.24079,"lon":5.37754,"is_reserved":false,"is_disabled":true,"rental_uris":{"android":"levelo://app?vid=06a6ec8d-f1b4-4120-8203-729d3c0a21f3","ios":"levelo://app?vid=06a6ec8d-f1b4-4120-8203-729d3c0a21f3"},"vehicle_type_id":"4","last_reported":1745478657,"current_range_meters":21600,"station_id":"ce4bhnp2rcd13ifvqgvg","pricing_plan_id":"cebpf4jnsgd1na2vs0mg"},{"bike_id":"ad767694-7707-4d38-b217-8db695acebc5","system_id":"levelo_inurba_marseille","lat":43.29026,"lon":5.37572,"is_reserved":false,"is_disabled":false,"rental_uris":{"android":"levelo://app?vid=ad767694-7707-4d38-b217-8db695acebc5","ios":"levelo://app?vid=ad767694-7707-4d38-b217-8db695acebc5"},"vehicle_type_id":"4","last_reported":1745478657,"current_range_meters":20800,"station_id":"ce4bh692rcd13ifvqe90","pricing_plan_id":"cebpf4jnsgd1na2vs0mg"},{"bike_id":"9a1c0be7-bd1a-4081-ab84-3ef05258b407","system_id":"levelo_inurba_marseille","lat":43.23202,"lon":5.35568,"is_reserved":false,"is_disabled":false,"rental_uris":{"android":"levelo://app?vid=9a1c0be7-bd1a-4081-ab84-3ef05258b407","ios":"levelo://app?vid=9a1c0be7-bd1a-4081-ab84-3ef05258b407"},"vehicle_type_id":"4","last_reported":1745478657,"current_range_meters":21600,"station_id":"ce4bhu92rcd13ifvqi70","pricing_plan_id":"cebpf4jnsgd1na2vs0mg"},{"bike_id":"3c7d1b99-4102-4458-8dc4-3c826cdde35d","system_id":"levelo_inurba_marseille","lat":43.2749,"lon":5.42452,"is_reserved":false,"is_disabled":false,"rental_uris":{"android":"levelo://app?vid=3c7d1b99-4102-4458-8dc4-3c826cdde35d","ios":"levelo://app?vid=3c7d1b99-4102-4458-8dc4-3c826cdde35d"},"vehicle_type_id":"4","last_reported":1745478657,"current_range_meters":21600,"station_id":"ce4bhn92rcd13ifvqgrg","pricing_plan_id":"cebpf4jnsgd1na2vs0mg"},{"bike_id":"620ec9d5-c78c-4265-8679-173a5190db70","system_id":"levelo_inurba_marseille","lat":43.306008,"lon":5.393662,"is_reserved":false,"is_disabled":false,"rental_uris":{"android":"levelo://app?vid=620ec9d5-c78c-4265-8679-173a5190db70","ios":"levelo://app?vid=620ec9d5-c78c-4265-8679-173a5190db70"},"vehicle_type_id":"4","last_reported":1745478657,"current_range_meters":21600,"station_id":"ce4bh292rcd13ifvqdg0","pricing_plan_id":"cebpf4jnsgd1na2vs0mg"},{"bike_id":"ad6330d2-07bc-4e8b-b7ff-a60ca63c8382","system_id":"levelo_inurba_marseille","lat":43.28977,"lon":5.37836,"is_reserved":false,"is_disabled":false,"rental_uris":{"android":"levelo://app?vid=ad6330d2-07bc-4e8b-b7ff-a60ca63c8382","ios":"levelo://app?vid=ad6330d2-07bc-4e8b-b7ff-a60ca63c8382"},"vehicle_type_id":"4","last_reported":1745478657,"current_range_meters":21600,"station_id":"ce4bh9p2rcd13ifvqed0","pricing_plan_id":"cebpf4jnsgd1na2vs0mg"},{"bike_id":"393f1322-e2ae-46ec-b21d-3ba5a885369c","system_id":"levelo_inurba_marseille","lat":43.26776,"lon":5.394162,"is_reserved":false,"is_disabled":true,"rental_uris":{"android":"levelo://app?vid=393f1322-e2ae-46ec-b21d-3ba5a885369c","ios":"levelo://app?vid=393f1322-e2ae-46ec-b21d-3ba5a885369c"},"vehicle_type_id":"4","last_reported":1745478657,"current_range_meters":21600,"station_id":"","pricing_plan_id":"cebpf4jnsgd1na2vs0mg"},{"bike_id":"28c655a4-6907-4d6b-b598-69019c264ec2","system_id":"levelo_inurba_marseille","lat":43.337444,"lon":5.374475,"is_reserved":false,"is_disabled":false,"rental_uris":{"android":"levelo://app?vid=28c655a4-6907-4d6b-b598-69019c264ec2","ios":"levelo://app?vid=28c655a4-6907-4d6b-b598-69019c264ec2"},"vehicle_type_id":"4","last_reported":1745478657,"current_range_meters":22000,"station_id":"","pricing_plan_id":"cebpf4jnsgd1na2vs0mg"},{"bike_id":"36f45327-7f57-495d-a2c9-990a7918cbbc","system_id":"levelo_inurba_marseille","lat":43.28973,"lon":5.37832,"is_reserved":false,"is_disabled":false,"rental_uris":{"android":"levelo://app?vid=36f45327-7f57-495d-a2c9-990a7918cbbc","ios":"levelo://app?vid=36f45327-7f57-495d-a2c9-990a7918cbbc"},"vehicle_type_id":"4","last_reported":1745478657,"current_range_meters":21600,"station_id":"ce4bh9p2rcd13ifvqed0","pricing_plan_id":"cebpf4jnsgd1na2vs0mg"},{"bike_id":"a3f082c8-7125-4974-9c0d-44a4d3df037c","system_id":"levelo_inurba_marseille","lat":43.289398,"lon":5.363331,"is_reserved":false,"is_disabled":false,"rental_uris":{"android":"levelo://app?vid=a3f082c8-7125-4974-9c0d-44a4d3df037c","ios":"levelo://app?vid=a3f082c8-7125-4974-9c0d-44a4d3df037c"},"vehicle_type_id":"4","last_reported":1745478657,"current_range_meters":23200,"station_id":"ce4bhc92rcd13ifvqetg","pricing_plan_id":"cebpf4jnsgd1na2vs0mg"},{"bike_id":"89b04bb5-3e61-4482-99b1-05491f1251c0","system_id":"levelo_inurba_marseille","lat":43.259382,"lon":5.409047,"is_reserved":false,"is_disabled":false,"rental_uris":{"android":"levelo://app?vid=89b04bb5-3e61-4482-99b1-05491f1251c0","ios":"levelo://app?vid=89b04bb5-3e61-4482-99b1-05491f1251c0"},"vehicle_type_id":"4","last_reported":1745478657,"current_range_meters":22000,"station_id":"ce4bhi12rcd13ifvqfo0","pricing_plan_id":"cebpf4jnsgd1na2vs0mg"},