{"last_updated":1703243158,"ttl":30,"version":"2.2","data":{"bikes":[{"bike_id":"d9be9273-6818-4dba-90fd-67ea928effa5","system_id":"levelo_inurba_marseille","lat":43.31341,"lon":5.367098,"is_reserved":false,"is_disabled":false,"rental_uris":{"android":"levelo://app?vid=d9be9273-6818-4dba-90fd-67ea928effa5","ios":"levelo://app?vid=d9be9273-6818-4dba-90fd-67ea928effa5"},"vehicle_type_id":"4","last_reported":1703243158,"current_range_meters":28400,"station_id":"ce4bgr92rcd13ifvqc6g","pricing_plan_id":"free"},{"bike_id":"61ea5a5d-9237-4652-afe7-eef3dd69c4f1","system_id":"levelo_inurba_marseille","lat":43.31341,"lon":5.367098,"is_reserved":false,"is_disabled":false,"rental_uris":{"android":"levelo://app?vid=61ea5a5d-9237-4652-afe7-eef3dd69c4f1","ios":"levelo://app?vid=61ea5a5d-9237-4652-afe7-eef3dd69c4f1"},"vehicle_type_id":"4","last_reported":1703243158,"current_range_meters":29200,"station_id":"ce4bgr92rcd13ifvqc6g","pricing_plan_id":"free"},{"bike_id":"387e0b76-e3b2-4523-ad04-138ee00889c0","system_id":"levelo_inurba_marseille","lat":43.313391,"lon":5.36706,"is_reserved":false,"is_disabled":false,"rental_uris":{"android":"levelo://app?vid=387e0b76-e3b2-4523-ad04-138ee00889c0","ios":"levelo://app?vid=387e0b76-e3b2-4523-ad04-138ee00889c0"},"vehicle_type_id":"4","last_reported":1703243158,"current_range_meters":28800,"station_id":"ce4bgr92rcd13ifvqc6g","pricing_plan_id":"free"},{"bike_id":"fa5948ab-141d-43da-8a7b-070662ff9bc3","system_id":"levelo_inurba_marseille","lat":43.312239,"lon":5.368562,"is_reserved":false,"is_disabled":false,"rental_uris":{"android":"levelo://app?vid=fa5948ab-141d-43da-8a7b-070662ff9bc3","ios":"levelo://app?vid=fa5948ab-141d-43da-8a7b-070662ff9bc3"},"vehicle_type_id":"4","last_reported":1703243158,"current_range_meters":32000,"station_id":"ce4bgl92rcd13ifvqbq0","pricing_plan_id":"free"},{"bike_id":"fd5fbcb2-82c4-4fdc-b237-a39a5b465b82","system_id":"levelo_inurba_marseille","lat":43.312239,"lon":5.368562,"is_reserved":false,"is_disabled":false,"rental_uris":{"android":"levelo://app?vid=fd5fbcb2-82c4-4fdc-b237-a39a5b465b82","ios":"levelo://app?vid=fd5fbcb2-82c4-4fdc-b237-a39a5b465b82"},"vehicle_type_id":"4","last_reported":1703243158,"current_range_meters":28000,"station_id":"ce4bgl92rcd13ifvqbq0","pricing_plan_id":"free"},{"bike_id":"0823ac3f-eb5e-44e2-954a-9155f2e62a75","system_id":"levelo_inurba_marseille","lat":43.312239,"lon":5.368562,"is_reserved":false,"is_disabled":false,"rental_uris":{"android":"levelo://app?vid=0823ac3f-eb5e-44e2-954a-9155f2e62a75","ios":"levelo://app?vid=0823ac3f-eb5e-44e2-954a-9155f2e62a75"},"vehicle_type_id":"4","last_reported":1703243158,"current_range_meters":5200,"station_id":"ce4bgl92rcd13ifvqbq0","pricing_plan_id":"free"},{"bike_id":"aa0789ac-8076-426c-ac5c-4a8a9e8240ed","system_id":"levelo_inurba_marseille","lat":43.312239,"lon":5.368562,"is_reserved":false,"is_disabled":false,"rental_uris":{"android":"levelo://app?vid=aa0789ac-8076-426c-ac5c-4a8a9e8240ed","ios":"levelo://app?vid=aa0789ac-8076-426c-ac5c-4a8a9e8240ed"},"vehicle_type_id":"4","last_reported":1703243158,"current_range_meters":14000,"station_id":"ce4bgl92rcd13ifvqbq0","pricing_plan_id":"free"},{"bike_id":"a6d8aaf5-05dd-43b4-9695-3814a2bffc02","system_id":"levelo_inurba_marseille","lat":43.309076,"lon":5.368465,"is_reserved":false,"is_disabled":false,"rental_uris":{"android":"levelo://app?vid=a6d8aaf5-05dd-43b4-9695-3814a2bffc02","ios":"levelo://app?vid=a6d8aaf5-05dd-43b4-9695-3814a2bffc02"},"vehicle_type_id":"4","last_reported":1703243158,"current_range_meters":25600,"station_id":"ce4bgn92rcd13ifvqbvg","pricing_plan_id":"free"},{"bike_id":"005b616b-e817-4c63-8e37-c457555addce","system_id":"levelo_inurba_marseille","lat":43.309076,"lon":5.368465,"is_reserved":false,"is_disabled":false,"rental_uris":{"android":"levelo://app?vid=005b616b-e817-4c63-8e37-c457555addce","ios":"levelo://app?vid=005b616b-e817-4c63-8e37-c457555addce"},"vehicle_type_id":"4","last_reported":1703243158,"current_range_meters":0,"station_id":"ce4bgn92rcd13ifvqbvg","pricing_plan_id":"free"},{"bike_id":"20953721-b052-442f-afc7-4918984be503","system_id":"levelo_inurba_marseille","lat":43.314811,"lon":5.373104,"is_reserved":false,"is_disabled":false,"rental_uris":{"android":"levelo://app?vid=20953721-b052-442f-afc7-4918984be503","ios":"levelo://app?vid=20953721-b052-442f-afc7-4918984be503"},"vehicle_type_id":"4","last_reported":1703243158,"current_range_meters":13600,"station_id":"ce4bgt12rcd13ifvqcd0","pricing_plan_id":"free"},{"bike_id":"f825f562-2ab1-4786-971a-b970c2b57ebe","system_id":"levelo_inurba_marseille","lat":43.309039,"lon":5.371797,"is_reserved":false,"is_disabled":false,"rental_uris":{"android":"levelo://app?vid=f825f562-2ab1-4786-971a-b970c2b57ebe","ios":"levelo://app?vid=f825f562-2ab1-4786-971a-b970c2b57ebe"},"vehicle_type_id":"4","last_reported":1703243158,"current_range_meters":19200,"station_id":"ce4bguh2rcd13ifvqckg","pricing_plan_id":"free"},{"bike_id":"ef51a5f7-0530-4414-96c9-d76e80780b71","system_id":"levelo_inurba_marseille","lat":43.305712,"lon":5.365641,"is_reserved":false,"is_disabled":false,"rental_uris":{"android":"levelo://app?vid=ef51a5f7-0530-4414-96c9-d76e80780b71","ios":"levelo://app?vid=ef51a5f7-0530-4414-96c9-d76e80780b71"},"vehicle_type_id":"4","last_reported":1703243158,"current_range_meters":2800,"station_id":"ce4bgs12rcd13ifvqcag","pricing_plan_id":"free"},{"bike_id":"a557f9ba-44ab-462a-9969-6e3ef0543c3f","system_id":"levelo_inurba_marseille","lat":43.305368,"lon":5.367343,"is_reserved":false,"is_disabled":false,"rental_uris":{"android":"levelo://app?vid=a557f9ba-44ab-462a-9969-6e3ef0543c3f","ios":"levelo://app?vid=a557f9ba-44ab-462a-9969-6e3ef0543c3f"},"vehicle_type_id":"4","last_reported":1703243158,"current_range_meters":22800,"station_id":"ce4bgrp2rcd13ifvqc9g","pricing_plan_id":"free"},{"bike_id":"ec910eeb-fc03-4a03-9fd1-55d811603d77","system_id":"levelo_inurba_marseille","lat":43.30544,"lon":5.365318,"is_reserved":false,"is_disabled":false,"rental_uris":{"android":"levelo://app?vid=ec910eeb-fc03-4a03-9fd1-55d811603d77","ios":"levelo://app?vid=ec910eeb-fc03-4a03-9fd1-55d811603d77"},"vehicle_type_id":"4","last_reported":1703243158,"current_range_meters":17600,"station_id":"ce4bgs12rcd13ifvqcag","pricing_plan_id":"free"},{"bike_id":"ca053ecb-44c6-462b-a1de-8a4c06fdbfee","system_id":"levelo_inurba_marseille","lat":43.305706,"lon":5.365654,"is_reserved":false,"is_disabled":false,"rental_uris":{"android":"levelo://app?vid=ca053ecb-44c6-462b-a1de-8a4c06fdbfee","ios":"levelo://app?vid=ca053ecb-44c6-462b-a1de-8a4c06fdbfee"},"vehicle_type_id":"4","last_reported":1703243158,"current_range_meters":26400,"station_id":"ce4bgs12rcd13ifvqcag","pricing_plan_id":"free"},{"bike_id":"8f4d2307-67b1-417c-8509-bd6482bd1e10","system_id":"levelo_inurba_marseille","lat":43.305706,"lon":5.365654,"is_reserved":false,"is_disabled":false,"rental_uris":{"android":"levelo://app?vid=8f4d2307-67b1-417c-8509-bd6482bd1e10","ios":"levelo://app?vid=8f4d2307-67b1-417c-8509-bd6482bd1e10"},"vehicle_type_id":"4","last_reported":1703243158,"current_range_meters":18400,"station_id":"ce4bgs12rcd13ifvqcag","pricing_plan_id":"free"},{"bike_id":"401635c5-dff3-40a1-a84e-2a718388a25c","system_id":"levelo_inurba_marseille","lat":43.305706,"lon":5.365654,"is_reserved":false,"is_disabled":false,"rental_uris":{"android":"levelo://app?vid=401635c5-dff3-40a1-a84e-2a718388a25c","ios":"levelo://app?vid=401635c5-dff3-40a1-a84e-2a718388a25c"},"vehicle_type_id":"4","last_reported":1703243158,"current_range_meters":15600,"station_id":"ce4bgs12rcd13ifvqcag","pricing_plan_id":"free"},{"bike_id":"a02172a4-306e-47e6-8fc2-3de1d8112193","system_id":"levelo_inurba_marseille","lat":43.305706,"lon":5.365654,"is_reserved":false,"is_disabled":false,"rental_uris":{"android":"levelo://app?vid=a02172a4-306e-47e6-8fc2-3de1d8112193","ios":"levelo://app?vid=a02172a4-306e-47e6-8fc2-3de1d8112193"},"vehicle_type_id":"4","last_reported":1703243158,"current_range_meters":2400,"station_id":"ce4bgs12rcd13ifvqcag","pricing_plan_id":"free"},{"bike_id":"24795ba9-15e6-400a-bb03-38187a2b0bfc","system_id":"levelo_inurba_marseille","lat":43.305706,"lon":5.365654,"is_reserved":false,"is_disabled":false,"rental_uris":{"android":"levelo://app?vid=24795ba9-15e6-400a-bb03-38187a2b0bfc","ios":"levelo://app?vid=24795ba9-15e6-400a-bb03-38187a2b0bfc"},"vehicle_type_id":"4","last_reported":1703243158,"current_range_meters":32000,"station_id":"ce4bgs12rcd13ifvqcag","pricing_plan_id":"free"},{"bike_id":"4500c9e6-63b9-4960-afe1-7c9bbc4309d5","system_id":"levelo_inurba_marseille","lat":43.305989,"lon":5.37225,"is_reserved":false,"is_disabled":false,"rental_uris":{"android":"levelo://app?vid=4500c9e6-63b9-4960-afe1-7c9bbc4309d5","ios":"levelo://app?vid=4500c9e6-63b9-4960-afe1-7c9bbc4309d5"},"vehicle_type_id":"4","last_reported":1703243158,"current_range_meters":30000,"station_id":"ce4bgqh2rcd13ifvqc4g","pricing_plan_id":"free"},{"bike_id":"bdc8f0f2-cd6c-4b77-8174-1e43cc93d594","system_id":"levelo_inurba_marseille","lat":43.305989,"lon":5.37225,"is_reserved":false,"is_disabled":false,"rental_uris":{"android":"levelo://app?vid=bdc8f0f2-cd6c-4b77-8174-1e43cc93d594","ios":"levelo://app?vid=bdc8f0f2-cd6c-4b77-8174-1e43cc93d594"},"vehicle_type_id":"4","last_reported":1703243158,"current_range_meters":1200,"station_id":"ce4bgqh2rcd13ifvqc4g","pricing_plan_id":"free"},{"bike_id":"9c2b5c12-1e66-4ea4-a871-3fffc8a7df17","system_id":"levelo_inurba_marseille","lat":43.311173,"lon":5.377653,"is_reserved":false,"is_disabled":false,"rental_uris":{"android":"levelo://app?vid=9c2b5c12-1e66-4ea4-a871-3fffc8a7df17","ios":"levelo://app?vid=9c2b5c12-1e66-4ea4-a871-3fffc8a7df17"},"vehicle_type_id":"4","last_reported":1703243158,"current_range_meters":29200,"station_id":"ce4bgt92rcd13ifvqcg0","pricing_plan_id":"free"},{"bike_id":"0a4c79c3-f08e-42fb-b2c0-13dde5afea73","system_id":"levelo_inurba_marseille","lat":43.311125,"lon":5.377624,"is_reserved":false,"is_disabled":false,"rental_uris":{"android":"levelo://app?vid=0a4c79c3-f08e-42fb-b2c0-13dde5afea73","ios":"levelo://app?vid=0a4c79c3-f08e-42fb-b2c0-13dde5afea73"},"vehicle_type_id":"4","last_reported":1703243158,"current_range_meters":19200,"station_id":"ce4bgt92rcd13ifvqcg0","pricing_plan_id":"free"},{"bike_id":"a4a981db-68fa-4be7-ba3c-07d9d8ca396e","system_id":"levelo_inurba_marseille","lat":43.307945,"lon":5.376487,"is_reserved":false,"is_disabled":false,"rental_uris":{"android":"levelo://app?vid=a4a981db-68fa-4be7-ba3c-07d9d8ca396e","ios":"levelo://app?vid=a4a981db-68fa-4be7-ba3c-07d9d8ca396e"},"vehicle_type_id":"4","last_reported":1703243158,"current_range_meters":800,"station_id":"ce4bgv92rcd13ifvqcq0","pricing_plan_id":"free"},{"bike_id":"4e383e06-699c-4c4a-a51c-049a5c2c896b","system_id":"levelo_inurba_marseille","lat":43.307945,"lon":5.376487,"is_reserved":false,"is_disabled":false,"rental_uris":{"android":"levelo://app?vid=4e383e06-699c-4c4a-a51c-049a5c2c896b","ios":"levelo://app?vid=4e383e06-699c-4c4a-a51c-049a5c2c896b"},"vehicle_type_id":"4","last_reported":1703243158,"current_range_meters":26400,"station_id":"ce4bgv92rcd13ifvqcq0","pricing_plan_id":"free"},{"bike_id":"1fa68970-e30d-4a82-92f6-5c7675e3e1c0","system_id":"levelo_inurba_marseille","lat":43.317075,"lon":5.377367,"is_reserved":false,"is_disabled":false,"rental_uris":{"android":"levelo://app?vid=1fa68970-e30d-4a82-92f6-5c7675e3e1c0","ios":"levelo://app?vid=1fa68970-e30d-4a82-92f6-5c7675e3e1c0"},"vehicle_type_id":"4","last_reported":1703243158,"current_range_meters":20800,"station_id":"ce4bgth2rcd13ifvqch0","pricing_plan_id":"free"},{"bike_id":"87f611a7-cff2-4b3e-ba04-2f994d12f6b5","system_id":"levelo_inurba_marseille","lat":43.317075,"lon":5.377367,"is_reserved":false,"is_disabled":false,"rental_uris":{"android":"levelo://app?vid=87f611a7-cff2-4b3e-ba04-2f994d12f6b5","ios":"levelo://app?vid=87f611a7-cff2-4b3e-ba04-2f994d12f6b5"},"vehicle_type_id":"4","last_reported":1703243158,"current_range_meters":19200,"station_id":"ce4bgth2rcd13ifvqch0","pricing_plan_id":"free"},{"bike_id":"bf21e8be-3e41-4872-8aeb-97e285f448f4","system_id":"levelo_inurba_marseille","lat":43.317075,"lon":5.377367,"is_reserved":false,"is_disabled":false,"rental_uris":{"android":"levelo://app?vid=bf21e8be-3e41-4872-8aeb-97e285f448f4","ios":"levelo://app?vid=bf21e8be-3e41-4872-8aeb-97e285f448f4"},"vehicle_type_id":"4","last_reported":1703243158,"current_range_meters":12400,"station_id":"ce4bgth2rcd13ifvqch0","pricing_plan_id":"free"},{"bike_id":"1fdb9880-f430-4f17-b3b6-53a1ee4ea0dd","system_id":"levelo_inurba_marseille","lat":43.303046,"lon":5.368981,"is_reserved":false,"is_disabled":false,"rental_uris":{"android":"levelo://app?vid=1fdb9880-f430-4f17-b3b6-53a1ee4ea0dd","ios":"levelo://app?vid=1fdb9880-f430-4f17-b3b6-53a1ee4ea0dd"},"vehicle_type_id":"4","last_reported":1703243158,"current_range_meters":29600,"station_id":"ce4bgqh2rcd13ifvqc5g","pricing_plan_id":"free"},{"bike_id":"62ac327a-9cb6-469c-a7b9-145ba51016e0","system_id":"levelo_inurba_marseille","lat":43.30304,"lon":5.368987,"is_reserved":false,"is_disabled":false,"rental_uris":{"android":"levelo://app?vid=62ac327a-9cb6-469c-a7b9-145ba51016e0","ios":"levelo://app?vid=62ac327a-9cb6-469c-a7b9-145ba51016e0"},"vehicle_type_id":"4","last_reported":1703243158,"current_range_meters":25200,"station_id":"ce4bgqh2rcd13ifvqc5g","pricing_plan_id":"free"},{"bike_id":"64f03684-aa32-4bd6-ac3e-304b9aec4804","system_id":"levelo_inurba_marseille","lat":43.301939,"lon":5.366286,"is_reserved":false,"is_disabled":false,"rental_uris":{"android":"levelo://app?vid=64f03684-aa32-4bd6-ac3e-304b9aec4804","ios":"levelo://app?vid=64f03684-aa32-4bd6-ac3e-304b9aec4804"},"vehicle_type_id":"4","last_reported":1703243158,"current_range_meters":11200,"station_id":"ce4bgrh2rcd13ifvqc8g","pricing_plan_id":"free"},{"bike_id":"a1956281-cf01-450b-a4b8-2a28d2c58143","system_id":"levelo_inurba_marseille","lat":43.301939,"lon":5.366286,"is_reserved":false,"is_disabled":false,"rental_uris":{"android":"levelo://app?vid=a1956281-cf01-450b-a4b8-2a28d2c58143","ios":"levelo://app?vid=a1956281-cf01-450b-a4b8-2a28d2c58143"},"vehicle_type_id":"4","last_reported":1703243158,"current_range_meters":28400,"station_id":"ce4bgrh2rcd13ifvqc8g","pricing_plan_id":"free"},{"bike_id":"7ffad749-2954-4bfe-b356-753339dda7b1","system_id":"levelo_inurba_marseille","lat":43.30802,"lon":5.38157,"is_reserved":false,"is_disabled":false,"rental_uris":{"android":"levelo://app?vid=7ffad749-2954-4bfe-b356-753339dda7b1","ios":"levelo://app?vid=7ffad749-2954-4bfe-b356-753339dda7b1"},"vehicle_type_id":"4","last_reported":1703243158,"current_range_meters":0,"station_id":"ce4bgt12rcd13ifvqce0","pricing_plan_id":"free"},{"bike_id":"ea63f5ff-ed2a-4a1c-a64b-fef4232b63de","system_id":"levelo_inurba_marseille","lat":43.324771,"lon":5.36557,"is_reserved":false,"is_disabled":false,"rental_uris":{"android":"levelo://app?vid=ea63f5ff-ed2a-4a1c-a64b-fef4232b63de","ios":"levelo://app?vid=ea63f5ff-ed2a-4a1c-a64b-fef4232b63de"},"vehicle_type_id":"4","last_reported":1703243158,"current_range_meters":30800,"station_id":"ce4bhs12rcd13ifvqhvg","pricing_plan_id":"free"},{"bike_id":"5393f3a5-e6f3-407b-b0df-71b0efdebe10","system_id":"levelo_inurba_marseille","lat":43.302784,"lon":5.377158,"is_reserved":false,"is_disabled":false,"rental_uris":{"android":"levelo://app?vid=5393f3a5-e6f3-407b-b0df-71b0efdebe10","ios":"levelo://app?vid=5393f3a5-e6f3-407b-b0df-71b0efdebe10"},"vehicle_type_id":"4","last_reported":1703243158,"current_range_meters":28000,"station_id":"ce4bguh2rcd13ifvqcj0","pricing_plan_id":"free"},{"bike_id":"2dd3b479-3119-4e1e-b7a4-6c5ad66dd53c","system_id":"levelo_inurba_marseille","lat":43.301429,"lon":5.37413,"is_reserved":false,"is_disabled":false,"rental_uris":{"android":"levelo://app?vid=2dd3b479-3119-4e1e-b7a4-6c5ad66dd53c","ios":"levelo://app?vid=2dd3b479-3119-4e1e-b7a4-6c5ad66dd53c"},"vehicle_type_id":"4","last_reported":1703243158,"current_range_meters":31200,"station_id":"ce4bgs92rcd13ifvqcc0","pricing_plan_id":"free"},{"bike_id":"964e9e84-50ee-4e78-94c5-445bac6e6c57","system_id":"levelo_inurba_marseille","lat":43.301429,"lon":5.37413,"is_reserved":false,"is_disabled":false,"rental_uris":{"android":"levelo://app?vid=964e9e84-50ee-4e78-94c5-445bac6e6c57","ios":"levelo://app?vid=964e9e84-50ee-4e78-94c5-445bac6e6c57"},"vehicle_type_id":"4","last_reported":1703243158,"current_range_meters":25200,"station_id":"ce4bgs92rcd13ifvqcc0","pricing_plan_id":"free"},{"bike_id":"a77e0d5f-e0fa-46c2-8e74-448c47018ad4","system_id":"levelo_inurba_marseille","lat":43.301429,"lon":5.37413,"is_reserved":false,"is_disabled":false,"rental_uris":{"android":"levelo://app?vid=a77e0d5f-e0fa-46c2-8e74-448c47018ad4","ios":"levelo://app?vid=a77e0d5f-e0fa-46c2-8e74-448c47018ad4"},"vehicle_type_id":"4","last_reported":1703243158,"current_range_meters":28800,"station_id":"ce4bgs92rcd13ifvqcc0","pricing_plan_id":"free"},{"bike_id":"dc0f6af5-c02c-4610-baea-e5c6ca16f530","system_id":"levelo_inurba_marseille","lat":43.319915,"lon":5.381498,"is_reserved":false,"is_disabled":false,"rental_uris":{"android":"levelo://app?vid=dc0f6af5-c02c-4610-baea-e5c6ca16f530","ios":"levelo://app?vid=dc0f6af5-c02c-4610-baea-e5c6ca16f530"},"vehicle_type_id":"4","last_reported":1703243158,"current_range_meters":29600,"station_id":"ce4bhr12rcd13ifvqhpg","pricing_plan_id":"free"},{"bike_id":"51360f23-00df-4b8c-b369-faeb35be788d","system_id":"levelo_inurba_marseille","lat":43.31998,"lon":5.38152,"is_reserved":false,"is_disabled":false,"rental_uris":{"android":"levelo://app?vid=51360f23-00df-4b8c-b369-faeb35be788d","ios":"levelo://app?vid=51360f23-00df-4b8c-b369-faeb35be788d"},"vehicle_type_id":"4","last_reported":1703243158,"current_range_meters":27200,"station_id":"ce4bhr12rcd13ifvqhpg","pricing_plan_id":"free"},{"bike_id":"0effb7f6-23e5-4f02-a1eb-80bdf14a191a","system_id":"levelo_inurba_marseille","lat":43.31998,"lon":5.38153,"is_reserved":false,"is_disabled":false,"rental_uris":{"android":"levelo://app?vid=0effb7f6-23e5-4f02-a1eb-80bdf14a191a","ios":"levelo://app?vid=0effb7f6-23e5-4f02-a1eb-80bdf14a191a"},"vehicle_type_id":"4","last_reported":1703243158,"current_range_meters":29200,"station_id":"ce4bhr12rcd13ifvqhpg","pricing_plan_id":"free"},{"bike_id":"af0ab532-e26f-41d4-b9ce-17ae08ae4cee","system_id":"levelo_inurba_marseille","lat":43.320005,"lon":5.381601,"is_reserved":false,"is_disabled":false,"rental_uris":{"android":"levelo://app?vid=af0ab532-e26f-41d4-b9ce-17ae08ae4cee","ios":"levelo://app?vid=af0ab532-e26f-41d4-b9ce-17ae08ae4cee"},"vehicle_type_id":"4","last_reported":1703243158,"current_range_meters":6800,"station_id":"ce4bhr12rcd13ifvqhpg","pricing_plan_id":"free"},{"bike_id":"ee46a1dc-bdbe-494c-9593-3f758d055290","system_id":"levelo_inurba_marseille","lat":43.313571,"lon":5.384829,"is_reserved":false,"is_disabled":false,"rental_uris":{"android":"levelo://app?vid=ee46a1dc-bdbe-494c-9593-3f758d055290","ios":"levelo://app?vid=ee46a1dc-bdbe-494c-9593-3f758d055290"},"vehicle_type_id":"4","last_reported":1703243158,"current_range_meters":12000,"station_id":"ce4bgt92rcd13ifvqcf0","pricing_plan_id":"free"},{"bike_id":"4414ffc8-1564-4297-a5fb-50dceb8116e2","system_id":"levelo_inurba_marseille","lat":43.299724,"lon":5.371829,"is_reserved":false,"is_disabled":false,"rental_uris":{"android":"levelo://app?vid=4414ffc8-1564-4297-a5fb-50dceb8116e2","ios":"levelo://app?vid=4414ffc8-1564-4297-a5fb-50dceb8116e2"},"vehicle_type_id":"4","last_reported":1703243158,"current_range_meters":27200,"station_id":"ce4bgr92rcd13ifvqc7g","pricing_plan_id":"free"},{"bike_id":"cda6a398-2d1e-4941-ac84-b9027f639397","system_id":"levelo_inurba_marseille","lat":43.299724,"lon":5.371829,"is_reserved":false,"is_disabled":false,"rental_uris":{"android":"levelo://app?vid=cda6a398-2d1e-4941-ac84-b9027f639397","ios":"levelo://app?vid=cda6a398-2d1e-4941-ac84-b9027f639397"},"vehicle_type_id":"4","last_reported":1703243158,"current_range_meters":3200,"station_id":"ce4bgr92rcd13ifvqc7g","pricing_plan_id":"free"},{"bike_id":"06ca8f1b-e8e6-4063-a7d4-bcc39a49e0ce","system_id":"levelo_inurba_marseille","lat":43.299209,"lon":5.365547,"is_reserved":false,"is_disabled":false,"rental_uris":{"android":"levelo://app?vid=06ca8f1b-e8e6-4063-a7d4-bcc39a49e0ce","ios":"levelo://app?vid=06ca8f1b-e8e6-4063-a7d4-bcc39a49e0ce"},"vehicle_type_id":"4","last_reported":1703243158,"current_range_meters":16000,"station_id":"ce4bgm92rcd13ifvqbr0","pricing_plan_id":"free"},{"bike_id":"d2acf4e4-204b-4add-a3f0-b65d309c0805","system_id":"levelo_inurba_marseille","lat":43.299243,"lon":5.37481,"is_reserved":false,"is_disabled":false,"rental_uris":{"android":"levelo://app?vid=d2acf4e4-204b-4add-a3f0-b65d309c0805","ios":"levelo://app?vid=d2acf4e4-204b-4add-a3f0-b65d309c0805"},"vehicle_type_id":"4","last_reported":1703243158,"current_range_meters":20000,"station_id":"ce4bgjh2rcd13ifvqbg0","pricing_plan_id":"free"},{"bike_id":"7a3bbe3a-998e-44ae-87c6-dd227d3231d8","system_id":"levelo_inurba_marseille","lat":43.298433,"lon":5.362774,"is_reserved":false,"is_disabled":false,"rental_uris":{"android":"levelo://app?vid=7a3bbe3a-998e-44ae-87c6-dd227d3231d8","ios":"levelo://app?vid=7a3bbe3a-998e-44ae-87c6-dd227d3231d8"},"vehicle_type_id":"4","last_reported":1703243158,"current_range_meters":27200,"station_id":"ce4bgpp2rcd13ifvqc3g","pricing_plan_id":"free"},{"bike_id":"0cb66975-3ad4-47d8-a0e1-821c58b559f5","system_id":"levelo_inurba_marseille","lat":43.298433,"lon":5.362774,"is_reserved":false,"is_disabled":false,"rental_uris":{"android":"levelo://app?vid=0cb66975-3ad4-47d8-a0e1-821c58b559f5","ios":"levelo://app?vid=0cb66975-3ad4-47d8-a0e1-821c58b559f5"},"vehicle_type_id":"4","last_reported":1703243158,"current_range_meters":20400,"station_id":"ce4bgpp2rcd13ifvqc3g","pricing_plan_id":"free"},{"bike_id":"3dc9463e-3ad6-422c-9bbe-ec29ab285bb1","system_id":"levelo_inurba_marseille","lat":43.305364,"lon":5.384119,"is_reserved":false,"is_disabled":false,"rental_uris":{"android":"levelo://app?vid=3dc9463e-3ad6-422c-9bbe-ec29ab285bb1","ios":"levelo://app?vid=3dc9463e-3ad6-422c-9bbe-ec29ab285bb1"},"vehicle_type_id":"4","last_reported":1703243158,"current_range_meters":30000,"station_id":"ce4bgg92rcd13ifvqb30","pricing_plan_id":"free"},{"bike_id":"5b2af040-5332-4c1e-a9dc-794899885793","system_id":"levelo_inurba_marseille","lat":43.298433,"lon":5.362774,"is_reserved":false,"is_disabled":false,"rental_uris":{"android":"levelo://app?vid=5b2af040-5332-4c1e-a9dc-794899885793","ios":"levelo://app?vid=5b2af040-5332-4c1e-a9dc-794899885793"},"vehicle_type_id":"4","last_reported":1703243158,"current_range_meters":31600,"station_id":"ce4bgpp2rcd13ifvqc3g","pricing_plan_id":"free"},{"bike_id":"a4170d26-fe94-4121-a8e7-728173f260e9","system_id":"levelo_inurba_marseille","lat":43.298433,"lon":5.362774,"is_reserved":false,"is_disabled":false,"rental_uris":{"android":"levelo://app?vid=a4170d26-fe94-4121-a8e7-728173f260e9","ios":"levelo://app?vid=a4170d26-fe94-4121-a8e7-728173f260e9"},"vehicle_type_id":"4","last_reported":1703243158,"current_range_meters":29200,"station_id":"ce4bgpp2rcd13ifvqc3g","pricing_plan_id":"free"},{"bike_id":"6baf5627-4f30-41c0-b24e-50b8cd6737f3","system_id":"levelo_inurba_marseille","lat":43.298433,"lon":5.362774,"is_reserved":false,"is_disabled":false,"rental_uris":{"android":"levelo://app?vid=6baf5627-4f30-41c0-b24e-50b8cd6737f3","ios":"levelo://app?vid=6baf5627-4f30-41c0-b24e-50b8cd6737f3"},"vehicle_type_id":"4","last_reported":1703243158,"current_range_meters":20400,"station_id":"ce4bgpp2rcd13ifvqc3g","pricing_plan_id":"free"},{"bike_id":"160cd746-5f2e-4ae4-8992-4209d99b45f1","system_id":"levelo_inurba_marseille","lat":43.299243,"lon":5.374807,"is_reserved":false,"is_disabled":false,"rental_uris":{"android":"levelo://app?vid=160cd746-5f2e-4ae4-8992-4209d99b45f1","ios":"levelo://app?vid=160cd746-5f2e-4ae4-8992-4209d99b45f1"},"vehicle_type_id":"4","last_reported":1703243158,"current_range_meters":28000,"station_id":"ce4bgjh2rcd13ifvqbg0","pricing_plan_id":"free"},{"bike_id":"fad64dd6-9ec4-4bde-aa3a-ff6030426711","system_id":"levelo_inurba_marseille","lat":43.297774,"lon":5.370875,"is_reserved":false,"is_disabled":false,"rental_uris":{"android":"levelo://app?vid=fad64dd6-9ec4-4bde-aa3a-ff6030426711","ios":"levelo://app?vid=fad64dd6-9ec4-4bde-aa3a-ff6030426711"},"vehicle_type_id":"4","last_reported":1703243158,"current_range_meters":27600,"station_id":"ce4bgop2rcd13ifvqc1g","pricing_plan_id":"free"},{"bike_id":"451ed64f-5ae8-4224-bf7e-0649f8f2ca92","system_id":"levelo_inurba_marseille","lat":43.32285,"lon":5.38271,"is_reserved":false,"is_disabled":false,"rental_uris":{"android":"levelo://app?vid=451ed64f-5ae8-4224-bf7e-0649f8f2ca92","ios":"levelo://app?vid=451ed64f-5ae8-4224-bf7e-0649f8f2ca92"},"vehicle_type_id":"4","last_reported":1703243158,"current_range_meters":29600,"station_id":"ce4bhr12rcd13ifvqhqg","pricing_plan_id":"free"},{"bike_id":"0e18aacc-a0a4-43f4-b14e-a9e7be78440e","system_id":"levelo_inurba_marseille","lat":43.328371,"lon":5.366909,"is_reserved":false,"is_disabled":false,"rental_uris":{"android":"levelo://app?vid=0e18aacc-a0a4-43f4-b14e-a9e7be78440e","ios":"levelo://app?vid=0e18aacc-a0a4-43f4-b14e-a9e7be78440e"},"vehicle_type_id":"4","last_reported":1703243158,"current_range_meters":29200,"station_id":"ce4bhs92rcd13ifvqi0g","pricing_plan_id":"free"},{"bike_id":"525f6ec1-c089-48ad-8216-d8e073aa768d","system_id":"levelo_inurba_marseille","lat":43.328371,"lon":5.366909,"is_reserved":false,"is_disabled":false,"rental_uris":{"android":"levelo://app?vid=525f6ec1-c089-48ad-8216-d8e073aa768d","ios":"levelo://app?vid=525f6ec1-c089-48ad-8216-d8e073aa768d"},"vehicle_type_id":"4","last_reported":1703243158,"current_range_meters":8000,"station_id":"ce4bhs92rcd13ifvqi0g","pricing_plan_id":"free"},{"bike_id":"e299beb3-acc1-46fa-9fec-22d2fe5e6b13","system_id":"levelo_inurba_marseille","lat":43.328371,"lon":5.366909,"is_reserved":false,"is_disabled":false,"rental_uris":{"android":"levelo://app?vid=e299beb3-acc1-46fa-9fec-22d2fe5e6b13","ios":"levelo://app?vid=e299beb3-acc1-46fa-9fec-22d2fe5e6b13"},"vehicle_type_id":"4","last_reported":1703243158,"current_range_meters":18400,"station_id":"ce4bhs92rcd13ifvqi0g","pricing_plan_id":"free"},{"bike_id":"8bf0395d-c27d-407d-bf00-1fe14b7d1f01","system_id":"levelo_inurba_marseille","lat":43.328371,"lon":5.366909,"is_reserved":false,"is_disabled":false,"rental_uris":{"android":"levelo://app?vid=8bf0395d-c27d-407d-bf00-1fe14b7d1f01","ios":"levelo://app?vid=8bf0395d-c27d-407d-bf00-1fe14b7d1f01"},"vehicle_type_id":"4","last_reported":1703243158,"current_range_meters":5600,"station_id":"ce4bhs92rcd13ifvqi0g","pricing_plan_id":"free"},{"bike_id":"fd993600-015b-4a57-8e11-1499ff8a6b71","system_id":"levelo_inurba_marseille","lat":43.328371,"lon":5.366909,"is_reserved":false,"is_disabled":false,"rental_uris":{"android":"levelo://app?vid=fd993600-015b-4a57-8e11-1499ff8a6b71","ios":"levelo://app?vid=fd993600-015b-4a57-8e11-1499ff8a6b71"},"vehicle_type_id":"4","last_reported":1703243158,"current_range_meters":17200,"station_id":"ce4bhs92rcd13ifvqi0g","pricing_plan_id":"free"},{"bike_id":"0c61e5bc-f901-4d08-bb9d-5ad9dd6497f2","system_id":"levelo_inurba_marseille","lat":43.297163,"lon":5.365866,"is_reserved":false,"is_disabled":false,"rental_uris":{"android":"levelo://app?vid=0c61e5bc-f901-4d08-bb9d-5ad9dd6497f2","ios":"levelo://app?vid=0c61e5bc-f901-4d08-bb9d-5ad9dd6497f2"},"vehicle_type_id":"4","last_reported":1703243158,"current_range_meters":18400,"station_id":"ce4bgn12rcd13ifvqbt0","pricing_plan_id":"free"},{"bike_id":"11914dde-91de-4fdf-ab24-de472b689ba3","system_id":"levelo_inurba_marseille","lat":43.328371,"lon":5.366909,"is_reserved":false,"is_disabled":false,"rental_uris":{"android":"levelo://app?vid=11914dde-91de-4fdf-ab24-de472b689ba3","ios":"levelo://app?vid=11914dde-91de-4fdf-ab24-de472b689ba3"},"vehicle_type_id":"4","last_reported":1703243158,"current_range_meters":0,"station_id":"ce4bhs92rcd13ifvqi0g","pricing_plan_id":"free"},{"bike_id":"f1df16cd-78f3-4274-ac16-67f6886fccdc","system_id":"levelo_inurba_marseille","lat":43.297163,"lon":5.365866,"is_reserved":false,"is_disabled":false,"rental_uris":{"android":"levelo://app?vid=f1df16cd-78f3-4274-ac16-67f6886fccdc","ios":"levelo://app?vid=f1df16cd-78f3-4274-ac16-67f6886fccdc"},"vehicle_type_id":"4","last_reported":1703243158,"current_range_meters":15600,"station_id":"ce4bgn12rcd13ifvqbt0","pricing_plan_id":"free"},{"bike_id":"da0ba367-9679-430b-8bb5-b1eb1a5e4162","system_id":"levelo_inurba_marseille","lat":43.29685,"lon":5.37293,"is_reserved":false,"is_disabled":false,"rental_uris":{"android":"levelo://app?vid=da0ba367-9679-430b-8bb5-b1eb1a5e4162","ios":"levelo://app?vid=da0ba367-9679-430b-8bb5-b1eb1a5e4162"},"vehicle_type_id":"4","last_reported":1703243158,"current_range_meters":22800,"station_id":"ce4bgk12rcd13ifvqbj0","pricing_plan_id":"free"},{"bike_id":"a168877e-a7d0-431a-87ce-ca1756882521","system_id":"levelo_inurba_marseille","lat":43.2968,"lon":5.37291,"is_reserved":false,"is_disabled":false,"rental_uris":{"android":"levelo://app?vid=a168877e-a7d0-431a-87ce-ca1756882521","ios":"levelo://app?vid=a168877e-a7d0-431a-87ce-ca1756882521"},"vehicle_type_id":"4","last_reported":1703243158,"current_range_meters":30000,"station_id":"ce4bgk12rcd13ifvqbj0","pricing_plan_id":"free"},{"bike_id":"0b067333-74b3-4d7f-b8ac-2101636f76f9","system_id":"levelo_inurba_marseille","lat":43.29587,"lon":5.36738,"is_reserved":false,"is_disabled":false,"rental_uris":{"android":"levelo://app?vid=0b067333-74b3-4d7f-b8ac-2101636f76f9","ios":"levelo://app?vid=0b067333-74b3-4d7f-b8ac-2101636f76f9"},"vehicle_type_id":"4","last_reported":1703243158,"current_range_meters":20800,"station_id":"ce4bgph2rcd13ifvqc2g","pricing_plan_id":"free"},{"bike_id":"1ca5ba56-1c12-44ba-a7be-f0db60804dd8","system_id":"levelo_inurba_marseille","lat":43.29585,"lon":5.36734,"is_reserved":false,"is_disabled":false,"rental_uris":{"android":"levelo://app?vid=1ca5ba56-1c12-44ba-a7be-f0db60804dd8","ios":"levelo://app?vid=1ca5ba56-1c12-44ba-a7be-f0db60804dd8"},"vehicle_type_id":"4","last_reported":1703243158,"current_range_meters":30400,"station_id":"ce4bgph2rcd13ifvqc2g","pricing_plan_id":"free"},{"bike_id":"15a1e794-7314-4fb1-b9a6-72d0de44dd11","system_id":"levelo_inurba_marseille","lat":43.29573,"lon":5.367355,"is_reserved":false,"is_disabled":false,"rental_uris":{"android":"levelo://app?vid=15a1e794-7314-4fb1-b9a6-72d0de44dd11","ios":"levelo://app?vid=15a1e794-7314-4fb1-b9a6-72d0de44dd11"},"vehicle_type_id":"4","last_reported":1703243158,"current_range_meters":25200,"station_id":"ce4bgph2rcd13ifvqc2g","pricing_plan_id":"free"},{"bike_id":"117fb11a-4928-41fe-91e1-e322676c8bba","system_id":"levelo_inurba_marseille","lat":43.29583,"lon":5.36733,"is_reserved":false,"is_disabled":false,"rental_uris":{"android":"levelo://app?vid=117fb11a-4928-41fe-91e1-e322676c8bba","ios":"levelo://app?vid=117fb11a-4928-41fe-91e1-e322676c8bba"},"vehicle_type_id":"4","last_reported":1703243158,"current_range_meters":27600,"station_id":"ce4bgph2rcd13ifvqc2g","pricing_plan_id":"free"},{"bike_id":"5730d61f-901a-4e90-9902-812c9dadaf12","system_id":"levelo_inurba_marseille","lat":43.29573,"lon":5.367355,"is_reserved":false,"is_disabled":false,"rental_uris":{"android":"levelo://app?vid=5730d61f-901a-4e90-9902-812c9dadaf12","ios":"levelo://app?vid=5730d61f-901a-4e90-9902-812c9dadaf12"},"vehicle_type_id":"4","last_reported":1703243158,"current_range_meters":30800,"station_id":"ce4bgph2rcd13ifvqc2g","pricing_plan_id":"free"},{"bike_id":"4888f6b9-f09b-40f0-9fe2-5110f1812e40","system_id":"levelo_inurba_marseille","lat":43.2958,"lon":5.36735,"is_reserved":false,"is_disabled":false,"rental_uris":{"android":"levelo://app?vid=4888f6b9-f09b-40f0-9fe2-5110f1812e40","ios":"levelo://app?vid=4888f6b9-f09b-40f0-9fe2-5110f1812e40"},"vehicle_type_id":"4","last_reported":1703243158,"current_range_meters":30400,"station_id":"ce4bgph2rcd13ifvqc2g","pricing_plan_id":"free"},{"bike_id":"9405d928-fec0-4583-8857-6bfc24162b05","system_id":"levelo_inurba_marseille","lat":43.2958,"lon":5.3674,"is_reserved":false,"is_disabled":false,"rental_uris":{"android":"levelo://app?vid=9405d928-fec0-4583-8857-6bfc24162b05","ios":"levelo://app?vid=9405d928-fec0-4583-8857-6bfc24162b05"},"vehicle_type_id":"4","last_reported":1703243158,"current_range_meters":28800,"station_id":"ce4bgph2rcd13ifvqc2g","pricing_plan_id":"free"},{"bike_id":"35823348-5436-4ebe-bab1-ae885837af05","system_id":"levelo_inurba_marseille","lat":43.29573,"lon":5.367355,"is_reserved":false,"is_disabled":false,"rental_uris":{"android":"levelo://app?vid=35823348-5436-4ebe-bab1-ae885837af05","ios":"levelo://app?vid=35823348-5436-4ebe-bab1-ae885837af05"},"vehicle_type_id":"4","last_reported":1703243158,"current_range_meters":31200,"station_id":"ce4bgph2rcd13ifvqc2g","pricing_plan_id":"free"},{"bike_id":"3af4e489-3d0f-4f9c-b398-4994cc4dda18","system_id":"levelo_inurba_marseille","lat":43.296921,"lon":5.376579,"is_reserved":false,"is_disabled":false,"rental_uris":{"android":"levelo://app?vid=3af4e489-3d0f-4f9c-b398-4994cc4dda18","ios":"levelo://app?vid=3af4e489-3d0f-4f9c-b398-4994cc4dda18"},"vehicle_type_id":"4","last_reported":1703243158,"current_range_meters":21200,"station_id":"ce4bgkh2rcd13ifvqbl0","pricing_plan_id":"free"},{"bike_id":"553f863e-2490-41fd-a711-8e8d91389993","system_id":"levelo_inurba_marseille","lat":43.296921,"lon":5.376579,"is_reserved":false,"is_disabled":false,"rental_uris":{"android":"levelo://app?vid=553f863e-2490-41fd-a711-8e8d91389993","ios":"levelo://app?vid=553f863e-2490-41fd-a711-8e8d91389993"},"vehicle_type_id":"4","last_reported":1703243158,"current_range_meters":20400,"station_id":"ce4bgkh2rcd13ifvqbl0","pricing_plan_id":"free"},{"bike_id":"3a1f228d-06ce-4355-b331-b83130b7013a","system_id":"levelo_inurba_marseille","lat":43.317557,"lon":5.390173,"is_reserved":false,"is_disabled":false,"rental_uris":{"android":"levelo://app?vid=3a1f228d-06ce-4355-b331-b83130b7013a","ios":"levelo://app?vid=3a1f228d-06ce-4355-b331-b83130b7013a"},"vehicle_type_id":"4","last_reported":1703243158,"current_range_meters":10400,"station_id":"ce4bhqp2rcd13ifvqhng","pricing_plan_id":"free"},{"bike_id":"7eada8fb-8c59-41ea-ae15-1164bd9fc1af","system_id":"levelo_inurba_marseille","lat":43.317557,"lon":5.390173,"is_reserved":false,"is_disabled":false,"rental_uris":{"android":"levelo://app?vid=7eada8fb-8c59-41ea-ae15-1164bd9fc1af","ios":"levelo://app?vid=7eada8fb-8c59-41ea-ae15-1164bd9fc1af"},"vehicle_type_id":"4","last_reported":1703243158,"current_range_meters":29200,"station_id":"ce4bhqp2rcd13ifvqhng","pricing_plan_id":"free"},{"bike_id":"53d02047-2fc2-4d30-88b2-583fd58923ab","system_id":"levelo_inurba_marseille","lat":43.317557,"lon":5.390173,"is_reserved":false,"is_disabled":false,"rental_uris":{"android":"levelo://app?vid=53d02047-2fc2-4d30-88b2-583fd58923ab","ios":"levelo://app?vid=53d02047-2fc2-4d30-88b2-583fd58923ab"},"vehicle_type_id":"4","last_reported":1703243158,"current_range_meters":30400,"station_id":"ce4bhqp2rcd13ifvqhng","pricing_plan_id":"free"},{"bike_id":"ad5fc2b2-4a05-4d5c-bf64-1f49b175e001","system_id":"levelo_inurba_marseille","lat":43.29574,"lon":5.3751,"is_reserved":false,"is_disabled":false,"rental_uris":{"android":"levelo://app?vid=ad5fc2b2-4a05-4d5c-bf64-1f49b175e001","ios":"levelo://app?vid=ad5fc2b2-4a05-4d5c-bf64-1f49b175e001"},"vehicle_type_id":"4","last_reported":1703243158,"current_range_meters":14400,"station_id":"ce4bgh92rcd13ifvqb50","pricing_plan_id":"free"},{"bike_id":"377d6e2f-1903-4afb-8b95-01b434f2d5d0","system_id":"levelo_inurba_marseille","lat":43.295748,"lon":5.37522,"is_reserved":false,"is_disabled":false,"rental_uris":{"android":"levelo://app?vid=377d6e2f-1903-4afb-8b95-01b434f2d5d0","ios":"levelo://app?vid=377d6e2f-1903-4afb-8b95-01b434f2d5d0"},"vehicle_type_id":"4","last_reported":1703243158,"current_range_meters":17200,"station_id":"ce4bgh92rcd13ifvqb50","pricing_plan_id":"free"},{"bike_id":"7afdee8c-0429-46e7-ab22-55bfc3bfbce8","system_id":"levelo_inurba_marseille","lat":43.295748,"lon":5.37522,"is_reserved":false,"is_disabled":false,"rental_uris":{"android":"levelo://app?vid=7afdee8c-0429-46e7-ab22-55bfc3bfbce8","ios":"levelo://app?vid=7afdee8c-0429-46e7-ab22-55bfc3bfbce8"},"vehicle_type_id":"4","last_reported":1703243158,"current_range_meters":12400,"station_id":"ce4bgh92rcd13ifvqb50","pricing_plan_id":"free"},{"bike_id":"8c7b0fa1-d3d2-47c5-8e52-0daf62cd6da8","system_id":"levelo_inurba_marseille","lat":43.304274,"lon":5.388873,"is_reserved":false,"is_disabled":false,"rental_uris":{"android":"levelo://app?vid=8c7b0fa1-d3d2-47c5-8e52-0daf62cd6da8","ios":"levelo://app?vid=8c7b0fa1-d3d2-47c5-8e52-0daf62cd6da8"},"vehicle_type_id":"4","last_reported":1703243158,"current_range_meters":8400,"station_id":"ce4bgk12rcd13ifvqbi0","pricing_plan_id":"free"},{"bike_id":"67123371-91ba-41f8-9698-9e3a2e840b8a","system_id":"levelo_inurba_marseille","lat":43.295748,"lon":5.37522,"is_reserved":false,"is_disabled":false,"rental_uris":{"android":"levelo://app?vid=67123371-91ba-41f8-9698-9e3a2e840b8a","ios":"levelo://app?vid=67123371-91ba-41f8-9698-9e3a2e840b8a"},"vehicle_type_id":"4","last_reported":1703243158,"current_range_meters":29200,"station_id":"ce4bgh92rcd13ifvqb50","pricing_plan_id":"free"},{"bike_id":"109d1849-4553-4db0-b102-c87c66ebc8a0","system_id":"levelo_inurba_marseille","lat":43.29572,"lon":5.37521,"is_reserved":false,"is_disabled":false,"rental_uris":{"android":"levelo://app?vid=109d1849-4553-4db0-b102-c87c66ebc8a0","ios":"levelo://app?vid=109d1849-4553-4db0-b102-c87c66ebc8a0"},"vehicle_type_id":"4","last_reported":1703243158,"current_range_meters":8400,"station_id":"ce4bgh92rcd13ifvqb50","pricing_plan_id":"free"},{"bike_id":"c21c8b24-c79a-4137-813d-8c3f39db8c0a","system_id":"levelo_inurba_marseille","lat":43.296263,"lon":5.377094,"is_reserved":false,"is_disabled":false,"rental_uris":{"android":"levelo://app?vid=c21c8b24-c79a-4137-813d-8c3f39db8c0a","ios":"levelo://app?vid=c21c8b24-c79a-4137-813d-8c3f39db8c0a"},"vehicle_type_id":"4","last_reported":1703243158,"current_range_meters":31200,"station_id":"ce4bgi92rcd13ifvqb90","pricing_plan_id":"free"},{"bike_id":"ebbebdcd-b590-4dba-89c2-0b780b69a2c4","system_id":"levelo_inurba_marseille","lat":43.295748,"lon":5.37522,"is_reserved":false,"is_disabled":false,"rental_uris":{"android":"levelo://app?vid=ebbebdcd-b590-4dba-89c2-0b780b69a2c4","ios":"levelo://app?vid=ebbebdcd-b590-4dba-89c2-0b780b69a2c4"},"vehicle_type_id":"4","last_reported":1703243158,"current_range_meters":28800,"station_id":"ce4bgh92rcd13ifvqb50","pricing_plan_id":"free"},{"bike_id":"b4fc49af-086b-47f6-9fbd-3c028d0ac988","system_id":"levelo_inurba_marseille","lat":43.296277,"lon":5.377108,"is_reserved":false,"is_disabled":false,"rental_uris":{"android":"levelo://app?vid=b4fc49af-086b-47f6-9fbd-3c028d0ac988","ios":"levelo://app?vid=b4fc49af-086b-47f6-9fbd-3c028d0ac988"},"vehicle_type_id":"4","last_reported":1703243158,"current_range_meters":0,"station_id":"ce4bgi92rcd13ifvqb90","pricing_plan_id":"free"},{"bike_id":"1378810b-812d-44e5-847a-1b7aeb90e4c4","system_id":"levelo_inurba_marseille","lat":43.299,"lon":5.38357,"is_reserved":false,"is_disabled":false,"rental_uris":{"android":"levelo://app?vid=1378810b-812d-44e5-847a-1b7aeb90e4c4","ios":"levelo://app?vid=1378810b-812d-44e5-847a-1b7aeb90e4c4"},"vehicle_type_id":"4","last_reported":1703243158,"current_range_meters":5600,"station_id":"","pricing_plan_id":"free"},{"bike_id":"5314fee3-5ce7-4138-abac-2cb9109233bd","system_id":"levelo_inurba_marseille","lat":43.295279,"lon":5.375048,"is_reserved":false,"is_disabled":false,"rental_uris":{"android":"levelo://app?vid=5314fee3-5ce7-4138-abac-2cb9109233bd","ios":"levelo://app?vid=5314fee3-5ce7-4138-abac-2cb9109233bd"},"vehicle_type_id":"4","last_reported":1703243158,"current_range_meters":22000,"station_id":"ce4bgkp2rcd13ifvqbmg","pricing_plan_id":"free"},{"bike_id":"3df3833c-5686-4422-aeb0-aaae16333489","system_id":"levelo_inurba_marseille","lat":43.295279,"lon":5.375048,"is_reserved":false,"is_disabled":false,"rental_uris":{"android":"levelo://app?vid=3df3833c-5686-4422-aeb0-aaae16333489","ios":"levelo://app?vid=3df3833c-5686-4422-aeb0-aaae16333489"},"vehicle_type_id":"4","last_reported":1703243158,"current_range_meters":15200,"station_id":"ce4bgkp2rcd13ifvqbmg","pricing_plan_id":"free"},{"bike_id":"9f4d9fc6-3809-4ec7-a9b1-9283c02a41e8","system_id":"levelo_inurba_marseille","lat":43.295214,"lon":5.375088,"is_reserved":false,"is_disabled":false,"rental_uris":{"android":"levelo://app?vid=9f4d9fc6-3809-4ec7-a9b1-9283c02a41e8","ios":"levelo://app?vid=9f4d9fc6-3809-4ec7-a9b1-9283c02a41e8"},"vehicle_type_id":"4","last_reported":1703243158,"current_range_meters":17200,"station_id":"ce4bgkp2rcd13ifvqbmg","pricing_plan_id":"free"},{"bike_id":"7919eadd-c520-4cda-9196-5dc5695e55f6","system_id":"levelo_inurba_marseille","lat":43.29821,"lon":5.38272,"is_reserved":false,"is_disabled":false,"rental_uris":{"android":"levelo://app?vid=7919eadd-c520-4cda-9196-5dc5695e55f6","ios":"levelo://app?vid=7919eadd-c520-4cda-9196-5dc5695e55f6"},"vehicle_type_id":"4","last_reported":1703243158,"current_range_meters":6400,"station_id":"","pricing_plan_id":"free"},{"bike_id":"83e89052-40a2-42be-8ff8-0e89587d18af","system_id":"levelo_inurba_marseille","lat":43.29515,"lon":5.37511,"is_reserved":false,"is_disabled":false,"rental_uris":{"android":"levelo://app?vid=83e89052-40a2-42be-8ff8-0e89587d18af","ios":"levelo://app?vid=83e89052-40a2-42be-8ff8-0e89587d18af"},"vehicle_type_id":"4","last_reported":1703243158,"current_range_meters":1200,"station_id":"ce4bgkp2rcd13ifvqbmg","pricing_plan_id":"free"},{"bike_id":"4ec7f9ee-3059-4281-9f08-dc41f2a9f5d0","system_id":"levelo_inurba_marseille","lat":43.32367,"lon":5.388836,"is_reserved":false,"is_disabled":false,"rental_uris":{"android":"levelo://app?vid=4ec7f9ee-3059-4281-9f08-dc41f2a9f5d0","ios":"levelo://app?vid=4ec7f9ee-3059-4281-9f08-dc41f2a9f5d0"},"vehicle_type_id":"4","last_reported":1703243158,"current_range_meters":6400,"station_id":"ce4bhqp2rcd13ifvqhog","pricing_plan_id":"free"},{"bike_id":"7825f2e2-5dc0-48bf-9610-bf0be308ff43","system_id":"levelo_inurba_marseille","lat":43.32367,"lon":5.388836,"is_reserved":false,"is_disabled":false,"rental_uris":{"android":"levelo://app?vid=7825f2e2-5dc0-48bf-9610-bf0be308ff43","ios":"levelo://app?vid=7825f2e2-5dc0-48bf-9610-bf0be308ff43"},"vehicle_type_id":"4","last_reported":1703243158,"current_range_meters":0,"station_id":"ce4bhqp2rcd13ifvqhog","pricing_plan_id":"free"},{"bike_id":"c63e5769-18da-4431-86a0-1325e0ee1435","system_id":"levelo_inurba_marseille","lat":43.32367,"lon":5.388836,"is_reserved":false,"is_disabled":false,"rental_uris":{"android":"levelo://app?vid=c63e5769-18da-4431-86a0-1325e0ee1435","ios":"levelo://app?vid=c63e5769-18da-4431-86a0-1325e0ee1435"},"vehicle_type_id":"4","last_reported":1703243158,"current_range_meters":26000,"station_id":"ce4bhqp2rcd13ifvqhog","pricing_plan_id":"free"},{"bike_id":"a9ef2ec0-bfee-489d-98ed-5b7b47ea4798","system_id":"levelo_inurba_marseille","lat":43.32367,"lon":5.388836,"is_reserved":false,"is_disabled":false,"rental_uris":{"android":"levelo://app?vid=a9ef2ec0-bfee-489d-98ed-5b7b47ea4798","ios":"levelo://app?vid=a9ef2ec0-bfee-489d-98ed-5b7b47ea4798"},"vehicle_type_id":"4","last_reported":1703243158,"current_range_meters":31200,"station_id":"ce4bhqp2rcd13ifvqhog","pricing_plan_id":"free"},{"bike_id":"b5f0d2d8-ea43-4863-9604-f7b3a6587411","system_id":"levelo_inurba_marseille","lat":43.293259,"lon":5.371586,"is_reserved":false,"is_disabled":false,"rental_uris":{"android":"levelo://app?vid=b5f0d2d8-ea43-4863-9604-f7b3a6587411","ios":"levelo://app?vid=b5f0d2d8-ea43-4863-9604-f7b3a6587411"},"vehicle_type_id":"4","last_reported":1703243158,"current_range_meters":24400,"station_id":"ce4bgh92rcd13ifvqb40","pricing_plan_id":"free"},{"bike_id":"61dd5fe5-3e39-43b5-b51a-3837495d8d1d","system_id":"levelo_inurba_marseille","lat":43.2936,"lon":5.37835,"is_reserved":false,"is_disabled":false,"rental_uris":{"android":"levelo://app?vid=61dd5fe5-3e39-43b5-b51a-3837495d8d1d","ios":"levelo://app?vid=61dd5fe5-3e39-43b5-b51a-3837495d8d1d"},"vehicle_type_id":"4","last_reported":1703243158,"current_range_meters":24000,"station_id":"ce4bgjh2rcd13ifvqbf0","pricing_plan_id":"free"},{"bike_id":"acebd49f-8642-47b2-b066-422da4c51c93","system_id":"levelo_inurba_marseille","lat":43.292311,"lon":5.360731,"is_reserved":false,"is_disabled":false,"rental_uris":{"android":"levelo://app?vid=acebd49f-8642-47b2-b066-422da4c51c93","ios":"levelo://app?vid=acebd49f-8642-47b2-b066-422da4c51c93"},"vehicle_type_id":"4","last_reported":1703243158,"current_range_meters":26800,"station_id":"ce4bhbh2rcd13ifvqeqg","pricing_plan_id":"free"},{"bike_id":"f913160e-560d-4201-96c7-0e5c6291b113","system_id":"levelo_inurba_marseille","lat":43.293009,"lon":5.374584,"is_reserved":false,"is_disabled":false,"rental_uris":{"android":"levelo://app?vid=f913160e-560d-4201-96c7-0e5c6291b113","ios":"levelo://app?vid=f913160e-560d-4201-96c7-0e5c6291b113"},"vehicle_type_id":"4","last_reported":1703243158,"current_range_meters":18400,"station_id":"ce4bgi12rcd13ifvqb70","pricing_plan_id":"free"},{"bike_id":"93ef2c9e-7b2c-431c-8aef-74ec69e5d019","system_id":"levelo_inurba_marseille","lat":43.291671,"lon":5.371575,"is_reserved":false,"is_disabled":false,"rental_uris":{"android":"levelo://app?vid=93ef2c9e-7b2c-431c-8aef-74ec69e5d019","ios":"levelo://app?vid=93ef2c9e-7b2c-431c-8aef-74ec69e5d019"},"vehicle_type_id":"4","last_reported":1703243158,"current_range_meters":800,"station_id":"ce4bha92rcd13ifvqeh0","pricing_plan_id":"free"},{"bike_id":"65c3534d-7694-4760-9396-1f7dcbf0c85f","system_id":"levelo_inurba_marseille","lat":43.291675,"lon":5.371583,"is_reserved":false,"is_disabled":false,"rental_uris":{"android":"levelo://app?vid=65c3534d-7694-4760-9396-1f7dcbf0c85f","ios":"levelo://app?vid=65c3534d-7694-4760-9396-1f7dcbf0c85f"},"vehicle_type_id":"4","last_reported":1703243158,"current_range_meters":27600,"station_id":"ce4bha92rcd13ifvqeh0","pricing_plan_id":"free"},{"bike_id":"73fa7f42-8e3e-49a0-b6f9-c711161ecae7","system_id":"levelo_inurba_marseille","lat":43.313291,"lon":5.396838,"is_reserved":false,"is_disabled":false,"rental_uris":{"android":"levelo://app?vid=73fa7f42-8e3e-49a0-b6f9-c711161ecae7","ios":"levelo://app?vid=73fa7f42-8e3e-49a0-b6f9-c711161ecae7"},"vehicle_type_id":"4","last_reported":1703243158,"current_range_meters":14400,"station_id":"ce4bgvp2rcd13ifvqcu0","pricing_plan_id":"free"},{"bike_id":"a1c45c42-a9ea-4c07-bd10-b01fb06700bd","system_id":"levelo_inurba_marseille","lat":43.309038,"lon":5.396546,"is_reserved":false,"is_disabled":false,"rental_uris":{"android":"levelo://app?vid=a1c45c42-a9ea-4c07-bd10-b01fb06700bd","ios":"levelo://app?vid=a1c45c42-a9ea-4c07-bd10-b01fb06700bd"},"vehicle_type_id":"4","last_reported":1703243158,"current_range_meters":26000,"station_id":"ce4bh012rcd13ifvqcv0","pricing_plan_id":"free"},{"bike_id":"917da306-85b5-4ba1-9396-119c21693905","system_id":"levelo_inurba_marseille","lat":43.290779,"lon":5.371482,"is_reserved":false,"is_disabled":false,"rental_uris":{"android":"levelo://app?vid=917da306-85b5-4ba1-9396-119c21693905","ios":"levelo://app?vid=917da306-85b5-4ba1-9396-119c21693905"},"vehicle_type_id":"4","last_reported":1703243158,"current_range_meters":24800,"station_id":"ce4bh5p2rcd13ifvqe4g","pricing_plan_id":"free"},{"bike_id":"e3b96955-b79a-49ff-be88-70a544f11d64","system_id":"levelo_inurba_marseille","lat":43.290624,"lon":5.359245,"is_reserved":false,"is_disabled":false,"rental_uris":{"android":"levelo://app?vid=e3b96955-b79a-49ff-be88-70a544f11d64","ios":"levelo://app?vid=e3b96955-b79a-49ff-be88-70a544f11d64"},"vehicle_type_id":"4","last_reported":1703243158,"current_range_meters":10800,"station_id":"ce4bha92rcd13ifvqeg0","pricing_plan_id":"free"},{"bike_id":"8d26d0a4-c518-46db-8383-ef98eb4f0dad","system_id":"levelo_inurba_marseille","lat":43.294153,"lon":5.386305,"is_reserved":false,"is_disabled":false,"rental_uris":{"android":"levelo://app?vid=8d26d0a4-c518-46db-8383-ef98eb4f0dad","ios":"levelo://app?vid=8d26d0a4-c518-46db-8383-ef98eb4f0dad"},"vehicle_type_id":"4","last_reported":1703243158,"current_range_meters":28400,"station_id":"ce4bh2h2rcd13ifvqdh0","pricing_plan_id":"free"},{"bike_id":"c11b70d8-b23d-41dd-b86a-92881c6b7221","system_id":"levelo_inurba_marseille","lat":43.289184,"lon":5.366408,"is_reserved":false,"is_disabled":false,"rental_uris":{"android":"levelo://app?vid=c11b70d8-b23d-41dd-b86a-92881c6b7221","ios":"levelo://app?vid=c11b70d8-b23d-41dd-b86a-92881c6b7221"},"vehicle_type_id":"4","last_reported":1703243158,"current_range_meters":26000,"station_id":"ce4bhap2rcd13ifvqek0","pricing_plan_id":"free"},{"bike_id":"3f572dcc-6c0e-4221-a6be-675ad38f0d20","system_id":"levelo_inurba_marseille","lat":43.289184,"lon":5.366408,"is_reserved":false,"is_disabled":false,"rental_uris":{"android":"levelo://app?vid=3f572dcc-6c0e-4221-a6be-675ad38f0d20","ios":"levelo://app?vid=3f572dcc-6c0e-4221-a6be-675ad38f0d20"},"vehicle_type_id":"4","last_reported":1703243158,"current_range_meters":16000,"station_id":"ce4bhap2rcd13ifvqek0","pricing_plan_id":"free"},{"bike_id":"16aeb2f7-a027-4090-b0c3-6462d85a97bb","system_id":"levelo_inurba_marseille","lat":43.289184,"lon":5.366408,"is_reserved":false,"is_disabled":false,"rental_uris":{"android":"levelo://app?vid=16aeb2f7-a027-4090-b0c3-6462d85a97bb","ios":"levelo://app?vid=16aeb2f7-a027-4090-b0c3-6462d85a97bb"},"vehicle_type_id":"4","last_reported":1703243158,"current_range_meters":5600,"station_id":"ce4bhap2rcd13ifvqek0","pricing_plan_id":"free"},{"bike_id":"33b139e9-acb6-4db8-be75-abbd07e6468e","system_id":"levelo_inurba_marseille","lat":43.292644,"lon":5.384257,"is_reserved":false,"is_disabled":false,"rental_uris":{"android":"levelo://app?vid=33b139e9-acb6-4db8-be75-abbd07e6468e","ios":"levelo://app?vid=33b139e9-acb6-4db8-be75-abbd07e6468e"},"vehicle_type_id":"4","last_reported":1703243158,"current_range_meters":7600,"station_id":"ce4bh692rcd13ifvqea0","pricing_plan_id":"free"},{"bike_id":"97b63fa7-1f14-4826-ad0e-f1d41570ab37","system_id":"levelo_inurba_marseille","lat":43.2926,"lon":5.38447,"is_reserved":false,"is_disabled":false,"rental_uris":{"android":"levelo://app?vid=97b63fa7-1f14-4826-ad0e-f1d41570ab37","ios":"levelo://app?vid=97b63fa7-1f14-4826-ad0e-f1d41570ab37"},"vehicle_type_id":"4","last_reported":1703243158,"current_range_meters":15600,"station_id":"ce4bh692rcd13ifvqea0","pricing_plan_id":"free"},{"bike_id":"ba55587f-1a80-4541-bf61-3b408d71d359","system_id":"levelo_inurba_marseille","lat":43.292644,"lon":5.384257,"is_reserved":false,"is_disabled":false,"rental_uris":{"android":"levelo://app?vid=ba55587f-1a80-4541-bf61-3b408d71d359","ios":"levelo://app?vid=ba55587f-1a80-4541-bf61-3b408d71d359"},"vehicle_type_id":"4","last_reported":1703243158,"current_range_meters":16400,"station_id":"ce4bh692rcd13ifvqea0","pricing_plan_id":"free"},{"bike_id":"f32d3d9b-add6-4da8-86c7-185031700879","system_id":"levelo_inurba_marseille","lat":43.290104,"lon":5.356111,"is_reserved":false,"is_disabled":false,"rental_uris":{"android":"levelo://app?vid=f32d3d9b-add6-4da8-86c7-185031700879","ios":"levelo://app?vid=f32d3d9b-add6-4da8-86c7-185031700879"},"vehicle_type_id":"4","last_reported":1703243158,"current_range_meters":0,"station_id":"ce4bhb92rcd13ifvqen0","pricing_plan_id":"free"},{"bike_id":"b45e67a2-ff51-49ae-83bf-15960fa16ae7","system_id":"levelo_inurba_marseille","lat":43.2901,"lon":5.381269,"is_reserved":false,"is_disabled":false,"rental_uris":{"android":"levelo://app?vid=b45e67a2-ff51-49ae-83bf-15960fa16ae7","ios":"levelo://app?vid=b45e67a2-ff51-49ae-83bf-15960fa16ae7"},"vehicle_type_id":"4","last_reported":1703243158,"current_range_meters":22400,"station_id":"ce4bh4p2rcd13ifvqe1g","pricing_plan_id":"free"},{"bike_id":"83ab7335-f426-4874-bf95-61ee7000692c","system_id":"levelo_inurba_marseille","lat":43.33754,"lon":5.37441,"is_reserved":false,"is_disabled":false,"rental_uris":{"android":"levelo://app?vid=83ab7335-f426-4874-bf95-61ee7000692c","ios":"levelo://app?vid=83ab7335-f426-4874-bf95-61ee7000692c"},"vehicle_type_id":"4","last_reported":1703243158,"current_range_meters":30000,"station_id":"","pricing_plan_id":"free"},{"bike_id":"b3e1d717-63d2-403c-ab9b-a69f76fcecde","system_id":"levelo_inurba_marseille","lat":43.337551,"lon":5.374413,"is_reserved":false,"is_disabled":false,"rental_uris":{"android":"levelo://app?vid=b3e1d717-63d2-403c-ab9b-a69f76fcecde","ios":"levelo://app?vid=b3e1d717-63d2-403c-ab9b-a69f76fcecde"},"vehicle_type_id":"4","last_reported":1703243158,"current_range_meters":12000,"station_id":"","pricing_plan_id":"free"},{"bike_id":"a01a2764-8a7a-47ca-83e1-d58af9a888bb","system_id":"levelo_inurba_marseille","lat":43.309371,"lon":5.401449,"is_reserved":false,"is_disabled":false,"rental_uris":{"android":"levelo://app?vid=a01a2764-8a7a-47ca-83e1-d58af9a888bb","ios":"levelo://app?vid=a01a2764-8a7a-47ca-83e1-d58af9a888bb"},"vehicle_type_id":"4","last_reported":1703243158,"current_range_meters":20400,"station_id":"ce4bgvp2rcd13ifvqct0","pricing_plan_id":"free"},{"bike_id":"de457fa0-cfbd-4239-ab67-1bdc56e46358","system_id":"levelo_inurba_marseille","lat":43.337594,"lon":5.374312,"is_reserved":false,"is_disabled":false,"rental_uris":{"android":"levelo://app?vid=de457fa0-cfbd-4239-ab67-1bdc56e46358","ios":"levelo://app?vid=de457fa0-cfbd-4239-ab67-1bdc56e46358"},"vehicle_type_id":"4","last_reported":1703243158,"current_range_meters":12400,"station_id":"ce4rr2p2rcd13i802rgg","pricing_plan_id":"free"},{"bike_id":"6b7fc17e-c295-411e-8ffd-79e16e9c3965","system_id":"levelo_inurba_marseille","lat":43.337598,"lon":5.374287,"is_reserved":false,"is_disabled":false,"rental_uris":{"android":"levelo://app?vid=6b7fc17e-c295-411e-8ffd-79e16e9c3965","ios":"levelo://app?vid=6b7fc17e-c295-411e-8ffd-79e16e9c3965"},"vehicle_type_id":"4","last_reported":1703243158,"current_range_meters":14800,"station_id":"ce4rr2p2rcd13i802rgg","pricing_plan_id":"free"},{"bike_id":"b699c1ca-f17c-40c3-9145-fdc9be807de0","system_id":"levelo_inurba_marseille","lat":43.3376,"lon":5.37429,"is_reserved":false,"is_disabled":false,"rental_uris":{"android":"levelo://app?vid=b699c1ca-f17c-40c3-9145-fdc9be807de0","ios":"levelo://app?vid=b699c1ca-f17c-40c3-9145-fdc9be807de0"},"vehicle_type_id":"4","last_reported":1703243158,"current_range_meters":3600,"station_id":"ce4rr2p2rcd13i802rgg","pricing_plan_id":"free"},{"bike_id":"440ea123-efc2-4a4d-9886-aab944a36f02","system_id":"levelo_inurba_marseille","lat":43.33759,"lon":5.374357,"is_reserved":false,"is_disabled":false,"rental_uris":{"android":"levelo://app?vid=440ea123-efc2-4a4d-9886-aab944a36f02","ios":"levelo://app?vid=440ea123-efc2-4a4d-9886-aab944a36f02"},"vehicle_type_id":"4","last_reported":1703243158,"current_range_meters":18800,"station_id":"ce4rr2p2rcd13i802rgg","pricing_plan_id":"free"},{"bike_id":"4054b2fb-d1d8-4412-a966-eca5f308641d","system_id":"levelo_inurba_marseille","lat":43.337614,"lon":5.374482,"is_reserved":false,"is_disabled":false,"rental_uris":{"android":"levelo://app?vid=4054b2fb-d1d8-4412-a966-eca5f308641d","ios":"levelo://app?vid=4054b2fb-d1d8-4412-a966-eca5f308641d"},"vehicle_type_id":"4","last_reported":1703243158,"current_range_meters":16800,"station_id":"ce4rr2p2rcd13i802rgg","pricing_plan_id":"free"},{"bike_id":"de32b265-5c7c-49e0-ae2d-27af019f782c","system_id":"levelo_inurba_marseille","lat":43.337672,"lon":5.374262,"is_reserved":false,"is_disabled":false,"rental_uris":{"android":"levelo://app?vid=de32b265-5c7c-49e0-ae2d-27af019f782c","ios":"levelo://app?vid=de32b265-5c7c-49e0-ae2d-27af019f782c"},"vehicle_type_id":"4","last_reported":1703243158,"current_range_meters":11200,"station_id":"ce4rr2p2rcd13i802rgg","pricing_plan_id":"free"},{"bike_id":"eb7219f6-a2e6-4c49-b991-9775b87a196b","system_id":"levelo_inurba_marseille","lat":43.33767,"lon":5.37431,"is_reserved":false,"is_disabled":false,"rental_uris":{"android":"levelo://app?vid=eb7219f6-a2e6-4c49-b991-9775b87a196b","ios":"levelo://app?vid=eb7219f6-a2e6-4c49-b991-9775b87a196b"},"vehicle_type_id":"4","last_reported":1703243158,"current_range_meters":12800,"station_id":"ce4rr2p2rcd13i802rgg","pricing_plan_id":"free"},{"bike_id":"3729cdc4-afc8-4d58-82a6-b477a42a282e","system_id":"levelo_inurba_marseille","lat":43.337708,"lon":5.374272,"is_reserved":false,"is_disabled":false,"rental_uris":{"android":"levelo://app?vid=3729cdc4-afc8-4d58-82a6-b477a42a282e","ios":"levelo://app?vid=3729cdc4-afc8-4d58-82a6-b477a42a282e"},"vehicle_type_id":"4","last_reported":1703243158,"current_range_meters":16800,"station_id":"ce4rr2p2rcd13i802rgg","pricing_plan_id":"free"},{"bike_id":"aa1e3189-87c6-45e9-94ac-b7a40230e32f","system_id":"levelo_inurba_marseille","lat":43.33784,"lon":5.37457,"is_reserved":false,"is_disabled":false,"rental_uris":{"android":"levelo://app?vid=aa1e3189-87c6-45e9-94ac-b7a40230e32f","ios":"levelo://app?vid=aa1e3189-87c6-45e9-94ac-b7a40230e32f"},"vehicle_type_id":"4","last_reported":1703243158,"current_range_meters":16800,"station_id":"ce4rr2p2rcd13i802rgg","pricing_plan_id":"free"},{"bike_id":"196be4f9-8084-4393-bef5-dba77987e83a","system_id":"levelo_inurba_marseille","lat":43.28727,"lon":5.36078,"is_reserved":false,"is_disabled":false,"rental_uris":{"android":"levelo://app?vid=196be4f9-8084-4393-bef5-dba77987e83a","ios":"levelo://app?vid=196be4f9-8084-4393-bef5-dba77987e83a"},"vehicle_type_id":"4","last_reported":1703243158,"current_range_meters":24000,"station_id":"cki0cbj6b192h4jlfktg","pricing_plan_id":"free"},{"bike_id":"fe47b533-39f3-460c-b77f-df4b242c5fd8","system_id":"levelo_inurba_marseille","lat":43.289307,"lon":5.38406,"is_reserved":false,"is_disabled":false,"rental_uris":{"android":"levelo://app?vid=fe47b533-39f3-460c-b77f-df4b242c5fd8","ios":"levelo://app?vid=fe47b533-39f3-460c-b77f-df4b242c5fd8"},"vehicle_type_id":"4","last_reported":1703243158,"current_range_meters":2800,"station_id":"ce4bh612rcd13ifvqe6g","pricing_plan_id":"free"},{"bike_id":"4ee9276d-8926-4210-b649-6a1eba5f5b13","system_id":"levelo_inurba_marseille","lat":43.286039,"lon":5.370679,"is_reserved":false,"is_disabled":false,"rental_uris":{"android":"levelo://app?vid=4ee9276d-8926-4210-b649-6a1eba5f5b13","ios":"levelo://app?vid=4ee9276d-8926-4210-b649-6a1eba5f5b13"},"vehicle_type_id":"4","last_reported":1703243158,"current_range_meters":10400,"station_id":"ce4bht12rcd13ifvqi60","pricing_plan_id":"free"},{"bike_id":"41c046a6-7cba-49c2-8c7a-f269d8a6e461","system_id":"levelo_inurba_marseille","lat":43.338453,"lon":5.37808,"is_reserved":false,"is_disabled":false,"rental_uris":{"android":"levelo://app?vid=41c046a6-7cba-49c2-8c7a-f269d8a6e461","ios":"levelo://app?vid=41c046a6-7cba-49c2-8c7a-f269d8a6e461"},"vehicle_type_id":"4","last_reported":1703243158,"current_range_meters":18000,"station_id":"ce4rr2p2rcd13i802rgg","pricing_plan_id":"free"},{"bike_id":"8185934f-de34-4614-996e-dba6159076e6","system_id":"levelo_inurba_marseille","lat":43.31692,"lon":5.40466,"is_reserved":false,"is_disabled":false,"rental_uris":{"android":"levelo://app?vid=8185934f-de34-4614-996e-dba6159076e6","ios":"levelo://app?vid=8185934f-de34-4614-996e-dba6159076e6"},"vehicle_type_id":"4","last_reported":1703243158,"current_range_meters":12400,"station_id":"ce4bh012rcd13ifvqd00","pricing_plan_id":"free"},{"bike_id":"6e602952-151b-4b40-a6a7-a56369355e4e","system_id":"levelo_inurba_marseille","lat":43.316828,"lon":5.404723,"is_reserved":false,"is_disabled":false,"rental_uris":{"android":"levelo://app?vid=6e602952-151b-4b40-a6a7-a56369355e4e","ios":"levelo://app?vid=6e602952-151b-4b40-a6a7-a56369355e4e"},"vehicle_type_id":"4","last_reported":1703243158,"current_range_meters":29600,"station_id":"ce4bh012rcd13ifvqd00","pricing_plan_id":"free"},{"bike_id":"a34fdb4a-0329-4166-8fc7-45c28a4f2c1d","system_id":"levelo_inurba_marseille","lat":43.316828,"lon":5.404723,"is_reserved":false,"is_disabled":false,"rental_uris":{"android":"levelo://app?vid=a34fdb4a-0329-4166-8fc7-45c28a4f2c1d","ios":"levelo://app?vid=a34fdb4a-0329-4166-8fc7-45c28a4f2c1d"},"vehicle_type_id":"4","last_reported":1703243158,"current_range_meters":3200,"station_id":"ce4bh012rcd13ifvqd00","pricing_plan_id":"free"},{"bike_id":"55575d1e-a7e5-4576-ab73-19503cfa006f","system_id":"levelo_inurba_marseille","lat":43.29199,"lon":5.39318,"is_reserved":false,"is_disabled":false,"rental_uris":{"android":"levelo://app?vid=55575d1e-a7e5-4576-ab73-19503cfa006f","ios":"levelo://app?vid=55575d1e-a7e5-4576-ab73-19503cfa006f"},"vehicle_type_id":"4","last_reported":1703243158,"current_range_meters":21200,"station_id":"ce4bh192rcd13ifvqdd0","pricing_plan_id":"free"},{"bike_id":"1d479607-c7a4-4560-9209-da86a34f559f","system_id":"levelo_inurba_marseille","lat":43.291994,"lon":5.392907,"is_reserved":false,"is_disabled":false,"rental_uris":{"android":"levelo://app?vid=1d479607-c7a4-4560-9209-da86a34f559f","ios":"levelo://app?vid=1d479607-c7a4-4560-9209-da86a34f559f"},"vehicle_type_id":"4","last_reported":1703243158,"current_range_meters":19200,"station_id":"ce4bh192rcd13ifvqdd0","pricing_plan_id":"free"},{"bike_id":"e2adfa7c-882e-48a1-9ee4-b36e6186ebbf","system_id":"levelo_inurba_marseille","lat":43.330912,"lon":5.396935,"is_reserved":false,"is_disabled":false,"rental_uris":{"android":"levelo://app?vid=e2adfa7c-882e-48a1-9ee4-b36e6186ebbf","ios":"levelo://app?vid=e2adfa7c-882e-48a1-9ee4-b36e6186ebbf"},"vehicle_type_id":"4","last_reported":1703243158,"current_range_meters":18800,"station_id":"","pricing_plan_id":"free"},{"bike_id":"e81c0b74-ef86-4811-9560-67cea51d11b2","system_id":"levelo_inurba_marseille","lat":43.294314,"lon":5.397498,"is_reserved":false,"is_disabled":false,"rental_uris":{"android":"levelo://app?vid=e81c0b74-ef86-4811-9560-67cea51d11b2","ios":"levelo://app?vid=e81c0b74-ef86-4811-9560-67cea51d11b2"},"vehicle_type_id":"4","last_reported":1703243158,"current_range_meters":22800,"station_id":"ce4bh3h2rcd13ifvqdo0","pricing_plan_id":"free"},{"bike_id":"6681f091-8cae-40db-82be-2afedc79afec","system_id":"levelo_inurba_marseille","lat":43.297936,"lon":5.401044,"is_reserved":false,"is_disabled":false,"rental_uris":{"android":"levelo://app?vid=6681f091-8cae-40db-82be-2afedc79afec","ios":"levelo://app?vid=6681f091-8cae-40db-82be-2afedc79afec"},"vehicle_type_id":"4","last_reported":1703243158,"current_range_meters":6400,"station_id":"","pricing_plan_id":"free"},{"bike_id":"31f62593-a75b-46aa-ad4b-73a95c8ac03a","system_id":"levelo_inurba_marseille","lat":43.285856,"lon":5.350771,"is_reserved":false,"is_disabled":false,"rental_uris":{"android":"levelo://app?vid=31f62593-a75b-46aa-ad4b-73a95c8ac03a","ios":"levelo://app?vid=31f62593-a75b-46aa-ad4b-73a95c8ac03a"},"vehicle_type_id":"4","last_reported":1703243158,"current_range_meters":0,"station_id":"ce4bhch2rcd13ifvqeug","pricing_plan_id":"free"},{"bike_id":"90fa4dd3-d1d5-49af-aed2-153e1686cce3","system_id":"levelo_inurba_marseille","lat":43.283998,"lon":5.375062,"is_reserved":false,"is_disabled":false,"rental_uris":{"android":"levelo://app?vid=90fa4dd3-d1d5-49af-aed2-153e1686cce3","ios":"levelo://app?vid=90fa4dd3-d1d5-49af-aed2-153e1686cce3"},"vehicle_type_id":"4","last_reported":1703243158,"current_range_meters":23200,"station_id":"ce4bh412rcd13ifvqds0","pricing_plan_id":"free"},{"bike_id":"6cdfa4c9-befc-47bb-8c1f-4f7da3f3ecec","system_id":"levelo_inurba_marseille","lat":43.28686,"lon":5.38674,"is_reserved":false,"is_disabled":false,"rental_uris":{"android":"levelo://app?vid=6cdfa4c9-befc-47bb-8c1f-4f7da3f3ecec","ios":"levelo://app?vid=6cdfa4c9-befc-47bb-8c1f-4f7da3f3ecec"},"vehicle_type_id":"4","last_reported":1703243158,"current_range_meters":7200,"station_id":"","pricing_plan_id":"free"},{"bike_id":"f40060b3-159b-4ec6-a8f2-b66ebe958c46","system_id":"levelo_inurba_marseille","lat":43.286595,"lon":5.386795,"is_reserved":false,"is_disabled":false,"rental_uris":{"android":"levelo://app?vid=f40060b3-159b-4ec6-a8f2-b66ebe958c46","ios":"levelo://app?vid=f40060b3-159b-4ec6-a8f2-b66ebe958c46"},"vehicle_type_id":"4","last_reported":1703243158,"current_range_meters":22800,"station_id":"ce4bh492rcd13ifvqdug","pricing_plan_id":"free"},{"bike_id":"a396a5d3-3428-4c7d-bbce-d046d97fc93c","system_id":"levelo_inurba_marseille","lat":43.337168,"lon":5.391825,"is_reserved":false,"is_disabled":false,"rental_uris":{"android":"levelo://app?vid=a396a5d3-3428-4c7d-bbce-d046d97fc93c","ios":"levelo://app?vid=a396a5d3-3428-4c7d-bbce-d046d97fc93c"},"vehicle_type_id":"4","last_reported":1703243158,"current_range_meters":28400,"station_id":"ce4bhr92rcd13ifvqhsg","pricing_plan_id":"free"},{"bike_id":"aa1bea3e-ff5f-4c49-a630-426ec3e7598d","system_id":"levelo_inurba_marseille","lat":43.323464,"lon":5.406297,"is_reserved":false,"is_disabled":false,"rental_uris":{"android":"levelo://app?vid=aa1bea3e-ff5f-4c49-a630-426ec3e7598d","ios":"levelo://app?vid=aa1bea3e-ff5f-4c49-a630-426ec3e7598d"},"vehicle_type_id":"4","last_reported":1703243158,"current_range_meters":32000,"station_id":"ce4bhq92rcd13ifvqhjg","pricing_plan_id":"free"},{"bike_id":"687269d2-e082-4930-b7b6-db76459f0cad","system_id":"levelo_inurba_marseille","lat":43.323464,"lon":5.406297,"is_reserved":false,"is_disabled":false,"rental_uris":{"android":"levelo://app?vid=687269d2-e082-4930-b7b6-db76459f0cad","ios":"levelo://app?vid=687269d2-e082-4930-b7b6-db76459f0cad"},"vehicle_type_id":"4","last_reported":1703243158,"current_range_meters":6400,"station_id":"ce4bhq92rcd13ifvqhjg","pricing_plan_id":"free"},{"bike_id":"dfdadb00-295f-4147-bb7b-992e830130a9","system_id":"levelo_inurba_marseille","lat":43.323464,"lon":5.406297,"is_reserved":false,"is_disabled":false,"rental_uris":{"android":"levelo://app?vid=dfdadb00-295f-4147-bb7b-992e830130a9","ios":"levelo://app?vid=dfdadb00-295f-4147-bb7b-992e830130a9"},"vehicle_type_id":"4","last_reported":1703243158,"current_range_meters":32000,"station_id":"ce4bhq92rcd13ifvqhjg","pricing_plan_id":"free"},{"bike_id":"5ed5e15b-757c-4d9f-b580-f658df80cf88","system_id":"levelo_inurba_marseille","lat":43.284793,"lon":5.384113,"is_reserved":false,"is_disabled":false,"rental_uris":{"android":"levelo://app?vid=5ed5e15b-757c-4d9f-b580-f658df80cf88","ios":"levelo://app?vid=5ed5e15b-757c-4d9f-b580-f658df80cf88"},"vehicle_type_id":"4","last_reported":1703243158,"current_range_meters":21600,"station_id":"ce4bh512rcd13ifvqe3g","pricing_plan_id":"free"},{"bike_id":"ade02862-c1e0-4882-a1cc-0c4cc1ccd75d","system_id":"levelo_inurba_marseille","lat":43.284787,"lon":5.384116,"is_reserved":false,"is_disabled":false,"rental_uris":{"android":"levelo://app?vid=ade02862-c1e0-4882-a1cc-0c4cc1ccd75d","ios":"levelo://app?vid=ade02862-c1e0-4882-a1cc-0c4cc1ccd75d"},"vehicle_type_id":"4","last_reported":1703243158,"current_range_meters":19600,"station_id":"ce4bh512rcd13ifvqe3g","pricing_plan_id":"free"},{"bike_id":"29713f1c-f6e2-4723-8b56-76054cc06fec","system_id":"levelo_inurba_marseille","lat":43.284793,"lon":5.384113,"is_reserved":false,"is_disabled":false,"rental_uris":{"android":"levelo://app?vid=29713f1c-f6e2-4723-8b56-76054cc06fec","ios":"levelo://app?vid=29713f1c-f6e2-4723-8b56-76054cc06fec"},"vehicle_type_id":"4","last_reported":1703243158,"current_range_meters":29600,"station_id":"ce4bh512rcd13ifvqe3g","pricing_plan_id":"free"},{"bike_id":"3e260bee-c381-42d7-b17e-aa40b569f669","system_id":"levelo_inurba_marseille","lat":43.283498,"lon":5.380948,"is_reserved":false,"is_disabled":false,"rental_uris":{"android":"levelo://app?vid=3e260bee-c381-42d7-b17e-aa40b569f669","ios":"levelo://app?vid=3e260bee-c381-42d7-b17e-aa40b569f669"},"vehicle_type_id":"4","last_reported":1703243158,"current_range_meters":14800,"station_id":"ce4bh412rcd13ifvqdr0","pricing_plan_id":"free"},{"bike_id":"f3eb9a5c-fd0e-47e2-a128-5a2e461d020c","system_id":"levelo_inurba_marseille","lat":43.282744,"lon":5.350533,"is_reserved":false,"is_disabled":false,"rental_uris":{"android":"levelo://app?vid=f3eb9a5c-fd0e-47e2-a128-5a2e461d020c","ios":"levelo://app?vid=f3eb9a5c-fd0e-47e2-a128-5a2e461d020c"},"vehicle_type_id":"4","last_reported":1703243158,"current_range_meters":19200,"station_id":"ce4bhbp2rcd13ifvqerg","pricing_plan_id":"free"},{"bike_id":"f47789e7-204e-4b97-ab64-59c34fc28d1d","system_id":"levelo_inurba_marseille","lat":43.29041,"lon":5.399634,"is_reserved":false,"is_disabled":false,"rental_uris":{"android":"levelo://app?vid=f47789e7-204e-4b97-ab64-59c34fc28d1d","ios":"levelo://app?vid=f47789e7-204e-4b97-ab64-59c34fc28d1d"},"vehicle_type_id":"4","last_reported":1703243158,"current_range_meters":0,"station_id":"ce4bh392rcd13ifvqdm0","pricing_plan_id":"free"},{"bike_id":"b98a8122-f3ca-4741-8775-a486cf9f0caf","system_id":"levelo_inurba_marseille","lat":43.296263,"lon":5.40601,"is_reserved":false,"is_disabled":false,"rental_uris":{"android":"levelo://app?vid=b98a8122-f3ca-4741-8775-a486cf9f0caf","ios":"levelo://app?vid=b98a8122-f3ca-4741-8775-a486cf9f0caf"},"vehicle_type_id":"4","last_reported":1703243158,"current_range_meters":15600,"station_id":"ce4bh0h2rcd13ifvqd60","pricing_plan_id":"free"},{"bike_id":"170ab2bf-d29f-4d5f-982a-a6ad40f685fd","system_id":"levelo_inurba_marseille","lat":43.286003,"lon":5.399973,"is_reserved":false,"is_disabled":false,"rental_uris":{"android":"levelo://app?vid=170ab2bf-d29f-4d5f-982a-a6ad40f685fd","ios":"levelo://app?vid=170ab2bf-d29f-4d5f-982a-a6ad40f685fd"},"vehicle_type_id":"4","last_reported":1703243158,"current_range_meters":13200,"station_id":"","pricing_plan_id":"free"},{"bike_id":"28f2ff22-78a4-4bd2-b944-6ee6a51ffedf","system_id":"levelo_inurba_marseille","lat":43.279742,"lon":5.38744,"is_reserved":false,"is_disabled":false,"rental_uris":{"android":"levelo://app?vid=28f2ff22-78a4-4bd2-b944-6ee6a51ffedf","ios":"levelo://app?vid=28f2ff22-78a4-4bd2-b944-6ee6a51ffedf"},"vehicle_type_id":"4","last_reported":1703243158,"current_range_meters":31200,"station_id":"ce4bhg12rcd13ifvqf80","pricing_plan_id":"free"},{"bike_id":"b160059e-4e71-4a5a-a7e5-d4474fea1399","system_id":"levelo_inurba_marseille","lat":43.292569,"lon":5.409107,"is_reserved":false,"is_disabled":false,"rental_uris":{"android":"levelo://app?vid=b160059e-4e71-4a5a-a7e5-d4474fea1399","ios":"levelo://app?vid=b160059e-4e71-4a5a-a7e5-d4474fea1399"},"vehicle_type_id":"4","last_reported":1703243158,"current_range_meters":15600,"station_id":"ce4bh192rcd13ifvqdc0","pricing_plan_id":"free"},{"bike_id":"1afe6a6f-7637-4a46-9001-5cd508934db3","system_id":"levelo_inurba_marseille","lat":43.32544,"lon":5.41439,"is_reserved":false,"is_disabled":false,"rental_uris":{"android":"levelo://app?vid=1afe6a6f-7637-4a46-9001-5cd508934db3","ios":"levelo://app?vid=1afe6a6f-7637-4a46-9001-5cd508934db3"},"vehicle_type_id":"4","last_reported":1703243158,"current_range_meters":17600,"station_id":"ce4bhq12rcd13ifvqhhg","pricing_plan_id":"free"},{"bike_id":"435b3374-d981-4e1a-b9ae-b123982b71bd","system_id":"levelo_inurba_marseille","lat":43.303837,"lon":5.418724,"is_reserved":false,"is_disabled":false,"rental_uris":{"android":"levelo://app?vid=435b3374-d981-4e1a-b9ae-b123982b71bd","ios":"levelo://app?vid=435b3374-d981-4e1a-b9ae-b123982b71bd"},"vehicle_type_id":"4","last_reported":1703243158,"current_range_meters":24400,"station_id":"ce4bhop2rcd13ifvqh7g","pricing_plan_id":"free"},{"bike_id":"8a6b3b36-f24e-45de-b4cf-a7279d74a188","system_id":"levelo_inurba_marseille","lat":43.278401,"lon":5.392152,"is_reserved":false,"is_disabled":false,"rental_uris":{"android":"levelo://app?vid=8a6b3b36-f24e-45de-b4cf-a7279d74a188","ios":"levelo://app?vid=8a6b3b36-f24e-45de-b4cf-a7279d74a188"},"vehicle_type_id":"4","last_reported":1703243158,"current_range_meters":23600,"station_id":"ce4bhjp2rcd13ifvqga0","pricing_plan_id":"free"},{"bike_id":"d44a9ea5-93b2-46c3-b759-93763ae254bb","system_id":"levelo_inurba_marseille","lat":43.275625,"lon":5.384392,"is_reserved":false,"is_disabled":false,"rental_uris":{"android":"levelo://app?vid=d44a9ea5-93b2-46c3-b759-93763ae254bb","ios":"levelo://app?vid=d44a9ea5-93b2-46c3-b759-93763ae254bb"},"vehicle_type_id":"4","last_reported":1703243158,"current_range_meters":16000,"station_id":"ce4bhh92rcd13ifvqfi0","pricing_plan_id":"free"},{"bike_id":"57705eb8-3f30-4f37-8c6b-23b353501294","system_id":"levelo_inurba_marseille","lat":43.275625,"lon":5.384392,"is_reserved":false,"is_disabled":false,"rental_uris":{"android":"levelo://app?vid=57705eb8-3f30-4f37-8c6b-23b353501294","ios":"levelo://app?vid=57705eb8-3f30-4f37-8c6b-23b353501294"},"vehicle_type_id":"4","last_reported":1703243158,"current_range_meters":18400,"station_id":"ce4bhh92rcd13ifvqfi0","pricing_plan_id":"free"},{"bike_id":"e10cc150-4041-48d5-aaa1-023406c60c29","system_id":"levelo_inurba_marseille","lat":43.273613,"lon":5.362705,"is_reserved":false,"is_disabled":false,"rental_uris":{"android":"levelo://app?vid=e10cc150-4041-48d5-aaa1-023406c60c29","ios":"levelo://app?vid=e10cc150-4041-48d5-aaa1-023406c60c29"},"vehicle_type_id":"4","last_reported":1703243158,"current_range_meters":11600,"station_id":"ce4bhbh2rcd13ifvqeo0","pricing_plan_id":"free"},{"bike_id":"fa6b1700-890f-4539-9d7b-e8b8a4e0b4f0","system_id":"levelo_inurba_marseille","lat":43.275625,"lon":5.384392,"is_reserved":false,"is_disabled":false,"rental_uris":{"android":"levelo://app?vid=fa6b1700-890f-4539-9d7b-e8b8a4e0b4f0","ios":"levelo://app?vid=fa6b1700-890f-4539-9d7b-e8b8a4e0b4f0"},"vehicle_type_id":"4","last_reported":1703243158,"current_range_meters":31600,"station_id":"ce4bhh92rcd13ifvqfi0","pricing_plan_id":"free"},{"bike_id":"c12de7e8-a347-40e6-8797-e98d6d1cb1b5","system_id":"levelo_inurba_marseille","lat":43.336148,"lon":5.410349,"is_reserved":false,"is_disabled":false,"rental_uris":{"android":"levelo://app?vid=c12de7e8-a347-40e6-8797-e98d6d1cb1b5","ios":"levelo://app?vid=c12de7e8-a347-40e6-8797-e98d6d1cb1b5"},"vehicle_type_id":"4","last_reported":1703243158,"current_range_meters":31600,"station_id":"ce4bhqh2rcd13ifvqhmg","pricing_plan_id":"free"},{"bike_id":"2e898446-aad9-4717-8dfe-629937307daf","system_id":"levelo_inurba_marseille","lat":43.33608,"lon":5.41025,"is_reserved":false,"is_disabled":false,"rental_uris":{"android":"levelo://app?vid=2e898446-aad9-4717-8dfe-629937307daf","ios":"levelo://app?vid=2e898446-aad9-4717-8dfe-629937307daf"},"vehicle_type_id":"4","last_reported":1703243158,"current_range_meters":19200,"station_id":"ce4bhqh2rcd13ifvqhmg","pricing_plan_id":"free"},{"bike_id":"3a1ebf0f-c579-45ad-ab89-953ea01137e2","system_id":"levelo_inurba_marseille","lat":43.33605,"lon":5.41029,"is_reserved":false,"is_disabled":false,"rental_uris":{"android":"levelo://app?vid=3a1ebf0f-c579-45ad-ab89-953ea01137e2","ios":"levelo://app?vid=3a1ebf0f-c579-45ad-ab89-953ea01137e2"},"vehicle_type_id":"4","last_reported":1703243158,"current_range_meters":30800,"station_id":"ce4bhqh2rcd13ifvqhmg","pricing_plan_id":"free"},{"bike_id":"0ca66914-55f3-4518-9c06-d105c2276c69","system_id":"levelo_inurba_marseille","lat":43.33607,"lon":5.41031,"is_reserved":false,"is_disabled":false,"rental_uris":{"android":"levelo://app?vid=0ca66914-55f3-4518-9c06-d105c2276c69","ios":"levelo://app?vid=0ca66914-55f3-4518-9c06-d105c2276c69"},"vehicle_type_id":"4","last_reported":1703243158,"current_range_meters":14800,"station_id":"ce4bhqh2rcd13ifvqhmg","pricing_plan_id":"free"},{"bike_id":"cad6fc8b-3885-4360-aaf5-0dc53dfda6a0","system_id":"levelo_inurba_marseille","lat":43.336148,"lon":5.410349,"is_reserved":false,"is_disabled":false,"rental_uris":{"android":"levelo://app?vid=cad6fc8b-3885-4360-aaf5-0dc53dfda6a0","ios":"levelo://app?vid=cad6fc8b-3885-4360-aaf5-0dc53dfda6a0"},"vehicle_type_id":"4","last_reported":1703243158,"current_range_meters":3600,"station_id":"ce4bhqh2rcd13ifvqhmg","pricing_plan_id":"free"},{"bike_id":"5febb83e-6d13-4299-a4fb-84834c48eb00","system_id":"levelo_inurba_marseille","lat":43.279952,"lon":5.400085,"is_reserved":false,"is_disabled":false,"rental_uris":{"android":"levelo://app?vid=5febb83e-6d13-4299-a4fb-84834c48eb00","ios":"levelo://app?vid=5febb83e-6d13-4299-a4fb-84834c48eb00"},"vehicle_type_id":"4","last_reported":1703243158,"current_range_meters":23600,"station_id":"ce4bho92rcd13ifvqh4g","pricing_plan_id":"free"},{"bike_id":"3e01afc2-f1bb-4317-a981-3495e4dcb533","system_id":"levelo_inurba_marseille","lat":43.279975,"lon":5.40009,"is_reserved":false,"is_disabled":false,"rental_uris":{"android":"levelo://app?vid=3e01afc2-f1bb-4317-a981-3495e4dcb533","ios":"levelo://app?vid=3e01afc2-f1bb-4317-a981-3495e4dcb533"},"vehicle_type_id":"4","last_reported":1703243158,"current_range_meters":15200,"station_id":"ce4bho92rcd13ifvqh4g","pricing_plan_id":"free"},{"bike_id":"67c95ba1-3b1b-4724-b685-672be7a82fce","system_id":"levelo_inurba_marseille","lat":43.31718,"lon":5.423957,"is_reserved":false,"is_disabled":false,"rental_uris":{"android":"levelo://app?vid=67c95ba1-3b1b-4724-b685-672be7a82fce","ios":"levelo://app?vid=67c95ba1-3b1b-4724-b685-672be7a82fce"},"vehicle_type_id":"4","last_reported":1703243158,"current_range_meters":2000,"station_id":"ce4bhp92rcd13ifvqhbg","pricing_plan_id":"free"},{"bike_id":"6bd28996-027b-45a1-a598-6a9f9a9f724b","system_id":"levelo_inurba_marseille","lat":43.310785,"lon":5.424305,"is_reserved":false,"is_disabled":false,"rental_uris":{"android":"levelo://app?vid=6bd28996-027b-45a1-a598-6a9f9a9f724b","ios":"levelo://app?vid=6bd28996-027b-45a1-a598-6a9f9a9f724b"},"vehicle_type_id":"4","last_reported":1703243158,"current_range_meters":12800,"station_id":"ce4bhp92rcd13ifvqhag","pricing_plan_id":"free"},{"bike_id":"fbe5eec8-483f-4a83-ae4d-2d2dbded63b3","system_id":"levelo_inurba_marseille","lat":43.273129,"lon":5.390725,"is_reserved":false,"is_disabled":false,"rental_uris":{"android":"levelo://app?vid=fbe5eec8-483f-4a83-ae4d-2d2dbded63b3","ios":"levelo://app?vid=fbe5eec8-483f-4a83-ae4d-2d2dbded63b3"},"vehicle_type_id":"4","last_reported":1703243158,"current_range_meters":22000,"station_id":"ce4bhgp2rcd13ifvqfe0","pricing_plan_id":"free"},{"bike_id":"c60aeed3-cec1-42ea-a07d-3e7e8c582964","system_id":"levelo_inurba_marseille","lat":43.278128,"lon":5.407195,"is_reserved":false,"is_disabled":false,"rental_uris":{"android":"levelo://app?vid=c60aeed3-cec1-42ea-a07d-3e7e8c582964","ios":"levelo://app?vid=c60aeed3-cec1-42ea-a07d-3e7e8c582964"},"vehicle_type_id":"4","last_reported":1703243158,"current_range_meters":16400,"station_id":"ce4bhnh2rcd13ifvqgtg","pricing_plan_id":"free"},{"bike_id":"a80c78b0-54bd-4c06-a456-7ff9cb5fb92c","system_id":"levelo_inurba_marseille","lat":43.295577,"lon":5.422799,"is_reserved":false,"is_disabled":false,"rental_uris":{"android":"levelo://app?vid=a80c78b0-54bd-4c06-a456-7ff9cb5fb92c","ios":"levelo://app?vid=a80c78b0-54bd-4c06-a456-7ff9cb5fb92c"},"vehicle_type_id":"4","last_reported":1703243158,"current_range_meters":8400,"station_id":"ce4bhph2rcd13ifvqhdg","pricing_plan_id":"free"},{"bike_id":"96484c65-8dd7-4167-a438-a7d837c6b7a7","system_id":"levelo_inurba_marseille","lat":43.295523,"lon":5.422926,"is_reserved":false,"is_disabled":false,"rental_uris":{"android":"levelo://app?vid=96484c65-8dd7-4167-a438-a7d837c6b7a7","ios":"levelo://app?vid=96484c65-8dd7-4167-a438-a7d837c6b7a7"},"vehicle_type_id":"4","last_reported":1703243158,"current_range_meters":31200,"station_id":"ce4bhph2rcd13ifvqhdg","pricing_plan_id":"free"},{"bike_id":"7d800ac1-1b26-47dd-97c6-49cd89d9ab11","system_id":"levelo_inurba_marseille","lat":43.295511,"lon":5.422926,"is_reserved":false,"is_disabled":false,"rental_uris":{"android":"levelo://app?vid=7d800ac1-1b26-47dd-97c6-49cd89d9ab11","ios":"levelo://app?vid=7d800ac1-1b26-47dd-97c6-49cd89d9ab11"},"vehicle_type_id":"4","last_reported":1703243158,"current_range_meters":12000,"station_id":"ce4bhph2rcd13ifvqhdg","pricing_plan_id":"free"},{"bike_id":"23d13786-8601-4dce-a424-5d4a35dea444","system_id":"levelo_inurba_marseille","lat":43.295511,"lon":5.422926,"is_reserved":false,"is_disabled":false,"rental_uris":{"android":"levelo://app?vid=23d13786-8601-4dce-a424-5d4a35dea444","ios":"levelo://app?vid=23d13786-8601-4dce-a424-5d4a35dea444"},"vehicle_type_id":"4","last_reported":1703243158,"current_range_meters":15200,"station_id":"ce4bhph2rcd13ifvqhdg","pricing_plan_id":"free"},{"bike_id":"b55db1a0-b820-479b-9929-7610c21584c5","system_id":"levelo_inurba_marseille","lat":43.295511,"lon":5.422926,"is_reserved":false,"is_disabled":false,"rental_uris":{"android":"levelo://app?vid=b55db1a0-b820-479b-9929-7610c21584c5","ios":"levelo://app?vid=b55db1a0-b820-479b-9929-7610c21584c5"},"vehicle_type_id":"4","last_reported":1703243158,"current_range_meters":25600,"station_id":"ce4bhph2rcd13ifvqhdg","pricing_plan_id":"free"},{"bike_id":"6e9445d3-db63-46ae-9da6-5a3806d301ab","system_id":"levelo_inurba_marseille","lat":43.272118,"lon":5.391758,"is_reserved":false,"is_disabled":false,"rental_uris":{"android":"levelo://app?vid=6e9445d3-db63-46ae-9da6-5a3806d301ab","ios":"levelo://app?vid=6e9445d3-db63-46ae-9da6-5a3806d301ab"},"vehicle_type_id":"4","last_reported":1703243158,"current_range_meters":28800,"station_id":"ce4bhhp2rcd13ifvqfm0","pricing_plan_id":"free"},{"bike_id":"d3cea1e8-7f39-4fcc-ad32-91ac9a408d93","system_id":"levelo_inurba_marseille","lat":43.295511,"lon":5.422926,"is_reserved":false,"is_disabled":false,"rental_uris":{"android":"levelo://app?vid=d3cea1e8-7f39-4fcc-ad32-91ac9a408d93","ios":"levelo://app?vid=d3cea1e8-7f39-4fcc-ad32-91ac9a408d93"},"vehicle_type_id":"4","last_reported":1703243158,"current_range_meters":19200,"station_id":"ce4bhph2rcd13ifvqhdg","pricing_plan_id":"free"},{"bike_id":"d820745b-11cc-4252-975f-466bcba5a204","system_id":"levelo_inurba_marseille","lat":43.278128,"lon":5.407195,"is_reserved":false,"is_disabled":false,"rental_uris":{"android":"levelo://app?vid=d820745b-11cc-4252-975f-466bcba5a204","ios":"levelo://app?vid=d820745b-11cc-4252-975f-466bcba5a204"},"vehicle_type_id":"4","last_reported":1703243158,"current_range_meters":20400,"station_id":"ce4bhnh2rcd13ifvqgtg","pricing_plan_id":"free"},{"bike_id":"2385a3dc-ecc5-4c8e-b554-c8e4b25ef268","system_id":"levelo_inurba_marseille","lat":43.278128,"lon":5.407195,"is_reserved":false,"is_disabled":false,"rental_uris":{"android":"levelo://app?vid=2385a3dc-ecc5-4c8e-b554-c8e4b25ef268","ios":"levelo://app?vid=2385a3dc-ecc5-4c8e-b554-c8e4b25ef268"},"vehicle_type_id":"4","last_reported":1703243158,"current_range_meters":22400,"station_id":"ce4bhnh2rcd13ifvqgtg","pricing_plan_id":"free"},{"bike_id":"8118aac1-61df-48ac-a463-314a0b0328c4","system_id":"levelo_inurba_marseille","lat":43.278128,"lon":5.407195,"is_reserved":false,"is_disabled":false,"rental_uris":{"android":"levelo://app?vid=8118aac1-61df-48ac-a463-314a0b0328c4","ios":"levelo://app?vid=8118aac1-61df-48ac-a463-314a0b0328c4"},"vehicle_type_id":"4","last_reported":1703243158,"current_range_meters":9200,"station_id":"ce4bhnh2rcd13ifvqgtg","pricing_plan_id":"free"},{"bike_id":"a39aa9bc-9cb1-453b-ba34-c7f4c7e971f5","system_id":"levelo_inurba_marseille","lat":43.269554,"lon":5.38629,"is_reserved":false,"is_disabled":false,"rental_uris":{"android":"levelo://app?vid=a39aa9bc-9cb1-453b-ba34-c7f4c7e971f5","ios":"levelo://app?vid=a39aa9bc-9cb1-453b-ba34-c7f4c7e971f5"},"vehicle_type_id":"4","last_reported":1703243158,"current_range_meters":4000,"station_id":"ce4bhh92rcd13ifvqfh0","pricing_plan_id":"free"},{"bike_id":"6b3fe9ee-f6e2-452d-9d89-057b2cb3f257","system_id":"levelo_inurba_marseille","lat":43.26955,"lon":5.38638,"is_reserved":false,"is_disabled":false,"rental_uris":{"android":"levelo://app?vid=6b3fe9ee-f6e2-452d-9d89-057b2cb3f257","ios":"levelo://app?vid=6b3fe9ee-f6e2-452d-9d89-057b2cb3f257"},"vehicle_type_id":"4","last_reported":1703243158,"current_range_meters":13600,"station_id":"ce4bhh92rcd13ifvqfh0","pricing_plan_id":"free"},{"bike_id":"1c4f5285-fbaa-47fe-8c73-5cb43dec0ac9","system_id":"levelo_inurba_marseille","lat":43.269467,"lon":5.386439,"is_reserved":false,"is_disabled":false,"rental_uris":{"android":"levelo://app?vid=1c4f5285-fbaa-47fe-8c73-5cb43dec0ac9","ios":"levelo://app?vid=1c4f5285-fbaa-47fe-8c73-5cb43dec0ac9"},"vehicle_type_id":"4","last_reported":1703243158,"current_range_meters":22800,"station_id":"ce4bhh92rcd13ifvqfh0","pricing_plan_id":"free"},{"bike_id":"cfb16628-f723-4196-944a-2b33891f61a0","system_id":"levelo_inurba_marseille","lat":43.269467,"lon":5.386439,"is_reserved":false,"is_disabled":false,"rental_uris":{"android":"levelo://app?vid=cfb16628-f723-4196-944a-2b33891f61a0","ios":"levelo://app?vid=cfb16628-f723-4196-944a-2b33891f61a0"},"vehicle_type_id":"4","last_reported":1703243158,"current_range_meters":26000,"station_id":"ce4bhh92rcd13ifvqfh0","pricing_plan_id":"free"},{"bike_id":"017014cf-56d4-4de7-8952-68a5738436e6","system_id":"levelo_inurba_marseille","lat":43.26949,"lon":5.3864,"is_reserved":false,"is_disabled":false,"rental_uris":{"android":"levelo://app?vid=017014cf-56d4-4de7-8952-68a5738436e6","ios":"levelo://app?vid=017014cf-56d4-4de7-8952-68a5738436e6"},"vehicle_type_id":"4","last_reported":1703243158,"current_range_meters":26400,"station_id":"ce4bhh92rcd13ifvqfh0","pricing_plan_id":"free"},{"bike_id":"61550aad-2bdf-4d69-a4fa-2735b97e3ff1","system_id":"levelo_inurba_marseille","lat":43.269467,"lon":5.386439,"is_reserved":false,"is_disabled":false,"rental_uris":{"android":"levelo://app?vid=61550aad-2bdf-4d69-a4fa-2735b97e3ff1","ios":"levelo://app?vid=61550aad-2bdf-4d69-a4fa-2735b97e3ff1"},"vehicle_type_id":"4","last_reported":1703243158,"current_range_meters":31600,"station_id":"ce4bhh92rcd13ifvqfh0","pricing_plan_id":"free"},{"bike_id":"6a973ce5-26cf-452d-917e-863f93232546","system_id":"levelo_inurba_marseille","lat":43.279465,"lon":5.410561,"is_reserved":false,"is_disabled":false,"rental_uris":{"android":"levelo://app?vid=6a973ce5-26cf-452d-917e-863f93232546","ios":"levelo://app?vid=6a973ce5-26cf-452d-917e-863f93232546"},"vehicle_type_id":"4","last_reported":1703243158,"current_range_meters":26400,"station_id":"ce4bhnp2rcd13ifvqh0g","pricing_plan_id":"free"},{"bike_id":"00885d9b-fc27-4e04-b8db-051a1501a347","system_id":"levelo_inurba_marseille","lat":43.269319,"lon":5.389397,"is_reserved":false,"is_disabled":false,"rental_uris":{"android":"levelo://app?vid=00885d9b-fc27-4e04-b8db-051a1501a347","ios":"levelo://app?vid=00885d9b-fc27-4e04-b8db-051a1501a347"},"vehicle_type_id":"4","last_reported":1703243158,"current_range_meters":20000,"station_id":"ce4bhhh2rcd13ifvqfl0","pricing_plan_id":"free"},{"bike_id":"c9e5ec7a-720b-4445-83d0-19583367f177","system_id":"levelo_inurba_marseille","lat":43.269319,"lon":5.389397,"is_reserved":false,"is_disabled":false,"rental_uris":{"android":"levelo://app?vid=c9e5ec7a-720b-4445-83d0-19583367f177","ios":"levelo://app?vid=c9e5ec7a-720b-4445-83d0-19583367f177"},"vehicle_type_id":"4","last_reported":1703243158,"current_range_meters":27600,"station_id":"ce4bhhh2rcd13ifvqfl0","pricing_plan_id":"free"},{"bike_id":"7fc51c9f-a329-4a91-9c7e-e28f7f158fba","system_id":"levelo_inurba_marseille","lat":43.26681,"lon":5.382694,"is_reserved":false,"is_disabled":false,"rental_uris":{"android":"levelo://app?vid=7fc51c9f-a329-4a91-9c7e-e28f7f158fba","ios":"levelo://app?vid=7fc51c9f-a329-4a91-9c7e-e28f7f158fba"},"vehicle_type_id":"4","last_reported":1703243158,"current_range_meters":31600,"station_id":"ce4bhg92rcd13ifvqf90","pricing_plan_id":"free"},{"bike_id":"eab00aa0-8a0c-4319-9016-578c3045e6bf","system_id":"levelo_inurba_marseille","lat":43.26681,"lon":5.382694,"is_reserved":false,"is_disabled":false,"rental_uris":{"android":"levelo://app?vid=eab00aa0-8a0c-4319-9016-578c3045e6bf","ios":"levelo://app?vid=eab00aa0-8a0c-4319-9016-578c3045e6bf"},"vehicle_type_id":"4","last_reported":1703243158,"current_range_meters":26800,"station_id":"ce4bhg92rcd13ifvqf90","pricing_plan_id":"free"},{"bike_id":"fe70d8ba-da37-4354-a6cb-4f9d1fa8fb72","system_id":"levelo_inurba_marseille","lat":43.26681,"lon":5.382694,"is_reserved":false,"is_disabled":false,"rental_uris":{"android":"levelo://app?vid=fe70d8ba-da37-4354-a6cb-4f9d1fa8fb72","ios":"levelo://app?vid=fe70d8ba-da37-4354-a6cb-4f9d1fa8fb72"},"vehicle_type_id":"4","last_reported":1703243158,"current_range_meters":16800,"station_id":"ce4bhg92rcd13ifvqf90","pricing_plan_id":"free"},{"bike_id":"01057494-187c-47ca-8caf-5cb775cfdde9","system_id":"levelo_inurba_marseille","lat":43.265714,"lon":5.372891,"is_reserved":false,"is_disabled":false,"rental_uris":{"android":"levelo://app?vid=01057494-187c-47ca-8caf-5cb775cfdde9","ios":"levelo://app?vid=01057494-187c-47ca-8caf-5cb775cfdde9"},"vehicle_type_id":"4","last_reported":1703243158,"current_range_meters":9200,"station_id":"ce4bhg12rcd13ifvqf70","pricing_plan_id":"free"},{"bike_id":"eb9c0446-e6aa-43d9-91be-89942caa57b1","system_id":"levelo_inurba_marseille","lat":43.261782,"lon":5.374515,"is_reserved":false,"is_disabled":false,"rental_uris":{"android":"levelo://app?vid=eb9c0446-e6aa-43d9-91be-89942caa57b1","ios":"levelo://app?vid=eb9c0446-e6aa-43d9-91be-89942caa57b1"},"vehicle_type_id":"4","last_reported":1703243158,"current_range_meters":0,"station_id":"ce4bhgp2rcd13ifvqfc0","pricing_plan_id":"free"},{"bike_id":"9b4e972d-5c26-4b52-b461-6bf7edd180d3","system_id":"levelo_inurba_marseille","lat":43.31699,"lon":5.43698,"is_reserved":false,"is_disabled":false,"rental_uris":{"android":"levelo://app?vid=9b4e972d-5c26-4b52-b461-6bf7edd180d3","ios":"levelo://app?vid=9b4e972d-5c26-4b52-b461-6bf7edd180d3"},"vehicle_type_id":"4","last_reported":1703243158,"current_range_meters":16800,"station_id":"ce4bhp92rcd13ifvqhcg","pricing_plan_id":"free"},{"bike_id":"0b0c5e19-ce78-44c0-a9b5-3a785bc8569f","system_id":"levelo_inurba_marseille","lat":43.261782,"lon":5.374515,"is_reserved":false,"is_disabled":false,"rental_uris":{"android":"levelo://app?vid=0b0c5e19-ce78-44c0-a9b5-3a785bc8569f","ios":"levelo://app?vid=0b0c5e19-ce78-44c0-a9b5-3a785bc8569f"},"vehicle_type_id":"4","last_reported":1703243158,"current_range_meters":30000,"station_id":"ce4bhgp2rcd13ifvqfc0","pricing_plan_id":"free"},{"bike_id":"2e62984b-8771-47f8-8e36-d6a6f38059c0","system_id":"levelo_inurba_marseille","lat":43.31708,"lon":5.43706,"is_reserved":false,"is_disabled":false,"rental_uris":{"android":"levelo://app?vid=2e62984b-8771-47f8-8e36-d6a6f38059c0","ios":"levelo://app?vid=2e62984b-8771-47f8-8e36-d6a6f38059c0"},"vehicle_type_id":"4","last_reported":1703243158,"current_range_meters":28000,"station_id":"ce4bhp92rcd13ifvqhcg","pricing_plan_id":"free"},{"bike_id":"2d6427c7-a10a-4b24-b0a5-95d867c65295","system_id":"levelo_inurba_marseille","lat":43.31709,"lon":5.4371,"is_reserved":false,"is_disabled":false,"rental_uris":{"android":"levelo://app?vid=2d6427c7-a10a-4b24-b0a5-95d867c65295","ios":"levelo://app?vid=2d6427c7-a10a-4b24-b0a5-95d867c65295"},"vehicle_type_id":"4","last_reported":1703243158,"current_range_meters":22000,"station_id":"ce4bhp92rcd13ifvqhcg","pricing_plan_id":"free"},{"bike_id":"162736bc-70e4-43e7-b482-dc5b7a8622b1","system_id":"levelo_inurba_marseille","lat":43.267959,"lon":5.402685,"is_reserved":false,"is_disabled":false,"rental_uris":{"android":"levelo://app?vid=162736bc-70e4-43e7-b482-dc5b7a8622b1","ios":"levelo://app?vid=162736bc-70e4-43e7-b482-dc5b7a8622b1"},"vehicle_type_id":"4","last_reported":1703243158,"current_range_meters":12400,"station_id":"ce501612rcd8frsf0b60","pricing_plan_id":"free"},{"bike_id":"b2902b78-67e3-446b-b19e-efaf3baa33fc","system_id":"levelo_inurba_marseille","lat":43.2651,"lon":5.39469,"is_reserved":false,"is_disabled":false,"rental_uris":{"android":"levelo://app?vid=b2902b78-67e3-446b-b19e-efaf3baa33fc","ios":"levelo://app?vid=b2902b78-67e3-446b-b19e-efaf3baa33fc"},"vehicle_type_id":"4","last_reported":1703243158,"current_range_meters":5200,"station_id":"ce4bhi12rcd13ifvqfq0","pricing_plan_id":"free"},{"bike_id":"9bc11cf7-d766-47fb-a2ac-1ffa731b216c","system_id":"levelo_inurba_marseille","lat":43.298768,"lon":5.43643,"is_reserved":false,"is_disabled":false,"rental_uris":{"android":"levelo://app?vid=9bc11cf7-d766-47fb-a2ac-1ffa731b216c","ios":"levelo://app?vid=9bc11cf7-d766-47fb-a2ac-1ffa731b216c"},"vehicle_type_id":"4","last_reported":1703243158,"current_range_meters":31200,"station_id":"ce4bhpp2rcd13ifvqhfg","pricing_plan_id":"free"},{"bike_id":"a77a79e0-6a87-475e-8039-aa1f720361ec","system_id":"levelo_inurba_marseille","lat":43.260225,"lon":5.375455,"is_reserved":false,"is_disabled":false,"rental_uris":{"android":"levelo://app?vid=a77a79e0-6a87-475e-8039-aa1f720361ec","ios":"levelo://app?vid=a77a79e0-6a87-475e-8039-aa1f720361ec"},"vehicle_type_id":"4","last_reported":1703243158,"current_range_meters":16000,"station_id":"ce4bhgh2rcd13ifvqfa0","pricing_plan_id":"free"},{"bike_id":"c796b5d7-766b-424d-9fd5-91fbb45ac79a","system_id":"levelo_inurba_marseille","lat":43.281548,"lon":5.42643,"is_reserved":false,"is_disabled":false,"rental_uris":{"android":"levelo://app?vid=c796b5d7-766b-424d-9fd5-91fbb45ac79a","ios":"levelo://app?vid=c796b5d7-766b-424d-9fd5-91fbb45ac79a"},"vehicle_type_id":"4","last_reported":1703243158,"current_range_meters":24400,"station_id":"ce4bhnh2rcd13ifvqgug","pricing_plan_id":"free"},{"bike_id":"487e06aa-6766-4d05-a28b-05b21604896c","system_id":"levelo_inurba_marseille","lat":43.281548,"lon":5.42643,"is_reserved":false,"is_disabled":false,"rental_uris":{"android":"levelo://app?vid=487e06aa-6766-4d05-a28b-05b21604896c","ios":"levelo://app?vid=487e06aa-6766-4d05-a28b-05b21604896c"},"vehicle_type_id":"4","last_reported":1703243158,"current_range_meters":31200,"station_id":"ce4bhnh2rcd13ifvqgug","pricing_plan_id":"free"},{"bike_id":"492bb9b6-c2c4-427f-b891-d9c5edecff06","system_id":"levelo_inurba_marseille","lat":43.281548,"lon":5.42643,"is_reserved":false,"is_disabled":false,"rental_uris":{"android":"levelo://app?vid=492bb9b6-c2c4-427f-b891-d9c5edecff06","ios":"levelo://app?vid=492bb9b6-c2c4-427f-b891-d9c5edecff06"},"vehicle_type_id":"4","last_reported":1703243158,"current_range_meters":25200,"station_id":"ce4bhnh2rcd13ifvqgug","pricing_plan_id":"free"},{"bike_id":"d92de13b-4182-4332-b67f-e1bb4b612478","system_id":"levelo_inurba_marseille","lat":43.281548,"lon":5.42643,"is_reserved":false,"is_disabled":false,"rental_uris":{"android":"levelo://app?vid=d92de13b-4182-4332-b67f-e1bb4b612478","ios":"levelo://app?vid=d92de13b-4182-4332-b67f-e1bb4b612478"},"vehicle_type_id":"4","last_reported":1703243158,"current_range_meters":26800,"station_id":"ce4bhnh2rcd13ifvqgug","pricing_plan_id":"free"},{"bike_id":"68b66d54-6777-4a5e-9f90-4f5598e74a22","system_id":"levelo_inurba_marseille","lat":43.2607,"lon":5.393983,"is_reserved":false,"is_disabled":false,"rental_uris":{"android":"levelo://app?vid=68b66d54-6777-4a5e-9f90-4f5598e74a22","ios":"levelo://app?vid=68b66d54-6777-4a5e-9f90-4f5598e74a22"},"vehicle_type_id":"4","last_reported":1703243158,"current_range_meters":6000,"station_id":"ce4bhh92rcd13ifvqfj0","pricing_plan_id":"free"},{"bike_id":"856ab754-4ad3-4e07-a9f6-9168b0332d38","system_id":"levelo_inurba_marseille","lat":43.275028,"lon":5.424534,"is_reserved":false,"is_disabled":false,"rental_uris":{"android":"levelo://app?vid=856ab754-4ad3-4e07-a9f6-9168b0332d38","ios":"levelo://app?vid=856ab754-4ad3-4e07-a9f6-9168b0332d38"},"vehicle_type_id":"4","last_reported":1703243158,"current_range_meters":18000,"station_id":"ce4bhn92rcd13ifvqgrg","pricing_plan_id":"free"},{"bike_id":"7977189a-5e27-4e84-99e4-b8bfdea28baa","system_id":"levelo_inurba_marseille","lat":43.275028,"lon":5.424534,"is_reserved":false,"is_disabled":false,"rental_uris":{"android":"levelo://app?vid=7977189a-5e27-4e84-99e4-b8bfdea28baa","ios":"levelo://app?vid=7977189a-5e27-4e84-99e4-b8bfdea28baa"},"vehicle_type_id":"4","last_reported":1703243158,"current_range_meters":20400,"station_id":"ce4bhn92rcd13ifvqgrg","pricing_plan_id":"free"},{"bike_id":"52ad170f-397e-49b7-ac1e-c25901733480","system_id":"levelo_inurba_marseille","lat":43.275028,"lon":5.424534,"is_reserved":false,"is_disabled":false,"rental_uris":{"android":"levelo://app?vid=52ad170f-397e-49b7-ac1e-c25901733480","ios":"levelo://app?vid=52ad170f-397e-49b7-ac1e-c25901733480"},"vehicle_type_id":"4","last_reported":1703243158,"current_range_meters":30400,"station_id":"ce4bhn92rcd13ifvqgrg","pricing_plan_id":"free"},{"bike_id":"ef63130b-d627-4831-920c-8bdc8d3c572e","system_id":"levelo_inurba_marseille","lat":43.27492,"lon":5.42455,"is_reserved":false,"is_disabled":false,"rental_uris":{"android":"levelo://app?vid=ef63130b-d627-4831-920c-8bdc8d3c572e","ios":"levelo://app?vid=ef63130b-d627-4831-920c-8bdc8d3c572e"},"vehicle_type_id":"4","last_reported":1703243158,"current_range_meters":2400,"station_id":"ce4bhn92rcd13ifvqgrg","pricing_plan_id":"free"},{"bike_id":"166486e9-d056-40e4-8296-9e98a9573399","system_id":"levelo_inurba_marseille","lat":43.27491,"lon":5.42455,"is_reserved":false,"is_disabled":false,"rental_uris":{"android":"levelo://app?vid=166486e9-d056-40e4-8296-9e98a9573399","ios":"levelo://app?vid=166486e9-d056-40e4-8296-9e98a9573399"},"vehicle_type_id":"4","last_reported":1703243158,"current_range_meters":25200,"station_id":"ce4bhn92rcd13ifvqgrg","pricing_plan_id":"free"},{"bike_id":"62058947-b0f9-4cf4-8bce-43dd4393835a","system_id":"levelo_inurba_marseille","lat":43.27493,"lon":5.42459,"is_reserved":false,"is_disabled":false,"rental_uris":{"android":"levelo://app?vid=62058947-b0f9-4cf4-8bce-43dd4393835a","ios":"levelo://app?vid=62058947-b0f9-4cf4-8bce-43dd4393835a"},"vehicle_type_id":"4","last_reported":1703243158,"current_range_meters":24400,"station_id":"ce4bhn92rcd13ifvqgrg","pricing_plan_id":"free"},{"bike_id":"bb02ad74-a54b-4d7f-b1d0-ec6c73c504bd","system_id":"levelo_inurba_marseille","lat":43.27489,"lon":5.42455,"is_reserved":false,"is_disabled":false,"rental_uris":{"android":"levelo://app?vid=bb02ad74-a54b-4d7f-b1d0-ec6c73c504bd","ios":"levelo://app?vid=bb02ad74-a54b-4d7f-b1d0-ec6c73c504bd"},"vehicle_type_id":"4","last_reported":1703243158,"current_range_meters":12000,"station_id":"ce4bhn92rcd13ifvqgrg","pricing_plan_id":"free"},{"bike_id":"e234f860-ae58-4f17-bae8-44ee1f6e051b","system_id":"levelo_inurba_marseille","lat":43.2749,"lon":5.42458,"is_reserved":false,"is_disabled":false,"rental_uris":{"android":"levelo://app?vid=e234f860-ae58-4f17-bae8-44ee1f6e051b","ios":"levelo://app?vid=e234f860-ae58-4f17-bae8-44ee1f6e051b"},"vehicle_type_id":"4","last_reported":1703243158,"current_range_meters":16800,"station_id":"ce4bhn92rcd13ifvqgrg","pricing_plan_id":"free"},{"bike_id":"b71ee458-b448-4d2b-a10e-558a759fb616","system_id":"levelo_inurba_marseille","lat":43.254947,"lon":5.376454,"is_reserved":false,"is_disabled":false,"rental_uris":{"android":"levelo://app?vid=b71ee458-b448-4d2b-a10e-558a759fb616","ios":"levelo://app?vid=b71ee458-b448-4d2b-a10e-558a759fb616"},"vehicle_type_id":"4","last_reported":1703243158,"current_range_meters":20000,"station_id":"ce4bhh12rcd13ifvqff0","pricing_plan_id":"free"},{"bike_id":"5036b4fe-260e-4a6d-a8cf-00f6f6e8bea6","system_id":"levelo_inurba_marseille","lat":43.254947,"lon":5.376454,"is_reserved":false,"is_disabled":false,"rental_uris":{"android":"levelo://app?vid=5036b4fe-260e-4a6d-a8cf-00f6f6e8bea6","ios":"levelo://app?vid=5036b4fe-260e-4a6d-a8cf-00f6f6e8bea6"},"vehicle_type_id":"4","last_reported":1703243158,"current_range_meters":6800,"station_id":"ce4bhh12rcd13ifvqff0","pricing_plan_id":"free"},{"bike_id":"5770eef7-077e-4f46-a61c-2f279c9441a2","system_id":"levelo_inurba_marseille","lat":43.258658,"lon":5.398935,"is_reserved":false,"is_disabled":false,"rental_uris":{"android":"levelo://app?vid=5770eef7-077e-4f46-a61c-2f279c9441a2","ios":"levelo://app?vid=5770eef7-077e-4f46-a61c-2f279c9441a2"},"vehicle_type_id":"4","last_reported":1703243158,"current_range_meters":11600,"station_id":"ce4bhl92rcd13ifvqghg","pricing_plan_id":"free"},{"bike_id":"85287cf7-d859-4f53-ad3f-806f65aa9e86","system_id":"levelo_inurba_marseille","lat":43.259009,"lon":5.40929,"is_reserved":false,"is_disabled":false,"rental_uris":{"android":"levelo://app?vid=85287cf7-d859-4f53-ad3f-806f65aa9e86","ios":"levelo://app?vid=85287cf7-d859-4f53-ad3f-806f65aa9e86"},"vehicle_type_id":"4","last_reported":1703243158,"current_range_meters":800,"station_id":"ce4bhm92rcd13ifvqglg","pricing_plan_id":"free"},