{"last_updated":1746990431,"ttl":60,"version":"2.2","data":{"bikes":[{"bike_id":"c0b9fd4f-e181-46ce-b0bf-f5119973334f","system_id":"levelo_inurba_marseille","lat":43.33771,"lon":5.37424,"is_reserved":false,"is_disabled":false,"rental_uris":{"android":"levelo://app?vid=c0b9fd4f-e181-46ce-b0bf-f5119973334f","ios":"levelo://app?vid=c0b9fd4f-e181-46ce-b0bf-f5119973334f"},"vehicle_type_id":"4","last_reported":1746990431,"current_range_meters":31200,"station_id":"","pricing_plan_id":"cebpf4jnsgd1na2vs0mg"},{"bike_id":"5fc4526c-fc83-4aa6-844f-8f197b25232d","system_id":"levelo_inurba_marseille","lat":43.31968,"lon":5.39014,"is_reserved":false,"is_disabled":true,"rental_uris":{"android":"levelo://app?vid=5fc4526c-fc83-4aa6-844f-8f197b25232d","ios":"levelo://app?vid=5fc4526c-fc83-4aa6-844f-8f197b25232d"},"vehicle_type_id":"4","last_reported":1746990431,"current_range_meters":0,"station_id":"","pricing_plan_id":"cebpf4jnsgd1na2vs0mg"},{"bike_id":"ad17c5b4-973a-4cb5-ad8c-32068ccae9d2","system_id":"levelo_inurba_marseille","lat":43.28955,"lon":5.43235,"is_reserved":false,"is_disabled":true,"rental_uris":{"android":"levelo://app?vid=ad17c5b4-973a-4cb5-ad8c-32068ccae9d2","ios":"levelo://app?vid=ad17c5b4-973a-4cb5-ad8c-32068ccae9d2"},"vehicle_type_id":"4","last_reported":1746990431,"current_range_meters":0,"station_id":"","pricing_plan_id":"cebpf4jnsgd1na2vs0mg"},{"bike_id":"a72028ca-425b-4f2c-9e2d-16be28a01f65","system_id":"levelo_inurba_marseille","lat":43.26057,"lon":5.41713,"is_reserved":false,"is_disabled":true,"rental_uris":{"android":"levelo://app?vid=a72028ca-425b-4f2c-9e2d-16be28a01f65","ios":"levelo://app?vid=a72028ca-425b-4f2c-9e2d-16be28a01f65"},"vehicle_type_id":"4","last_reported":1746990431,"current_range_meters":0,"station_id":"","pricing_plan_id":"cebpf4jnsgd1na2vs0mg"},{"bike_id":"e43d995b-a136-4201-b650-ca62eacfe18a","system_id":"levelo_inurba_marseille","lat":43.27135,"lon":5.36371,"is_reserved":false,"is_disabled":true,"rental_uris":{"android":"levelo://app?vid=e43d995b-a136-4201-b650-ca62eacfe18a","ios":"levelo://app?vid=e43d995b-a136-4201-b650-ca62eacfe18a"},"vehicle_type_id":"4","last_reported":1746990431,"current_range_meters":0,"station_id":"","pricing_plan_id":"cebpf4jnsgd1na2vs0mg"},{"bike_id":"689d1ebc-80c1-4c8c-9647-6e072db7ae2b","system_id":"levelo_inurba_marseille","lat":43.26851,"lon":5.37039,"is_reserved":false,"is_disabled":true,"rental_uris":{"android":"levelo://app?vid=689d1ebc-80c1-4c8c-9647-6e072db7ae2b","ios":"levelo://app?vid=689d1ebc-80c1-4c8c-9647-6e072db7ae2b"},"vehicle_type_id":"4","last_reported":1746990431,"current_range_meters":0,"station_id":"","pricing_plan_id":"cebpf4jnsgd1na2vs0mg"},{"bike_id":"2d46911a-8d75-4d63-9057-acbaafb11eea","system_id":"levelo_inurba_marseille","lat":43.267426,"lon":5.372078,"is_reserved":false,"is_disabled":true,"rental_uris":{"android":"levelo://app?vid=2d46911a-8d75-4d63-9057-acbaafb11eea","ios":"levelo://app?vid=2d46911a-8d75-4d63-9057-acbaafb11eea"},"vehicle_type_id":"4","last_reported":1746990431,"current_range_meters":0,"station_id":"","pricing_plan_id":"cebpf4jnsgd1na2vs0mg"},{"bike_id":"7beb7a99-45ac-4595-9741-fd2086f6daf7","system_id":"levelo_inurba_marseille","lat":43.27376,"lon":5.36262,"is_reserved":false,"is_disabled":true,"rental_uris":{"android":"levelo://app?vid=7beb7a99-45ac-4595-9741-fd2086f6daf7","ios":"levelo://app?vid=7beb7a99-45ac-4595-9741-fd2086f6daf7"},"vehicle_type_id":"4","last_reported":1746990431,"current_range_meters":0,"station_id":"ce4bhbh2rcd13ifvqeo0","pricing_plan_id":"cebpf4jnsgd1na2vs0mg"},{"bike_id":"c6986c30-1bc4-4626-a172-2a189e7b4856","system_id":"levelo_inurba_marseille","lat":43.26563,"lon":5.37296,"is_reserved":false,"is_disabled":true,"rental_uris":{"android":"levelo://app?vid=c6986c30-1bc4-4626-a172-2a189e7b4856","ios":"levelo://app?vid=c6986c30-1bc4-4626-a172-2a189e7b4856"},"vehicle_type_id":"4","last_reported":1746990431,"current_range_meters":0,"station_id":"ce4bhg12rcd13ifvqf70","pricing_plan_id":"cebpf4jnsgd1na2vs0mg"},{"bike_id":"90103bc6-996c-4a2b-b01c-7e513ad36ddc","system_id":"levelo_inurba_marseille","lat":43.26211,"lon":5.374376,"is_reserved":false,"is_disabled":true,"rental_uris":{"android":"levelo://app?vid=90103bc6-996c-4a2b-b01c-7e513ad36ddc","ios":"levelo://app?vid=90103bc6-996c-4a2b-b01c-7e513ad36ddc"},"vehicle_type_id":"4","last_reported":1746990431,"current_range_meters":0,"station_id":"ce4bhgp2rcd13ifvqfc0","pricing_plan_id":"cebpf4jnsgd1na2vs0mg"},{"bike_id":"2e552dd3-0f34-4ae9-b5b2-1cc570e7e30a","system_id":"levelo_inurba_marseille","lat":43.26211,"lon":5.37444,"is_reserved":false,"is_disabled":true,"rental_uris":{"android":"levelo://app?vid=2e552dd3-0f34-4ae9-b5b2-1cc570e7e30a","ios":"levelo://app?vid=2e552dd3-0f34-4ae9-b5b2-1cc570e7e30a"},"vehicle_type_id":"4","last_reported":1746990431,"current_range_meters":0,"station_id":"ce4bhgp2rcd13ifvqfc0","pricing_plan_id":"cebpf4jnsgd1na2vs0mg"},{"bike_id":"229001d2-7627-43e0-aeea-2d75580fd339","system_id":"levelo_inurba_marseille","lat":43.2826,"lon":5.43272,"is_reserved":false,"is_disabled":true,"rental_uris":{"android":"levelo://app?vid=229001d2-7627-43e0-aeea-2d75580fd339","ios":"levelo://app?vid=229001d2-7627-43e0-aeea-2d75580fd339"},"vehicle_type_id":"4","last_reported":1746990431,"current_range_meters":400,"station_id":"","pricing_plan_id":"cebpf4jnsgd1na2vs0mg"},{"bike_id":"a150d91f-c10b-4481-869a-5cd77039df9b","system_id":"levelo_inurba_marseille","lat":43.27213,"lon":5.39179,"is_reserved":false,"is_disabled":true,"rental_uris":{"android":"levelo://app?vid=a150d91f-c10b-4481-869a-5cd77039df9b","ios":"levelo://app?vid=a150d91f-c10b-4481-869a-5cd77039df9b"},"vehicle_type_id":"4","last_reported":1746990431,"current_range_meters":800,"station_id":"ce4bhhp2rcd13ifvqfm0","pricing_plan_id":"cebpf4jnsgd1na2vs0mg"},{"bike_id":"a52793c7-1310-40a4-9185-38788c0e2a73","system_id":"levelo_inurba_marseille","lat":43.28673,"lon":5.38673,"is_reserved":false,"is_disabled":true,"rental_uris":{"android":"levelo://app?vid=a52793c7-1310-40a4-9185-38788c0e2a73","ios":"levelo://app?vid=a52793c7-1310-40a4-9185-38788c0e2a73"},"vehicle_type_id":"4","last_reported":1746990431,"current_range_meters":1200,"station_id":"ce4bh492rcd13ifvqdug","pricing_plan_id":"cebpf4jnsgd1na2vs0mg"},{"bike_id":"1fb8c868-f2e2-4d1d-936d-ccc6bfabf9f2","system_id":"levelo_inurba_marseille","lat":43.310645,"lon":5.383325,"is_reserved":false,"is_disabled":true,"rental_uris":{"android":"levelo://app?vid=1fb8c868-f2e2-4d1d-936d-ccc6bfabf9f2","ios":"levelo://app?vid=1fb8c868-f2e2-4d1d-936d-ccc6bfabf9f2"},"vehicle_type_id":"4","last_reported":1746990431,"current_range_meters":1600,"station_id":"ce4bgv92rcd13ifvqcr0","pricing_plan_id":"cebpf4jnsgd1na2vs0mg"},{"bike_id":"10002e9d-0323-447f-84d3-5bcd69d55b86","system_id":"levelo_inurba_marseille","lat":43.28032,"lon":5.36949,"is_reserved":false,"is_disabled":true,"rental_uris":{"android":"levelo://app?vid=10002e9d-0323-447f-84d3-5bcd69d55b86","ios":"levelo://app?vid=10002e9d-0323-447f-84d3-5bcd69d55b86"},"vehicle_type_id":"4","last_reported":1746990431,"current_range_meters":1600,"station_id":"ce4bha12rcd13ifvqef0","pricing_plan_id":"cebpf4jnsgd1na2vs0mg"},{"bike_id":"9452505f-01b8-4367-bd7d-95c55b501b8b","system_id":"levelo_inurba_marseille","lat":43.27494,"lon":5.42448,"is_reserved":false,"is_disabled":true,"rental_uris":{"android":"levelo://app?vid=9452505f-01b8-4367-bd7d-95c55b501b8b","ios":"levelo://app?vid=9452505f-01b8-4367-bd7d-95c55b501b8b"},"vehicle_type_id":"4","last_reported":1746990431,"current_range_meters":1600,"station_id":"ce4bhn92rcd13ifvqgrg","pricing_plan_id":"cebpf4jnsgd1na2vs0mg"},{"bike_id":"78cd9a3a-9e6b-483b-a91d-29a54444f211","system_id":"levelo_inurba_marseille","lat":43.27828,"lon":5.40707,"is_reserved":false,"is_disabled":true,"rental_uris":{"android":"levelo://app?vid=78cd9a3a-9e6b-483b-a91d-29a54444f211","ios":"levelo://app?vid=78cd9a3a-9e6b-483b-a91d-29a54444f211"},"vehicle_type_id":"4","last_reported":1746990431,"current_range_meters":1600,"station_id":"ce4bhnh2rcd13ifvqgtg","pricing_plan_id":"cebpf4jnsgd1na2vs0mg"},{"bike_id":"a2c63fe2-1a4c-4119-974b-15d485603b06","system_id":"levelo_inurba_marseille","lat":43.28128,"lon":5.3688,"is_reserved":false,"is_disabled":true,"rental_uris":{"android":"levelo://app?vid=a2c63fe2-1a4c-4119-974b-15d485603b06","ios":"levelo://app?vid=a2c63fe2-1a4c-4119-974b-15d485603b06"},"vehicle_type_id":"4","last_reported":1746990431,"current_range_meters":2000,"station_id":"","pricing_plan_id":"cebpf4jnsgd1na2vs0mg"},{"bike_id":"e8b8f21b-75cf-4ba3-82be-b96a5e581a6b","system_id":"levelo_inurba_marseille","lat":43.28951,"lon":5.36636,"is_reserved":false,"is_disabled":true,"rental_uris":{"android":"levelo://app?vid=e8b8f21b-75cf-4ba3-82be-b96a5e581a6b","ios":"levelo://app?vid=e8b8f21b-75cf-4ba3-82be-b96a5e581a6b"},"vehicle_type_id":"4","last_reported":1746990431,"current_range_meters":2000,"station_id":"ce4bhap2rcd13ifvqek0","pricing_plan_id":"cebpf4jnsgd1na2vs0mg"},{"bike_id":"15884a53-6a3f-41a6-a009-d3731fe5b011","system_id":"levelo_inurba_marseille","lat":43.302094,"lon":5.394644,"is_reserved":false,"is_disabled":false,"rental_uris":{"android":"levelo://app?vid=15884a53-6a3f-41a6-a009-d3731fe5b011","ios":"levelo://app?vid=15884a53-6a3f-41a6-a009-d3731fe5b011"},"vehicle_type_id":"4","last_reported":1746990431,"current_range_meters":2800,"station_id":"ce4bh0p2rcd13ifvqd70","pricing_plan_id":"cebpf4jnsgd1na2vs0mg"},{"bike_id":"92f490ac-0ba4-49da-b65b-50f282711f9d","system_id":"levelo_inurba_marseille","lat":43.3043,"lon":5.38891,"is_reserved":false,"is_disabled":false,"rental_uris":{"android":"levelo://app?vid=92f490ac-0ba4-49da-b65b-50f282711f9d","ios":"levelo://app?vid=92f490ac-0ba4-49da-b65b-50f282711f9d"},"vehicle_type_id":"4","last_reported":1746990431,"current_range_meters":3200,"station_id":"","pricing_plan_id":"cebpf4jnsgd1na2vs0mg"},{"bike_id":"e5d04bb5-6f9b-4008-a169-d5fa09ed4168","system_id":"levelo_inurba_marseille","lat":43.29067,"lon":5.38117,"is_reserved":false,"is_disabled":false,"rental_uris":{"android":"levelo://app?vid=e5d04bb5-6f9b-4008-a169-d5fa09ed4168","ios":"levelo://app?vid=e5d04bb5-6f9b-4008-a169-d5fa09ed4168"},"vehicle_type_id":"4","last_reported":1746990431,"current_range_meters":3200,"station_id":"ce4bh512rcd13ifvqe2g","pricing_plan_id":"cebpf4jnsgd1na2vs0mg"},{"bike_id":"fac73c21-79e0-4948-97dc-b514683d3f2c","system_id":"levelo_inurba_marseille","lat":43.29546,"lon":5.38545,"is_reserved":false,"is_disabled":false,"rental_uris":{"android":"levelo://app?vid=fac73c21-79e0-4948-97dc-b514683d3f2c","ios":"levelo://app?vid=fac73c21-79e0-4948-97dc-b514683d3f2c"},"vehicle_type_id":"4","last_reported":1746990431,"current_range_meters":3600,"station_id":"ce4bgih2rcd13ifvqba0","pricing_plan_id":"cebpf4jnsgd1na2vs0mg"},{"bike_id":"d462cba6-c00b-4bb7-a23d-0e6da3406df6","system_id":"levelo_inurba_marseille","lat":43.30309,"lon":5.36893,"is_reserved":false,"is_disabled":false,"rental_uris":{"android":"levelo://app?vid=d462cba6-c00b-4bb7-a23d-0e6da3406df6","ios":"levelo://app?vid=d462cba6-c00b-4bb7-a23d-0e6da3406df6"},"vehicle_type_id":"4","last_reported":1746990431,"current_range_meters":3600,"station_id":"ce4bgqh2rcd13ifvqc5g","pricing_plan_id":"cebpf4jnsgd1na2vs0mg"},{"bike_id":"e2435e43-ad2d-4a9a-ab34-11ce0799713d","system_id":"levelo_inurba_marseille","lat":43.2903,"lon":5.382,"is_reserved":false,"is_disabled":false,"rental_uris":{"android":"levelo://app?vid=e2435e43-ad2d-4a9a-ab34-11ce0799713d","ios":"levelo://app?vid=e2435e43-ad2d-4a9a-ab34-11ce0799713d"},"vehicle_type_id":"4","last_reported":1746990431,"current_range_meters":3600,"station_id":"ce4bh4p2rcd13ifvqe1g","pricing_plan_id":"cebpf4jnsgd1na2vs0mg"},{"bike_id":"38772696-0623-49c5-99e7-7ae9d6b21fba","system_id":"levelo_inurba_marseille","lat":43.2872,"lon":5.37934,"is_reserved":false,"is_disabled":false,"rental_uris":{"android":"levelo://app?vid=38772696-0623-49c5-99e7-7ae9d6b21fba","ios":"levelo://app?vid=38772696-0623-49c5-99e7-7ae9d6b21fba"},"vehicle_type_id":"4","last_reported":1746990431,"current_range_meters":3600,"station_id":"ce4bh9p2rcd13ifvqec0","pricing_plan_id":"cebpf4jnsgd1na2vs0mg"},{"bike_id":"27584ef2-f12b-466f-b430-327a24d46108","system_id":"levelo_inurba_marseille","lat":43.292603,"lon":5.384376,"is_reserved":false,"is_disabled":false,"rental_uris":{"android":"levelo://app?vid=27584ef2-f12b-466f-b430-327a24d46108","ios":"levelo://app?vid=27584ef2-f12b-466f-b430-327a24d46108"},"vehicle_type_id":"4","last_reported":1746990431,"current_range_meters":4000,"station_id":"ce4bh692rcd13ifvqea0","pricing_plan_id":"cebpf4jnsgd1na2vs0mg"},{"bike_id":"c7b2effd-ed37-4223-a0c6-29d0e842dbd5","system_id":"levelo_inurba_marseille","lat":43.300445,"lon":5.378275,"is_reserved":false,"is_disabled":false,"rental_uris":{"android":"levelo://app?vid=c7b2effd-ed37-4223-a0c6-29d0e842dbd5","ios":"levelo://app?vid=c7b2effd-ed37-4223-a0c6-29d0e842dbd5"},"vehicle_type_id":"4","last_reported":1746990431,"current_range_meters":5600,"station_id":"","pricing_plan_id":"cebpf4jnsgd1na2vs0mg"},{"bike_id":"82fda380-7847-4439-883b-d54e6f932f7e","system_id":"levelo_inurba_marseille","lat":43.30292,"lon":5.39236,"is_reserved":false,"is_disabled":false,"rental_uris":{"android":"levelo://app?vid=82fda380-7847-4439-883b-d54e6f932f7e","ios":"levelo://app?vid=82fda380-7847-4439-883b-d54e6f932f7e"},"vehicle_type_id":"4","last_reported":1746990431,"current_range_meters":5600,"station_id":"ce4bgkh2rcd13ifvqbk0","pricing_plan_id":"cebpf4jnsgd1na2vs0mg"},{"bike_id":"dd06d416-c77e-47df-bce0-4b813e8f46cf","system_id":"levelo_inurba_marseille","lat":43.31225,"lon":5.36863,"is_reserved":false,"is_disabled":false,"rental_uris":{"android":"levelo://app?vid=dd06d416-c77e-47df-bce0-4b813e8f46cf","ios":"levelo://app?vid=dd06d416-c77e-47df-bce0-4b813e8f46cf"},"vehicle_type_id":"4","last_reported":1746990431,"current_range_meters":5600,"station_id":"ce4bgl92rcd13ifvqbq0","pricing_plan_id":"cebpf4jnsgd1na2vs0mg"},{"bike_id":"61314585-bd3f-4907-bee8-a003059fb968","system_id":"levelo_inurba_marseille","lat":43.30336,"lon":5.40433,"is_reserved":false,"is_disabled":false,"rental_uris":{"android":"levelo://app?vid=61314585-bd3f-4907-bee8-a003059fb968","ios":"levelo://app?vid=61314585-bd3f-4907-bee8-a003059fb968"},"vehicle_type_id":"4","last_reported":1746990431,"current_range_meters":5600,"station_id":"ce4bh012rcd13ifvqd10","pricing_plan_id":"cebpf4jnsgd1na2vs0mg"},{"bike_id":"a56fb59c-734b-47d4-95f8-eb040692ba64","system_id":"levelo_inurba_marseille","lat":43.28347,"lon":5.3811,"is_reserved":false,"is_disabled":false,"rental_uris":{"android":"levelo://app?vid=a56fb59c-734b-47d4-95f8-eb040692ba64","ios":"levelo://app?vid=a56fb59c-734b-47d4-95f8-eb040692ba64"},"vehicle_type_id":"4","last_reported":1746990431,"current_range_meters":5600,"station_id":"ce4bh412rcd13ifvqdr0","pricing_plan_id":"cebpf4jnsgd1na2vs0mg"},{"bike_id":"8fc45c50-2b67-4659-97e3-2377678571e0","system_id":"levelo_inurba_marseille","lat":43.30806,"lon":5.38148,"is_reserved":false,"is_disabled":false,"rental_uris":{"android":"levelo://app?vid=8fc45c50-2b67-4659-97e3-2377678571e0","ios":"levelo://app?vid=8fc45c50-2b67-4659-97e3-2377678571e0"},"vehicle_type_id":"4","last_reported":1746990431,"current_range_meters":6000,"station_id":"ce4bgt12rcd13ifvqce0","pricing_plan_id":"cebpf4jnsgd1na2vs0mg"},{"bike_id":"15f7a805-6904-4c85-83d3-63176e4aa96c","system_id":"levelo_inurba_marseille","lat":43.29259,"lon":5.38448,"is_reserved":false,"is_disabled":false,"rental_uris":{"android":"levelo://app?vid=15f7a805-6904-4c85-83d3-63176e4aa96c","ios":"levelo://app?vid=15f7a805-6904-4c85-83d3-63176e4aa96c"},"vehicle_type_id":"4","last_reported":1746990431,"current_range_meters":6000,"station_id":"ce4bh692rcd13ifvqea0","pricing_plan_id":"cebpf4jnsgd1na2vs0mg"},{"bike_id":"76027bea-13ae-435a-9b6a-578ee6481e17","system_id":"levelo_inurba_marseille","lat":43.287104,"lon":5.399921,"is_reserved":false,"is_disabled":false,"rental_uris":{"android":"levelo://app?vid=76027bea-13ae-435a-9b6a-578ee6481e17","ios":"levelo://app?vid=76027bea-13ae-435a-9b6a-578ee6481e17"},"vehicle_type_id":"4","last_reported":1746990431,"current_range_meters":6000,"station_id":"ce4bho92rcd13ifvqh3g","pricing_plan_id":"cebpf4jnsgd1na2vs0mg"},{"bike_id":"07ffa4f1-182f-4286-b0df-1e8e4502ad09","system_id":"levelo_inurba_marseille","lat":43.32487,"lon":5.36561,"is_reserved":false,"is_disabled":false,"rental_uris":{"android":"levelo://app?vid=07ffa4f1-182f-4286-b0df-1e8e4502ad09","ios":"levelo://app?vid=07ffa4f1-182f-4286-b0df-1e8e4502ad09"},"vehicle_type_id":"4","last_reported":1746990431,"current_range_meters":6000,"station_id":"ce4bhs12rcd13ifvqhvg","pricing_plan_id":"cebpf4jnsgd1na2vs0mg"},{"bike_id":"81057adb-3f2a-4111-9700-41d91c1d5aee","system_id":"levelo_inurba_marseille","lat":43.32476,"lon":5.36571,"is_reserved":false,"is_disabled":false,"rental_uris":{"android":"levelo://app?vid=81057adb-3f2a-4111-9700-41d91c1d5aee","ios":"levelo://app?vid=81057adb-3f2a-4111-9700-41d91c1d5aee"},"vehicle_type_id":"4","last_reported":1746990431,"current_range_meters":6400,"station_id":"ce4bhs12rcd13ifvqhvg","pricing_plan_id":"cebpf4jnsgd1na2vs0mg"},{"bike_id":"be360f27-a14f-4a1a-be7b-c6c1632d61f1","system_id":"levelo_inurba_marseille","lat":43.292,"lon":5.39304,"is_reserved":false,"is_disabled":false,"rental_uris":{"android":"levelo://app?vid=be360f27-a14f-4a1a-be7b-c6c1632d61f1","ios":"levelo://app?vid=be360f27-a14f-4a1a-be7b-c6c1632d61f1"},"vehicle_type_id":"4","last_reported":1746990431,"current_range_meters":6800,"station_id":"ce4bh192rcd13ifvqdd0","pricing_plan_id":"cebpf4jnsgd1na2vs0mg"},{"bike_id":"fb7e1329-fa05-4cc8-b58c-ba631a13e96c","system_id":"levelo_inurba_marseille","lat":43.28349,"lon":5.38112,"is_reserved":false,"is_disabled":false,"rental_uris":{"android":"levelo://app?vid=fb7e1329-fa05-4cc8-b58c-ba631a13e96c","ios":"levelo://app?vid=fb7e1329-fa05-4cc8-b58c-ba631a13e96c"},"vehicle_type_id":"4","last_reported":1746990431,"current_range_meters":7200,"station_id":"ce4bh412rcd13ifvqdr0","pricing_plan_id":"cebpf4jnsgd1na2vs0mg"},{"bike_id":"b1045d83-6642-422b-a985-bd0dc7c72632","system_id":"levelo_inurba_marseille","lat":43.231443,"lon":5.43716,"is_reserved":false,"is_disabled":false,"rental_uris":{"android":"levelo://app?vid=b1045d83-6642-422b-a985-bd0dc7c72632","ios":"levelo://app?vid=b1045d83-6642-422b-a985-bd0dc7c72632"},"vehicle_type_id":"4","last_reported":1746990431,"current_range_meters":7200,"station_id":"ce4bhmp2rcd13ifvqgog","pricing_plan_id":"cebpf4jnsgd1na2vs0mg"},{"bike_id":"3e5da949-2982-462c-900e-fe53418b0d40","system_id":"levelo_inurba_marseille","lat":43.29275,"lon":5.40125,"is_reserved":false,"is_disabled":false,"rental_uris":{"android":"levelo://app?vid=3e5da949-2982-462c-900e-fe53418b0d40","ios":"levelo://app?vid=3e5da949-2982-462c-900e-fe53418b0d40"},"vehicle_type_id":"4","last_reported":1746990431,"current_range_meters":8000,"station_id":"ce4bh312rcd13ifvqdk0","pricing_plan_id":"cebpf4jnsgd1na2vs0mg"},{"bike_id":"22932bc6-1947-449b-a3ce-701d2ddc38d2","system_id":"levelo_inurba_marseille","lat":43.24069,"lon":5.37761,"is_reserved":false,"is_disabled":false,"rental_uris":{"android":"levelo://app?vid=22932bc6-1947-449b-a3ce-701d2ddc38d2","ios":"levelo://app?vid=22932bc6-1947-449b-a3ce-701d2ddc38d2"},"vehicle_type_id":"4","last_reported":1746990431,"current_range_meters":8000,"station_id":"ce4bhnp2rcd13ifvqgvg","pricing_plan_id":"cebpf4jnsgd1na2vs0mg"},{"bike_id":"3ca74435-6175-4a3b-8ea7-18f50137d73a","system_id":"levelo_inurba_marseille","lat":43.2997,"lon":5.37202,"is_reserved":false,"is_disabled":false,"rental_uris":{"android":"levelo://app?vid=3ca74435-6175-4a3b-8ea7-18f50137d73a","ios":"levelo://app?vid=3ca74435-6175-4a3b-8ea7-18f50137d73a"},"vehicle_type_id":"4","last_reported":1746990431,"current_range_meters":8400,"station_id":"ce4bgr92rcd13ifvqc7g","pricing_plan_id":"cebpf4jnsgd1na2vs0mg"},{"bike_id":"4ed6288c-6e61-4842-b4ad-1f3a3b9e0686","system_id":"levelo_inurba_marseille","lat":43.30805,"lon":5.38155,"is_reserved":false,"is_disabled":false,"rental_uris":{"android":"levelo://app?vid=4ed6288c-6e61-4842-b4ad-1f3a3b9e0686","ios":"levelo://app?vid=4ed6288c-6e61-4842-b4ad-1f3a3b9e0686"},"vehicle_type_id":"4","last_reported":1746990431,"current_range_meters":8800,"station_id":"ce4bgt12rcd13ifvqce0","pricing_plan_id":"cebpf4jnsgd1na2vs0mg"},{"bike_id":"5ab654e4-7e28-4840-9ad6-8b11e8ba10ab","system_id":"levelo_inurba_marseille","lat":43.28667,"lon":5.36356,"is_reserved":false,"is_disabled":false,"rental_uris":{"android":"levelo://app?vid=5ab654e4-7e28-4840-9ad6-8b11e8ba10ab","ios":"levelo://app?vid=5ab654e4-7e28-4840-9ad6-8b11e8ba10ab"},"vehicle_type_id":"4","last_reported":1746990431,"current_range_meters":8800,"station_id":"ce4bhah2rcd13ifvqej0","pricing_plan_id":"cebpf4jnsgd1na2vs0mg"},{"bike_id":"27ba238e-6d93-4241-92f6-45f54f5e8626","system_id":"levelo_inurba_marseille","lat":43.29009,"lon":5.356061,"is_reserved":false,"is_disabled":false,"rental_uris":{"android":"levelo://app?vid=27ba238e-6d93-4241-92f6-45f54f5e8626","ios":"levelo://app?vid=27ba238e-6d93-4241-92f6-45f54f5e8626"},"vehicle_type_id":"4","last_reported":1746990431,"current_range_meters":8800,"station_id":"ce4bhb92rcd13ifvqen0","pricing_plan_id":"cebpf4jnsgd1na2vs0mg"},{"bike_id":"c06ccf03-2202-4516-b7ed-8cc74af2909a","system_id":"levelo_inurba_marseille","lat":43.29275,"lon":5.36846,"is_reserved":false,"is_disabled":false,"rental_uris":{"android":"levelo://app?vid=c06ccf03-2202-4516-b7ed-8cc74af2909a","ios":"levelo://app?vid=c06ccf03-2202-4516-b7ed-8cc74af2909a"},"vehicle_type_id":"4","last_reported":1746990431,"current_range_meters":8800,"station_id":"ce4bhbp2rcd13ifvqesg","pricing_plan_id":"cebpf4jnsgd1na2vs0mg"},{"bike_id":"9cefde05-9c0d-4e8a-86ad-0403f175f3a5","system_id":"levelo_inurba_marseille","lat":43.26685,"lon":5.38271,"is_reserved":false,"is_disabled":false,"rental_uris":{"android":"levelo://app?vid=9cefde05-9c0d-4e8a-86ad-0403f175f3a5","ios":"levelo://app?vid=9cefde05-9c0d-4e8a-86ad-0403f175f3a5"},"vehicle_type_id":"4","last_reported":1746990431,"current_range_meters":8800,"station_id":"ce4bhg92rcd13ifvqf90","pricing_plan_id":"cebpf4jnsgd1na2vs0mg"},{"bike_id":"4be526c1-c099-4e56-8476-6a072fafda70","system_id":"levelo_inurba_marseille","lat":43.25112,"lon":5.40321,"is_reserved":false,"is_disabled":false,"rental_uris":{"android":"levelo://app?vid=4be526c1-c099-4e56-8476-6a072fafda70","ios":"levelo://app?vid=4be526c1-c099-4e56-8476-6a072fafda70"},"vehicle_type_id":"4","last_reported":1746990431,"current_range_meters":8800,"station_id":"ce4bhlh2rcd13ifvqgig","pricing_plan_id":"cebpf4jnsgd1na2vs0mg"},{"bike_id":"b1b013fd-f0df-4fdf-b291-26a881a8b080","system_id":"levelo_inurba_marseille","lat":43.23183,"lon":5.39993,"is_reserved":false,"is_disabled":false,"rental_uris":{"android":"levelo://app?vid=b1b013fd-f0df-4fdf-b291-26a881a8b080","ios":"levelo://app?vid=b1b013fd-f0df-4fdf-b291-26a881a8b080"},"vehicle_type_id":"4","last_reported":1746990431,"current_range_meters":8800,"station_id":"ce4bhn12rcd13ifvqgqg","pricing_plan_id":"cebpf4jnsgd1na2vs0mg"},{"bike_id":"fc2577e7-1497-425b-9d4f-ab8d7dc843c6","system_id":"levelo_inurba_marseille","lat":43.33771,"lon":5.37485,"is_reserved":false,"is_disabled":false,"rental_uris":{"android":"levelo://app?vid=fc2577e7-1497-425b-9d4f-ab8d7dc843c6","ios":"levelo://app?vid=fc2577e7-1497-425b-9d4f-ab8d7dc843c6"},"vehicle_type_id":"4","last_reported":1746990431,"current_range_meters":9200,"station_id":"","pricing_plan_id":"cebpf4jnsgd1na2vs0mg"},{"bike_id":"a8322533-4fff-43b3-bd5a-a53314a63db4","system_id":"levelo_inurba_marseille","lat":43.296793,"lon":5.373028,"is_reserved":false,"is_disabled":false,"rental_uris":{"android":"levelo://app?vid=a8322533-4fff-43b3-bd5a-a53314a63db4","ios":"levelo://app?vid=a8322533-4fff-43b3-bd5a-a53314a63db4"},"vehicle_type_id":"4","last_reported":1746990431,"current_range_meters":9200,"station_id":"ce4bgk12rcd13ifvqbj0","pricing_plan_id":"cebpf4jnsgd1na2vs0mg"},{"bike_id":"626d5ef0-00a0-48fb-834e-b2f28aab195c","system_id":"levelo_inurba_marseille","lat":43.28856,"lon":5.39317,"is_reserved":false,"is_disabled":false,"rental_uris":{"android":"levelo://app?vid=626d5ef0-00a0-48fb-834e-b2f28aab195c","ios":"levelo://app?vid=626d5ef0-00a0-48fb-834e-b2f28aab195c"},"vehicle_type_id":"4","last_reported":1746990431,"current_range_meters":9200,"station_id":"ce4bh2p2rcd13ifvqdi0","pricing_plan_id":"cebpf4jnsgd1na2vs0mg"},{"bike_id":"0619580d-caf7-4620-8819-2a1b6d111d50","system_id":"levelo_inurba_marseille","lat":43.290394,"lon":5.375629,"is_reserved":false,"is_disabled":false,"rental_uris":{"android":"levelo://app?vid=0619580d-caf7-4620-8819-2a1b6d111d50","ios":"levelo://app?vid=0619580d-caf7-4620-8819-2a1b6d111d50"},"vehicle_type_id":"4","last_reported":1746990431,"current_range_meters":9200,"station_id":"ce4bh692rcd13ifvqe90","pricing_plan_id":"cebpf4jnsgd1na2vs0mg"},{"bike_id":"2f8b17d0-8275-4cf8-851a-38d663b78a1b","system_id":"levelo_inurba_marseille","lat":43.28157,"lon":5.42656,"is_reserved":false,"is_disabled":false,"rental_uris":{"android":"levelo://app?vid=2f8b17d0-8275-4cf8-851a-38d663b78a1b","ios":"levelo://app?vid=2f8b17d0-8275-4cf8-851a-38d663b78a1b"},"vehicle_type_id":"4","last_reported":1746990431,"current_range_meters":9200,"station_id":"ce4bhnh2rcd13ifvqgug","pricing_plan_id":"cebpf4jnsgd1na2vs0mg"},{"bike_id":"3aa75863-fce6-4b94-9f5b-9c0ad58d1acf","system_id":"levelo_inurba_marseille","lat":43.24166,"lon":5.36406,"is_reserved":false,"is_disabled":false,"rental_uris":{"android":"levelo://app?vid=3aa75863-fce6-4b94-9f5b-9c0ad58d1acf","ios":"levelo://app?vid=3aa75863-fce6-4b94-9f5b-9c0ad58d1acf"},"vehicle_type_id":"4","last_reported":1746990431,"current_range_meters":9200,"station_id":"cpo36qri1sfpv3e86is0","pricing_plan_id":"cebpf4jnsgd1na2vs0mg"},{"bike_id":"a02ff3d0-dabc-4f80-a7ca-75d2665902bc","system_id":"levelo_inurba_marseille","lat":43.28419,"lon":5.37536,"is_reserved":false,"is_disabled":false,"rental_uris":{"android":"levelo://app?vid=a02ff3d0-dabc-4f80-a7ca-75d2665902bc","ios":"levelo://app?vid=a02ff3d0-dabc-4f80-a7ca-75d2665902bc"},"vehicle_type_id":"4","last_reported":1746990431,"current_range_meters":9600,"station_id":"ce4bh412rcd13ifvqds0","pricing_plan_id":"cebpf4jnsgd1na2vs0mg"},{"bike_id":"f9d16859-c623-411e-bbcb-c426981ab6d7","system_id":"levelo_inurba_marseille","lat":43.26555,"lon":5.39043,"is_reserved":false,"is_disabled":false,"rental_uris":{"android":"levelo://app?vid=f9d16859-c623-411e-bbcb-c426981ab6d7","ios":"levelo://app?vid=f9d16859-c623-411e-bbcb-c426981ab6d7"},"vehicle_type_id":"4","last_reported":1746990431,"current_range_meters":9600,"station_id":"ce4bhe12rcd13ifvqf30","pricing_plan_id":"cebpf4jnsgd1na2vs0mg"},{"bike_id":"b199cae7-4942-4e17-b029-aad1247843c8","system_id":"levelo_inurba_marseille","lat":43.29798,"lon":5.3811,"is_reserved":false,"is_disabled":false,"rental_uris":{"android":"levelo://app?vid=b199cae7-4942-4e17-b029-aad1247843c8","ios":"levelo://app?vid=b199cae7-4942-4e17-b029-aad1247843c8"},"vehicle_type_id":"4","last_reported":1746990431,"current_range_meters":10000,"station_id":"ce4bgip2rcd13ifvqbb0","pricing_plan_id":"cebpf4jnsgd1na2vs0mg"},{"bike_id":"253f24c3-dc8b-4824-b227-feeb56fe0624","system_id":"levelo_inurba_marseille","lat":43.28712,"lon":5.39986,"is_reserved":false,"is_disabled":false,"rental_uris":{"android":"levelo://app?vid=253f24c3-dc8b-4824-b227-feeb56fe0624","ios":"levelo://app?vid=253f24c3-dc8b-4824-b227-feeb56fe0624"},"vehicle_type_id":"4","last_reported":1746990431,"current_range_meters":10000,"station_id":"ce4bho92rcd13ifvqh3g","pricing_plan_id":"cebpf4jnsgd1na2vs0mg"},{"bike_id":"d99afe62-41a1-4367-a50e-55727c42a2a5","system_id":"levelo_inurba_marseille","lat":43.28687,"lon":5.40009,"is_reserved":false,"is_disabled":false,"rental_uris":{"android":"levelo://app?vid=d99afe62-41a1-4367-a50e-55727c42a2a5","ios":"levelo://app?vid=d99afe62-41a1-4367-a50e-55727c42a2a5"},"vehicle_type_id":"4","last_reported":1746990431,"current_range_meters":10000,"station_id":"ce4bho92rcd13ifvqh3g","pricing_plan_id":"cebpf4jnsgd1na2vs0mg"},{"bike_id":"a1121b36-b5cd-4dda-96ef-13a3dfaa55e1","system_id":"levelo_inurba_marseille","lat":43.301401,"lon":5.387791,"is_reserved":false,"is_disabled":false,"rental_uris":{"android":"levelo://app?vid=a1121b36-b5cd-4dda-96ef-13a3dfaa55e1","ios":"levelo://app?vid=a1121b36-b5cd-4dda-96ef-13a3dfaa55e1"},"vehicle_type_id":"4","last_reported":1746990431,"current_range_meters":10800,"station_id":"","pricing_plan_id":"cebpf4jnsgd1na2vs0mg"},{"bike_id":"34aaea8e-1fd3-420b-a079-27e4efbc366f","system_id":"levelo_inurba_marseille","lat":43.294465,"lon":5.39734,"is_reserved":false,"is_disabled":false,"rental_uris":{"android":"levelo://app?vid=34aaea8e-1fd3-420b-a079-27e4efbc366f","ios":"levelo://app?vid=34aaea8e-1fd3-420b-a079-27e4efbc366f"},"vehicle_type_id":"4","last_reported":1746990431,"current_range_meters":10800,"station_id":"ce4bh3h2rcd13ifvqdo0","pricing_plan_id":"cebpf4jnsgd1na2vs0mg"},{"bike_id":"efc0a0d5-a353-4db4-9aad-8fb20bd2a998","system_id":"levelo_inurba_marseille","lat":43.25723,"lon":5.411,"is_reserved":false,"is_disabled":false,"rental_uris":{"android":"levelo://app?vid=efc0a0d5-a353-4db4-9aad-8fb20bd2a998","ios":"levelo://app?vid=efc0a0d5-a353-4db4-9aad-8fb20bd2a998"},"vehicle_type_id":"4","last_reported":1746990431,"current_range_meters":10800,"station_id":"ce4bhkp2rcd13ifvqgd0","pricing_plan_id":"cebpf4jnsgd1na2vs0mg"},{"bike_id":"d83b7170-8eed-47c1-b0ec-1140d3a45dea","system_id":"levelo_inurba_marseille","lat":43.30804,"lon":5.43512,"is_reserved":false,"is_disabled":false,"rental_uris":{"android":"levelo://app?vid=d83b7170-8eed-47c1-b0ec-1140d3a45dea","ios":"levelo://app?vid=d83b7170-8eed-47c1-b0ec-1140d3a45dea"},"vehicle_type_id":"4","last_reported":1746990431,"current_range_meters":10800,"station_id":"ce4bhph2rcd13ifvqheg","pricing_plan_id":"cebpf4jnsgd1na2vs0mg"},{"bike_id":"6da7775b-526f-48dc-ad5b-7aff7117e159","system_id":"levelo_inurba_marseille","lat":43.26805,"lon":5.40272,"is_reserved":false,"is_disabled":false,"rental_uris":{"android":"levelo://app?vid=6da7775b-526f-48dc-ad5b-7aff7117e159","ios":"levelo://app?vid=6da7775b-526f-48dc-ad5b-7aff7117e159"},"vehicle_type_id":"4","last_reported":1746990431,"current_range_meters":10800,"station_id":"ce501612rcd8frsf0b60","pricing_plan_id":"cebpf4jnsgd1na2vs0mg"},{"bike_id":"dbeea60c-affe-4ed3-970c-049de2cef62b","system_id":"levelo_inurba_marseille","lat":43.308,"lon":5.3815,"is_reserved":false,"is_disabled":false,"rental_uris":{"android":"levelo://app?vid=dbeea60c-affe-4ed3-970c-049de2cef62b","ios":"levelo://app?vid=dbeea60c-affe-4ed3-970c-049de2cef62b"},"vehicle_type_id":"4","last_reported":1746990431,"current_range_meters":11200,"station_id":"ce4bgt12rcd13ifvqce0","pricing_plan_id":"cebpf4jnsgd1na2vs0mg"},{"bike_id":"06b1ccb3-fdb2-4305-9298-cdec72067525","system_id":"levelo_inurba_marseille","lat":43.30786,"lon":5.3765,"is_reserved":false,"is_disabled":false,"rental_uris":{"android":"levelo://app?vid=06b1ccb3-fdb2-4305-9298-cdec72067525","ios":"levelo://app?vid=06b1ccb3-fdb2-4305-9298-cdec72067525"},"vehicle_type_id":"4","last_reported":1746990431,"current_range_meters":11200,"station_id":"ce4bgv92rcd13ifvqcq0","pricing_plan_id":"cebpf4jnsgd1na2vs0mg"},{"bike_id":"6816d17f-0ca7-468c-919f-7a7f234ab700","system_id":"levelo_inurba_marseille","lat":43.31074,"lon":5.38357,"is_reserved":false,"is_disabled":false,"rental_uris":{"android":"levelo://app?vid=6816d17f-0ca7-468c-919f-7a7f234ab700","ios":"levelo://app?vid=6816d17f-0ca7-468c-919f-7a7f234ab700"},"vehicle_type_id":"4","last_reported":1746990431,"current_range_meters":11200,"station_id":"ce4bgv92rcd13ifvqcr0","pricing_plan_id":"cebpf4jnsgd1na2vs0mg"},{"bike_id":"6a36e9c2-44ed-4d59-b898-50c4b3c700de","system_id":"levelo_inurba_marseille","lat":43.30104,"lon":5.39079,"is_reserved":false,"is_disabled":false,"rental_uris":{"android":"levelo://app?vid=6a36e9c2-44ed-4d59-b898-50c4b3c700de","ios":"levelo://app?vid=6a36e9c2-44ed-4d59-b898-50c4b3c700de"},"vehicle_type_id":"4","last_reported":1746990431,"current_range_meters":11200,"station_id":"ce4bh192rcd13ifvqdb0","pricing_plan_id":"cebpf4jnsgd1na2vs0mg"},{"bike_id":"59f8d089-437e-4ecd-8d61-801ceb02c68f","system_id":"levelo_inurba_marseille","lat":43.29532,"lon":5.3904,"is_reserved":false,"is_disabled":false,"rental_uris":{"android":"levelo://app?vid=59f8d089-437e-4ecd-8d61-801ceb02c68f","ios":"levelo://app?vid=59f8d089-437e-4ecd-8d61-801ceb02c68f"},"vehicle_type_id":"4","last_reported":1746990431,"current_range_meters":11200,"station_id":"ce4bh3p2rcd13ifvqdp0","pricing_plan_id":"cebpf4jnsgd1na2vs0mg"},{"bike_id":"10dbc81c-feb0-4e8b-a38b-93d72650dbb4","system_id":"levelo_inurba_marseille","lat":43.28669,"lon":5.36355,"is_reserved":false,"is_disabled":false,"rental_uris":{"android":"levelo://app?vid=10dbc81c-feb0-4e8b-a38b-93d72650dbb4","ios":"levelo://app?vid=10dbc81c-feb0-4e8b-a38b-93d72650dbb4"},"vehicle_type_id":"4","last_reported":1746990431,"current_range_meters":11200,"station_id":"ce4bhah2rcd13ifvqej0","pricing_plan_id":"cebpf4jnsgd1na2vs0mg"},{"bike_id":"3ee007b4-701a-43a3-a268-87c67c8eea49","system_id":"levelo_inurba_marseille","lat":43.26226,"lon":5.40459,"is_reserved":false,"is_disabled":false,"rental_uris":{"android":"levelo://app?vid=3ee007b4-701a-43a3-a268-87c67c8eea49","ios":"levelo://app?vid=3ee007b4-701a-43a3-a268-87c67c8eea49"},"vehicle_type_id":"4","last_reported":1746990431,"current_range_meters":11200,"station_id":"ce4bhmh2rcd13ifvqgmg","pricing_plan_id":"cebpf4jnsgd1na2vs0mg"},{"bike_id":"262ed9cd-36ac-499f-8b7c-a803c30256a7","system_id":"levelo_inurba_marseille","lat":43.31167,"lon":5.38728,"is_reserved":false,"is_disabled":false,"rental_uris":{"android":"levelo://app?vid=262ed9cd-36ac-499f-8b7c-a803c30256a7","ios":"levelo://app?vid=262ed9cd-36ac-499f-8b7c-a803c30256a7"},"vehicle_type_id":"4","last_reported":1746990431,"current_range_meters":12000,"station_id":"ce4bgv12rcd13ifvqcp0","pricing_plan_id":"cebpf4jnsgd1na2vs0mg"},{"bike_id":"181c3e2e-47f2-4996-8f05-5c968680bd07","system_id":"levelo_inurba_marseille","lat":43.31274,"lon":5.40186,"is_reserved":false,"is_disabled":false,"rental_uris":{"android":"levelo://app?vid=181c3e2e-47f2-4996-8f05-5c968680bd07","ios":"levelo://app?vid=181c3e2e-47f2-4996-8f05-5c968680bd07"},"vehicle_type_id":"4","last_reported":1746990431,"current_range_meters":12400,"station_id":"ce4bh092rcd13ifvqd30","pricing_plan_id":"cebpf4jnsgd1na2vs0mg"},{"bike_id":"bbb6d3fe-1a22-4dc0-b003-b8f89d831c86","system_id":"levelo_inurba_marseille","lat":43.318856,"lon":5.407392,"is_reserved":false,"is_disabled":false,"rental_uris":{"android":"levelo://app?vid=bbb6d3fe-1a22-4dc0-b003-b8f89d831c86","ios":"levelo://app?vid=bbb6d3fe-1a22-4dc0-b003-b8f89d831c86"},"vehicle_type_id":"4","last_reported":1746990431,"current_range_meters":12400,"station_id":"ce4bhq12rcd13ifvqhig","pricing_plan_id":"cebpf4jnsgd1na2vs0mg"},{"bike_id":"c0f655a7-c45d-4290-876a-e462f5fd5320","system_id":"levelo_inurba_marseille","lat":43.28611,"lon":5.37067,"is_reserved":false,"is_disabled":false,"rental_uris":{"android":"levelo://app?vid=c0f655a7-c45d-4290-876a-e462f5fd5320","ios":"levelo://app?vid=c0f655a7-c45d-4290-876a-e462f5fd5320"},"vehicle_type_id":"4","last_reported":1746990431,"current_range_meters":12400,"station_id":"ce4bht12rcd13ifvqi60","pricing_plan_id":"cebpf4jnsgd1na2vs0mg"},{"bike_id":"e52bd7d4-e04d-400f-87c6-90264f742d5d","system_id":"levelo_inurba_marseille","lat":43.28409,"lon":5.37519,"is_reserved":false,"is_disabled":false,"rental_uris":{"android":"levelo://app?vid=e52bd7d4-e04d-400f-87c6-90264f742d5d","ios":"levelo://app?vid=e52bd7d4-e04d-400f-87c6-90264f742d5d"},"vehicle_type_id":"4","last_reported":1746990431,"current_range_meters":12800,"station_id":"ce4bh412rcd13ifvqds0","pricing_plan_id":"cebpf4jnsgd1na2vs0mg"},{"bike_id":"19708695-a8ee-4716-9e14-a794ed2f1a40","system_id":"levelo_inurba_marseille","lat":43.26554,"lon":5.39032,"is_reserved":false,"is_disabled":false,"rental_uris":{"android":"levelo://app?vid=19708695-a8ee-4716-9e14-a794ed2f1a40","ios":"levelo://app?vid=19708695-a8ee-4716-9e14-a794ed2f1a40"},"vehicle_type_id":"4","last_reported":1746990431,"current_range_meters":12800,"station_id":"ce4bhe12rcd13ifvqf30","pricing_plan_id":"cebpf4jnsgd1na2vs0mg"},{"bike_id":"f52c819d-ca4b-4640-b458-b877db1bf990","system_id":"levelo_inurba_marseille","lat":43.29865,"lon":5.41024,"is_reserved":false,"is_disabled":false,"rental_uris":{"android":"levelo://app?vid=f52c819d-ca4b-4640-b458-b877db1bf990","ios":"levelo://app?vid=f52c819d-ca4b-4640-b458-b877db1bf990"},"vehicle_type_id":"4","last_reported":1746990431,"current_range_meters":13600,"station_id":"","pricing_plan_id":"cebpf4jnsgd1na2vs0mg"},{"bike_id":"85601d68-972d-4b41-a1f1-3250f31fdbfd","system_id":"levelo_inurba_marseille","lat":43.31119,"lon":5.37774,"is_reserved":false,"is_disabled":false,"rental_uris":{"android":"levelo://app?vid=85601d68-972d-4b41-a1f1-3250f31fdbfd","ios":"levelo://app?vid=85601d68-972d-4b41-a1f1-3250f31fdbfd"},"vehicle_type_id":"4","last_reported":1746990431,"current_range_meters":13600,"station_id":"ce4bgt92rcd13ifvqcg0","pricing_plan_id":"cebpf4jnsgd1na2vs0mg"},{"bike_id":"e890cd41-1b81-4edc-9da4-3f7eabad83bb","system_id":"levelo_inurba_marseille","lat":43.29197,"lon":5.39314,"is_reserved":false,"is_disabled":false,"rental_uris":{"android":"levelo://app?vid=e890cd41-1b81-4edc-9da4-3f7eabad83bb","ios":"levelo://app?vid=e890cd41-1b81-4edc-9da4-3f7eabad83bb"},"vehicle_type_id":"4","last_reported":1746990431,"current_range_meters":13600,"station_id":"ce4bh192rcd13ifvqdd0","pricing_plan_id":"cebpf4jnsgd1na2vs0mg"},{"bike_id":"fe8a300c-df4c-42e1-b092-cce77e5975ce","system_id":"levelo_inurba_marseille","lat":43.25735,"lon":5.41096,"is_reserved":false,"is_disabled":false,"rental_uris":{"android":"levelo://app?vid=fe8a300c-df4c-42e1-b092-cce77e5975ce","ios":"levelo://app?vid=fe8a300c-df4c-42e1-b092-cce77e5975ce"},"vehicle_type_id":"4","last_reported":1746990431,"current_range_meters":14000,"station_id":"ce4bhkp2rcd13ifvqgd0","pricing_plan_id":"cebpf4jnsgd1na2vs0mg"},{"bike_id":"88c80310-ca1b-421c-afe7-bd8b5ffd37d5","system_id":"levelo_inurba_marseille","lat":43.25119,"lon":5.4032,"is_reserved":false,"is_disabled":false,"rental_uris":{"android":"levelo://app?vid=88c80310-ca1b-421c-afe7-bd8b5ffd37d5","ios":"levelo://app?vid=88c80310-ca1b-421c-afe7-bd8b5ffd37d5"},"vehicle_type_id":"4","last_reported":1746990431,"current_range_meters":14000,"station_id":"ce4bhlh2rcd13ifvqgig","pricing_plan_id":"cebpf4jnsgd1na2vs0mg"},{"bike_id":"05b3fab7-5e20-4b18-8cb7-be93adff1bd0","system_id":"levelo_inurba_marseille","lat":43.29613,"lon":5.37721,"is_reserved":false,"is_disabled":false,"rental_uris":{"android":"levelo://app?vid=05b3fab7-5e20-4b18-8cb7-be93adff1bd0","ios":"levelo://app?vid=05b3fab7-5e20-4b18-8cb7-be93adff1bd0"},"vehicle_type_id":"4","last_reported":1746990431,"current_range_meters":14400,"station_id":"ce4bgi92rcd13ifvqb90","pricing_plan_id":"cebpf4jnsgd1na2vs0mg"},{"bike_id":"9401e170-3654-4a41-bf35-9a468db0c37f","system_id":"levelo_inurba_marseille","lat":43.25108,"lon":5.40347,"is_reserved":false,"is_disabled":false,"rental_uris":{"android":"levelo://app?vid=9401e170-3654-4a41-bf35-9a468db0c37f","ios":"levelo://app?vid=9401e170-3654-4a41-bf35-9a468db0c37f"},"vehicle_type_id":"4","last_reported":1746990431,"current_range_meters":14400,"station_id":"ce4bhlh2rcd13ifvqgig","pricing_plan_id":"cebpf4jnsgd1na2vs0mg"},{"bike_id":"350f96e5-9d35-4552-ab8b-75cc94649a94","system_id":"levelo_inurba_marseille","lat":43.25108,"lon":5.40321,"is_reserved":false,"is_disabled":false,"rental_uris":{"android":"levelo://app?vid=350f96e5-9d35-4552-ab8b-75cc94649a94","ios":"levelo://app?vid=350f96e5-9d35-4552-ab8b-75cc94649a94"},"vehicle_type_id":"4","last_reported":1746990431,"current_range_meters":14400,"station_id":"ce4bhlh2rcd13ifvqgig","pricing_plan_id":"cebpf4jnsgd1na2vs0mg"},{"bike_id":"d9937dd6-e4c2-4ca6-b3ad-8e2542d9c843","system_id":"levelo_inurba_marseille","lat":43.30272,"lon":5.40083,"is_reserved":false,"is_disabled":false,"rental_uris":{"android":"levelo://app?vid=d9937dd6-e4c2-4ca6-b3ad-8e2542d9c843","ios":"levelo://app?vid=d9937dd6-e4c2-4ca6-b3ad-8e2542d9c843"},"vehicle_type_id":"4","last_reported":1746990431,"current_range_meters":14800,"station_id":"ce4bgvh2rcd13ifvqcs0","pricing_plan_id":"cebpf4jnsgd1na2vs0mg"},{"bike_id":"413bc001-7085-48e0-af1d-b41d301848e4","system_id":"levelo_inurba_marseille","lat":43.28932,"lon":5.36632,"is_reserved":false,"is_disabled":false,"rental_uris":{"android":"levelo://app?vid=413bc001-7085-48e0-af1d-b41d301848e4","ios":"levelo://app?vid=413bc001-7085-48e0-af1d-b41d301848e4"},"vehicle_type_id":"4","last_reported":1746990431,"current_range_meters":14800,"station_id":"ce4bhap2rcd13ifvqek0","pricing_plan_id":"cebpf4jnsgd1na2vs0mg"},{"bike_id":"83a5dddc-f08f-476e-a316-d0e0dfb65037","system_id":"levelo_inurba_marseille","lat":43.31711,"lon":5.42437,"is_reserved":false,"is_disabled":false,"rental_uris":{"android":"levelo://app?vid=83a5dddc-f08f-476e-a316-d0e0dfb65037","ios":"levelo://app?vid=83a5dddc-f08f-476e-a316-d0e0dfb65037"},"vehicle_type_id":"4","last_reported":1746990431,"current_range_meters":14800,"station_id":"ce4bhp92rcd13ifvqhbg","pricing_plan_id":"cebpf4jnsgd1na2vs0mg"},{"bike_id":"2b4c7cb9-5a3c-4d6e-b388-5b04325d8d13","system_id":"levelo_inurba_marseille","lat":43.29528,"lon":5.38546,"is_reserved":false,"is_disabled":false,"rental_uris":{"android":"levelo://app?vid=2b4c7cb9-5a3c-4d6e-b388-5b04325d8d13","ios":"levelo://app?vid=2b4c7cb9-5a3c-4d6e-b388-5b04325d8d13"},"vehicle_type_id":"4","last_reported":1746990431,"current_range_meters":15200,"station_id":"ce4bgih2rcd13ifvqba0","pricing_plan_id":"cebpf4jnsgd1na2vs0mg"},{"bike_id":"51c0357f-b343-4e95-90b3-ee760f6db5df","system_id":"levelo_inurba_marseille","lat":43.27987,"lon":5.40038,"is_reserved":false,"is_disabled":false,"rental_uris":{"android":"levelo://app?vid=51c0357f-b343-4e95-90b3-ee760f6db5df","ios":"levelo://app?vid=51c0357f-b343-4e95-90b3-ee760f6db5df"},"vehicle_type_id":"4","last_reported":1746990431,"current_range_meters":15200,"station_id":"ce4bho92rcd13ifvqh4g","pricing_plan_id":"cebpf4jnsgd1na2vs0mg"},{"bike_id":"f73cf722-6d28-410b-96d0-7787b89b0f79","system_id":"levelo_inurba_marseille","lat":43.288483,"lon":5.393067,"is_reserved":false,"is_disabled":false,"rental_uris":{"android":"levelo://app?vid=f73cf722-6d28-410b-96d0-7787b89b0f79","ios":"levelo://app?vid=f73cf722-6d28-410b-96d0-7787b89b0f79"},"vehicle_type_id":"4","last_reported":1746990431,"current_range_meters":16000,"station_id":"ce4bh2p2rcd13ifvqdi0","pricing_plan_id":"cebpf4jnsgd1na2vs0mg"},{"bike_id":"8c1b1ee0-c203-46f7-b6f6-0263bb988eee","system_id":"levelo_inurba_marseille","lat":43.29031,"lon":5.37565,"is_reserved":false,"is_disabled":false,"rental_uris":{"android":"levelo://app?vid=8c1b1ee0-c203-46f7-b6f6-0263bb988eee","ios":"levelo://app?vid=8c1b1ee0-c203-46f7-b6f6-0263bb988eee"},"vehicle_type_id":"4","last_reported":1746990431,"current_range_meters":16000,"station_id":"ce4bh692rcd13ifvqe90","pricing_plan_id":"cebpf4jnsgd1na2vs0mg"},{"bike_id":"f3bc9fe4-a9bd-43c8-8a47-ffaeebc00913","system_id":"levelo_inurba_marseille","lat":43.323425,"lon":5.40603,"is_reserved":false,"is_disabled":false,"rental_uris":{"android":"levelo://app?vid=f3bc9fe4-a9bd-43c8-8a47-ffaeebc00913","ios":"levelo://app?vid=f3bc9fe4-a9bd-43c8-8a47-ffaeebc00913"},"vehicle_type_id":"4","last_reported":1746990431,"current_range_meters":16000,"station_id":"ce4bhq92rcd13ifvqhjg","pricing_plan_id":"cebpf4jnsgd1na2vs0mg"},{"bike_id":"ab38ef62-870b-4715-a349-e205eeb08a6e","system_id":"levelo_inurba_marseille","lat":43.32354,"lon":5.36755,"is_reserved":false,"is_disabled":false,"rental_uris":{"android":"levelo://app?vid=ab38ef62-870b-4715-a349-e205eeb08a6e","ios":"levelo://app?vid=ab38ef62-870b-4715-a349-e205eeb08a6e"},"vehicle_type_id":"4","last_reported":1746990431,"current_range_meters":16400,"station_id":"ce4bhsh2rcd13ifvqi2g","pricing_plan_id":"cebpf4jnsgd1na2vs0mg"},{"bike_id":"90e6c42d-2cbb-471b-a4a7-67ed571b6807","system_id":"levelo_inurba_marseille","lat":43.29205,"lon":5.39342,"is_reserved":false,"is_disabled":false,"rental_uris":{"android":"levelo://app?vid=90e6c42d-2cbb-471b-a4a7-67ed571b6807","ios":"levelo://app?vid=90e6c42d-2cbb-471b-a4a7-67ed571b6807"},"vehicle_type_id":"4","last_reported":1746990431,"current_range_meters":16800,"station_id":"ce4bh192rcd13ifvqdd0","pricing_plan_id":"cebpf4jnsgd1na2vs0mg"},{"bike_id":"78db094b-34c8-43d1-875a-683e33d4b3fb","system_id":"levelo_inurba_marseille","lat":43.281006,"lon":5.37835,"is_reserved":false,"is_disabled":false,"rental_uris":{"android":"levelo://app?vid=78db094b-34c8-43d1-875a-683e33d4b3fb","ios":"levelo://app?vid=78db094b-34c8-43d1-875a-683e33d4b3fb"},"vehicle_type_id":"4","last_reported":1746990431,"current_range_meters":16800,"station_id":"ce4bha12rcd13ifvqee0","pricing_plan_id":"cebpf4jnsgd1na2vs0mg"},{"bike_id":"ef6b6b99-796e-4ae5-b23b-5cdf1ab58b86","system_id":"levelo_inurba_marseille","lat":43.31757,"lon":5.39022,"is_reserved":false,"is_disabled":false,"rental_uris":{"android":"levelo://app?vid=ef6b6b99-796e-4ae5-b23b-5cdf1ab58b86","ios":"levelo://app?vid=ef6b6b99-796e-4ae5-b23b-5cdf1ab58b86"},"vehicle_type_id":"4","last_reported":1746990431,"current_range_meters":16800,"station_id":"ce4bhqp2rcd13ifvqhng","pricing_plan_id":"cebpf4jnsgd1na2vs0mg"},{"bike_id":"561dec04-c84c-4699-85cb-54a9453d50dd","system_id":"levelo_inurba_marseille","lat":43.30782,"lon":5.37648,"is_reserved":false,"is_disabled":false,"rental_uris":{"android":"levelo://app?vid=561dec04-c84c-4699-85cb-54a9453d50dd","ios":"levelo://app?vid=561dec04-c84c-4699-85cb-54a9453d50dd"},"vehicle_type_id":"4","last_reported":1746990431,"current_range_meters":17200,"station_id":"ce4bgv92rcd13ifvqcq0","pricing_plan_id":"cebpf4jnsgd1na2vs0mg"},{"bike_id":"31ea7b84-e641-4ddd-996f-3ef7f2f3be79","system_id":"levelo_inurba_marseille","lat":43.28938,"lon":5.36638,"is_reserved":false,"is_disabled":false,"rental_uris":{"android":"levelo://app?vid=31ea7b84-e641-4ddd-996f-3ef7f2f3be79","ios":"levelo://app?vid=31ea7b84-e641-4ddd-996f-3ef7f2f3be79"},"vehicle_type_id":"4","last_reported":1746990431,"current_range_meters":17200,"station_id":"ce4bhap2rcd13ifvqek0","pricing_plan_id":"cebpf4jnsgd1na2vs0mg"},{"bike_id":"c2d26363-c111-4e54-98d2-ac34f8d787a8","system_id":"levelo_inurba_marseille","lat":43.25113,"lon":5.403184,"is_reserved":false,"is_disabled":false,"rental_uris":{"android":"levelo://app?vid=c2d26363-c111-4e54-98d2-ac34f8d787a8","ios":"levelo://app?vid=c2d26363-c111-4e54-98d2-ac34f8d787a8"},"vehicle_type_id":"4","last_reported":1746990431,"current_range_meters":17200,"station_id":"ce4bhlh2rcd13ifvqgig","pricing_plan_id":"cebpf4jnsgd1na2vs0mg"},{"bike_id":"b6f0504a-f7d7-4a97-b810-e7c9e7b1c671","system_id":"levelo_inurba_marseille","lat":43.27898,"lon":5.41248,"is_reserved":false,"is_disabled":false,"rental_uris":{"android":"levelo://app?vid=b6f0504a-f7d7-4a97-b810-e7c9e7b1c671","ios":"levelo://app?vid=b6f0504a-f7d7-4a97-b810-e7c9e7b1c671"},"vehicle_type_id":"4","last_reported":1746990431,"current_range_meters":17600,"station_id":"","pricing_plan_id":"cebpf4jnsgd1na2vs0mg"},{"bike_id":"01cf742c-ef0c-4360-baa1-9926c551e02e","system_id":"levelo_inurba_marseille","lat":43.30147,"lon":5.39847,"is_reserved":false,"is_disabled":false,"rental_uris":{"android":"levelo://app?vid=01cf742c-ef0c-4360-baa1-9926c551e02e","ios":"levelo://app?vid=01cf742c-ef0c-4360-baa1-9926c551e02e"},"vehicle_type_id":"4","last_reported":1746990431,"current_range_meters":17600,"station_id":"ce4bh0h2rcd13ifvqd40","pricing_plan_id":"cebpf4jnsgd1na2vs0mg"},{"bike_id":"06587e68-878a-442a-819f-e8f268c0d376","system_id":"levelo_inurba_marseille","lat":43.2844,"lon":5.39175,"is_reserved":false,"is_disabled":false,"rental_uris":{"android":"levelo://app?vid=06587e68-878a-442a-819f-e8f268c0d376","ios":"levelo://app?vid=06587e68-878a-442a-819f-e8f268c0d376"},"vehicle_type_id":"4","last_reported":1746990431,"current_range_meters":17600,"station_id":"ce4bhoh2rcd13ifvqh5g","pricing_plan_id":"cebpf4jnsgd1na2vs0mg"},{"bike_id":"2a2e92a8-9be2-42a0-8f8b-e8c99ed20b3a","system_id":"levelo_inurba_marseille","lat":43.23162,"lon":5.39921,"is_reserved":false,"is_disabled":false,"rental_uris":{"android":"levelo://app?vid=2a2e92a8-9be2-42a0-8f8b-e8c99ed20b3a","ios":"levelo://app?vid=2a2e92a8-9be2-42a0-8f8b-e8c99ed20b3a"},"vehicle_type_id":"4","last_reported":1746990431,"current_range_meters":18000,"station_id":"","pricing_plan_id":"cebpf4jnsgd1na2vs0mg"},{"bike_id":"923bc3c8-9653-42f6-ab2d-a12cb585d499","system_id":"levelo_inurba_marseille","lat":43.2946,"lon":5.38693,"is_reserved":false,"is_disabled":false,"rental_uris":{"android":"levelo://app?vid=923bc3c8-9653-42f6-ab2d-a12cb585d499","ios":"levelo://app?vid=923bc3c8-9653-42f6-ab2d-a12cb585d499"},"vehicle_type_id":"4","last_reported":1746990431,"current_range_meters":18000,"station_id":"","pricing_plan_id":"cebpf4jnsgd1na2vs0mg"},{"bike_id":"ac754be4-9e6a-4394-8db1-1077f1394b37","system_id":"levelo_inurba_marseille","lat":43.29954,"lon":5.38506,"is_reserved":false,"is_disabled":false,"rental_uris":{"android":"levelo://app?vid=ac754be4-9e6a-4394-8db1-1077f1394b37","ios":"levelo://app?vid=ac754be4-9e6a-4394-8db1-1077f1394b37"},"vehicle_type_id":"4","last_reported":1746990431,"current_range_meters":18000,"station_id":"","pricing_plan_id":"cebpf4jnsgd1na2vs0mg"},{"bike_id":"0a485838-b1fb-4c34-a652-87365084735b","system_id":"levelo_inurba_marseille","lat":43.28452,"lon":5.35887,"is_reserved":false,"is_disabled":false,"rental_uris":{"android":"levelo://app?vid=0a485838-b1fb-4c34-a652-87365084735b","ios":"levelo://app?vid=0a485838-b1fb-4c34-a652-87365084735b"},"vehicle_type_id":"4","last_reported":1746990431,"current_range_meters":18000,"station_id":"ce4bhah2rcd13ifvqei0","pricing_plan_id":"cebpf4jnsgd1na2vs0mg"},{"bike_id":"c15f66a3-088a-4cca-a812-a4001348b4ff","system_id":"levelo_inurba_marseille","lat":43.30776,"lon":5.37642,"is_reserved":false,"is_disabled":false,"rental_uris":{"android":"levelo://app?vid=c15f66a3-088a-4cca-a812-a4001348b4ff","ios":"levelo://app?vid=c15f66a3-088a-4cca-a812-a4001348b4ff"},"vehicle_type_id":"4","last_reported":1746990431,"current_range_meters":18800,"station_id":"ce4bgv92rcd13ifvqcq0","pricing_plan_id":"cebpf4jnsgd1na2vs0mg"},{"bike_id":"99dbe6a3-f5d7-427a-b808-17b5bb6cd725","system_id":"levelo_inurba_marseille","lat":43.29782,"lon":5.39345,"is_reserved":false,"is_disabled":false,"rental_uris":{"android":"levelo://app?vid=99dbe6a3-f5d7-427a-b808-17b5bb6cd725","ios":"levelo://app?vid=99dbe6a3-f5d7-427a-b808-17b5bb6cd725"},"vehicle_type_id":"4","last_reported":1746990431,"current_range_meters":18800,"station_id":"chh1huq6cuj3fo74tm60","pricing_plan_id":"cebpf4jnsgd1na2vs0mg"},{"bike_id":"aca142bd-2716-4ee3-8c04-bd27c952c647","system_id":"levelo_inurba_marseille","lat":43.264478,"lon":5.375008,"is_reserved":false,"is_disabled":false,"rental_uris":{"android":"levelo://app?vid=aca142bd-2716-4ee3-8c04-bd27c952c647","ios":"levelo://app?vid=aca142bd-2716-4ee3-8c04-bd27c952c647"},"vehicle_type_id":"4","last_reported":1746990431,"current_range_meters":19200,"station_id":"","pricing_plan_id":"cebpf4jnsgd1na2vs0mg"},{"bike_id":"b07bfc09-4ee4-480d-951d-bf310d1d8d6c","system_id":"levelo_inurba_marseille","lat":43.32149,"lon":5.38454,"is_reserved":false,"is_disabled":false,"rental_uris":{"android":"levelo://app?vid=b07bfc09-4ee4-480d-951d-bf310d1d8d6c","ios":"levelo://app?vid=b07bfc09-4ee4-480d-951d-bf310d1d8d6c"},"vehicle_type_id":"4","last_reported":1746990431,"current_range_meters":19200,"station_id":"","pricing_plan_id":"cebpf4jnsgd1na2vs0mg"},{"bike_id":"a80cae73-ac91-4801-9717-d5f462facb87","system_id":"levelo_inurba_marseille","lat":43.30355,"lon":5.41875,"is_reserved":false,"is_disabled":false,"rental_uris":{"android":"levelo://app?vid=a80cae73-ac91-4801-9717-d5f462facb87","ios":"levelo://app?vid=a80cae73-ac91-4801-9717-d5f462facb87"},"vehicle_type_id":"4","last_reported":1746990431,"current_range_meters":19200,"station_id":"","pricing_plan_id":"cebpf4jnsgd1na2vs0mg"},{"bike_id":"e9616221-7423-4bfb-9840-191e8a239b7d","system_id":"levelo_inurba_marseille","lat":43.28405,"lon":5.3752,"is_reserved":false,"is_disabled":false,"rental_uris":{"android":"levelo://app?vid=e9616221-7423-4bfb-9840-191e8a239b7d","ios":"levelo://app?vid=e9616221-7423-4bfb-9840-191e8a239b7d"},"vehicle_type_id":"4","last_reported":1746990431,"current_range_meters":19200,"station_id":"ce4bh412rcd13ifvqds0","pricing_plan_id":"cebpf4jnsgd1na2vs0mg"},{"bike_id":"c1a87d98-ae1b-4a96-8676-6f3473b69ff6","system_id":"levelo_inurba_marseille","lat":43.28403,"lon":5.37549,"is_reserved":false,"is_disabled":false,"rental_uris":{"android":"levelo://app?vid=c1a87d98-ae1b-4a96-8676-6f3473b69ff6","ios":"levelo://app?vid=c1a87d98-ae1b-4a96-8676-6f3473b69ff6"},"vehicle_type_id":"4","last_reported":1746990431,"current_range_meters":19600,"station_id":"ce4bh412rcd13ifvqds0","pricing_plan_id":"cebpf4jnsgd1na2vs0mg"},{"bike_id":"3e214f43-5f69-4a00-89ef-f84830779be9","system_id":"levelo_inurba_marseille","lat":43.24545,"lon":5.39524,"is_reserved":false,"is_disabled":false,"rental_uris":{"android":"levelo://app?vid=3e214f43-5f69-4a00-89ef-f84830779be9","ios":"levelo://app?vid=3e214f43-5f69-4a00-89ef-f84830779be9"},"vehicle_type_id":"4","last_reported":1746990431,"current_range_meters":19600,"station_id":"ce4bhlp2rcd13ifvqgjg","pricing_plan_id":"cebpf4jnsgd1na2vs0mg"},{"bike_id":"d781856e-a078-46fa-af25-06aca1247578","system_id":"levelo_inurba_marseille","lat":43.296825,"lon":5.373008,"is_reserved":false,"is_disabled":false,"rental_uris":{"android":"levelo://app?vid=d781856e-a078-46fa-af25-06aca1247578","ios":"levelo://app?vid=d781856e-a078-46fa-af25-06aca1247578"},"vehicle_type_id":"4","last_reported":1746990431,"current_range_meters":20000,"station_id":"ce4bgk12rcd13ifvqbj0","pricing_plan_id":"cebpf4jnsgd1na2vs0mg"},{"bike_id":"b563129d-dbe8-41ec-ad41-e58670601124","system_id":"levelo_inurba_marseille","lat":43.2836,"lon":5.3809,"is_reserved":false,"is_disabled":false,"rental_uris":{"android":"levelo://app?vid=b563129d-dbe8-41ec-ad41-e58670601124","ios":"levelo://app?vid=b563129d-dbe8-41ec-ad41-e58670601124"},"vehicle_type_id":"4","last_reported":1746990431,"current_range_meters":20000,"station_id":"ce4bh412rcd13ifvqdr0","pricing_plan_id":"cebpf4jnsgd1na2vs0mg"},{"bike_id":"5e342362-7294-4de0-ab04-6d4a726e71c0","system_id":"levelo_inurba_marseille","lat":43.27494,"lon":5.4245,"is_reserved":false,"is_disabled":false,"rental_uris":{"android":"levelo://app?vid=5e342362-7294-4de0-ab04-6d4a726e71c0","ios":"levelo://app?vid=5e342362-7294-4de0-ab04-6d4a726e71c0"},"vehicle_type_id":"4","last_reported":1746990431,"current_range_meters":20000,"station_id":"ce4bhn92rcd13ifvqgrg","pricing_plan_id":"cebpf4jnsgd1na2vs0mg"},{"bike_id":"b336a229-0bf1-452c-97d8-afd000b0f02e","system_id":"levelo_inurba_marseille","lat":43.3249,"lon":5.36614,"is_reserved":false,"is_disabled":false,"rental_uris":{"android":"levelo://app?vid=b336a229-0bf1-452c-97d8-afd000b0f02e","ios":"levelo://app?vid=b336a229-0bf1-452c-97d8-afd000b0f02e"},"vehicle_type_id":"4","last_reported":1746990431,"current_range_meters":20400,"station_id":"ce4bhs12rcd13ifvqhvg","pricing_plan_id":"cebpf4jnsgd1na2vs0mg"},{"bike_id":"f3c12cce-61b5-4f6f-86ec-c6e9a17f8b80","system_id":"levelo_inurba_marseille","lat":43.31334,"lon":5.39689,"is_reserved":false,"is_disabled":false,"rental_uris":{"android":"levelo://app?vid=f3c12cce-61b5-4f6f-86ec-c6e9a17f8b80","ios":"levelo://app?vid=f3c12cce-61b5-4f6f-86ec-c6e9a17f8b80"},"vehicle_type_id":"4","last_reported":1746990431,"current_range_meters":20800,"station_id":"ce4bgvp2rcd13ifvqcu0","pricing_plan_id":"cebpf4jnsgd1na2vs0mg"},{"bike_id":"6d86b2a2-3634-44e3-82d8-02dbb3818f35","system_id":"levelo_inurba_marseille","lat":43.29631,"lon":5.40597,"is_reserved":false,"is_disabled":false,"rental_uris":{"android":"levelo://app?vid=6d86b2a2-3634-44e3-82d8-02dbb3818f35","ios":"levelo://app?vid=6d86b2a2-3634-44e3-82d8-02dbb3818f35"},"vehicle_type_id":"4","last_reported":1746990431,"current_range_meters":20800,"station_id":"ce4bh0h2rcd13ifvqd60","pricing_plan_id":"cebpf4jnsgd1na2vs0mg"},{"bike_id":"fe99ae06-6c0d-4aca-a34d-21418b93b6b6","system_id":"levelo_inurba_marseille","lat":43.27559,"lon":5.38446,"is_reserved":false,"is_disabled":false,"rental_uris":{"android":"levelo://app?vid=fe99ae06-6c0d-4aca-a34d-21418b93b6b6","ios":"levelo://app?vid=fe99ae06-6c0d-4aca-a34d-21418b93b6b6"},"vehicle_type_id":"4","last_reported":1746990431,"current_range_meters":20800,"station_id":"ce4bhh92rcd13ifvqfi0","pricing_plan_id":"cebpf4jnsgd1na2vs0mg"},{"bike_id":"efe7b5cd-2e6a-44b0-bcae-1ce3de81bef0","system_id":"levelo_inurba_marseille","lat":43.27827,"lon":5.39212,"is_reserved":false,"is_disabled":false,"rental_uris":{"android":"levelo://app?vid=efe7b5cd-2e6a-44b0-bcae-1ce3de81bef0","ios":"levelo://app?vid=efe7b5cd-2e6a-44b0-bcae-1ce3de81bef0"},"vehicle_type_id":"4","last_reported":1746990431,"current_range_meters":20800,"station_id":"ce4bhjp2rcd13ifvqga0","pricing_plan_id":"cebpf4jnsgd1na2vs0mg"},{"bike_id":"49cd10c3-0784-43af-8fd1-f5ac06fd8b90","system_id":"levelo_inurba_marseille","lat":43.27059,"lon":5.40259,"is_reserved":false,"is_disabled":false,"rental_uris":{"android":"levelo://app?vid=49cd10c3-0784-43af-8fd1-f5ac06fd8b90","ios":"levelo://app?vid=49cd10c3-0784-43af-8fd1-f5ac06fd8b90"},"vehicle_type_id":"4","last_reported":1746990431,"current_range_meters":20800,"station_id":"ce4bhk92rcd13ifvqgc0","pricing_plan_id":"cebpf4jnsgd1na2vs0mg"},{"bike_id":"076f2e6b-05c5-42e0-a757-9b6d1863bc1e","system_id":"levelo_inurba_marseille","lat":43.2799,"lon":5.40009,"is_reserved":false,"is_disabled":false,"rental_uris":{"android":"levelo://app?vid=076f2e6b-05c5-42e0-a757-9b6d1863bc1e","ios":"levelo://app?vid=076f2e6b-05c5-42e0-a757-9b6d1863bc1e"},"vehicle_type_id":"4","last_reported":1746990431,"current_range_meters":20800,"station_id":"ce4bho92rcd13ifvqh4g","pricing_plan_id":"cebpf4jnsgd1na2vs0mg"},{"bike_id":"2785cfe4-849f-413c-8a07-55dcfd134a8f","system_id":"levelo_inurba_marseille","lat":43.28729,"lon":5.36086,"is_reserved":false,"is_disabled":false,"rental_uris":{"android":"levelo://app?vid=2785cfe4-849f-413c-8a07-55dcfd134a8f","ios":"levelo://app?vid=2785cfe4-849f-413c-8a07-55dcfd134a8f"},"vehicle_type_id":"4","last_reported":1746990431,"current_range_meters":20800,"station_id":"cki0cbj6b192h4jlfktg","pricing_plan_id":"cebpf4jnsgd1na2vs0mg"},{"bike_id":"5c3b95e8-97d2-4ffe-8b68-313f931335cf","system_id":"levelo_inurba_marseille","lat":43.30177,"lon":5.36617,"is_reserved":false,"is_disabled":false,"rental_uris":{"android":"levelo://app?vid=5c3b95e8-97d2-4ffe-8b68-313f931335cf","ios":"levelo://app?vid=5c3b95e8-97d2-4ffe-8b68-313f931335cf"},"vehicle_type_id":"4","last_reported":1746990431,"current_range_meters":21600,"station_id":"ce4bgrh2rcd13ifvqc8g","pricing_plan_id":"cebpf4jnsgd1na2vs0mg"},{"bike_id":"c6f94e68-7c7b-43ef-8184-27f8965ee836","system_id":"levelo_inurba_marseille","lat":43.25122,"lon":5.40318,"is_reserved":false,"is_disabled":false,"rental_uris":{"android":"levelo://app?vid=c6f94e68-7c7b-43ef-8184-27f8965ee836","ios":"levelo://app?vid=c6f94e68-7c7b-43ef-8184-27f8965ee836"},"vehicle_type_id":"4","last_reported":1746990431,"current_range_meters":21600,"station_id":"ce4bhlh2rcd13ifvqgig","pricing_plan_id":"cebpf4jnsgd1na2vs0mg"},{"bike_id":"9b4145c2-df98-47b6-acbf-663461f5900c","system_id":"levelo_inurba_marseille","lat":43.28937,"lon":5.38396,"is_reserved":false,"is_disabled":false,"rental_uris":{"android":"levelo://app?vid=9b4145c2-df98-47b6-acbf-663461f5900c","ios":"levelo://app?vid=9b4145c2-df98-47b6-acbf-663461f5900c"},"vehicle_type_id":"4","last_reported":1746990431,"current_range_meters":22000,"station_id":"ce4bh612rcd13ifvqe6g","pricing_plan_id":"cebpf4jnsgd1na2vs0mg"},{"bike_id":"c1804f9f-9f2d-4342-98f5-bc656b529f81","system_id":"levelo_inurba_marseille","lat":43.27077,"lon":5.42261,"is_reserved":false,"is_disabled":false,"rental_uris":{"android":"levelo://app?vid=c1804f9f-9f2d-4342-98f5-bc656b529f81","ios":"levelo://app?vid=c1804f9f-9f2d-4342-98f5-bc656b529f81"},"vehicle_type_id":"4","last_reported":1746990431,"current_range_meters":22000,"station_id":"ce4bhk92rcd13ifvqgb0","pricing_plan_id":"cebpf4jnsgd1na2vs0mg"},{"bike_id":"e893cfa6-e06e-4e48-8bb1-b5441c83fddc","system_id":"levelo_inurba_marseille","lat":43.28667,"lon":5.36376,"is_reserved":false,"is_disabled":false,"rental_uris":{"android":"levelo://app?vid=e893cfa6-e06e-4e48-8bb1-b5441c83fddc","ios":"levelo://app?vid=e893cfa6-e06e-4e48-8bb1-b5441c83fddc"},"vehicle_type_id":"4","last_reported":1746990431,"current_range_meters":22400,"station_id":"ce4bhah2rcd13ifvqej0","pricing_plan_id":"cebpf4jnsgd1na2vs0mg"},{"bike_id":"b8bf2a08-843e-45f8-a5ba-247ce347a37f","system_id":"levelo_inurba_marseille","lat":43.26067,"lon":5.39398,"is_reserved":false,"is_disabled":false,"rental_uris":{"android":"levelo://app?vid=b8bf2a08-843e-45f8-a5ba-247ce347a37f","ios":"levelo://app?vid=b8bf2a08-843e-45f8-a5ba-247ce347a37f"},"vehicle_type_id":"4","last_reported":1746990431,"current_range_meters":22400,"station_id":"ce4bhh92rcd13ifvqfj0","pricing_plan_id":"cebpf4jnsgd1na2vs0mg"},{"bike_id":"f202ef3b-390d-4222-9c53-b7b067de17c2","system_id":"levelo_inurba_marseille","lat":43.28424,"lon":5.39192,"is_reserved":false,"is_disabled":false,"rental_uris":{"android":"levelo://app?vid=f202ef3b-390d-4222-9c53-b7b067de17c2","ios":"levelo://app?vid=f202ef3b-390d-4222-9c53-b7b067de17c2"},"vehicle_type_id":"4","last_reported":1746990431,"current_range_meters":22400,"station_id":"ce4bhoh2rcd13ifvqh5g","pricing_plan_id":"cebpf4jnsgd1na2vs0mg"},{"bike_id":"a1d92530-9f54-4f2b-a5df-8d9487a17148","system_id":"levelo_inurba_marseille","lat":43.32585,"lon":5.43077,"is_reserved":false,"is_disabled":false,"rental_uris":{"android":"levelo://app?vid=a1d92530-9f54-4f2b-a5df-8d9487a17148","ios":"levelo://app?vid=a1d92530-9f54-4f2b-a5df-8d9487a17148"},"vehicle_type_id":"4","last_reported":1746990431,"current_range_meters":22800,"station_id":"","pricing_plan_id":"cebpf4jnsgd1na2vs0mg"},{"bike_id":"72b0c6a4-5324-4c17-b07b-2cadd4685623","system_id":"levelo_inurba_marseille","lat":43.31366,"lon":5.38487,"is_reserved":false,"is_disabled":false,"rental_uris":{"android":"levelo://app?vid=72b0c6a4-5324-4c17-b07b-2cadd4685623","ios":"levelo://app?vid=72b0c6a4-5324-4c17-b07b-2cadd4685623"},"vehicle_type_id":"4","last_reported":1746990431,"current_range_meters":22800,"station_id":"ce4bgt92rcd13ifvqcf0","pricing_plan_id":"cebpf4jnsgd1na2vs0mg"},{"bike_id":"a650dd08-affc-4473-87ca-714e487fc33f","system_id":"levelo_inurba_marseille","lat":43.2558,"lon":5.3823,"is_reserved":false,"is_disabled":false,"rental_uris":{"android":"levelo://app?vid=a650dd08-affc-4473-87ca-714e487fc33f","ios":"levelo://app?vid=a650dd08-affc-4473-87ca-714e487fc33f"},"vehicle_type_id":"4","last_reported":1746990431,"current_range_meters":22800,"station_id":"ce4bhih2rcd13ifvqfs0","pricing_plan_id":"cebpf4jnsgd1na2vs0mg"},{"bike_id":"59c02524-0eb7-4d83-aa5b-f1fcf3d818d7","system_id":"levelo_inurba_marseille","lat":43.31166,"lon":5.38722,"is_reserved":false,"is_disabled":false,"rental_uris":{"android":"levelo://app?vid=59c02524-0eb7-4d83-aa5b-f1fcf3d818d7","ios":"levelo://app?vid=59c02524-0eb7-4d83-aa5b-f1fcf3d818d7"},"vehicle_type_id":"4","last_reported":1746990431,"current_range_meters":23200,"station_id":"ce4bgv12rcd13ifvqcp0","pricing_plan_id":"cebpf4jnsgd1na2vs0mg"},{"bike_id":"cb015153-d9a3-44e2-a7e4-cf0ffa79d7de","system_id":"levelo_inurba_marseille","lat":43.28719,"lon":5.37934,"is_reserved":false,"is_disabled":false,"rental_uris":{"android":"levelo://app?vid=cb015153-d9a3-44e2-a7e4-cf0ffa79d7de","ios":"levelo://app?vid=cb015153-d9a3-44e2-a7e4-cf0ffa79d7de"},"vehicle_type_id":"4","last_reported":1746990431,"current_range_meters":23200,"station_id":"ce4bh9p2rcd13ifvqec0","pricing_plan_id":"cebpf4jnsgd1na2vs0mg"},{"bike_id":"ece16582-1837-4071-aae1-f61eae095af0","system_id":"levelo_inurba_marseille","lat":43.2897,"lon":5.37845,"is_reserved":false,"is_disabled":false,"rental_uris":{"android":"levelo://app?vid=ece16582-1837-4071-aae1-f61eae095af0","ios":"levelo://app?vid=ece16582-1837-4071-aae1-f61eae095af0"},"vehicle_type_id":"4","last_reported":1746990431,"current_range_meters":23200,"station_id":"ce4bh9p2rcd13ifvqed0","pricing_plan_id":"cebpf4jnsgd1na2vs0mg"},{"bike_id":"bf8ab2b3-a5b8-4b44-9ccf-e0d7e23d9454","system_id":"levelo_inurba_marseille","lat":43.28454,"lon":5.358955,"is_reserved":false,"is_disabled":false,"rental_uris":{"android":"levelo://app?vid=bf8ab2b3-a5b8-4b44-9ccf-e0d7e23d9454","ios":"levelo://app?vid=bf8ab2b3-a5b8-4b44-9ccf-e0d7e23d9454"},"vehicle_type_id":"4","last_reported":1746990431,"current_range_meters":23200,"station_id":"ce4bhah2rcd13ifvqei0","pricing_plan_id":"cebpf4jnsgd1na2vs0mg"},{"bike_id":"2edf222e-8bd7-4b44-9530-c871e8557cb5","system_id":"levelo_inurba_marseille","lat":43.29202,"lon":5.39326,"is_reserved":false,"is_disabled":false,"rental_uris":{"android":"levelo://app?vid=2edf222e-8bd7-4b44-9530-c871e8557cb5","ios":"levelo://app?vid=2edf222e-8bd7-4b44-9530-c871e8557cb5"},"vehicle_type_id":"4","last_reported":1746990431,"current_range_meters":24000,"station_id":"ce4bh192rcd13ifvqdd0","pricing_plan_id":"cebpf4jnsgd1na2vs0mg"},{"bike_id":"ccc93e7a-bbcc-4de6-9d73-4a906704cb25","system_id":"levelo_inurba_marseille","lat":43.27983,"lon":5.38717,"is_reserved":false,"is_disabled":false,"rental_uris":{"android":"levelo://app?vid=ccc93e7a-bbcc-4de6-9d73-4a906704cb25","ios":"levelo://app?vid=ccc93e7a-bbcc-4de6-9d73-4a906704cb25"},"vehicle_type_id":"4","last_reported":1746990431,"current_range_meters":24000,"station_id":"ce4bhg12rcd13ifvqf80","pricing_plan_id":"cebpf4jnsgd1na2vs0mg"},{"bike_id":"ae5c05e5-943b-4a5a-9eb5-3c12157180ff","system_id":"levelo_inurba_marseille","lat":43.25575,"lon":5.38239,"is_reserved":false,"is_disabled":false,"rental_uris":{"android":"levelo://app?vid=ae5c05e5-943b-4a5a-9eb5-3c12157180ff","ios":"levelo://app?vid=ae5c05e5-943b-4a5a-9eb5-3c12157180ff"},"vehicle_type_id":"4","last_reported":1746990431,"current_range_meters":24000,"station_id":"ce4bhih2rcd13ifvqfs0","pricing_plan_id":"cebpf4jnsgd1na2vs0mg"},{"bike_id":"29e16365-5965-4ec3-8bb4-6648ec3e22c6","system_id":"levelo_inurba_marseille","lat":43.25819,"lon":5.39438,"is_reserved":false,"is_disabled":false,"rental_uris":{"android":"levelo://app?vid=29e16365-5965-4ec3-8bb4-6648ec3e22c6","ios":"levelo://app?vid=29e16365-5965-4ec3-8bb4-6648ec3e22c6"},"vehicle_type_id":"4","last_reported":1746990431,"current_range_meters":24000,"station_id":"ce4bhip2rcd13ifvqft0","pricing_plan_id":"cebpf4jnsgd1na2vs0mg"},{"bike_id":"bf4be328-2214-4d95-9b1d-5e9e88e5ccd0","system_id":"levelo_inurba_marseille","lat":43.27061,"lon":5.4026,"is_reserved":false,"is_disabled":false,"rental_uris":{"android":"levelo://app?vid=bf4be328-2214-4d95-9b1d-5e9e88e5ccd0","ios":"levelo://app?vid=bf4be328-2214-4d95-9b1d-5e9e88e5ccd0"},"vehicle_type_id":"4","last_reported":1746990431,"current_range_meters":24000,"station_id":"ce4bhk92rcd13ifvqgc0","pricing_plan_id":"cebpf4jnsgd1na2vs0mg"},{"bike_id":"36fd7042-62d9-493c-8a59-a394652c22d0","system_id":"levelo_inurba_marseille","lat":43.25113,"lon":5.40316,"is_reserved":false,"is_disabled":false,"rental_uris":{"android":"levelo://app?vid=36fd7042-62d9-493c-8a59-a394652c22d0","ios":"levelo://app?vid=36fd7042-62d9-493c-8a59-a394652c22d0"},"vehicle_type_id":"4","last_reported":1746990431,"current_range_meters":24000,"station_id":"ce4bhlh2rcd13ifvqgig","pricing_plan_id":"cebpf4jnsgd1na2vs0mg"},{"bike_id":"fcf9463b-401b-4157-a5a9-4c36ca7d015d","system_id":"levelo_inurba_marseille","lat":43.307237,"lon":5.371343,"is_reserved":false,"is_disabled":false,"rental_uris":{"android":"levelo://app?vid=fcf9463b-401b-4157-a5a9-4c36ca7d015d","ios":"levelo://app?vid=fcf9463b-401b-4157-a5a9-4c36ca7d015d"},"vehicle_type_id":"4","last_reported":1746990431,"current_range_meters":24400,"station_id":"","pricing_plan_id":"cebpf4jnsgd1na2vs0mg"},{"bike_id":"a3571ddc-fff9-4b05-a012-042374fc13a9","system_id":"levelo_inurba_marseille","lat":43.24084,"lon":5.37752,"is_reserved":false,"is_disabled":false,"rental_uris":{"android":"levelo://app?vid=a3571ddc-fff9-4b05-a012-042374fc13a9","ios":"levelo://app?vid=a3571ddc-fff9-4b05-a012-042374fc13a9"},"vehicle_type_id":"4","last_reported":1746990431,"current_range_meters":24400,"station_id":"ce4bhnp2rcd13ifvqgvg","pricing_plan_id":"cebpf4jnsgd1na2vs0mg"},{"bike_id":"a272e2b0-ec55-470a-891a-c7cf2bb7aead","system_id":"levelo_inurba_marseille","lat":43.26791,"lon":5.39417,"is_reserved":false,"is_disabled":false,"rental_uris":{"android":"levelo://app?vid=a272e2b0-ec55-470a-891a-c7cf2bb7aead","ios":"levelo://app?vid=a272e2b0-ec55-470a-891a-c7cf2bb7aead"},"vehicle_type_id":"4","last_reported":1746990431,"current_range_meters":24800,"station_id":"ce4bhh12rcd13ifvqfg0","pricing_plan_id":"cebpf4jnsgd1na2vs0mg"},{"bike_id":"c019d83d-8ae1-412d-abe9-9d506638fd07","system_id":"levelo_inurba_marseille","lat":43.27496,"lon":5.42448,"is_reserved":false,"is_disabled":false,"rental_uris":{"android":"levelo://app?vid=c019d83d-8ae1-412d-abe9-9d506638fd07","ios":"levelo://app?vid=c019d83d-8ae1-412d-abe9-9d506638fd07"},"vehicle_type_id":"4","last_reported":1746990431,"current_range_meters":24800,"station_id":"ce4bhn92rcd13ifvqgrg","pricing_plan_id":"cebpf4jnsgd1na2vs0mg"},{"bike_id":"5aeb79f8-ce7a-43cd-96ad-123e13218a15","system_id":"levelo_inurba_marseille","lat":43.27981,"lon":5.41656,"is_reserved":false,"is_disabled":false,"rental_uris":{"android":"levelo://app?vid=5aeb79f8-ce7a-43cd-96ad-123e13218a15","ios":"levelo://app?vid=5aeb79f8-ce7a-43cd-96ad-123e13218a15"},"vehicle_type_id":"4","last_reported":1746990431,"current_range_meters":24800,"station_id":"ce4bho12rcd13ifvqh1g","pricing_plan_id":"cebpf4jnsgd1na2vs0mg"},{"bike_id":"1aeff0df-0e55-45ad-ba82-77e85ed583ca","system_id":"levelo_inurba_marseille","lat":43.32486,"lon":5.36568,"is_reserved":false,"is_disabled":false,"rental_uris":{"android":"levelo://app?vid=1aeff0df-0e55-45ad-ba82-77e85ed583ca","ios":"levelo://app?vid=1aeff0df-0e55-45ad-ba82-77e85ed583ca"},"vehicle_type_id":"4","last_reported":1746990431,"current_range_meters":24800,"station_id":"ce4bhs12rcd13ifvqhvg","pricing_plan_id":"cebpf4jnsgd1na2vs0mg"},{"bike_id":"a2bed9dc-6cc1-428d-9c5a-0c464d9f7c5c","system_id":"levelo_inurba_marseille","lat":43.33097,"lon":5.381505,"is_reserved":false,"is_disabled":false,"rental_uris":{"android":"levelo://app?vid=a2bed9dc-6cc1-428d-9c5a-0c464d9f7c5c","ios":"levelo://app?vid=a2bed9dc-6cc1-428d-9c5a-0c464d9f7c5c"},"vehicle_type_id":"4","last_reported":1746990431,"current_range_meters":25200,"station_id":"","pricing_plan_id":"cebpf4jnsgd1na2vs0mg"},{"bike_id":"bf0c4a52-4226-46a9-ba4c-0bc9d19b1429","system_id":"levelo_inurba_marseille","lat":43.292565,"lon":5.37643,"is_reserved":false,"is_disabled":false,"rental_uris":{"android":"levelo://app?vid=bf0c4a52-4226-46a9-ba4c-0bc9d19b1429","ios":"levelo://app?vid=bf0c4a52-4226-46a9-ba4c-0bc9d19b1429"},"vehicle_type_id":"4","last_reported":1746990431,"current_range_meters":25200,"station_id":"ce4bgi12rcd13ifvqb80","pricing_plan_id":"cebpf4jnsgd1na2vs0mg"},{"bike_id":"042da46b-9625-43db-87ed-b7a056d464ba","system_id":"levelo_inurba_marseille","lat":43.28461,"lon":5.35895,"is_reserved":false,"is_disabled":false,"rental_uris":{"android":"levelo://app?vid=042da46b-9625-43db-87ed-b7a056d464ba","ios":"levelo://app?vid=042da46b-9625-43db-87ed-b7a056d464ba"},"vehicle_type_id":"4","last_reported":1746990431,"current_range_meters":25200,"station_id":"ce4bhah2rcd13ifvqei0","pricing_plan_id":"cebpf4jnsgd1na2vs0mg"},{"bike_id":"5c749cc0-59b6-4d10-be7a-de3d100ffa5e","system_id":"levelo_inurba_marseille","lat":43.29915,"lon":5.37487,"is_reserved":false,"is_disabled":false,"rental_uris":{"android":"levelo://app?vid=5c749cc0-59b6-4d10-be7a-de3d100ffa5e","ios":"levelo://app?vid=5c749cc0-59b6-4d10-be7a-de3d100ffa5e"},"vehicle_type_id":"4","last_reported":1746990431,"current_range_meters":25600,"station_id":"ce4bgjh2rcd13ifvqbg0","pricing_plan_id":"cebpf4jnsgd1na2vs0mg"},{"bike_id":"d02e6451-e516-4f8c-9a29-efbb81ab4a82","system_id":"levelo_inurba_marseille","lat":43.30424,"lon":5.38894,"is_reserved":false,"is_disabled":false,"rental_uris":{"android":"levelo://app?vid=d02e6451-e516-4f8c-9a29-efbb81ab4a82","ios":"levelo://app?vid=d02e6451-e516-4f8c-9a29-efbb81ab4a82"},"vehicle_type_id":"4","last_reported":1746990431,"current_range_meters":25600,"station_id":"ce4bgk12rcd13ifvqbi0","pricing_plan_id":"cebpf4jnsgd1na2vs0mg"},{"bike_id":"e7ecf296-77db-4a7a-841c-65837e73a669","system_id":"levelo_inurba_marseille","lat":43.28667,"lon":5.3636,"is_reserved":false,"is_disabled":false,"rental_uris":{"android":"levelo://app?vid=e7ecf296-77db-4a7a-841c-65837e73a669","ios":"levelo://app?vid=e7ecf296-77db-4a7a-841c-65837e73a669"},"vehicle_type_id":"4","last_reported":1746990431,"current_range_meters":25600,"station_id":"ce4bhah2rcd13ifvqej0","pricing_plan_id":"cebpf4jnsgd1na2vs0mg"},{"bike_id":"94049045-22df-4388-879d-7005e5088c9a","system_id":"levelo_inurba_marseille","lat":43.27923,"lon":5.39581,"is_reserved":false,"is_disabled":false,"rental_uris":{"android":"levelo://app?vid=94049045-22df-4388-879d-7005e5088c9a","ios":"levelo://app?vid=94049045-22df-4388-879d-7005e5088c9a"},"vehicle_type_id":"4","last_reported":1746990431,"current_range_meters":25600,"station_id":"ce4bhf92rcd13ifvqf40","pricing_plan_id":"cebpf4jnsgd1na2vs0mg"},{"bike_id":"81e56a83-0f38-4053-8247-0af6d61d1407","system_id":"levelo_inurba_marseille","lat":43.31879,"lon":5.40743,"is_reserved":false,"is_disabled":false,"rental_uris":{"android":"levelo://app?vid=81e56a83-0f38-4053-8247-0af6d61d1407","ios":"levelo://app?vid=81e56a83-0f38-4053-8247-0af6d61d1407"},"vehicle_type_id":"4","last_reported":1746990431,"current_range_meters":25600,"station_id":"ce4bhq12rcd13ifvqhig","pricing_plan_id":"cebpf4jnsgd1na2vs0mg"},{"bike_id":"56eec975-bbe0-4558-a568-0ee7423bb0eb","system_id":"levelo_inurba_marseille","lat":43.24168,"lon":5.36394,"is_reserved":false,"is_disabled":false,"rental_uris":{"android":"levelo://app?vid=56eec975-bbe0-4558-a568-0ee7423bb0eb","ios":"levelo://app?vid=56eec975-bbe0-4558-a568-0ee7423bb0eb"},"vehicle_type_id":"4","last_reported":1746990431,"current_range_meters":25600,"station_id":"cpo36qri1sfpv3e86is0","pricing_plan_id":"cebpf4jnsgd1na2vs0mg"},{"bike_id":"bb1cba0c-15b5-488c-ba8f-0e5ab455000a","system_id":"levelo_inurba_marseille","lat":43.29059,"lon":5.37166,"is_reserved":false,"is_disabled":false,"rental_uris":{"android":"levelo://app?vid=bb1cba0c-15b5-488c-ba8f-0e5ab455000a","ios":"levelo://app?vid=bb1cba0c-15b5-488c-ba8f-0e5ab455000a"},"vehicle_type_id":"4","last_reported":1746990431,"current_range_meters":26000,"station_id":"ce4bh5p2rcd13ifvqe4g","pricing_plan_id":"cebpf4jnsgd1na2vs0mg"},{"bike_id":"765f70f6-e5b6-4b61-bf2e-a75d5d0d10d2","system_id":"levelo_inurba_marseille","lat":43.26064,"lon":5.39402,"is_reserved":false,"is_disabled":false,"rental_uris":{"android":"levelo://app?vid=765f70f6-e5b6-4b61-bf2e-a75d5d0d10d2","ios":"levelo://app?vid=765f70f6-e5b6-4b61-bf2e-a75d5d0d10d2"},"vehicle_type_id":"4","last_reported":1746990431,"current_range_meters":26000,"station_id":"ce4bhh92rcd13ifvqfj0","pricing_plan_id":"cebpf4jnsgd1na2vs0mg"},{"bike_id":"91c16720-63af-498f-a799-6c9da45bdc71","system_id":"levelo_inurba_marseille","lat":43.24544,"lon":5.39534,"is_reserved":false,"is_disabled":false,"rental_uris":{"android":"levelo://app?vid=91c16720-63af-498f-a799-6c9da45bdc71","ios":"levelo://app?vid=91c16720-63af-498f-a799-6c9da45bdc71"},"vehicle_type_id":"4","last_reported":1746990431,"current_range_meters":26000,"station_id":"ce4bhlp2rcd13ifvqgjg","pricing_plan_id":"cebpf4jnsgd1na2vs0mg"},{"bike_id":"f4b72072-36cd-49a3-b411-09bf76547903","system_id":"levelo_inurba_marseille","lat":43.28003,"lon":5.40012,"is_reserved":false,"is_disabled":false,"rental_uris":{"android":"levelo://app?vid=f4b72072-36cd-49a3-b411-09bf76547903","ios":"levelo://app?vid=f4b72072-36cd-49a3-b411-09bf76547903"},"vehicle_type_id":"4","last_reported":1746990431,"current_range_meters":26000,"station_id":"ce4bho92rcd13ifvqh4g","pricing_plan_id":"cebpf4jnsgd1na2vs0mg"},{"bike_id":"15cd6163-2517-499d-865d-ff2f20320df0","system_id":"levelo_inurba_marseille","lat":43.29964,"lon":5.3718,"is_reserved":false,"is_disabled":false,"rental_uris":{"android":"levelo://app?vid=15cd6163-2517-499d-865d-ff2f20320df0","ios":"levelo://app?vid=15cd6163-2517-499d-865d-ff2f20320df0"},"vehicle_type_id":"4","last_reported":1746990431,"current_range_meters":26800,"station_id":"ce4bgr92rcd13ifvqc7g","pricing_plan_id":"cebpf4jnsgd1na2vs0mg"},{"bike_id":"17961135-de59-4049-b895-6b390d386604","system_id":"levelo_inurba_marseille","lat":43.30626,"lon":5.38428,"is_reserved":false,"is_disabled":false,"rental_uris":{"android":"levelo://app?vid=17961135-de59-4049-b895-6b390d386604","ios":"levelo://app?vid=17961135-de59-4049-b895-6b390d386604"},"vehicle_type_id":"4","last_reported":1746990431,"current_range_meters":27200,"station_id":"","pricing_plan_id":"cebpf4jnsgd1na2vs0mg"},{"bike_id":"fd521b05-5c2f-4554-ace0-561e62e01f78","system_id":"levelo_inurba_marseille","lat":43.29617,"lon":5.37721,"is_reserved":false,"is_disabled":false,"rental_uris":{"android":"levelo://app?vid=fd521b05-5c2f-4554-ace0-561e62e01f78","ios":"levelo://app?vid=fd521b05-5c2f-4554-ace0-561e62e01f78"},"vehicle_type_id":"4","last_reported":1746990431,"current_range_meters":27200,"station_id":"ce4bgi92rcd13ifvqb90","pricing_plan_id":"cebpf4jnsgd1na2vs0mg"},{"bike_id":"5fa445e4-108a-4dee-b06a-5871b85327cb","system_id":"levelo_inurba_marseille","lat":43.30588,"lon":5.37255,"is_reserved":false,"is_disabled":false,"rental_uris":{"android":"levelo://app?vid=5fa445e4-108a-4dee-b06a-5871b85327cb","ios":"levelo://app?vid=5fa445e4-108a-4dee-b06a-5871b85327cb"},"vehicle_type_id":"4","last_reported":1746990431,"current_range_meters":27200,"station_id":"ce4bgqh2rcd13ifvqc4g","pricing_plan_id":"cebpf4jnsgd1na2vs0mg"},{"bike_id":"5f72d394-cae5-4b34-93db-027edb3321e5","system_id":"levelo_inurba_marseille","lat":43.30246,"lon":5.40064,"is_reserved":false,"is_disabled":false,"rental_uris":{"android":"levelo://app?vid=5f72d394-cae5-4b34-93db-027edb3321e5","ios":"levelo://app?vid=5f72d394-cae5-4b34-93db-027edb3321e5"},"vehicle_type_id":"4","last_reported":1746990431,"current_range_meters":27200,"station_id":"ce4bgvh2rcd13ifvqcs0","pricing_plan_id":"cebpf4jnsgd1na2vs0mg"},{"bike_id":"537ee78d-3d63-469d-9eb9-bbc039b4acf7","system_id":"levelo_inurba_marseille","lat":43.29257,"lon":5.38444,"is_reserved":false,"is_disabled":false,"rental_uris":{"android":"levelo://app?vid=537ee78d-3d63-469d-9eb9-bbc039b4acf7","ios":"levelo://app?vid=537ee78d-3d63-469d-9eb9-bbc039b4acf7"},"vehicle_type_id":"4","last_reported":1746990431,"current_range_meters":27200,"station_id":"ce4bh692rcd13ifvqea0","pricing_plan_id":"cebpf4jnsgd1na2vs0mg"},{"bike_id":"c2f46fcf-2d98-4a53-915b-9b0e7a792171","system_id":"levelo_inurba_marseille","lat":43.26571,"lon":5.39023,"is_reserved":false,"is_disabled":false,"rental_uris":{"android":"levelo://app?vid=c2f46fcf-2d98-4a53-915b-9b0e7a792171","ios":"levelo://app?vid=c2f46fcf-2d98-4a53-915b-9b0e7a792171"},"vehicle_type_id":"4","last_reported":1746990431,"current_range_meters":27200,"station_id":"ce4bhe12rcd13ifvqf30","pricing_plan_id":"cebpf4jnsgd1na2vs0mg"},{"bike_id":"e613626b-0ba7-4a6e-84b7-46810540ba9b","system_id":"levelo_inurba_marseille","lat":43.24658,"lon":5.38161,"is_reserved":false,"is_disabled":false,"rental_uris":{"android":"levelo://app?vid=e613626b-0ba7-4a6e-84b7-46810540ba9b","ios":"levelo://app?vid=e613626b-0ba7-4a6e-84b7-46810540ba9b"},"vehicle_type_id":"4","last_reported":1746990431,"current_range_meters":27200,"station_id":"ce4bhih2rcd13ifvqfr0","pricing_plan_id":"cebpf4jnsgd1na2vs0mg"},{"bike_id":"8c0898ed-79e8-4483-939c-d9b2809f5072","system_id":"levelo_inurba_marseille","lat":43.30816,"lon":5.38164,"is_reserved":false,"is_disabled":false,"rental_uris":{"android":"levelo://app?vid=8c0898ed-79e8-4483-939c-d9b2809f5072","ios":"levelo://app?vid=8c0898ed-79e8-4483-939c-d9b2809f5072"},"vehicle_type_id":"4","last_reported":1746990431,"current_range_meters":27600,"station_id":"ce4bgt12rcd13ifvqce0","pricing_plan_id":"cebpf4jnsgd1na2vs0mg"},{"bike_id":"3cd9ddf8-cdb9-41f4-b9f8-1906610f5e85","system_id":"levelo_inurba_marseille","lat":43.27071,"lon":5.42282,"is_reserved":false,"is_disabled":false,"rental_uris":{"android":"levelo://app?vid=3cd9ddf8-cdb9-41f4-b9f8-1906610f5e85","ios":"levelo://app?vid=3cd9ddf8-cdb9-41f4-b9f8-1906610f5e85"},"vehicle_type_id":"4","last_reported":1746990431,"current_range_meters":28000,"station_id":"ce4bhk92rcd13ifvqgb0","pricing_plan_id":"cebpf4jnsgd1na2vs0mg"},{"bike_id":"1297402a-0699-4324-a067-80a0da342625","system_id":"levelo_inurba_marseille","lat":43.25746,"lon":5.41106,"is_reserved":false,"is_disabled":false,"rental_uris":{"android":"levelo://app?vid=1297402a-0699-4324-a067-80a0da342625","ios":"levelo://app?vid=1297402a-0699-4324-a067-80a0da342625"},"vehicle_type_id":"4","last_reported":1746990431,"current_range_meters":28000,"station_id":"ce4bhkp2rcd13ifvqgd0","pricing_plan_id":"cebpf4jnsgd1na2vs0mg"},{"bike_id":"77c20f61-b62f-4394-aae9-7704e597bbdf","system_id":"levelo_inurba_marseille","lat":43.305934,"lon":5.372258,"is_reserved":false,"is_disabled":false,"rental_uris":{"android":"levelo://app?vid=77c20f61-b62f-4394-aae9-7704e597bbdf","ios":"levelo://app?vid=77c20f61-b62f-4394-aae9-7704e597bbdf"},"vehicle_type_id":"4","last_reported":1746990431,"current_range_meters":28800,"station_id":"ce4bgqh2rcd13ifvqc4g","pricing_plan_id":"cebpf4jnsgd1na2vs0mg"},{"bike_id":"5e172bef-35dd-4b0a-a3cc-37b33c35f929","system_id":"levelo_inurba_marseille","lat":43.30783,"lon":5.37654,"is_reserved":false,"is_disabled":false,"rental_uris":{"android":"levelo://app?vid=5e172bef-35dd-4b0a-a3cc-37b33c35f929","ios":"levelo://app?vid=5e172bef-35dd-4b0a-a3cc-37b33c35f929"},"vehicle_type_id":"4","last_reported":1746990431,"current_range_meters":28800,"station_id":"ce4bgv92rcd13ifvqcq0","pricing_plan_id":"cebpf4jnsgd1na2vs0mg"},{"bike_id":"faf262db-6e1f-4827-b5d0-416ad398b45b","system_id":"levelo_inurba_marseille","lat":43.28856,"lon":5.39307,"is_reserved":false,"is_disabled":false,"rental_uris":{"android":"levelo://app?vid=faf262db-6e1f-4827-b5d0-416ad398b45b","ios":"levelo://app?vid=faf262db-6e1f-4827-b5d0-416ad398b45b"},"vehicle_type_id":"4","last_reported":1746990431,"current_range_meters":28800,"station_id":"ce4bh2p2rcd13ifvqdi0","pricing_plan_id":"cebpf4jnsgd1na2vs0mg"},{"bike_id":"895d8367-0af9-4982-bdbc-164bdca9946c","system_id":"levelo_inurba_marseille","lat":43.29536,"lon":5.38539,"is_reserved":false,"is_disabled":false,"rental_uris":{"android":"levelo://app?vid=895d8367-0af9-4982-bdbc-164bdca9946c","ios":"levelo://app?vid=895d8367-0af9-4982-bdbc-164bdca9946c"},"vehicle_type_id":"4","last_reported":1746990431,"current_range_meters":29600,"station_id":"ce4bgih2rcd13ifvqba0","pricing_plan_id":"cebpf4jnsgd1na2vs0mg"},{"bike_id":"8d280afa-9953-4524-8857-a23231819228","system_id":"levelo_inurba_marseille","lat":43.28854,"lon":5.393,"is_reserved":false,"is_disabled":false,"rental_uris":{"android":"levelo://app?vid=8d280afa-9953-4524-8857-a23231819228","ios":"levelo://app?vid=8d280afa-9953-4524-8857-a23231819228"},"vehicle_type_id":"4","last_reported":1746990431,"current_range_meters":29600,"station_id":"ce4bh2p2rcd13ifvqdi0","pricing_plan_id":"cebpf4jnsgd1na2vs0mg"},{"bike_id":"4c553312-7a56-4420-94be-4db995548186","system_id":"levelo_inurba_marseille","lat":43.293409,"lon":5.434248,"is_reserved":false,"is_disabled":false,"rental_uris":{"android":"levelo://app?vid=4c553312-7a56-4420-94be-4db995548186","ios":"levelo://app?vid=4c553312-7a56-4420-94be-4db995548186"},"vehicle_type_id":"4","last_reported":1746990431,"current_range_meters":30000,"station_id":"","pricing_plan_id":"cebpf4jnsgd1na2vs0mg"},{"bike_id":"596c5539-c13b-4d82-89b9-77c7aa0ecbfe","system_id":"levelo_inurba_marseille","lat":43.34268,"lon":5.38506,"is_reserved":false,"is_disabled":false,"rental_uris":{"android":"levelo://app?vid=596c5539-c13b-4d82-89b9-77c7aa0ecbfe","ios":"levelo://app?vid=596c5539-c13b-4d82-89b9-77c7aa0ecbfe"},"vehicle_type_id":"4","last_reported":1746990431,"current_range_meters":30000,"station_id":"","pricing_plan_id":"cebpf4jnsgd1na2vs0mg"},{"bike_id":"68b5b6a9-a8df-4c08-9bf7-97d9c5ae502c","system_id":"levelo_inurba_marseille","lat":43.30295,"lon":5.3921,"is_reserved":false,"is_disabled":false,"rental_uris":{"android":"levelo://app?vid=68b5b6a9-a8df-4c08-9bf7-97d9c5ae502c","ios":"levelo://app?vid=68b5b6a9-a8df-4c08-9bf7-97d9c5ae502c"},"vehicle_type_id":"4","last_reported":1746990431,"current_range_meters":30000,"station_id":"ce4bgkh2rcd13ifvqbk0","pricing_plan_id":"cebpf4jnsgd1na2vs0mg"},{"bike_id":"8ca7f4be-37fb-47ec-8f0d-00dcb483855b","system_id":"levelo_inurba_marseille","lat":43.282538,"lon":5.424174,"is_reserved":false,"is_disabled":false,"rental_uris":{"android":"levelo://app?vid=8ca7f4be-37fb-47ec-8f0d-00dcb483855b","ios":"levelo://app?vid=8ca7f4be-37fb-47ec-8f0d-00dcb483855b"},"vehicle_type_id":"4","last_reported":1746990431,"current_range_meters":30400,"station_id":"","pricing_plan_id":"cebpf4jnsgd1na2vs0mg"},{"bike_id":"a8284ba7-2637-4f7a-8eef-d46109e557d7","system_id":"levelo_inurba_marseille","lat":43.31169,"lon":5.38721,"is_reserved":false,"is_disabled":false,"rental_uris":{"android":"levelo://app?vid=a8284ba7-2637-4f7a-8eef-d46109e557d7","ios":"levelo://app?vid=a8284ba7-2637-4f7a-8eef-d46109e557d7"},"vehicle_type_id":"4","last_reported":1746990431,"current_range_meters":30400,"station_id":"ce4bgv12rcd13ifvqcp0","pricing_plan_id":"cebpf4jnsgd1na2vs0mg"},{"bike_id":"da7d4033-5f15-423c-9dc3-1223fabcc720","system_id":"levelo_inurba_marseille","lat":43.29593,"lon":5.38105,"is_reserved":false,"is_disabled":false,"rental_uris":{"android":"levelo://app?vid=da7d4033-5f15-423c-9dc3-1223fabcc720","ios":"levelo://app?vid=da7d4033-5f15-423c-9dc3-1223fabcc720"},"vehicle_type_id":"4","last_reported":1746990431,"current_range_meters":30800,"station_id":"ce4bgl12rcd13ifvqbo0","pricing_plan_id":"cebpf4jnsgd1na2vs0mg"},{"bike_id":"afc69a59-d33b-405e-85f8-8b792718a02e","system_id":"levelo_inurba_marseille","lat":43.29258,"lon":5.40919,"is_reserved":false,"is_disabled":false,"rental_uris":{"android":"levelo://app?vid=afc69a59-d33b-405e-85f8-8b792718a02e","ios":"levelo://app?vid=afc69a59-d33b-405e-85f8-8b792718a02e"},"vehicle_type_id":"4","last_reported":1746990431,"current_range_meters":30800,"station_id":"ce4bh192rcd13ifvqdc0","pricing_plan_id":"cebpf4jnsgd1na2vs0mg"},{"bike_id":"10d14cc9-dbb2-49bc-9fa7-eb8f1def130e","system_id":"levelo_inurba_marseille","lat":43.25871,"lon":5.39905,"is_reserved":false,"is_disabled":false,"rental_uris":{"android":"levelo://app?vid=10d14cc9-dbb2-49bc-9fa7-eb8f1def130e","ios":"levelo://app?vid=10d14cc9-dbb2-49bc-9fa7-eb8f1def130e"},"vehicle_type_id":"4","last_reported":1746990431,"current_range_meters":30800,"station_id":"ce4bhl92rcd13ifvqghg","pricing_plan_id":"cebpf4jnsgd1na2vs0mg"},{"bike_id":"cdc62916-98c5-4459-a4cd-4b71ee75b9fc","system_id":"levelo_inurba_marseille","lat":43.26037,"lon":5.41769,"is_reserved":false,"is_disabled":false,"rental_uris":{"android":"levelo://app?vid=cdc62916-98c5-4459-a4cd-4b71ee75b9fc","ios":"levelo://app?vid=cdc62916-98c5-4459-a4cd-4b71ee75b9fc"},"vehicle_type_id":"4","last_reported":1746990431,"current_range_meters":31200,"station_id":"","pricing_plan_id":"cebpf4jnsgd1na2vs0mg"},{"bike_id":"6c1911ef-79a1-44f7-bfa0-317806161e5f","system_id":"levelo_inurba_marseille","lat":43.29572,"lon":5.37514,"is_reserved":false,"is_disabled":false,"rental_uris":{"android":"levelo://app?vid=6c1911ef-79a1-44f7-bfa0-317806161e5f","ios":"levelo://app?vid=6c1911ef-79a1-44f7-bfa0-317806161e5f"},"vehicle_type_id":"4","last_reported":1746990431,"current_range_meters":31200,"station_id":"ce4bgh92rcd13ifvqb50","pricing_plan_id":"cebpf4jnsgd1na2vs0mg"},{"bike_id":"76112aa4-17eb-4d7e-8a34-2f32385dc2b1","system_id":"levelo_inurba_marseille","lat":43.29537,"lon":5.37497,"is_reserved":false,"is_disabled":false,"rental_uris":{"android":"levelo://app?vid=76112aa4-17eb-4d7e-8a34-2f32385dc2b1","ios":"levelo://app?vid=76112aa4-17eb-4d7e-8a34-2f32385dc2b1"},"vehicle_type_id":"4","last_reported":1746990431,"current_range_meters":31200,"station_id":"ce4bgkp2rcd13ifvqbmg","pricing_plan_id":"cebpf4jnsgd1na2vs0mg"},{"bike_id":"c843e039-fa38-4625-89fb-4bbc10568e89","system_id":"levelo_inurba_marseille","lat":43.28688,"lon":5.38679,"is_reserved":false,"is_disabled":false,"rental_uris":{"android":"levelo://app?vid=c843e039-fa38-4625-89fb-4bbc10568e89","ios":"levelo://app?vid=c843e039-fa38-4625-89fb-4bbc10568e89"},"vehicle_type_id":"4","last_reported":1746990431,"current_range_meters":31200,"station_id":"ce4bh492rcd13ifvqdug","pricing_plan_id":"cebpf4jnsgd1na2vs0mg"},{"bike_id":"beafa0a9-b465-49eb-ad9f-c21a0b0f1663","system_id":"levelo_inurba_marseille","lat":43.30397,"lon":5.41847,"is_reserved":false,"is_disabled":false,"rental_uris":{"android":"levelo://app?vid=beafa0a9-b465-49eb-ad9f-c21a0b0f1663","ios":"levelo://app?vid=beafa0a9-b465-49eb-ad9f-c21a0b0f1663"},"vehicle_type_id":"4","last_reported":1746990431,"current_range_meters":31200,"station_id":"ce4bhop2rcd13ifvqh7g","pricing_plan_id":"cebpf4jnsgd1na2vs0mg"},{"bike_id":"a85bd4b9-4621-43d4-83f7-4ad07d6befec","system_id":"levelo_inurba_marseille","lat":43.32338,"lon":5.40621,"is_reserved":false,"is_disabled":false,"rental_uris":{"android":"levelo://app?vid=a85bd4b9-4621-43d4-83f7-4ad07d6befec","ios":"levelo://app?vid=a85bd4b9-4621-43d4-83f7-4ad07d6befec"},"vehicle_type_id":"4","last_reported":1746990431,"current_range_meters":31200,"station_id":"ce4bhq92rcd13ifvqhjg","pricing_plan_id":"cebpf4jnsgd1na2vs0mg"},{"bike_id":"cd81a3aa-b952-4774-ac81-d204e2978bcc","system_id":"levelo_inurba_marseille","lat":43.29913,"lon":5.37467,"is_reserved":false,"is_disabled":false,"rental_uris":{"android":"levelo://app?vid=cd81a3aa-b952-4774-ac81-d204e2978bcc","ios":"levelo://app?vid=cd81a3aa-b952-4774-ac81-d204e2978bcc"},"vehicle_type_id":"4","last_reported":1746990431,"current_range_meters":32000,"station_id":"ce4bgjh2rcd13ifvqbg0","pricing_plan_id":"cebpf4jnsgd1na2vs0mg"},{"bike_id":"5c046693-3fbd-4755-81fd-1c6b34ebf07b","system_id":"levelo_inurba_marseille","lat":43.337605,"lon":5.374426,"is_reserved":false,"is_disabled":false,"rental_uris":{"android":"levelo://app?vid=5c046693-3fbd-4755-81fd-1c6b34ebf07b","ios":"levelo://app?vid=5c046693-3fbd-4755-81fd-1c6b34ebf07b"},"vehicle_type_id":"4","last_reported":1746990431,"current_range_meters":32400,"station_id":"","pricing_plan_id":"cebpf4jnsgd1na2vs0mg"},{"bike_id":"b45d0263-ed17-4f84-a74e-d15c84857ce8","system_id":"levelo_inurba_marseille","lat":43.28558,"lon":5.39496,"is_reserved":false,"is_disabled":false,"rental_uris":{"android":"levelo://app?vid=b45d0263-ed17-4f84-a74e-d15c84857ce8","ios":"levelo://app?vid=b45d0263-ed17-4f84-a74e-d15c84857ce8"},"vehicle_type_id":"4","last_reported":1746990431,"current_range_meters":32400,"station_id":"ce4bh292rcd13ifvqdg0","pricing_plan_id":"cebpf4jnsgd1na2vs0mg"},{"bike_id":"a4b40a07-9c26-4d52-97a6-b95d30b96004","system_id":"levelo_inurba_marseille","lat":43.29264,"lon":5.38445,"is_reserved":false,"is_disabled":false,"rental_uris":{"android":"levelo://app?vid=a4b40a07-9c26-4d52-97a6-b95d30b96004","ios":"levelo://app?vid=a4b40a07-9c26-4d52-97a6-b95d30b96004"},"vehicle_type_id":"4","last_reported":1746990431,"current_range_meters":32400,"station_id":"ce4bh692rcd13ifvqea0","pricing_plan_id":"cebpf4jnsgd1na2vs0mg"},{"bike_id":"e2771d19-d6bb-431e-b255-d2db73a46a53","system_id":"levelo_inurba_marseille","lat":43.28109,"lon":5.37835,"is_reserved":false,"is_disabled":false,"rental_uris":{"android":"levelo://app?vid=e2771d19-d6bb-431e-b255-d2db73a46a53","ios":"levelo://app?vid=e2771d19-d6bb-431e-b255-d2db73a46a53"},"vehicle_type_id":"4","last_reported":1746990431,"current_range_meters":32400,"station_id":"ce4bha12rcd13ifvqee0","pricing_plan_id":"cebpf4jnsgd1na2vs0mg"},{"bike_id":"604d3df3-4055-4b3e-897f-552a6a91fa82","system_id":"levelo_inurba_marseille","lat":43.23968,"lon":5.36635,"is_reserved":false,"is_disabled":false,"rental_uris":{"android":"levelo://app?vid=604d3df3-4055-4b3e-897f-552a6a91fa82","ios":"levelo://app?vid=604d3df3-4055-4b3e-897f-552a6a91fa82"},"vehicle_type_id":"4","last_reported":1746990431,"current_range_meters":32400,"station_id":"ce4bhi12rcd13ifvqfp0","pricing_plan_id":"cebpf4jnsgd1na2vs0mg"},{"bike_id":"f64a83ec-2629-4a50-830a-0eec5af6a0b0","system_id":"levelo_inurba_marseille","lat":43.25699,"lon":5.41055,"is_reserved":false,"is_disabled":false,"rental_uris":{"android":"levelo://app?vid=f64a83ec-2629-4a50-830a-0eec5af6a0b0","ios":"levelo://app?vid=f64a83ec-2629-4a50-830a-0eec5af6a0b0"},"vehicle_type_id":"4","last_reported":1746990431,"current_range_meters":32400,"station_id":"ce4bhkp2rcd13ifvqgd0","pricing_plan_id":"cebpf4jnsgd1na2vs0mg"},{"bike_id":"e44d7aad-ccbb-4cdb-a7cb-8ac7d261b794","system_id":"levelo_inurba_marseille","lat":43.29248,"lon":5.38321,"is_reserved":false,"is_disabled":false,"rental_uris":{"android":"levelo://app?vid=e44d7aad-ccbb-4cdb-a7cb-8ac7d261b794","ios":"levelo://app?vid=e44d7aad-ccbb-4cdb-a7cb-8ac7d261b794"},"vehicle_type_id":"4","last_reported":1746990431,"current_range_meters":32800,"station_id":"ce4bh692rcd13ifvqea0","pricing_plan_id":"cebpf4jnsgd1na2vs0mg"},{"bike_id":"a519cf56-3dc7-412f-aa41-1ae6cfc71c2a","system_id":"levelo_inurba_marseille","lat":43.29261,"lon":5.38446,"is_reserved":false,"is_disabled":false,"rental_uris":{"android":"levelo://app?vid=a519cf56-3dc7-412f-aa41-1ae6cfc71c2a","ios":"levelo://app?vid=a519cf56-3dc7-412f-aa41-1ae6cfc71c2a"},"vehicle_type_id":"4","last_reported":1746990431,"current_range_meters":32800,"station_id":"ce4bh692rcd13ifvqea0","pricing_plan_id":"cebpf4jnsgd1na2vs0mg"},{"bike_id":"1510557f-0c2f-4e01-9814-9652d7428595","system_id":"levelo_inurba_marseille","lat":43.2466,"lon":5.38166,"is_reserved":false,"is_disabled":false,"rental_uris":{"android":"levelo://app?vid=1510557f-0c2f-4e01-9814-9652d7428595","ios":"levelo://app?vid=1510557f-0c2f-4e01-9814-9652d7428595"},"vehicle_type_id":"4","last_reported":1746990431,"current_range_meters":33200,"station_id":"ce4bhih2rcd13ifvqfr0","pricing_plan_id":"cebpf4jnsgd1na2vs0mg"},{"bike_id":"979a50f6-5672-49d7-a531-9a5fff007c2e","system_id":"levelo_inurba_marseille","lat":43.3266,"lon":5.41004,"is_reserved":false,"is_disabled":false,"rental_uris":{"android":"levelo://app?vid=979a50f6-5672-49d7-a531-9a5fff007c2e","ios":"levelo://app?vid=979a50f6-5672-49d7-a531-9a5fff007c2e"},"vehicle_type_id":"4","last_reported":1746990431,"current_range_meters":33200,"station_id":"ce4bhpp2rcd13ifvqhgg","pricing_plan_id":"cebpf4jnsgd1na2vs0mg"},{"bike_id":"35632ec4-41a9-489c-bc44-41521d2106f7","system_id":"levelo_inurba_marseille","lat":43.32289,"lon":5.38269,"is_reserved":false,"is_disabled":false,"rental_uris":{"android":"levelo://app?vid=35632ec4-41a9-489c-bc44-41521d2106f7","ios":"levelo://app?vid=35632ec4-41a9-489c-bc44-41521d2106f7"},"vehicle_type_id":"4","last_reported":1746990431,"current_range_meters":33200,"station_id":"ce4bhr12rcd13ifvqhqg","pricing_plan_id":"cebpf4jnsgd1na2vs0mg"},{"bike_id":"fc0a7543-7ac4-4c0f-b37b-547d20049077","system_id":"levelo_inurba_marseille","lat":43.29529,"lon":5.38542,"is_reserved":false,"is_disabled":false,"rental_uris":{"android":"levelo://app?vid=fc0a7543-7ac4-4c0f-b37b-547d20049077","ios":"levelo://app?vid=fc0a7543-7ac4-4c0f-b37b-547d20049077"},"vehicle_type_id":"4","last_reported":1746990431,"current_range_meters":33600,"station_id":"ce4bgih2rcd13ifvqba0","pricing_plan_id":"cebpf4jnsgd1na2vs0mg"},{"bike_id":"f95c91bc-8819-4cb1-81d0-37614cc18716","system_id":"levelo_inurba_marseille","lat":43.2902,"lon":5.38125,"is_reserved":false,"is_disabled":false,"rental_uris":{"android":"levelo://app?vid=f95c91bc-8819-4cb1-81d0-37614cc18716","ios":"levelo://app?vid=f95c91bc-8819-4cb1-81d0-37614cc18716"},"vehicle_type_id":"4","last_reported":1746990431,"current_range_meters":33600,"station_id":"ce4bh4p2rcd13ifvqe1g","pricing_plan_id":"cebpf4jnsgd1na2vs0mg"},{"bike_id":"e88c4d27-6160-4cae-8a37-e9eea545fa38","system_id":"levelo_inurba_marseille","lat":43.28976,"lon":5.3784,"is_reserved":false,"is_disabled":false,"rental_uris":{"android":"levelo://app?vid=e88c4d27-6160-4cae-8a37-e9eea545fa38","ios":"levelo://app?vid=e88c4d27-6160-4cae-8a37-e9eea545fa38"},"vehicle_type_id":"4","last_reported":1746990431,"current_range_meters":33600,"station_id":"ce4bh9p2rcd13ifvqed0","pricing_plan_id":"cebpf4jnsgd1na2vs0mg"},{"bike_id":"06cd6b7a-8868-4d7b-8f9c-2bcc8621f68b","system_id":"levelo_inurba_marseille","lat":43.25576,"lon":5.38232,"is_reserved":false,"is_disabled":false,"rental_uris":{"android":"levelo://app?vid=06cd6b7a-8868-4d7b-8f9c-2bcc8621f68b","ios":"levelo://app?vid=06cd6b7a-8868-4d7b-8f9c-2bcc8621f68b"},"vehicle_type_id":"4","last_reported":1746990431,"current_range_meters":33600,"station_id":"ce4bhih2rcd13ifvqfs0","pricing_plan_id":"cebpf4jnsgd1na2vs0mg"},{"bike_id":"0f7324d5-be48-4484-95dd-ad0a0c58767c","system_id":"levelo_inurba_marseille","lat":43.25109,"lon":5.40348,"is_reserved":false,"is_disabled":false,"rental_uris":{"android":"levelo://app?vid=0f7324d5-be48-4484-95dd-ad0a0c58767c","ios":"levelo://app?vid=0f7324d5-be48-4484-95dd-ad0a0c58767c"},"vehicle_type_id":"4","last_reported":1746990431,"current_range_meters":33600,"station_id":"ce4bhlh2rcd13ifvqgig","pricing_plan_id":"cebpf4jnsgd1na2vs0mg"},{"bike_id":"10b9a039-dd7e-4a20-9e80-3ea6aa75ce6b","system_id":"levelo_inurba_marseille","lat":43.317248,"lon":5.424062,"is_reserved":false,"is_disabled":false,"rental_uris":{"android":"levelo://app?vid=10b9a039-dd7e-4a20-9e80-3ea6aa75ce6b","ios":"levelo://app?vid=10b9a039-dd7e-4a20-9e80-3ea6aa75ce6b"},"vehicle_type_id":"4","last_reported":1746990431,"current_range_meters":33600,"station_id":"ce4bhp92rcd13ifvqhbg","pricing_plan_id":"cebpf4jnsgd1na2vs0mg"},{"bike_id":"2182db16-b350-4283-8ae0-209071785631","system_id":"levelo_inurba_marseille","lat":43.309348,"lon":5.367428,"is_reserved":false,"is_disabled":false,"rental_uris":{"android":"levelo://app?vid=2182db16-b350-4283-8ae0-209071785631","ios":"levelo://app?vid=2182db16-b350-4283-8ae0-209071785631"},"vehicle_type_id":"4","last_reported":1746990431,"current_range_meters":34800,"station_id":"","pricing_plan_id":"cebpf4jnsgd1na2vs0mg"},{"bike_id":"aae03c24-9a46-4f50-9933-c09151f96a99","system_id":"levelo_inurba_marseille","lat":43.29887,"lon":5.39759,"is_reserved":false,"is_disabled":false,"rental_uris":{"android":"levelo://app?vid=aae03c24-9a46-4f50-9933-c09151f96a99","ios":"levelo://app?vid=aae03c24-9a46-4f50-9933-c09151f96a99"},"vehicle_type_id":"4","last_reported":1746990431,"current_range_meters":34800,"station_id":"ce4bh0h2rcd13ifvqd50","pricing_plan_id":"cebpf4jnsgd1na2vs0mg"},{"bike_id":"d94074ab-e07c-4767-bf67-a1a92392c4de","system_id":"levelo_inurba_marseille","lat":43.24993,"lon":5.38939,"is_reserved":false,"is_disabled":false,"rental_uris":{"android":"levelo://app?vid=d94074ab-e07c-4767-bf67-a1a92392c4de","ios":"levelo://app?vid=d94074ab-e07c-4767-bf67-a1a92392c4de"},"vehicle_type_id":"4","last_reported":1746990431,"current_range_meters":34800,"station_id":"ce4bhgp2rcd13ifvqfd0","pricing_plan_id":"cebpf4jnsgd1na2vs0mg"},{"bike_id":"760e6e61-479b-4d7f-bdb6-66eaf909b131","system_id":"levelo_inurba_marseille","lat":43.231644,"lon":5.436974,"is_reserved":false,"is_disabled":false,"rental_uris":{"android":"levelo://app?vid=760e6e61-479b-4d7f-bdb6-66eaf909b131","ios":"levelo://app?vid=760e6e61-479b-4d7f-bdb6-66eaf909b131"},"vehicle_type_id":"4","last_reported":1746990431,"current_range_meters":34800,"station_id":"ce4bhmp2rcd13ifvqgog","pricing_plan_id":"cebpf4jnsgd1na2vs0mg"},