{"last_updated":1746326739,"ttl":60,"version":"2.2","data":{"bikes":[{"bike_id":"4318face-b223-435c-b1f8-7cdb28a0717b","system_id":"levelo_inurba_marseille","lat":43.26778,"lon":5.39418,"is_reserved":false,"is_disabled":false,"rental_uris":{"android":"levelo://app?vid=4318face-b223-435c-b1f8-7cdb28a0717b","ios":"levelo://app?vid=4318face-b223-435c-b1f8-7cdb28a0717b"},"vehicle_type_id":"4","last_reported":1746326739,"current_range_meters":2800,"station_id":"ce4bhh12rcd13ifvqfg0","pricing_plan_id":"cebpf4jnsgd1na2vs0mg"},{"bike_id":"9d4ed26d-e2aa-4149-aa18-2a8cc86bacec","system_id":"levelo_inurba_marseille","lat":43.31009,"lon":5.37082,"is_reserved":false,"is_disabled":false,"rental_uris":{"android":"levelo://app?vid=9d4ed26d-e2aa-4149-aa18-2a8cc86bacec","ios":"levelo://app?vid=9d4ed26d-e2aa-4149-aa18-2a8cc86bacec"},"vehicle_type_id":"4","last_reported":1746326739,"current_range_meters":2800,"station_id":"","pricing_plan_id":"cebpf4jnsgd1na2vs0mg"},{"bike_id":"9e6f876f-210d-430d-9f50-98484d7f7b37","system_id":"levelo_inurba_marseille","lat":43.30333,"lon":5.404358,"is_reserved":false,"is_disabled":false,"rental_uris":{"android":"levelo://app?vid=9e6f876f-210d-430d-9f50-98484d7f7b37","ios":"levelo://app?vid=9e6f876f-210d-430d-9f50-98484d7f7b37"},"vehicle_type_id":"4","last_reported":1746326739,"current_range_meters":2800,"station_id":"ce4bh012rcd13ifvqd10","pricing_plan_id":"cebpf4jnsgd1na2vs0mg"},{"bike_id":"f547c34f-c548-40cf-bd23-668a8a86330a","system_id":"levelo_inurba_marseille","lat":43.25942,"lon":5.40902,"is_reserved":false,"is_disabled":false,"rental_uris":{"android":"levelo://app?vid=f547c34f-c548-40cf-bd23-668a8a86330a","ios":"levelo://app?vid=f547c34f-c548-40cf-bd23-668a8a86330a"},"vehicle_type_id":"4","last_reported":1746326739,"current_range_meters":2800,"station_id":"ce4bhm92rcd13ifvqglg","pricing_plan_id":"cebpf4jnsgd1na2vs0mg"},{"bike_id":"6a72580c-c76c-4721-b41b-47051e92ac98","system_id":"levelo_inurba_marseille","lat":43.29982,"lon":5.37211,"is_reserved":false,"is_disabled":true,"rental_uris":{"android":"levelo://app?vid=6a72580c-c76c-4721-b41b-47051e92ac98","ios":"levelo://app?vid=6a72580c-c76c-4721-b41b-47051e92ac98"},"vehicle_type_id":"4","last_reported":1746326739,"current_range_meters":2800,"station_id":"ce4bgr92rcd13ifvqc7g","pricing_plan_id":"cebpf4jnsgd1na2vs0mg"},{"bike_id":"23119e4f-0e29-493e-a873-544057f83776","system_id":"levelo_inurba_marseille","lat":43.26809,"lon":5.402619,"is_reserved":false,"is_disabled":true,"rental_uris":{"android":"levelo://app?vid=23119e4f-0e29-493e-a873-544057f83776","ios":"levelo://app?vid=23119e4f-0e29-493e-a873-544057f83776"},"vehicle_type_id":"4","last_reported":1746326739,"current_range_meters":3200,"station_id":"ce501612rcd8frsf0b60","pricing_plan_id":"cebpf4jnsgd1na2vs0mg"},{"bike_id":"bf418e83-e81c-41d6-8593-60d316e13025","system_id":"levelo_inurba_marseille","lat":43.231482,"lon":5.437217,"is_reserved":false,"is_disabled":false,"rental_uris":{"android":"levelo://app?vid=bf418e83-e81c-41d6-8593-60d316e13025","ios":"levelo://app?vid=bf418e83-e81c-41d6-8593-60d316e13025"},"vehicle_type_id":"4","last_reported":1746326739,"current_range_meters":3200,"station_id":"ce4bhmp2rcd13ifvqgog","pricing_plan_id":"cebpf4jnsgd1na2vs0mg"},{"bike_id":"b1c495ae-c93e-42a5-9596-0c6a3f375568","system_id":"levelo_inurba_marseille","lat":43.3188,"lon":5.40741,"is_reserved":false,"is_disabled":false,"rental_uris":{"android":"levelo://app?vid=b1c495ae-c93e-42a5-9596-0c6a3f375568","ios":"levelo://app?vid=b1c495ae-c93e-42a5-9596-0c6a3f375568"},"vehicle_type_id":"4","last_reported":1746326739,"current_range_meters":3600,"station_id":"ce4bhq12rcd13ifvqhig","pricing_plan_id":"cebpf4jnsgd1na2vs0mg"},{"bike_id":"78647f6c-5b39-4fc3-8ddc-922db495866f","system_id":"levelo_inurba_marseille","lat":43.278164,"lon":5.40717,"is_reserved":false,"is_disabled":true,"rental_uris":{"android":"levelo://app?vid=78647f6c-5b39-4fc3-8ddc-922db495866f","ios":"levelo://app?vid=78647f6c-5b39-4fc3-8ddc-922db495866f"},"vehicle_type_id":"4","last_reported":1746326739,"current_range_meters":3600,"station_id":"ce4bhnh2rcd13ifvqgtg","pricing_plan_id":"cebpf4jnsgd1na2vs0mg"},{"bike_id":"f7b96fd7-0acb-47b6-8f3b-f0646f6e9218","system_id":"levelo_inurba_marseille","lat":43.27959,"lon":5.38696,"is_reserved":false,"is_disabled":false,"rental_uris":{"android":"levelo://app?vid=f7b96fd7-0acb-47b6-8f3b-f0646f6e9218","ios":"levelo://app?vid=f7b96fd7-0acb-47b6-8f3b-f0646f6e9218"},"vehicle_type_id":"4","last_reported":1746326739,"current_range_meters":3600,"station_id":"ce4bhg12rcd13ifvqf80","pricing_plan_id":"cebpf4jnsgd1na2vs0mg"},{"bike_id":"beb2536f-b95c-42a3-954e-a55ebb0abeec","system_id":"levelo_inurba_marseille","lat":43.3096,"lon":5.38239,"is_reserved":false,"is_disabled":false,"rental_uris":{"android":"levelo://app?vid=beb2536f-b95c-42a3-954e-a55ebb0abeec","ios":"levelo://app?vid=beb2536f-b95c-42a3-954e-a55ebb0abeec"},"vehicle_type_id":"4","last_reported":1746326739,"current_range_meters":3600,"station_id":"","pricing_plan_id":"cebpf4jnsgd1na2vs0mg"},{"bike_id":"cd0a11c1-4fe1-4781-ac80-00d76e54026c","system_id":"levelo_inurba_marseille","lat":43.33785,"lon":5.42157,"is_reserved":false,"is_disabled":false,"rental_uris":{"android":"levelo://app?vid=cd0a11c1-4fe1-4781-ac80-00d76e54026c","ios":"levelo://app?vid=cd0a11c1-4fe1-4781-ac80-00d76e54026c"},"vehicle_type_id":"4","last_reported":1746326739,"current_range_meters":3600,"station_id":"","pricing_plan_id":"cebpf4jnsgd1na2vs0mg"},{"bike_id":"58cf56cc-90d2-488e-b991-be539aff6c8c","system_id":"levelo_inurba_marseille","lat":43.27614,"lon":5.36099,"is_reserved":false,"is_disabled":false,"rental_uris":{"android":"levelo://app?vid=58cf56cc-90d2-488e-b991-be539aff6c8c","ios":"levelo://app?vid=58cf56cc-90d2-488e-b991-be539aff6c8c"},"vehicle_type_id":"4","last_reported":1746326739,"current_range_meters":3600,"station_id":"ce4bgj92rcd13ifvqbe0","pricing_plan_id":"cebpf4jnsgd1na2vs0mg"},{"bike_id":"bd149dfb-a11c-4bb1-8a76-6ccbc4566693","system_id":"levelo_inurba_marseille","lat":43.284378,"lon":5.39193,"is_reserved":false,"is_disabled":false,"rental_uris":{"android":"levelo://app?vid=bd149dfb-a11c-4bb1-8a76-6ccbc4566693","ios":"levelo://app?vid=bd149dfb-a11c-4bb1-8a76-6ccbc4566693"},"vehicle_type_id":"4","last_reported":1746326739,"current_range_meters":3600,"station_id":"ce4bhoh2rcd13ifvqh5g","pricing_plan_id":"cebpf4jnsgd1na2vs0mg"},{"bike_id":"a2ad1045-b588-4bc1-a260-66d4d5be8334","system_id":"levelo_inurba_marseille","lat":43.272101,"lon":5.391784,"is_reserved":false,"is_disabled":false,"rental_uris":{"android":"levelo://app?vid=a2ad1045-b588-4bc1-a260-66d4d5be8334","ios":"levelo://app?vid=a2ad1045-b588-4bc1-a260-66d4d5be8334"},"vehicle_type_id":"4","last_reported":1746326739,"current_range_meters":4400,"station_id":"","pricing_plan_id":"cebpf4jnsgd1na2vs0mg"},{"bike_id":"95f88f9c-d450-4abc-b377-29c972913877","system_id":"levelo_inurba_marseille","lat":43.31489,"lon":5.37311,"is_reserved":false,"is_disabled":false,"rental_uris":{"android":"levelo://app?vid=95f88f9c-d450-4abc-b377-29c972913877","ios":"levelo://app?vid=95f88f9c-d450-4abc-b377-29c972913877"},"vehicle_type_id":"4","last_reported":1746326739,"current_range_meters":4400,"station_id":"ce4bgt12rcd13ifvqcd0","pricing_plan_id":"cebpf4jnsgd1na2vs0mg"},{"bike_id":"20a0161f-8c97-41c6-b725-2c48f8bc5d22","system_id":"levelo_inurba_marseille","lat":43.33043,"lon":5.39455,"is_reserved":false,"is_disabled":false,"rental_uris":{"android":"levelo://app?vid=20a0161f-8c97-41c6-b725-2c48f8bc5d22","ios":"levelo://app?vid=20a0161f-8c97-41c6-b725-2c48f8bc5d22"},"vehicle_type_id":"4","last_reported":1746326739,"current_range_meters":4400,"station_id":"","pricing_plan_id":"cebpf4jnsgd1na2vs0mg"},{"bike_id":"d11b7274-ad1d-4343-a0b8-143798db8be1","system_id":"levelo_inurba_marseille","lat":43.229238,"lon":5.353826,"is_reserved":false,"is_disabled":true,"rental_uris":{"android":"levelo://app?vid=d11b7274-ad1d-4343-a0b8-143798db8be1","ios":"levelo://app?vid=d11b7274-ad1d-4343-a0b8-143798db8be1"},"vehicle_type_id":"4","last_reported":1746326739,"current_range_meters":4800,"station_id":"cpo3532slgdg3j2ikp40","pricing_plan_id":"cebpf4jnsgd1na2vs0mg"},{"bike_id":"c2ed84b5-f328-4415-aaf4-3a14f2be55f4","system_id":"levelo_inurba_marseille","lat":43.251102,"lon":5.403273,"is_reserved":false,"is_disabled":false,"rental_uris":{"android":"levelo://app?vid=c2ed84b5-f328-4415-aaf4-3a14f2be55f4","ios":"levelo://app?vid=c2ed84b5-f328-4415-aaf4-3a14f2be55f4"},"vehicle_type_id":"4","last_reported":1746326739,"current_range_meters":4800,"station_id":"ce4bhlh2rcd13ifvqgig","pricing_plan_id":"cebpf4jnsgd1na2vs0mg"},{"bike_id":"4341dfab-438e-4d1a-8a6a-87a65b8fed8c","system_id":"levelo_inurba_marseille","lat":43.299074,"lon":5.381314,"is_reserved":false,"is_disabled":true,"rental_uris":{"android":"levelo://app?vid=4341dfab-438e-4d1a-8a6a-87a65b8fed8c","ios":"levelo://app?vid=4341dfab-438e-4d1a-8a6a-87a65b8fed8c"},"vehicle_type_id":"4","last_reported":1746326739,"current_range_meters":4800,"station_id":"ce4bgj12rcd13ifvqbc0","pricing_plan_id":"cebpf4jnsgd1na2vs0mg"},{"bike_id":"8591ffe5-88f0-4559-bece-37ffa9b499eb","system_id":"levelo_inurba_marseille","lat":43.25117,"lon":5.40326,"is_reserved":false,"is_disabled":false,"rental_uris":{"android":"levelo://app?vid=8591ffe5-88f0-4559-bece-37ffa9b499eb","ios":"levelo://app?vid=8591ffe5-88f0-4559-bece-37ffa9b499eb"},"vehicle_type_id":"4","last_reported":1746326739,"current_range_meters":4800,"station_id":"ce4bhlh2rcd13ifvqgig","pricing_plan_id":"cebpf4jnsgd1na2vs0mg"},{"bike_id":"9943b495-413c-4292-9eff-1fa9b9197106","system_id":"levelo_inurba_marseille","lat":43.24071,"lon":5.37761,"is_reserved":false,"is_disabled":false,"rental_uris":{"android":"levelo://app?vid=9943b495-413c-4292-9eff-1fa9b9197106","ios":"levelo://app?vid=9943b495-413c-4292-9eff-1fa9b9197106"},"vehicle_type_id":"4","last_reported":1746326739,"current_range_meters":5600,"station_id":"ce4bhnp2rcd13ifvqgvg","pricing_plan_id":"cebpf4jnsgd1na2vs0mg"},{"bike_id":"ea54a43f-bc03-4784-86c5-a6aba0a39cd2","system_id":"levelo_inurba_marseille","lat":43.30776,"lon":5.37651,"is_reserved":false,"is_disabled":false,"rental_uris":{"android":"levelo://app?vid=ea54a43f-bc03-4784-86c5-a6aba0a39cd2","ios":"levelo://app?vid=ea54a43f-bc03-4784-86c5-a6aba0a39cd2"},"vehicle_type_id":"4","last_reported":1746326739,"current_range_meters":5600,"station_id":"ce4bgv92rcd13ifvqcq0","pricing_plan_id":"cebpf4jnsgd1na2vs0mg"},{"bike_id":"20128e84-93ae-4d65-b261-8c473a3a46a7","system_id":"levelo_inurba_marseille","lat":43.31537,"lon":5.38033,"is_reserved":false,"is_disabled":false,"rental_uris":{"android":"levelo://app?vid=20128e84-93ae-4d65-b261-8c473a3a46a7","ios":"levelo://app?vid=20128e84-93ae-4d65-b261-8c473a3a46a7"},"vehicle_type_id":"4","last_reported":1746326739,"current_range_meters":5600,"station_id":"ce4bhsp2rcd13ifvqi50","pricing_plan_id":"cebpf4jnsgd1na2vs0mg"},{"bike_id":"ee431cbb-877d-4c13-8c16-79999e3facb4","system_id":"levelo_inurba_marseille","lat":43.331694,"lon":5.431186,"is_reserved":false,"is_disabled":false,"rental_uris":{"android":"levelo://app?vid=ee431cbb-877d-4c13-8c16-79999e3facb4","ios":"levelo://app?vid=ee431cbb-877d-4c13-8c16-79999e3facb4"},"vehicle_type_id":"4","last_reported":1746326739,"current_range_meters":6000,"station_id":"","pricing_plan_id":"cebpf4jnsgd1na2vs0mg"},{"bike_id":"343558bc-7f35-44a3-aec0-03f28380f248","system_id":"levelo_inurba_marseille","lat":43.26197,"lon":5.3745,"is_reserved":false,"is_disabled":false,"rental_uris":{"android":"levelo://app?vid=343558bc-7f35-44a3-aec0-03f28380f248","ios":"levelo://app?vid=343558bc-7f35-44a3-aec0-03f28380f248"},"vehicle_type_id":"4","last_reported":1746326739,"current_range_meters":6000,"station_id":"ce4bhgp2rcd13ifvqfc0","pricing_plan_id":"cebpf4jnsgd1na2vs0mg"},{"bike_id":"b24e1c00-6f34-4818-ab0a-32914331665c","system_id":"levelo_inurba_marseille","lat":43.307823,"lon":5.376544,"is_reserved":false,"is_disabled":false,"rental_uris":{"android":"levelo://app?vid=b24e1c00-6f34-4818-ab0a-32914331665c","ios":"levelo://app?vid=b24e1c00-6f34-4818-ab0a-32914331665c"},"vehicle_type_id":"4","last_reported":1746326739,"current_range_meters":6000,"station_id":"ce4bgv92rcd13ifvqcq0","pricing_plan_id":"cebpf4jnsgd1na2vs0mg"},{"bike_id":"b2be516e-2f32-4594-b4de-c3e58b68706d","system_id":"levelo_inurba_marseille","lat":43.292698,"lon":5.368504,"is_reserved":false,"is_disabled":true,"rental_uris":{"android":"levelo://app?vid=b2be516e-2f32-4594-b4de-c3e58b68706d","ios":"levelo://app?vid=b2be516e-2f32-4594-b4de-c3e58b68706d"},"vehicle_type_id":"4","last_reported":1746326739,"current_range_meters":6000,"station_id":"ce4bhbp2rcd13ifvqesg","pricing_plan_id":"cebpf4jnsgd1na2vs0mg"},{"bike_id":"e341752c-8655-4500-bdaa-1fbfa4780079","system_id":"levelo_inurba_marseille","lat":43.290624,"lon":5.371544,"is_reserved":false,"is_disabled":true,"rental_uris":{"android":"levelo://app?vid=e341752c-8655-4500-bdaa-1fbfa4780079","ios":"levelo://app?vid=e341752c-8655-4500-bdaa-1fbfa4780079"},"vehicle_type_id":"4","last_reported":1746326739,"current_range_meters":6400,"station_id":"ce4bh5p2rcd13ifvqe4g","pricing_plan_id":"cebpf4jnsgd1na2vs0mg"},{"bike_id":"b9fac56e-fb84-4730-9d09-c8e94bf61e58","system_id":"levelo_inurba_marseille","lat":43.271777,"lon":5.409946,"is_reserved":false,"is_disabled":false,"rental_uris":{"android":"levelo://app?vid=b9fac56e-fb84-4730-9d09-c8e94bf61e58","ios":"levelo://app?vid=b9fac56e-fb84-4730-9d09-c8e94bf61e58"},"vehicle_type_id":"4","last_reported":1746326739,"current_range_meters":6400,"station_id":"ce4bhl12rcd13ifvqgf0","pricing_plan_id":"cebpf4jnsgd1na2vs0mg"},{"bike_id":"208c1a96-c46f-4193-b924-3bf7033ea14e","system_id":"levelo_inurba_marseille","lat":43.231811,"lon":5.35565,"is_reserved":false,"is_disabled":false,"rental_uris":{"android":"levelo://app?vid=208c1a96-c46f-4193-b924-3bf7033ea14e","ios":"levelo://app?vid=208c1a96-c46f-4193-b924-3bf7033ea14e"},"vehicle_type_id":"4","last_reported":1746326739,"current_range_meters":6400,"station_id":"ce4bhu92rcd13ifvqi70","pricing_plan_id":"cebpf4jnsgd1na2vs0mg"},{"bike_id":"9687b41f-2a91-4699-b4de-1c31313f1e77","system_id":"levelo_inurba_marseille","lat":43.24663,"lon":5.381715,"is_reserved":false,"is_disabled":false,"rental_uris":{"android":"levelo://app?vid=9687b41f-2a91-4699-b4de-1c31313f1e77","ios":"levelo://app?vid=9687b41f-2a91-4699-b4de-1c31313f1e77"},"vehicle_type_id":"4","last_reported":1746326739,"current_range_meters":6400,"station_id":"ce4bhih2rcd13ifvqfr0","pricing_plan_id":"cebpf4jnsgd1na2vs0mg"},{"bike_id":"fefd08ec-5881-4aed-9781-2a8173dd5fb9","system_id":"levelo_inurba_marseille","lat":43.29427,"lon":5.38242,"is_reserved":false,"is_disabled":false,"rental_uris":{"android":"levelo://app?vid=fefd08ec-5881-4aed-9781-2a8173dd5fb9","ios":"levelo://app?vid=fefd08ec-5881-4aed-9781-2a8173dd5fb9"},"vehicle_type_id":"4","last_reported":1746326739,"current_range_meters":6800,"station_id":"","pricing_plan_id":"cebpf4jnsgd1na2vs0mg"},{"bike_id":"909825d5-7ad2-409e-b0de-cec7d5b4fa06","system_id":"levelo_inurba_marseille","lat":43.24215,"lon":5.367443,"is_reserved":false,"is_disabled":false,"rental_uris":{"android":"levelo://app?vid=909825d5-7ad2-409e-b0de-cec7d5b4fa06","ios":"levelo://app?vid=909825d5-7ad2-409e-b0de-cec7d5b4fa06"},"vehicle_type_id":"4","last_reported":1746326739,"current_range_meters":6800,"station_id":"","pricing_plan_id":"cebpf4jnsgd1na2vs0mg"},{"bike_id":"4dd08eac-df5d-4142-8b38-1718a060526d","system_id":"levelo_inurba_marseille","lat":43.24545,"lon":5.39525,"is_reserved":false,"is_disabled":false,"rental_uris":{"android":"levelo://app?vid=4dd08eac-df5d-4142-8b38-1718a060526d","ios":"levelo://app?vid=4dd08eac-df5d-4142-8b38-1718a060526d"},"vehicle_type_id":"4","last_reported":1746326739,"current_range_meters":6800,"station_id":"ce4bhlp2rcd13ifvqgjg","pricing_plan_id":"cebpf4jnsgd1na2vs0mg"},{"bike_id":"19907aca-2d3a-4445-8445-1c9e2a6b70fa","system_id":"levelo_inurba_marseille","lat":43.29926,"lon":5.37475,"is_reserved":false,"is_disabled":false,"rental_uris":{"android":"levelo://app?vid=19907aca-2d3a-4445-8445-1c9e2a6b70fa","ios":"levelo://app?vid=19907aca-2d3a-4445-8445-1c9e2a6b70fa"},"vehicle_type_id":"4","last_reported":1746326739,"current_range_meters":6800,"station_id":"ce4bgjh2rcd13ifvqbg0","pricing_plan_id":"cebpf4jnsgd1na2vs0mg"},{"bike_id":"39d83911-e17e-4776-b8f2-6450602c8696","system_id":"levelo_inurba_marseille","lat":43.298959,"lon":5.436606,"is_reserved":false,"is_disabled":false,"rental_uris":{"android":"levelo://app?vid=39d83911-e17e-4776-b8f2-6450602c8696","ios":"levelo://app?vid=39d83911-e17e-4776-b8f2-6450602c8696"},"vehicle_type_id":"4","last_reported":1746326739,"current_range_meters":7200,"station_id":"ce4bhpp2rcd13ifvqhfg","pricing_plan_id":"cebpf4jnsgd1na2vs0mg"},{"bike_id":"702b6be1-19c8-40b8-9c1a-2ab0c019e557","system_id":"levelo_inurba_marseille","lat":43.29439,"lon":5.397447,"is_reserved":false,"is_disabled":false,"rental_uris":{"android":"levelo://app?vid=702b6be1-19c8-40b8-9c1a-2ab0c019e557","ios":"levelo://app?vid=702b6be1-19c8-40b8-9c1a-2ab0c019e557"},"vehicle_type_id":"4","last_reported":1746326739,"current_range_meters":7200,"station_id":"ce4bh3h2rcd13ifvqdo0","pricing_plan_id":"cebpf4jnsgd1na2vs0mg"},{"bike_id":"db9be0c1-80d5-4315-9367-2a96fca91123","system_id":"levelo_inurba_marseille","lat":43.306441,"lon":5.40069,"is_reserved":false,"is_disabled":false,"rental_uris":{"android":"levelo://app?vid=db9be0c1-80d5-4315-9367-2a96fca91123","ios":"levelo://app?vid=db9be0c1-80d5-4315-9367-2a96fca91123"},"vehicle_type_id":"4","last_reported":1746326739,"current_range_meters":7200,"station_id":"ce4bh112rcd13ifvqda0","pricing_plan_id":"cebpf4jnsgd1na2vs0mg"},{"bike_id":"e27ce41e-d31e-4411-a762-387f29d91877","system_id":"levelo_inurba_marseille","lat":43.295626,"lon":5.422841,"is_reserved":false,"is_disabled":false,"rental_uris":{"android":"levelo://app?vid=e27ce41e-d31e-4411-a762-387f29d91877","ios":"levelo://app?vid=e27ce41e-d31e-4411-a762-387f29d91877"},"vehicle_type_id":"4","last_reported":1746326739,"current_range_meters":7200,"station_id":"ce4bhph2rcd13ifvqhdg","pricing_plan_id":"cebpf4jnsgd1na2vs0mg"},{"bike_id":"570b486c-50df-4f1f-97df-caa86c0d419e","system_id":"levelo_inurba_marseille","lat":43.33695,"lon":5.35573,"is_reserved":false,"is_disabled":false,"rental_uris":{"android":"levelo://app?vid=570b486c-50df-4f1f-97df-caa86c0d419e","ios":"levelo://app?vid=570b486c-50df-4f1f-97df-caa86c0d419e"},"vehicle_type_id":"4","last_reported":1746326739,"current_range_meters":7200,"station_id":"","pricing_plan_id":"cebpf4jnsgd1na2vs0mg"},{"bike_id":"04813ebe-acde-46e3-a8fc-f043fdcd53e0","system_id":"levelo_inurba_marseille","lat":43.25102,"lon":5.40322,"is_reserved":false,"is_disabled":false,"rental_uris":{"android":"levelo://app?vid=04813ebe-acde-46e3-a8fc-f043fdcd53e0","ios":"levelo://app?vid=04813ebe-acde-46e3-a8fc-f043fdcd53e0"},"vehicle_type_id":"4","last_reported":1746326739,"current_range_meters":7200,"station_id":"ce4bhlh2rcd13ifvqgig","pricing_plan_id":"cebpf4jnsgd1na2vs0mg"},{"bike_id":"7d6d18ee-0ef8-4e14-ae57-24b20e7f5fed","system_id":"levelo_inurba_marseille","lat":43.319977,"lon":5.38151,"is_reserved":false,"is_disabled":false,"rental_uris":{"android":"levelo://app?vid=7d6d18ee-0ef8-4e14-ae57-24b20e7f5fed","ios":"levelo://app?vid=7d6d18ee-0ef8-4e14-ae57-24b20e7f5fed"},"vehicle_type_id":"4","last_reported":1746326739,"current_range_meters":7200,"station_id":"ce4bhr12rcd13ifvqhpg","pricing_plan_id":"cebpf4jnsgd1na2vs0mg"},{"bike_id":"02b445bf-8103-43fd-96fb-7970a970f33c","system_id":"levelo_inurba_marseille","lat":43.287042,"lon":5.399786,"is_reserved":false,"is_disabled":false,"rental_uris":{"android":"levelo://app?vid=02b445bf-8103-43fd-96fb-7970a970f33c","ios":"levelo://app?vid=02b445bf-8103-43fd-96fb-7970a970f33c"},"vehicle_type_id":"4","last_reported":1746326739,"current_range_meters":7200,"station_id":"ce4bho92rcd13ifvqh3g","pricing_plan_id":"cebpf4jnsgd1na2vs0mg"},{"bike_id":"38a0dbcd-2be8-44bc-838b-f55006af8ebd","system_id":"levelo_inurba_marseille","lat":43.24816,"lon":5.374974,"is_reserved":false,"is_disabled":false,"rental_uris":{"android":"levelo://app?vid=38a0dbcd-2be8-44bc-838b-f55006af8ebd","ios":"levelo://app?vid=38a0dbcd-2be8-44bc-838b-f55006af8ebd"},"vehicle_type_id":"4","last_reported":1746326739,"current_range_meters":8000,"station_id":"","pricing_plan_id":"cebpf4jnsgd1na2vs0mg"},{"bike_id":"c7e47698-0020-47cf-94a4-404079760935","system_id":"levelo_inurba_marseille","lat":43.28405,"lon":5.37555,"is_reserved":false,"is_disabled":true,"rental_uris":{"android":"levelo://app?vid=c7e47698-0020-47cf-94a4-404079760935","ios":"levelo://app?vid=c7e47698-0020-47cf-94a4-404079760935"},"vehicle_type_id":"4","last_reported":1746326739,"current_range_meters":8000,"station_id":"ce4bh412rcd13ifvqds0","pricing_plan_id":"cebpf4jnsgd1na2vs0mg"},{"bike_id":"3ec846c5-a1f8-4c87-8b52-cbcafbd1fedf","system_id":"levelo_inurba_marseille","lat":43.27974,"lon":5.38729,"is_reserved":false,"is_disabled":false,"rental_uris":{"android":"levelo://app?vid=3ec846c5-a1f8-4c87-8b52-cbcafbd1fedf","ios":"levelo://app?vid=3ec846c5-a1f8-4c87-8b52-cbcafbd1fedf"},"vehicle_type_id":"4","last_reported":1746326739,"current_range_meters":8000,"station_id":"ce4bhg12rcd13ifvqf80","pricing_plan_id":"cebpf4jnsgd1na2vs0mg"},{"bike_id":"125ca05d-5a4c-4327-ae64-e200198cedf3","system_id":"levelo_inurba_marseille","lat":43.295621,"lon":5.422873,"is_reserved":false,"is_disabled":false,"rental_uris":{"android":"levelo://app?vid=125ca05d-5a4c-4327-ae64-e200198cedf3","ios":"levelo://app?vid=125ca05d-5a4c-4327-ae64-e200198cedf3"},"vehicle_type_id":"4","last_reported":1746326739,"current_range_meters":8000,"station_id":"ce4bhph2rcd13ifvqhdg","pricing_plan_id":"cebpf4jnsgd1na2vs0mg"},{"bike_id":"6012e73f-a97d-4080-8451-31be47c04cb3","system_id":"levelo_inurba_marseille","lat":43.241801,"lon":5.397244,"is_reserved":false,"is_disabled":false,"rental_uris":{"android":"levelo://app?vid=6012e73f-a97d-4080-8451-31be47c04cb3","ios":"levelo://app?vid=6012e73f-a97d-4080-8451-31be47c04cb3"},"vehicle_type_id":"4","last_reported":1746326739,"current_range_meters":8000,"station_id":"ce4bhn12rcd13ifvqgpg","pricing_plan_id":"cebpf4jnsgd1na2vs0mg"},{"bike_id":"33d984bb-57d7-4933-bc68-507510f5f8a6","system_id":"levelo_inurba_marseille","lat":43.241807,"lon":5.397293,"is_reserved":false,"is_disabled":false,"rental_uris":{"android":"levelo://app?vid=33d984bb-57d7-4933-bc68-507510f5f8a6","ios":"levelo://app?vid=33d984bb-57d7-4933-bc68-507510f5f8a6"},"vehicle_type_id":"4","last_reported":1746326739,"current_range_meters":8000,"station_id":"ce4bhn12rcd13ifvqgpg","pricing_plan_id":"cebpf4jnsgd1na2vs0mg"},{"bike_id":"dfb3396e-96f5-457c-af11-f6f27dad33e9","system_id":"levelo_inurba_marseille","lat":43.272027,"lon":5.364764,"is_reserved":false,"is_disabled":false,"rental_uris":{"android":"levelo://app?vid=dfb3396e-96f5-457c-af11-f6f27dad33e9","ios":"levelo://app?vid=dfb3396e-96f5-457c-af11-f6f27dad33e9"},"vehicle_type_id":"4","last_reported":1746326739,"current_range_meters":8400,"station_id":"","pricing_plan_id":"cebpf4jnsgd1na2vs0mg"},{"bike_id":"0ca2aeff-c10c-4be3-8c0b-3162193c983e","system_id":"levelo_inurba_marseille","lat":43.307725,"lon":5.376583,"is_reserved":false,"is_disabled":true,"rental_uris":{"android":"levelo://app?vid=0ca2aeff-c10c-4be3-8c0b-3162193c983e","ios":"levelo://app?vid=0ca2aeff-c10c-4be3-8c0b-3162193c983e"},"vehicle_type_id":"4","last_reported":1746326739,"current_range_meters":8400,"station_id":"","pricing_plan_id":"cebpf4jnsgd1na2vs0mg"},{"bike_id":"721f19a3-6fc8-4aa3-b8d6-b74174066f05","system_id":"levelo_inurba_marseille","lat":43.31992,"lon":5.38163,"is_reserved":false,"is_disabled":false,"rental_uris":{"android":"levelo://app?vid=721f19a3-6fc8-4aa3-b8d6-b74174066f05","ios":"levelo://app?vid=721f19a3-6fc8-4aa3-b8d6-b74174066f05"},"vehicle_type_id":"4","last_reported":1746326739,"current_range_meters":8400,"station_id":"ce4bhr12rcd13ifvqhpg","pricing_plan_id":"cebpf4jnsgd1na2vs0mg"},{"bike_id":"3a6c1c4a-dd80-4e9d-9632-aaca59f6d0aa","system_id":"levelo_inurba_marseille","lat":43.323601,"lon":5.388904,"is_reserved":false,"is_disabled":false,"rental_uris":{"android":"levelo://app?vid=3a6c1c4a-dd80-4e9d-9632-aaca59f6d0aa","ios":"levelo://app?vid=3a6c1c4a-dd80-4e9d-9632-aaca59f6d0aa"},"vehicle_type_id":"4","last_reported":1746326739,"current_range_meters":8400,"station_id":"ce4bhqp2rcd13ifvqhog","pricing_plan_id":"cebpf4jnsgd1na2vs0mg"},{"bike_id":"efed8418-36b3-4a2f-8a3a-c844b0d0e3ad","system_id":"levelo_inurba_marseille","lat":43.3153,"lon":5.38023,"is_reserved":false,"is_disabled":false,"rental_uris":{"android":"levelo://app?vid=efed8418-36b3-4a2f-8a3a-c844b0d0e3ad","ios":"levelo://app?vid=efed8418-36b3-4a2f-8a3a-c844b0d0e3ad"},"vehicle_type_id":"4","last_reported":1746326739,"current_range_meters":8400,"station_id":"ce4bhsp2rcd13ifvqi50","pricing_plan_id":"cebpf4jnsgd1na2vs0mg"},{"bike_id":"8df6e310-0880-40a9-a691-cd475dfa3928","system_id":"levelo_inurba_marseille","lat":43.28586,"lon":5.442612,"is_reserved":false,"is_disabled":false,"rental_uris":{"android":"levelo://app?vid=8df6e310-0880-40a9-a691-cd475dfa3928","ios":"levelo://app?vid=8df6e310-0880-40a9-a691-cd475dfa3928"},"vehicle_type_id":"4","last_reported":1746326739,"current_range_meters":8400,"station_id":"","pricing_plan_id":"cebpf4jnsgd1na2vs0mg"},{"bike_id":"ee6fc684-f760-429d-b603-077f5f37f4bb","system_id":"levelo_inurba_marseille","lat":43.24384,"lon":5.37058,"is_reserved":false,"is_disabled":false,"rental_uris":{"android":"levelo://app?vid=ee6fc684-f760-429d-b603-077f5f37f4bb","ios":"levelo://app?vid=ee6fc684-f760-429d-b603-077f5f37f4bb"},"vehicle_type_id":"4","last_reported":1746326739,"current_range_meters":8400,"station_id":"ce4bhhh2rcd13ifvqfk0","pricing_plan_id":"cebpf4jnsgd1na2vs0mg"},{"bike_id":"467a0933-aaf2-45f7-94d0-31035f07e7db","system_id":"levelo_inurba_marseille","lat":43.30941,"lon":5.40155,"is_reserved":false,"is_disabled":false,"rental_uris":{"android":"levelo://app?vid=467a0933-aaf2-45f7-94d0-31035f07e7db","ios":"levelo://app?vid=467a0933-aaf2-45f7-94d0-31035f07e7db"},"vehicle_type_id":"4","last_reported":1746326739,"current_range_meters":8800,"station_id":"ce4bgvp2rcd13ifvqct0","pricing_plan_id":"cebpf4jnsgd1na2vs0mg"},{"bike_id":"be9042c4-716a-416e-af52-c92d47776467","system_id":"levelo_inurba_marseille","lat":43.309222,"lon":5.401512,"is_reserved":false,"is_disabled":true,"rental_uris":{"android":"levelo://app?vid=be9042c4-716a-416e-af52-c92d47776467","ios":"levelo://app?vid=be9042c4-716a-416e-af52-c92d47776467"},"vehicle_type_id":"4","last_reported":1746326739,"current_range_meters":8800,"station_id":"ce4bgvp2rcd13ifvqct0","pricing_plan_id":"cebpf4jnsgd1na2vs0mg"},{"bike_id":"d51bd1f8-5797-40a8-8b2d-1b322c3a66a4","system_id":"levelo_inurba_marseille","lat":43.30926,"lon":5.40175,"is_reserved":false,"is_disabled":false,"rental_uris":{"android":"levelo://app?vid=d51bd1f8-5797-40a8-8b2d-1b322c3a66a4","ios":"levelo://app?vid=d51bd1f8-5797-40a8-8b2d-1b322c3a66a4"},"vehicle_type_id":"4","last_reported":1746326739,"current_range_meters":8800,"station_id":"ce4bgvp2rcd13ifvqct0","pricing_plan_id":"cebpf4jnsgd1na2vs0mg"},{"bike_id":"aea58a64-8f37-4527-9055-f1635e818b47","system_id":"levelo_inurba_marseille","lat":43.27918,"lon":5.380127,"is_reserved":false,"is_disabled":false,"rental_uris":{"android":"levelo://app?vid=aea58a64-8f37-4527-9055-f1635e818b47","ios":"levelo://app?vid=aea58a64-8f37-4527-9055-f1635e818b47"},"vehicle_type_id":"4","last_reported":1746326739,"current_range_meters":8800,"station_id":"ce4bhf92rcd13ifvqf50","pricing_plan_id":"cebpf4jnsgd1na2vs0mg"},{"bike_id":"f1ffd2b9-91e9-4bf5-a319-6e95940b0de6","system_id":"levelo_inurba_marseille","lat":43.295534,"lon":5.422782,"is_reserved":false,"is_disabled":false,"rental_uris":{"android":"levelo://app?vid=f1ffd2b9-91e9-4bf5-a319-6e95940b0de6","ios":"levelo://app?vid=f1ffd2b9-91e9-4bf5-a319-6e95940b0de6"},"vehicle_type_id":"4","last_reported":1746326739,"current_range_meters":8800,"station_id":"ce4bhph2rcd13ifvqhdg","pricing_plan_id":"cebpf4jnsgd1na2vs0mg"},{"bike_id":"d1b80fc2-f795-44b4-b467-b83495b681df","system_id":"levelo_inurba_marseille","lat":43.30374,"lon":5.41319,"is_reserved":false,"is_disabled":false,"rental_uris":{"android":"levelo://app?vid=d1b80fc2-f795-44b4-b467-b83495b681df","ios":"levelo://app?vid=d1b80fc2-f795-44b4-b467-b83495b681df"},"vehicle_type_id":"4","last_reported":1746326739,"current_range_meters":8800,"station_id":"ce4bhop2rcd13ifvqh8g","pricing_plan_id":"cebpf4jnsgd1na2vs0mg"},{"bike_id":"eca0c70f-2168-48b0-96be-1e019bae5ee4","system_id":"levelo_inurba_marseille","lat":43.309292,"lon":5.401521,"is_reserved":false,"is_disabled":false,"rental_uris":{"android":"levelo://app?vid=eca0c70f-2168-48b0-96be-1e019bae5ee4","ios":"levelo://app?vid=eca0c70f-2168-48b0-96be-1e019bae5ee4"},"vehicle_type_id":"4","last_reported":1746326739,"current_range_meters":8800,"station_id":"ce4bgvp2rcd13ifvqct0","pricing_plan_id":"cebpf4jnsgd1na2vs0mg"},{"bike_id":"17cd42e0-f3d6-4b5d-a7a7-aae4daea5f81","system_id":"levelo_inurba_marseille","lat":43.211922,"lon":5.350756,"is_reserved":false,"is_disabled":false,"rental_uris":{"android":"levelo://app?vid=17cd42e0-f3d6-4b5d-a7a7-aae4daea5f81","ios":"levelo://app?vid=17cd42e0-f3d6-4b5d-a7a7-aae4daea5f81"},"vehicle_type_id":"4","last_reported":1746326739,"current_range_meters":8800,"station_id":"","pricing_plan_id":"cebpf4jnsgd1na2vs0mg"},{"bike_id":"8a8f6fb5-7eb7-4d18-ac6f-05d90ea70625","system_id":"levelo_inurba_marseille","lat":43.29788,"lon":5.38102,"is_reserved":false,"is_disabled":true,"rental_uris":{"android":"levelo://app?vid=8a8f6fb5-7eb7-4d18-ac6f-05d90ea70625","ios":"levelo://app?vid=8a8f6fb5-7eb7-4d18-ac6f-05d90ea70625"},"vehicle_type_id":"4","last_reported":1746326739,"current_range_meters":9200,"station_id":"ce4bgip2rcd13ifvqbb0","pricing_plan_id":"cebpf4jnsgd1na2vs0mg"},{"bike_id":"42b265ee-2f6e-42e6-be1a-7cd522f1be6f","system_id":"levelo_inurba_marseille","lat":43.278196,"lon":5.407115,"is_reserved":false,"is_disabled":false,"rental_uris":{"android":"levelo://app?vid=42b265ee-2f6e-42e6-be1a-7cd522f1be6f","ios":"levelo://app?vid=42b265ee-2f6e-42e6-be1a-7cd522f1be6f"},"vehicle_type_id":"4","last_reported":1746326739,"current_range_meters":9200,"station_id":"ce4bhnh2rcd13ifvqgtg","pricing_plan_id":"cebpf4jnsgd1na2vs0mg"},{"bike_id":"5d9a54ab-8ca5-45ce-9e8d-1ecc587fe2f3","system_id":"levelo_inurba_marseille","lat":43.297488,"lon":5.406148,"is_reserved":false,"is_disabled":false,"rental_uris":{"android":"levelo://app?vid=5d9a54ab-8ca5-45ce-9e8d-1ecc587fe2f3","ios":"levelo://app?vid=5d9a54ab-8ca5-45ce-9e8d-1ecc587fe2f3"},"vehicle_type_id":"4","last_reported":1746326739,"current_range_meters":9200,"station_id":"","pricing_plan_id":"cebpf4jnsgd1na2vs0mg"},{"bike_id":"4466a348-ba1c-46d7-981b-a5e5602811c3","system_id":"levelo_inurba_marseille","lat":43.30931,"lon":5.40168,"is_reserved":false,"is_disabled":false,"rental_uris":{"android":"levelo://app?vid=4466a348-ba1c-46d7-981b-a5e5602811c3","ios":"levelo://app?vid=4466a348-ba1c-46d7-981b-a5e5602811c3"},"vehicle_type_id":"4","last_reported":1746326739,"current_range_meters":9200,"station_id":"ce4bgvp2rcd13ifvqct0","pricing_plan_id":"cebpf4jnsgd1na2vs0mg"},{"bike_id":"cf035123-62fa-4c21-826e-fa0659a2ac5a","system_id":"levelo_inurba_marseille","lat":43.29278,"lon":5.40119,"is_reserved":false,"is_disabled":false,"rental_uris":{"android":"levelo://app?vid=cf035123-62fa-4c21-826e-fa0659a2ac5a","ios":"levelo://app?vid=cf035123-62fa-4c21-826e-fa0659a2ac5a"},"vehicle_type_id":"4","last_reported":1746326739,"current_range_meters":9200,"station_id":"ce4bh312rcd13ifvqdk0","pricing_plan_id":"cebpf4jnsgd1na2vs0mg"},{"bike_id":"6ae9068b-8534-47e2-832a-cb0e5255371d","system_id":"levelo_inurba_marseille","lat":43.337444,"lon":5.374475,"is_reserved":false,"is_disabled":false,"rental_uris":{"android":"levelo://app?vid=6ae9068b-8534-47e2-832a-cb0e5255371d","ios":"levelo://app?vid=6ae9068b-8534-47e2-832a-cb0e5255371d"},"vehicle_type_id":"4","last_reported":1746326739,"current_range_meters":9200,"station_id":"ce4bgvp2rcd13ifvqct0","pricing_plan_id":"cebpf4jnsgd1na2vs0mg"},{"bike_id":"49ea6cf7-7d43-437d-afa3-41fd760e30be","system_id":"levelo_inurba_marseille","lat":43.29279,"lon":5.40105,"is_reserved":false,"is_disabled":false,"rental_uris":{"android":"levelo://app?vid=49ea6cf7-7d43-437d-afa3-41fd760e30be","ios":"levelo://app?vid=49ea6cf7-7d43-437d-afa3-41fd760e30be"},"vehicle_type_id":"4","last_reported":1746326739,"current_range_meters":8800,"station_id":"ce4bh312rcd13ifvqdk0","pricing_plan_id":"cebpf4jnsgd1na2vs0mg"},{"bike_id":"075c029a-9cf0-42ea-9a02-f2dceec75231","system_id":"levelo_inurba_marseille","lat":43.29879,"lon":5.3974,"is_reserved":false,"is_disabled":false,"rental_uris":{"android":"levelo://app?vid=075c029a-9cf0-42ea-9a02-f2dceec75231","ios":"levelo://app?vid=075c029a-9cf0-42ea-9a02-f2dceec75231"},"vehicle_type_id":"4","last_reported":1746326739,"current_range_meters":9200,"station_id":"ce4bh0h2rcd13ifvqd50","pricing_plan_id":"cebpf4jnsgd1na2vs0mg"},{"bike_id":"0e34a68a-1e7e-4217-99de-5fd03012d1b6","system_id":"levelo_inurba_marseille","lat":43.239636,"lon":5.366276,"is_reserved":false,"is_disabled":false,"rental_uris":{"android":"levelo://app?vid=0e34a68a-1e7e-4217-99de-5fd03012d1b6","ios":"levelo://app?vid=0e34a68a-1e7e-4217-99de-5fd03012d1b6"},"vehicle_type_id":"4","last_reported":1746326739,"current_range_meters":9200,"station_id":"ce4bhi12rcd13ifvqfp0","pricing_plan_id":"cebpf4jnsgd1na2vs0mg"},{"bike_id":"f640e448-7dc3-418f-92aa-015ef161b6dd","system_id":"levelo_inurba_marseille","lat":43.29521,"lon":5.39048,"is_reserved":false,"is_disabled":false,"rental_uris":{"android":"levelo://app?vid=f640e448-7dc3-418f-92aa-015ef161b6dd","ios":"levelo://app?vid=f640e448-7dc3-418f-92aa-015ef161b6dd"},"vehicle_type_id":"4","last_reported":1746326739,"current_range_meters":9200,"station_id":"ce4bh3p2rcd13ifvqdp0","pricing_plan_id":"cebpf4jnsgd1na2vs0mg"},{"bike_id":"f0259f55-382d-4317-a5a3-c63365a0d76b","system_id":"levelo_inurba_marseille","lat":43.25517,"lon":5.41825,"is_reserved":false,"is_disabled":false,"rental_uris":{"android":"levelo://app?vid=f0259f55-382d-4317-a5a3-c63365a0d76b","ios":"levelo://app?vid=f0259f55-382d-4317-a5a3-c63365a0d76b"},"vehicle_type_id":"4","last_reported":1746326739,"current_range_meters":9600,"station_id":"","pricing_plan_id":"cebpf4jnsgd1na2vs0mg"},{"bike_id":"fb582505-15b6-40c6-97cc-2feebea7d568","system_id":"levelo_inurba_marseille","lat":43.30419,"lon":5.39727,"is_reserved":false,"is_disabled":true,"rental_uris":{"android":"levelo://app?vid=fb582505-15b6-40c6-97cc-2feebea7d568","ios":"levelo://app?vid=fb582505-15b6-40c6-97cc-2feebea7d568"},"vehicle_type_id":"4","last_reported":1746326739,"current_range_meters":9600,"station_id":"ce4bh092rcd13ifvqd20","pricing_plan_id":"cebpf4jnsgd1na2vs0mg"},{"bike_id":"59c05668-9a78-4683-b670-a7794c85b3b0","system_id":"levelo_inurba_marseille","lat":43.293755,"lon":5.37858,"is_reserved":false,"is_disabled":true,"rental_uris":{"android":"levelo://app?vid=59c05668-9a78-4683-b670-a7794c85b3b0","ios":"levelo://app?vid=59c05668-9a78-4683-b670-a7794c85b3b0"},"vehicle_type_id":"4","last_reported":1746326739,"current_range_meters":9600,"station_id":"ce4bgjh2rcd13ifvqbf0","pricing_plan_id":"cebpf4jnsgd1na2vs0mg"},{"bike_id":"7417fde9-2253-44a3-b6b5-68219b7cd072","system_id":"levelo_inurba_marseille","lat":43.316959,"lon":5.404627,"is_reserved":false,"is_disabled":false,"rental_uris":{"android":"levelo://app?vid=7417fde9-2253-44a3-b6b5-68219b7cd072","ios":"levelo://app?vid=7417fde9-2253-44a3-b6b5-68219b7cd072"},"vehicle_type_id":"4","last_reported":1746326739,"current_range_meters":9600,"station_id":"ce4bh012rcd13ifvqd00","pricing_plan_id":"cebpf4jnsgd1na2vs0mg"},{"bike_id":"07a73514-2528-4648-b31b-baac83dd205c","system_id":"levelo_inurba_marseille","lat":43.30459,"lon":5.37907,"is_reserved":false,"is_disabled":false,"rental_uris":{"android":"levelo://app?vid=07a73514-2528-4648-b31b-baac83dd205c","ios":"levelo://app?vid=07a73514-2528-4648-b31b-baac83dd205c"},"vehicle_type_id":"4","last_reported":1746326739,"current_range_meters":9600,"station_id":"ce4bgup2rcd13ifvqcn0","pricing_plan_id":"cebpf4jnsgd1na2vs0mg"},{"bike_id":"ca3736c3-df7e-40ec-b1a3-1277811e2e14","system_id":"levelo_inurba_marseille","lat":43.31717,"lon":5.42406,"is_reserved":false,"is_disabled":false,"rental_uris":{"android":"levelo://app?vid=ca3736c3-df7e-40ec-b1a3-1277811e2e14","ios":"levelo://app?vid=ca3736c3-df7e-40ec-b1a3-1277811e2e14"},"vehicle_type_id":"4","last_reported":1746326739,"current_range_meters":9600,"station_id":"ce4bhp92rcd13ifvqhbg","pricing_plan_id":"cebpf4jnsgd1na2vs0mg"},{"bike_id":"3d205e8a-6493-4d13-9c8a-4f78b1f2e3f1","system_id":"levelo_inurba_marseille","lat":43.29029,"lon":5.3864,"is_reserved":false,"is_disabled":false,"rental_uris":{"android":"levelo://app?vid=3d205e8a-6493-4d13-9c8a-4f78b1f2e3f1","ios":"levelo://app?vid=3d205e8a-6493-4d13-9c8a-4f78b1f2e3f1"},"vehicle_type_id":"4","last_reported":1746326739,"current_range_meters":9600,"station_id":"ce4bh4p2rcd13ifvqe0g","pricing_plan_id":"cebpf4jnsgd1na2vs0mg"},{"bike_id":"31a93301-c3a1-4bc4-b2c4-6a455d015fd6","system_id":"levelo_inurba_marseille","lat":43.2974,"lon":5.377003,"is_reserved":false,"is_disabled":true,"rental_uris":{"android":"levelo://app?vid=31a93301-c3a1-4bc4-b2c4-6a455d015fd6","ios":"levelo://app?vid=31a93301-c3a1-4bc4-b2c4-6a455d015fd6"},"vehicle_type_id":"4","last_reported":1746326739,"current_range_meters":9600,"station_id":"ce4bgkh2rcd13ifvqbl0","pricing_plan_id":"cebpf4jnsgd1na2vs0mg"},{"bike_id":"620e5a69-976d-4410-991c-bd64b2919ea5","system_id":"levelo_inurba_marseille","lat":43.29028,"lon":5.38648,"is_reserved":false,"is_disabled":false,"rental_uris":{"android":"levelo://app?vid=620e5a69-976d-4410-991c-bd64b2919ea5","ios":"levelo://app?vid=620e5a69-976d-4410-991c-bd64b2919ea5"},"vehicle_type_id":"4","last_reported":1746326739,"current_range_meters":9600,"station_id":"ce4bh4p2rcd13ifvqe0g","pricing_plan_id":"cebpf4jnsgd1na2vs0mg"},{"bike_id":"86a2459d-b18e-4b10-91ab-0666b3ee510d","system_id":"levelo_inurba_marseille","lat":43.24385,"lon":5.37057,"is_reserved":false,"is_disabled":false,"rental_uris":{"android":"levelo://app?vid=86a2459d-b18e-4b10-91ab-0666b3ee510d","ios":"levelo://app?vid=86a2459d-b18e-4b10-91ab-0666b3ee510d"},"vehicle_type_id":"4","last_reported":1746326739,"current_range_meters":10000,"station_id":"ce4bhhh2rcd13ifvqfk0","pricing_plan_id":"cebpf4jnsgd1na2vs0mg"},{"bike_id":"75fa9943-cbe0-4940-a9be-f80f8dede2da","system_id":"levelo_inurba_marseille","lat":43.22503,"lon":5.34795,"is_reserved":false,"is_disabled":false,"rental_uris":{"android":"levelo://app?vid=75fa9943-cbe0-4940-a9be-f80f8dede2da","ios":"levelo://app?vid=75fa9943-cbe0-4940-a9be-f80f8dede2da"},"vehicle_type_id":"4","last_reported":1746326739,"current_range_meters":10000,"station_id":"st_cvj5dfep6f1abm77gieg","pricing_plan_id":"cebpf4jnsgd1na2vs0mg"},{"bike_id":"b2bed98a-b840-49dc-9665-7e2b295b016b","system_id":"levelo_inurba_marseille","lat":43.292598,"lon":5.384308,"is_reserved":false,"is_disabled":true,"rental_uris":{"android":"levelo://app?vid=b2bed98a-b840-49dc-9665-7e2b295b016b","ios":"levelo://app?vid=b2bed98a-b840-49dc-9665-7e2b295b016b"},"vehicle_type_id":"4","last_reported":1746326739,"current_range_meters":10000,"station_id":"ce4bh692rcd13ifvqea0","pricing_plan_id":"cebpf4jnsgd1na2vs0mg"},{"bike_id":"2f2e2422-0ca9-4635-8561-f770e540dc91","system_id":"levelo_inurba_marseille","lat":43.29792,"lon":5.37004,"is_reserved":false,"is_disabled":false,"rental_uris":{"android":"levelo://app?vid=2f2e2422-0ca9-4635-8561-f770e540dc91","ios":"levelo://app?vid=2f2e2422-0ca9-4635-8561-f770e540dc91"},"vehicle_type_id":"4","last_reported":1746326739,"current_range_meters":10000,"station_id":"","pricing_plan_id":"cebpf4jnsgd1na2vs0mg"},{"bike_id":"c9667bec-b4e1-4aba-85da-6ad1e46c0b9d","system_id":"levelo_inurba_marseille","lat":43.270671,"lon":5.422736,"is_reserved":false,"is_disabled":false,"rental_uris":{"android":"levelo://app?vid=c9667bec-b4e1-4aba-85da-6ad1e46c0b9d","ios":"levelo://app?vid=c9667bec-b4e1-4aba-85da-6ad1e46c0b9d"},"vehicle_type_id":"4","last_reported":1746326739,"current_range_meters":10000,"station_id":"ce4bhk92rcd13ifvqgb0","pricing_plan_id":"cebpf4jnsgd1na2vs0mg"},{"bike_id":"ff85802d-0bcd-4a45-9f91-6d6fa0c2c4f0","system_id":"levelo_inurba_marseille","lat":43.309276,"lon":5.401449,"is_reserved":false,"is_disabled":false,"rental_uris":{"android":"levelo://app?vid=ff85802d-0bcd-4a45-9f91-6d6fa0c2c4f0","ios":"levelo://app?vid=ff85802d-0bcd-4a45-9f91-6d6fa0c2c4f0"},"vehicle_type_id":"4","last_reported":1746326739,"current_range_meters":10000,"station_id":"ce4bgvp2rcd13ifvqct0","pricing_plan_id":"cebpf4jnsgd1na2vs0mg"},{"bike_id":"a37779e7-3d8a-4c82-9997-3090313b05d7","system_id":"levelo_inurba_marseille","lat":43.22928,"lon":5.35388,"is_reserved":false,"is_disabled":true,"rental_uris":{"android":"levelo://app?vid=a37779e7-3d8a-4c82-9997-3090313b05d7","ios":"levelo://app?vid=a37779e7-3d8a-4c82-9997-3090313b05d7"},"vehicle_type_id":"4","last_reported":1746326739,"current_range_meters":10000,"station_id":"cpo3532slgdg3j2ikp40","pricing_plan_id":"cebpf4jnsgd1na2vs0mg"},{"bike_id":"e141d286-5a2c-470e-8ce3-fc63bfe9226f","system_id":"levelo_inurba_marseille","lat":43.337731,"lon":5.418601,"is_reserved":false,"is_disabled":false,"rental_uris":{"android":"levelo://app?vid=e141d286-5a2c-470e-8ce3-fc63bfe9226f","ios":"levelo://app?vid=e141d286-5a2c-470e-8ce3-fc63bfe9226f"},"vehicle_type_id":"4","last_reported":1746326739,"current_range_meters":10000,"station_id":"","pricing_plan_id":"cebpf4jnsgd1na2vs0mg"},{"bike_id":"8cf12213-8b83-484f-b1ad-3c644af4d42a","system_id":"levelo_inurba_marseille","lat":43.2872,"lon":5.37943,"is_reserved":false,"is_disabled":false,"rental_uris":{"android":"levelo://app?vid=8cf12213-8b83-484f-b1ad-3c644af4d42a","ios":"levelo://app?vid=8cf12213-8b83-484f-b1ad-3c644af4d42a"},"vehicle_type_id":"4","last_reported":1746326739,"current_range_meters":10000,"station_id":"ce4bh9p2rcd13ifvqec0","pricing_plan_id":"cebpf4jnsgd1na2vs0mg"},{"bike_id":"c6063f25-88c2-4ee8-8b47-7eeebc20b14f","system_id":"levelo_inurba_marseille","lat":43.247999,"lon":5.3746,"is_reserved":false,"is_disabled":false,"rental_uris":{"android":"levelo://app?vid=c6063f25-88c2-4ee8-8b47-7eeebc20b14f","ios":"levelo://app?vid=c6063f25-88c2-4ee8-8b47-7eeebc20b14f"},"vehicle_type_id":"4","last_reported":1746326739,"current_range_meters":10000,"station_id":"ce4bhgh2rcd13ifvqfb0","pricing_plan_id":"cebpf4jnsgd1na2vs0mg"},{"bike_id":"b8028bbc-e0b2-47d7-951d-2ca751c3d28a","system_id":"levelo_inurba_marseille","lat":43.278,"lon":5.40735,"is_reserved":false,"is_disabled":false,"rental_uris":{"android":"levelo://app?vid=b8028bbc-e0b2-47d7-951d-2ca751c3d28a","ios":"levelo://app?vid=b8028bbc-e0b2-47d7-951d-2ca751c3d28a"},"vehicle_type_id":"4","last_reported":1746326739,"current_range_meters":10000,"station_id":"ce4bhnh2rcd13ifvqgtg","pricing_plan_id":"cebpf4jnsgd1na2vs0mg"},{"bike_id":"1535a100-a5e3-470b-8112-05a549965b00","system_id":"levelo_inurba_marseille","lat":43.313243,"lon":5.396828,"is_reserved":false,"is_disabled":false,"rental_uris":{"android":"levelo://app?vid=1535a100-a5e3-470b-8112-05a549965b00","ios":"levelo://app?vid=1535a100-a5e3-470b-8112-05a549965b00"},"vehicle_type_id":"4","last_reported":1746326739,"current_range_meters":10000,"station_id":"ce4bgvp2rcd13ifvqcu0","pricing_plan_id":"cebpf4jnsgd1na2vs0mg"},{"bike_id":"0f53b038-46c4-4a2d-92c2-8fa07ea9b8da","system_id":"levelo_inurba_marseille","lat":43.30782,"lon":5.37669,"is_reserved":false,"is_disabled":false,"rental_uris":{"android":"levelo://app?vid=0f53b038-46c4-4a2d-92c2-8fa07ea9b8da","ios":"levelo://app?vid=0f53b038-46c4-4a2d-92c2-8fa07ea9b8da"},"vehicle_type_id":"4","last_reported":1746326739,"current_range_meters":10000,"station_id":"ce4bgv92rcd13ifvqcq0","pricing_plan_id":"cebpf4jnsgd1na2vs0mg"},{"bike_id":"e4856e11-0139-477e-a022-4b979369719b","system_id":"levelo_inurba_marseille","lat":43.239625,"lon":5.36631,"is_reserved":false,"is_disabled":false,"rental_uris":{"android":"levelo://app?vid=e4856e11-0139-477e-a022-4b979369719b","ios":"levelo://app?vid=e4856e11-0139-477e-a022-4b979369719b"},"vehicle_type_id":"4","last_reported":1746326739,"current_range_meters":10800,"station_id":"ce4bhi12rcd13ifvqfp0","pricing_plan_id":"cebpf4jnsgd1na2vs0mg"},{"bike_id":"d06cbf0c-a30d-4bb1-91c3-661c22c8ec38","system_id":"levelo_inurba_marseille","lat":43.247785,"lon":5.37455,"is_reserved":false,"is_disabled":false,"rental_uris":{"android":"levelo://app?vid=d06cbf0c-a30d-4bb1-91c3-661c22c8ec38","ios":"levelo://app?vid=d06cbf0c-a30d-4bb1-91c3-661c22c8ec38"},"vehicle_type_id":"4","last_reported":1746326739,"current_range_meters":10800,"station_id":"ce4bhgh2rcd13ifvqfb0","pricing_plan_id":"cebpf4jnsgd1na2vs0mg"},{"bike_id":"ce014439-f00c-4b3e-87f8-36784f566b5c","system_id":"levelo_inurba_marseille","lat":43.28464,"lon":5.35893,"is_reserved":false,"is_disabled":false,"rental_uris":{"android":"levelo://app?vid=ce014439-f00c-4b3e-87f8-36784f566b5c","ios":"levelo://app?vid=ce014439-f00c-4b3e-87f8-36784f566b5c"},"vehicle_type_id":"4","last_reported":1746326739,"current_range_meters":10800,"station_id":"ce4bhah2rcd13ifvqei0","pricing_plan_id":"cebpf4jnsgd1na2vs0mg"},{"bike_id":"f32ca024-e3f7-4855-acbc-43ebe40dfcfa","system_id":"levelo_inurba_marseille","lat":43.3127,"lon":5.40178,"is_reserved":false,"is_disabled":false,"rental_uris":{"android":"levelo://app?vid=f32ca024-e3f7-4855-acbc-43ebe40dfcfa","ios":"levelo://app?vid=f32ca024-e3f7-4855-acbc-43ebe40dfcfa"},"vehicle_type_id":"4","last_reported":1746326739,"current_range_meters":10800,"station_id":"ce4bh092rcd13ifvqd30","pricing_plan_id":"cebpf4jnsgd1na2vs0mg"},{"bike_id":"dde313c9-2956-4963-9e10-a6ae4348ff85","system_id":"levelo_inurba_marseille","lat":43.31487,"lon":5.37312,"is_reserved":false,"is_disabled":false,"rental_uris":{"android":"levelo://app?vid=dde313c9-2956-4963-9e10-a6ae4348ff85","ios":"levelo://app?vid=dde313c9-2956-4963-9e10-a6ae4348ff85"},"vehicle_type_id":"4","last_reported":1746326739,"current_range_meters":10800,"station_id":"ce4bgt12rcd13ifvqcd0","pricing_plan_id":"cebpf4jnsgd1na2vs0mg"},{"bike_id":"274ad913-cb5d-44ea-8484-26eae07424ea","system_id":"levelo_inurba_marseille","lat":43.2585,"lon":5.39914,"is_reserved":false,"is_disabled":true,"rental_uris":{"android":"levelo://app?vid=274ad913-cb5d-44ea-8484-26eae07424ea","ios":"levelo://app?vid=274ad913-cb5d-44ea-8484-26eae07424ea"},"vehicle_type_id":"4","last_reported":1746326739,"current_range_meters":11200,"station_id":"ce4bhl92rcd13ifvqghg","pricing_plan_id":"cebpf4jnsgd1na2vs0mg"},{"bike_id":"c2c5beff-ec8e-48ee-825a-e3cdf2e54b49","system_id":"levelo_inurba_marseille","lat":43.29223,"lon":5.4002,"is_reserved":false,"is_disabled":false,"rental_uris":{"android":"levelo://app?vid=c2c5beff-ec8e-48ee-825a-e3cdf2e54b49","ios":"levelo://app?vid=c2c5beff-ec8e-48ee-825a-e3cdf2e54b49"},"vehicle_type_id":"4","last_reported":1746326739,"current_range_meters":11200,"station_id":"","pricing_plan_id":"cebpf4jnsgd1na2vs0mg"},{"bike_id":"fd2c3c67-23a6-4380-b7ca-8f23c8f78921","system_id":"levelo_inurba_marseille","lat":43.323664,"lon":5.367595,"is_reserved":false,"is_disabled":false,"rental_uris":{"android":"levelo://app?vid=fd2c3c67-23a6-4380-b7ca-8f23c8f78921","ios":"levelo://app?vid=fd2c3c67-23a6-4380-b7ca-8f23c8f78921"},"vehicle_type_id":"4","last_reported":1746326739,"current_range_meters":11200,"station_id":"ce4bhsh2rcd13ifvqi2g","pricing_plan_id":"cebpf4jnsgd1na2vs0mg"},{"bike_id":"1f192409-3bd6-4ef0-ae18-1d604dedc99e","system_id":"levelo_inurba_marseille","lat":43.23312,"lon":5.357447,"is_reserved":false,"is_disabled":false,"rental_uris":{"android":"levelo://app?vid=1f192409-3bd6-4ef0-ae18-1d604dedc99e","ios":"levelo://app?vid=1f192409-3bd6-4ef0-ae18-1d604dedc99e"},"vehicle_type_id":"4","last_reported":1746326739,"current_range_meters":11200,"station_id":"ce4bhu92rcd13ifvqi70","pricing_plan_id":"cebpf4jnsgd1na2vs0mg"},{"bike_id":"852af208-f459-45cf-a1eb-e5e60e54fb23","system_id":"levelo_inurba_marseille","lat":43.28844,"lon":5.39307,"is_reserved":false,"is_disabled":false,"rental_uris":{"android":"levelo://app?vid=852af208-f459-45cf-a1eb-e5e60e54fb23","ios":"levelo://app?vid=852af208-f459-45cf-a1eb-e5e60e54fb23"},"vehicle_type_id":"4","last_reported":1746326739,"current_range_meters":11600,"station_id":"ce4bh2p2rcd13ifvqdi0","pricing_plan_id":"cebpf4jnsgd1na2vs0mg"},{"bike_id":"aedf206f-89f3-4f30-9da6-56fb7ff8915b","system_id":"levelo_inurba_marseille","lat":43.281097,"lon":5.403965,"is_reserved":false,"is_disabled":false,"rental_uris":{"android":"levelo://app?vid=aedf206f-89f3-4f30-9da6-56fb7ff8915b","ios":"levelo://app?vid=aedf206f-89f3-4f30-9da6-56fb7ff8915b"},"vehicle_type_id":"4","last_reported":1746326739,"current_range_meters":11600,"station_id":"","pricing_plan_id":"cebpf4jnsgd1na2vs0mg"},{"bike_id":"fa6bea24-a402-40ce-8d5e-b9ce6630ef8c","system_id":"levelo_inurba_marseille","lat":43.28472,"lon":5.38433,"is_reserved":false,"is_disabled":false,"rental_uris":{"android":"levelo://app?vid=fa6bea24-a402-40ce-8d5e-b9ce6630ef8c","ios":"levelo://app?vid=fa6bea24-a402-40ce-8d5e-b9ce6630ef8c"},"vehicle_type_id":"4","last_reported":1746326739,"current_range_meters":11600,"station_id":"ce4bh512rcd13ifvqe3g","pricing_plan_id":"cebpf4jnsgd1na2vs0mg"},{"bike_id":"163f4c45-0d03-426a-a685-e0b9609ff7de","system_id":"levelo_inurba_marseille","lat":43.2872,"lon":5.37944,"is_reserved":false,"is_disabled":false,"rental_uris":{"android":"levelo://app?vid=163f4c45-0d03-426a-a685-e0b9609ff7de","ios":"levelo://app?vid=163f4c45-0d03-426a-a685-e0b9609ff7de"},"vehicle_type_id":"4","last_reported":1746326739,"current_range_meters":11600,"station_id":"ce4bh9p2rcd13ifvqec0","pricing_plan_id":"cebpf4jnsgd1na2vs0mg"},{"bike_id":"599a893c-7ae0-4a7c-aee5-ee11e134afa1","system_id":"levelo_inurba_marseille","lat":43.26224,"lon":5.404465,"is_reserved":false,"is_disabled":false,"rental_uris":{"android":"levelo://app?vid=599a893c-7ae0-4a7c-aee5-ee11e134afa1","ios":"levelo://app?vid=599a893c-7ae0-4a7c-aee5-ee11e134afa1"},"vehicle_type_id":"4","last_reported":1746326739,"current_range_meters":11600,"station_id":"ce4bhmh2rcd13ifvqgmg","pricing_plan_id":"cebpf4jnsgd1na2vs0mg"},{"bike_id":"3bd56796-a588-4245-b00a-65ccc252ae20","system_id":"levelo_inurba_marseille","lat":43.323406,"lon":5.40617,"is_reserved":false,"is_disabled":false,"rental_uris":{"android":"levelo://app?vid=3bd56796-a588-4245-b00a-65ccc252ae20","ios":"levelo://app?vid=3bd56796-a588-4245-b00a-65ccc252ae20"},"vehicle_type_id":"4","last_reported":1746326739,"current_range_meters":11600,"station_id":"ce4bhq92rcd13ifvqhjg","pricing_plan_id":"cebpf4jnsgd1na2vs0mg"},{"bike_id":"6338e318-2f80-4349-ae11-615c887b4fb9","system_id":"levelo_inurba_marseille","lat":43.25917,"lon":5.40883,"is_reserved":false,"is_disabled":false,"rental_uris":{"android":"levelo://app?vid=6338e318-2f80-4349-ae11-615c887b4fb9","ios":"levelo://app?vid=6338e318-2f80-4349-ae11-615c887b4fb9"},"vehicle_type_id":"4","last_reported":1746326739,"current_range_meters":11600,"station_id":"ce4bhm92rcd13ifvqglg","pricing_plan_id":"cebpf4jnsgd1na2vs0mg"},{"bike_id":"7e0948f1-0ce3-44e0-b278-183ae07c1e28","system_id":"levelo_inurba_marseille","lat":43.29534,"lon":5.39024,"is_reserved":false,"is_disabled":false,"rental_uris":{"android":"levelo://app?vid=7e0948f1-0ce3-44e0-b278-183ae07c1e28","ios":"levelo://app?vid=7e0948f1-0ce3-44e0-b278-183ae07c1e28"},"vehicle_type_id":"4","last_reported":1746326739,"current_range_meters":12000,"station_id":"ce4bh3p2rcd13ifvqdp0","pricing_plan_id":"cebpf4jnsgd1na2vs0mg"},{"bike_id":"490f4dd2-526f-486e-be14-25a2ce708a63","system_id":"levelo_inurba_marseille","lat":43.284164,"lon":5.3857,"is_reserved":false,"is_disabled":false,"rental_uris":{"android":"levelo://app?vid=490f4dd2-526f-486e-be14-25a2ce708a63","ios":"levelo://app?vid=490f4dd2-526f-486e-be14-25a2ce708a63"},"vehicle_type_id":"4","last_reported":1746326739,"current_range_meters":12000,"station_id":"ce4bh492rcd13ifvqdvg","pricing_plan_id":"cebpf4jnsgd1na2vs0mg"},{"bike_id":"1d59b5c9-cca4-43f9-a7f4-1bb7ebcfb8ae","system_id":"levelo_inurba_marseille","lat":43.27373,"lon":5.362545,"is_reserved":false,"is_disabled":true,"rental_uris":{"android":"levelo://app?vid=1d59b5c9-cca4-43f9-a7f4-1bb7ebcfb8ae","ios":"levelo://app?vid=1d59b5c9-cca4-43f9-a7f4-1bb7ebcfb8ae"},"vehicle_type_id":"4","last_reported":1746326739,"current_range_meters":12000,"station_id":"","pricing_plan_id":"cebpf4jnsgd1na2vs0mg"},{"bike_id":"28b4bc83-5c8b-4e9d-aba4-7a153d3e0dfe","system_id":"levelo_inurba_marseille","lat":43.30316,"lon":5.40449,"is_reserved":false,"is_disabled":false,"rental_uris":{"android":"levelo://app?vid=28b4bc83-5c8b-4e9d-aba4-7a153d3e0dfe","ios":"levelo://app?vid=28b4bc83-5c8b-4e9d-aba4-7a153d3e0dfe"},"vehicle_type_id":"4","last_reported":1746326739,"current_range_meters":12000,"station_id":"ce4bh012rcd13ifvqd10","pricing_plan_id":"cebpf4jnsgd1na2vs0mg"},{"bike_id":"7aef014b-bd90-4df0-8e36-808e26da2aef","system_id":"levelo_inurba_marseille","lat":43.2786,"lon":5.39226,"is_reserved":false,"is_disabled":false,"rental_uris":{"android":"levelo://app?vid=7aef014b-bd90-4df0-8e36-808e26da2aef","ios":"levelo://app?vid=7aef014b-bd90-4df0-8e36-808e26da2aef"},"vehicle_type_id":"4","last_reported":1746326739,"current_range_meters":12400,"station_id":"ce4bhjp2rcd13ifvqga0","pricing_plan_id":"cebpf4jnsgd1na2vs0mg"},{"bike_id":"4cd32815-4894-41a0-9a3d-e6c837dcaeea","system_id":"levelo_inurba_marseille","lat":43.299737,"lon":5.38525,"is_reserved":false,"is_disabled":true,"rental_uris":{"android":"levelo://app?vid=4cd32815-4894-41a0-9a3d-e6c837dcaeea","ios":"levelo://app?vid=4cd32815-4894-41a0-9a3d-e6c837dcaeea"},"vehicle_type_id":"4","last_reported":1746326739,"current_range_meters":12400,"station_id":"ce4bgj92rcd13ifvqbd0","pricing_plan_id":"cebpf4jnsgd1na2vs0mg"},{"bike_id":"ca7a629c-6dce-47e8-8b04-8b57930ea53a","system_id":"levelo_inurba_marseille","lat":43.24177,"lon":5.39728,"is_reserved":false,"is_disabled":false,"rental_uris":{"android":"levelo://app?vid=ca7a629c-6dce-47e8-8b04-8b57930ea53a","ios":"levelo://app?vid=ca7a629c-6dce-47e8-8b04-8b57930ea53a"},"vehicle_type_id":"4","last_reported":1746326739,"current_range_meters":12400,"station_id":"ce4bhn12rcd13ifvqgpg","pricing_plan_id":"cebpf4jnsgd1na2vs0mg"},{"bike_id":"4c281719-0627-4ebf-8af4-07cb2ba7736a","system_id":"levelo_inurba_marseille","lat":43.33714,"lon":5.39206,"is_reserved":false,"is_disabled":false,"rental_uris":{"android":"levelo://app?vid=4c281719-0627-4ebf-8af4-07cb2ba7736a","ios":"levelo://app?vid=4c281719-0627-4ebf-8af4-07cb2ba7736a"},"vehicle_type_id":"4","last_reported":1746326739,"current_range_meters":12400,"station_id":"ce4bhr92rcd13ifvqhsg","pricing_plan_id":"cebpf4jnsgd1na2vs0mg"},{"bike_id":"3e84121a-71ad-4261-b6a9-37316f8cbd59","system_id":"levelo_inurba_marseille","lat":43.29019,"lon":5.386317,"is_reserved":false,"is_disabled":true,"rental_uris":{"android":"levelo://app?vid=3e84121a-71ad-4261-b6a9-37316f8cbd59","ios":"levelo://app?vid=3e84121a-71ad-4261-b6a9-37316f8cbd59"},"vehicle_type_id":"4","last_reported":1746326739,"current_range_meters":12400,"station_id":"ce4bh4p2rcd13ifvqe0g","pricing_plan_id":"cebpf4jnsgd1na2vs0mg"},{"bike_id":"9d5c0d8f-2fa6-4d40-9bea-4b82241245a4","system_id":"levelo_inurba_marseille","lat":43.2885,"lon":5.39311,"is_reserved":false,"is_disabled":false,"rental_uris":{"android":"levelo://app?vid=9d5c0d8f-2fa6-4d40-9bea-4b82241245a4","ios":"levelo://app?vid=9d5c0d8f-2fa6-4d40-9bea-4b82241245a4"},"vehicle_type_id":"4","last_reported":1746326739,"current_range_meters":12800,"station_id":"ce4bh2p2rcd13ifvqdi0","pricing_plan_id":"cebpf4jnsgd1na2vs0mg"},{"bike_id":"0ecfd02f-f853-4362-9dcd-e959b1ad8321","system_id":"levelo_inurba_marseille","lat":43.241765,"lon":5.397343,"is_reserved":false,"is_disabled":false,"rental_uris":{"android":"levelo://app?vid=0ecfd02f-f853-4362-9dcd-e959b1ad8321","ios":"levelo://app?vid=0ecfd02f-f853-4362-9dcd-e959b1ad8321"},"vehicle_type_id":"4","last_reported":1746326739,"current_range_meters":12800,"station_id":"ce4bhn12rcd13ifvqgpg","pricing_plan_id":"cebpf4jnsgd1na2vs0mg"},{"bike_id":"3df7f31a-c849-441e-9c7a-62e1ff45d776","system_id":"levelo_inurba_marseille","lat":43.304116,"lon":5.412905,"is_reserved":false,"is_disabled":false,"rental_uris":{"android":"levelo://app?vid=3df7f31a-c849-441e-9c7a-62e1ff45d776","ios":"levelo://app?vid=3df7f31a-c849-441e-9c7a-62e1ff45d776"},"vehicle_type_id":"4","last_reported":1746326739,"current_range_meters":12800,"station_id":"ce4bhop2rcd13ifvqh8g","pricing_plan_id":"cebpf4jnsgd1na2vs0mg"},{"bike_id":"39513858-7b2e-4512-84f2-b1cf96ce588f","system_id":"levelo_inurba_marseille","lat":43.312821,"lon":5.401669,"is_reserved":false,"is_disabled":false,"rental_uris":{"android":"levelo://app?vid=39513858-7b2e-4512-84f2-b1cf96ce588f","ios":"levelo://app?vid=39513858-7b2e-4512-84f2-b1cf96ce588f"},"vehicle_type_id":"4","last_reported":1746326739,"current_range_meters":13600,"station_id":"ce4bh092rcd13ifvqd30","pricing_plan_id":"cebpf4jnsgd1na2vs0mg"},{"bike_id":"09231eea-5f44-4616-96b6-0b767783e225","system_id":"levelo_inurba_marseille","lat":43.306403,"lon":5.400901,"is_reserved":false,"is_disabled":false,"rental_uris":{"android":"levelo://app?vid=09231eea-5f44-4616-96b6-0b767783e225","ios":"levelo://app?vid=09231eea-5f44-4616-96b6-0b767783e225"},"vehicle_type_id":"4","last_reported":1746326739,"current_range_meters":13600,"station_id":"ce4bh112rcd13ifvqda0","pricing_plan_id":"cebpf4jnsgd1na2vs0mg"},{"bike_id":"89661c15-def9-4711-90fd-17ec34ee0c83","system_id":"levelo_inurba_marseille","lat":43.29443,"lon":5.3974,"is_reserved":false,"is_disabled":false,"rental_uris":{"android":"levelo://app?vid=89661c15-def9-4711-90fd-17ec34ee0c83","ios":"levelo://app?vid=89661c15-def9-4711-90fd-17ec34ee0c83"},"vehicle_type_id":"4","last_reported":1746326739,"current_range_meters":13600,"station_id":"ce4bh3h2rcd13ifvqdo0","pricing_plan_id":"cebpf4jnsgd1na2vs0mg"},{"bike_id":"77e5fc0c-8247-4eae-976e-b65c5c479c47","system_id":"levelo_inurba_marseille","lat":43.243875,"lon":5.370537,"is_reserved":false,"is_disabled":false,"rental_uris":{"android":"levelo://app?vid=77e5fc0c-8247-4eae-976e-b65c5c479c47","ios":"levelo://app?vid=77e5fc0c-8247-4eae-976e-b65c5c479c47"},"vehicle_type_id":"4","last_reported":1746326739,"current_range_meters":13600,"station_id":"ce4bhhh2rcd13ifvqfk0","pricing_plan_id":"cebpf4jnsgd1na2vs0mg"},{"bike_id":"c0013652-b9c1-4ebe-937b-3643233b17e5","system_id":"levelo_inurba_marseille","lat":43.28416,"lon":5.39211,"is_reserved":false,"is_disabled":false,"rental_uris":{"android":"levelo://app?vid=c0013652-b9c1-4ebe-937b-3643233b17e5","ios":"levelo://app?vid=c0013652-b9c1-4ebe-937b-3643233b17e5"},"vehicle_type_id":"4","last_reported":1746326739,"current_range_meters":13600,"station_id":"ce4bhoh2rcd13ifvqh5g","pricing_plan_id":"cebpf4jnsgd1na2vs0mg"},{"bike_id":"63f3a9a6-4e9a-44ca-a34f-2db972116f8c","system_id":"levelo_inurba_marseille","lat":43.25123,"lon":5.40322,"is_reserved":false,"is_disabled":false,"rental_uris":{"android":"levelo://app?vid=63f3a9a6-4e9a-44ca-a34f-2db972116f8c","ios":"levelo://app?vid=63f3a9a6-4e9a-44ca-a34f-2db972116f8c"},"vehicle_type_id":"4","last_reported":1746326739,"current_range_meters":13600,"station_id":"ce4bhlh2rcd13ifvqgig","pricing_plan_id":"cebpf4jnsgd1na2vs0mg"},{"bike_id":"ce9942f4-5aaf-4e5d-b166-383aef691ccf","system_id":"levelo_inurba_marseille","lat":43.30771,"lon":5.37663,"is_reserved":false,"is_disabled":false,"rental_uris":{"android":"levelo://app?vid=ce9942f4-5aaf-4e5d-b166-383aef691ccf","ios":"levelo://app?vid=ce9942f4-5aaf-4e5d-b166-383aef691ccf"},"vehicle_type_id":"4","last_reported":1746326739,"current_range_meters":14000,"station_id":"ce4bgv92rcd13ifvqcq0","pricing_plan_id":"cebpf4jnsgd1na2vs0mg"},{"bike_id":"e14f0e0b-57ce-42d5-80f6-e3d891b564d1","system_id":"levelo_inurba_marseille","lat":43.270695,"lon":5.422763,"is_reserved":false,"is_disabled":false,"rental_uris":{"android":"levelo://app?vid=e14f0e0b-57ce-42d5-80f6-e3d891b564d1","ios":"levelo://app?vid=e14f0e0b-57ce-42d5-80f6-e3d891b564d1"},"vehicle_type_id":"4","last_reported":1746326739,"current_range_meters":14000,"station_id":"ce4bhk92rcd13ifvqgb0","pricing_plan_id":"cebpf4jnsgd1na2vs0mg"},{"bike_id":"668793e6-264d-46ce-b512-20b76e770b55","system_id":"levelo_inurba_marseille","lat":43.306052,"lon":5.393372,"is_reserved":false,"is_disabled":false,"rental_uris":{"android":"levelo://app?vid=668793e6-264d-46ce-b512-20b76e770b55","ios":"levelo://app?vid=668793e6-264d-46ce-b512-20b76e770b55"},"vehicle_type_id":"4","last_reported":1746326739,"current_range_meters":14000,"station_id":"ce4bh0p2rcd13ifvqd80","pricing_plan_id":"cebpf4jnsgd1na2vs0mg"},{"bike_id":"2a1262f2-35d5-469b-9d0d-130c6876fe29","system_id":"levelo_inurba_marseille","lat":43.24079,"lon":5.37758,"is_reserved":false,"is_disabled":false,"rental_uris":{"android":"levelo://app?vid=2a1262f2-35d5-469b-9d0d-130c6876fe29","ios":"levelo://app?vid=2a1262f2-35d5-469b-9d0d-130c6876fe29"},"vehicle_type_id":"4","last_reported":1746326739,"current_range_meters":14000,"station_id":"ce4bhnp2rcd13ifvqgvg","pricing_plan_id":"cebpf4jnsgd1na2vs0mg"},{"bike_id":"86b26b56-3573-42a8-ae99-1ff808ff1f63","system_id":"levelo_inurba_marseille","lat":43.30689,"lon":5.37371,"is_reserved":false,"is_disabled":false,"rental_uris":{"android":"levelo://app?vid=86b26b56-3573-42a8-ae99-1ff808ff1f63","ios":"levelo://app?vid=86b26b56-3573-42a8-ae99-1ff808ff1f63"},"vehicle_type_id":"4","last_reported":1746326739,"current_range_meters":14400,"station_id":"","pricing_plan_id":"cebpf4jnsgd1na2vs0mg"},{"bike_id":"b51e8583-0fb2-49ca-9c11-9dbce28dfa5d","system_id":"levelo_inurba_marseille","lat":43.231945,"lon":5.355498,"is_reserved":false,"is_disabled":false,"rental_uris":{"android":"levelo://app?vid=b51e8583-0fb2-49ca-9c11-9dbce28dfa5d","ios":"levelo://app?vid=b51e8583-0fb2-49ca-9c11-9dbce28dfa5d"},"vehicle_type_id":"4","last_reported":1746326739,"current_range_meters":14400,"station_id":"ce4bhu92rcd13ifvqi70","pricing_plan_id":"cebpf4jnsgd1na2vs0mg"},{"bike_id":"dffda755-2feb-41dd-8db8-12eafc41bdf7","system_id":"levelo_inurba_marseille","lat":43.315305,"lon":5.380375,"is_reserved":false,"is_disabled":false,"rental_uris":{"android":"levelo://app?vid=dffda755-2feb-41dd-8db8-12eafc41bdf7","ios":"levelo://app?vid=dffda755-2feb-41dd-8db8-12eafc41bdf7"},"vehicle_type_id":"4","last_reported":1746326739,"current_range_meters":14400,"station_id":"ce4bhsp2rcd13ifvqi50","pricing_plan_id":"cebpf4jnsgd1na2vs0mg"},{"bike_id":"ccc092cd-f13e-47c5-a0e2-a00ad348f228","system_id":"levelo_inurba_marseille","lat":43.30788,"lon":5.3765,"is_reserved":false,"is_disabled":false,"rental_uris":{"android":"levelo://app?vid=ccc092cd-f13e-47c5-a0e2-a00ad348f228","ios":"levelo://app?vid=ccc092cd-f13e-47c5-a0e2-a00ad348f228"},"vehicle_type_id":"4","last_reported":1746326739,"current_range_meters":14400,"station_id":"ce4bgv92rcd13ifvqcq0","pricing_plan_id":"cebpf4jnsgd1na2vs0mg"},{"bike_id":"3fd1784f-5f56-45d7-9329-0aa3bf70e339","system_id":"levelo_inurba_marseille","lat":43.29929,"lon":5.365317,"is_reserved":false,"is_disabled":false,"rental_uris":{"android":"levelo://app?vid=3fd1784f-5f56-45d7-9329-0aa3bf70e339","ios":"levelo://app?vid=3fd1784f-5f56-45d7-9329-0aa3bf70e339"},"vehicle_type_id":"4","last_reported":1746326739,"current_range_meters":14800,"station_id":"ce4bgm92rcd13ifvqbr0","pricing_plan_id":"cebpf4jnsgd1na2vs0mg"},{"bike_id":"c1ab16b8-614e-4953-85ce-5eb8bf7c8311","system_id":"levelo_inurba_marseille","lat":43.2406,"lon":5.37766,"is_reserved":false,"is_disabled":false,"rental_uris":{"android":"levelo://app?vid=c1ab16b8-614e-4953-85ce-5eb8bf7c8311","ios":"levelo://app?vid=c1ab16b8-614e-4953-85ce-5eb8bf7c8311"},"vehicle_type_id":"4","last_reported":1746326739,"current_range_meters":14800,"station_id":"ce4bhnp2rcd13ifvqgvg","pricing_plan_id":"cebpf4jnsgd1na2vs0mg"},{"bike_id":"40c8c6a5-c461-4140-8cca-f0117f90b9f4","system_id":"levelo_inurba_marseille","lat":43.31108,"lon":5.37766,"is_reserved":false,"is_disabled":false,"rental_uris":{"android":"levelo://app?vid=40c8c6a5-c461-4140-8cca-f0117f90b9f4","ios":"levelo://app?vid=40c8c6a5-c461-4140-8cca-f0117f90b9f4"},"vehicle_type_id":"4","last_reported":1746326739,"current_range_meters":14800,"station_id":"ce4bgt92rcd13ifvqcg0","pricing_plan_id":"cebpf4jnsgd1na2vs0mg"},{"bike_id":"3b49bda8-5f33-4801-b373-bee6406e692b","system_id":"levelo_inurba_marseille","lat":43.30878,"lon":5.37209,"is_reserved":false,"is_disabled":false,"rental_uris":{"android":"levelo://app?vid=3b49bda8-5f33-4801-b373-bee6406e692b","ios":"levelo://app?vid=3b49bda8-5f33-4801-b373-bee6406e692b"},"vehicle_type_id":"4","last_reported":1746326739,"current_range_meters":14800,"station_id":"ce4bguh2rcd13ifvqckg","pricing_plan_id":"cebpf4jnsgd1na2vs0mg"},{"bike_id":"57b577a6-05e4-403f-8e08-8a8bb593ff51","system_id":"levelo_inurba_marseille","lat":43.289402,"lon":5.366391,"is_reserved":false,"is_disabled":true,"rental_uris":{"android":"levelo://app?vid=57b577a6-05e4-403f-8e08-8a8bb593ff51","ios":"levelo://app?vid=57b577a6-05e4-403f-8e08-8a8bb593ff51"},"vehicle_type_id":"4","last_reported":1746326739,"current_range_meters":14800,"station_id":"ce4bhap2rcd13ifvqek0","pricing_plan_id":"cebpf4jnsgd1na2vs0mg"},{"bike_id":"1b428c7e-e841-4652-9957-be5f36cf66aa","system_id":"levelo_inurba_marseille","lat":43.24054,"lon":5.37762,"is_reserved":false,"is_disabled":false,"rental_uris":{"android":"levelo://app?vid=1b428c7e-e841-4652-9957-be5f36cf66aa","ios":"levelo://app?vid=1b428c7e-e841-4652-9957-be5f36cf66aa"},"vehicle_type_id":"4","last_reported":1746326739,"current_range_meters":14800,"station_id":"ce4bhnp2rcd13ifvqgvg","pricing_plan_id":"cebpf4jnsgd1na2vs0mg"},{"bike_id":"05fb8e53-690e-4c91-83ac-d946606b1d9d","system_id":"levelo_inurba_marseille","lat":43.31266,"lon":5.40193,"is_reserved":false,"is_disabled":false,"rental_uris":{"android":"levelo://app?vid=05fb8e53-690e-4c91-83ac-d946606b1d9d","ios":"levelo://app?vid=05fb8e53-690e-4c91-83ac-d946606b1d9d"},"vehicle_type_id":"4","last_reported":1746326739,"current_range_meters":14800,"station_id":"ce4bh092rcd13ifvqd30","pricing_plan_id":"cebpf4jnsgd1na2vs0mg"},{"bike_id":"05e7109b-cd8a-4c6b-a518-587cb1c5917e","system_id":"levelo_inurba_marseille","lat":43.2898,"lon":5.37834,"is_reserved":false,"is_disabled":false,"rental_uris":{"android":"levelo://app?vid=05e7109b-cd8a-4c6b-a518-587cb1c5917e","ios":"levelo://app?vid=05e7109b-cd8a-4c6b-a518-587cb1c5917e"},"vehicle_type_id":"4","last_reported":1746326739,"current_range_meters":14800,"station_id":"ce4bh9p2rcd13ifvqed0","pricing_plan_id":"cebpf4jnsgd1na2vs0mg"},{"bike_id":"7f94af4d-81ec-4f11-8ad5-90fb2fdafca2","system_id":"levelo_inurba_marseille","lat":43.28031,"lon":5.36954,"is_reserved":false,"is_disabled":false,"rental_uris":{"android":"levelo://app?vid=7f94af4d-81ec-4f11-8ad5-90fb2fdafca2","ios":"levelo://app?vid=7f94af4d-81ec-4f11-8ad5-90fb2fdafca2"},"vehicle_type_id":"4","last_reported":1746326739,"current_range_meters":14800,"station_id":"ce4bha12rcd13ifvqef0","pricing_plan_id":"cebpf4jnsgd1na2vs0mg"},{"bike_id":"73edfc20-18ef-49e8-bd1b-417b51f94718","system_id":"levelo_inurba_marseille","lat":43.30775,"lon":5.37654,"is_reserved":false,"is_disabled":false,"rental_uris":{"android":"levelo://app?vid=73edfc20-18ef-49e8-bd1b-417b51f94718","ios":"levelo://app?vid=73edfc20-18ef-49e8-bd1b-417b51f94718"},"vehicle_type_id":"4","last_reported":1746326739,"current_range_meters":14800,"station_id":"ce4bgv92rcd13ifvqcq0","pricing_plan_id":"cebpf4jnsgd1na2vs0mg"},{"bike_id":"4cc851da-e1ec-42ff-95e4-8b92ad8a1e2f","system_id":"levelo_inurba_marseille","lat":43.30026,"lon":5.401806,"is_reserved":false,"is_disabled":false,"rental_uris":{"android":"levelo://app?vid=4cc851da-e1ec-42ff-95e4-8b92ad8a1e2f","ios":"levelo://app?vid=4cc851da-e1ec-42ff-95e4-8b92ad8a1e2f"},"vehicle_type_id":"4","last_reported":1746326739,"current_range_meters":15200,"station_id":"","pricing_plan_id":"cebpf4jnsgd1na2vs0mg"},{"bike_id":"25c8eca9-2d86-4deb-a7b1-2d8cb07d4908","system_id":"levelo_inurba_marseille","lat":43.281543,"lon":5.426416,"is_reserved":false,"is_disabled":false,"rental_uris":{"android":"levelo://app?vid=25c8eca9-2d86-4deb-a7b1-2d8cb07d4908","ios":"levelo://app?vid=25c8eca9-2d86-4deb-a7b1-2d8cb07d4908"},"vehicle_type_id":"4","last_reported":1746326739,"current_range_meters":16000,"station_id":"ce4bhnh2rcd13ifvqgug","pricing_plan_id":"cebpf4jnsgd1na2vs0mg"},{"bike_id":"42f4d97b-d0b6-413f-90b9-5a4f0907145d","system_id":"levelo_inurba_marseille","lat":43.29032,"lon":5.39971,"is_reserved":false,"is_disabled":false,"rental_uris":{"android":"levelo://app?vid=42f4d97b-d0b6-413f-90b9-5a4f0907145d","ios":"levelo://app?vid=42f4d97b-d0b6-413f-90b9-5a4f0907145d"},"vehicle_type_id":"4","last_reported":1746326739,"current_range_meters":16000,"station_id":"ce4bh392rcd13ifvqdm0","pricing_plan_id":"cebpf4jnsgd1na2vs0mg"},{"bike_id":"9732b7e1-1614-4bf9-9ec9-f2c1bbf4aeb4","system_id":"levelo_inurba_marseille","lat":43.306439,"lon":5.400618,"is_reserved":false,"is_disabled":false,"rental_uris":{"android":"levelo://app?vid=9732b7e1-1614-4bf9-9ec9-f2c1bbf4aeb4","ios":"levelo://app?vid=9732b7e1-1614-4bf9-9ec9-f2c1bbf4aeb4"},"vehicle_type_id":"4","last_reported":1746326739,"current_range_meters":16000,"station_id":"ce4bh112rcd13ifvqda0","pricing_plan_id":"cebpf4jnsgd1na2vs0mg"},{"bike_id":"c71da692-85e3-477b-85a2-ab7d2814da05","system_id":"levelo_inurba_marseille","lat":43.31323,"lon":5.39723,"is_reserved":false,"is_disabled":false,"rental_uris":{"android":"levelo://app?vid=c71da692-85e3-477b-85a2-ab7d2814da05","ios":"levelo://app?vid=c71da692-85e3-477b-85a2-ab7d2814da05"},"vehicle_type_id":"4","last_reported":1746326739,"current_range_meters":16000,"station_id":"ce4bgvp2rcd13ifvqcu0","pricing_plan_id":"cebpf4jnsgd1na2vs0mg"},{"bike_id":"d447b317-7fe8-4b25-a86f-02fbc65ddcfa","system_id":"levelo_inurba_marseille","lat":43.23142,"lon":5.437303,"is_reserved":false,"is_disabled":false,"rental_uris":{"android":"levelo://app?vid=d447b317-7fe8-4b25-a86f-02fbc65ddcfa","ios":"levelo://app?vid=d447b317-7fe8-4b25-a86f-02fbc65ddcfa"},"vehicle_type_id":"4","last_reported":1746326739,"current_range_meters":16000,"station_id":"ce4bhmp2rcd13ifvqgog","pricing_plan_id":"cebpf4jnsgd1na2vs0mg"},{"bike_id":"7e9ec97b-d718-47de-b556-e3ed51da2d00","system_id":"levelo_inurba_marseille","lat":43.30132,"lon":5.38777,"is_reserved":false,"is_disabled":false,"rental_uris":{"android":"levelo://app?vid=7e9ec97b-d718-47de-b556-e3ed51da2d00","ios":"levelo://app?vid=7e9ec97b-d718-47de-b556-e3ed51da2d00"},"vehicle_type_id":"4","last_reported":1746326739,"current_range_meters":16000,"station_id":"ce4bghh2rcd13ifvqb60","pricing_plan_id":"cebpf4jnsgd1na2vs0mg"},{"bike_id":"e1060076-28a9-4510-91bf-d126f5cca62a","system_id":"levelo_inurba_marseille","lat":43.307681,"lon":5.376475,"is_reserved":false,"is_disabled":false,"rental_uris":{"android":"levelo://app?vid=e1060076-28a9-4510-91bf-d126f5cca62a","ios":"levelo://app?vid=e1060076-28a9-4510-91bf-d126f5cca62a"},"vehicle_type_id":"4","last_reported":1746326739,"current_range_meters":16000,"station_id":"ce4bgv92rcd13ifvqcq0","pricing_plan_id":"cebpf4jnsgd1na2vs0mg"},{"bike_id":"3b7db989-c051-48b8-88d8-b4d0b04c0d40","system_id":"levelo_inurba_marseille","lat":43.24651,"lon":5.38897,"is_reserved":false,"is_disabled":false,"rental_uris":{"android":"levelo://app?vid=3b7db989-c051-48b8-88d8-b4d0b04c0d40","ios":"levelo://app?vid=3b7db989-c051-48b8-88d8-b4d0b04c0d40"},"vehicle_type_id":"4","last_reported":1746326739,"current_range_meters":16400,"station_id":"ce4bhg12rcd13ifvqf60","pricing_plan_id":"cebpf4jnsgd1na2vs0mg"},{"bike_id":"fb80c1da-d845-467b-9c3b-2f591f4d56ae","system_id":"levelo_inurba_marseille","lat":43.323406,"lon":5.37422,"is_reserved":false,"is_disabled":false,"rental_uris":{"android":"levelo://app?vid=fb80c1da-d845-467b-9c3b-2f591f4d56ae","ios":"levelo://app?vid=fb80c1da-d845-467b-9c3b-2f591f4d56ae"},"vehicle_type_id":"4","last_reported":1746326739,"current_range_meters":16400,"station_id":"","pricing_plan_id":"cebpf4jnsgd1na2vs0mg"},{"bike_id":"fb2dc60d-6652-473d-a686-f9c92c21a630","system_id":"levelo_inurba_marseille","lat":43.29539,"lon":5.42278,"is_reserved":false,"is_disabled":false,"rental_uris":{"android":"levelo://app?vid=fb2dc60d-6652-473d-a686-f9c92c21a630","ios":"levelo://app?vid=fb2dc60d-6652-473d-a686-f9c92c21a630"},"vehicle_type_id":"4","last_reported":1746326739,"current_range_meters":16400,"station_id":"ce4bhph2rcd13ifvqhdg","pricing_plan_id":"cebpf4jnsgd1na2vs0mg"},{"bike_id":"8bca6a68-24be-4919-828c-8b42767c2d8f","system_id":"levelo_inurba_marseille","lat":43.30136,"lon":5.39878,"is_reserved":false,"is_disabled":false,"rental_uris":{"android":"levelo://app?vid=8bca6a68-24be-4919-828c-8b42767c2d8f","ios":"levelo://app?vid=8bca6a68-24be-4919-828c-8b42767c2d8f"},"vehicle_type_id":"4","last_reported":1746326739,"current_range_meters":16400,"station_id":"ce4bh0h2rcd13ifvqd40","pricing_plan_id":"cebpf4jnsgd1na2vs0mg"},{"bike_id":"696b71f0-972e-4fa6-831c-b2001014ab23","system_id":"levelo_inurba_marseille","lat":43.25143,"lon":5.40326,"is_reserved":false,"is_disabled":false,"rental_uris":{"android":"levelo://app?vid=696b71f0-972e-4fa6-831c-b2001014ab23","ios":"levelo://app?vid=696b71f0-972e-4fa6-831c-b2001014ab23"},"vehicle_type_id":"4","last_reported":1746326739,"current_range_meters":16400,"station_id":"ce4bhlh2rcd13ifvqgig","pricing_plan_id":"cebpf4jnsgd1na2vs0mg"},{"bike_id":"52b2b11c-fa93-4c1e-a120-3fdc360b4a73","system_id":"levelo_inurba_marseille","lat":43.28029,"lon":5.3696,"is_reserved":false,"is_disabled":false,"rental_uris":{"android":"levelo://app?vid=52b2b11c-fa93-4c1e-a120-3fdc360b4a73","ios":"levelo://app?vid=52b2b11c-fa93-4c1e-a120-3fdc360b4a73"},"vehicle_type_id":"4","last_reported":1746326739,"current_range_meters":16400,"station_id":"ce4bha12rcd13ifvqef0","pricing_plan_id":"cebpf4jnsgd1na2vs0mg"},{"bike_id":"0c86f7c5-5a71-4b5a-a769-ceb3451e1da9","system_id":"levelo_inurba_marseille","lat":43.317016,"lon":5.404303,"is_reserved":false,"is_disabled":false,"rental_uris":{"android":"levelo://app?vid=0c86f7c5-5a71-4b5a-a769-ceb3451e1da9","ios":"levelo://app?vid=0c86f7c5-5a71-4b5a-a769-ceb3451e1da9"},"vehicle_type_id":"4","last_reported":1746326739,"current_range_meters":16800,"station_id":"ce4bh012rcd13ifvqd00","pricing_plan_id":"cebpf4jnsgd1na2vs0mg"},{"bike_id":"8a1c92bd-6777-477a-9eaf-2b1631a1f0a6","system_id":"levelo_inurba_marseille","lat":43.309315,"lon":5.401399,"is_reserved":false,"is_disabled":false,"rental_uris":{"android":"levelo://app?vid=8a1c92bd-6777-477a-9eaf-2b1631a1f0a6","ios":"levelo://app?vid=8a1c92bd-6777-477a-9eaf-2b1631a1f0a6"},"vehicle_type_id":"4","last_reported":1746326739,"current_range_meters":16800,"station_id":"ce4bgvp2rcd13ifvqct0","pricing_plan_id":"cebpf4jnsgd1na2vs0mg"},{"bike_id":"cc39cdc5-0417-4f88-b75a-a7a63ab3f1d6","system_id":"levelo_inurba_marseille","lat":43.313673,"lon":5.382588,"is_reserved":false,"is_disabled":false,"rental_uris":{"android":"levelo://app?vid=cc39cdc5-0417-4f88-b75a-a7a63ab3f1d6","ios":"levelo://app?vid=cc39cdc5-0417-4f88-b75a-a7a63ab3f1d6"},"vehicle_type_id":"4","last_reported":1746326739,"current_range_meters":16800,"station_id":"","pricing_plan_id":"cebpf4jnsgd1na2vs0mg"},{"bike_id":"0a2549c6-5ea2-4f90-b993-e69e58fc141f","system_id":"levelo_inurba_marseille","lat":43.3093,"lon":5.40201,"is_reserved":false,"is_disabled":false,"rental_uris":{"android":"levelo://app?vid=0a2549c6-5ea2-4f90-b993-e69e58fc141f","ios":"levelo://app?vid=0a2549c6-5ea2-4f90-b993-e69e58fc141f"},"vehicle_type_id":"4","last_reported":1746326739,"current_range_meters":16800,"station_id":"ce4bgvp2rcd13ifvqct0","pricing_plan_id":"cebpf4jnsgd1na2vs0mg"},{"bike_id":"e9c597e1-aeb5-4cd8-8684-e3c07c7fb387","system_id":"levelo_inurba_marseille","lat":43.26211,"lon":5.37446,"is_reserved":false,"is_disabled":false,"rental_uris":{"android":"levelo://app?vid=e9c597e1-aeb5-4cd8-8684-e3c07c7fb387","ios":"levelo://app?vid=e9c597e1-aeb5-4cd8-8684-e3c07c7fb387"},"vehicle_type_id":"4","last_reported":1746326739,"current_range_meters":16800,"station_id":"ce4bhgp2rcd13ifvqfc0","pricing_plan_id":"cebpf4jnsgd1na2vs0mg"},{"bike_id":"e84eee43-7ebe-4b56-a08b-27d6e58561fd","system_id":"levelo_inurba_marseille","lat":43.24179,"lon":5.397381,"is_reserved":false,"is_disabled":false,"rental_uris":{"android":"levelo://app?vid=e84eee43-7ebe-4b56-a08b-27d6e58561fd","ios":"levelo://app?vid=e84eee43-7ebe-4b56-a08b-27d6e58561fd"},"vehicle_type_id":"4","last_reported":1746326739,"current_range_meters":16800,"station_id":"ce4bhn12rcd13ifvqgpg","pricing_plan_id":"cebpf4jnsgd1na2vs0mg"},{"bike_id":"cebdafcb-65bd-42d1-aa43-4e8b777b1e60","system_id":"levelo_inurba_marseille","lat":43.29799,"lon":5.39065,"is_reserved":false,"is_disabled":false,"rental_uris":{"android":"levelo://app?vid=cebdafcb-65bd-42d1-aa43-4e8b777b1e60","ios":"levelo://app?vid=cebdafcb-65bd-42d1-aa43-4e8b777b1e60"},"vehicle_type_id":"4","last_reported":1746326739,"current_range_meters":16800,"station_id":"","pricing_plan_id":"cebpf4jnsgd1na2vs0mg"},{"bike_id":"ec53c786-ae1e-453d-9cd6-5e7171a2949e","system_id":"levelo_inurba_marseille","lat":43.30853,"lon":5.39626,"is_reserved":false,"is_disabled":false,"rental_uris":{"android":"levelo://app?vid=ec53c786-ae1e-453d-9cd6-5e7171a2949e","ios":"levelo://app?vid=ec53c786-ae1e-453d-9cd6-5e7171a2949e"},"vehicle_type_id":"4","last_reported":1746326739,"current_range_meters":16800,"station_id":"","pricing_plan_id":"cebpf4jnsgd1na2vs0mg"},{"bike_id":"49b2feb9-e76c-45e6-8013-60053c7684dc","system_id":"levelo_inurba_marseille","lat":43.28425,"lon":5.39194,"is_reserved":false,"is_disabled":false,"rental_uris":{"android":"levelo://app?vid=49b2feb9-e76c-45e6-8013-60053c7684dc","ios":"levelo://app?vid=49b2feb9-e76c-45e6-8013-60053c7684dc"},"vehicle_type_id":"4","last_reported":1746326739,"current_range_meters":16800,"station_id":"ce4bhoh2rcd13ifvqh5g","pricing_plan_id":"cebpf4jnsgd1na2vs0mg"},{"bike_id":"ce7e06eb-b040-4a1c-b1b9-b8a759460472","system_id":"levelo_inurba_marseille","lat":43.25113,"lon":5.403247,"is_reserved":false,"is_disabled":false,"rental_uris":{"android":"levelo://app?vid=ce7e06eb-b040-4a1c-b1b9-b8a759460472","ios":"levelo://app?vid=ce7e06eb-b040-4a1c-b1b9-b8a759460472"},"vehicle_type_id":"4","last_reported":1746326739,"current_range_meters":16800,"station_id":"ce4bhlh2rcd13ifvqgig","pricing_plan_id":"cebpf4jnsgd1na2vs0mg"},{"bike_id":"72b1a15f-3a8a-421a-a50d-f39aa38bc6e9","system_id":"levelo_inurba_marseille","lat":43.278175,"lon":5.407095,"is_reserved":false,"is_disabled":false,"rental_uris":{"android":"levelo://app?vid=72b1a15f-3a8a-421a-a50d-f39aa38bc6e9","ios":"levelo://app?vid=72b1a15f-3a8a-421a-a50d-f39aa38bc6e9"},"vehicle_type_id":"4","last_reported":1746326739,"current_range_meters":17200,"station_id":"ce4bhnh2rcd13ifvqgtg","pricing_plan_id":"cebpf4jnsgd1na2vs0mg"},{"bike_id":"4fb52bc7-54ca-4ee8-b9b1-fa5afb8b7039","system_id":"levelo_inurba_marseille","lat":43.284128,"lon":5.375134,"is_reserved":false,"is_disabled":false,"rental_uris":{"android":"levelo://app?vid=4fb52bc7-54ca-4ee8-b9b1-fa5afb8b7039","ios":"levelo://app?vid=4fb52bc7-54ca-4ee8-b9b1-fa5afb8b7039"},"vehicle_type_id":"4","last_reported":1746326739,"current_range_meters":17200,"station_id":"ce4bh412rcd13ifvqds0","pricing_plan_id":"cebpf4jnsgd1na2vs0mg"},{"bike_id":"fdef9e55-be0f-41e0-8526-8e8fa7260880","system_id":"levelo_inurba_marseille","lat":43.31312,"lon":5.3741,"is_reserved":false,"is_disabled":false,"rental_uris":{"android":"levelo://app?vid=fdef9e55-be0f-41e0-8526-8e8fa7260880","ios":"levelo://app?vid=fdef9e55-be0f-41e0-8526-8e8fa7260880"},"vehicle_type_id":"4","last_reported":1746326739,"current_range_meters":17200,"station_id":"","pricing_plan_id":"cebpf4jnsgd1na2vs0mg"},{"bike_id":"ae97f59b-b48e-402b-9ac2-2eba71290cd1","system_id":"levelo_inurba_marseille","lat":43.30932,"lon":5.40182,"is_reserved":false,"is_disabled":false,"rental_uris":{"android":"levelo://app?vid=ae97f59b-b48e-402b-9ac2-2eba71290cd1","ios":"levelo://app?vid=ae97f59b-b48e-402b-9ac2-2eba71290cd1"},"vehicle_type_id":"4","last_reported":1746326739,"current_range_meters":17200,"station_id":"ce4bgvp2rcd13ifvqct0","pricing_plan_id":"cebpf4jnsgd1na2vs0mg"},{"bike_id":"7ebb70cc-fd03-475b-980f-aca77de5d23a","system_id":"levelo_inurba_marseille","lat":43.30928,"lon":5.40147,"is_reserved":false,"is_disabled":false,"rental_uris":{"android":"levelo://app?vid=7ebb70cc-fd03-475b-980f-aca77de5d23a","ios":"levelo://app?vid=7ebb70cc-fd03-475b-980f-aca77de5d23a"},"vehicle_type_id":"4","last_reported":1746326739,"current_range_meters":17200,"station_id":"ce4bgvp2rcd13ifvqct0","pricing_plan_id":"cebpf4jnsgd1na2vs0mg"},{"bike_id":"a9baa6fd-1c6f-425a-bf63-0824d46ca80e","system_id":"levelo_inurba_marseille","lat":43.30632,"lon":5.40097,"is_reserved":false,"is_disabled":false,"rental_uris":{"android":"levelo://app?vid=a9baa6fd-1c6f-425a-bf63-0824d46ca80e","ios":"levelo://app?vid=a9baa6fd-1c6f-425a-bf63-0824d46ca80e"},"vehicle_type_id":"4","last_reported":1746326739,"current_range_meters":17200,"station_id":"ce4bh112rcd13ifvqda0","pricing_plan_id":"cebpf4jnsgd1na2vs0mg"},{"bike_id":"073ee896-7ffd-4eeb-ba0c-a255d4c8e537","system_id":"levelo_inurba_marseille","lat":43.257214,"lon":5.41114,"is_reserved":false,"is_disabled":false,"rental_uris":{"android":"levelo://app?vid=073ee896-7ffd-4eeb-ba0c-a255d4c8e537","ios":"levelo://app?vid=073ee896-7ffd-4eeb-ba0c-a255d4c8e537"},"vehicle_type_id":"4","last_reported":1746326739,"current_range_meters":17200,"station_id":"ce4bhkp2rcd13ifvqgd0","pricing_plan_id":"cebpf4jnsgd1na2vs0mg"},{"bike_id":"43f220ab-0408-46b3-abe5-60437ce3bc1e","system_id":"levelo_inurba_marseille","lat":43.231903,"lon":5.355489,"is_reserved":false,"is_disabled":false,"rental_uris":{"android":"levelo://app?vid=43f220ab-0408-46b3-abe5-60437ce3bc1e","ios":"levelo://app?vid=43f220ab-0408-46b3-abe5-60437ce3bc1e"},"vehicle_type_id":"4","last_reported":1746326739,"current_range_meters":17600,"station_id":"ce4bhu92rcd13ifvqi70","pricing_plan_id":"cebpf4jnsgd1na2vs0mg"},{"bike_id":"d94ace2f-a694-4d2b-9fa0-6d215239b455","system_id":"levelo_inurba_marseille","lat":43.24386,"lon":5.37064,"is_reserved":false,"is_disabled":false,"rental_uris":{"android":"levelo://app?vid=d94ace2f-a694-4d2b-9fa0-6d215239b455","ios":"levelo://app?vid=d94ace2f-a694-4d2b-9fa0-6d215239b455"},"vehicle_type_id":"4","last_reported":1746326739,"current_range_meters":17600,"station_id":"ce4bhhh2rcd13ifvqfk0","pricing_plan_id":"cebpf4jnsgd1na2vs0mg"},{"bike_id":"da86dbc1-1e83-43ca-9dfc-bf9622d5f196","system_id":"levelo_inurba_marseille","lat":43.30314,"lon":5.40447,"is_reserved":false,"is_disabled":false,"rental_uris":{"android":"levelo://app?vid=da86dbc1-1e83-43ca-9dfc-bf9622d5f196","ios":"levelo://app?vid=da86dbc1-1e83-43ca-9dfc-bf9622d5f196"},"vehicle_type_id":"4","last_reported":1746326739,"current_range_meters":17600,"station_id":"ce4bh012rcd13ifvqd10","pricing_plan_id":"cebpf4jnsgd1na2vs0mg"},{"bike_id":"fff989e9-64dd-40de-8a4c-e30222516b94","system_id":"levelo_inurba_marseille","lat":43.28154,"lon":5.42657,"is_reserved":false,"is_disabled":false,"rental_uris":{"android":"levelo://app?vid=fff989e9-64dd-40de-8a4c-e30222516b94","ios":"levelo://app?vid=fff989e9-64dd-40de-8a4c-e30222516b94"},"vehicle_type_id":"4","last_reported":1746326739,"current_range_meters":17600,"station_id":"ce4bhnh2rcd13ifvqgug","pricing_plan_id":"cebpf4jnsgd1na2vs0mg"},{"bike_id":"66223c10-b75f-46be-aafb-42e1395c771d","system_id":"levelo_inurba_marseille","lat":43.280811,"lon":5.396603,"is_reserved":false,"is_disabled":false,"rental_uris":{"android":"levelo://app?vid=66223c10-b75f-46be-aafb-42e1395c771d","ios":"levelo://app?vid=66223c10-b75f-46be-aafb-42e1395c771d"},"vehicle_type_id":"4","last_reported":1746326739,"current_range_meters":17600,"station_id":"ce4bho12rcd13ifvqh2g","pricing_plan_id":"cebpf4jnsgd1na2vs0mg"},{"bike_id":"838953c0-5207-4dd4-a4c4-6cd84e5c58c8","system_id":"levelo_inurba_marseille","lat":43.28032,"lon":5.36948,"is_reserved":false,"is_disabled":false,"rental_uris":{"android":"levelo://app?vid=838953c0-5207-4dd4-a4c4-6cd84e5c58c8","ios":"levelo://app?vid=838953c0-5207-4dd4-a4c4-6cd84e5c58c8"},"vehicle_type_id":"4","last_reported":1746326739,"current_range_meters":18000,"station_id":"ce4bha12rcd13ifvqef0","pricing_plan_id":"cebpf4jnsgd1na2vs0mg"},{"bike_id":"44a4c1aa-e659-41ae-8ef4-e3bc1e502d2a","system_id":"levelo_inurba_marseille","lat":43.323622,"lon":5.367609,"is_reserved":false,"is_disabled":false,"rental_uris":{"android":"levelo://app?vid=44a4c1aa-e659-41ae-8ef4-e3bc1e502d2a","ios":"levelo://app?vid=44a4c1aa-e659-41ae-8ef4-e3bc1e502d2a"},"vehicle_type_id":"4","last_reported":1746326739,"current_range_meters":18000,"station_id":"ce4bhsh2rcd13ifvqi2g","pricing_plan_id":"cebpf4jnsgd1na2vs0mg"},{"bike_id":"1cb20923-3b0d-4df1-a3ee-be944d3f904f","system_id":"levelo_inurba_marseille","lat":43.323369,"lon":5.40619,"is_reserved":false,"is_disabled":false,"rental_uris":{"android":"levelo://app?vid=1cb20923-3b0d-4df1-a3ee-be944d3f904f","ios":"levelo://app?vid=1cb20923-3b0d-4df1-a3ee-be944d3f904f"},"vehicle_type_id":"4","last_reported":1746326739,"current_range_meters":18000,"station_id":"ce4bhq92rcd13ifvqhjg","pricing_plan_id":"cebpf4jnsgd1na2vs0mg"},{"bike_id":"4f86003a-4bda-480f-becc-b4f53e6e3826","system_id":"levelo_inurba_marseille","lat":43.24539,"lon":5.39531,"is_reserved":false,"is_disabled":false,"rental_uris":{"android":"levelo://app?vid=4f86003a-4bda-480f-becc-b4f53e6e3826","ios":"levelo://app?vid=4f86003a-4bda-480f-becc-b4f53e6e3826"},"vehicle_type_id":"4","last_reported":1746326739,"current_range_meters":18000,"station_id":"ce4bhlp2rcd13ifvqgjg","pricing_plan_id":"cebpf4jnsgd1na2vs0mg"},{"bike_id":"42472050-c7ca-43cb-9a34-b1d1636a2c78","system_id":"levelo_inurba_marseille","lat":43.31523,"lon":5.38037,"is_reserved":false,"is_disabled":false,"rental_uris":{"android":"levelo://app?vid=42472050-c7ca-43cb-9a34-b1d1636a2c78","ios":"levelo://app?vid=42472050-c7ca-43cb-9a34-b1d1636a2c78"},"vehicle_type_id":"4","last_reported":1746326739,"current_range_meters":18000,"station_id":"ce4bhsp2rcd13ifvqi50","pricing_plan_id":"cebpf4jnsgd1na2vs0mg"},{"bike_id":"2b44e6f2-5bd4-4a13-93f7-f9b3275649b0","system_id":"levelo_inurba_marseille","lat":43.24065,"lon":5.37752,"is_reserved":false,"is_disabled":false,"rental_uris":{"android":"levelo://app?vid=2b44e6f2-5bd4-4a13-93f7-f9b3275649b0","ios":"levelo://app?vid=2b44e6f2-5bd4-4a13-93f7-f9b3275649b0"},"vehicle_type_id":"4","last_reported":1746326739,"current_range_meters":18000,"station_id":"ce4bhnp2rcd13ifvqgvg","pricing_plan_id":"cebpf4jnsgd1na2vs0mg"},{"bike_id":"c934a038-999c-4097-b244-e68883d621e3","system_id":"levelo_inurba_marseille","lat":43.30541,"lon":5.36545,"is_reserved":false,"is_disabled":true,"rental_uris":{"android":"levelo://app?vid=c934a038-999c-4097-b244-e68883d621e3","ios":"levelo://app?vid=c934a038-999c-4097-b244-e68883d621e3"},"vehicle_type_id":"4","last_reported":1746326739,"current_range_meters":18800,"station_id":"ce4bgs12rcd13ifvqcag","pricing_plan_id":"cebpf4jnsgd1na2vs0mg"},{"bike_id":"8c48f210-1ece-4c20-bb47-8ef2235ac6c4","system_id":"levelo_inurba_marseille","lat":43.251114,"lon":5.403232,"is_reserved":false,"is_disabled":false,"rental_uris":{"android":"levelo://app?vid=8c48f210-1ece-4c20-bb47-8ef2235ac6c4","ios":"levelo://app?vid=8c48f210-1ece-4c20-bb47-8ef2235ac6c4"},"vehicle_type_id":"4","last_reported":1746326739,"current_range_meters":18800,"station_id":"ce4bhlh2rcd13ifvqgig","pricing_plan_id":"cebpf4jnsgd1na2vs0mg"},{"bike_id":"6befd1d1-20e3-4409-abe0-62dcb1a21cf9","system_id":"levelo_inurba_marseille","lat":43.28701,"lon":5.39969,"is_reserved":false,"is_disabled":false,"rental_uris":{"android":"levelo://app?vid=6befd1d1-20e3-4409-abe0-62dcb1a21cf9","ios":"levelo://app?vid=6befd1d1-20e3-4409-abe0-62dcb1a21cf9"},"vehicle_type_id":"4","last_reported":1746326739,"current_range_meters":19200,"station_id":"ce4bho92rcd13ifvqh3g","pricing_plan_id":"cebpf4jnsgd1na2vs0mg"},{"bike_id":"c627b57c-a364-4991-bf18-9b2dfa26592e","system_id":"levelo_inurba_marseille","lat":43.231565,"lon":5.43697,"is_reserved":false,"is_disabled":false,"rental_uris":{"android":"levelo://app?vid=c627b57c-a364-4991-bf18-9b2dfa26592e","ios":"levelo://app?vid=c627b57c-a364-4991-bf18-9b2dfa26592e"},"vehicle_type_id":"4","last_reported":1746326739,"current_range_meters":19200,"station_id":"ce4bhmp2rcd13ifvqgog","pricing_plan_id":"cebpf4jnsgd1na2vs0mg"},{"bike_id":"0abe7365-362a-4c2d-949a-e32faf9d4099","system_id":"levelo_inurba_marseille","lat":43.2119,"lon":5.35092,"is_reserved":false,"is_disabled":true,"rental_uris":{"android":"levelo://app?vid=0abe7365-362a-4c2d-949a-e32faf9d4099","ios":"levelo://app?vid=0abe7365-362a-4c2d-949a-e32faf9d4099"},"vehicle_type_id":"4","last_reported":1746326739,"current_range_meters":19200,"station_id":"st_cvj6sg6p6f1abm77japg","pricing_plan_id":"cebpf4jnsgd1na2vs0mg"},{"bike_id":"674cdb5f-d73b-4d50-b5fb-fdf8fa0361d9","system_id":"levelo_inurba_marseille","lat":43.293653,"lon":5.378535,"is_reserved":false,"is_disabled":false,"rental_uris":{"android":"levelo://app?vid=674cdb5f-d73b-4d50-b5fb-fdf8fa0361d9","ios":"levelo://app?vid=674cdb5f-d73b-4d50-b5fb-fdf8fa0361d9"},"vehicle_type_id":"4","last_reported":1746326739,"current_range_meters":19200,"station_id":"ce4bgjh2rcd13ifvqbf0","pricing_plan_id":"cebpf4jnsgd1na2vs0mg"},{"bike_id":"f6c1dcb0-1295-4680-af32-4dc24d6ef29b","system_id":"levelo_inurba_marseille","lat":43.2721,"lon":5.39214,"is_reserved":false,"is_disabled":true,"rental_uris":{"android":"levelo://app?vid=f6c1dcb0-1295-4680-af32-4dc24d6ef29b","ios":"levelo://app?vid=f6c1dcb0-1295-4680-af32-4dc24d6ef29b"},"vehicle_type_id":"4","last_reported":1746326739,"current_range_meters":19200,"station_id":"ce4bhhp2rcd13ifvqfm0","pricing_plan_id":"cebpf4jnsgd1na2vs0mg"},{"bike_id":"0a0ece37-539d-4aa3-b235-deb8a4daf593","system_id":"levelo_inurba_marseille","lat":43.330687,"lon":5.408277,"is_reserved":false,"is_disabled":false,"rental_uris":{"android":"levelo://app?vid=0a0ece37-539d-4aa3-b235-deb8a4daf593","ios":"levelo://app?vid=0a0ece37-539d-4aa3-b235-deb8a4daf593"},"vehicle_type_id":"4","last_reported":1746326739,"current_range_meters":19200,"station_id":"","pricing_plan_id":"cebpf4jnsgd1na2vs0mg"},{"bike_id":"1885e4e4-787e-4399-a182-13afb5671e8f","system_id":"levelo_inurba_marseille","lat":43.317613,"lon":5.390043,"is_reserved":false,"is_disabled":false,"rental_uris":{"android":"levelo://app?vid=1885e4e4-787e-4399-a182-13afb5671e8f","ios":"levelo://app?vid=1885e4e4-787e-4399-a182-13afb5671e8f"},"vehicle_type_id":"4","last_reported":1746326739,"current_range_meters":19600,"station_id":"ce4bhqp2rcd13ifvqhng","pricing_plan_id":"cebpf4jnsgd1na2vs0mg"},{"bike_id":"1e4c8eca-44f1-4bf0-b96f-01b79f3e652f","system_id":"levelo_inurba_marseille","lat":43.27942,"lon":5.41043,"is_reserved":false,"is_disabled":false,"rental_uris":{"android":"levelo://app?vid=1e4c8eca-44f1-4bf0-b96f-01b79f3e652f","ios":"levelo://app?vid=1e4c8eca-44f1-4bf0-b96f-01b79f3e652f"},"vehicle_type_id":"4","last_reported":1746326739,"current_range_meters":19600,"station_id":"ce4bhnp2rcd13ifvqh0g","pricing_plan_id":"cebpf4jnsgd1na2vs0mg"},{"bike_id":"26b5b2fc-326b-498a-933e-9592aeae00f1","system_id":"levelo_inurba_marseille","lat":43.30461,"lon":5.37905,"is_reserved":false,"is_disabled":false,"rental_uris":{"android":"levelo://app?vid=26b5b2fc-326b-498a-933e-9592aeae00f1","ios":"levelo://app?vid=26b5b2fc-326b-498a-933e-9592aeae00f1"},"vehicle_type_id":"4","last_reported":1746326739,"current_range_meters":19600,"station_id":"ce4bgup2rcd13ifvqcn0","pricing_plan_id":"cebpf4jnsgd1na2vs0mg"},{"bike_id":"e3f482b3-9af8-49d9-9427-68b636c1d9c9","system_id":"levelo_inurba_marseille","lat":43.229359,"lon":5.35377,"is_reserved":false,"is_disabled":false,"rental_uris":{"android":"levelo://app?vid=e3f482b3-9af8-49d9-9427-68b636c1d9c9","ios":"levelo://app?vid=e3f482b3-9af8-49d9-9427-68b636c1d9c9"},"vehicle_type_id":"4","last_reported":1746326739,"current_range_meters":19600,"station_id":"cpo3342slgdg3j2ifvpg","pricing_plan_id":"cebpf4jnsgd1na2vs0mg"},{"bike_id":"1f695cbb-d718-48bb-bd8a-51a24850016f","system_id":"levelo_inurba_marseille","lat":43.28106,"lon":5.37776,"is_reserved":false,"is_disabled":false,"rental_uris":{"android":"levelo://app?vid=1f695cbb-d718-48bb-bd8a-51a24850016f","ios":"levelo://app?vid=1f695cbb-d718-48bb-bd8a-51a24850016f"},"vehicle_type_id":"4","last_reported":1746326739,"current_range_meters":19600,"station_id":"ce4bha12rcd13ifvqee0","pricing_plan_id":"cebpf4jnsgd1na2vs0mg"},{"bike_id":"2fac38ca-87d4-4a67-af4a-ad5f55d672a4","system_id":"levelo_inurba_marseille","lat":43.28352,"lon":5.38635,"is_reserved":false,"is_disabled":false,"rental_uris":{"android":"levelo://app?vid=2fac38ca-87d4-4a67-af4a-ad5f55d672a4","ios":"levelo://app?vid=2fac38ca-87d4-4a67-af4a-ad5f55d672a4"},"vehicle_type_id":"4","last_reported":1746326739,"current_range_meters":19600,"station_id":"ce4bh492rcd13ifvqdvg","pricing_plan_id":"cebpf4jnsgd1na2vs0mg"},{"bike_id":"e8eb8847-7440-4150-b035-2a67aad980bf","system_id":"levelo_inurba_marseille","lat":43.251152,"lon":5.40313,"is_reserved":false,"is_disabled":false,"rental_uris":{"android":"levelo://app?vid=e8eb8847-7440-4150-b035-2a67aad980bf","ios":"levelo://app?vid=e8eb8847-7440-4150-b035-2a67aad980bf"},"vehicle_type_id":"4","last_reported":1746326739,"current_range_meters":19600,"station_id":"ce4bhlh2rcd13ifvqgig","pricing_plan_id":"cebpf4jnsgd1na2vs0mg"},{"bike_id":"8536704e-961e-4868-ad07-81df77fc76eb","system_id":"levelo_inurba_marseille","lat":43.289979,"lon":5.356123,"is_reserved":false,"is_disabled":true,"rental_uris":{"android":"levelo://app?vid=8536704e-961e-4868-ad07-81df77fc76eb","ios":"levelo://app?vid=8536704e-961e-4868-ad07-81df77fc76eb"},"vehicle_type_id":"4","last_reported":1746326739,"current_range_meters":20000,"station_id":"ce4bhb92rcd13ifvqen0","pricing_plan_id":"cebpf4jnsgd1na2vs0mg"},{"bike_id":"020b5a72-3ed4-4efa-ac90-fde34228cf06","system_id":"levelo_inurba_marseille","lat":43.30776,"lon":5.37645,"is_reserved":false,"is_disabled":false,"rental_uris":{"android":"levelo://app?vid=020b5a72-3ed4-4efa-ac90-fde34228cf06","ios":"levelo://app?vid=020b5a72-3ed4-4efa-ac90-fde34228cf06"},"vehicle_type_id":"4","last_reported":1746326739,"current_range_meters":20000,"station_id":"ce4bgv92rcd13ifvqcq0","pricing_plan_id":"cebpf4jnsgd1na2vs0mg"},{"bike_id":"c2b6a609-b892-494c-804b-209c23ee5c95","system_id":"levelo_inurba_marseille","lat":43.31086,"lon":5.42428,"is_reserved":false,"is_disabled":false,"rental_uris":{"android":"levelo://app?vid=c2b6a609-b892-494c-804b-209c23ee5c95","ios":"levelo://app?vid=c2b6a609-b892-494c-804b-209c23ee5c95"},"vehicle_type_id":"4","last_reported":1746326739,"current_range_meters":20000,"station_id":"ce4bhp92rcd13ifvqhag","pricing_plan_id":"cebpf4jnsgd1na2vs0mg"},{"bike_id":"bf8d1cbd-3d1d-45d5-a1ac-e3e68cd41908","system_id":"levelo_inurba_marseille","lat":43.30149,"lon":5.38083,"is_reserved":false,"is_disabled":false,"rental_uris":{"android":"levelo://app?vid=bf8d1cbd-3d1d-45d5-a1ac-e3e68cd41908","ios":"levelo://app?vid=bf8d1cbd-3d1d-45d5-a1ac-e3e68cd41908"},"vehicle_type_id":"4","last_reported":1746326739,"current_range_meters":20000,"station_id":"ce4bgjp2rcd13ifvqbh0","pricing_plan_id":"cebpf4jnsgd1na2vs0mg"},{"bike_id":"f0f6b689-09e9-465d-afc6-1ec70b024348","system_id":"levelo_inurba_marseille","lat":43.31322,"lon":5.39729,"is_reserved":false,"is_disabled":false,"rental_uris":{"android":"levelo://app?vid=f0f6b689-09e9-465d-afc6-1ec70b024348","ios":"levelo://app?vid=f0f6b689-09e9-465d-afc6-1ec70b024348"},"vehicle_type_id":"4","last_reported":1746326739,"current_range_meters":20000,"station_id":"ce4bgvp2rcd13ifvqcu0","pricing_plan_id":"cebpf4jnsgd1na2vs0mg"},{"bike_id":"9e6503ad-47b3-4a0f-86d6-3f886dbdec6d","system_id":"levelo_inurba_marseille","lat":43.28403,"lon":5.37516,"is_reserved":false,"is_disabled":false,"rental_uris":{"android":"levelo://app?vid=9e6503ad-47b3-4a0f-86d6-3f886dbdec6d","ios":"levelo://app?vid=9e6503ad-47b3-4a0f-86d6-3f886dbdec6d"},"vehicle_type_id":"4","last_reported":1746326739,"current_range_meters":20000,"station_id":"ce4bh412rcd13ifvqds0","pricing_plan_id":"cebpf4jnsgd1na2vs0mg"},{"bike_id":"eb8dcc7b-c65f-4892-b76c-da4b40bb75c4","system_id":"levelo_inurba_marseille","lat":43.24802,"lon":5.37458,"is_reserved":false,"is_disabled":false,"rental_uris":{"android":"levelo://app?vid=eb8dcc7b-c65f-4892-b76c-da4b40bb75c4","ios":"levelo://app?vid=eb8dcc7b-c65f-4892-b76c-da4b40bb75c4"},"vehicle_type_id":"4","last_reported":1746326739,"current_range_meters":20000,"station_id":"ce4bhgh2rcd13ifvqfb0","pricing_plan_id":"cebpf4jnsgd1na2vs0mg"},{"bike_id":"8e69649f-d5a0-4ead-b212-c5b5612beda7","system_id":"levelo_inurba_marseille","lat":43.25489,"lon":5.37668,"is_reserved":false,"is_disabled":true,"rental_uris":{"android":"levelo://app?vid=8e69649f-d5a0-4ead-b212-c5b5612beda7","ios":"levelo://app?vid=8e69649f-d5a0-4ead-b212-c5b5612beda7"},"vehicle_type_id":"4","last_reported":1746326739,"current_range_meters":20000,"station_id":"ce4bhh12rcd13ifvqff0","pricing_plan_id":"cebpf4jnsgd1na2vs0mg"},{"bike_id":"77709b3c-9c61-4f45-9bf9-b7bae7918520","system_id":"levelo_inurba_marseille","lat":43.262278,"lon":5.404528,"is_reserved":false,"is_disabled":false,"rental_uris":{"android":"levelo://app?vid=77709b3c-9c61-4f45-9bf9-b7bae7918520","ios":"levelo://app?vid=77709b3c-9c61-4f45-9bf9-b7bae7918520"},"vehicle_type_id":"4","last_reported":1746326739,"current_range_meters":20000,"station_id":"ce4bhmh2rcd13ifvqgmg","pricing_plan_id":"cebpf4jnsgd1na2vs0mg"},{"bike_id":"7ad04c1b-fc26-4c94-a72f-89c6e3ca5c32","system_id":"levelo_inurba_marseille","lat":43.311778,"lon":5.40774,"is_reserved":false,"is_disabled":false,"rental_uris":{"android":"levelo://app?vid=7ad04c1b-fc26-4c94-a72f-89c6e3ca5c32","ios":"levelo://app?vid=7ad04c1b-fc26-4c94-a72f-89c6e3ca5c32"},"vehicle_type_id":"4","last_reported":1746326739,"current_range_meters":20400,"station_id":"","pricing_plan_id":"cebpf4jnsgd1na2vs0mg"},{"bike_id":"3ff1331f-d2b9-4db6-9af0-17b5a04341a5","system_id":"levelo_inurba_marseille","lat":43.24332,"lon":5.379995,"is_reserved":false,"is_disabled":false,"rental_uris":{"android":"levelo://app?vid=3ff1331f-d2b9-4db6-9af0-17b5a04341a5","ios":"levelo://app?vid=3ff1331f-d2b9-4db6-9af0-17b5a04341a5"},"vehicle_type_id":"4","last_reported":1746326739,"current_range_meters":20400,"station_id":"","pricing_plan_id":"cebpf4jnsgd1na2vs0mg"},{"bike_id":"2a83f628-6bc6-4805-bbb5-042e251d7a0f","system_id":"levelo_inurba_marseille","lat":43.315318,"lon":5.380384,"is_reserved":false,"is_disabled":false,"rental_uris":{"android":"levelo://app?vid=2a83f628-6bc6-4805-bbb5-042e251d7a0f","ios":"levelo://app?vid=2a83f628-6bc6-4805-bbb5-042e251d7a0f"},"vehicle_type_id":"4","last_reported":1746326739,"current_range_meters":20800,"station_id":"ce4bhsp2rcd13ifvqi50","pricing_plan_id":"cebpf4jnsgd1na2vs0mg"},{"bike_id":"82fab8b5-455e-4308-bfb0-455b186200e9","system_id":"levelo_inurba_marseille","lat":43.304669,"lon":5.379011,"is_reserved":false,"is_disabled":false,"rental_uris":{"android":"levelo://app?vid=82fab8b5-455e-4308-bfb0-455b186200e9","ios":"levelo://app?vid=82fab8b5-455e-4308-bfb0-455b186200e9"},"vehicle_type_id":"4","last_reported":1746326739,"current_range_meters":20800,"station_id":"ce4bgup2rcd13ifvqcn0","pricing_plan_id":"cebpf4jnsgd1na2vs0mg"},{"bike_id":"f589fc42-057a-43b9-81ad-55c2a575aecf","system_id":"levelo_inurba_marseille","lat":43.310696,"lon":5.383474,"is_reserved":false,"is_disabled":true,"rental_uris":{"android":"levelo://app?vid=f589fc42-057a-43b9-81ad-55c2a575aecf","ios":"levelo://app?vid=f589fc42-057a-43b9-81ad-55c2a575aecf"},