{"last_updated":1700514398,"ttl":30,"version":"2.2","data":{"bikes":[{"bike_id":"f874da3e-b17e-47f0-a499-90fd16b42a65","system_id":"levelo_inurba_marseille","lat":43.3115,"lon":5.368882,"is_reserved":false,"is_disabled":false,"rental_uris":{"android":"levelo://app?vid=f874da3e-b17e-47f0-a499-90fd16b42a65","ios":"levelo://app?vid=f874da3e-b17e-47f0-a499-90fd16b42a65"},"vehicle_type_id":"4","last_reported":1700514398,"current_range_meters":0,"station_id":"","pricing_plan_id":"free"},{"bike_id":"fc17d1df-19ec-4a9c-acf7-fdc43b73a0bc","system_id":"levelo_inurba_marseille","lat":43.308438,"lon":5.368911,"is_reserved":false,"is_disabled":false,"rental_uris":{"android":"levelo://app?vid=fc17d1df-19ec-4a9c-acf7-fdc43b73a0bc","ios":"levelo://app?vid=fc17d1df-19ec-4a9c-acf7-fdc43b73a0bc"},"vehicle_type_id":"4","last_reported":1700514398,"current_range_meters":20400,"station_id":"","pricing_plan_id":"free"},{"bike_id":"7a16d8a3-789a-48ac-bc39-7730898a3473","system_id":"levelo_inurba_marseille","lat":43.314811,"lon":5.373103,"is_reserved":false,"is_disabled":false,"rental_uris":{"android":"levelo://app?vid=7a16d8a3-789a-48ac-bc39-7730898a3473","ios":"levelo://app?vid=7a16d8a3-789a-48ac-bc39-7730898a3473"},"vehicle_type_id":"4","last_reported":1700514398,"current_range_meters":20400,"station_id":"ce4bgt12rcd13ifvqcd0","pricing_plan_id":"free"},{"bike_id":"c5bbb731-8ee9-4500-a243-8c0a24e929cf","system_id":"levelo_inurba_marseille","lat":43.314811,"lon":5.373104,"is_reserved":false,"is_disabled":false,"rental_uris":{"android":"levelo://app?vid=c5bbb731-8ee9-4500-a243-8c0a24e929cf","ios":"levelo://app?vid=c5bbb731-8ee9-4500-a243-8c0a24e929cf"},"vehicle_type_id":"4","last_reported":1700514398,"current_range_meters":0,"station_id":"ce4bgt12rcd13ifvqcd0","pricing_plan_id":"free"},{"bike_id":"f398eddb-44a4-484b-acf1-6f8766e94a46","system_id":"levelo_inurba_marseille","lat":43.315734,"lon":5.372501,"is_reserved":false,"is_disabled":false,"rental_uris":{"android":"levelo://app?vid=f398eddb-44a4-484b-acf1-6f8766e94a46","ios":"levelo://app?vid=f398eddb-44a4-484b-acf1-6f8766e94a46"},"vehicle_type_id":"4","last_reported":1700514398,"current_range_meters":15200,"station_id":"","pricing_plan_id":"free"},{"bike_id":"29cd9e3f-1a4c-4e51-ac49-0834ea45324c","system_id":"levelo_inurba_marseille","lat":43.309039,"lon":5.371797,"is_reserved":false,"is_disabled":false,"rental_uris":{"android":"levelo://app?vid=29cd9e3f-1a4c-4e51-ac49-0834ea45324c","ios":"levelo://app?vid=29cd9e3f-1a4c-4e51-ac49-0834ea45324c"},"vehicle_type_id":"4","last_reported":1700514398,"current_range_meters":6400,"station_id":"ce4bguh2rcd13ifvqckg","pricing_plan_id":"free"},{"bike_id":"c111ac6e-75f2-4026-9cd8-e6dacb5f45e4","system_id":"levelo_inurba_marseille","lat":43.309039,"lon":5.371797,"is_reserved":false,"is_disabled":false,"rental_uris":{"android":"levelo://app?vid=c111ac6e-75f2-4026-9cd8-e6dacb5f45e4","ios":"levelo://app?vid=c111ac6e-75f2-4026-9cd8-e6dacb5f45e4"},"vehicle_type_id":"4","last_reported":1700514398,"current_range_meters":0,"station_id":"ce4bguh2rcd13ifvqckg","pricing_plan_id":"free"},{"bike_id":"3475d204-43b6-43d9-b615-ca1d0d58200e","system_id":"levelo_inurba_marseille","lat":43.30679,"lon":5.3679,"is_reserved":false,"is_disabled":false,"rental_uris":{"android":"levelo://app?vid=3475d204-43b6-43d9-b615-ca1d0d58200e","ios":"levelo://app?vid=3475d204-43b6-43d9-b615-ca1d0d58200e"},"vehicle_type_id":"4","last_reported":1700514398,"current_range_meters":5600,"station_id":"","pricing_plan_id":"free"},{"bike_id":"8ecf9e9e-3d3c-41f8-aafb-da0a2e40ac45","system_id":"levelo_inurba_marseille","lat":43.311131,"lon":5.377651,"is_reserved":false,"is_disabled":false,"rental_uris":{"android":"levelo://app?vid=8ecf9e9e-3d3c-41f8-aafb-da0a2e40ac45","ios":"levelo://app?vid=8ecf9e9e-3d3c-41f8-aafb-da0a2e40ac45"},"vehicle_type_id":"4","last_reported":1700514398,"current_range_meters":31200,"station_id":"ce4bgt92rcd13ifvqcg0","pricing_plan_id":"free"},{"bike_id":"83908538-0f9e-433f-a100-c51bbe7acaa9","system_id":"levelo_inurba_marseille","lat":43.30308,"lon":5.36894,"is_reserved":false,"is_disabled":false,"rental_uris":{"android":"levelo://app?vid=83908538-0f9e-433f-a100-c51bbe7acaa9","ios":"levelo://app?vid=83908538-0f9e-433f-a100-c51bbe7acaa9"},"vehicle_type_id":"4","last_reported":1700514398,"current_range_meters":2000,"station_id":"ce4bgqh2rcd13ifvqc5g","pricing_plan_id":"free"},{"bike_id":"4f3a32ad-5b32-40f9-b872-8d4c4cbd4a0f","system_id":"levelo_inurba_marseille","lat":43.303068,"lon":5.369105,"is_reserved":false,"is_disabled":false,"rental_uris":{"android":"levelo://app?vid=4f3a32ad-5b32-40f9-b872-8d4c4cbd4a0f","ios":"levelo://app?vid=4f3a32ad-5b32-40f9-b872-8d4c4cbd4a0f"},"vehicle_type_id":"4","last_reported":1700514398,"current_range_meters":0,"station_id":"ce4bgqh2rcd13ifvqc5g","pricing_plan_id":"free"},{"bike_id":"3b6d6bb4-c74b-45d6-a179-86884ae46556","system_id":"levelo_inurba_marseille","lat":43.30195,"lon":5.36619,"is_reserved":false,"is_disabled":false,"rental_uris":{"android":"levelo://app?vid=3b6d6bb4-c74b-45d6-a179-86884ae46556","ios":"levelo://app?vid=3b6d6bb4-c74b-45d6-a179-86884ae46556"},"vehicle_type_id":"4","last_reported":1700514398,"current_range_meters":0,"station_id":"ce4bgrh2rcd13ifvqc8g","pricing_plan_id":"free"},{"bike_id":"3a9e0a76-88eb-46ed-b7fb-65bad25af33c","system_id":"levelo_inurba_marseille","lat":43.301939,"lon":5.366286,"is_reserved":false,"is_disabled":false,"rental_uris":{"android":"levelo://app?vid=3a9e0a76-88eb-46ed-b7fb-65bad25af33c","ios":"levelo://app?vid=3a9e0a76-88eb-46ed-b7fb-65bad25af33c"},"vehicle_type_id":"4","last_reported":1700514398,"current_range_meters":0,"station_id":"ce4bgrh2rcd13ifvqc8g","pricing_plan_id":"free"},{"bike_id":"c92e6e4b-d2ae-46a2-9872-0d0d50cd2a42","system_id":"levelo_inurba_marseille","lat":43.308012,"lon":5.381511,"is_reserved":false,"is_disabled":false,"rental_uris":{"android":"levelo://app?vid=c92e6e4b-d2ae-46a2-9872-0d0d50cd2a42","ios":"levelo://app?vid=c92e6e4b-d2ae-46a2-9872-0d0d50cd2a42"},"vehicle_type_id":"4","last_reported":1700514398,"current_range_meters":19600,"station_id":"ce4bgt12rcd13ifvqce0","pricing_plan_id":"free"},{"bike_id":"1c41d00c-0020-44fa-a381-0cae9a595e39","system_id":"levelo_inurba_marseille","lat":43.313571,"lon":5.384829,"is_reserved":false,"is_disabled":false,"rental_uris":{"android":"levelo://app?vid=1c41d00c-0020-44fa-a381-0cae9a595e39","ios":"levelo://app?vid=1c41d00c-0020-44fa-a381-0cae9a595e39"},"vehicle_type_id":"4","last_reported":1700514398,"current_range_meters":18800,"station_id":"ce4bgt92rcd13ifvqcf0","pricing_plan_id":"free"},{"bike_id":"0e3fc419-1b1f-413a-84bc-72f172c7ed46","system_id":"levelo_inurba_marseille","lat":43.313571,"lon":5.384829,"is_reserved":false,"is_disabled":false,"rental_uris":{"android":"levelo://app?vid=0e3fc419-1b1f-413a-84bc-72f172c7ed46","ios":"levelo://app?vid=0e3fc419-1b1f-413a-84bc-72f172c7ed46"},"vehicle_type_id":"4","last_reported":1700514398,"current_range_meters":14000,"station_id":"ce4bgt92rcd13ifvqcf0","pricing_plan_id":"free"},{"bike_id":"a8e384df-92e1-4ae9-b097-9f5448d8357f","system_id":"levelo_inurba_marseille","lat":43.299724,"lon":5.371829,"is_reserved":false,"is_disabled":false,"rental_uris":{"android":"levelo://app?vid=a8e384df-92e1-4ae9-b097-9f5448d8357f","ios":"levelo://app?vid=a8e384df-92e1-4ae9-b097-9f5448d8357f"},"vehicle_type_id":"4","last_reported":1700514398,"current_range_meters":3200,"station_id":"ce4bgr92rcd13ifvqc7g","pricing_plan_id":"free"},{"bike_id":"cf964940-0374-4c3f-8072-b7ceacb2b074","system_id":"levelo_inurba_marseille","lat":43.299724,"lon":5.371829,"is_reserved":false,"is_disabled":false,"rental_uris":{"android":"levelo://app?vid=cf964940-0374-4c3f-8072-b7ceacb2b074","ios":"levelo://app?vid=cf964940-0374-4c3f-8072-b7ceacb2b074"},"vehicle_type_id":"4","last_reported":1700514398,"current_range_meters":12000,"station_id":"ce4bgr92rcd13ifvqc7g","pricing_plan_id":"free"},{"bike_id":"bc669a6b-6dd7-475b-ab5d-53ecab206603","system_id":"levelo_inurba_marseille","lat":43.311722,"lon":5.387247,"is_reserved":false,"is_disabled":false,"rental_uris":{"android":"levelo://app?vid=bc669a6b-6dd7-475b-ab5d-53ecab206603","ios":"levelo://app?vid=bc669a6b-6dd7-475b-ab5d-53ecab206603"},"vehicle_type_id":"4","last_reported":1700514398,"current_range_meters":14800,"station_id":"ce4bgv12rcd13ifvqcp0","pricing_plan_id":"free"},{"bike_id":"0d303a6d-b0eb-4f6b-86e6-4062168d0eaf","system_id":"levelo_inurba_marseille","lat":43.311722,"lon":5.387247,"is_reserved":false,"is_disabled":false,"rental_uris":{"android":"levelo://app?vid=0d303a6d-b0eb-4f6b-86e6-4062168d0eaf","ios":"levelo://app?vid=0d303a6d-b0eb-4f6b-86e6-4062168d0eaf"},"vehicle_type_id":"4","last_reported":1700514398,"current_range_meters":4800,"station_id":"ce4bgv12rcd13ifvqcp0","pricing_plan_id":"free"},{"bike_id":"8d1d06f2-9bae-4e26-afd1-7cce45e158db","system_id":"levelo_inurba_marseille","lat":43.311722,"lon":5.387247,"is_reserved":false,"is_disabled":false,"rental_uris":{"android":"levelo://app?vid=8d1d06f2-9bae-4e26-afd1-7cce45e158db","ios":"levelo://app?vid=8d1d06f2-9bae-4e26-afd1-7cce45e158db"},"vehicle_type_id":"4","last_reported":1700514398,"current_range_meters":22000,"station_id":"ce4bgv12rcd13ifvqcp0","pricing_plan_id":"free"},{"bike_id":"963b851a-15cd-4fec-b281-c61603e82b6a","system_id":"levelo_inurba_marseille","lat":43.311722,"lon":5.387247,"is_reserved":false,"is_disabled":false,"rental_uris":{"android":"levelo://app?vid=963b851a-15cd-4fec-b281-c61603e82b6a","ios":"levelo://app?vid=963b851a-15cd-4fec-b281-c61603e82b6a"},"vehicle_type_id":"4","last_reported":1700514398,"current_range_meters":13600,"station_id":"ce4bgv12rcd13ifvqcp0","pricing_plan_id":"free"},{"bike_id":"a091ef21-7434-4308-96d7-78321920700a","system_id":"levelo_inurba_marseille","lat":43.311722,"lon":5.387247,"is_reserved":false,"is_disabled":false,"rental_uris":{"android":"levelo://app?vid=a091ef21-7434-4308-96d7-78321920700a","ios":"levelo://app?vid=a091ef21-7434-4308-96d7-78321920700a"},"vehicle_type_id":"4","last_reported":1700514398,"current_range_meters":10800,"station_id":"ce4bgv12rcd13ifvqcp0","pricing_plan_id":"free"},{"bike_id":"e78ae709-6030-4b79-9931-0733d3eb1d52","system_id":"levelo_inurba_marseille","lat":43.311722,"lon":5.387247,"is_reserved":false,"is_disabled":false,"rental_uris":{"android":"levelo://app?vid=e78ae709-6030-4b79-9931-0733d3eb1d52","ios":"levelo://app?vid=e78ae709-6030-4b79-9931-0733d3eb1d52"},"vehicle_type_id":"4","last_reported":1700514398,"current_range_meters":23600,"station_id":"ce4bgv12rcd13ifvqcp0","pricing_plan_id":"free"},{"bike_id":"172cb9b4-d1d4-4b19-a22f-8d37c4b8abce","system_id":"levelo_inurba_marseille","lat":43.311722,"lon":5.387247,"is_reserved":false,"is_disabled":false,"rental_uris":{"android":"levelo://app?vid=172cb9b4-d1d4-4b19-a22f-8d37c4b8abce","ios":"levelo://app?vid=172cb9b4-d1d4-4b19-a22f-8d37c4b8abce"},"vehicle_type_id":"4","last_reported":1700514398,"current_range_meters":24800,"station_id":"ce4bgv12rcd13ifvqcp0","pricing_plan_id":"free"},{"bike_id":"f08b0271-ae73-492f-9a89-b8d51dfdbf59","system_id":"levelo_inurba_marseille","lat":43.29811,"lon":5.37099,"is_reserved":false,"is_disabled":false,"rental_uris":{"android":"levelo://app?vid=f08b0271-ae73-492f-9a89-b8d51dfdbf59","ios":"levelo://app?vid=f08b0271-ae73-492f-9a89-b8d51dfdbf59"},"vehicle_type_id":"4","last_reported":1700514398,"current_range_meters":18800,"station_id":"ce4bgop2rcd13ifvqc1g","pricing_plan_id":"free"},{"bike_id":"6c6dce5a-78f3-469c-864f-8c1b6c20ed29","system_id":"levelo_inurba_marseille","lat":43.322872,"lon":5.382756,"is_reserved":false,"is_disabled":false,"rental_uris":{"android":"levelo://app?vid=6c6dce5a-78f3-469c-864f-8c1b6c20ed29","ios":"levelo://app?vid=6c6dce5a-78f3-469c-864f-8c1b6c20ed29"},"vehicle_type_id":"4","last_reported":1700514398,"current_range_meters":11600,"station_id":"ce4bhr12rcd13ifvqhqg","pricing_plan_id":"free"},{"bike_id":"163157fd-493b-4747-9dab-79c0b8fa118e","system_id":"levelo_inurba_marseille","lat":43.322872,"lon":5.382756,"is_reserved":false,"is_disabled":false,"rental_uris":{"android":"levelo://app?vid=163157fd-493b-4747-9dab-79c0b8fa118e","ios":"levelo://app?vid=163157fd-493b-4747-9dab-79c0b8fa118e"},"vehicle_type_id":"4","last_reported":1700514398,"current_range_meters":4800,"station_id":"ce4bhr12rcd13ifvqhqg","pricing_plan_id":"free"},{"bike_id":"95f7a8be-3dc6-4b12-8685-93dc23878d16","system_id":"levelo_inurba_marseille","lat":43.322872,"lon":5.382756,"is_reserved":false,"is_disabled":false,"rental_uris":{"android":"levelo://app?vid=95f7a8be-3dc6-4b12-8685-93dc23878d16","ios":"levelo://app?vid=95f7a8be-3dc6-4b12-8685-93dc23878d16"},"vehicle_type_id":"4","last_reported":1700514398,"current_range_meters":31200,"station_id":"ce4bhr12rcd13ifvqhqg","pricing_plan_id":"free"},{"bike_id":"4877c1bd-6c5b-4748-a29f-20d769f45293","system_id":"levelo_inurba_marseille","lat":43.322872,"lon":5.382756,"is_reserved":false,"is_disabled":false,"rental_uris":{"android":"levelo://app?vid=4877c1bd-6c5b-4748-a29f-20d769f45293","ios":"levelo://app?vid=4877c1bd-6c5b-4748-a29f-20d769f45293"},"vehicle_type_id":"4","last_reported":1700514398,"current_range_meters":6800,"station_id":"ce4bhr12rcd13ifvqhqg","pricing_plan_id":"free"},{"bike_id":"af1d5b43-c1f3-4f49-a6bc-4e530f32c442","system_id":"levelo_inurba_marseille","lat":43.322872,"lon":5.382756,"is_reserved":false,"is_disabled":false,"rental_uris":{"android":"levelo://app?vid=af1d5b43-c1f3-4f49-a6bc-4e530f32c442","ios":"levelo://app?vid=af1d5b43-c1f3-4f49-a6bc-4e530f32c442"},"vehicle_type_id":"4","last_reported":1700514398,"current_range_meters":24400,"station_id":"ce4bhr12rcd13ifvqhqg","pricing_plan_id":"free"},{"bike_id":"c26b03c6-6510-4087-aeb1-d159e14e9182","system_id":"levelo_inurba_marseille","lat":43.29709,"lon":5.36613,"is_reserved":false,"is_disabled":false,"rental_uris":{"android":"levelo://app?vid=c26b03c6-6510-4087-aeb1-d159e14e9182","ios":"levelo://app?vid=c26b03c6-6510-4087-aeb1-d159e14e9182"},"vehicle_type_id":"4","last_reported":1700514398,"current_range_meters":22400,"station_id":"ce4bgn12rcd13ifvqbt0","pricing_plan_id":"free"},{"bike_id":"b6746ac0-97bf-4241-baae-a4025bb8df9c","system_id":"levelo_inurba_marseille","lat":43.29957,"lon":5.37921,"is_reserved":false,"is_disabled":false,"rental_uris":{"android":"levelo://app?vid=b6746ac0-97bf-4241-baae-a4025bb8df9c","ios":"levelo://app?vid=b6746ac0-97bf-4241-baae-a4025bb8df9c"},"vehicle_type_id":"4","last_reported":1700514398,"current_range_meters":1200,"station_id":"","pricing_plan_id":"free"},{"bike_id":"3d342f3c-6911-4fb9-9cad-e3afe51194f9","system_id":"levelo_inurba_marseille","lat":43.32939,"lon":5.36418,"is_reserved":false,"is_disabled":false,"rental_uris":{"android":"levelo://app?vid=3d342f3c-6911-4fb9-9cad-e3afe51194f9","ios":"levelo://app?vid=3d342f3c-6911-4fb9-9cad-e3afe51194f9"},"vehicle_type_id":"4","last_reported":1700514398,"current_range_meters":21600,"station_id":"","pricing_plan_id":"free"},{"bike_id":"a4fc4f1f-b4cb-4447-9650-54a96ed51e29","system_id":"levelo_inurba_marseille","lat":43.32149,"lon":5.38683,"is_reserved":false,"is_disabled":false,"rental_uris":{"android":"levelo://app?vid=a4fc4f1f-b4cb-4447-9650-54a96ed51e29","ios":"levelo://app?vid=a4fc4f1f-b4cb-4447-9650-54a96ed51e29"},"vehicle_type_id":"4","last_reported":1700514398,"current_range_meters":0,"station_id":"","pricing_plan_id":"free"},{"bike_id":"f73e4b62-db53-41c8-9427-31b1dc519812","system_id":"levelo_inurba_marseille","lat":43.296935,"lon":5.376544,"is_reserved":false,"is_disabled":false,"rental_uris":{"android":"levelo://app?vid=f73e4b62-db53-41c8-9427-31b1dc519812","ios":"levelo://app?vid=f73e4b62-db53-41c8-9427-31b1dc519812"},"vehicle_type_id":"4","last_reported":1700514398,"current_range_meters":24000,"station_id":"ce4bgkh2rcd13ifvqbl0","pricing_plan_id":"free"},{"bike_id":"59e6e6d3-fe45-46d6-a0b6-acc54a14158a","system_id":"levelo_inurba_marseille","lat":43.314569,"lon":5.390837,"is_reserved":false,"is_disabled":false,"rental_uris":{"android":"levelo://app?vid=59e6e6d3-fe45-46d6-a0b6-acc54a14158a","ios":"levelo://app?vid=59e6e6d3-fe45-46d6-a0b6-acc54a14158a"},"vehicle_type_id":"4","last_reported":1700514398,"current_range_meters":14000,"station_id":"","pricing_plan_id":"free"},{"bike_id":"40703649-84db-4836-b1cb-1ac7fa6c53bd","system_id":"levelo_inurba_marseille","lat":43.317557,"lon":5.390173,"is_reserved":false,"is_disabled":false,"rental_uris":{"android":"levelo://app?vid=40703649-84db-4836-b1cb-1ac7fa6c53bd","ios":"levelo://app?vid=40703649-84db-4836-b1cb-1ac7fa6c53bd"},"vehicle_type_id":"4","last_reported":1700514398,"current_range_meters":12800,"station_id":"ce4bhqp2rcd13ifvqhng","pricing_plan_id":"free"},{"bike_id":"7aef619e-8146-4037-a56f-a2b533225db7","system_id":"levelo_inurba_marseille","lat":43.31762,"lon":5.39017,"is_reserved":false,"is_disabled":false,"rental_uris":{"android":"levelo://app?vid=7aef619e-8146-4037-a56f-a2b533225db7","ios":"levelo://app?vid=7aef619e-8146-4037-a56f-a2b533225db7"},"vehicle_type_id":"4","last_reported":1700514398,"current_range_meters":0,"station_id":"ce4bhqp2rcd13ifvqhng","pricing_plan_id":"free"},{"bike_id":"0d586fed-13bc-4b38-8de1-f8ea5febad98","system_id":"levelo_inurba_marseille","lat":43.302784,"lon":5.377158,"is_reserved":false,"is_disabled":false,"rental_uris":{"android":"levelo://app?vid=0d586fed-13bc-4b38-8de1-f8ea5febad98","ios":"levelo://app?vid=0d586fed-13bc-4b38-8de1-f8ea5febad98"},"vehicle_type_id":"4","last_reported":1700514398,"current_range_meters":13200,"station_id":"ce4bguh2rcd13ifvqcj0","pricing_plan_id":"free"},{"bike_id":"75166e78-1641-4772-9c51-19f6026fdbe8","system_id":"levelo_inurba_marseille","lat":43.298037,"lon":5.381066,"is_reserved":false,"is_disabled":false,"rental_uris":{"android":"levelo://app?vid=75166e78-1641-4772-9c51-19f6026fdbe8","ios":"levelo://app?vid=75166e78-1641-4772-9c51-19f6026fdbe8"},"vehicle_type_id":"4","last_reported":1700514398,"current_range_meters":5600,"station_id":"ce4bgip2rcd13ifvqbb0","pricing_plan_id":"free"},{"bike_id":"67ffd28a-0325-489b-a10f-d90500122751","system_id":"levelo_inurba_marseille","lat":43.295748,"lon":5.37522,"is_reserved":false,"is_disabled":false,"rental_uris":{"android":"levelo://app?vid=67ffd28a-0325-489b-a10f-d90500122751","ios":"levelo://app?vid=67ffd28a-0325-489b-a10f-d90500122751"},"vehicle_type_id":"4","last_reported":1700514398,"current_range_meters":31200,"station_id":"ce4bgh92rcd13ifvqb50","pricing_plan_id":"free"},{"bike_id":"3e3e92fe-39b7-4933-99ff-3747b28b5d69","system_id":"levelo_inurba_marseille","lat":43.328154,"lon":5.380034,"is_reserved":false,"is_disabled":false,"rental_uris":{"android":"levelo://app?vid=3e3e92fe-39b7-4933-99ff-3747b28b5d69","ios":"levelo://app?vid=3e3e92fe-39b7-4933-99ff-3747b28b5d69"},"vehicle_type_id":"4","last_reported":1700514398,"current_range_meters":800,"station_id":"","pricing_plan_id":"free"},{"bike_id":"b1b33e3c-72b5-449a-8340-f9dce4431d70","system_id":"levelo_inurba_marseille","lat":43.299707,"lon":5.384859,"is_reserved":false,"is_disabled":false,"rental_uris":{"android":"levelo://app?vid=b1b33e3c-72b5-449a-8340-f9dce4431d70","ios":"levelo://app?vid=b1b33e3c-72b5-449a-8340-f9dce4431d70"},"vehicle_type_id":"4","last_reported":1700514398,"current_range_meters":15600,"station_id":"ce4bgj92rcd13ifvqbd0","pricing_plan_id":"free"},{"bike_id":"581a9343-df14-44b7-bab1-e429a19a1ba0","system_id":"levelo_inurba_marseille","lat":43.299724,"lon":5.384848,"is_reserved":false,"is_disabled":false,"rental_uris":{"android":"levelo://app?vid=581a9343-df14-44b7-bab1-e429a19a1ba0","ios":"levelo://app?vid=581a9343-df14-44b7-bab1-e429a19a1ba0"},"vehicle_type_id":"4","last_reported":1700514398,"current_range_meters":30000,"station_id":"ce4bgj92rcd13ifvqbd0","pricing_plan_id":"free"},{"bike_id":"e145a3f7-00ac-4f8f-bfe5-435bc38ccaf7","system_id":"levelo_inurba_marseille","lat":43.293801,"lon":5.363066,"is_reserved":false,"is_disabled":false,"rental_uris":{"android":"levelo://app?vid=e145a3f7-00ac-4f8f-bfe5-435bc38ccaf7","ios":"levelo://app?vid=e145a3f7-00ac-4f8f-bfe5-435bc38ccaf7"},"vehicle_type_id":"4","last_reported":1700514398,"current_range_meters":18800,"station_id":"","pricing_plan_id":"free"},{"bike_id":"ab549bba-fb39-4218-8e2c-2bd7cdd666ce","system_id":"levelo_inurba_marseille","lat":43.32368,"lon":5.38878,"is_reserved":false,"is_disabled":false,"rental_uris":{"android":"levelo://app?vid=ab549bba-fb39-4218-8e2c-2bd7cdd666ce","ios":"levelo://app?vid=ab549bba-fb39-4218-8e2c-2bd7cdd666ce"},"vehicle_type_id":"4","last_reported":1700514398,"current_range_meters":4000,"station_id":"ce4bhqp2rcd13ifvqhog","pricing_plan_id":"free"},{"bike_id":"6b2b7a07-e129-44bc-97c2-4948a203b3d7","system_id":"levelo_inurba_marseille","lat":43.323643,"lon":5.388817,"is_reserved":false,"is_disabled":false,"rental_uris":{"android":"levelo://app?vid=6b2b7a07-e129-44bc-97c2-4948a203b3d7","ios":"levelo://app?vid=6b2b7a07-e129-44bc-97c2-4948a203b3d7"},"vehicle_type_id":"4","last_reported":1700514398,"current_range_meters":3200,"station_id":"ce4bhqp2rcd13ifvqhog","pricing_plan_id":"free"},{"bike_id":"457267b3-9390-4309-8307-42319d1e300c","system_id":"levelo_inurba_marseille","lat":43.32367,"lon":5.3888,"is_reserved":false,"is_disabled":false,"rental_uris":{"android":"levelo://app?vid=457267b3-9390-4309-8307-42319d1e300c","ios":"levelo://app?vid=457267b3-9390-4309-8307-42319d1e300c"},"vehicle_type_id":"4","last_reported":1700514398,"current_range_meters":18800,"station_id":"ce4bhqp2rcd13ifvqhog","pricing_plan_id":"free"},{"bike_id":"3cb8c185-c31b-4eef-a7c6-7f786fc47019","system_id":"levelo_inurba_marseille","lat":43.32363,"lon":5.38894,"is_reserved":false,"is_disabled":false,"rental_uris":{"android":"levelo://app?vid=3cb8c185-c31b-4eef-a7c6-7f786fc47019","ios":"levelo://app?vid=3cb8c185-c31b-4eef-a7c6-7f786fc47019"},"vehicle_type_id":"4","last_reported":1700514398,"current_range_meters":9600,"station_id":"ce4bhqp2rcd13ifvqhog","pricing_plan_id":"free"},{"bike_id":"8f5579c5-ed65-4261-ab8f-0522de4ec730","system_id":"levelo_inurba_marseille","lat":43.29601,"lon":5.381084,"is_reserved":false,"is_disabled":false,"rental_uris":{"android":"levelo://app?vid=8f5579c5-ed65-4261-ab8f-0522de4ec730","ios":"levelo://app?vid=8f5579c5-ed65-4261-ab8f-0522de4ec730"},"vehicle_type_id":"4","last_reported":1700514398,"current_range_meters":18000,"station_id":"ce4bgl12rcd13ifvqbo0","pricing_plan_id":"free"},{"bike_id":"67a2f223-fc60-4c6e-8c47-59f68792d500","system_id":"levelo_inurba_marseille","lat":43.32367,"lon":5.388836,"is_reserved":false,"is_disabled":false,"rental_uris":{"android":"levelo://app?vid=67a2f223-fc60-4c6e-8c47-59f68792d500","ios":"levelo://app?vid=67a2f223-fc60-4c6e-8c47-59f68792d500"},"vehicle_type_id":"4","last_reported":1700514398,"current_range_meters":11200,"station_id":"ce4bhqp2rcd13ifvqhog","pricing_plan_id":"free"},{"bike_id":"04c62577-f6f4-42bf-a2cb-49840fad24d9","system_id":"levelo_inurba_marseille","lat":43.330543,"lon":5.378928,"is_reserved":false,"is_disabled":false,"rental_uris":{"android":"levelo://app?vid=04c62577-f6f4-42bf-a2cb-49840fad24d9","ios":"levelo://app?vid=04c62577-f6f4-42bf-a2cb-49840fad24d9"},"vehicle_type_id":"4","last_reported":1700514398,"current_range_meters":4800,"station_id":"","pricing_plan_id":"free"},{"bike_id":"c9a5376b-30c2-4397-83c7-b025419aa5e3","system_id":"levelo_inurba_marseille","lat":43.28856,"lon":5.358371,"is_reserved":false,"is_disabled":false,"rental_uris":{"android":"levelo://app?vid=c9a5376b-30c2-4397-83c7-b025419aa5e3","ios":"levelo://app?vid=c9a5376b-30c2-4397-83c7-b025419aa5e3"},"vehicle_type_id":"4","last_reported":1700514398,"current_range_meters":16400,"station_id":"ce4bhb12rcd13ifvqem0","pricing_plan_id":"free"},{"bike_id":"559b6959-cea2-4f80-a97f-ce487ed44074","system_id":"levelo_inurba_marseille","lat":43.293009,"lon":5.374584,"is_reserved":false,"is_disabled":false,"rental_uris":{"android":"levelo://app?vid=559b6959-cea2-4f80-a97f-ce487ed44074","ios":"levelo://app?vid=559b6959-cea2-4f80-a97f-ce487ed44074"},"vehicle_type_id":"4","last_reported":1700514398,"current_range_meters":3200,"station_id":"ce4bgi12rcd13ifvqb70","pricing_plan_id":"free"},{"bike_id":"6f4b630e-793e-4cb8-81ef-34b1cd0b5ef9","system_id":"levelo_inurba_marseille","lat":43.306492,"lon":5.393972,"is_reserved":false,"is_disabled":false,"rental_uris":{"android":"levelo://app?vid=6f4b630e-793e-4cb8-81ef-34b1cd0b5ef9","ios":"levelo://app?vid=6f4b630e-793e-4cb8-81ef-34b1cd0b5ef9"},"vehicle_type_id":"4","last_reported":1700514398,"current_range_meters":25600,"station_id":"","pricing_plan_id":"free"},{"bike_id":"a0620055-e0f6-4426-a5db-207197eef032","system_id":"levelo_inurba_marseille","lat":43.287184,"lon":5.37937,"is_reserved":false,"is_disabled":false,"rental_uris":{"android":"levelo://app?vid=a0620055-e0f6-4426-a5db-207197eef032","ios":"levelo://app?vid=a0620055-e0f6-4426-a5db-207197eef032"},"vehicle_type_id":"4","last_reported":1700514398,"current_range_meters":3600,"station_id":"ce4bh9p2rcd13ifvqec0","pricing_plan_id":"free"},{"bike_id":"525c1210-5c7e-4218-81af-10ba8f15cacc","system_id":"levelo_inurba_marseille","lat":43.292311,"lon":5.360731,"is_reserved":false,"is_disabled":false,"rental_uris":{"android":"levelo://app?vid=525c1210-5c7e-4218-81af-10ba8f15cacc","ios":"levelo://app?vid=525c1210-5c7e-4218-81af-10ba8f15cacc"},"vehicle_type_id":"4","last_reported":1700514398,"current_range_meters":31200,"station_id":"ce4bhbh2rcd13ifvqeqg","pricing_plan_id":"free"},{"bike_id":"87dfe419-c0d0-446e-a2e4-4ca53fe5d652","system_id":"levelo_inurba_marseille","lat":43.30085,"lon":5.390856,"is_reserved":false,"is_disabled":false,"rental_uris":{"android":"levelo://app?vid=87dfe419-c0d0-446e-a2e4-4ca53fe5d652","ios":"levelo://app?vid=87dfe419-c0d0-446e-a2e4-4ca53fe5d652"},"vehicle_type_id":"4","last_reported":1700514398,"current_range_meters":16000,"station_id":"ce4bh192rcd13ifvqdb0","pricing_plan_id":"free"},{"bike_id":"051ebfc6-8e50-4572-abf4-5865f6464724","system_id":"levelo_inurba_marseille","lat":43.30097,"lon":5.39079,"is_reserved":false,"is_disabled":false,"rental_uris":{"android":"levelo://app?vid=051ebfc6-8e50-4572-abf4-5865f6464724","ios":"levelo://app?vid=051ebfc6-8e50-4572-abf4-5865f6464724"},"vehicle_type_id":"4","last_reported":1700514398,"current_range_meters":16400,"station_id":"ce4bh192rcd13ifvqdb0","pricing_plan_id":"free"},{"bike_id":"2aa05338-4fd8-4bb2-bfa3-492dcb417121","system_id":"levelo_inurba_marseille","lat":43.298764,"lon":5.388973,"is_reserved":false,"is_disabled":false,"rental_uris":{"android":"levelo://app?vid=2aa05338-4fd8-4bb2-bfa3-492dcb417121","ios":"levelo://app?vid=2aa05338-4fd8-4bb2-bfa3-492dcb417121"},"vehicle_type_id":"4","last_reported":1700514398,"current_range_meters":25600,"station_id":"ce4bh392rcd13ifvqdl0","pricing_plan_id":"free"},{"bike_id":"6f63b2ae-2ab1-4193-981a-4457c3984e7b","system_id":"levelo_inurba_marseille","lat":43.298764,"lon":5.388973,"is_reserved":false,"is_disabled":false,"rental_uris":{"android":"levelo://app?vid=6f63b2ae-2ab1-4193-981a-4457c3984e7b","ios":"levelo://app?vid=6f63b2ae-2ab1-4193-981a-4457c3984e7b"},"vehicle_type_id":"4","last_reported":1700514398,"current_range_meters":7600,"station_id":"ce4bh392rcd13ifvqdl0","pricing_plan_id":"free"},{"bike_id":"3c3b8a77-f77d-4deb-9aa4-869565c72625","system_id":"levelo_inurba_marseille","lat":43.309038,"lon":5.396546,"is_reserved":false,"is_disabled":false,"rental_uris":{"android":"levelo://app?vid=3c3b8a77-f77d-4deb-9aa4-869565c72625","ios":"levelo://app?vid=3c3b8a77-f77d-4deb-9aa4-869565c72625"},"vehicle_type_id":"4","last_reported":1700514398,"current_range_meters":15200,"station_id":"ce4bh012rcd13ifvqcv0","pricing_plan_id":"free"},{"bike_id":"78727411-dbed-47b1-ba11-24257a8076b0","system_id":"levelo_inurba_marseille","lat":43.313291,"lon":5.396838,"is_reserved":false,"is_disabled":false,"rental_uris":{"android":"levelo://app?vid=78727411-dbed-47b1-ba11-24257a8076b0","ios":"levelo://app?vid=78727411-dbed-47b1-ba11-24257a8076b0"},"vehicle_type_id":"4","last_reported":1700514398,"current_range_meters":0,"station_id":"ce4bgvp2rcd13ifvqcu0","pricing_plan_id":"free"},{"bike_id":"b3b94c7a-1e70-46f1-9014-b0093c17c8e9","system_id":"levelo_inurba_marseille","lat":43.31334,"lon":5.39692,"is_reserved":false,"is_disabled":false,"rental_uris":{"android":"levelo://app?vid=b3b94c7a-1e70-46f1-9014-b0093c17c8e9","ios":"levelo://app?vid=b3b94c7a-1e70-46f1-9014-b0093c17c8e9"},"vehicle_type_id":"4","last_reported":1700514398,"current_range_meters":0,"station_id":"ce4bgvp2rcd13ifvqcu0","pricing_plan_id":"free"},{"bike_id":"2db30064-9c16-4686-9d5d-eaa6b759e6d3","system_id":"levelo_inurba_marseille","lat":43.31323,"lon":5.39693,"is_reserved":false,"is_disabled":false,"rental_uris":{"android":"levelo://app?vid=2db30064-9c16-4686-9d5d-eaa6b759e6d3","ios":"levelo://app?vid=2db30064-9c16-4686-9d5d-eaa6b759e6d3"},"vehicle_type_id":"4","last_reported":1700514398,"current_range_meters":22400,"station_id":"ce4bgvp2rcd13ifvqcu0","pricing_plan_id":"free"},{"bike_id":"57b3a308-ada7-4381-8f83-941c6ce0a062","system_id":"levelo_inurba_marseille","lat":43.31331,"lon":5.39693,"is_reserved":false,"is_disabled":false,"rental_uris":{"android":"levelo://app?vid=57b3a308-ada7-4381-8f83-941c6ce0a062","ios":"levelo://app?vid=57b3a308-ada7-4381-8f83-941c6ce0a062"},"vehicle_type_id":"4","last_reported":1700514398,"current_range_meters":14000,"station_id":"ce4bgvp2rcd13ifvqcu0","pricing_plan_id":"free"},{"bike_id":"ba228543-063e-4567-bbc4-9933dfb7332e","system_id":"levelo_inurba_marseille","lat":43.31326,"lon":5.39694,"is_reserved":false,"is_disabled":false,"rental_uris":{"android":"levelo://app?vid=ba228543-063e-4567-bbc4-9933dfb7332e","ios":"levelo://app?vid=ba228543-063e-4567-bbc4-9933dfb7332e"},"vehicle_type_id":"4","last_reported":1700514398,"current_range_meters":11200,"station_id":"ce4bgvp2rcd13ifvqcu0","pricing_plan_id":"free"},{"bike_id":"207bf48a-8d17-4c37-ba4d-03768cf570cc","system_id":"levelo_inurba_marseille","lat":43.309047,"lon":5.396551,"is_reserved":false,"is_disabled":false,"rental_uris":{"android":"levelo://app?vid=207bf48a-8d17-4c37-ba4d-03768cf570cc","ios":"levelo://app?vid=207bf48a-8d17-4c37-ba4d-03768cf570cc"},"vehicle_type_id":"4","last_reported":1700514398,"current_range_meters":16800,"station_id":"ce4bh012rcd13ifvqcv0","pricing_plan_id":"free"},{"bike_id":"9efc6cfe-ba86-4c0e-9109-65e2a434ce4f","system_id":"levelo_inurba_marseille","lat":43.309047,"lon":5.396551,"is_reserved":false,"is_disabled":false,"rental_uris":{"android":"levelo://app?vid=9efc6cfe-ba86-4c0e-9109-65e2a434ce4f","ios":"levelo://app?vid=9efc6cfe-ba86-4c0e-9109-65e2a434ce4f"},"vehicle_type_id":"4","last_reported":1700514398,"current_range_meters":31600,"station_id":"ce4bh012rcd13ifvqcv0","pricing_plan_id":"free"},{"bike_id":"5e2df123-d933-4169-a934-01acce82c9f3","system_id":"levelo_inurba_marseille","lat":43.313291,"lon":5.396838,"is_reserved":false,"is_disabled":false,"rental_uris":{"android":"levelo://app?vid=5e2df123-d933-4169-a934-01acce82c9f3","ios":"levelo://app?vid=5e2df123-d933-4169-a934-01acce82c9f3"},"vehicle_type_id":"4","last_reported":1700514398,"current_range_meters":22400,"station_id":"ce4bgvp2rcd13ifvqcu0","pricing_plan_id":"free"},{"bike_id":"98aa03dc-e2da-495e-8e32-de58a61e91d2","system_id":"levelo_inurba_marseille","lat":43.31327,"lon":5.39698,"is_reserved":false,"is_disabled":false,"rental_uris":{"android":"levelo://app?vid=98aa03dc-e2da-495e-8e32-de58a61e91d2","ios":"levelo://app?vid=98aa03dc-e2da-495e-8e32-de58a61e91d2"},"vehicle_type_id":"4","last_reported":1700514398,"current_range_meters":28000,"station_id":"ce4bgvp2rcd13ifvqcu0","pricing_plan_id":"free"},{"bike_id":"9807c147-7f2b-4473-9ccb-036d5dded3a5","system_id":"levelo_inurba_marseille","lat":43.309038,"lon":5.396546,"is_reserved":false,"is_disabled":false,"rental_uris":{"android":"levelo://app?vid=9807c147-7f2b-4473-9ccb-036d5dded3a5","ios":"levelo://app?vid=9807c147-7f2b-4473-9ccb-036d5dded3a5"},"vehicle_type_id":"4","last_reported":1700514398,"current_range_meters":21600,"station_id":"ce4bh012rcd13ifvqcv0","pricing_plan_id":"free"},{"bike_id":"bb2def2e-409c-4428-9457-ab38a37fcc87","system_id":"levelo_inurba_marseille","lat":43.302008,"lon":5.394694,"is_reserved":false,"is_disabled":false,"rental_uris":{"android":"levelo://app?vid=bb2def2e-409c-4428-9457-ab38a37fcc87","ios":"levelo://app?vid=bb2def2e-409c-4428-9457-ab38a37fcc87"},"vehicle_type_id":"4","last_reported":1700514398,"current_range_meters":30400,"station_id":"ce4bh0p2rcd13ifvqd70","pricing_plan_id":"free"},{"bike_id":"710a61b4-090a-4dbb-bb2c-71133c157518","system_id":"levelo_inurba_marseille","lat":43.290631,"lon":5.359244,"is_reserved":false,"is_disabled":false,"rental_uris":{"android":"levelo://app?vid=710a61b4-090a-4dbb-bb2c-71133c157518","ios":"levelo://app?vid=710a61b4-090a-4dbb-bb2c-71133c157518"},"vehicle_type_id":"4","last_reported":1700514398,"current_range_meters":5200,"station_id":"ce4bha92rcd13ifvqeg0","pricing_plan_id":"free"},{"bike_id":"db0bfc97-e02e-4d4e-8916-ca7243959049","system_id":"levelo_inurba_marseille","lat":43.290631,"lon":5.359244,"is_reserved":false,"is_disabled":false,"rental_uris":{"android":"levelo://app?vid=db0bfc97-e02e-4d4e-8916-ca7243959049","ios":"levelo://app?vid=db0bfc97-e02e-4d4e-8916-ca7243959049"},"vehicle_type_id":"4","last_reported":1700514398,"current_range_meters":31200,"station_id":"ce4bha92rcd13ifvqeg0","pricing_plan_id":"free"},{"bike_id":"04cbbf3c-36e0-4368-8ba2-9604d62cec6c","system_id":"levelo_inurba_marseille","lat":43.29419,"lon":5.38627,"is_reserved":false,"is_disabled":false,"rental_uris":{"android":"levelo://app?vid=04cbbf3c-36e0-4368-8ba2-9604d62cec6c","ios":"levelo://app?vid=04cbbf3c-36e0-4368-8ba2-9604d62cec6c"},"vehicle_type_id":"4","last_reported":1700514398,"current_range_meters":14800,"station_id":"ce4bh2h2rcd13ifvqdh0","pricing_plan_id":"free"},{"bike_id":"0a1d868a-8049-4a47-85b4-bf416f0051af","system_id":"levelo_inurba_marseille","lat":43.289184,"lon":5.366408,"is_reserved":false,"is_disabled":false,"rental_uris":{"android":"levelo://app?vid=0a1d868a-8049-4a47-85b4-bf416f0051af","ios":"levelo://app?vid=0a1d868a-8049-4a47-85b4-bf416f0051af"},"vehicle_type_id":"4","last_reported":1700514398,"current_range_meters":20400,"station_id":"ce4bhap2rcd13ifvqek0","pricing_plan_id":"free"},{"bike_id":"12b7cda1-6506-40f0-8a7f-52a493c15e79","system_id":"levelo_inurba_marseille","lat":43.28947,"lon":5.36404,"is_reserved":false,"is_disabled":false,"rental_uris":{"android":"levelo://app?vid=12b7cda1-6506-40f0-8a7f-52a493c15e79","ios":"levelo://app?vid=12b7cda1-6506-40f0-8a7f-52a493c15e79"},"vehicle_type_id":"4","last_reported":1700514398,"current_range_meters":31200,"station_id":"ce4bhc92rcd13ifvqetg","pricing_plan_id":"free"},{"bike_id":"8459b507-e97b-4ba6-bc7c-8127c2e0db8a","system_id":"levelo_inurba_marseille","lat":43.289476,"lon":5.363818,"is_reserved":false,"is_disabled":false,"rental_uris":{"android":"levelo://app?vid=8459b507-e97b-4ba6-bc7c-8127c2e0db8a","ios":"levelo://app?vid=8459b507-e97b-4ba6-bc7c-8127c2e0db8a"},"vehicle_type_id":"4","last_reported":1700514398,"current_range_meters":31200,"station_id":"ce4bhc92rcd13ifvqetg","pricing_plan_id":"free"},{"bike_id":"132aba4c-5ae8-40e1-8742-2e82508abc6e","system_id":"levelo_inurba_marseille","lat":43.289428,"lon":5.363942,"is_reserved":false,"is_disabled":false,"rental_uris":{"android":"levelo://app?vid=132aba4c-5ae8-40e1-8742-2e82508abc6e","ios":"levelo://app?vid=132aba4c-5ae8-40e1-8742-2e82508abc6e"},"vehicle_type_id":"4","last_reported":1700514398,"current_range_meters":30000,"station_id":"ce4bhc92rcd13ifvqetg","pricing_plan_id":"free"},{"bike_id":"eb006d20-b5c9-49f9-aeb4-8a9d13762dd5","system_id":"levelo_inurba_marseille","lat":43.28942,"lon":5.36393,"is_reserved":false,"is_disabled":false,"rental_uris":{"android":"levelo://app?vid=eb006d20-b5c9-49f9-aeb4-8a9d13762dd5","ios":"levelo://app?vid=eb006d20-b5c9-49f9-aeb4-8a9d13762dd5"},"vehicle_type_id":"4","last_reported":1700514398,"current_range_meters":29600,"station_id":"ce4bhc92rcd13ifvqetg","pricing_plan_id":"free"},{"bike_id":"bb4623ce-9df2-42d4-a60b-71e7db3f0d91","system_id":"levelo_inurba_marseille","lat":43.304274,"lon":5.397513,"is_reserved":false,"is_disabled":false,"rental_uris":{"android":"levelo://app?vid=bb4623ce-9df2-42d4-a60b-71e7db3f0d91","ios":"levelo://app?vid=bb4623ce-9df2-42d4-a60b-71e7db3f0d91"},"vehicle_type_id":"4","last_reported":1700514398,"current_range_meters":24800,"station_id":"ce4bh092rcd13ifvqd20","pricing_plan_id":"free"},{"bike_id":"0dca947a-022e-45f2-a897-bc8e830c96a8","system_id":"levelo_inurba_marseille","lat":43.304274,"lon":5.397513,"is_reserved":false,"is_disabled":false,"rental_uris":{"android":"levelo://app?vid=0dca947a-022e-45f2-a897-bc8e830c96a8","ios":"levelo://app?vid=0dca947a-022e-45f2-a897-bc8e830c96a8"},"vehicle_type_id":"4","last_reported":1700514398,"current_range_meters":1600,"station_id":"ce4bh092rcd13ifvqd20","pricing_plan_id":"free"},{"bike_id":"5f69ae78-6bbb-4b4a-b2c8-926476952ca7","system_id":"levelo_inurba_marseille","lat":43.304296,"lon":5.397513,"is_reserved":false,"is_disabled":false,"rental_uris":{"android":"levelo://app?vid=5f69ae78-6bbb-4b4a-b2c8-926476952ca7","ios":"levelo://app?vid=5f69ae78-6bbb-4b4a-b2c8-926476952ca7"},"vehicle_type_id":"4","last_reported":1700514398,"current_range_meters":23200,"station_id":"ce4bh092rcd13ifvqd20","pricing_plan_id":"free"},{"bike_id":"b143c626-5b5e-42be-b89f-0a451c62808c","system_id":"levelo_inurba_marseille","lat":43.304274,"lon":5.397513,"is_reserved":false,"is_disabled":false,"rental_uris":{"android":"levelo://app?vid=b143c626-5b5e-42be-b89f-0a451c62808c","ios":"levelo://app?vid=b143c626-5b5e-42be-b89f-0a451c62808c"},"vehicle_type_id":"4","last_reported":1700514398,"current_range_meters":31200,"station_id":"ce4bh092rcd13ifvqd20","pricing_plan_id":"free"},{"bike_id":"6c3f86c9-9c97-4389-947e-4acabddb9d98","system_id":"levelo_inurba_marseille","lat":43.33041,"lon":5.38921,"is_reserved":false,"is_disabled":false,"rental_uris":{"android":"levelo://app?vid=6c3f86c9-9c97-4389-947e-4acabddb9d98","ios":"levelo://app?vid=6c3f86c9-9c97-4389-947e-4acabddb9d98"},"vehicle_type_id":"4","last_reported":1700514398,"current_range_meters":22000,"station_id":"ce4bhr92rcd13ifvqhrg","pricing_plan_id":"free"},{"bike_id":"58180374-f06e-4b90-834d-fae491697cd0","system_id":"levelo_inurba_marseille","lat":43.33045,"lon":5.38916,"is_reserved":false,"is_disabled":false,"rental_uris":{"android":"levelo://app?vid=58180374-f06e-4b90-834d-fae491697cd0","ios":"levelo://app?vid=58180374-f06e-4b90-834d-fae491697cd0"},"vehicle_type_id":"4","last_reported":1700514398,"current_range_meters":0,"station_id":"ce4bhr92rcd13ifvqhrg","pricing_plan_id":"free"},{"bike_id":"b04804cf-5e01-4a00-a221-33ce71eafa30","system_id":"levelo_inurba_marseille","lat":43.330442,"lon":5.389148,"is_reserved":false,"is_disabled":false,"rental_uris":{"android":"levelo://app?vid=b04804cf-5e01-4a00-a221-33ce71eafa30","ios":"levelo://app?vid=b04804cf-5e01-4a00-a221-33ce71eafa30"},"vehicle_type_id":"4","last_reported":1700514398,"current_range_meters":12400,"station_id":"ce4bhr92rcd13ifvqhrg","pricing_plan_id":"free"},{"bike_id":"25f2f82c-eb04-4b79-ba19-5ef0e6134874","system_id":"levelo_inurba_marseille","lat":43.330442,"lon":5.389148,"is_reserved":false,"is_disabled":false,"rental_uris":{"android":"levelo://app?vid=25f2f82c-eb04-4b79-ba19-5ef0e6134874","ios":"levelo://app?vid=25f2f82c-eb04-4b79-ba19-5ef0e6134874"},"vehicle_type_id":"4","last_reported":1700514398,"current_range_meters":22000,"station_id":"ce4bhr92rcd13ifvqhrg","pricing_plan_id":"free"},{"bike_id":"8da801bf-47c0-408f-8627-0b972a48c16b","system_id":"levelo_inurba_marseille","lat":43.290995,"lon":5.381361,"is_reserved":false,"is_disabled":false,"rental_uris":{"android":"levelo://app?vid=8da801bf-47c0-408f-8627-0b972a48c16b","ios":"levelo://app?vid=8da801bf-47c0-408f-8627-0b972a48c16b"},"vehicle_type_id":"4","last_reported":1700514398,"current_range_meters":10400,"station_id":"ce4bh512rcd13ifvqe2g","pricing_plan_id":"free"},{"bike_id":"24edf582-9678-43b9-bdef-467d8cbf50aa","system_id":"levelo_inurba_marseille","lat":43.297916,"lon":5.39336,"is_reserved":false,"is_disabled":false,"rental_uris":{"android":"levelo://app?vid=24edf582-9678-43b9-bdef-467d8cbf50aa","ios":"levelo://app?vid=24edf582-9678-43b9-bdef-467d8cbf50aa"},"vehicle_type_id":"4","last_reported":1700514398,"current_range_meters":22400,"station_id":"chh1huq6cuj3fo74tm60","pricing_plan_id":"free"},{"bike_id":"3a4e4fd7-d2ec-407c-b8e7-f0ba8faa1325","system_id":"levelo_inurba_marseille","lat":43.297797,"lon":5.3935,"is_reserved":false,"is_disabled":false,"rental_uris":{"android":"levelo://app?vid=3a4e4fd7-d2ec-407c-b8e7-f0ba8faa1325","ios":"levelo://app?vid=3a4e4fd7-d2ec-407c-b8e7-f0ba8faa1325"},"vehicle_type_id":"4","last_reported":1700514398,"current_range_meters":24800,"station_id":"chh1huq6cuj3fo74tm60","pricing_plan_id":"free"},{"bike_id":"4f7c81c1-d2d8-4108-abd3-49156db01dfe","system_id":"levelo_inurba_marseille","lat":43.295169,"lon":5.390426,"is_reserved":false,"is_disabled":false,"rental_uris":{"android":"levelo://app?vid=4f7c81c1-d2d8-4108-abd3-49156db01dfe","ios":"levelo://app?vid=4f7c81c1-d2d8-4108-abd3-49156db01dfe"},"vehicle_type_id":"4","last_reported":1700514398,"current_range_meters":23600,"station_id":"ce4bh3p2rcd13ifvqdp0","pricing_plan_id":"free"},{"bike_id":"07202f70-50d7-46f0-a5bd-59712659d6a0","system_id":"levelo_inurba_marseille","lat":43.31251,"lon":5.40162,"is_reserved":false,"is_disabled":false,"rental_uris":{"android":"levelo://app?vid=07202f70-50d7-46f0-a5bd-59712659d6a0","ios":"levelo://app?vid=07202f70-50d7-46f0-a5bd-59712659d6a0"},"vehicle_type_id":"4","last_reported":1700514398,"current_range_meters":6000,"station_id":"","pricing_plan_id":"free"},{"bike_id":"89ddf81a-3cac-4431-ae1e-29a70abce71c","system_id":"levelo_inurba_marseille","lat":43.33736,"lon":5.37464,"is_reserved":false,"is_disabled":false,"rental_uris":{"android":"levelo://app?vid=89ddf81a-3cac-4431-ae1e-29a70abce71c","ios":"levelo://app?vid=89ddf81a-3cac-4431-ae1e-29a70abce71c"},"vehicle_type_id":"4","last_reported":1700514398,"current_range_meters":0,"station_id":"","pricing_plan_id":"free"},{"bike_id":"31fb31a7-3c45-4439-b24c-3efa0559a453","system_id":"levelo_inurba_marseille","lat":43.3374,"lon":5.37457,"is_reserved":false,"is_disabled":false,"rental_uris":{"android":"levelo://app?vid=31fb31a7-3c45-4439-b24c-3efa0559a453","ios":"levelo://app?vid=31fb31a7-3c45-4439-b24c-3efa0559a453"},"vehicle_type_id":"4","last_reported":1700514398,"current_range_meters":29600,"station_id":"","pricing_plan_id":"free"},{"bike_id":"9d76eca6-e85e-49d7-809a-4e0ac58db9fa","system_id":"levelo_inurba_marseille","lat":43.312822,"lon":5.401737,"is_reserved":false,"is_disabled":false,"rental_uris":{"android":"levelo://app?vid=9d76eca6-e85e-49d7-809a-4e0ac58db9fa","ios":"levelo://app?vid=9d76eca6-e85e-49d7-809a-4e0ac58db9fa"},"vehicle_type_id":"4","last_reported":1700514398,"current_range_meters":30400,"station_id":"ce4bh092rcd13ifvqd30","pricing_plan_id":"free"},{"bike_id":"8b886d5e-a5b7-4885-93a9-86b8fb60103f","system_id":"levelo_inurba_marseille","lat":43.33747,"lon":5.37451,"is_reserved":false,"is_disabled":false,"rental_uris":{"android":"levelo://app?vid=8b886d5e-a5b7-4885-93a9-86b8fb60103f","ios":"levelo://app?vid=8b886d5e-a5b7-4885-93a9-86b8fb60103f"},"vehicle_type_id":"4","last_reported":1700514398,"current_range_meters":20000,"station_id":"","pricing_plan_id":"free"},{"bike_id":"d5007cd5-ae02-43a7-8284-60107adb6236","system_id":"levelo_inurba_marseille","lat":43.33754,"lon":5.37441,"is_reserved":false,"is_disabled":false,"rental_uris":{"android":"levelo://app?vid=d5007cd5-ae02-43a7-8284-60107adb6236","ios":"levelo://app?vid=d5007cd5-ae02-43a7-8284-60107adb6236"},"vehicle_type_id":"4","last_reported":1700514398,"current_range_meters":24000,"station_id":"","pricing_plan_id":"free"},{"bike_id":"32c3052d-6284-4959-86ad-ab46f267ce26","system_id":"levelo_inurba_marseille","lat":43.33757,"lon":5.37445,"is_reserved":false,"is_disabled":false,"rental_uris":{"android":"levelo://app?vid=32c3052d-6284-4959-86ad-ab46f267ce26","ios":"levelo://app?vid=32c3052d-6284-4959-86ad-ab46f267ce26"},"vehicle_type_id":"4","last_reported":1700514398,"current_range_meters":23200,"station_id":"","pricing_plan_id":"free"},{"bike_id":"bc26decb-ca2c-436c-92ae-90f9099d64d6","system_id":"levelo_inurba_marseille","lat":43.30648,"lon":5.40089,"is_reserved":false,"is_disabled":false,"rental_uris":{"android":"levelo://app?vid=bc26decb-ca2c-436c-92ae-90f9099d64d6","ios":"levelo://app?vid=bc26decb-ca2c-436c-92ae-90f9099d64d6"},"vehicle_type_id":"4","last_reported":1700514398,"current_range_meters":25200,"station_id":"ce4bh112rcd13ifvqda0","pricing_plan_id":"free"},{"bike_id":"84b9d05f-3d7e-4742-8deb-25bbb4b79fa5","system_id":"levelo_inurba_marseille","lat":43.30641,"lon":5.40087,"is_reserved":false,"is_disabled":false,"rental_uris":{"android":"levelo://app?vid=84b9d05f-3d7e-4742-8deb-25bbb4b79fa5","ios":"levelo://app?vid=84b9d05f-3d7e-4742-8deb-25bbb4b79fa5"},"vehicle_type_id":"4","last_reported":1700514398,"current_range_meters":10800,"station_id":"ce4bh112rcd13ifvqda0","pricing_plan_id":"free"},{"bike_id":"0f2e653e-aafe-46ab-9ce6-74951b8f9bf6","system_id":"levelo_inurba_marseille","lat":43.3064,"lon":5.40087,"is_reserved":false,"is_disabled":false,"rental_uris":{"android":"levelo://app?vid=0f2e653e-aafe-46ab-9ce6-74951b8f9bf6","ios":"levelo://app?vid=0f2e653e-aafe-46ab-9ce6-74951b8f9bf6"},"vehicle_type_id":"4","last_reported":1700514398,"current_range_meters":5200,"station_id":"ce4bh112rcd13ifvqda0","pricing_plan_id":"free"},{"bike_id":"7d1b648a-c616-4e16-9ce5-054be0c1527d","system_id":"levelo_inurba_marseille","lat":43.33758,"lon":5.37493,"is_reserved":false,"is_disabled":false,"rental_uris":{"android":"levelo://app?vid=7d1b648a-c616-4e16-9ce5-054be0c1527d","ios":"levelo://app?vid=7d1b648a-c616-4e16-9ce5-054be0c1527d"},"vehicle_type_id":"4","last_reported":1700514398,"current_range_meters":29600,"station_id":"","pricing_plan_id":"free"},{"bike_id":"72172355-570f-4907-8ac6-f1a5b3ff0ca3","system_id":"levelo_inurba_marseille","lat":43.30642,"lon":5.40093,"is_reserved":false,"is_disabled":false,"rental_uris":{"android":"levelo://app?vid=72172355-570f-4907-8ac6-f1a5b3ff0ca3","ios":"levelo://app?vid=72172355-570f-4907-8ac6-f1a5b3ff0ca3"},"vehicle_type_id":"4","last_reported":1700514398,"current_range_meters":10800,"station_id":"ce4bh112rcd13ifvqda0","pricing_plan_id":"free"},{"bike_id":"1d8efbac-cdba-42e5-bd33-18d5b1532753","system_id":"levelo_inurba_marseille","lat":43.33776,"lon":5.37439,"is_reserved":false,"is_disabled":false,"rental_uris":{"android":"levelo://app?vid=1d8efbac-cdba-42e5-bd33-18d5b1532753","ios":"levelo://app?vid=1d8efbac-cdba-42e5-bd33-18d5b1532753"},"vehicle_type_id":"4","last_reported":1700514398,"current_range_meters":27200,"station_id":"","pricing_plan_id":"free"},{"bike_id":"a8809386-91f6-4cba-8c24-3aabcdca9abe","system_id":"levelo_inurba_marseille","lat":43.301117,"lon":5.398795,"is_reserved":false,"is_disabled":false,"rental_uris":{"android":"levelo://app?vid=a8809386-91f6-4cba-8c24-3aabcdca9abe","ios":"levelo://app?vid=a8809386-91f6-4cba-8c24-3aabcdca9abe"},"vehicle_type_id":"4","last_reported":1700514398,"current_range_meters":22000,"station_id":"ce4bh0h2rcd13ifvqd40","pricing_plan_id":"free"},{"bike_id":"e36f9811-3110-4afe-b86c-b4a3ef6e60d8","system_id":"levelo_inurba_marseille","lat":43.301117,"lon":5.398795,"is_reserved":false,"is_disabled":false,"rental_uris":{"android":"levelo://app?vid=e36f9811-3110-4afe-b86c-b4a3ef6e60d8","ios":"levelo://app?vid=e36f9811-3110-4afe-b86c-b4a3ef6e60d8"},"vehicle_type_id":"4","last_reported":1700514398,"current_range_meters":6000,"station_id":"ce4bh0h2rcd13ifvqd40","pricing_plan_id":"free"},{"bike_id":"6996037b-a616-4f65-8299-0ffd885315f4","system_id":"levelo_inurba_marseille","lat":43.28727,"lon":5.36078,"is_reserved":false,"is_disabled":false,"rental_uris":{"android":"levelo://app?vid=6996037b-a616-4f65-8299-0ffd885315f4","ios":"levelo://app?vid=6996037b-a616-4f65-8299-0ffd885315f4"},"vehicle_type_id":"4","last_reported":1700514398,"current_range_meters":21600,"station_id":"cki0cbj6b192h4jlfktg","pricing_plan_id":"free"},{"bike_id":"2400a2d1-1f01-4fc5-8c2b-199596767b2d","system_id":"levelo_inurba_marseille","lat":43.28727,"lon":5.36078,"is_reserved":false,"is_disabled":false,"rental_uris":{"android":"levelo://app?vid=2400a2d1-1f01-4fc5-8c2b-199596767b2d","ios":"levelo://app?vid=2400a2d1-1f01-4fc5-8c2b-199596767b2d"},"vehicle_type_id":"4","last_reported":1700514398,"current_range_meters":28800,"station_id":"cki0cbj6b192h4jlfktg","pricing_plan_id":"free"},{"bike_id":"f16f1a67-c0d4-4e4b-a7ec-566bd73e6a15","system_id":"levelo_inurba_marseille","lat":43.28727,"lon":5.36078,"is_reserved":false,"is_disabled":false,"rental_uris":{"android":"levelo://app?vid=f16f1a67-c0d4-4e4b-a7ec-566bd73e6a15","ios":"levelo://app?vid=f16f1a67-c0d4-4e4b-a7ec-566bd73e6a15"},"vehicle_type_id":"4","last_reported":1700514398,"current_range_meters":6800,"station_id":"cki0cbj6b192h4jlfktg","pricing_plan_id":"free"},{"bike_id":"37a9f564-d28d-40aa-af60-8a05c406bbaf","system_id":"levelo_inurba_marseille","lat":43.28727,"lon":5.36078,"is_reserved":false,"is_disabled":false,"rental_uris":{"android":"levelo://app?vid=37a9f564-d28d-40aa-af60-8a05c406bbaf","ios":"levelo://app?vid=37a9f564-d28d-40aa-af60-8a05c406bbaf"},"vehicle_type_id":"4","last_reported":1700514398,"current_range_meters":2800,"station_id":"cki0cbj6b192h4jlfktg","pricing_plan_id":"free"},{"bike_id":"fbbfb7de-c6f3-442e-b997-562ae2d572be","system_id":"levelo_inurba_marseille","lat":43.28727,"lon":5.36078,"is_reserved":false,"is_disabled":false,"rental_uris":{"android":"levelo://app?vid=fbbfb7de-c6f3-442e-b997-562ae2d572be","ios":"levelo://app?vid=fbbfb7de-c6f3-442e-b997-562ae2d572be"},"vehicle_type_id":"4","last_reported":1700514398,"current_range_meters":800,"station_id":"cki0cbj6b192h4jlfktg","pricing_plan_id":"free"},{"bike_id":"1b8120c1-e38f-4da9-b932-a710eafc6aa8","system_id":"levelo_inurba_marseille","lat":43.28727,"lon":5.36078,"is_reserved":false,"is_disabled":false,"rental_uris":{"android":"levelo://app?vid=1b8120c1-e38f-4da9-b932-a710eafc6aa8","ios":"levelo://app?vid=1b8120c1-e38f-4da9-b932-a710eafc6aa8"},"vehicle_type_id":"4","last_reported":1700514398,"current_range_meters":31600,"station_id":"cki0cbj6b192h4jlfktg","pricing_plan_id":"free"},{"bike_id":"9e7d0baf-987e-47b4-b51b-0dc305406150","system_id":"levelo_inurba_marseille","lat":43.286593,"lon":5.363346,"is_reserved":false,"is_disabled":false,"rental_uris":{"android":"levelo://app?vid=9e7d0baf-987e-47b4-b51b-0dc305406150","ios":"levelo://app?vid=9e7d0baf-987e-47b4-b51b-0dc305406150"},"vehicle_type_id":"4","last_reported":1700514398,"current_range_meters":22000,"station_id":"ce4bhah2rcd13ifvqej0","pricing_plan_id":"free"},{"bike_id":"f3d184cf-3568-4e5b-b716-fa51b21e219c","system_id":"levelo_inurba_marseille","lat":43.286593,"lon":5.363346,"is_reserved":false,"is_disabled":false,"rental_uris":{"android":"levelo://app?vid=f3d184cf-3568-4e5b-b716-fa51b21e219c","ios":"levelo://app?vid=f3d184cf-3568-4e5b-b716-fa51b21e219c"},"vehicle_type_id":"4","last_reported":1700514398,"current_range_meters":22000,"station_id":"ce4bhah2rcd13ifvqej0","pricing_plan_id":"free"},{"bike_id":"e814495c-6ac5-422f-bf25-bb8966aa7ee9","system_id":"levelo_inurba_marseille","lat":43.298681,"lon":5.397225,"is_reserved":false,"is_disabled":false,"rental_uris":{"android":"levelo://app?vid=e814495c-6ac5-422f-bf25-bb8966aa7ee9","ios":"levelo://app?vid=e814495c-6ac5-422f-bf25-bb8966aa7ee9"},"vehicle_type_id":"4","last_reported":1700514398,"current_range_meters":4400,"station_id":"ce4bh0h2rcd13ifvqd50","pricing_plan_id":"free"},{"bike_id":"fd071807-5630-4e68-8c3a-d3d2ec739fe5","system_id":"levelo_inurba_marseille","lat":43.286961,"lon":5.373785,"is_reserved":false,"is_disabled":false,"rental_uris":{"android":"levelo://app?vid=fd071807-5630-4e68-8c3a-d3d2ec739fe5","ios":"levelo://app?vid=fd071807-5630-4e68-8c3a-d3d2ec739fe5"},"vehicle_type_id":"4","last_reported":1700514398,"current_range_meters":27600,"station_id":"ce4bh3p2rcd13ifvqdq0","pricing_plan_id":"free"},{"bike_id":"d13fd0d5-d61d-4998-8f65-1f621265ba2a","system_id":"levelo_inurba_marseille","lat":43.295194,"lon":5.39397,"is_reserved":false,"is_disabled":false,"rental_uris":{"android":"levelo://app?vid=d13fd0d5-d61d-4998-8f65-1f621265ba2a","ios":"levelo://app?vid=d13fd0d5-d61d-4998-8f65-1f621265ba2a"},"vehicle_type_id":"4","last_reported":1700514398,"current_range_meters":22400,"station_id":"ce4bh292rcd13ifvqdf0","pricing_plan_id":"free"},{"bike_id":"44731be6-b12d-4524-a19e-fa40b216b32a","system_id":"levelo_inurba_marseille","lat":43.295194,"lon":5.39397,"is_reserved":false,"is_disabled":false,"rental_uris":{"android":"levelo://app?vid=44731be6-b12d-4524-a19e-fa40b216b32a","ios":"levelo://app?vid=44731be6-b12d-4524-a19e-fa40b216b32a"},"vehicle_type_id":"4","last_reported":1700514398,"current_range_meters":28800,"station_id":"ce4bh292rcd13ifvqdf0","pricing_plan_id":"free"},{"bike_id":"8d66ce2f-efb5-44e2-bb94-e9b14d98abcd","system_id":"levelo_inurba_marseille","lat":43.295194,"lon":5.39397,"is_reserved":false,"is_disabled":false,"rental_uris":{"android":"levelo://app?vid=8d66ce2f-efb5-44e2-bb94-e9b14d98abcd","ios":"levelo://app?vid=8d66ce2f-efb5-44e2-bb94-e9b14d98abcd"},"vehicle_type_id":"4","last_reported":1700514398,"current_range_meters":1600,"station_id":"ce4bh292rcd13ifvqdf0","pricing_plan_id":"free"},{"bike_id":"fe10b4bb-ebcb-4f7b-bafc-eb07de016cb5","system_id":"levelo_inurba_marseille","lat":43.295194,"lon":5.39397,"is_reserved":false,"is_disabled":false,"rental_uris":{"android":"levelo://app?vid=fe10b4bb-ebcb-4f7b-bafc-eb07de016cb5","ios":"levelo://app?vid=fe10b4bb-ebcb-4f7b-bafc-eb07de016cb5"},"vehicle_type_id":"4","last_reported":1700514398,"current_range_meters":2800,"station_id":"ce4bh292rcd13ifvqdf0","pricing_plan_id":"free"},{"bike_id":"ead06aea-3d88-4fe9-b690-eebb85803736","system_id":"levelo_inurba_marseille","lat":43.28932,"lon":5.38398,"is_reserved":false,"is_disabled":false,"rental_uris":{"android":"levelo://app?vid=ead06aea-3d88-4fe9-b690-eebb85803736","ios":"levelo://app?vid=ead06aea-3d88-4fe9-b690-eebb85803736"},"vehicle_type_id":"4","last_reported":1700514398,"current_range_meters":21600,"station_id":"ce4bh612rcd13ifvqe6g","pricing_plan_id":"free"},{"bike_id":"09c8c684-a180-4ec9-ab62-7c368786bd9c","system_id":"levelo_inurba_marseille","lat":43.29036,"lon":5.38649,"is_reserved":false,"is_disabled":false,"rental_uris":{"android":"levelo://app?vid=09c8c684-a180-4ec9-ab62-7c368786bd9c","ios":"levelo://app?vid=09c8c684-a180-4ec9-ab62-7c368786bd9c"},"vehicle_type_id":"4","last_reported":1700514398,"current_range_meters":18400,"station_id":"ce4bh4p2rcd13ifvqe0g","pricing_plan_id":"free"},{"bike_id":"4876f8e7-38e9-40f8-ac24-20811fc30e5e","system_id":"levelo_inurba_marseille","lat":43.289307,"lon":5.38406,"is_reserved":false,"is_disabled":false,"rental_uris":{"android":"levelo://app?vid=4876f8e7-38e9-40f8-ac24-20811fc30e5e","ios":"levelo://app?vid=4876f8e7-38e9-40f8-ac24-20811fc30e5e"},"vehicle_type_id":"4","last_reported":1700514398,"current_range_meters":28800,"station_id":"ce4bh612rcd13ifvqe6g","pricing_plan_id":"free"},{"bike_id":"ee9424ba-547b-4eb8-9f9f-3b1f2a4a918e","system_id":"levelo_inurba_marseille","lat":43.28926,"lon":5.38398,"is_reserved":false,"is_disabled":false,"rental_uris":{"android":"levelo://app?vid=ee9424ba-547b-4eb8-9f9f-3b1f2a4a918e","ios":"levelo://app?vid=ee9424ba-547b-4eb8-9f9f-3b1f2a4a918e"},"vehicle_type_id":"4","last_reported":1700514398,"current_range_meters":0,"station_id":"ce4bh612rcd13ifvqe6g","pricing_plan_id":"free"},{"bike_id":"3b49e10a-bc27-4ea4-b594-eee7db74c0b2","system_id":"levelo_inurba_marseille","lat":43.29027,"lon":5.3864,"is_reserved":false,"is_disabled":false,"rental_uris":{"android":"levelo://app?vid=3b49e10a-bc27-4ea4-b594-eee7db74c0b2","ios":"levelo://app?vid=3b49e10a-bc27-4ea4-b594-eee7db74c0b2"},"vehicle_type_id":"4","last_reported":1700514398,"current_range_meters":19200,"station_id":"ce4bh4p2rcd13ifvqe0g","pricing_plan_id":"free"},{"bike_id":"40b594dc-ddda-41de-9bdf-8a560fca7208","system_id":"levelo_inurba_marseille","lat":43.286113,"lon":5.370639,"is_reserved":false,"is_disabled":false,"rental_uris":{"android":"levelo://app?vid=40b594dc-ddda-41de-9bdf-8a560fca7208","ios":"levelo://app?vid=40b594dc-ddda-41de-9bdf-8a560fca7208"},"vehicle_type_id":"4","last_reported":1700514398,"current_range_meters":28400,"station_id":"ce4bht12rcd13ifvqi60","pricing_plan_id":"free"},{"bike_id":"e8b7c949-15c0-4c3d-bafc-4d9889bc6869","system_id":"levelo_inurba_marseille","lat":43.286039,"lon":5.370681,"is_reserved":false,"is_disabled":false,"rental_uris":{"android":"levelo://app?vid=e8b7c949-15c0-4c3d-bafc-4d9889bc6869","ios":"levelo://app?vid=e8b7c949-15c0-4c3d-bafc-4d9889bc6869"},"vehicle_type_id":"4","last_reported":1700514398,"current_range_meters":24800,"station_id":"ce4bht12rcd13ifvqi60","pricing_plan_id":"free"},{"bike_id":"7de2e235-5986-4a73-ad27-85c9cbd047d4","system_id":"levelo_inurba_marseille","lat":43.287184,"lon":5.37937,"is_reserved":false,"is_disabled":false,"rental_uris":{"android":"levelo://app?vid=7de2e235-5986-4a73-ad27-85c9cbd047d4","ios":"levelo://app?vid=7de2e235-5986-4a73-ad27-85c9cbd047d4"},"vehicle_type_id":"4","last_reported":1700514398,"current_range_meters":10000,"station_id":"ce4bh9p2rcd13ifvqec0","pricing_plan_id":"free"},{"bike_id":"47a9d677-3148-47f7-8b8f-f82fe9a287ba","system_id":"levelo_inurba_marseille","lat":43.287184,"lon":5.37937,"is_reserved":false,"is_disabled":false,"rental_uris":{"android":"levelo://app?vid=47a9d677-3148-47f7-8b8f-f82fe9a287ba","ios":"levelo://app?vid=47a9d677-3148-47f7-8b8f-f82fe9a287ba"},"vehicle_type_id":"4","last_reported":1700514398,"current_range_meters":31200,"station_id":"ce4bh9p2rcd13ifvqec0","pricing_plan_id":"free"},{"bike_id":"d2bbd7b6-f829-4f0a-babc-e138e6f2c9c5","system_id":"levelo_inurba_marseille","lat":43.287185,"lon":5.379373,"is_reserved":false,"is_disabled":false,"rental_uris":{"android":"levelo://app?vid=d2bbd7b6-f829-4f0a-babc-e138e6f2c9c5","ios":"levelo://app?vid=d2bbd7b6-f829-4f0a-babc-e138e6f2c9c5"},"vehicle_type_id":"4","last_reported":1700514398,"current_range_meters":10400,"station_id":"ce4bh9p2rcd13ifvqec0","pricing_plan_id":"free"},{"bike_id":"3c3abf64-0839-4608-b9eb-b4a0e6b76bb9","system_id":"levelo_inurba_marseille","lat":43.316517,"lon":5.404375,"is_reserved":false,"is_disabled":false,"rental_uris":{"android":"levelo://app?vid=3c3abf64-0839-4608-b9eb-b4a0e6b76bb9","ios":"levelo://app?vid=3c3abf64-0839-4608-b9eb-b4a0e6b76bb9"},"vehicle_type_id":"4","last_reported":1700514398,"current_range_meters":20400,"station_id":"ce4bh012rcd13ifvqd00","pricing_plan_id":"free"},{"bike_id":"4ccf38cc-7f7d-40ba-adf7-f8da8d896dc8","system_id":"levelo_inurba_marseille","lat":43.316517,"lon":5.404375,"is_reserved":false,"is_disabled":false,"rental_uris":{"android":"levelo://app?vid=4ccf38cc-7f7d-40ba-adf7-f8da8d896dc8","ios":"levelo://app?vid=4ccf38cc-7f7d-40ba-adf7-f8da8d896dc8"},"vehicle_type_id":"4","last_reported":1700514398,"current_range_meters":15200,"station_id":"ce4bh012rcd13ifvqd00","pricing_plan_id":"free"},{"bike_id":"22364c07-f1f5-4a48-8177-b598af57518a","system_id":"levelo_inurba_marseille","lat":43.29199,"lon":5.393146,"is_reserved":false,"is_disabled":false,"rental_uris":{"android":"levelo://app?vid=22364c07-f1f5-4a48-8177-b598af57518a","ios":"levelo://app?vid=22364c07-f1f5-4a48-8177-b598af57518a"},"vehicle_type_id":"4","last_reported":1700514398,"current_range_meters":22400,"station_id":"ce4bh192rcd13ifvqdd0","pricing_plan_id":"free"},{"bike_id":"00bd7c60-06b5-470b-b933-29c08e79a17e","system_id":"levelo_inurba_marseille","lat":43.291921,"lon":5.393118,"is_reserved":false,"is_disabled":false,"rental_uris":{"android":"levelo://app?vid=00bd7c60-06b5-470b-b933-29c08e79a17e","ios":"levelo://app?vid=00bd7c60-06b5-470b-b933-29c08e79a17e"},"vehicle_type_id":"4","last_reported":1700514398,"current_range_meters":12400,"station_id":"ce4bh192rcd13ifvqdd0","pricing_plan_id":"free"},{"bike_id":"f7a9a7e4-e5a9-4924-b7f0-6495f6794ab1","system_id":"levelo_inurba_marseille","lat":43.29192,"lon":5.393187,"is_reserved":false,"is_disabled":false,"rental_uris":{"android":"levelo://app?vid=f7a9a7e4-e5a9-4924-b7f0-6495f6794ab1","ios":"levelo://app?vid=f7a9a7e4-e5a9-4924-b7f0-6495f6794ab1"},"vehicle_type_id":"4","last_reported":1700514398,"current_range_meters":2400,"station_id":"ce4bh192rcd13ifvqdd0","pricing_plan_id":"free"},{"bike_id":"79b87a2b-a9da-4bb2-8b49-a06bdb320def","system_id":"levelo_inurba_marseille","lat":43.29195,"lon":5.39329,"is_reserved":false,"is_disabled":false,"rental_uris":{"android":"levelo://app?vid=79b87a2b-a9da-4bb2-8b49-a06bdb320def","ios":"levelo://app?vid=79b87a2b-a9da-4bb2-8b49-a06bdb320def"},"vehicle_type_id":"4","last_reported":1700514398,"current_range_meters":0,"station_id":"ce4bh192rcd13ifvqdd0","pricing_plan_id":"free"},{"bike_id":"c1f5d9ac-5fe4-4d52-8154-11295f269d19","system_id":"levelo_inurba_marseille","lat":43.29186,"lon":5.39326,"is_reserved":false,"is_disabled":false,"rental_uris":{"android":"levelo://app?vid=c1f5d9ac-5fe4-4d52-8154-11295f269d19","ios":"levelo://app?vid=c1f5d9ac-5fe4-4d52-8154-11295f269d19"},"vehicle_type_id":"4","last_reported":1700514398,"current_range_meters":10000,"station_id":"ce4bh192rcd13ifvqdd0","pricing_plan_id":"free"},{"bike_id":"0742868f-3252-40f4-9f9b-dd8fbb56ce3a","system_id":"levelo_inurba_marseille","lat":43.284538,"lon":5.358657,"is_reserved":false,"is_disabled":false,"rental_uris":{"android":"levelo://app?vid=0742868f-3252-40f4-9f9b-dd8fbb56ce3a","ios":"levelo://app?vid=0742868f-3252-40f4-9f9b-dd8fbb56ce3a"},"vehicle_type_id":"4","last_reported":1700514398,"current_range_meters":31200,"station_id":"ce4bhah2rcd13ifvqei0","pricing_plan_id":"free"},{"bike_id":"77c3e609-337f-4c81-be80-01f1e9aab04c","system_id":"levelo_inurba_marseille","lat":43.284538,"lon":5.358657,"is_reserved":false,"is_disabled":false,"rental_uris":{"android":"levelo://app?vid=77c3e609-337f-4c81-be80-01f1e9aab04c","ios":"levelo://app?vid=77c3e609-337f-4c81-be80-01f1e9aab04c"},"vehicle_type_id":"4","last_reported":1700514398,"current_range_meters":4800,"station_id":"ce4bhah2rcd13ifvqei0","pricing_plan_id":"free"},{"bike_id":"35006318-c5cf-402e-b6ab-83a12564ebaf","system_id":"levelo_inurba_marseille","lat":43.284538,"lon":5.358657,"is_reserved":false,"is_disabled":false,"rental_uris":{"android":"levelo://app?vid=35006318-c5cf-402e-b6ab-83a12564ebaf","ios":"levelo://app?vid=35006318-c5cf-402e-b6ab-83a12564ebaf"},"vehicle_type_id":"4","last_reported":1700514398,"current_range_meters":30800,"station_id":"ce4bhah2rcd13ifvqei0","pricing_plan_id":"free"},{"bike_id":"3b76308c-89df-428b-9ed9-ff417fd447a6","system_id":"levelo_inurba_marseille","lat":43.284602,"lon":5.358936,"is_reserved":false,"is_disabled":false,"rental_uris":{"android":"levelo://app?vid=3b76308c-89df-428b-9ed9-ff417fd447a6","ios":"levelo://app?vid=3b76308c-89df-428b-9ed9-ff417fd447a6"},"vehicle_type_id":"4","last_reported":1700514398,"current_range_meters":30400,"station_id":"ce4bhah2rcd13ifvqei0","pricing_plan_id":"free"},{"bike_id":"9732ab80-e62c-46fa-b562-b0e0c192b55a","system_id":"levelo_inurba_marseille","lat":43.284538,"lon":5.358657,"is_reserved":false,"is_disabled":false,"rental_uris":{"android":"levelo://app?vid=9732ab80-e62c-46fa-b562-b0e0c192b55a","ios":"levelo://app?vid=9732ab80-e62c-46fa-b562-b0e0c192b55a"},"vehicle_type_id":"4","last_reported":1700514398,"current_range_meters":29200,"station_id":"ce4bhah2rcd13ifvqei0","pricing_plan_id":"free"},{"bike_id":"eac1a479-eab4-4211-af30-c568e5e2e3b8","system_id":"levelo_inurba_marseille","lat":43.28462,"lon":5.35875,"is_reserved":false,"is_disabled":false,"rental_uris":{"android":"levelo://app?vid=eac1a479-eab4-4211-af30-c568e5e2e3b8","ios":"levelo://app?vid=eac1a479-eab4-4211-af30-c568e5e2e3b8"},"vehicle_type_id":"4","last_reported":1700514398,"current_range_meters":31200,"station_id":"ce4bhah2rcd13ifvqei0","pricing_plan_id":"free"},{"bike_id":"7210a562-ff36-4b84-a127-25b66e63d82c","system_id":"levelo_inurba_marseille","lat":43.28459,"lon":5.3589,"is_reserved":false,"is_disabled":false,"rental_uris":{"android":"levelo://app?vid=7210a562-ff36-4b84-a127-25b66e63d82c","ios":"levelo://app?vid=7210a562-ff36-4b84-a127-25b66e63d82c"},"vehicle_type_id":"4","last_reported":1700514398,"current_range_meters":31200,"station_id":"ce4bhah2rcd13ifvqei0","pricing_plan_id":"free"},{"bike_id":"288666b6-2bca-40b3-9e5b-0556cd143ccc","system_id":"levelo_inurba_marseille","lat":43.284538,"lon":5.358657,"is_reserved":false,"is_disabled":false,"rental_uris":{"android":"levelo://app?vid=288666b6-2bca-40b3-9e5b-0556cd143ccc","ios":"levelo://app?vid=288666b6-2bca-40b3-9e5b-0556cd143ccc"},"vehicle_type_id":"4","last_reported":1700514398,"current_range_meters":31200,"station_id":"ce4bhah2rcd13ifvqei0","pricing_plan_id":"free"},{"bike_id":"f9a26521-226c-4f5b-b44e-d41bf7a4562c","system_id":"levelo_inurba_marseille","lat":43.284538,"lon":5.358657,"is_reserved":false,"is_disabled":false,"rental_uris":{"android":"levelo://app?vid=f9a26521-226c-4f5b-b44e-d41bf7a4562c","ios":"levelo://app?vid=f9a26521-226c-4f5b-b44e-d41bf7a4562c"},"vehicle_type_id":"4","last_reported":1700514398,"current_range_meters":31200,"station_id":"ce4bhah2rcd13ifvqei0","pricing_plan_id":"free"},{"bike_id":"58b4b7cf-48a5-446b-936a-877a03d27593","system_id":"levelo_inurba_marseille","lat":43.284573,"lon":5.35884,"is_reserved":false,"is_disabled":false,"rental_uris":{"android":"levelo://app?vid=58b4b7cf-48a5-446b-936a-877a03d27593","ios":"levelo://app?vid=58b4b7cf-48a5-446b-936a-877a03d27593"},"vehicle_type_id":"4","last_reported":1700514398,"current_range_meters":31200,"station_id":"ce4bhah2rcd13ifvqei0","pricing_plan_id":"free"},{"bike_id":"c1f38e34-3ecd-49fe-ba70-3b9c23bc5a1c","system_id":"levelo_inurba_marseille","lat":43.284534,"lon":5.358662,"is_reserved":false,"is_disabled":false,"rental_uris":{"android":"levelo://app?vid=c1f38e34-3ecd-49fe-ba70-3b9c23bc5a1c","ios":"levelo://app?vid=c1f38e34-3ecd-49fe-ba70-3b9c23bc5a1c"},"vehicle_type_id":"4","last_reported":1700514398,"current_range_meters":9600,"station_id":"ce4bhah2rcd13ifvqei0","pricing_plan_id":"free"},{"bike_id":"90fbeaaa-7656-4325-9663-f8ffd2cad7c8","system_id":"levelo_inurba_marseille","lat":43.28457,"lon":5.35885,"is_reserved":false,"is_disabled":false,"rental_uris":{"android":"levelo://app?vid=90fbeaaa-7656-4325-9663-f8ffd2cad7c8","ios":"levelo://app?vid=90fbeaaa-7656-4325-9663-f8ffd2cad7c8"},"vehicle_type_id":"4","last_reported":1700514398,"current_range_meters":29200,"station_id":"ce4bhah2rcd13ifvqei0","pricing_plan_id":"free"},{"bike_id":"ae1a042e-5400-4acc-b6fc-670f4baa06e6","system_id":"levelo_inurba_marseille","lat":43.28457,"lon":5.35883,"is_reserved":false,"is_disabled":false,"rental_uris":{"android":"levelo://app?vid=ae1a042e-5400-4acc-b6fc-670f4baa06e6","ios":"levelo://app?vid=ae1a042e-5400-4acc-b6fc-670f4baa06e6"},"vehicle_type_id":"4","last_reported":1700514398,"current_range_meters":22800,"station_id":"ce4bhah2rcd13ifvqei0","pricing_plan_id":"free"},{"bike_id":"eda63b73-b14f-4905-8fc9-6d3ef4d62438","system_id":"levelo_inurba_marseille","lat":43.28451,"lon":5.35897,"is_reserved":false,"is_disabled":false,"rental_uris":{"android":"levelo://app?vid=eda63b73-b14f-4905-8fc9-6d3ef4d62438","ios":"levelo://app?vid=eda63b73-b14f-4905-8fc9-6d3ef4d62438"},"vehicle_type_id":"4","last_reported":1700514398,"current_range_meters":31600,"station_id":"ce4bhah2rcd13ifvqei0","pricing_plan_id":"free"},{"bike_id":"a03bc167-3f90-4afe-89f0-2334b5872e81","system_id":"levelo_inurba_marseille","lat":43.284538,"lon":5.358657,"is_reserved":false,"is_disabled":false,"rental_uris":{"android":"levelo://app?vid=a03bc167-3f90-4afe-89f0-2334b5872e81","ios":"levelo://app?vid=a03bc167-3f90-4afe-89f0-2334b5872e81"},"vehicle_type_id":"4","last_reported":1700514398,"current_range_meters":30400,"station_id":"ce4bhah2rcd13ifvqei0","pricing_plan_id":"free"},{"bike_id":"f1f8217c-ea87-4972-8bae-5d1fba55fb58","system_id":"levelo_inurba_marseille","lat":43.28619,"lon":5.35108,"is_reserved":false,"is_disabled":false,"rental_uris":{"android":"levelo://app?vid=f1f8217c-ea87-4972-8bae-5d1fba55fb58","ios":"levelo://app?vid=f1f8217c-ea87-4972-8bae-5d1fba55fb58"},"vehicle_type_id":"4","last_reported":1700514398,"current_range_meters":1200,"station_id":"ce4bhch2rcd13ifvqeug","pricing_plan_id":"free"},{"bike_id":"92b8e850-ba70-477a-85c3-96cef3a83d46","system_id":"levelo_inurba_marseille","lat":43.28617,"lon":5.35111,"is_reserved":false,"is_disabled":false,"rental_uris":{"android":"levelo://app?vid=92b8e850-ba70-477a-85c3-96cef3a83d46","ios":"levelo://app?vid=92b8e850-ba70-477a-85c3-96cef3a83d46"},"vehicle_type_id":"4","last_reported":1700514398,"current_range_meters":0,"station_id":"ce4bhch2rcd13ifvqeug","pricing_plan_id":"free"},{"bike_id":"b99b0cff-ade6-4996-a075-0f70ee649462","system_id":"levelo_inurba_marseille","lat":43.28618,"lon":5.35106,"is_reserved":false,"is_disabled":false,"rental_uris":{"android":"levelo://app?vid=b99b0cff-ade6-4996-a075-0f70ee649462","ios":"levelo://app?vid=b99b0cff-ade6-4996-a075-0f70ee649462"},"vehicle_type_id":"4","last_reported":1700514398,"current_range_meters":17600,"station_id":"ce4bhch2rcd13ifvqeug","pricing_plan_id":"free"},{"bike_id":"127e31e2-d9a4-4743-bf70-9ff2c5f9bd75","system_id":"levelo_inurba_marseille","lat":43.283998,"lon":5.375062,"is_reserved":false,"is_disabled":false,"rental_uris":{"android":"levelo://app?vid=127e31e2-d9a4-4743-bf70-9ff2c5f9bd75","ios":"levelo://app?vid=127e31e2-d9a4-4743-bf70-9ff2c5f9bd75"},"vehicle_type_id":"4","last_reported":1700514398,"current_range_meters":26400,"station_id":"ce4bh412rcd13ifvqds0","pricing_plan_id":"free"},{"bike_id":"e2888d54-4cde-4cd1-a872-e6c664296037","system_id":"levelo_inurba_marseille","lat":43.286236,"lon":5.383947,"is_reserved":false,"is_disabled":false,"rental_uris":{"android":"levelo://app?vid=e2888d54-4cde-4cd1-a872-e6c664296037","ios":"levelo://app?vid=e2888d54-4cde-4cd1-a872-e6c664296037"},"vehicle_type_id":"4","last_reported":1700514398,"current_range_meters":0,"station_id":"","pricing_plan_id":"free"},{"bike_id":"df557a1d-d4de-4c82-9bf4-37a9eec7c85f","system_id":"levelo_inurba_marseille","lat":43.283998,"lon":5.375062,"is_reserved":false,"is_disabled":false,"rental_uris":{"android":"levelo://app?vid=df557a1d-d4de-4c82-9bf4-37a9eec7c85f","ios":"levelo://app?vid=df557a1d-d4de-4c82-9bf4-37a9eec7c85f"},"vehicle_type_id":"4","last_reported":1700514398,"current_range_meters":9600,"station_id":"ce4bh412rcd13ifvqds0","pricing_plan_id":"free"},{"bike_id":"f95574c5-69c4-4456-aeef-011a8935251a","system_id":"levelo_inurba_marseille","lat":43.286595,"lon":5.386795,"is_reserved":false,"is_disabled":false,"rental_uris":{"android":"levelo://app?vid=f95574c5-69c4-4456-aeef-011a8935251a","ios":"levelo://app?vid=f95574c5-69c4-4456-aeef-011a8935251a"},"vehicle_type_id":"4","last_reported":1700514398,"current_range_meters":10400,"station_id":"ce4bh492rcd13ifvqdug","pricing_plan_id":"free"},{"bike_id":"35ba4e4e-a7c2-4440-9a4e-e9a94c96db8e","system_id":"levelo_inurba_marseille","lat":43.319179,"lon":5.407725,"is_reserved":false,"is_disabled":false,"rental_uris":{"android":"levelo://app?vid=35ba4e4e-a7c2-4440-9a4e-e9a94c96db8e","ios":"levelo://app?vid=35ba4e4e-a7c2-4440-9a4e-e9a94c96db8e"},"vehicle_type_id":"4","last_reported":1700514398,"current_range_meters":16000,"station_id":"ce4bhq12rcd13ifvqhig","pricing_plan_id":"free"},{"bike_id":"5974ad3b-da81-42ca-a08b-1b3632a47afa","system_id":"levelo_inurba_marseille","lat":43.33237,"lon":5.3985,"is_reserved":false,"is_disabled":false,"rental_uris":{"android":"levelo://app?vid=5974ad3b-da81-42ca-a08b-1b3632a47afa","ios":"levelo://app?vid=5974ad3b-da81-42ca-a08b-1b3632a47afa"},"vehicle_type_id":"4","last_reported":1700514398,"current_range_meters":0,"station_id":"","pricing_plan_id":"free"},{"bike_id":"9d201ce1-f651-4b54-814e-c08d93b9c6bb","system_id":"levelo_inurba_marseille","lat":43.323464,"lon":5.406297,"is_reserved":false,"is_disabled":false,"rental_uris":{"android":"levelo://app?vid=9d201ce1-f651-4b54-814e-c08d93b9c6bb","ios":"levelo://app?vid=9d201ce1-f651-4b54-814e-c08d93b9c6bb"},"vehicle_type_id":"4","last_reported":1700514398,"current_range_meters":30400,"station_id":"ce4bhq92rcd13ifvqhjg","pricing_plan_id":"free"},{"bike_id":"aa9ed338-993c-4944-bb3b-8ec82246a8bd","system_id":"levelo_inurba_marseille","lat":43.323464,"lon":5.406297,"is_reserved":false,"is_disabled":false,"rental_uris":{"android":"levelo://app?vid=aa9ed338-993c-4944-bb3b-8ec82246a8bd","ios":"levelo://app?vid=aa9ed338-993c-4944-bb3b-8ec82246a8bd"},"vehicle_type_id":"4","last_reported":1700514398,"current_range_meters":20800,"station_id":"ce4bhq92rcd13ifvqhjg","pricing_plan_id":"free"},{"bike_id":"4fbed95d-7196-4444-a845-d6b81cf0e641","system_id":"levelo_inurba_marseille","lat":43.323464,"lon":5.406297,"is_reserved":false,"is_disabled":false,"rental_uris":{"android":"levelo://app?vid=4fbed95d-7196-4444-a845-d6b81cf0e641","ios":"levelo://app?vid=4fbed95d-7196-4444-a845-d6b81cf0e641"},"vehicle_type_id":"4","last_reported":1700514398,"current_range_meters":22400,"station_id":"ce4bhq92rcd13ifvqhjg","pricing_plan_id":"free"},{"bike_id":"5ebede17-f569-401c-9328-e894dbae2526","system_id":"levelo_inurba_marseille","lat":43.284787,"lon":5.384116,"is_reserved":false,"is_disabled":false,"rental_uris":{"android":"levelo://app?vid=5ebede17-f569-401c-9328-e894dbae2526","ios":"levelo://app?vid=5ebede17-f569-401c-9328-e894dbae2526"},"vehicle_type_id":"4","last_reported":1700514398,"current_range_meters":6400,"station_id":"ce4bh512rcd13ifvqe3g","pricing_plan_id":"free"},{"bike_id":"a9e147c9-52ce-46fc-8e8f-faabb1ce17f4","system_id":"levelo_inurba_marseille","lat":43.284741,"lon":5.384086,"is_reserved":false,"is_disabled":false,"rental_uris":{"android":"levelo://app?vid=a9e147c9-52ce-46fc-8e8f-faabb1ce17f4","ios":"levelo://app?vid=a9e147c9-52ce-46fc-8e8f-faabb1ce17f4"},"vehicle_type_id":"4","last_reported":1700514398,"current_range_meters":0,"station_id":"ce4bh512rcd13ifvqe3g","pricing_plan_id":"free"},{"bike_id":"abcae0ab-ae09-4145-888f-28e6ecd99d7e","system_id":"levelo_inurba_marseille","lat":43.284793,"lon":5.384119,"is_reserved":false,"is_disabled":false,"rental_uris":{"android":"levelo://app?vid=abcae0ab-ae09-4145-888f-28e6ecd99d7e","ios":"levelo://app?vid=abcae0ab-ae09-4145-888f-28e6ecd99d7e"},"vehicle_type_id":"4","last_reported":1700514398,"current_range_meters":20800,"station_id":"ce4bh512rcd13ifvqe3g","pricing_plan_id":"free"},{"bike_id":"062e0707-954e-4279-b5d7-55dbec5e68e4","system_id":"levelo_inurba_marseille","lat":43.284787,"lon":5.384116,"is_reserved":false,"is_disabled":false,"rental_uris":{"android":"levelo://app?vid=062e0707-954e-4279-b5d7-55dbec5e68e4","ios":"levelo://app?vid=062e0707-954e-4279-b5d7-55dbec5e68e4"},"vehicle_type_id":"4","last_reported":1700514398,"current_range_meters":26800,"station_id":"ce4bh512rcd13ifvqe3g","pricing_plan_id":"free"},{"bike_id":"d6c07092-7633-4771-8b9b-8ee907b29a0c","system_id":"levelo_inurba_marseille","lat":43.297946,"lon":5.404063,"is_reserved":false,"is_disabled":false,"rental_uris":{"android":"levelo://app?vid=d6c07092-7633-4771-8b9b-8ee907b29a0c","ios":"levelo://app?vid=d6c07092-7633-4771-8b9b-8ee907b29a0c"},"vehicle_type_id":"4","last_reported":1700514398,"current_range_meters":15200,"station_id":"ce4bh112rcd13ifvqd90","pricing_plan_id":"free"},{"bike_id":"bc66c312-4885-4e17-9fca-091e8861da7c","system_id":"levelo_inurba_marseille","lat":43.309047,"lon":5.396551,"is_reserved":false,"is_disabled":false,"rental_uris":{"android":"levelo://app?vid=bc66c312-4885-4e17-9fca-091e8861da7c","ios":"levelo://app?vid=bc66c312-4885-4e17-9fca-091e8861da7c"},"vehicle_type_id":"4","last_reported":1700514398,"current_range_meters":4400,"station_id":"ce4bh012rcd13ifvqcv0","pricing_plan_id":"free"},{"bike_id":"cac7e3e3-9bdf-4d13-9212-61f6e4b2d16e","system_id":"levelo_inurba_marseille","lat":43.284219,"lon":5.3497,"is_reserved":false,"is_disabled":false,"rental_uris":{"android":"levelo://app?vid=cac7e3e3-9bdf-4d13-9212-61f6e4b2d16e","ios":"levelo://app?vid=cac7e3e3-9bdf-4d13-9212-61f6e4b2d16e"},"vehicle_type_id":"4","last_reported":1700514398,"current_range_meters":21600,"station_id":"ce4bhbh2rcd13ifvqepg","pricing_plan_id":"free"},{"bike_id":"26eacea1-0b7b-4105-9234-5a75e70bb1dc","system_id":"levelo_inurba_marseille","lat":43.28425,"lon":5.34988,"is_reserved":false,"is_disabled":false,"rental_uris":{"android":"levelo://app?vid=26eacea1-0b7b-4105-9234-5a75e70bb1dc","ios":"levelo://app?vid=26eacea1-0b7b-4105-9234-5a75e70bb1dc"},"vehicle_type_id":"4","last_reported":1700514398,"current_range_meters":26000,"station_id":"ce4bhbh2rcd13ifvqepg","pricing_plan_id":"free"},{"bike_id":"118e2126-2788-4d82-83a8-767f8d86c3d7","system_id":"levelo_inurba_marseille","lat":43.284219,"lon":5.3497,"is_reserved":false,"is_disabled":false,"rental_uris":{"android":"levelo://app?vid=118e2126-2788-4d82-83a8-767f8d86c3d7","ios":"levelo://app?vid=118e2126-2788-4d82-83a8-767f8d86c3d7"},"vehicle_type_id":"4","last_reported":1700514398,"current_range_meters":25200,"station_id":"ce4bhbh2rcd13ifvqepg","pricing_plan_id":"free"},{"bike_id":"679fd7d2-de05-4189-b6ae-02c15f2e8b05","system_id":"levelo_inurba_marseille","lat":43.284219,"lon":5.3497,"is_reserved":false,"is_disabled":false,"rental_uris":{"android":"levelo://app?vid=679fd7d2-de05-4189-b6ae-02c15f2e8b05","ios":"levelo://app?vid=679fd7d2-de05-4189-b6ae-02c15f2e8b05"},"vehicle_type_id":"4","last_reported":1700514398,"current_range_meters":31200,"station_id":"ce4bhbh2rcd13ifvqepg","pricing_plan_id":"free"},{"bike_id":"d3ba5ff5-4c07-41d0-b578-5b46e32328b1","system_id":"levelo_inurba_marseille","lat":43.289363,"lon":5.396322,"is_reserved":false,"is_disabled":false,"rental_uris":{"android":"levelo://app?vid=d3ba5ff5-4c07-41d0-b578-5b46e32328b1","ios":"levelo://app?vid=d3ba5ff5-4c07-41d0-b578-5b46e32328b1"},"vehicle_type_id":"4","last_reported":1700514398,"current_range_meters":17600,"station_id":"ce4bh3h2rcd13ifvqdn0","pricing_plan_id":"free"},{"bike_id":"343d96de-a63b-4473-8632-4fadebd7a292","system_id":"levelo_inurba_marseille","lat":43.29107,"lon":5.399635,"is_reserved":false,"is_disabled":false,"rental_uris":{"android":"levelo://app?vid=343d96de-a63b-4473-8632-4fadebd7a292","ios":"levelo://app?vid=343d96de-a63b-4473-8632-4fadebd7a292"},"vehicle_type_id":"4","last_reported":1700514398,"current_range_meters":26800,"station_id":"","pricing_plan_id":"free"},{"bike_id":"9c2d02f0-ea7c-40f3-ba9c-5cbee0704b1f","system_id":"levelo_inurba_marseille","lat":43.282754,"lon":5.350519,"is_reserved":false,"is_disabled":false,"rental_uris":{"android":"levelo://app?vid=9c2d02f0-ea7c-40f3-ba9c-5cbee0704b1f","ios":"levelo://app?vid=9c2d02f0-ea7c-40f3-ba9c-5cbee0704b1f"},"vehicle_type_id":"4","last_reported":1700514398,"current_range_meters":13200,"station_id":"ce4bhbp2rcd13ifvqerg","pricing_plan_id":"free"},{"bike_id":"8406503f-bbbb-4c39-84de-cd21f5dbbff4","system_id":"levelo_inurba_marseille","lat":43.282754,"lon":5.350519,"is_reserved":false,"is_disabled":false,"rental_uris":{"android":"levelo://app?vid=8406503f-bbbb-4c39-84de-cd21f5dbbff4","ios":"levelo://app?vid=8406503f-bbbb-4c39-84de-cd21f5dbbff4"},"vehicle_type_id":"4","last_reported":1700514398,"current_range_meters":28400,"station_id":"ce4bhbp2rcd13ifvqerg","pricing_plan_id":"free"},{"bike_id":"e5625dab-e7e6-4c95-a889-3e65c36b7747","system_id":"levelo_inurba_marseille","lat":43.282754,"lon":5.350519,"is_reserved":false,"is_disabled":false,"rental_uris":{"android":"levelo://app?vid=e5625dab-e7e6-4c95-a889-3e65c36b7747","ios":"levelo://app?vid=e5625dab-e7e6-4c95-a889-3e65c36b7747"},"vehicle_type_id":"4","last_reported":1700514398,"current_range_meters":800,"station_id":"ce4bhbp2rcd13ifvqerg","pricing_plan_id":"free"},{"bike_id":"2f4d2a1f-2e75-44cc-abd2-ea2d4f049787","system_id":"levelo_inurba_marseille","lat":43.282754,"lon":5.350519,"is_reserved":false,"is_disabled":false,"rental_uris":{"android":"levelo://app?vid=2f4d2a1f-2e75-44cc-abd2-ea2d4f049787","ios":"levelo://app?vid=2f4d2a1f-2e75-44cc-abd2-ea2d4f049787"},"vehicle_type_id":"4","last_reported":1700514398,"current_range_meters":2400,"station_id":"ce4bhbp2rcd13ifvqerg","pricing_plan_id":"free"},{"bike_id":"0f3640a2-ad01-4760-9e09-ddd92fef4a58","system_id":"levelo_inurba_marseille","lat":43.282744,"lon":5.350533,"is_reserved":false,"is_disabled":false,"rental_uris":{"android":"levelo://app?vid=0f3640a2-ad01-4760-9e09-ddd92fef4a58","ios":"levelo://app?vid=0f3640a2-ad01-4760-9e09-ddd92fef4a58"},"vehicle_type_id":"4","last_reported":1700514398,"current_range_meters":31200,"station_id":"ce4bhbp2rcd13ifvqerg","pricing_plan_id":"free"},{"bike_id":"60781c61-9b2c-4fa1-b6f9-16b19af6c5fe","system_id":"levelo_inurba_marseille","lat":43.282744,"lon":5.350533,"is_reserved":false,"is_disabled":false,"rental_uris":{"android":"levelo://app?vid=60781c61-9b2c-4fa1-b6f9-16b19af6c5fe","ios":"levelo://app?vid=60781c61-9b2c-4fa1-b6f9-16b19af6c5fe"},"vehicle_type_id":"4","last_reported":1700514398,"current_range_meters":400,"station_id":"ce4bhbp2rcd13ifvqerg","pricing_plan_id":"free"},{"bike_id":"466a8a1e-53f8-4c9a-b6f2-17ee2f45acab","system_id":"levelo_inurba_marseille","lat":43.283502,"lon":5.386471,"is_reserved":false,"is_disabled":false,"rental_uris":{"android":"levelo://app?vid=466a8a1e-53f8-4c9a-b6f2-17ee2f45acab","ios":"levelo://app?vid=466a8a1e-53f8-4c9a-b6f2-17ee2f45acab"},"vehicle_type_id":"4","last_reported":1700514398,"current_range_meters":400,"station_id":"ce4bh492rcd13ifvqdvg","pricing_plan_id":"free"},{"bike_id":"083a72a4-c264-41ca-9cbc-b5a0b3c2f24b","system_id":"levelo_inurba_marseille","lat":43.282744,"lon":5.350533,"is_reserved":false,"is_disabled":false,"rental_uris":{"android":"levelo://app?vid=083a72a4-c264-41ca-9cbc-b5a0b3c2f24b","ios":"levelo://app?vid=083a72a4-c264-41ca-9cbc-b5a0b3c2f24b"},"vehicle_type_id":"4","last_reported":1700514398,"current_range_meters":16800,"station_id":"ce4bhbp2rcd13ifvqerg","pricing_plan_id":"free"},{"bike_id":"006cbaa3-0617-467d-8017-7cf5422431ec","system_id":"levelo_inurba_marseille","lat":43.283502,"lon":5.386471,"is_reserved":false,"is_disabled":false,"rental_uris":{"android":"levelo://app?vid=006cbaa3-0617-467d-8017-7cf5422431ec","ios":"levelo://app?vid=006cbaa3-0617-467d-8017-7cf5422431ec"},"vehicle_type_id":"4","last_reported":1700514398,"current_range_meters":4000,"station_id":"ce4bh492rcd13ifvqdvg","pricing_plan_id":"free"},{"bike_id":"bc52672a-372f-4789-bf00-c446a84efba6","system_id":"levelo_inurba_marseille","lat":43.28039,"lon":5.369297,"is_reserved":false,"is_disabled":false,"rental_uris":{"android":"levelo://app?vid=bc52672a-372f-4789-bf00-c446a84efba6","ios":"levelo://app?vid=bc52672a-372f-4789-bf00-c446a84efba6"},"vehicle_type_id":"4","last_reported":1700514398,"current_range_meters":5600,"station_id":"ce4bha12rcd13ifvqef0","pricing_plan_id":"free"},{"bike_id":"dd9c0ed6-2e9e-4937-8a71-5a5543051bf6","system_id":"levelo_inurba_marseille","lat":43.28039,"lon":5.369297,"is_reserved":false,"is_disabled":false,"rental_uris":{"android":"levelo://app?vid=dd9c0ed6-2e9e-4937-8a71-5a5543051bf6","ios":"levelo://app?vid=dd9c0ed6-2e9e-4937-8a71-5a5543051bf6"},"vehicle_type_id":"4","last_reported":1700514398,"current_range_meters":9600,"station_id":"ce4bha12rcd13ifvqef0","pricing_plan_id":"free"},{"bike_id":"6875e9d7-c282-41b7-9569-7ba666485be7","system_id":"levelo_inurba_marseille","lat":43.28039,"lon":5.369297,"is_reserved":false,"is_disabled":false,"rental_uris":{"android":"levelo://app?vid=6875e9d7-c282-41b7-9569-7ba666485be7","ios":"levelo://app?vid=6875e9d7-c282-41b7-9569-7ba666485be7"},"vehicle_type_id":"4","last_reported":1700514398,"current_range_meters":1200,"station_id":"ce4bha12rcd13ifvqef0","pricing_plan_id":"free"},{"bike_id":"d91a4321-33cb-4444-ae0a-360a0804a435","system_id":"levelo_inurba_marseille","lat":43.28039,"lon":5.369297,"is_reserved":false,"is_disabled":false,"rental_uris":{"android":"levelo://app?vid=d91a4321-33cb-4444-ae0a-360a0804a435","ios":"levelo://app?vid=d91a4321-33cb-4444-ae0a-360a0804a435"},"vehicle_type_id":"4","last_reported":1700514398,"current_range_meters":31600,"station_id":"ce4bha12rcd13ifvqef0","pricing_plan_id":"free"},{"bike_id":"2e6c79c0-6e68-4ac8-a76f-130ecfe2427c","system_id":"levelo_inurba_marseille","lat":43.28039,"lon":5.369297,"is_reserved":false,"is_disabled":false,"rental_uris":{"android":"levelo://app?vid=2e6c79c0-6e68-4ac8-a76f-130ecfe2427c","ios":"levelo://app?vid=2e6c79c0-6e68-4ac8-a76f-130ecfe2427c"},"vehicle_type_id":"4","last_reported":1700514398,"current_range_meters":18800,"station_id":"ce4bha12rcd13ifvqef0","pricing_plan_id":"free"},{"bike_id":"6038c483-9aa9-43b1-8d28-5e275f9f8e55","system_id":"levelo_inurba_marseille","lat":43.280382,"lon":5.369291,"is_reserved":false,"is_disabled":false,"rental_uris":{"android":"levelo://app?vid=6038c483-9aa9-43b1-8d28-5e275f9f8e55","ios":"levelo://app?vid=6038c483-9aa9-43b1-8d28-5e275f9f8e55"},"vehicle_type_id":"4","last_reported":1700514398,"current_range_meters":6400,"station_id":"ce4bha12rcd13ifvqef0","pricing_plan_id":"free"},{"bike_id":"127c02c0-cf3c-40df-b760-20fddc6726af","system_id":"levelo_inurba_marseille","lat":43.281044,"lon":5.378308,"is_reserved":false,"is_disabled":false,"rental_uris":{"android":"levelo://app?vid=127c02c0-cf3c-40df-b760-20fddc6726af","ios":"levelo://app?vid=127c02c0-cf3c-40df-b760-20fddc6726af"},"vehicle_type_id":"4","last_reported":1700514398,"current_range_meters":6800,"station_id":"ce4bha12rcd13ifvqee0","pricing_plan_id":"free"},{"bike_id":"51d574ed-331a-4499-84bc-206d2c4ded00","system_id":"levelo_inurba_marseille","lat":43.281044,"lon":5.378308,"is_reserved":false,"is_disabled":false,"rental_uris":{"android":"levelo://app?vid=51d574ed-331a-4499-84bc-206d2c4ded00","ios":"levelo://app?vid=51d574ed-331a-4499-84bc-206d2c4ded00"},"vehicle_type_id":"4","last_reported":1700514398,"current_range_meters":23600,"station_id":"ce4bha12rcd13ifvqee0","pricing_plan_id":"free"},{"bike_id":"bc156ed7-6757-466f-94b8-e18ad85148b1","system_id":"levelo_inurba_marseille","lat":43.284462,"lon":5.392121,"is_reserved":false,"is_disabled":false,"rental_uris":{"android":"levelo://app?vid=bc156ed7-6757-466f-94b8-e18ad85148b1","ios":"levelo://app?vid=bc156ed7-6757-466f-94b8-e18ad85148b1"},"vehicle_type_id":"4","last_reported":1700514398,"current_range_meters":17200,"station_id":"ce4bhoh2rcd13ifvqh5g","pricing_plan_id":"free"},{"bike_id":"d90e8fb8-bfc1-4422-99ee-31c57886d0cd","system_id":"levelo_inurba_marseille","lat":43.284462,"lon":5.392121,"is_reserved":false,"is_disabled":false,"rental_uris":{"android":"levelo://app?vid=d90e8fb8-bfc1-4422-99ee-31c57886d0cd","ios":"levelo://app?vid=d90e8fb8-bfc1-4422-99ee-31c57886d0cd"},"vehicle_type_id":"4","last_reported":1700514398,"current_range_meters":23200,"station_id":"ce4bhoh2rcd13ifvqh5g","pricing_plan_id":"free"},{"bike_id":"dcd2405c-bf1d-408b-a59e-ae8b07a380f9","system_id":"levelo_inurba_marseille","lat":43.34539,"lon":5.35447,"is_reserved":false,"is_disabled":false,"rental_uris":{"android":"levelo://app?vid=dcd2405c-bf1d-408b-a59e-ae8b07a380f9","ios":"levelo://app?vid=dcd2405c-bf1d-408b-a59e-ae8b07a380f9"},"vehicle_type_id":"4","last_reported":1700514398,"current_range_meters":24000,"station_id":"","pricing_plan_id":"free"},{"bike_id":"9cf37ee3-bb1f-441b-9e61-3cacdaf5fa5e","system_id":"levelo_inurba_marseille","lat":43.326605,"lon":5.409903,"is_reserved":false,"is_disabled":false,"rental_uris":{"android":"levelo://app?vid=9cf37ee3-bb1f-441b-9e61-3cacdaf5fa5e","ios":"levelo://app?vid=9cf37ee3-bb1f-441b-9e61-3cacdaf5fa5e"},"vehicle_type_id":"4","last_reported":1700514398,"current_range_meters":3200,"station_id":"ce4bhpp2rcd13ifvqhgg","pricing_plan_id":"free"},{"bike_id":"20bea938-6fbd-4452-8899-c9f2c364bd4d","system_id":"levelo_inurba_marseille","lat":43.326605,"lon":5.409903,"is_reserved":false,"is_disabled":false,"rental_uris":{"android":"levelo://app?vid=20bea938-6fbd-4452-8899-c9f2c364bd4d","ios":"levelo://app?vid=20bea938-6fbd-4452-8899-c9f2c364bd4d"},"vehicle_type_id":"4","last_reported":1700514398,"current_range_meters":24400,"station_id":"ce4bhpp2rcd13ifvqhgg","pricing_plan_id":"free"},{"bike_id":"5cc71858-168e-4f27-a50f-c2ad738ddeab","system_id":"levelo_inurba_marseille","lat":43.304188,"lon":5.412904,"is_reserved":false,"is_disabled":false,"rental_uris":{"android":"levelo://app?vid=5cc71858-168e-4f27-a50f-c2ad738ddeab","ios":"levelo://app?vid=5cc71858-168e-4f27-a50f-c2ad738ddeab"},"vehicle_type_id":"4","last_reported":1700514398,"current_range_meters":18800,"station_id":"ce4bhop2rcd13ifvqh8g","pricing_plan_id":"free"},{"bike_id":"24eca922-3587-47e4-a445-4cb426ad2b8b","system_id":"levelo_inurba_marseille","lat":43.304188,"lon":5.412904,"is_reserved":false,"is_disabled":false,"rental_uris":{"android":"levelo://app?vid=24eca922-3587-47e4-a445-4cb426ad2b8b","ios":"levelo://app?vid=24eca922-3587-47e4-a445-4cb426ad2b8b"},"vehicle_type_id":"4","last_reported":1700514398,"current_range_meters":24800,"station_id":"ce4bhop2rcd13ifvqh8g","pricing_plan_id":"free"},{"bike_id":"9246ff32-54f7-4c5e-8fc5-df00fd6d65b0","system_id":"levelo_inurba_marseille","lat":43.304188,"lon":5.412904,"is_reserved":false,"is_disabled":false,"rental_uris":{"android":"levelo://app?vid=9246ff32-54f7-4c5e-8fc5-df00fd6d65b0","ios":"levelo://app?vid=9246ff32-54f7-4c5e-8fc5-df00fd6d65b0"},"vehicle_type_id":"4","last_reported":1700514398,"current_range_meters":4400,"station_id":"ce4bhop2rcd13ifvqh8g","pricing_plan_id":"free"},{"bike_id":"1aa76ac8-ccaf-41d2-8fb5-033e7c180f10","system_id":"levelo_inurba_marseille","lat":43.304188,"lon":5.412904,"is_reserved":false,"is_disabled":false,"rental_uris":{"android":"levelo://app?vid=1aa76ac8-ccaf-41d2-8fb5-033e7c180f10","ios":"levelo://app?vid=1aa76ac8-ccaf-41d2-8fb5-033e7c180f10"},"vehicle_type_id":"4","last_reported":1700514398,"current_range_meters":2800,"station_id":"ce4bhop2rcd13ifvqh8g","pricing_plan_id":"free"},{"bike_id":"eb90a483-01c2-4c56-8768-f63f15300e17","system_id":"levelo_inurba_marseille","lat":43.287154,"lon":5.399979,"is_reserved":false,"is_disabled":false,"rental_uris":{"android":"levelo://app?vid=eb90a483-01c2-4c56-8768-f63f15300e17","ios":"levelo://app?vid=eb90a483-01c2-4c56-8768-f63f15300e17"},"vehicle_type_id":"4","last_reported":1700514398,"current_range_meters":6800,"station_id":"ce4bho92rcd13ifvqh3g","pricing_plan_id":"free"},{"bike_id":"aed55d11-f71f-4540-8ef4-22b36c7afa97","system_id":"levelo_inurba_marseille","lat":43.287154,"lon":5.399979,"is_reserved":false,"is_disabled":false,"rental_uris":{"android":"levelo://app?vid=aed55d11-f71f-4540-8ef4-22b36c7afa97","ios":"levelo://app?vid=aed55d11-f71f-4540-8ef4-22b36c7afa97"},"vehicle_type_id":"4","last_reported":1700514398,"current_range_meters":4400,"station_id":"ce4bho92rcd13ifvqh3g","pricing_plan_id":"free"},{"bike_id":"faf15495-928e-4838-ad24-213261475f84","system_id":"levelo_inurba_marseille","lat":43.34885,"lon":5.37509,"is_reserved":false,"is_disabled":false,"rental_uris":{"android":"levelo://app?vid=faf15495-928e-4838-ad24-213261475f84","ios":"levelo://app?vid=faf15495-928e-4838-ad24-213261475f84"},"vehicle_type_id":"4","last_reported":1700514398,"current_range_meters":13600,"station_id":"","pricing_plan_id":"free"},{"bike_id":"54d83bdb-854d-4ada-827b-6f0754351f02","system_id":"levelo_inurba_marseille","lat":43.27621,"lon":5.3612,"is_reserved":false,"is_disabled":false,"rental_uris":{"android":"levelo://app?vid=54d83bdb-854d-4ada-827b-6f0754351f02","ios":"levelo://app?vid=54d83bdb-854d-4ada-827b-6f0754351f02"},"vehicle_type_id":"4","last_reported":1700514398,"current_range_meters":29200,"station_id":"ce4bgj92rcd13ifvqbe0","pricing_plan_id":"free"},{"bike_id":"8314f350-fd2d-41a1-a64f-3c6aa08d6c1a","system_id":"levelo_inurba_marseille","lat":43.27621,"lon":5.36103,"is_reserved":false,"is_disabled":false,"rental_uris":{"android":"levelo://app?vid=8314f350-fd2d-41a1-a64f-3c6aa08d6c1a","ios":"levelo://app?vid=8314f350-fd2d-41a1-a64f-3c6aa08d6c1a"},"vehicle_type_id":"4","last_reported":1700514398,"current_range_meters":28000,"station_id":"ce4bgj92rcd13ifvqbe0","pricing_plan_id":"free"},{"bike_id":"f91eeb3c-69ad-4653-b479-bf02928f8fef","system_id":"levelo_inurba_marseille","lat":43.276179,"lon":5.361009,"is_reserved":false,"is_disabled":false,"rental_uris":{"android":"levelo://app?vid=f91eeb3c-69ad-4653-b479-bf02928f8fef","ios":"levelo://app?vid=f91eeb3c-69ad-4653-b479-bf02928f8fef"},"vehicle_type_id":"4","last_reported":1700514398,"current_range_meters":3200,"station_id":"ce4bgj92rcd13ifvqbe0","pricing_plan_id":"free"},{"bike_id":"1ec53fc5-b8e3-4edc-85bf-09f89af93265","system_id":"levelo_inurba_marseille","lat":43.276159,"lon":5.361199,"is_reserved":false,"is_disabled":false,"rental_uris":{"android":"levelo://app?vid=1ec53fc5-b8e3-4edc-85bf-09f89af93265","ios":"levelo://app?vid=1ec53fc5-b8e3-4edc-85bf-09f89af93265"},"vehicle_type_id":"4","last_reported":1700514398,"current_range_meters":14400,"station_id":"ce4bgj92rcd13ifvqbe0","pricing_plan_id":"free"},{"bike_id":"664dd67f-5692-428a-87dd-097c33c2959d","system_id":"levelo_inurba_marseille","lat":43.27615,"lon":5.36117,"is_reserved":false,"is_disabled":false,"rental_uris":{"android":"levelo://app?vid=664dd67f-5692-428a-87dd-097c33c2959d","ios":"levelo://app?vid=664dd67f-5692-428a-87dd-097c33c2959d"},"vehicle_type_id":"4","last_reported":1700514398,"current_range_meters":26400,"station_id":"ce4bgj92rcd13ifvqbe0","pricing_plan_id":"free"},{"bike_id":"4f1a6b35-6778-477c-bad5-109b7f667c51","system_id":"levelo_inurba_marseille","lat":43.276179,"lon":5.361009,"is_reserved":false,"is_disabled":false,"rental_uris":{"android":"levelo://app?vid=4f1a6b35-6778-477c-bad5-109b7f667c51","ios":"levelo://app?vid=4f1a6b35-6778-477c-bad5-109b7f667c51"},"vehicle_type_id":"4","last_reported":1700514398,"current_range_meters":18400,"station_id":"ce4bgj92rcd13ifvqbe0","pricing_plan_id":"free"},{"bike_id":"5d9e0f61-3ef2-46bf-80cd-8b1cc5acf214","system_id":"levelo_inurba_marseille","lat":43.27612,"lon":5.36114,"is_reserved":false,"is_disabled":false,"rental_uris":{"android":"levelo://app?vid=5d9e0f61-3ef2-46bf-80cd-8b1cc5acf214","ios":"levelo://app?vid=5d9e0f61-3ef2-46bf-80cd-8b1cc5acf214"},"vehicle_type_id":"4","last_reported":1700514398,"current_range_meters":30400,"station_id":"ce4bgj92rcd13ifvqbe0","pricing_plan_id":"free"},{"bike_id":"18ce2666-79bd-47fe-a6be-b07ac06673c9","system_id":"levelo_inurba_marseille","lat":43.280784,"lon":5.396622,"is_reserved":false,"is_disabled":false,"rental_uris":{"android":"levelo://app?vid=18ce2666-79bd-47fe-a6be-b07ac06673c9","ios":"levelo://app?vid=18ce2666-79bd-47fe-a6be-b07ac06673c9"},"vehicle_type_id":"4","last_reported":1700514398,"current_range_meters":24400,"station_id":"ce4bho12rcd13ifvqh2g","pricing_plan_id":"free"},{"bike_id":"609c742b-3d42-4b23-8ea7-24ef3c4e3d3b","system_id":"levelo_inurba_marseille","lat":43.280784,"lon":5.396622,"is_reserved":false,"is_disabled":false,"rental_uris":{"android":"levelo://app?vid=609c742b-3d42-4b23-8ea7-24ef3c4e3d3b","ios":"levelo://app?vid=609c742b-3d42-4b23-8ea7-24ef3c4e3d3b"},"vehicle_type_id":"4","last_reported":1700514398,"current_range_meters":22400,"station_id":"ce4bho12rcd13ifvqh2g","pricing_plan_id":"free"},{"bike_id":"dac3841c-dd28-4b80-86a7-2f7676001767","system_id":"levelo_inurba_marseille","lat":43.27829,"lon":5.392,"is_reserved":false,"is_disabled":false,"rental_uris":{"android":"levelo://app?vid=dac3841c-dd28-4b80-86a7-2f7676001767","ios":"levelo://app?vid=dac3841c-dd28-4b80-86a7-2f7676001767"},"vehicle_type_id":"4","last_reported":1700514398,"current_range_meters":0,"station_id":"ce4bhjp2rcd13ifvqga0","pricing_plan_id":"free"},{"bike_id":"14491e89-76d4-4f00-805c-e48bf0203f90","system_id":"levelo_inurba_marseille","lat":43.273815,"lon":5.36257,"is_reserved":false,"is_disabled":false,"rental_uris":{"android":"levelo://app?vid=14491e89-76d4-4f00-805c-e48bf0203f90","ios":"levelo://app?vid=14491e89-76d4-4f00-805c-e48bf0203f90"},"vehicle_type_id":"4","last_reported":1700514398,"current_range_meters":24400,"station_id":"ce4bhbh2rcd13ifvqeo0","pricing_plan_id":"free"},{"bike_id":"97dee833-de7a-41dd-9fbe-0fa078f4e7a5","system_id":"levelo_inurba_marseille","lat":43.275625,"lon":5.384392,"is_reserved":false,"is_disabled":false,"rental_uris":{"android":"levelo://app?vid=97dee833-de7a-41dd-9fbe-0fa078f4e7a5","ios":"levelo://app?vid=97dee833-de7a-41dd-9fbe-0fa078f4e7a5"},"vehicle_type_id":"4","last_reported":1700514398,"current_range_meters":12400,"station_id":"ce4bhh92rcd13ifvqfi0","pricing_plan_id":"free"},{"bike_id":"e47b59b4-3672-4e36-b669-05e0632d09e4","system_id":"levelo_inurba_marseille","lat":43.275625,"lon":5.384392,"is_reserved":false,"is_disabled":false,"rental_uris":{"android":"levelo://app?vid=e47b59b4-3672-4e36-b669-05e0632d09e4","ios":"levelo://app?vid=e47b59b4-3672-4e36-b669-05e0632d09e4"},"vehicle_type_id":"4","last_reported":1700514398,"current_range_meters":14400,"station_id":"ce4bhh92rcd13ifvqfi0","pricing_plan_id":"free"},{"bike_id":"6d985181-6d41-4cfb-9663-379346399c44","system_id":"levelo_inurba_marseille","lat":43.336,"lon":5.41035,"is_reserved":false,"is_disabled":false,"rental_uris":{"android":"levelo://app?vid=6d985181-6d41-4cfb-9663-379346399c44","ios":"levelo://app?vid=6d985181-6d41-4cfb-9663-379346399c44"},"vehicle_type_id":"4","last_reported":1700514398,"current_range_meters":0,"station_id":"ce4bhqh2rcd13ifvqhmg","pricing_plan_id":"free"},{"bike_id":"77599db5-a99b-48f9-aac9-50019461eee1","system_id":"levelo_inurba_marseille","lat":43.33612,"lon":5.410321,"is_reserved":false,"is_disabled":false,"rental_uris":{"android":"levelo://app?vid=77599db5-a99b-48f9-aac9-50019461eee1","ios":"levelo://app?vid=77599db5-a99b-48f9-aac9-50019461eee1"},"vehicle_type_id":"4","last_reported":1700514398,"current_range_meters":6000,"station_id":"ce4bhqh2rcd13ifvqhmg","pricing_plan_id":"free"},{"bike_id":"a462ad5e-bea9-41c4-ab74-c8f536700599","system_id":"levelo_inurba_marseille","lat":43.279952,"lon":5.400085,"is_reserved":false,"is_disabled":false,"rental_uris":{"android":"levelo://app?vid=a462ad5e-bea9-41c4-ab74-c8f536700599","ios":"levelo://app?vid=a462ad5e-bea9-41c4-ab74-c8f536700599"},"vehicle_type_id":"4","last_reported":1700514398,"current_range_meters":31200,"station_id":"ce4bho92rcd13ifvqh4g","pricing_plan_id":"free"},{"bike_id":"879c9f55-adb4-41eb-93d5-282bdbd63bbf","system_id":"levelo_inurba_marseille","lat":43.27996,"lon":5.40013,"is_reserved":false,"is_disabled":false,"rental_uris":{"android":"levelo://app?vid=879c9f55-adb4-41eb-93d5-282bdbd63bbf","ios":"levelo://app?vid=879c9f55-adb4-41eb-93d5-282bdbd63bbf"},"vehicle_type_id":"4","last_reported":1700514398,"current_range_meters":14000,"station_id":"ce4bho92rcd13ifvqh4g","pricing_plan_id":"free"},{"bike_id":"44b9ec8e-55ba-47c6-bf2c-695b15f8f4c5","system_id":"levelo_inurba_marseille","lat":43.340804,"lon":5.410219,"is_reserved":false,"is_disabled":false,"rental_uris":{"android":"levelo://app?vid=44b9ec8e-55ba-47c6-bf2c-695b15f8f4c5","ios":"levelo://app?vid=44b9ec8e-55ba-47c6-bf2c-695b15f8f4c5"},"vehicle_type_id":"4","last_reported":1700514398,"current_range_meters":26400,"station_id":"ce4bhqh2rcd13ifvqhlg","pricing_plan_id":"free"},{"bike_id":"62795268-6228-4ab9-a2a1-d237ecb5526e","system_id":"levelo_inurba_marseille","lat":43.325193,"lon":5.424333,"is_reserved":false,"is_disabled":false,"rental_uris":{"android":"levelo://app?vid=62795268-6228-4ab9-a2a1-d237ecb5526e","ios":"levelo://app?vid=62795268-6228-4ab9-a2a1-d237ecb5526e"},"vehicle_type_id":"4","last_reported":1700514398,"current_range_meters":23600,"station_id":"","pricing_plan_id":"free"},