{"last_updated":1704391721,"ttl":30,"version":"2.2","data":{"bikes":[{"bike_id":"8705fa3a-96ba-4889-8a06-b2bf5a6059ab","system_id":"levelo_inurba_marseille","lat":43.309076,"lon":5.368465,"is_reserved":false,"is_disabled":false,"rental_uris":{"android":"levelo://app?vid=8705fa3a-96ba-4889-8a06-b2bf5a6059ab","ios":"levelo://app?vid=8705fa3a-96ba-4889-8a06-b2bf5a6059ab"},"vehicle_type_id":"4","last_reported":1704391721,"current_range_meters":20400,"station_id":"ce4bgn92rcd13ifvqbvg","pricing_plan_id":"free"},{"bike_id":"dd743dd8-10c3-418c-8147-b62cd4b40aed","system_id":"levelo_inurba_marseille","lat":43.314811,"lon":5.373103,"is_reserved":false,"is_disabled":false,"rental_uris":{"android":"levelo://app?vid=dd743dd8-10c3-418c-8147-b62cd4b40aed","ios":"levelo://app?vid=dd743dd8-10c3-418c-8147-b62cd4b40aed"},"vehicle_type_id":"4","last_reported":1704391721,"current_range_meters":3600,"station_id":"ce4bgt12rcd13ifvqcd0","pricing_plan_id":"free"},{"bike_id":"c6c88490-335d-4f41-965d-360fa1648c99","system_id":"levelo_inurba_marseille","lat":43.309039,"lon":5.371797,"is_reserved":false,"is_disabled":false,"rental_uris":{"android":"levelo://app?vid=c6c88490-335d-4f41-965d-360fa1648c99","ios":"levelo://app?vid=c6c88490-335d-4f41-965d-360fa1648c99"},"vehicle_type_id":"4","last_reported":1704391721,"current_range_meters":23600,"station_id":"ce4bguh2rcd13ifvqckg","pricing_plan_id":"free"},{"bike_id":"9a9f8991-4965-40c9-9feb-8fc756052ad1","system_id":"levelo_inurba_marseille","lat":43.305712,"lon":5.365641,"is_reserved":false,"is_disabled":false,"rental_uris":{"android":"levelo://app?vid=9a9f8991-4965-40c9-9feb-8fc756052ad1","ios":"levelo://app?vid=9a9f8991-4965-40c9-9feb-8fc756052ad1"},"vehicle_type_id":"4","last_reported":1704391721,"current_range_meters":0,"station_id":"ce4bgs12rcd13ifvqcag","pricing_plan_id":"free"},{"bike_id":"4573ad02-fe87-446b-a714-a0405b396b0f","system_id":"levelo_inurba_marseille","lat":43.30597,"lon":5.37211,"is_reserved":false,"is_disabled":false,"rental_uris":{"android":"levelo://app?vid=4573ad02-fe87-446b-a714-a0405b396b0f","ios":"levelo://app?vid=4573ad02-fe87-446b-a714-a0405b396b0f"},"vehicle_type_id":"4","last_reported":1704391721,"current_range_meters":0,"station_id":"ce4bgqh2rcd13ifvqc4g","pricing_plan_id":"free"},{"bike_id":"1f52a3d6-cc25-40c9-a1da-893406cbaaa3","system_id":"levelo_inurba_marseille","lat":43.305989,"lon":5.37225,"is_reserved":false,"is_disabled":false,"rental_uris":{"android":"levelo://app?vid=1f52a3d6-cc25-40c9-a1da-893406cbaaa3","ios":"levelo://app?vid=1f52a3d6-cc25-40c9-a1da-893406cbaaa3"},"vehicle_type_id":"4","last_reported":1704391721,"current_range_meters":4000,"station_id":"ce4bgqh2rcd13ifvqc4g","pricing_plan_id":"free"},{"bike_id":"e8a28857-b2c3-4c1c-8bff-d212555fe503","system_id":"levelo_inurba_marseille","lat":43.305989,"lon":5.37225,"is_reserved":false,"is_disabled":false,"rental_uris":{"android":"levelo://app?vid=e8a28857-b2c3-4c1c-8bff-d212555fe503","ios":"levelo://app?vid=e8a28857-b2c3-4c1c-8bff-d212555fe503"},"vehicle_type_id":"4","last_reported":1704391721,"current_range_meters":16400,"station_id":"ce4bgqh2rcd13ifvqc4g","pricing_plan_id":"free"},{"bike_id":"8f20fd1d-4b5f-4b10-8a6e-fe021223b97b","system_id":"levelo_inurba_marseille","lat":43.30832,"lon":5.376555,"is_reserved":false,"is_disabled":false,"rental_uris":{"android":"levelo://app?vid=8f20fd1d-4b5f-4b10-8a6e-fe021223b97b","ios":"levelo://app?vid=8f20fd1d-4b5f-4b10-8a6e-fe021223b97b"},"vehicle_type_id":"4","last_reported":1704391721,"current_range_meters":8400,"station_id":"ce4bgv92rcd13ifvqcq0","pricing_plan_id":"free"},{"bike_id":"bd8a537e-f0eb-4604-afb3-41b8c67e0276","system_id":"levelo_inurba_marseille","lat":43.307945,"lon":5.376487,"is_reserved":false,"is_disabled":false,"rental_uris":{"android":"levelo://app?vid=bd8a537e-f0eb-4604-afb3-41b8c67e0276","ios":"levelo://app?vid=bd8a537e-f0eb-4604-afb3-41b8c67e0276"},"vehicle_type_id":"4","last_reported":1704391721,"current_range_meters":10000,"station_id":"ce4bgv92rcd13ifvqcq0","pricing_plan_id":"free"},{"bike_id":"c4e90871-bb94-4085-82dc-ccbd997a22ca","system_id":"levelo_inurba_marseille","lat":43.31522,"lon":5.37905,"is_reserved":false,"is_disabled":false,"rental_uris":{"android":"levelo://app?vid=c4e90871-bb94-4085-82dc-ccbd997a22ca","ios":"levelo://app?vid=c4e90871-bb94-4085-82dc-ccbd997a22ca"},"vehicle_type_id":"4","last_reported":1704391721,"current_range_meters":18000,"station_id":"","pricing_plan_id":"free"},{"bike_id":"586af30b-2f46-4613-bb12-ee873d3a26c9","system_id":"levelo_inurba_marseille","lat":43.303046,"lon":5.368981,"is_reserved":false,"is_disabled":false,"rental_uris":{"android":"levelo://app?vid=586af30b-2f46-4613-bb12-ee873d3a26c9","ios":"levelo://app?vid=586af30b-2f46-4613-bb12-ee873d3a26c9"},"vehicle_type_id":"4","last_reported":1704391721,"current_range_meters":15600,"station_id":"ce4bgqh2rcd13ifvqc5g","pricing_plan_id":"free"},{"bike_id":"0e47b7ef-2eb6-44e5-97aa-42a8841a59ad","system_id":"levelo_inurba_marseille","lat":43.303046,"lon":5.368981,"is_reserved":false,"is_disabled":false,"rental_uris":{"android":"levelo://app?vid=0e47b7ef-2eb6-44e5-97aa-42a8841a59ad","ios":"levelo://app?vid=0e47b7ef-2eb6-44e5-97aa-42a8841a59ad"},"vehicle_type_id":"4","last_reported":1704391721,"current_range_meters":12800,"station_id":"ce4bgqh2rcd13ifvqc5g","pricing_plan_id":"free"},{"bike_id":"b2f736b9-5add-4644-b351-74e3e3aa3500","system_id":"levelo_inurba_marseille","lat":43.31532,"lon":5.38032,"is_reserved":false,"is_disabled":false,"rental_uris":{"android":"levelo://app?vid=b2f736b9-5add-4644-b351-74e3e3aa3500","ios":"levelo://app?vid=b2f736b9-5add-4644-b351-74e3e3aa3500"},"vehicle_type_id":"4","last_reported":1704391721,"current_range_meters":22400,"station_id":"ce4bhsp2rcd13ifvqi50","pricing_plan_id":"free"},{"bike_id":"275c26d3-ae78-4dfd-8ae5-9ea38bca16b8","system_id":"levelo_inurba_marseille","lat":43.313703,"lon":5.383163,"is_reserved":false,"is_disabled":false,"rental_uris":{"android":"levelo://app?vid=275c26d3-ae78-4dfd-8ae5-9ea38bca16b8","ios":"levelo://app?vid=275c26d3-ae78-4dfd-8ae5-9ea38bca16b8"},"vehicle_type_id":"4","last_reported":1704391721,"current_range_meters":0,"station_id":"","pricing_plan_id":"free"},{"bike_id":"b12bd209-944c-49aa-93ac-fb30caf41ef0","system_id":"levelo_inurba_marseille","lat":43.304606,"lon":5.379026,"is_reserved":false,"is_disabled":false,"rental_uris":{"android":"levelo://app?vid=b12bd209-944c-49aa-93ac-fb30caf41ef0","ios":"levelo://app?vid=b12bd209-944c-49aa-93ac-fb30caf41ef0"},"vehicle_type_id":"4","last_reported":1704391721,"current_range_meters":18400,"station_id":"ce4bgup2rcd13ifvqcn0","pricing_plan_id":"free"},{"bike_id":"d9e7b2c9-3fe5-4642-84bc-fbb3e5d6faec","system_id":"levelo_inurba_marseille","lat":43.324771,"lon":5.36557,"is_reserved":false,"is_disabled":false,"rental_uris":{"android":"levelo://app?vid=d9e7b2c9-3fe5-4642-84bc-fbb3e5d6faec","ios":"levelo://app?vid=d9e7b2c9-3fe5-4642-84bc-fbb3e5d6faec"},"vehicle_type_id":"4","last_reported":1704391721,"current_range_meters":20000,"station_id":"ce4bhs12rcd13ifvqhvg","pricing_plan_id":"free"},{"bike_id":"f1339662-51db-4ceb-9d62-c7891632b9a2","system_id":"levelo_inurba_marseille","lat":43.319935,"lon":5.381699,"is_reserved":false,"is_disabled":false,"rental_uris":{"android":"levelo://app?vid=f1339662-51db-4ceb-9d62-c7891632b9a2","ios":"levelo://app?vid=f1339662-51db-4ceb-9d62-c7891632b9a2"},"vehicle_type_id":"4","last_reported":1704391721,"current_range_meters":29600,"station_id":"ce4bhr12rcd13ifvqhpg","pricing_plan_id":"free"},{"bike_id":"da30e74c-8a6c-4ab1-bef5-64502b327f86","system_id":"levelo_inurba_marseille","lat":43.319935,"lon":5.381699,"is_reserved":false,"is_disabled":false,"rental_uris":{"android":"levelo://app?vid=da30e74c-8a6c-4ab1-bef5-64502b327f86","ios":"levelo://app?vid=da30e74c-8a6c-4ab1-bef5-64502b327f86"},"vehicle_type_id":"4","last_reported":1704391721,"current_range_meters":19600,"station_id":"ce4bhr12rcd13ifvqhpg","pricing_plan_id":"free"},{"bike_id":"f1da3a94-215d-4501-8200-3cdba5d93b71","system_id":"levelo_inurba_marseille","lat":43.319935,"lon":5.381699,"is_reserved":false,"is_disabled":false,"rental_uris":{"android":"levelo://app?vid=f1da3a94-215d-4501-8200-3cdba5d93b71","ios":"levelo://app?vid=f1da3a94-215d-4501-8200-3cdba5d93b71"},"vehicle_type_id":"4","last_reported":1704391721,"current_range_meters":26400,"station_id":"ce4bhr12rcd13ifvqhpg","pricing_plan_id":"free"},{"bike_id":"d7dea04c-b16e-44ab-89dd-805311b9280c","system_id":"levelo_inurba_marseille","lat":43.319935,"lon":5.381699,"is_reserved":false,"is_disabled":false,"rental_uris":{"android":"levelo://app?vid=d7dea04c-b16e-44ab-89dd-805311b9280c","ios":"levelo://app?vid=d7dea04c-b16e-44ab-89dd-805311b9280c"},"vehicle_type_id":"4","last_reported":1704391721,"current_range_meters":29200,"station_id":"ce4bhr12rcd13ifvqhpg","pricing_plan_id":"free"},{"bike_id":"b3d3abe7-9e5d-46b7-b9a3-1a7e1ce4f608","system_id":"levelo_inurba_marseille","lat":43.31362,"lon":5.3849,"is_reserved":false,"is_disabled":false,"rental_uris":{"android":"levelo://app?vid=b3d3abe7-9e5d-46b7-b9a3-1a7e1ce4f608","ios":"levelo://app?vid=b3d3abe7-9e5d-46b7-b9a3-1a7e1ce4f608"},"vehicle_type_id":"4","last_reported":1704391721,"current_range_meters":12000,"station_id":"ce4bgt92rcd13ifvqcf0","pricing_plan_id":"free"},{"bike_id":"9ecf890e-a492-4a70-83d3-b2f16083e93e","system_id":"levelo_inurba_marseille","lat":43.313571,"lon":5.384829,"is_reserved":false,"is_disabled":false,"rental_uris":{"android":"levelo://app?vid=9ecf890e-a492-4a70-83d3-b2f16083e93e","ios":"levelo://app?vid=9ecf890e-a492-4a70-83d3-b2f16083e93e"},"vehicle_type_id":"4","last_reported":1704391721,"current_range_meters":14400,"station_id":"ce4bgt92rcd13ifvqcf0","pricing_plan_id":"free"},{"bike_id":"17504bde-947a-4cd6-98b3-9a4c66aca99b","system_id":"levelo_inurba_marseille","lat":43.313827,"lon":5.385007,"is_reserved":false,"is_disabled":false,"rental_uris":{"android":"levelo://app?vid=17504bde-947a-4cd6-98b3-9a4c66aca99b","ios":"levelo://app?vid=17504bde-947a-4cd6-98b3-9a4c66aca99b"},"vehicle_type_id":"4","last_reported":1704391721,"current_range_meters":12400,"station_id":"ce4bgt92rcd13ifvqcf0","pricing_plan_id":"free"},{"bike_id":"ef6aa804-79f3-4f8a-aa93-904f0117c587","system_id":"levelo_inurba_marseille","lat":43.31373,"lon":5.38502,"is_reserved":false,"is_disabled":false,"rental_uris":{"android":"levelo://app?vid=ef6aa804-79f3-4f8a-aa93-904f0117c587","ios":"levelo://app?vid=ef6aa804-79f3-4f8a-aa93-904f0117c587"},"vehicle_type_id":"4","last_reported":1704391721,"current_range_meters":0,"station_id":"ce4bgt92rcd13ifvqcf0","pricing_plan_id":"free"},{"bike_id":"d56e270f-228f-44e5-876d-08b8af5db701","system_id":"levelo_inurba_marseille","lat":43.299724,"lon":5.371829,"is_reserved":false,"is_disabled":false,"rental_uris":{"android":"levelo://app?vid=d56e270f-228f-44e5-876d-08b8af5db701","ios":"levelo://app?vid=d56e270f-228f-44e5-876d-08b8af5db701"},"vehicle_type_id":"4","last_reported":1704391721,"current_range_meters":16000,"station_id":"ce4bgr92rcd13ifvqc7g","pricing_plan_id":"free"},{"bike_id":"b22604ec-0c4b-41b4-a20e-38add68f7682","system_id":"levelo_inurba_marseille","lat":43.32567,"lon":5.374788,"is_reserved":false,"is_disabled":false,"rental_uris":{"android":"levelo://app?vid=b22604ec-0c4b-41b4-a20e-38add68f7682","ios":"levelo://app?vid=b22604ec-0c4b-41b4-a20e-38add68f7682"},"vehicle_type_id":"4","last_reported":1704391721,"current_range_meters":22000,"station_id":"","pricing_plan_id":"free"},{"bike_id":"db98d7e5-a9b6-4e39-a0e4-90cf5065276d","system_id":"levelo_inurba_marseille","lat":43.311722,"lon":5.387247,"is_reserved":false,"is_disabled":false,"rental_uris":{"android":"levelo://app?vid=db98d7e5-a9b6-4e39-a0e4-90cf5065276d","ios":"levelo://app?vid=db98d7e5-a9b6-4e39-a0e4-90cf5065276d"},"vehicle_type_id":"4","last_reported":1704391721,"current_range_meters":0,"station_id":"ce4bgv12rcd13ifvqcp0","pricing_plan_id":"free"},{"bike_id":"41427138-dfb3-4ecb-90d4-69847c6ffe9d","system_id":"levelo_inurba_marseille","lat":43.298433,"lon":5.362774,"is_reserved":false,"is_disabled":false,"rental_uris":{"android":"levelo://app?vid=41427138-dfb3-4ecb-90d4-69847c6ffe9d","ios":"levelo://app?vid=41427138-dfb3-4ecb-90d4-69847c6ffe9d"},"vehicle_type_id":"4","last_reported":1704391721,"current_range_meters":12400,"station_id":"ce4bgpp2rcd13ifvqc3g","pricing_plan_id":"free"},{"bike_id":"483f6fa2-2de2-4f49-9b86-4157edd6bcb4","system_id":"levelo_inurba_marseille","lat":43.30531,"lon":5.38427,"is_reserved":false,"is_disabled":false,"rental_uris":{"android":"levelo://app?vid=483f6fa2-2de2-4f49-9b86-4157edd6bcb4","ios":"levelo://app?vid=483f6fa2-2de2-4f49-9b86-4157edd6bcb4"},"vehicle_type_id":"4","last_reported":1704391721,"current_range_meters":9600,"station_id":"ce4bgg92rcd13ifvqb30","pricing_plan_id":"free"},{"bike_id":"0f921057-caaa-4cd5-8a13-09f6a6b8cae2","system_id":"levelo_inurba_marseille","lat":43.299243,"lon":5.37481,"is_reserved":false,"is_disabled":false,"rental_uris":{"android":"levelo://app?vid=0f921057-caaa-4cd5-8a13-09f6a6b8cae2","ios":"levelo://app?vid=0f921057-caaa-4cd5-8a13-09f6a6b8cae2"},"vehicle_type_id":"4","last_reported":1704391721,"current_range_meters":0,"station_id":"ce4bgjh2rcd13ifvqbg0","pricing_plan_id":"free"},{"bike_id":"2e94132b-3399-47de-b543-8ffe278c3905","system_id":"levelo_inurba_marseille","lat":43.299243,"lon":5.37481,"is_reserved":false,"is_disabled":false,"rental_uris":{"android":"levelo://app?vid=2e94132b-3399-47de-b543-8ffe278c3905","ios":"levelo://app?vid=2e94132b-3399-47de-b543-8ffe278c3905"},"vehicle_type_id":"4","last_reported":1704391721,"current_range_meters":7200,"station_id":"ce4bgjh2rcd13ifvqbg0","pricing_plan_id":"free"},{"bike_id":"f53e7a9d-7ee6-4428-85bd-3db5d7cc3975","system_id":"levelo_inurba_marseille","lat":43.322872,"lon":5.382756,"is_reserved":false,"is_disabled":false,"rental_uris":{"android":"levelo://app?vid=f53e7a9d-7ee6-4428-85bd-3db5d7cc3975","ios":"levelo://app?vid=f53e7a9d-7ee6-4428-85bd-3db5d7cc3975"},"vehicle_type_id":"4","last_reported":1704391721,"current_range_meters":31200,"station_id":"ce4bhr12rcd13ifvqhqg","pricing_plan_id":"free"},{"bike_id":"7e69bdeb-fe69-4483-8ee7-88c81ad264d9","system_id":"levelo_inurba_marseille","lat":43.322872,"lon":5.382756,"is_reserved":false,"is_disabled":false,"rental_uris":{"android":"levelo://app?vid=7e69bdeb-fe69-4483-8ee7-88c81ad264d9","ios":"levelo://app?vid=7e69bdeb-fe69-4483-8ee7-88c81ad264d9"},"vehicle_type_id":"4","last_reported":1704391721,"current_range_meters":27600,"station_id":"ce4bhr12rcd13ifvqhqg","pricing_plan_id":"free"},{"bike_id":"816b32cd-6220-4782-ad84-c5c9465a5264","system_id":"levelo_inurba_marseille","lat":43.29777,"lon":5.37234,"is_reserved":false,"is_disabled":false,"rental_uris":{"android":"levelo://app?vid=816b32cd-6220-4782-ad84-c5c9465a5264","ios":"levelo://app?vid=816b32cd-6220-4782-ad84-c5c9465a5264"},"vehicle_type_id":"4","last_reported":1704391721,"current_range_meters":800,"station_id":"ce4bgn12rcd13ifvqbt0","pricing_plan_id":"free"},{"bike_id":"1bb80286-6712-4d1f-985b-6846055ae321","system_id":"levelo_inurba_marseille","lat":43.328371,"lon":5.366909,"is_reserved":false,"is_disabled":false,"rental_uris":{"android":"levelo://app?vid=1bb80286-6712-4d1f-985b-6846055ae321","ios":"levelo://app?vid=1bb80286-6712-4d1f-985b-6846055ae321"},"vehicle_type_id":"4","last_reported":1704391721,"current_range_meters":400,"station_id":"ce4bhs92rcd13ifvqi0g","pricing_plan_id":"free"},{"bike_id":"40547a36-645f-4cc6-8bf9-232a8ea96bf6","system_id":"levelo_inurba_marseille","lat":43.328371,"lon":5.366909,"is_reserved":false,"is_disabled":false,"rental_uris":{"android":"levelo://app?vid=40547a36-645f-4cc6-8bf9-232a8ea96bf6","ios":"levelo://app?vid=40547a36-645f-4cc6-8bf9-232a8ea96bf6"},"vehicle_type_id":"4","last_reported":1704391721,"current_range_meters":8800,"station_id":"ce4bhs92rcd13ifvqi0g","pricing_plan_id":"free"},{"bike_id":"95e60a05-c3f6-42d6-b8d8-8e09a3364abf","system_id":"levelo_inurba_marseille","lat":43.328371,"lon":5.366909,"is_reserved":false,"is_disabled":false,"rental_uris":{"android":"levelo://app?vid=95e60a05-c3f6-42d6-b8d8-8e09a3364abf","ios":"levelo://app?vid=95e60a05-c3f6-42d6-b8d8-8e09a3364abf"},"vehicle_type_id":"4","last_reported":1704391721,"current_range_meters":12400,"station_id":"ce4bhs92rcd13ifvqi0g","pricing_plan_id":"free"},{"bike_id":"53ddec21-813d-487a-90c5-75b0ffb959af","system_id":"levelo_inurba_marseille","lat":43.328371,"lon":5.366909,"is_reserved":false,"is_disabled":false,"rental_uris":{"android":"levelo://app?vid=53ddec21-813d-487a-90c5-75b0ffb959af","ios":"levelo://app?vid=53ddec21-813d-487a-90c5-75b0ffb959af"},"vehicle_type_id":"4","last_reported":1704391721,"current_range_meters":26800,"station_id":"ce4bhs92rcd13ifvqi0g","pricing_plan_id":"free"},{"bike_id":"4d6cbba3-2e55-4f7b-870f-2fed43f3ec1c","system_id":"levelo_inurba_marseille","lat":43.328359,"lon":5.366927,"is_reserved":false,"is_disabled":false,"rental_uris":{"android":"levelo://app?vid=4d6cbba3-2e55-4f7b-870f-2fed43f3ec1c","ios":"levelo://app?vid=4d6cbba3-2e55-4f7b-870f-2fed43f3ec1c"},"vehicle_type_id":"4","last_reported":1704391721,"current_range_meters":15200,"station_id":"ce4bhs92rcd13ifvqi0g","pricing_plan_id":"free"},{"bike_id":"a6953f89-b867-47c2-a99f-949ca50d8a77","system_id":"levelo_inurba_marseille","lat":43.328371,"lon":5.366909,"is_reserved":false,"is_disabled":false,"rental_uris":{"android":"levelo://app?vid=a6953f89-b867-47c2-a99f-949ca50d8a77","ios":"levelo://app?vid=a6953f89-b867-47c2-a99f-949ca50d8a77"},"vehicle_type_id":"4","last_reported":1704391721,"current_range_meters":16400,"station_id":"ce4bhs92rcd13ifvqi0g","pricing_plan_id":"free"},{"bike_id":"f5ea3807-e68f-4271-ac0f-f937744bc55a","system_id":"levelo_inurba_marseille","lat":43.297163,"lon":5.365866,"is_reserved":false,"is_disabled":false,"rental_uris":{"android":"levelo://app?vid=f5ea3807-e68f-4271-ac0f-f937744bc55a","ios":"levelo://app?vid=f5ea3807-e68f-4271-ac0f-f937744bc55a"},"vehicle_type_id":"4","last_reported":1704391721,"current_range_meters":2800,"station_id":"ce4bgn12rcd13ifvqbt0","pricing_plan_id":"free"},{"bike_id":"370cccf7-c9ba-46c2-819b-c8e8cacc4c21","system_id":"levelo_inurba_marseille","lat":43.3277,"lon":5.37458,"is_reserved":false,"is_disabled":false,"rental_uris":{"android":"levelo://app?vid=370cccf7-c9ba-46c2-819b-c8e8cacc4c21","ios":"levelo://app?vid=370cccf7-c9ba-46c2-819b-c8e8cacc4c21"},"vehicle_type_id":"4","last_reported":1704391721,"current_range_meters":400,"station_id":"","pricing_plan_id":"free"},{"bike_id":"d3661675-ef34-4363-8f5c-3f830c1dd761","system_id":"levelo_inurba_marseille","lat":43.296126,"lon":5.367856,"is_reserved":false,"is_disabled":false,"rental_uris":{"android":"levelo://app?vid=d3661675-ef34-4363-8f5c-3f830c1dd761","ios":"levelo://app?vid=d3661675-ef34-4363-8f5c-3f830c1dd761"},"vehicle_type_id":"4","last_reported":1704391721,"current_range_meters":20800,"station_id":"ce4bgph2rcd13ifvqc2g","pricing_plan_id":"free"},{"bike_id":"0aea2160-9cfa-433d-8ec6-f77ad571644d","system_id":"levelo_inurba_marseille","lat":43.296921,"lon":5.376579,"is_reserved":false,"is_disabled":false,"rental_uris":{"android":"levelo://app?vid=0aea2160-9cfa-433d-8ec6-f77ad571644d","ios":"levelo://app?vid=0aea2160-9cfa-433d-8ec6-f77ad571644d"},"vehicle_type_id":"4","last_reported":1704391721,"current_range_meters":0,"station_id":"ce4bgkh2rcd13ifvqbl0","pricing_plan_id":"free"},{"bike_id":"4fd81311-8f58-4b1e-99a9-aecd0535f7a0","system_id":"levelo_inurba_marseille","lat":43.299028,"lon":5.381509,"is_reserved":false,"is_disabled":false,"rental_uris":{"android":"levelo://app?vid=4fd81311-8f58-4b1e-99a9-aecd0535f7a0","ios":"levelo://app?vid=4fd81311-8f58-4b1e-99a9-aecd0535f7a0"},"vehicle_type_id":"4","last_reported":1704391721,"current_range_meters":11600,"station_id":"ce4bgj12rcd13ifvqbc0","pricing_plan_id":"free"},{"bike_id":"0aee1ed0-df46-4472-8d74-b4867dec016a","system_id":"levelo_inurba_marseille","lat":43.296921,"lon":5.376579,"is_reserved":false,"is_disabled":false,"rental_uris":{"android":"levelo://app?vid=0aee1ed0-df46-4472-8d74-b4867dec016a","ios":"levelo://app?vid=0aee1ed0-df46-4472-8d74-b4867dec016a"},"vehicle_type_id":"4","last_reported":1704391721,"current_range_meters":1600,"station_id":"ce4bgkh2rcd13ifvqbl0","pricing_plan_id":"free"},{"bike_id":"b834a415-8961-4cbb-8289-86430b692ab7","system_id":"levelo_inurba_marseille","lat":43.309589,"lon":5.390258,"is_reserved":false,"is_disabled":false,"rental_uris":{"android":"levelo://app?vid=b834a415-8961-4cbb-8289-86430b692ab7","ios":"levelo://app?vid=b834a415-8961-4cbb-8289-86430b692ab7"},"vehicle_type_id":"4","last_reported":1704391721,"current_range_meters":20800,"station_id":"ce4bgup2rcd13ifvqco0","pricing_plan_id":"free"},{"bike_id":"5364ff76-1469-4e41-a001-3ec425a93233","system_id":"levelo_inurba_marseille","lat":43.317557,"lon":5.390173,"is_reserved":false,"is_disabled":false,"rental_uris":{"android":"levelo://app?vid=5364ff76-1469-4e41-a001-3ec425a93233","ios":"levelo://app?vid=5364ff76-1469-4e41-a001-3ec425a93233"},"vehicle_type_id":"4","last_reported":1704391721,"current_range_meters":12400,"station_id":"ce4bhqp2rcd13ifvqhng","pricing_plan_id":"free"},{"bike_id":"ac6d0e49-7c59-41b8-9733-d900988f0a6e","system_id":"levelo_inurba_marseille","lat":43.295803,"lon":5.37499,"is_reserved":false,"is_disabled":false,"rental_uris":{"android":"levelo://app?vid=ac6d0e49-7c59-41b8-9733-d900988f0a6e","ios":"levelo://app?vid=ac6d0e49-7c59-41b8-9733-d900988f0a6e"},"vehicle_type_id":"4","last_reported":1704391721,"current_range_meters":28800,"station_id":"ce4bgh92rcd13ifvqb50","pricing_plan_id":"free"},{"bike_id":"45ce3084-2162-4012-9e0c-e4d9a2df2dbf","system_id":"levelo_inurba_marseille","lat":43.309039,"lon":5.371797,"is_reserved":false,"is_disabled":false,"rental_uris":{"android":"levelo://app?vid=45ce3084-2162-4012-9e0c-e4d9a2df2dbf","ios":"levelo://app?vid=45ce3084-2162-4012-9e0c-e4d9a2df2dbf"},"vehicle_type_id":"4","last_reported":1704391721,"current_range_meters":0,"station_id":"ce4bguh2rcd13ifvqckg","pricing_plan_id":"free"},{"bike_id":"c774a11d-10ae-4246-935e-9ce99210b980","system_id":"levelo_inurba_marseille","lat":43.304278,"lon":5.388868,"is_reserved":false,"is_disabled":false,"rental_uris":{"android":"levelo://app?vid=c774a11d-10ae-4246-935e-9ce99210b980","ios":"levelo://app?vid=c774a11d-10ae-4246-935e-9ce99210b980"},"vehicle_type_id":"4","last_reported":1704391721,"current_range_meters":18000,"station_id":"ce4bgk12rcd13ifvqbi0","pricing_plan_id":"free"},{"bike_id":"b2533dc6-6bb7-4c11-93db-8673bc4c5291","system_id":"levelo_inurba_marseille","lat":43.30426,"lon":5.38891,"is_reserved":false,"is_disabled":false,"rental_uris":{"android":"levelo://app?vid=b2533dc6-6bb7-4c11-93db-8673bc4c5291","ios":"levelo://app?vid=b2533dc6-6bb7-4c11-93db-8673bc4c5291"},"vehicle_type_id":"4","last_reported":1704391721,"current_range_meters":0,"station_id":"ce4bgk12rcd13ifvqbi0","pricing_plan_id":"free"},{"bike_id":"5a819183-0ef6-4183-89e9-711a854376af","system_id":"levelo_inurba_marseille","lat":43.304274,"lon":5.388873,"is_reserved":false,"is_disabled":false,"rental_uris":{"android":"levelo://app?vid=5a819183-0ef6-4183-89e9-711a854376af","ios":"levelo://app?vid=5a819183-0ef6-4183-89e9-711a854376af"},"vehicle_type_id":"4","last_reported":1704391721,"current_range_meters":25200,"station_id":"ce4bgk12rcd13ifvqbi0","pricing_plan_id":"free"},{"bike_id":"d60802d6-4f47-444a-b234-883690eec05b","system_id":"levelo_inurba_marseille","lat":43.33062,"lon":5.3627,"is_reserved":false,"is_disabled":false,"rental_uris":{"android":"levelo://app?vid=d60802d6-4f47-444a-b234-883690eec05b","ios":"levelo://app?vid=d60802d6-4f47-444a-b234-883690eec05b"},"vehicle_type_id":"4","last_reported":1704391721,"current_range_meters":7200,"station_id":"","pricing_plan_id":"free"},{"bike_id":"25c07937-f4ed-4cbf-8d6f-351c57451056","system_id":"levelo_inurba_marseille","lat":43.296147,"lon":5.377183,"is_reserved":false,"is_disabled":false,"rental_uris":{"android":"levelo://app?vid=25c07937-f4ed-4cbf-8d6f-351c57451056","ios":"levelo://app?vid=25c07937-f4ed-4cbf-8d6f-351c57451056"},"vehicle_type_id":"4","last_reported":1704391721,"current_range_meters":0,"station_id":"ce4bgi92rcd13ifvqb90","pricing_plan_id":"free"},{"bike_id":"bf5a022b-f9b3-45dc-a187-6f32c8a1c363","system_id":"levelo_inurba_marseille","lat":43.295279,"lon":5.375048,"is_reserved":false,"is_disabled":false,"rental_uris":{"android":"levelo://app?vid=bf5a022b-f9b3-45dc-a187-6f32c8a1c363","ios":"levelo://app?vid=bf5a022b-f9b3-45dc-a187-6f32c8a1c363"},"vehicle_type_id":"4","last_reported":1704391721,"current_range_meters":0,"station_id":"ce4bgkp2rcd13ifvqbmg","pricing_plan_id":"free"},{"bike_id":"11e8be7f-5242-4c5c-af99-0f2a141caae5","system_id":"levelo_inurba_marseille","lat":43.29835,"lon":5.38296,"is_reserved":false,"is_disabled":false,"rental_uris":{"android":"levelo://app?vid=11e8be7f-5242-4c5c-af99-0f2a141caae5","ios":"levelo://app?vid=11e8be7f-5242-4c5c-af99-0f2a141caae5"},"vehicle_type_id":"4","last_reported":1704391721,"current_range_meters":18400,"station_id":"","pricing_plan_id":"free"},{"bike_id":"e0021f43-de18-4772-bbd0-459c38734811","system_id":"levelo_inurba_marseille","lat":43.32363,"lon":5.38879,"is_reserved":false,"is_disabled":false,"rental_uris":{"android":"levelo://app?vid=e0021f43-de18-4772-bbd0-459c38734811","ios":"levelo://app?vid=e0021f43-de18-4772-bbd0-459c38734811"},"vehicle_type_id":"4","last_reported":1704391721,"current_range_meters":8800,"station_id":"ce4bhqp2rcd13ifvqhog","pricing_plan_id":"free"},{"bike_id":"022b9adc-7b52-4e73-921e-89cfc53bdd44","system_id":"levelo_inurba_marseille","lat":43.292749,"lon":5.368402,"is_reserved":false,"is_disabled":false,"rental_uris":{"android":"levelo://app?vid=022b9adc-7b52-4e73-921e-89cfc53bdd44","ios":"levelo://app?vid=022b9adc-7b52-4e73-921e-89cfc53bdd44"},"vehicle_type_id":"4","last_reported":1704391721,"current_range_meters":0,"station_id":"ce4bhbp2rcd13ifvqesg","pricing_plan_id":"free"},{"bike_id":"3a65971b-bb22-4722-9688-6fc91cbaae6e","system_id":"levelo_inurba_marseille","lat":43.29529,"lon":5.385581,"is_reserved":false,"is_disabled":false,"rental_uris":{"android":"levelo://app?vid=3a65971b-bb22-4722-9688-6fc91cbaae6e","ios":"levelo://app?vid=3a65971b-bb22-4722-9688-6fc91cbaae6e"},"vehicle_type_id":"4","last_reported":1704391721,"current_range_meters":2000,"station_id":"ce4bgih2rcd13ifvqba0","pricing_plan_id":"free"},{"bike_id":"58eef7c8-f7e7-4a16-9c11-56b0cff53485","system_id":"levelo_inurba_marseille","lat":43.305994,"lon":5.393687,"is_reserved":false,"is_disabled":false,"rental_uris":{"android":"levelo://app?vid=58eef7c8-f7e7-4a16-9c11-56b0cff53485","ios":"levelo://app?vid=58eef7c8-f7e7-4a16-9c11-56b0cff53485"},"vehicle_type_id":"4","last_reported":1704391721,"current_range_meters":2400,"station_id":"ce4bh0p2rcd13ifvqd80","pricing_plan_id":"free"},{"bike_id":"3e1fae97-cd35-4051-b99d-f5ac26aee24b","system_id":"levelo_inurba_marseille","lat":43.293009,"lon":5.374584,"is_reserved":false,"is_disabled":false,"rental_uris":{"android":"levelo://app?vid=3e1fae97-cd35-4051-b99d-f5ac26aee24b","ios":"levelo://app?vid=3e1fae97-cd35-4051-b99d-f5ac26aee24b"},"vehicle_type_id":"4","last_reported":1704391721,"current_range_meters":23600,"station_id":"ce4bgi12rcd13ifvqb70","pricing_plan_id":"free"},{"bike_id":"85c34efb-3f0a-48c2-887f-18361eab5744","system_id":"levelo_inurba_marseille","lat":43.305994,"lon":5.393687,"is_reserved":false,"is_disabled":false,"rental_uris":{"android":"levelo://app?vid=85c34efb-3f0a-48c2-887f-18361eab5744","ios":"levelo://app?vid=85c34efb-3f0a-48c2-887f-18361eab5744"},"vehicle_type_id":"4","last_reported":1704391721,"current_range_meters":23200,"station_id":"ce4bh0p2rcd13ifvqd80","pricing_plan_id":"free"},{"bike_id":"a205b44b-75a9-4d4a-80d8-2b34ed645902","system_id":"levelo_inurba_marseille","lat":43.293009,"lon":5.374584,"is_reserved":false,"is_disabled":false,"rental_uris":{"android":"levelo://app?vid=a205b44b-75a9-4d4a-80d8-2b34ed645902","ios":"levelo://app?vid=a205b44b-75a9-4d4a-80d8-2b34ed645902"},"vehicle_type_id":"4","last_reported":1704391721,"current_range_meters":15200,"station_id":"ce4bgi12rcd13ifvqb70","pricing_plan_id":"free"},{"bike_id":"fb232b54-cb32-43d4-919e-960bf37a4929","system_id":"levelo_inurba_marseille","lat":43.2936,"lon":5.37835,"is_reserved":false,"is_disabled":false,"rental_uris":{"android":"levelo://app?vid=fb232b54-cb32-43d4-919e-960bf37a4929","ios":"levelo://app?vid=fb232b54-cb32-43d4-919e-960bf37a4929"},"vehicle_type_id":"4","last_reported":1704391721,"current_range_meters":19200,"station_id":"ce4bgjh2rcd13ifvqbf0","pricing_plan_id":"free"},{"bike_id":"4c119a5c-a39f-4134-8686-543f99b7cca2","system_id":"levelo_inurba_marseille","lat":43.300852,"lon":5.390859,"is_reserved":false,"is_disabled":false,"rental_uris":{"android":"levelo://app?vid=4c119a5c-a39f-4134-8686-543f99b7cca2","ios":"levelo://app?vid=4c119a5c-a39f-4134-8686-543f99b7cca2"},"vehicle_type_id":"4","last_reported":1704391721,"current_range_meters":18000,"station_id":"ce4bh192rcd13ifvqdb0","pricing_plan_id":"free"},{"bike_id":"249bb27d-4c6e-42a8-a554-5186eedf48b8","system_id":"levelo_inurba_marseille","lat":43.291675,"lon":5.371583,"is_reserved":false,"is_disabled":false,"rental_uris":{"android":"levelo://app?vid=249bb27d-4c6e-42a8-a554-5186eedf48b8","ios":"levelo://app?vid=249bb27d-4c6e-42a8-a554-5186eedf48b8"},"vehicle_type_id":"4","last_reported":1704391721,"current_range_meters":400,"station_id":"ce4bha92rcd13ifvqeh0","pricing_plan_id":"free"},{"bike_id":"658e05ca-4ffd-4c9a-95d4-75a601d1dbde","system_id":"levelo_inurba_marseille","lat":43.291675,"lon":5.371583,"is_reserved":false,"is_disabled":false,"rental_uris":{"android":"levelo://app?vid=658e05ca-4ffd-4c9a-95d4-75a601d1dbde","ios":"levelo://app?vid=658e05ca-4ffd-4c9a-95d4-75a601d1dbde"},"vehicle_type_id":"4","last_reported":1704391721,"current_range_meters":23200,"station_id":"ce4bha92rcd13ifvqeh0","pricing_plan_id":"free"},{"bike_id":"3d536876-69c8-4e35-9754-96ca71bb969c","system_id":"levelo_inurba_marseille","lat":43.29867,"lon":5.38896,"is_reserved":false,"is_disabled":false,"rental_uris":{"android":"levelo://app?vid=3d536876-69c8-4e35-9754-96ca71bb969c","ios":"levelo://app?vid=3d536876-69c8-4e35-9754-96ca71bb969c"},"vehicle_type_id":"4","last_reported":1704391721,"current_range_meters":8400,"station_id":"","pricing_plan_id":"free"},{"bike_id":"1f4c6355-a12c-44c9-bca9-a96f293e0ffd","system_id":"levelo_inurba_marseille","lat":43.291671,"lon":5.371575,"is_reserved":false,"is_disabled":false,"rental_uris":{"android":"levelo://app?vid=1f4c6355-a12c-44c9-bca9-a96f293e0ffd","ios":"levelo://app?vid=1f4c6355-a12c-44c9-bca9-a96f293e0ffd"},"vehicle_type_id":"4","last_reported":1704391721,"current_range_meters":22400,"station_id":"ce4bha92rcd13ifvqeh0","pricing_plan_id":"free"},{"bike_id":"6ef6db72-779e-4209-a286-2dda96846da5","system_id":"levelo_inurba_marseille","lat":43.313291,"lon":5.396838,"is_reserved":false,"is_disabled":false,"rental_uris":{"android":"levelo://app?vid=6ef6db72-779e-4209-a286-2dda96846da5","ios":"levelo://app?vid=6ef6db72-779e-4209-a286-2dda96846da5"},"vehicle_type_id":"4","last_reported":1704391721,"current_range_meters":19600,"station_id":"ce4bgvp2rcd13ifvqcu0","pricing_plan_id":"free"},{"bike_id":"6e6aea2e-6746-425e-ae3f-e73f5c833249","system_id":"levelo_inurba_marseille","lat":43.313291,"lon":5.396838,"is_reserved":false,"is_disabled":false,"rental_uris":{"android":"levelo://app?vid=6e6aea2e-6746-425e-ae3f-e73f5c833249","ios":"levelo://app?vid=6e6aea2e-6746-425e-ae3f-e73f5c833249"},"vehicle_type_id":"4","last_reported":1704391721,"current_range_meters":26000,"station_id":"ce4bgvp2rcd13ifvqcu0","pricing_plan_id":"free"},{"bike_id":"ff5b9743-d87c-46c3-b94b-957aa3927e6c","system_id":"levelo_inurba_marseille","lat":43.313291,"lon":5.396838,"is_reserved":false,"is_disabled":false,"rental_uris":{"android":"levelo://app?vid=ff5b9743-d87c-46c3-b94b-957aa3927e6c","ios":"levelo://app?vid=ff5b9743-d87c-46c3-b94b-957aa3927e6c"},"vehicle_type_id":"4","last_reported":1704391721,"current_range_meters":0,"station_id":"ce4bgvp2rcd13ifvqcu0","pricing_plan_id":"free"},{"bike_id":"4d75aa5b-49a4-430d-8f7a-2c3b330826a7","system_id":"levelo_inurba_marseille","lat":43.313291,"lon":5.396838,"is_reserved":false,"is_disabled":false,"rental_uris":{"android":"levelo://app?vid=4d75aa5b-49a4-430d-8f7a-2c3b330826a7","ios":"levelo://app?vid=4d75aa5b-49a4-430d-8f7a-2c3b330826a7"},"vehicle_type_id":"4","last_reported":1704391721,"current_range_meters":13600,"station_id":"ce4bgvp2rcd13ifvqcu0","pricing_plan_id":"free"},{"bike_id":"5ebab81c-726c-4c7d-adb4-882019490576","system_id":"levelo_inurba_marseille","lat":43.313291,"lon":5.396838,"is_reserved":false,"is_disabled":false,"rental_uris":{"android":"levelo://app?vid=5ebab81c-726c-4c7d-adb4-882019490576","ios":"levelo://app?vid=5ebab81c-726c-4c7d-adb4-882019490576"},"vehicle_type_id":"4","last_reported":1704391721,"current_range_meters":24800,"station_id":"ce4bgvp2rcd13ifvqcu0","pricing_plan_id":"free"},{"bike_id":"11ebe11d-5eb5-4ea1-b905-a6590a77e53b","system_id":"levelo_inurba_marseille","lat":43.313291,"lon":5.396838,"is_reserved":false,"is_disabled":false,"rental_uris":{"android":"levelo://app?vid=11ebe11d-5eb5-4ea1-b905-a6590a77e53b","ios":"levelo://app?vid=11ebe11d-5eb5-4ea1-b905-a6590a77e53b"},"vehicle_type_id":"4","last_reported":1704391721,"current_range_meters":23600,"station_id":"ce4bgvp2rcd13ifvqcu0","pricing_plan_id":"free"},{"bike_id":"a1d4d6a9-131c-4e2d-8a0e-6c2a2e0e9747","system_id":"levelo_inurba_marseille","lat":43.313291,"lon":5.396838,"is_reserved":false,"is_disabled":false,"rental_uris":{"android":"levelo://app?vid=a1d4d6a9-131c-4e2d-8a0e-6c2a2e0e9747","ios":"levelo://app?vid=a1d4d6a9-131c-4e2d-8a0e-6c2a2e0e9747"},"vehicle_type_id":"4","last_reported":1704391721,"current_range_meters":17200,"station_id":"ce4bgvp2rcd13ifvqcu0","pricing_plan_id":"free"},{"bike_id":"a30ab2b9-d1da-4d38-9e85-f0d4ef57bea0","system_id":"levelo_inurba_marseille","lat":43.309038,"lon":5.396546,"is_reserved":false,"is_disabled":false,"rental_uris":{"android":"levelo://app?vid=a30ab2b9-d1da-4d38-9e85-f0d4ef57bea0","ios":"levelo://app?vid=a30ab2b9-d1da-4d38-9e85-f0d4ef57bea0"},"vehicle_type_id":"4","last_reported":1704391721,"current_range_meters":19600,"station_id":"ce4bh012rcd13ifvqcv0","pricing_plan_id":"free"},{"bike_id":"76cd2679-6a3d-4a00-8fe2-53d47fffa510","system_id":"levelo_inurba_marseille","lat":43.309047,"lon":5.396551,"is_reserved":false,"is_disabled":false,"rental_uris":{"android":"levelo://app?vid=76cd2679-6a3d-4a00-8fe2-53d47fffa510","ios":"levelo://app?vid=76cd2679-6a3d-4a00-8fe2-53d47fffa510"},"vehicle_type_id":"4","last_reported":1704391721,"current_range_meters":5600,"station_id":"ce4bh012rcd13ifvqcv0","pricing_plan_id":"free"},{"bike_id":"50958556-5743-43a2-bf6e-a96f7c88d7a3","system_id":"levelo_inurba_marseille","lat":43.309038,"lon":5.396546,"is_reserved":false,"is_disabled":false,"rental_uris":{"android":"levelo://app?vid=50958556-5743-43a2-bf6e-a96f7c88d7a3","ios":"levelo://app?vid=50958556-5743-43a2-bf6e-a96f7c88d7a3"},"vehicle_type_id":"4","last_reported":1704391721,"current_range_meters":11600,"station_id":"ce4bh012rcd13ifvqcv0","pricing_plan_id":"free"},{"bike_id":"cb97d009-49fa-4e12-b2d6-e0f136402e0b","system_id":"levelo_inurba_marseille","lat":43.29528,"lon":5.38547,"is_reserved":false,"is_disabled":false,"rental_uris":{"android":"levelo://app?vid=cb97d009-49fa-4e12-b2d6-e0f136402e0b","ios":"levelo://app?vid=cb97d009-49fa-4e12-b2d6-e0f136402e0b"},"vehicle_type_id":"4","last_reported":1704391721,"current_range_meters":2000,"station_id":"ce4bgih2rcd13ifvqba0","pricing_plan_id":"free"},{"bike_id":"4a9311c4-4db5-4367-b1f7-d435bd185033","system_id":"levelo_inurba_marseille","lat":43.33273,"lon":5.37989,"is_reserved":false,"is_disabled":false,"rental_uris":{"android":"levelo://app?vid=4a9311c4-4db5-4367-b1f7-d435bd185033","ios":"levelo://app?vid=4a9311c4-4db5-4367-b1f7-d435bd185033"},"vehicle_type_id":"4","last_reported":1704391721,"current_range_meters":5600,"station_id":"","pricing_plan_id":"free"},{"bike_id":"4bfa7bf9-a4da-461c-9849-b464b327eebd","system_id":"levelo_inurba_marseille","lat":43.302008,"lon":5.394694,"is_reserved":false,"is_disabled":false,"rental_uris":{"android":"levelo://app?vid=4bfa7bf9-a4da-461c-9849-b464b327eebd","ios":"levelo://app?vid=4bfa7bf9-a4da-461c-9849-b464b327eebd"},"vehicle_type_id":"4","last_reported":1704391721,"current_range_meters":2000,"station_id":"ce4bh0p2rcd13ifvqd70","pricing_plan_id":"free"},{"bike_id":"d50577a6-ff89-4783-b904-202e05c8e6b7","system_id":"levelo_inurba_marseille","lat":43.302008,"lon":5.394694,"is_reserved":false,"is_disabled":false,"rental_uris":{"android":"levelo://app?vid=d50577a6-ff89-4783-b904-202e05c8e6b7","ios":"levelo://app?vid=d50577a6-ff89-4783-b904-202e05c8e6b7"},"vehicle_type_id":"4","last_reported":1704391721,"current_range_meters":3200,"station_id":"ce4bh0p2rcd13ifvqd70","pricing_plan_id":"free"},{"bike_id":"e2968eb1-9b4d-4db0-8c07-cbde0187b00a","system_id":"levelo_inurba_marseille","lat":43.294153,"lon":5.386305,"is_reserved":false,"is_disabled":false,"rental_uris":{"android":"levelo://app?vid=e2968eb1-9b4d-4db0-8c07-cbde0187b00a","ios":"levelo://app?vid=e2968eb1-9b4d-4db0-8c07-cbde0187b00a"},"vehicle_type_id":"4","last_reported":1704391721,"current_range_meters":0,"station_id":"ce4bh2h2rcd13ifvqdh0","pricing_plan_id":"free"},{"bike_id":"0201be65-2860-4690-b6dc-a60231f9371c","system_id":"levelo_inurba_marseille","lat":43.290327,"lon":5.375711,"is_reserved":false,"is_disabled":false,"rental_uris":{"android":"levelo://app?vid=0201be65-2860-4690-b6dc-a60231f9371c","ios":"levelo://app?vid=0201be65-2860-4690-b6dc-a60231f9371c"},"vehicle_type_id":"4","last_reported":1704391721,"current_range_meters":1600,"station_id":"ce4bh692rcd13ifvqe90","pricing_plan_id":"free"},{"bike_id":"8d61ff79-5d13-465e-b9c7-ede56bc7ebbe","system_id":"levelo_inurba_marseille","lat":43.290327,"lon":5.375711,"is_reserved":false,"is_disabled":false,"rental_uris":{"android":"levelo://app?vid=8d61ff79-5d13-465e-b9c7-ede56bc7ebbe","ios":"levelo://app?vid=8d61ff79-5d13-465e-b9c7-ede56bc7ebbe"},"vehicle_type_id":"4","last_reported":1704391721,"current_range_meters":27600,"station_id":"ce4bh692rcd13ifvqe90","pricing_plan_id":"free"},{"bike_id":"9f3a91c0-8894-4ac0-8cac-c4f6223bbb2a","system_id":"levelo_inurba_marseille","lat":43.289367,"lon":5.366457,"is_reserved":false,"is_disabled":false,"rental_uris":{"android":"levelo://app?vid=9f3a91c0-8894-4ac0-8cac-c4f6223bbb2a","ios":"levelo://app?vid=9f3a91c0-8894-4ac0-8cac-c4f6223bbb2a"},"vehicle_type_id":"4","last_reported":1704391721,"current_range_meters":10000,"station_id":"ce4bhap2rcd13ifvqek0","pricing_plan_id":"free"},{"bike_id":"4989e226-2197-4344-bf65-98551a0fa2cd","system_id":"levelo_inurba_marseille","lat":43.292642,"lon":5.384254,"is_reserved":false,"is_disabled":false,"rental_uris":{"android":"levelo://app?vid=4989e226-2197-4344-bf65-98551a0fa2cd","ios":"levelo://app?vid=4989e226-2197-4344-bf65-98551a0fa2cd"},"vehicle_type_id":"4","last_reported":1704391721,"current_range_meters":13600,"station_id":"ce4bh692rcd13ifvqea0","pricing_plan_id":"free"},{"bike_id":"07d44c92-cf2c-4d95-868d-47ff41203f6f","system_id":"levelo_inurba_marseille","lat":43.292644,"lon":5.384257,"is_reserved":false,"is_disabled":false,"rental_uris":{"android":"levelo://app?vid=07d44c92-cf2c-4d95-868d-47ff41203f6f","ios":"levelo://app?vid=07d44c92-cf2c-4d95-868d-47ff41203f6f"},"vehicle_type_id":"4","last_reported":1704391721,"current_range_meters":18800,"station_id":"ce4bh692rcd13ifvqea0","pricing_plan_id":"free"},{"bike_id":"99470b86-6c89-49e5-bf3c-da3256e7b694","system_id":"levelo_inurba_marseille","lat":43.292644,"lon":5.384257,"is_reserved":false,"is_disabled":false,"rental_uris":{"android":"levelo://app?vid=99470b86-6c89-49e5-bf3c-da3256e7b694","ios":"levelo://app?vid=99470b86-6c89-49e5-bf3c-da3256e7b694"},"vehicle_type_id":"4","last_reported":1704391721,"current_range_meters":7600,"station_id":"ce4bh692rcd13ifvqea0","pricing_plan_id":"free"},{"bike_id":"bbccc70a-a17c-42f7-bf0e-0360eaed76bc","system_id":"levelo_inurba_marseille","lat":43.292642,"lon":5.384254,"is_reserved":false,"is_disabled":false,"rental_uris":{"android":"levelo://app?vid=bbccc70a-a17c-42f7-bf0e-0360eaed76bc","ios":"levelo://app?vid=bbccc70a-a17c-42f7-bf0e-0360eaed76bc"},"vehicle_type_id":"4","last_reported":1704391721,"current_range_meters":15200,"station_id":"ce4bh692rcd13ifvqea0","pricing_plan_id":"free"},{"bike_id":"aaa20759-d775-4a59-a43b-7d694bb904f0","system_id":"levelo_inurba_marseille","lat":43.304274,"lon":5.397513,"is_reserved":false,"is_disabled":false,"rental_uris":{"android":"levelo://app?vid=aaa20759-d775-4a59-a43b-7d694bb904f0","ios":"levelo://app?vid=aaa20759-d775-4a59-a43b-7d694bb904f0"},"vehicle_type_id":"4","last_reported":1704391721,"current_range_meters":17200,"station_id":"ce4bh092rcd13ifvqd20","pricing_plan_id":"free"},{"bike_id":"0a033951-1686-435f-8ec7-08125c6e458d","system_id":"levelo_inurba_marseille","lat":43.292644,"lon":5.384257,"is_reserved":false,"is_disabled":false,"rental_uris":{"android":"levelo://app?vid=0a033951-1686-435f-8ec7-08125c6e458d","ios":"levelo://app?vid=0a033951-1686-435f-8ec7-08125c6e458d"},"vehicle_type_id":"4","last_reported":1704391721,"current_range_meters":4000,"station_id":"ce4bh692rcd13ifvqea0","pricing_plan_id":"free"},{"bike_id":"fd88277a-f2a0-4742-a284-9d3cb022745f","system_id":"levelo_inurba_marseille","lat":43.292642,"lon":5.384254,"is_reserved":false,"is_disabled":false,"rental_uris":{"android":"levelo://app?vid=fd88277a-f2a0-4742-a284-9d3cb022745f","ios":"levelo://app?vid=fd88277a-f2a0-4742-a284-9d3cb022745f"},"vehicle_type_id":"4","last_reported":1704391721,"current_range_meters":11200,"station_id":"ce4bh692rcd13ifvqea0","pricing_plan_id":"free"},{"bike_id":"953c9840-09ae-4946-9fb7-265912825baf","system_id":"levelo_inurba_marseille","lat":43.29779,"lon":5.39336,"is_reserved":false,"is_disabled":false,"rental_uris":{"android":"levelo://app?vid=953c9840-09ae-4946-9fb7-265912825baf","ios":"levelo://app?vid=953c9840-09ae-4946-9fb7-265912825baf"},"vehicle_type_id":"4","last_reported":1704391721,"current_range_meters":18000,"station_id":"chh1huq6cuj3fo74tm60","pricing_plan_id":"free"},{"bike_id":"f6ea19a4-5247-4d72-b65e-55422a9433c1","system_id":"levelo_inurba_marseille","lat":43.297815,"lon":5.393548,"is_reserved":false,"is_disabled":false,"rental_uris":{"android":"levelo://app?vid=f6ea19a4-5247-4d72-b65e-55422a9433c1","ios":"levelo://app?vid=f6ea19a4-5247-4d72-b65e-55422a9433c1"},"vehicle_type_id":"4","last_reported":1704391721,"current_range_meters":15600,"station_id":"chh1huq6cuj3fo74tm60","pricing_plan_id":"free"},{"bike_id":"a4544299-4117-4ba4-98ad-2dcd1cebe1e8","system_id":"levelo_inurba_marseille","lat":43.330442,"lon":5.389148,"is_reserved":false,"is_disabled":false,"rental_uris":{"android":"levelo://app?vid=a4544299-4117-4ba4-98ad-2dcd1cebe1e8","ios":"levelo://app?vid=a4544299-4117-4ba4-98ad-2dcd1cebe1e8"},"vehicle_type_id":"4","last_reported":1704391721,"current_range_meters":19600,"station_id":"ce4bhr92rcd13ifvqhrg","pricing_plan_id":"free"},{"bike_id":"a023d84b-11ca-49dd-9d6c-50372e788579","system_id":"levelo_inurba_marseille","lat":43.330442,"lon":5.389148,"is_reserved":false,"is_disabled":false,"rental_uris":{"android":"levelo://app?vid=a023d84b-11ca-49dd-9d6c-50372e788579","ios":"levelo://app?vid=a023d84b-11ca-49dd-9d6c-50372e788579"},"vehicle_type_id":"4","last_reported":1704391721,"current_range_meters":14000,"station_id":"ce4bhr92rcd13ifvqhrg","pricing_plan_id":"free"},{"bike_id":"cade1ab2-99bb-4de5-931a-538c67c99064","system_id":"levelo_inurba_marseille","lat":43.289743,"lon":5.378304,"is_reserved":false,"is_disabled":false,"rental_uris":{"android":"levelo://app?vid=cade1ab2-99bb-4de5-931a-538c67c99064","ios":"levelo://app?vid=cade1ab2-99bb-4de5-931a-538c67c99064"},"vehicle_type_id":"4","last_reported":1704391721,"current_range_meters":2800,"station_id":"ce4bh9p2rcd13ifvqed0","pricing_plan_id":"free"},{"bike_id":"7da19f74-ba7f-4bc9-841b-f11c963d1d8f","system_id":"levelo_inurba_marseille","lat":43.330442,"lon":5.389148,"is_reserved":false,"is_disabled":false,"rental_uris":{"android":"levelo://app?vid=7da19f74-ba7f-4bc9-841b-f11c963d1d8f","ios":"levelo://app?vid=7da19f74-ba7f-4bc9-841b-f11c963d1d8f"},"vehicle_type_id":"4","last_reported":1704391721,"current_range_meters":3600,"station_id":"ce4bhr92rcd13ifvqhrg","pricing_plan_id":"free"},{"bike_id":"a45508dc-3e20-4dc2-a3f2-c48092cac22d","system_id":"levelo_inurba_marseille","lat":43.330442,"lon":5.389148,"is_reserved":false,"is_disabled":false,"rental_uris":{"android":"levelo://app?vid=a45508dc-3e20-4dc2-a3f2-c48092cac22d","ios":"levelo://app?vid=a45508dc-3e20-4dc2-a3f2-c48092cac22d"},"vehicle_type_id":"4","last_reported":1704391721,"current_range_meters":30800,"station_id":"ce4bhr92rcd13ifvqhrg","pricing_plan_id":"free"},{"bike_id":"3537c72e-affb-4603-a0d4-44c57db301e5","system_id":"levelo_inurba_marseille","lat":43.330442,"lon":5.389148,"is_reserved":false,"is_disabled":false,"rental_uris":{"android":"levelo://app?vid=3537c72e-affb-4603-a0d4-44c57db301e5","ios":"levelo://app?vid=3537c72e-affb-4603-a0d4-44c57db301e5"},"vehicle_type_id":"4","last_reported":1704391721,"current_range_meters":26000,"station_id":"ce4bhr92rcd13ifvqhrg","pricing_plan_id":"free"},{"bike_id":"b4dc5f58-d698-47e4-9d04-a65a1aac924a","system_id":"levelo_inurba_marseille","lat":43.330442,"lon":5.389148,"is_reserved":false,"is_disabled":false,"rental_uris":{"android":"levelo://app?vid=b4dc5f58-d698-47e4-9d04-a65a1aac924a","ios":"levelo://app?vid=b4dc5f58-d698-47e4-9d04-a65a1aac924a"},"vehicle_type_id":"4","last_reported":1704391721,"current_range_meters":8400,"station_id":"ce4bhr92rcd13ifvqhrg","pricing_plan_id":"free"},{"bike_id":"b1f85b16-0aa9-4f72-8f1e-5042af9339aa","system_id":"levelo_inurba_marseille","lat":43.289184,"lon":5.366408,"is_reserved":false,"is_disabled":false,"rental_uris":{"android":"levelo://app?vid=b1f85b16-0aa9-4f72-8f1e-5042af9339aa","ios":"levelo://app?vid=b1f85b16-0aa9-4f72-8f1e-5042af9339aa"},"vehicle_type_id":"4","last_reported":1704391721,"current_range_meters":0,"station_id":"ce4bhap2rcd13ifvqek0","pricing_plan_id":"free"},{"bike_id":"21e39c23-5a0a-479c-b412-e5cc093d4dfe","system_id":"levelo_inurba_marseille","lat":43.309371,"lon":5.401449,"is_reserved":false,"is_disabled":false,"rental_uris":{"android":"levelo://app?vid=21e39c23-5a0a-479c-b412-e5cc093d4dfe","ios":"levelo://app?vid=21e39c23-5a0a-479c-b412-e5cc093d4dfe"},"vehicle_type_id":"4","last_reported":1704391721,"current_range_meters":5200,"station_id":"ce4bgvp2rcd13ifvqct0","pricing_plan_id":"free"},{"bike_id":"b452f7e8-ed22-45d9-8724-60c770f6087b","system_id":"levelo_inurba_marseille","lat":43.33752,"lon":5.37433,"is_reserved":false,"is_disabled":false,"rental_uris":{"android":"levelo://app?vid=b452f7e8-ed22-45d9-8724-60c770f6087b","ios":"levelo://app?vid=b452f7e8-ed22-45d9-8724-60c770f6087b"},"vehicle_type_id":"4","last_reported":1704391721,"current_range_meters":30000,"station_id":"","pricing_plan_id":"free"},{"bike_id":"5d422c02-1d66-4689-ba54-1826b8413e32","system_id":"levelo_inurba_marseille","lat":43.306412,"lon":5.401035,"is_reserved":false,"is_disabled":false,"rental_uris":{"android":"levelo://app?vid=5d422c02-1d66-4689-ba54-1826b8413e32","ios":"levelo://app?vid=5d422c02-1d66-4689-ba54-1826b8413e32"},"vehicle_type_id":"4","last_reported":1704391721,"current_range_meters":30400,"station_id":"ce4bh112rcd13ifvqda0","pricing_plan_id":"free"},{"bike_id":"38de82ba-9a22-4d1d-b18c-123321c3e8fe","system_id":"levelo_inurba_marseille","lat":43.33765,"lon":5.37485,"is_reserved":false,"is_disabled":false,"rental_uris":{"android":"levelo://app?vid=38de82ba-9a22-4d1d-b18c-123321c3e8fe","ios":"levelo://app?vid=38de82ba-9a22-4d1d-b18c-123321c3e8fe"},"vehicle_type_id":"4","last_reported":1704391721,"current_range_meters":28000,"station_id":"","pricing_plan_id":"free"},{"bike_id":"a38cb2cd-211a-406b-a45d-b2390548c22c","system_id":"levelo_inurba_marseille","lat":43.337675,"lon":5.374703,"is_reserved":false,"is_disabled":false,"rental_uris":{"android":"levelo://app?vid=a38cb2cd-211a-406b-a45d-b2390548c22c","ios":"levelo://app?vid=a38cb2cd-211a-406b-a45d-b2390548c22c"},"vehicle_type_id":"4","last_reported":1704391721,"current_range_meters":27600,"station_id":"","pricing_plan_id":"free"},{"bike_id":"1148824e-8bb3-4581-8ab3-52c8a4d4849a","system_id":"levelo_inurba_marseille","lat":43.306412,"lon":5.401035,"is_reserved":false,"is_disabled":false,"rental_uris":{"android":"levelo://app?vid=1148824e-8bb3-4581-8ab3-52c8a4d4849a","ios":"levelo://app?vid=1148824e-8bb3-4581-8ab3-52c8a4d4849a"},"vehicle_type_id":"4","last_reported":1704391721,"current_range_meters":17200,"station_id":"ce4bh112rcd13ifvqda0","pricing_plan_id":"free"},{"bike_id":"d2aca27b-b5f0-4c7d-8265-093e19c7c67d","system_id":"levelo_inurba_marseille","lat":43.301117,"lon":5.398795,"is_reserved":false,"is_disabled":false,"rental_uris":{"android":"levelo://app?vid=d2aca27b-b5f0-4c7d-8265-093e19c7c67d","ios":"levelo://app?vid=d2aca27b-b5f0-4c7d-8265-093e19c7c67d"},"vehicle_type_id":"4","last_reported":1704391721,"current_range_meters":16000,"station_id":"ce4bh0h2rcd13ifvqd40","pricing_plan_id":"free"},{"bike_id":"3ba7f8ef-2e5d-46ee-afef-b6ffbd1c2d95","system_id":"levelo_inurba_marseille","lat":43.301117,"lon":5.398795,"is_reserved":false,"is_disabled":false,"rental_uris":{"android":"levelo://app?vid=3ba7f8ef-2e5d-46ee-afef-b6ffbd1c2d95","ios":"levelo://app?vid=3ba7f8ef-2e5d-46ee-afef-b6ffbd1c2d95"},"vehicle_type_id":"4","last_reported":1704391721,"current_range_meters":4800,"station_id":"ce4bh0h2rcd13ifvqd40","pricing_plan_id":"free"},{"bike_id":"08323078-3234-4870-a6d7-68017266e21d","system_id":"levelo_inurba_marseille","lat":43.301117,"lon":5.398795,"is_reserved":false,"is_disabled":false,"rental_uris":{"android":"levelo://app?vid=08323078-3234-4870-a6d7-68017266e21d","ios":"levelo://app?vid=08323078-3234-4870-a6d7-68017266e21d"},"vehicle_type_id":"4","last_reported":1704391721,"current_range_meters":15600,"station_id":"ce4bh0h2rcd13ifvqd40","pricing_plan_id":"free"},{"bike_id":"88b992ac-b851-4370-a5e1-696a7c2459ce","system_id":"levelo_inurba_marseille","lat":43.301307,"lon":5.39877,"is_reserved":false,"is_disabled":false,"rental_uris":{"android":"levelo://app?vid=88b992ac-b851-4370-a5e1-696a7c2459ce","ios":"levelo://app?vid=88b992ac-b851-4370-a5e1-696a7c2459ce"},"vehicle_type_id":"4","last_reported":1704391721,"current_range_meters":0,"station_id":"ce4bh0h2rcd13ifvqd40","pricing_plan_id":"free"},{"bike_id":"e68e8b33-eb11-4b9d-a5c9-6babad66f539","system_id":"levelo_inurba_marseille","lat":43.28727,"lon":5.36078,"is_reserved":false,"is_disabled":false,"rental_uris":{"android":"levelo://app?vid=e68e8b33-eb11-4b9d-a5c9-6babad66f539","ios":"levelo://app?vid=e68e8b33-eb11-4b9d-a5c9-6babad66f539"},"vehicle_type_id":"4","last_reported":1704391721,"current_range_meters":22400,"station_id":"cki0cbj6b192h4jlfktg","pricing_plan_id":"free"},{"bike_id":"91f047d9-5543-43fb-992f-dcaca5f05d0a","system_id":"levelo_inurba_marseille","lat":43.28727,"lon":5.36078,"is_reserved":false,"is_disabled":false,"rental_uris":{"android":"levelo://app?vid=91f047d9-5543-43fb-992f-dcaca5f05d0a","ios":"levelo://app?vid=91f047d9-5543-43fb-992f-dcaca5f05d0a"},"vehicle_type_id":"4","last_reported":1704391721,"current_range_meters":21600,"station_id":"cki0cbj6b192h4jlfktg","pricing_plan_id":"free"},{"bike_id":"bc31ec8c-1bd2-44a6-a5a3-18703ab7909f","system_id":"levelo_inurba_marseille","lat":43.28727,"lon":5.36078,"is_reserved":false,"is_disabled":false,"rental_uris":{"android":"levelo://app?vid=bc31ec8c-1bd2-44a6-a5a3-18703ab7909f","ios":"levelo://app?vid=bc31ec8c-1bd2-44a6-a5a3-18703ab7909f"},"vehicle_type_id":"4","last_reported":1704391721,"current_range_meters":7600,"station_id":"cki0cbj6b192h4jlfktg","pricing_plan_id":"free"},{"bike_id":"cfc5d20c-e68d-4511-b4b7-1a84e959c9ad","system_id":"levelo_inurba_marseille","lat":43.286591,"lon":5.363346,"is_reserved":false,"is_disabled":false,"rental_uris":{"android":"levelo://app?vid=cfc5d20c-e68d-4511-b4b7-1a84e959c9ad","ios":"levelo://app?vid=cfc5d20c-e68d-4511-b4b7-1a84e959c9ad"},"vehicle_type_id":"4","last_reported":1704391721,"current_range_meters":31200,"station_id":"ce4bhah2rcd13ifvqej0","pricing_plan_id":"free"},{"bike_id":"99d3be73-0e54-4dad-a245-b23f35da8904","system_id":"levelo_inurba_marseille","lat":43.286593,"lon":5.363346,"is_reserved":false,"is_disabled":false,"rental_uris":{"android":"levelo://app?vid=99d3be73-0e54-4dad-a245-b23f35da8904","ios":"levelo://app?vid=99d3be73-0e54-4dad-a245-b23f35da8904"},"vehicle_type_id":"4","last_reported":1704391721,"current_range_meters":26800,"station_id":"ce4bhah2rcd13ifvqej0","pricing_plan_id":"free"},{"bike_id":"a66b96fc-ee41-4a9f-be18-2949c741ef49","system_id":"levelo_inurba_marseille","lat":43.286593,"lon":5.363346,"is_reserved":false,"is_disabled":false,"rental_uris":{"android":"levelo://app?vid=a66b96fc-ee41-4a9f-be18-2949c741ef49","ios":"levelo://app?vid=a66b96fc-ee41-4a9f-be18-2949c741ef49"},"vehicle_type_id":"4","last_reported":1704391721,"current_range_meters":400,"station_id":"ce4bhah2rcd13ifvqej0","pricing_plan_id":"free"},{"bike_id":"77f8a728-a701-4754-a5ef-a42cc1e6e28d","system_id":"levelo_inurba_marseille","lat":43.286591,"lon":5.363346,"is_reserved":false,"is_disabled":false,"rental_uris":{"android":"levelo://app?vid=77f8a728-a701-4754-a5ef-a42cc1e6e28d","ios":"levelo://app?vid=77f8a728-a701-4754-a5ef-a42cc1e6e28d"},"vehicle_type_id":"4","last_reported":1704391721,"current_range_meters":2400,"station_id":"ce4bhah2rcd13ifvqej0","pricing_plan_id":"free"},{"bike_id":"4b91e8a9-c30c-466b-888e-452d9fcca077","system_id":"levelo_inurba_marseille","lat":43.286593,"lon":5.363346,"is_reserved":false,"is_disabled":false,"rental_uris":{"android":"levelo://app?vid=4b91e8a9-c30c-466b-888e-452d9fcca077","ios":"levelo://app?vid=4b91e8a9-c30c-466b-888e-452d9fcca077"},"vehicle_type_id":"4","last_reported":1704391721,"current_range_meters":25200,"station_id":"ce4bhah2rcd13ifvqej0","pricing_plan_id":"free"},{"bike_id":"6ce330c7-057f-4f89-85d6-b82e9730f5bb","system_id":"levelo_inurba_marseille","lat":43.295194,"lon":5.39397,"is_reserved":false,"is_disabled":false,"rental_uris":{"android":"levelo://app?vid=6ce330c7-057f-4f89-85d6-b82e9730f5bb","ios":"levelo://app?vid=6ce330c7-057f-4f89-85d6-b82e9730f5bb"},"vehicle_type_id":"4","last_reported":1704391721,"current_range_meters":8400,"station_id":"ce4bh292rcd13ifvqdf0","pricing_plan_id":"free"},{"bike_id":"b81cdb65-5afc-49d0-8d1e-f32b1b00edc8","system_id":"levelo_inurba_marseille","lat":43.290331,"lon":5.386415,"is_reserved":false,"is_disabled":false,"rental_uris":{"android":"levelo://app?vid=b81cdb65-5afc-49d0-8d1e-f32b1b00edc8","ios":"levelo://app?vid=b81cdb65-5afc-49d0-8d1e-f32b1b00edc8"},"vehicle_type_id":"4","last_reported":1704391721,"current_range_meters":0,"station_id":"ce4bh4p2rcd13ifvqe0g","pricing_plan_id":"free"},{"bike_id":"47812b97-1b00-46b7-8ee4-88199cb6cb7b","system_id":"levelo_inurba_marseille","lat":43.290345,"lon":5.38646,"is_reserved":false,"is_disabled":false,"rental_uris":{"android":"levelo://app?vid=47812b97-1b00-46b7-8ee4-88199cb6cb7b","ios":"levelo://app?vid=47812b97-1b00-46b7-8ee4-88199cb6cb7b"},"vehicle_type_id":"4","last_reported":1704391721,"current_range_meters":14400,"station_id":"ce4bh4p2rcd13ifvqe0g","pricing_plan_id":"free"},{"bike_id":"b0df115b-d0bd-4c85-bb9a-416af11139fb","system_id":"levelo_inurba_marseille","lat":43.290345,"lon":5.38646,"is_reserved":false,"is_disabled":false,"rental_uris":{"android":"levelo://app?vid=b0df115b-d0bd-4c85-bb9a-416af11139fb","ios":"levelo://app?vid=b0df115b-d0bd-4c85-bb9a-416af11139fb"},"vehicle_type_id":"4","last_reported":1704391721,"current_range_meters":26000,"station_id":"ce4bh4p2rcd13ifvqe0g","pricing_plan_id":"free"},{"bike_id":"0e95044f-e94e-41f6-9b75-3a4e0376c7e9","system_id":"levelo_inurba_marseille","lat":43.290345,"lon":5.38646,"is_reserved":false,"is_disabled":false,"rental_uris":{"android":"levelo://app?vid=0e95044f-e94e-41f6-9b75-3a4e0376c7e9","ios":"levelo://app?vid=0e95044f-e94e-41f6-9b75-3a4e0376c7e9"},"vehicle_type_id":"4","last_reported":1704391721,"current_range_meters":22000,"station_id":"ce4bh4p2rcd13ifvqe0g","pricing_plan_id":"free"},{"bike_id":"551a7b79-2597-411d-b7af-20c6aa18c4ef","system_id":"levelo_inurba_marseille","lat":43.28611,"lon":5.3706,"is_reserved":false,"is_disabled":false,"rental_uris":{"android":"levelo://app?vid=551a7b79-2597-411d-b7af-20c6aa18c4ef","ios":"levelo://app?vid=551a7b79-2597-411d-b7af-20c6aa18c4ef"},"vehicle_type_id":"4","last_reported":1704391721,"current_range_meters":15600,"station_id":"ce4bht12rcd13ifvqi60","pricing_plan_id":"free"},{"bike_id":"0b2e4cda-a050-4604-93e2-98f30b757693","system_id":"levelo_inurba_marseille","lat":43.286039,"lon":5.370679,"is_reserved":false,"is_disabled":false,"rental_uris":{"android":"levelo://app?vid=0b2e4cda-a050-4604-93e2-98f30b757693","ios":"levelo://app?vid=0b2e4cda-a050-4604-93e2-98f30b757693"},"vehicle_type_id":"4","last_reported":1704391721,"current_range_meters":31200,"station_id":"ce4bht12rcd13ifvqi60","pricing_plan_id":"free"},{"bike_id":"43fa715b-0b8c-4853-9980-29bfa9807e84","system_id":"levelo_inurba_marseille","lat":43.286039,"lon":5.370679,"is_reserved":false,"is_disabled":false,"rental_uris":{"android":"levelo://app?vid=43fa715b-0b8c-4853-9980-29bfa9807e84","ios":"levelo://app?vid=43fa715b-0b8c-4853-9980-29bfa9807e84"},"vehicle_type_id":"4","last_reported":1704391721,"current_range_meters":10000,"station_id":"ce4bht12rcd13ifvqi60","pricing_plan_id":"free"},{"bike_id":"430ec041-a8e4-463b-bbb9-11a619375a8d","system_id":"levelo_inurba_marseille","lat":43.316821,"lon":5.404737,"is_reserved":false,"is_disabled":false,"rental_uris":{"android":"levelo://app?vid=430ec041-a8e4-463b-bbb9-11a619375a8d","ios":"levelo://app?vid=430ec041-a8e4-463b-bbb9-11a619375a8d"},"vehicle_type_id":"4","last_reported":1704391721,"current_range_meters":21600,"station_id":"ce4bh012rcd13ifvqd00","pricing_plan_id":"free"},{"bike_id":"e15f8f76-6969-42b7-bc63-02178e09c5bf","system_id":"levelo_inurba_marseille","lat":43.316828,"lon":5.404723,"is_reserved":false,"is_disabled":false,"rental_uris":{"android":"levelo://app?vid=e15f8f76-6969-42b7-bc63-02178e09c5bf","ios":"levelo://app?vid=e15f8f76-6969-42b7-bc63-02178e09c5bf"},"vehicle_type_id":"4","last_reported":1704391721,"current_range_meters":6400,"station_id":"ce4bh012rcd13ifvqd00","pricing_plan_id":"free"},{"bike_id":"22e31fce-81e3-46e7-ab6a-8d79127e3499","system_id":"levelo_inurba_marseille","lat":43.286039,"lon":5.370679,"is_reserved":false,"is_disabled":false,"rental_uris":{"android":"levelo://app?vid=22e31fce-81e3-46e7-ab6a-8d79127e3499","ios":"levelo://app?vid=22e31fce-81e3-46e7-ab6a-8d79127e3499"},"vehicle_type_id":"4","last_reported":1704391721,"current_range_meters":0,"station_id":"ce4bht12rcd13ifvqi60","pricing_plan_id":"free"},{"bike_id":"c59c56e5-77cd-463d-92d3-25395b203c32","system_id":"levelo_inurba_marseille","lat":43.29441,"lon":5.39751,"is_reserved":false,"is_disabled":false,"rental_uris":{"android":"levelo://app?vid=c59c56e5-77cd-463d-92d3-25395b203c32","ios":"levelo://app?vid=c59c56e5-77cd-463d-92d3-25395b203c32"},"vehicle_type_id":"4","last_reported":1704391721,"current_range_meters":24000,"station_id":"ce4bh3h2rcd13ifvqdo0","pricing_plan_id":"free"},{"bike_id":"dc885069-e360-4a33-8e44-17c4caccbd8f","system_id":"levelo_inurba_marseille","lat":43.2944,"lon":5.39752,"is_reserved":false,"is_disabled":false,"rental_uris":{"android":"levelo://app?vid=dc885069-e360-4a33-8e44-17c4caccbd8f","ios":"levelo://app?vid=dc885069-e360-4a33-8e44-17c4caccbd8f"},"vehicle_type_id":"4","last_reported":1704391721,"current_range_meters":4400,"station_id":"ce4bh3h2rcd13ifvqdo0","pricing_plan_id":"free"},{"bike_id":"c83caf01-ca32-4dd3-b7c0-4f7928366964","system_id":"levelo_inurba_marseille","lat":43.29435,"lon":5.39747,"is_reserved":false,"is_disabled":false,"rental_uris":{"android":"levelo://app?vid=c83caf01-ca32-4dd3-b7c0-4f7928366964","ios":"levelo://app?vid=c83caf01-ca32-4dd3-b7c0-4f7928366964"},"vehicle_type_id":"4","last_reported":1704391721,"current_range_meters":8400,"station_id":"ce4bh3h2rcd13ifvqdo0","pricing_plan_id":"free"},{"bike_id":"3659d6d1-49af-4b4d-a944-c5c6b7063ea6","system_id":"levelo_inurba_marseille","lat":43.285856,"lon":5.350771,"is_reserved":false,"is_disabled":false,"rental_uris":{"android":"levelo://app?vid=3659d6d1-49af-4b4d-a944-c5c6b7063ea6","ios":"levelo://app?vid=3659d6d1-49af-4b4d-a944-c5c6b7063ea6"},"vehicle_type_id":"4","last_reported":1704391721,"current_range_meters":18000,"station_id":"ce4bhch2rcd13ifvqeug","pricing_plan_id":"free"},{"bike_id":"9b84f5a3-ba46-4737-9a5a-12710b8005db","system_id":"levelo_inurba_marseille","lat":43.285856,"lon":5.350771,"is_reserved":false,"is_disabled":false,"rental_uris":{"android":"levelo://app?vid=9b84f5a3-ba46-4737-9a5a-12710b8005db","ios":"levelo://app?vid=9b84f5a3-ba46-4737-9a5a-12710b8005db"},"vehicle_type_id":"4","last_reported":1704391721,"current_range_meters":23600,"station_id":"ce4bhch2rcd13ifvqeug","pricing_plan_id":"free"},{"bike_id":"003b09f4-010d-4167-8378-dc5f23a7bbcc","system_id":"levelo_inurba_marseille","lat":43.285848,"lon":5.350787,"is_reserved":false,"is_disabled":false,"rental_uris":{"android":"levelo://app?vid=003b09f4-010d-4167-8378-dc5f23a7bbcc","ios":"levelo://app?vid=003b09f4-010d-4167-8378-dc5f23a7bbcc"},"vehicle_type_id":"4","last_reported":1704391721,"current_range_meters":14400,"station_id":"ce4bhch2rcd13ifvqeug","pricing_plan_id":"free"},{"bike_id":"e671883b-a8e4-4669-99ba-e5fa9835a8be","system_id":"levelo_inurba_marseille","lat":43.283998,"lon":5.375062,"is_reserved":false,"is_disabled":false,"rental_uris":{"android":"levelo://app?vid=e671883b-a8e4-4669-99ba-e5fa9835a8be","ios":"levelo://app?vid=e671883b-a8e4-4669-99ba-e5fa9835a8be"},"vehicle_type_id":"4","last_reported":1704391721,"current_range_meters":24400,"station_id":"ce4bh412rcd13ifvqds0","pricing_plan_id":"free"},{"bike_id":"07dac6a1-5bd5-4a4d-9d57-0cf7d79309e6","system_id":"levelo_inurba_marseille","lat":43.285856,"lon":5.350771,"is_reserved":false,"is_disabled":false,"rental_uris":{"android":"levelo://app?vid=07dac6a1-5bd5-4a4d-9d57-0cf7d79309e6","ios":"levelo://app?vid=07dac6a1-5bd5-4a4d-9d57-0cf7d79309e6"},"vehicle_type_id":"4","last_reported":1704391721,"current_range_meters":14000,"station_id":"ce4bhch2rcd13ifvqeug","pricing_plan_id":"free"},{"bike_id":"3f2d67b5-1b70-4dca-a662-d18b710194fe","system_id":"levelo_inurba_marseille","lat":43.29825,"lon":5.40154,"is_reserved":false,"is_disabled":false,"rental_uris":{"android":"levelo://app?vid=3f2d67b5-1b70-4dca-a662-d18b710194fe","ios":"levelo://app?vid=3f2d67b5-1b70-4dca-a662-d18b710194fe"},"vehicle_type_id":"4","last_reported":1704391721,"current_range_meters":12400,"station_id":"","pricing_plan_id":"free"},{"bike_id":"70f1b59e-7a34-4945-b745-0f1fce734fc1","system_id":"levelo_inurba_marseille","lat":43.286062,"lon":5.351089,"is_reserved":false,"is_disabled":false,"rental_uris":{"android":"levelo://app?vid=70f1b59e-7a34-4945-b745-0f1fce734fc1","ios":"levelo://app?vid=70f1b59e-7a34-4945-b745-0f1fce734fc1"},"vehicle_type_id":"4","last_reported":1704391721,"current_range_meters":7200,"station_id":"ce4bgj92rcd13ifvqbe0","pricing_plan_id":"free"},{"bike_id":"0b746c79-8268-43ff-90b8-6b45aed47e81","system_id":"levelo_inurba_marseille","lat":43.283998,"lon":5.375062,"is_reserved":false,"is_disabled":false,"rental_uris":{"android":"levelo://app?vid=0b746c79-8268-43ff-90b8-6b45aed47e81","ios":"levelo://app?vid=0b746c79-8268-43ff-90b8-6b45aed47e81"},"vehicle_type_id":"4","last_reported":1704391721,"current_range_meters":6800,"station_id":"ce4bh412rcd13ifvqds0","pricing_plan_id":"free"},{"bike_id":"9dfa2f6c-51c2-41f6-9d32-837d4906f49c","system_id":"levelo_inurba_marseille","lat":43.295713,"lon":5.399639,"is_reserved":false,"is_disabled":false,"rental_uris":{"android":"levelo://app?vid=9dfa2f6c-51c2-41f6-9d32-837d4906f49c","ios":"levelo://app?vid=9dfa2f6c-51c2-41f6-9d32-837d4906f49c"},"vehicle_type_id":"4","last_reported":1704391721,"current_range_meters":13200,"station_id":"ce4bh312rcd13ifvqdj0","pricing_plan_id":"free"},{"bike_id":"f2e6e3eb-ffa9-4b77-9582-9a471f01ac0a","system_id":"levelo_inurba_marseille","lat":43.28406,"lon":5.37518,"is_reserved":false,"is_disabled":false,"rental_uris":{"android":"levelo://app?vid=f2e6e3eb-ffa9-4b77-9582-9a471f01ac0a","ios":"levelo://app?vid=f2e6e3eb-ffa9-4b77-9582-9a471f01ac0a"},"vehicle_type_id":"4","last_reported":1704391721,"current_range_meters":22400,"station_id":"ce4bh412rcd13ifvqds0","pricing_plan_id":"free"},{"bike_id":"2da03a91-3395-41c2-911b-a811e76b82f8","system_id":"levelo_inurba_marseille","lat":43.286595,"lon":5.386795,"is_reserved":false,"is_disabled":false,"rental_uris":{"android":"levelo://app?vid=2da03a91-3395-41c2-911b-a811e76b82f8","ios":"levelo://app?vid=2da03a91-3395-41c2-911b-a811e76b82f8"},"vehicle_type_id":"4","last_reported":1704391721,"current_range_meters":20400,"station_id":"ce4bh492rcd13ifvqdug","pricing_plan_id":"free"},{"bike_id":"2196a83b-3e25-4fa6-967e-c5bbdcf02dc6","system_id":"levelo_inurba_marseille","lat":43.284787,"lon":5.384116,"is_reserved":false,"is_disabled":false,"rental_uris":{"android":"levelo://app?vid=2196a83b-3e25-4fa6-967e-c5bbdcf02dc6","ios":"levelo://app?vid=2196a83b-3e25-4fa6-967e-c5bbdcf02dc6"},"vehicle_type_id":"4","last_reported":1704391721,"current_range_meters":17600,"station_id":"ce4bh512rcd13ifvqe3g","pricing_plan_id":"free"},{"bike_id":"0cb8d5b5-4e09-47cf-8ccd-57e0fd03c9c2","system_id":"levelo_inurba_marseille","lat":43.284787,"lon":5.384116,"is_reserved":false,"is_disabled":false,"rental_uris":{"android":"levelo://app?vid=0cb8d5b5-4e09-47cf-8ccd-57e0fd03c9c2","ios":"levelo://app?vid=0cb8d5b5-4e09-47cf-8ccd-57e0fd03c9c2"},"vehicle_type_id":"4","last_reported":1704391721,"current_range_meters":20000,"station_id":"ce4bh512rcd13ifvqe3g","pricing_plan_id":"free"},{"bike_id":"dc3ca9a7-961a-4253-ac70-5e65f552f2f9","system_id":"levelo_inurba_marseille","lat":43.284793,"lon":5.384113,"is_reserved":false,"is_disabled":false,"rental_uris":{"android":"levelo://app?vid=dc3ca9a7-961a-4253-ac70-5e65f552f2f9","ios":"levelo://app?vid=dc3ca9a7-961a-4253-ac70-5e65f552f2f9"},"vehicle_type_id":"4","last_reported":1704391721,"current_range_meters":4000,"station_id":"ce4bh512rcd13ifvqe3g","pricing_plan_id":"free"},{"bike_id":"bf802048-a483-4d04-bb82-ea65f8c9fd75","system_id":"levelo_inurba_marseille","lat":43.284793,"lon":5.384119,"is_reserved":false,"is_disabled":false,"rental_uris":{"android":"levelo://app?vid=bf802048-a483-4d04-bb82-ea65f8c9fd75","ios":"levelo://app?vid=bf802048-a483-4d04-bb82-ea65f8c9fd75"},"vehicle_type_id":"4","last_reported":1704391721,"current_range_meters":6400,"station_id":"ce4bh512rcd13ifvqe3g","pricing_plan_id":"free"},{"bike_id":"a5a9f89e-532c-4b60-ab70-303c952504cf","system_id":"levelo_inurba_marseille","lat":43.284793,"lon":5.384119,"is_reserved":false,"is_disabled":false,"rental_uris":{"android":"levelo://app?vid=a5a9f89e-532c-4b60-ab70-303c952504cf","ios":"levelo://app?vid=a5a9f89e-532c-4b60-ab70-303c952504cf"},"vehicle_type_id":"4","last_reported":1704391721,"current_range_meters":21200,"station_id":"ce4bh512rcd13ifvqe3g","pricing_plan_id":"free"},{"bike_id":"c60d2147-e9df-4a5d-a980-f89eb1a1f011","system_id":"levelo_inurba_marseille","lat":43.283494,"lon":5.380945,"is_reserved":false,"is_disabled":false,"rental_uris":{"android":"levelo://app?vid=c60d2147-e9df-4a5d-a980-f89eb1a1f011","ios":"levelo://app?vid=c60d2147-e9df-4a5d-a980-f89eb1a1f011"},"vehicle_type_id":"4","last_reported":1704391721,"current_range_meters":4400,"station_id":"ce4bh412rcd13ifvqdr0","pricing_plan_id":"free"},{"bike_id":"cb8555a2-ea41-4047-94ed-557e9f6768c8","system_id":"levelo_inurba_marseille","lat":43.28347,"lon":5.38114,"is_reserved":false,"is_disabled":false,"rental_uris":{"android":"levelo://app?vid=cb8555a2-ea41-4047-94ed-557e9f6768c8","ios":"levelo://app?vid=cb8555a2-ea41-4047-94ed-557e9f6768c8"},"vehicle_type_id":"4","last_reported":1704391721,"current_range_meters":27200,"station_id":"ce4bh412rcd13ifvqdr0","pricing_plan_id":"free"},{"bike_id":"20a49889-20f6-407d-bde3-8b6d65642ca0","system_id":"levelo_inurba_marseille","lat":43.284219,"lon":5.3497,"is_reserved":false,"is_disabled":false,"rental_uris":{"android":"levelo://app?vid=20a49889-20f6-407d-bde3-8b6d65642ca0","ios":"levelo://app?vid=20a49889-20f6-407d-bde3-8b6d65642ca0"},"vehicle_type_id":"4","last_reported":1704391721,"current_range_meters":800,"station_id":"ce4bhbh2rcd13ifvqepg","pricing_plan_id":"free"},{"bike_id":"80e82db6-8150-4f97-aa8d-7506ed5bb412","system_id":"levelo_inurba_marseille","lat":43.292569,"lon":5.409107,"is_reserved":false,"is_disabled":false,"rental_uris":{"android":"levelo://app?vid=80e82db6-8150-4f97-aa8d-7506ed5bb412","ios":"levelo://app?vid=80e82db6-8150-4f97-aa8d-7506ed5bb412"},"vehicle_type_id":"4","last_reported":1704391721,"current_range_meters":30000,"station_id":"ce4bh192rcd13ifvqdc0","pricing_plan_id":"free"},{"bike_id":"b6facbed-e5f5-487d-bc0e-3b4b9819abb8","system_id":"levelo_inurba_marseille","lat":43.283502,"lon":5.386471,"is_reserved":false,"is_disabled":false,"rental_uris":{"android":"levelo://app?vid=b6facbed-e5f5-487d-bc0e-3b4b9819abb8","ios":"levelo://app?vid=b6facbed-e5f5-487d-bc0e-3b4b9819abb8"},"vehicle_type_id":"4","last_reported":1704391721,"current_range_meters":9200,"station_id":"ce4bh492rcd13ifvqdvg","pricing_plan_id":"free"},{"bike_id":"a4c782b3-dd1b-4043-9979-c15e747f65b2","system_id":"levelo_inurba_marseille","lat":43.28039,"lon":5.369297,"is_reserved":false,"is_disabled":false,"rental_uris":{"android":"levelo://app?vid=a4c782b3-dd1b-4043-9979-c15e747f65b2","ios":"levelo://app?vid=a4c782b3-dd1b-4043-9979-c15e747f65b2"},"vehicle_type_id":"4","last_reported":1704391721,"current_range_meters":24000,"station_id":"ce4bha12rcd13ifvqef0","pricing_plan_id":"free"},{"bike_id":"c271d5ea-bb2f-4d51-82ac-3942a8fd86e8","system_id":"levelo_inurba_marseille","lat":43.280382,"lon":5.369291,"is_reserved":false,"is_disabled":false,"rental_uris":{"android":"levelo://app?vid=c271d5ea-bb2f-4d51-82ac-3942a8fd86e8","ios":"levelo://app?vid=c271d5ea-bb2f-4d51-82ac-3942a8fd86e8"},"vehicle_type_id":"4","last_reported":1704391721,"current_range_meters":12000,"station_id":"ce4bha12rcd13ifvqef0","pricing_plan_id":"free"},{"bike_id":"22af5be5-a156-4c50-b517-c7d3041396bb","system_id":"levelo_inurba_marseille","lat":43.283502,"lon":5.386471,"is_reserved":false,"is_disabled":false,"rental_uris":{"android":"levelo://app?vid=22af5be5-a156-4c50-b517-c7d3041396bb","ios":"levelo://app?vid=22af5be5-a156-4c50-b517-c7d3041396bb"},"vehicle_type_id":"4","last_reported":1704391721,"current_range_meters":23600,"station_id":"ce4bh492rcd13ifvqdvg","pricing_plan_id":"free"},{"bike_id":"ae455cdf-d3bd-4ee2-af2b-18fa45956943","system_id":"levelo_inurba_marseille","lat":43.280382,"lon":5.369291,"is_reserved":false,"is_disabled":false,"rental_uris":{"android":"levelo://app?vid=ae455cdf-d3bd-4ee2-af2b-18fa45956943","ios":"levelo://app?vid=ae455cdf-d3bd-4ee2-af2b-18fa45956943"},"vehicle_type_id":"4","last_reported":1704391721,"current_range_meters":25200,"station_id":"ce4bha12rcd13ifvqef0","pricing_plan_id":"free"},{"bike_id":"45ec4a6e-0aa5-422a-ad58-722f21d73ebc","system_id":"levelo_inurba_marseille","lat":43.28039,"lon":5.369297,"is_reserved":false,"is_disabled":false,"rental_uris":{"android":"levelo://app?vid=45ec4a6e-0aa5-422a-ad58-722f21d73ebc","ios":"levelo://app?vid=45ec4a6e-0aa5-422a-ad58-722f21d73ebc"},"vehicle_type_id":"4","last_reported":1704391721,"current_range_meters":10000,"station_id":"ce4bha12rcd13ifvqef0","pricing_plan_id":"free"},{"bike_id":"1321325c-f443-4d86-8e06-8e5c60e34f43","system_id":"levelo_inurba_marseille","lat":43.29046,"lon":5.39947,"is_reserved":false,"is_disabled":false,"rental_uris":{"android":"levelo://app?vid=1321325c-f443-4d86-8e06-8e5c60e34f43","ios":"levelo://app?vid=1321325c-f443-4d86-8e06-8e5c60e34f43"},"vehicle_type_id":"4","last_reported":1704391721,"current_range_meters":7200,"station_id":"ce4bh392rcd13ifvqdm0","pricing_plan_id":"free"},{"bike_id":"9139c037-7da8-4d20-86ee-e519983ace8f","system_id":"levelo_inurba_marseille","lat":43.29041,"lon":5.399634,"is_reserved":false,"is_disabled":false,"rental_uris":{"android":"levelo://app?vid=9139c037-7da8-4d20-86ee-e519983ace8f","ios":"levelo://app?vid=9139c037-7da8-4d20-86ee-e519983ace8f"},"vehicle_type_id":"4","last_reported":1704391721,"current_range_meters":1600,"station_id":"ce4bh392rcd13ifvqdm0","pricing_plan_id":"free"},{"bike_id":"6023885d-4a64-4cba-aee3-9e5b8fb29dd2","system_id":"levelo_inurba_marseille","lat":43.296263,"lon":5.40601,"is_reserved":false,"is_disabled":false,"rental_uris":{"android":"levelo://app?vid=6023885d-4a64-4cba-aee3-9e5b8fb29dd2","ios":"levelo://app?vid=6023885d-4a64-4cba-aee3-9e5b8fb29dd2"},"vehicle_type_id":"4","last_reported":1704391721,"current_range_meters":2000,"station_id":"ce4bh0h2rcd13ifvqd60","pricing_plan_id":"free"},{"bike_id":"42021d35-2495-48ee-be25-0f5e58c0081a","system_id":"levelo_inurba_marseille","lat":43.296263,"lon":5.40601,"is_reserved":false,"is_disabled":false,"rental_uris":{"android":"levelo://app?vid=42021d35-2495-48ee-be25-0f5e58c0081a","ios":"levelo://app?vid=42021d35-2495-48ee-be25-0f5e58c0081a"},"vehicle_type_id":"4","last_reported":1704391721,"current_range_meters":19200,"station_id":"ce4bh0h2rcd13ifvqd60","pricing_plan_id":"free"},{"bike_id":"87dfbe24-3e8e-4291-b222-9fa7b3b23b5b","system_id":"levelo_inurba_marseille","lat":43.296263,"lon":5.40601,"is_reserved":false,"is_disabled":false,"rental_uris":{"android":"levelo://app?vid=87dfbe24-3e8e-4291-b222-9fa7b3b23b5b","ios":"levelo://app?vid=87dfbe24-3e8e-4291-b222-9fa7b3b23b5b"},"vehicle_type_id":"4","last_reported":1704391721,"current_range_meters":11200,"station_id":"ce4bh0h2rcd13ifvqd60","pricing_plan_id":"free"},{"bike_id":"f3f7c31d-5124-4b26-beb5-7eae2aae76d6","system_id":"levelo_inurba_marseille","lat":43.28567,"lon":5.39504,"is_reserved":false,"is_disabled":false,"rental_uris":{"android":"levelo://app?vid=f3f7c31d-5124-4b26-beb5-7eae2aae76d6","ios":"levelo://app?vid=f3f7c31d-5124-4b26-beb5-7eae2aae76d6"},"vehicle_type_id":"4","last_reported":1704391721,"current_range_meters":26800,"station_id":"ce4bh292rcd13ifvqdg0","pricing_plan_id":"free"},{"bike_id":"71b7cb96-ba4b-4d86-9237-dfba3843d2b3","system_id":"levelo_inurba_marseille","lat":43.326605,"lon":5.409903,"is_reserved":false,"is_disabled":false,"rental_uris":{"android":"levelo://app?vid=71b7cb96-ba4b-4d86-9237-dfba3843d2b3","ios":"levelo://app?vid=71b7cb96-ba4b-4d86-9237-dfba3843d2b3"},"vehicle_type_id":"4","last_reported":1704391721,"current_range_meters":16800,"station_id":"ce4bhpp2rcd13ifvqhgg","pricing_plan_id":"free"},{"bike_id":"437c640e-bc46-4d9a-9834-1cd2afab615c","system_id":"levelo_inurba_marseille","lat":43.326605,"lon":5.409903,"is_reserved":false,"is_disabled":false,"rental_uris":{"android":"levelo://app?vid=437c640e-bc46-4d9a-9834-1cd2afab615c","ios":"levelo://app?vid=437c640e-bc46-4d9a-9834-1cd2afab615c"},"vehicle_type_id":"4","last_reported":1704391721,"current_range_meters":26400,"station_id":"ce4bhpp2rcd13ifvqhgg","pricing_plan_id":"free"},{"bike_id":"970baa66-191d-47bc-836e-2f2a513b5d6b","system_id":"levelo_inurba_marseille","lat":43.2871,"lon":5.3998,"is_reserved":false,"is_disabled":false,"rental_uris":{"android":"levelo://app?vid=970baa66-191d-47bc-836e-2f2a513b5d6b","ios":"levelo://app?vid=970baa66-191d-47bc-836e-2f2a513b5d6b"},"vehicle_type_id":"4","last_reported":1704391721,"current_range_meters":20000,"station_id":"ce4bho92rcd13ifvqh3g","pricing_plan_id":"free"},{"bike_id":"fae0f057-7039-4707-9d29-2c97f0262daa","system_id":"levelo_inurba_marseille","lat":43.28709,"lon":5.39981,"is_reserved":false,"is_disabled":false,"rental_uris":{"android":"levelo://app?vid=fae0f057-7039-4707-9d29-2c97f0262daa","ios":"levelo://app?vid=fae0f057-7039-4707-9d29-2c97f0262daa"},"vehicle_type_id":"4","last_reported":1704391721,"current_range_meters":31200,"station_id":"ce4bho92rcd13ifvqh3g","pricing_plan_id":"free"},{"bike_id":"91323259-bec0-456d-a37c-e69eb6672728","system_id":"levelo_inurba_marseille","lat":43.2871,"lon":5.39986,"is_reserved":false,"is_disabled":false,"rental_uris":{"android":"levelo://app?vid=91323259-bec0-456d-a37c-e69eb6672728","ios":"levelo://app?vid=91323259-bec0-456d-a37c-e69eb6672728"},"vehicle_type_id":"4","last_reported":1704391721,"current_range_meters":28000,"station_id":"ce4bho92rcd13ifvqh3g","pricing_plan_id":"free"},{"bike_id":"05700829-f717-41c6-ad33-9f4e5c379dc0","system_id":"levelo_inurba_marseille","lat":43.287154,"lon":5.399979,"is_reserved":false,"is_disabled":false,"rental_uris":{"android":"levelo://app?vid=05700829-f717-41c6-ad33-9f4e5c379dc0","ios":"levelo://app?vid=05700829-f717-41c6-ad33-9f4e5c379dc0"},"vehicle_type_id":"4","last_reported":1704391721,"current_range_meters":30400,"station_id":"ce4bho92rcd13ifvqh3g","pricing_plan_id":"free"},{"bike_id":"7a3e9f44-3be1-4791-973d-63e3502c9159","system_id":"levelo_inurba_marseille","lat":43.28696,"lon":5.39969,"is_reserved":false,"is_disabled":false,"rental_uris":{"android":"levelo://app?vid=7a3e9f44-3be1-4791-973d-63e3502c9159","ios":"levelo://app?vid=7a3e9f44-3be1-4791-973d-63e3502c9159"},"vehicle_type_id":"4","last_reported":1704391721,"current_range_meters":20800,"station_id":"ce4bho92rcd13ifvqh3g","pricing_plan_id":"free"},{"bike_id":"c99555b3-5136-46fc-b572-8dbc2383d63b","system_id":"levelo_inurba_marseille","lat":43.287154,"lon":5.399979,"is_reserved":false,"is_disabled":false,"rental_uris":{"android":"levelo://app?vid=c99555b3-5136-46fc-b572-8dbc2383d63b","ios":"levelo://app?vid=c99555b3-5136-46fc-b572-8dbc2383d63b"},"vehicle_type_id":"4","last_reported":1704391721,"current_range_meters":27600,"station_id":"ce4bho92rcd13ifvqh3g","pricing_plan_id":"free"},{"bike_id":"e31fc44e-51c4-4ebc-b850-ead99ac8d5ef","system_id":"levelo_inurba_marseille","lat":43.28696,"lon":5.39973,"is_reserved":false,"is_disabled":false,"rental_uris":{"android":"levelo://app?vid=e31fc44e-51c4-4ebc-b850-ead99ac8d5ef","ios":"levelo://app?vid=e31fc44e-51c4-4ebc-b850-ead99ac8d5ef"},"vehicle_type_id":"4","last_reported":1704391721,"current_range_meters":17600,"station_id":"ce4bho92rcd13ifvqh3g","pricing_plan_id":"free"},{"bike_id":"f728d53e-95f8-4e2f-b78b-a7c6a6cb172e","system_id":"levelo_inurba_marseille","lat":43.28701,"lon":5.39981,"is_reserved":false,"is_disabled":false,"rental_uris":{"android":"levelo://app?vid=f728d53e-95f8-4e2f-b78b-a7c6a6cb172e","ios":"levelo://app?vid=f728d53e-95f8-4e2f-b78b-a7c6a6cb172e"},"vehicle_type_id":"4","last_reported":1704391721,"current_range_meters":2400,"station_id":"ce4bho92rcd13ifvqh3g","pricing_plan_id":"free"},{"bike_id":"1a0f02a3-12cd-48da-8609-3e4c4b9bbbd6","system_id":"levelo_inurba_marseille","lat":43.287,"lon":5.3998,"is_reserved":false,"is_disabled":false,"rental_uris":{"android":"levelo://app?vid=1a0f02a3-12cd-48da-8609-3e4c4b9bbbd6","ios":"levelo://app?vid=1a0f02a3-12cd-48da-8609-3e4c4b9bbbd6"},"vehicle_type_id":"4","last_reported":1704391721,"current_range_meters":31200,"station_id":"ce4bho92rcd13ifvqh3g","pricing_plan_id":"free"},{"bike_id":"285b96aa-feb9-4ef1-8cf5-5dac27dd94bf","system_id":"levelo_inurba_marseille","lat":43.28702,"lon":5.39984,"is_reserved":false,"is_disabled":false,"rental_uris":{"android":"levelo://app?vid=285b96aa-feb9-4ef1-8cf5-5dac27dd94bf","ios":"levelo://app?vid=285b96aa-feb9-4ef1-8cf5-5dac27dd94bf"},"vehicle_type_id":"4","last_reported":1704391721,"current_range_meters":24800,"station_id":"ce4bho92rcd13ifvqh3g","pricing_plan_id":"free"},{"bike_id":"35c2c384-5277-46fe-af8c-850c19a9e507","system_id":"levelo_inurba_marseille","lat":43.287154,"lon":5.399979,"is_reserved":false,"is_disabled":false,"rental_uris":{"android":"levelo://app?vid=35c2c384-5277-46fe-af8c-850c19a9e507","ios":"levelo://app?vid=35c2c384-5277-46fe-af8c-850c19a9e507"},"vehicle_type_id":"4","last_reported":1704391721,"current_range_meters":6800,"station_id":"ce4bho92rcd13ifvqh3g","pricing_plan_id":"free"},{"bike_id":"3b18eb8d-48d8-440e-92bf-765e1cc62f41","system_id":"levelo_inurba_marseille","lat":43.287035,"lon":5.399877,"is_reserved":false,"is_disabled":false,"rental_uris":{"android":"levelo://app?vid=3b18eb8d-48d8-440e-92bf-765e1cc62f41","ios":"levelo://app?vid=3b18eb8d-48d8-440e-92bf-765e1cc62f41"},"vehicle_type_id":"4","last_reported":1704391721,"current_range_meters":19200,"station_id":"","pricing_plan_id":"free"},{"bike_id":"c529d1e1-d554-41c7-b1d7-3436da867a38","system_id":"levelo_inurba_marseille","lat":43.287154,"lon":5.399979,"is_reserved":false,"is_disabled":false,"rental_uris":{"android":"levelo://app?vid=c529d1e1-d554-41c7-b1d7-3436da867a38","ios":"levelo://app?vid=c529d1e1-d554-41c7-b1d7-3436da867a38"},"vehicle_type_id":"4","last_reported":1704391721,"current_range_meters":31200,"station_id":"ce4bho92rcd13ifvqh3g","pricing_plan_id":"free"},{"bike_id":"317cbc77-fad8-4b96-b8ce-487140d2deae","system_id":"levelo_inurba_marseille","lat":43.28703,"lon":5.39988,"is_reserved":false,"is_disabled":false,"rental_uris":{"android":"levelo://app?vid=317cbc77-fad8-4b96-b8ce-487140d2deae","ios":"levelo://app?vid=317cbc77-fad8-4b96-b8ce-487140d2deae"},"vehicle_type_id":"4","last_reported":1704391721,"current_range_meters":19600,"station_id":"ce4bho92rcd13ifvqh3g","pricing_plan_id":"free"},{"bike_id":"90f9c66b-76df-468c-99ff-777f8289ad12","system_id":"levelo_inurba_marseille","lat":43.28698,"lon":5.39981,"is_reserved":false,"is_disabled":false,"rental_uris":{"android":"levelo://app?vid=90f9c66b-76df-468c-99ff-777f8289ad12","ios":"levelo://app?vid=90f9c66b-76df-468c-99ff-777f8289ad12"},"vehicle_type_id":"4","last_reported":1704391721,"current_range_meters":26800,"station_id":"ce4bho92rcd13ifvqh3g","pricing_plan_id":"free"},{"bike_id":"e44aa5d1-508e-487d-8cc3-2ad3f5513e9a","system_id":"levelo_inurba_marseille","lat":43.28699,"lon":5.39984,"is_reserved":false,"is_disabled":false,"rental_uris":{"android":"levelo://app?vid=e44aa5d1-508e-487d-8cc3-2ad3f5513e9a","ios":"levelo://app?vid=e44aa5d1-508e-487d-8cc3-2ad3f5513e9a"},"vehicle_type_id":"4","last_reported":1704391721,"current_range_meters":9200,"station_id":"ce4bho92rcd13ifvqh3g","pricing_plan_id":"free"},{"bike_id":"83ff9009-4a95-498a-89d0-f00e6ce62eeb","system_id":"levelo_inurba_marseille","lat":43.287154,"lon":5.399979,"is_reserved":false,"is_disabled":false,"rental_uris":{"android":"levelo://app?vid=83ff9009-4a95-498a-89d0-f00e6ce62eeb","ios":"levelo://app?vid=83ff9009-4a95-498a-89d0-f00e6ce62eeb"},"vehicle_type_id":"4","last_reported":1704391721,"current_range_meters":30400,"station_id":"ce4bho92rcd13ifvqh3g","pricing_plan_id":"free"},{"bike_id":"641ad07e-e4f4-4c35-b836-7044ea9004d5","system_id":"levelo_inurba_marseille","lat":43.28692,"lon":5.3998,"is_reserved":false,"is_disabled":false,"rental_uris":{"android":"levelo://app?vid=641ad07e-e4f4-4c35-b836-7044ea9004d5","ios":"levelo://app?vid=641ad07e-e4f4-4c35-b836-7044ea9004d5"},"vehicle_type_id":"4","last_reported":1704391721,"current_range_meters":18000,"station_id":"ce4bho92rcd13ifvqh3g","pricing_plan_id":"free"},{"bike_id":"5610901b-c191-4a07-b58d-938c82eefe6d","system_id":"levelo_inurba_marseille","lat":43.320045,"lon":5.415046,"is_reserved":false,"is_disabled":false,"rental_uris":{"android":"levelo://app?vid=5610901b-c191-4a07-b58d-938c82eefe6d","ios":"levelo://app?vid=5610901b-c191-4a07-b58d-938c82eefe6d"},"vehicle_type_id":"4","last_reported":1704391721,"current_range_meters":8800,"station_id":"ce4bhq92rcd13ifvqhkg","pricing_plan_id":"free"},{"bike_id":"ca80aa51-e76a-4435-b4a0-2c6ed02bfabc","system_id":"levelo_inurba_marseille","lat":43.320045,"lon":5.415046,"is_reserved":false,"is_disabled":false,"rental_uris":{"android":"levelo://app?vid=ca80aa51-e76a-4435-b4a0-2c6ed02bfabc","ios":"levelo://app?vid=ca80aa51-e76a-4435-b4a0-2c6ed02bfabc"},"vehicle_type_id":"4","last_reported":1704391721,"current_range_meters":4400,"station_id":"ce4bhq92rcd13ifvqhkg","pricing_plan_id":"free"},{"bike_id":"50a2065a-fe18-4aa2-ad97-f81cc06b5fd2","system_id":"levelo_inurba_marseille","lat":43.320045,"lon":5.415048,"is_reserved":false,"is_disabled":false,"rental_uris":{"android":"levelo://app?vid=50a2065a-fe18-4aa2-ad97-f81cc06b5fd2","ios":"levelo://app?vid=50a2065a-fe18-4aa2-ad97-f81cc06b5fd2"},"vehicle_type_id":"4","last_reported":1704391721,"current_range_meters":23200,"station_id":"ce4bhq92rcd13ifvqhkg","pricing_plan_id":"free"},{"bike_id":"628b292e-043f-4834-9e12-e1d8a7d4533a","system_id":"levelo_inurba_marseille","lat":43.2797,"lon":5.38736,"is_reserved":false,"is_disabled":false,"rental_uris":{"android":"levelo://app?vid=628b292e-043f-4834-9e12-e1d8a7d4533a","ios":"levelo://app?vid=628b292e-043f-4834-9e12-e1d8a7d4533a"},"vehicle_type_id":"4","last_reported":1704391721,"current_range_meters":0,"station_id":"ce4bhg12rcd13ifvqf80","pricing_plan_id":"free"},{"bike_id":"0297f83b-a409-4eb7-9a88-61074f0f5b13","system_id":"levelo_inurba_marseille","lat":43.292571,"lon":5.409107,"is_reserved":false,"is_disabled":false,"rental_uris":{"android":"levelo://app?vid=0297f83b-a409-4eb7-9a88-61074f0f5b13","ios":"levelo://app?vid=0297f83b-a409-4eb7-9a88-61074f0f5b13"},"vehicle_type_id":"4","last_reported":1704391721,"current_range_meters":8000,"station_id":"ce4bh192rcd13ifvqdc0","pricing_plan_id":"free"},{"bike_id":"cae3c3ae-103b-46a0-8a34-edd370a57287","system_id":"levelo_inurba_marseille","lat":43.292571,"lon":5.409107,"is_reserved":false,"is_disabled":false,"rental_uris":{"android":"levelo://app?vid=cae3c3ae-103b-46a0-8a34-edd370a57287","ios":"levelo://app?vid=cae3c3ae-103b-46a0-8a34-edd370a57287"},"vehicle_type_id":"4","last_reported":1704391721,"current_range_meters":7200,"station_id":"ce4bh192rcd13ifvqdc0","pricing_plan_id":"free"},{"bike_id":"dc19599c-7008-4ee2-ab5e-72acec6650f4","system_id":"levelo_inurba_marseille","lat":43.292571,"lon":5.409107,"is_reserved":false,"is_disabled":false,"rental_uris":{"android":"levelo://app?vid=dc19599c-7008-4ee2-ab5e-72acec6650f4","ios":"levelo://app?vid=dc19599c-7008-4ee2-ab5e-72acec6650f4"},"vehicle_type_id":"4","last_reported":1704391721,"current_range_meters":4400,"station_id":"ce4bh192rcd13ifvqdc0","pricing_plan_id":"free"},{"bike_id":"a41b1152-2743-45ee-b352-31446bd1ff5a","system_id":"levelo_inurba_marseille","lat":43.28581,"lon":5.40228,"is_reserved":false,"is_disabled":false,"rental_uris":{"android":"levelo://app?vid=a41b1152-2743-45ee-b352-31446bd1ff5a","ios":"levelo://app?vid=a41b1152-2743-45ee-b352-31446bd1ff5a"},"vehicle_type_id":"4","last_reported":1704391721,"current_range_meters":9600,"station_id":"","pricing_plan_id":"free"},{"bike_id":"d3f25bcc-da64-44bb-8495-bf854b2f447f","system_id":"levelo_inurba_marseille","lat":43.324355,"lon":5.41656,"is_reserved":false,"is_disabled":false,"rental_uris":{"android":"levelo://app?vid=d3f25bcc-da64-44bb-8495-bf854b2f447f","ios":"levelo://app?vid=d3f25bcc-da64-44bb-8495-bf854b2f447f"},"vehicle_type_id":"4","last_reported":1704391721,"current_range_meters":17200,"station_id":"","pricing_plan_id":"free"},{"bike_id":"562e82c7-a7b0-44ea-a23e-310679c7b889","system_id":"levelo_inurba_marseille","lat":43.303837,"lon":5.418724,"is_reserved":false,"is_disabled":false,"rental_uris":{"android":"levelo://app?vid=562e82c7-a7b0-44ea-a23e-310679c7b889","ios":"levelo://app?vid=562e82c7-a7b0-44ea-a23e-310679c7b889"},"vehicle_type_id":"4","last_reported":1704391721,"current_range_meters":9600,"station_id":"ce4bhop2rcd13ifvqh7g","pricing_plan_id":"free"},{"bike_id":"0892d35a-7e73-4e98-9820-6b31b73793f5","system_id":"levelo_inurba_marseille","lat":43.303837,"lon":5.418724,"is_reserved":false,"is_disabled":false,"rental_uris":{"android":"levelo://app?vid=0892d35a-7e73-4e98-9820-6b31b73793f5","ios":"levelo://app?vid=0892d35a-7e73-4e98-9820-6b31b73793f5"},"vehicle_type_id":"4","last_reported":1704391721,"current_range_meters":8000,"station_id":"ce4bhop2rcd13ifvqh7g","pricing_plan_id":"free"},{"bike_id":"4968d964-3344-4faa-ab99-7ab716c4dba7","system_id":"levelo_inurba_marseille","lat":43.278401,"lon":5.392152,"is_reserved":false,"is_disabled":false,"rental_uris":{"android":"levelo://app?vid=4968d964-3344-4faa-ab99-7ab716c4dba7","ios":"levelo://app?vid=4968d964-3344-4faa-ab99-7ab716c4dba7"},"vehicle_type_id":"4","last_reported":1704391721,"current_range_meters":16800,"station_id":"ce4bhjp2rcd13ifvqga0","pricing_plan_id":"free"},{"bike_id":"7e180b50-cf20-4932-886a-a458741af8b8","system_id":"levelo_inurba_marseille","lat":43.278401,"lon":5.392152,"is_reserved":false,"is_disabled":false,"rental_uris":{"android":"levelo://app?vid=7e180b50-cf20-4932-886a-a458741af8b8","ios":"levelo://app?vid=7e180b50-cf20-4932-886a-a458741af8b8"},"vehicle_type_id":"4","last_reported":1704391721,"current_range_meters":6400,"station_id":"ce4bhjp2rcd13ifvqga0","pricing_plan_id":"free"},{"bike_id":"d9e5b746-cc8b-49a6-a930-7634632938dd","system_id":"levelo_inurba_marseille","lat":43.303837,"lon":5.418724,"is_reserved":false,"is_disabled":false,"rental_uris":{"android":"levelo://app?vid=d9e5b746-cc8b-49a6-a930-7634632938dd","ios":"levelo://app?vid=d9e5b746-cc8b-49a6-a930-7634632938dd"},"vehicle_type_id":"4","last_reported":1704391721,"current_range_meters":20000,"station_id":"ce4bhop2rcd13ifvqh7g","pricing_plan_id":"free"},{"bike_id":"1d2a886b-b752-4932-b7a8-41ce16106368","system_id":"levelo_inurba_marseille","lat":43.275625,"lon":5.384392,"is_reserved":false,"is_disabled":false,"rental_uris":{"android":"levelo://app?vid=1d2a886b-b752-4932-b7a8-41ce16106368","ios":"levelo://app?vid=1d2a886b-b752-4932-b7a8-41ce16106368"},"vehicle_type_id":"4","last_reported":1704391721,"current_range_meters":0,"station_id":"ce4bhh92rcd13ifvqfi0","pricing_plan_id":"free"},{"bike_id":"1a7ba2eb-823a-4f5a-aa9d-a3ecc1548d7b","system_id":"levelo_inurba_marseille","lat":43.278128,"lon":5.407195,"is_reserved":false,"is_disabled":false,"rental_uris":{"android":"levelo://app?vid=1a7ba2eb-823a-4f5a-aa9d-a3ecc1548d7b","ios":"levelo://app?vid=1a7ba2eb-823a-4f5a-aa9d-a3ecc1548d7b"},"vehicle_type_id":"4","last_reported":1704391721,"current_range_meters":6800,"station_id":"ce4bhnh2rcd13ifvqgtg","pricing_plan_id":"free"},{"bike_id":"31d59614-a4d9-44ab-a8f8-9f8f40d1aa74","system_id":"levelo_inurba_marseille","lat":43.310785,"lon":5.424305,"is_reserved":false,"is_disabled":false,"rental_uris":{"android":"levelo://app?vid=31d59614-a4d9-44ab-a8f8-9f8f40d1aa74","ios":"levelo://app?vid=31d59614-a4d9-44ab-a8f8-9f8f40d1aa74"},"vehicle_type_id":"4","last_reported":1704391721,"current_range_meters":12800,"station_id":"ce4bhp92rcd13ifvqhag","pricing_plan_id":"free"},{"bike_id":"7e20e46a-cb6e-4167-bfe5-1fdd3fcf844f","system_id":"levelo_inurba_marseille","lat":43.31715,"lon":5.424035,"is_reserved":false,"is_disabled":false,"rental_uris":{"android":"levelo://app?vid=7e20e46a-cb6e-4167-bfe5-1fdd3fcf844f","ios":"levelo://app?vid=7e20e46a-cb6e-4167-bfe5-1fdd3fcf844f"},"vehicle_type_id":"4","last_reported":1704391721,"current_range_meters":0,"station_id":"ce4bhp92rcd13ifvqhbg","pricing_plan_id":"free"},{"bike_id":"0fd89fa2-9acc-4b19-80e2-b2843721e178","system_id":"levelo_inurba_marseille","lat":43.310785,"lon":5.424305,"is_reserved":false,"is_disabled":false,"rental_uris":{"android":"levelo://app?vid=0fd89fa2-9acc-4b19-80e2-b2843721e178","ios":"levelo://app?vid=0fd89fa2-9acc-4b19-80e2-b2843721e178"},"vehicle_type_id":"4","last_reported":1704391721,"current_range_meters":800,"station_id":"ce4bhp92rcd13ifvqhag","pricing_plan_id":"free"},{"bike_id":"8c635896-affa-471d-a56a-a0fde4f03aab","system_id":"levelo_inurba_marseille","lat":43.304096,"lon":5.425385,"is_reserved":false,"is_disabled":false,"rental_uris":{"android":"levelo://app?vid=8c635896-affa-471d-a56a-a0fde4f03aab","ios":"levelo://app?vid=8c635896-affa-471d-a56a-a0fde4f03aab"},"vehicle_type_id":"4","last_reported":1704391721,"current_range_meters":25600,"station_id":"ce4bhoh2rcd13ifvqh6g","pricing_plan_id":"free"},{"bike_id":"734da6c8-7f0a-4ceb-b582-56cf1b68c29c","system_id":"levelo_inurba_marseille","lat":43.30412,"lon":5.42551,"is_reserved":false,"is_disabled":false,"rental_uris":{"android":"levelo://app?vid=734da6c8-7f0a-4ceb-b582-56cf1b68c29c","ios":"levelo://app?vid=734da6c8-7f0a-4ceb-b582-56cf1b68c29c"},"vehicle_type_id":"4","last_reported":1704391721,"current_range_meters":26000,"station_id":"ce4bhoh2rcd13ifvqh6g","pricing_plan_id":"free"},{"bike_id":"1e2dca48-688c-4b7e-9860-cff8ca5c3230","system_id":"levelo_inurba_marseille","lat":43.295523,"lon":5.422926,"is_reserved":false,"is_disabled":false,"rental_uris":{"android":"levelo://app?vid=1e2dca48-688c-4b7e-9860-cff8ca5c3230","ios":"levelo://app?vid=1e2dca48-688c-4b7e-9860-cff8ca5c3230"},"vehicle_type_id":"4","last_reported":1704391721,"current_range_meters":27200,"station_id":"ce4bhph2rcd13ifvqhdg","pricing_plan_id":"free"},{"bike_id":"92719b29-bcd6-42da-8b27-9d90bd69c1c9","system_id":"levelo_inurba_marseille","lat":43.295511,"lon":5.422926,"is_reserved":false,"is_disabled":false,"rental_uris":{"android":"levelo://app?vid=92719b29-bcd6-42da-8b27-9d90bd69c1c9","ios":"levelo://app?vid=92719b29-bcd6-42da-8b27-9d90bd69c1c9"},"vehicle_type_id":"4","last_reported":1704391721,"current_range_meters":20400,"station_id":"ce4bhph2rcd13ifvqhdg","pricing_plan_id":"free"},{"bike_id":"8bfef789-1ee1-4dff-807d-7dd49d3f347c","system_id":"levelo_inurba_marseille","lat":43.278128,"lon":5.407195,"is_reserved":false,"is_disabled":false,"rental_uris":{"android":"levelo://app?vid=8bfef789-1ee1-4dff-807d-7dd49d3f347c","ios":"levelo://app?vid=8bfef789-1ee1-4dff-807d-7dd49d3f347c"},"vehicle_type_id":"4","last_reported":1704391721,"current_range_meters":2800,"station_id":"ce4bhnh2rcd13ifvqgtg","pricing_plan_id":"free"},{"bike_id":"b202a7fa-34da-41ad-bda9-5676f3291552","system_id":"levelo_inurba_marseille","lat":43.278128,"lon":5.407195,"is_reserved":false,"is_disabled":false,"rental_uris":{"android":"levelo://app?vid=b202a7fa-34da-41ad-bda9-5676f3291552","ios":"levelo://app?vid=b202a7fa-34da-41ad-bda9-5676f3291552"},"vehicle_type_id":"4","last_reported":1704391721,"current_range_meters":26400,"station_id":"ce4bhnh2rcd13ifvqgtg","pricing_plan_id":"free"},{"bike_id":"b30a4e6b-7029-44a0-9046-8a5bf7108ec0","system_id":"levelo_inurba_marseille","lat":43.278128,"lon":5.407195,"is_reserved":false,"is_disabled":false,"rental_uris":{"android":"levelo://app?vid=b30a4e6b-7029-44a0-9046-8a5bf7108ec0","ios":"levelo://app?vid=b30a4e6b-7029-44a0-9046-8a5bf7108ec0"},"vehicle_type_id":"4","last_reported":1704391721,"current_range_meters":23600,"station_id":"ce4bhnh2rcd13ifvqgtg","pricing_plan_id":"free"},{"bike_id":"551af9f4-6a9b-4035-9c1f-9fbcfbeead6a","system_id":"levelo_inurba_marseille","lat":43.278128,"lon":5.407195,"is_reserved":false,"is_disabled":false,"rental_uris":{"android":"levelo://app?vid=551af9f4-6a9b-4035-9c1f-9fbcfbeead6a","ios":"levelo://app?vid=551af9f4-6a9b-4035-9c1f-9fbcfbeead6a"},"vehicle_type_id":"4","last_reported":1704391721,"current_range_meters":13600,"station_id":"ce4bhnh2rcd13ifvqgtg","pricing_plan_id":"free"},{"bike_id":"21a74610-979a-4a47-9fa8-93a4cc4a4591","system_id":"levelo_inurba_marseille","lat":43.269467,"lon":5.386439,"is_reserved":false,"is_disabled":false,"rental_uris":{"android":"levelo://app?vid=21a74610-979a-4a47-9fa8-93a4cc4a4591","ios":"levelo://app?vid=21a74610-979a-4a47-9fa8-93a4cc4a4591"},"vehicle_type_id":"4","last_reported":1704391721,"current_range_meters":18800,"station_id":"ce4bhh92rcd13ifvqfh0","pricing_plan_id":"free"},{"bike_id":"37517b98-bc0b-49e8-b765-63da09e49767","system_id":"levelo_inurba_marseille","lat":43.26681,"lon":5.382694,"is_reserved":false,"is_disabled":false,"rental_uris":{"android":"levelo://app?vid=37517b98-bc0b-49e8-b765-63da09e49767","ios":"levelo://app?vid=37517b98-bc0b-49e8-b765-63da09e49767"},"vehicle_type_id":"4","last_reported":1704391721,"current_range_meters":13200,"station_id":"ce4bhg92rcd13ifvqf90","pricing_plan_id":"free"},{"bike_id":"efd959c6-aa55-4971-8e4b-58f77f7bb6f8","system_id":"levelo_inurba_marseille","lat":43.26681,"lon":5.382694,"is_reserved":false,"is_disabled":false,"rental_uris":{"android":"levelo://app?vid=efd959c6-aa55-4971-8e4b-58f77f7bb6f8","ios":"levelo://app?vid=efd959c6-aa55-4971-8e4b-58f77f7bb6f8"},"vehicle_type_id":"4","last_reported":1704391721,"current_range_meters":21200,"station_id":"ce4bhg92rcd13ifvqf90","pricing_plan_id":"free"},{"bike_id":"329968eb-a6d6-4310-937d-222ba01978c3","system_id":"levelo_inurba_marseille","lat":43.265714,"lon":5.372891,"is_reserved":false,"is_disabled":false,"rental_uris":{"android":"levelo://app?vid=329968eb-a6d6-4310-937d-222ba01978c3","ios":"levelo://app?vid=329968eb-a6d6-4310-937d-222ba01978c3"},"vehicle_type_id":"4","last_reported":1704391721,"current_range_meters":12400,"station_id":"ce4bhg12rcd13ifvqf70","pricing_plan_id":"free"},{"bike_id":"e0164e15-88ba-4d72-a402-8b4564fa809b","system_id":"levelo_inurba_marseille","lat":43.267966,"lon":5.393976,"is_reserved":false,"is_disabled":false,"rental_uris":{"android":"levelo://app?vid=e0164e15-88ba-4d72-a402-8b4564fa809b","ios":"levelo://app?vid=e0164e15-88ba-4d72-a402-8b4564fa809b"},"vehicle_type_id":"4","last_reported":1704391721,"current_range_meters":19200,"station_id":"ce4bhh12rcd13ifvqfg0","pricing_plan_id":"free"},{"bike_id":"3eb1a594-f08a-48a5-88f3-6df80e2382ed","system_id":"levelo_inurba_marseille","lat":43.26939,"lon":5.40249,"is_reserved":false,"is_disabled":false,"rental_uris":{"android":"levelo://app?vid=3eb1a594-f08a-48a5-88f3-6df80e2382ed","ios":"levelo://app?vid=3eb1a594-f08a-48a5-88f3-6df80e2382ed"},"vehicle_type_id":"4","last_reported":1704391721,"current_range_meters":4400,"station_id":"cjm6bp8fraef2m0cb0m0","pricing_plan_id":"free"},{"bike_id":"98cb6fcd-f6fa-4520-9ecc-57a2531b71ff","system_id":"levelo_inurba_marseille","lat":43.26939,"lon":5.40249,"is_reserved":false,"is_disabled":false,"rental_uris":{"android":"levelo://app?vid=98cb6fcd-f6fa-4520-9ecc-57a2531b71ff","ios":"levelo://app?vid=98cb6fcd-f6fa-4520-9ecc-57a2531b71ff"},"vehicle_type_id":"4","last_reported":1704391721,"current_range_meters":20400,"station_id":"cjm6bp8fraef2m0cb0m0","pricing_plan_id":"free"},{"bike_id":"51b92d93-2084-4847-8d6d-88b5504cf01a","system_id":"levelo_inurba_marseille","lat":43.26949,"lon":5.40262,"is_reserved":false,"is_disabled":false,"rental_uris":{"android":"levelo://app?vid=51b92d93-2084-4847-8d6d-88b5504cf01a","ios":"levelo://app?vid=51b92d93-2084-4847-8d6d-88b5504cf01a"},"vehicle_type_id":"4","last_reported":1704391721,"current_range_meters":11200,"station_id":"cjm6bp8fraef2m0cb0m0","pricing_plan_id":"free"},{"bike_id":"e95fb841-fd29-469e-ab34-ff0efd5b203c","system_id":"levelo_inurba_marseille","lat":43.317104,"lon":5.436818,"is_reserved":false,"is_disabled":false,"rental_uris":{"android":"levelo://app?vid=e95fb841-fd29-469e-ab34-ff0efd5b203c","ios":"levelo://app?vid=e95fb841-fd29-469e-ab34-ff0efd5b203c"},"vehicle_type_id":"4","last_reported":1704391721,"current_range_meters":23200,"station_id":"ce4bhp92rcd13ifvqhcg","pricing_plan_id":"free"},{"bike_id":"6556c9b2-3aea-48ee-9778-7bb20c112056","system_id":"levelo_inurba_marseille","lat":43.262012,"lon":5.379307,"is_reserved":false,"is_disabled":false,"rental_uris":{"android":"levelo://app?vid=6556c9b2-3aea-48ee-9778-7bb20c112056","ios":"levelo://app?vid=6556c9b2-3aea-48ee-9778-7bb20c112056"},"vehicle_type_id":"4","last_reported":1704391721,"current_range_meters":6000,"station_id":"ce4bhjp2rcd13ifvqg90","pricing_plan_id":"free"},{"bike_id":"0d102da3-fd59-40f5-977c-de2ac98eb30d","system_id":"levelo_inurba_marseille","lat":43.271388,"lon":5.409269,"is_reserved":false,"is_disabled":false,"rental_uris":{"android":"levelo://app?vid=0d102da3-fd59-40f5-977c-de2ac98eb30d","ios":"levelo://app?vid=0d102da3-fd59-40f5-977c-de2ac98eb30d"},