{"last_updated":1704629537,"ttl":30,"version":"2.2","data":{"bikes":[{"bike_id":"c425a59a-6e2e-4cf3-a83a-9195f97464e2","system_id":"levelo_inurba_marseille","lat":43.31341,"lon":5.367098,"is_reserved":false,"is_disabled":false,"rental_uris":{"android":"levelo://app?vid=c425a59a-6e2e-4cf3-a83a-9195f97464e2","ios":"levelo://app?vid=c425a59a-6e2e-4cf3-a83a-9195f97464e2"},"vehicle_type_id":"4","last_reported":1704629537,"current_range_meters":30000,"station_id":"ce4bgr92rcd13ifvqc6g","pricing_plan_id":"free"},{"bike_id":"538fb89a-e981-44ef-b121-b35ab9a4ee1c","system_id":"levelo_inurba_marseille","lat":43.31341,"lon":5.367098,"is_reserved":false,"is_disabled":false,"rental_uris":{"android":"levelo://app?vid=538fb89a-e981-44ef-b121-b35ab9a4ee1c","ios":"levelo://app?vid=538fb89a-e981-44ef-b121-b35ab9a4ee1c"},"vehicle_type_id":"4","last_reported":1704629537,"current_range_meters":27200,"station_id":"ce4bgr92rcd13ifvqc6g","pricing_plan_id":"free"},{"bike_id":"68e04100-e808-48dc-8f15-29a67f06156c","system_id":"levelo_inurba_marseille","lat":43.312239,"lon":5.368562,"is_reserved":false,"is_disabled":false,"rental_uris":{"android":"levelo://app?vid=68e04100-e808-48dc-8f15-29a67f06156c","ios":"levelo://app?vid=68e04100-e808-48dc-8f15-29a67f06156c"},"vehicle_type_id":"4","last_reported":1704629537,"current_range_meters":25200,"station_id":"ce4bgl92rcd13ifvqbq0","pricing_plan_id":"free"},{"bike_id":"6ea2cb44-479d-4df7-a483-38f774ef4f7f","system_id":"levelo_inurba_marseille","lat":43.312239,"lon":5.368562,"is_reserved":false,"is_disabled":false,"rental_uris":{"android":"levelo://app?vid=6ea2cb44-479d-4df7-a483-38f774ef4f7f","ios":"levelo://app?vid=6ea2cb44-479d-4df7-a483-38f774ef4f7f"},"vehicle_type_id":"4","last_reported":1704629537,"current_range_meters":20400,"station_id":"ce4bgl92rcd13ifvqbq0","pricing_plan_id":"free"},{"bike_id":"0b84be20-ec40-4ee4-bf8b-59a1b3ab8809","system_id":"levelo_inurba_marseille","lat":43.312239,"lon":5.368562,"is_reserved":false,"is_disabled":false,"rental_uris":{"android":"levelo://app?vid=0b84be20-ec40-4ee4-bf8b-59a1b3ab8809","ios":"levelo://app?vid=0b84be20-ec40-4ee4-bf8b-59a1b3ab8809"},"vehicle_type_id":"4","last_reported":1704629537,"current_range_meters":24400,"station_id":"ce4bgl92rcd13ifvqbq0","pricing_plan_id":"free"},{"bike_id":"09d01de4-e9cf-4328-8dfb-0b18e3115d82","system_id":"levelo_inurba_marseille","lat":43.312239,"lon":5.368562,"is_reserved":false,"is_disabled":false,"rental_uris":{"android":"levelo://app?vid=09d01de4-e9cf-4328-8dfb-0b18e3115d82","ios":"levelo://app?vid=09d01de4-e9cf-4328-8dfb-0b18e3115d82"},"vehicle_type_id":"4","last_reported":1704629537,"current_range_meters":28000,"station_id":"ce4bgl92rcd13ifvqbq0","pricing_plan_id":"free"},{"bike_id":"f23a1ed5-ea41-4144-a9ef-9f085a613d1a","system_id":"levelo_inurba_marseille","lat":43.314811,"lon":5.373103,"is_reserved":false,"is_disabled":false,"rental_uris":{"android":"levelo://app?vid=f23a1ed5-ea41-4144-a9ef-9f085a613d1a","ios":"levelo://app?vid=f23a1ed5-ea41-4144-a9ef-9f085a613d1a"},"vehicle_type_id":"4","last_reported":1704629537,"current_range_meters":13200,"station_id":"ce4bgt12rcd13ifvqcd0","pricing_plan_id":"free"},{"bike_id":"2cd2e65e-ad3d-4c4e-92ac-ef50ea354203","system_id":"levelo_inurba_marseille","lat":43.314811,"lon":5.373104,"is_reserved":false,"is_disabled":false,"rental_uris":{"android":"levelo://app?vid=2cd2e65e-ad3d-4c4e-92ac-ef50ea354203","ios":"levelo://app?vid=2cd2e65e-ad3d-4c4e-92ac-ef50ea354203"},"vehicle_type_id":"4","last_reported":1704629537,"current_range_meters":29600,"station_id":"ce4bgt12rcd13ifvqcd0","pricing_plan_id":"free"},{"bike_id":"a18c9f18-dd23-4fa3-ae4c-750a813ec2dd","system_id":"levelo_inurba_marseille","lat":43.315486,"lon":5.374422,"is_reserved":false,"is_disabled":false,"rental_uris":{"android":"levelo://app?vid=a18c9f18-dd23-4fa3-ae4c-750a813ec2dd","ios":"levelo://app?vid=a18c9f18-dd23-4fa3-ae4c-750a813ec2dd"},"vehicle_type_id":"4","last_reported":1704629537,"current_range_meters":14800,"station_id":"","pricing_plan_id":"free"},{"bike_id":"b80ce9e5-c5cd-47ff-a7c3-cce373ed97d3","system_id":"levelo_inurba_marseille","lat":43.305368,"lon":5.367343,"is_reserved":false,"is_disabled":false,"rental_uris":{"android":"levelo://app?vid=b80ce9e5-c5cd-47ff-a7c3-cce373ed97d3","ios":"levelo://app?vid=b80ce9e5-c5cd-47ff-a7c3-cce373ed97d3"},"vehicle_type_id":"4","last_reported":1704629537,"current_range_meters":19600,"station_id":"ce4bgrp2rcd13ifvqc9g","pricing_plan_id":"free"},{"bike_id":"a106a8d8-876a-427a-a89d-a10019294942","system_id":"levelo_inurba_marseille","lat":43.30542,"lon":5.36545,"is_reserved":false,"is_disabled":false,"rental_uris":{"android":"levelo://app?vid=a106a8d8-876a-427a-a89d-a10019294942","ios":"levelo://app?vid=a106a8d8-876a-427a-a89d-a10019294942"},"vehicle_type_id":"4","last_reported":1704629537,"current_range_meters":17600,"station_id":"ce4bgs12rcd13ifvqcag","pricing_plan_id":"free"},{"bike_id":"0b220752-3f26-4027-ba3e-c5879f3fc495","system_id":"levelo_inurba_marseille","lat":43.305423,"lon":5.365418,"is_reserved":false,"is_disabled":false,"rental_uris":{"android":"levelo://app?vid=0b220752-3f26-4027-ba3e-c5879f3fc495","ios":"levelo://app?vid=0b220752-3f26-4027-ba3e-c5879f3fc495"},"vehicle_type_id":"4","last_reported":1704629537,"current_range_meters":31200,"station_id":"ce4bgs12rcd13ifvqcag","pricing_plan_id":"free"},{"bike_id":"efa0283f-aaf3-4913-b410-ee39b5d9c197","system_id":"levelo_inurba_marseille","lat":43.30538,"lon":5.36552,"is_reserved":false,"is_disabled":false,"rental_uris":{"android":"levelo://app?vid=efa0283f-aaf3-4913-b410-ee39b5d9c197","ios":"levelo://app?vid=efa0283f-aaf3-4913-b410-ee39b5d9c197"},"vehicle_type_id":"4","last_reported":1704629537,"current_range_meters":3600,"station_id":"ce4bgs12rcd13ifvqcag","pricing_plan_id":"free"},{"bike_id":"24312f7b-3d07-4f13-b593-a82cf21f6674","system_id":"levelo_inurba_marseille","lat":43.305706,"lon":5.365654,"is_reserved":false,"is_disabled":false,"rental_uris":{"android":"levelo://app?vid=24312f7b-3d07-4f13-b593-a82cf21f6674","ios":"levelo://app?vid=24312f7b-3d07-4f13-b593-a82cf21f6674"},"vehicle_type_id":"4","last_reported":1704629537,"current_range_meters":22000,"station_id":"ce4bgs12rcd13ifvqcag","pricing_plan_id":"free"},{"bike_id":"b1db48bd-7b65-41c2-b94b-6d8b3af8acd1","system_id":"levelo_inurba_marseille","lat":43.305989,"lon":5.37225,"is_reserved":false,"is_disabled":false,"rental_uris":{"android":"levelo://app?vid=b1db48bd-7b65-41c2-b94b-6d8b3af8acd1","ios":"levelo://app?vid=b1db48bd-7b65-41c2-b94b-6d8b3af8acd1"},"vehicle_type_id":"4","last_reported":1704629537,"current_range_meters":28400,"station_id":"ce4bgqh2rcd13ifvqc4g","pricing_plan_id":"free"},{"bike_id":"049bfde0-6418-445e-a0d1-abdc28a94992","system_id":"levelo_inurba_marseille","lat":43.307945,"lon":5.376487,"is_reserved":false,"is_disabled":false,"rental_uris":{"android":"levelo://app?vid=049bfde0-6418-445e-a0d1-abdc28a94992","ios":"levelo://app?vid=049bfde0-6418-445e-a0d1-abdc28a94992"},"vehicle_type_id":"4","last_reported":1704629537,"current_range_meters":19600,"station_id":"ce4bgv92rcd13ifvqcq0","pricing_plan_id":"free"},{"bike_id":"89bffd9f-80ae-48ac-8282-961ba54a130e","system_id":"levelo_inurba_marseille","lat":43.317075,"lon":5.377367,"is_reserved":false,"is_disabled":false,"rental_uris":{"android":"levelo://app?vid=89bffd9f-80ae-48ac-8282-961ba54a130e","ios":"levelo://app?vid=89bffd9f-80ae-48ac-8282-961ba54a130e"},"vehicle_type_id":"4","last_reported":1704629537,"current_range_meters":27200,"station_id":"ce4bgth2rcd13ifvqch0","pricing_plan_id":"free"},{"bike_id":"85eb3825-226e-40cc-a36c-1629726c09ad","system_id":"levelo_inurba_marseille","lat":43.314811,"lon":5.373103,"is_reserved":false,"is_disabled":false,"rental_uris":{"android":"levelo://app?vid=85eb3825-226e-40cc-a36c-1629726c09ad","ios":"levelo://app?vid=85eb3825-226e-40cc-a36c-1629726c09ad"},"vehicle_type_id":"4","last_reported":1704629537,"current_range_meters":26000,"station_id":"ce4bgt12rcd13ifvqcd0","pricing_plan_id":"free"},{"bike_id":"c4e90871-bb94-4085-82dc-ccbd997a22ca","system_id":"levelo_inurba_marseille","lat":43.31535,"lon":5.3791,"is_reserved":false,"is_disabled":false,"rental_uris":{"android":"levelo://app?vid=c4e90871-bb94-4085-82dc-ccbd997a22ca","ios":"levelo://app?vid=c4e90871-bb94-4085-82dc-ccbd997a22ca"},"vehicle_type_id":"4","last_reported":1704629537,"current_range_meters":5600,"station_id":"","pricing_plan_id":"free"},{"bike_id":"8ef1a586-cc29-4bb1-a1d4-de2934bfeac9","system_id":"levelo_inurba_marseille","lat":43.315324,"lon":5.380321,"is_reserved":false,"is_disabled":false,"rental_uris":{"android":"levelo://app?vid=8ef1a586-cc29-4bb1-a1d4-de2934bfeac9","ios":"levelo://app?vid=8ef1a586-cc29-4bb1-a1d4-de2934bfeac9"},"vehicle_type_id":"4","last_reported":1704629537,"current_range_meters":2000,"station_id":"ce4bhsp2rcd13ifvqi50","pricing_plan_id":"free"},{"bike_id":"c8611d77-b632-415c-a540-ca99c06f8ad5","system_id":"levelo_inurba_marseille","lat":43.301939,"lon":5.366286,"is_reserved":false,"is_disabled":false,"rental_uris":{"android":"levelo://app?vid=c8611d77-b632-415c-a540-ca99c06f8ad5","ios":"levelo://app?vid=c8611d77-b632-415c-a540-ca99c06f8ad5"},"vehicle_type_id":"4","last_reported":1704629537,"current_range_meters":26400,"station_id":"ce4bgrh2rcd13ifvqc8g","pricing_plan_id":"free"},{"bike_id":"410d56b4-8422-4bc5-a962-9b4ea6b59eab","system_id":"levelo_inurba_marseille","lat":43.301939,"lon":5.366286,"is_reserved":false,"is_disabled":false,"rental_uris":{"android":"levelo://app?vid=410d56b4-8422-4bc5-a962-9b4ea6b59eab","ios":"levelo://app?vid=410d56b4-8422-4bc5-a962-9b4ea6b59eab"},"vehicle_type_id":"4","last_reported":1704629537,"current_range_meters":29600,"station_id":"ce4bgrh2rcd13ifvqc8g","pricing_plan_id":"free"},{"bike_id":"42843ac3-cdcc-4f2c-93d0-96abf3177a9f","system_id":"levelo_inurba_marseille","lat":43.301939,"lon":5.366286,"is_reserved":false,"is_disabled":false,"rental_uris":{"android":"levelo://app?vid=42843ac3-cdcc-4f2c-93d0-96abf3177a9f","ios":"levelo://app?vid=42843ac3-cdcc-4f2c-93d0-96abf3177a9f"},"vehicle_type_id":"4","last_reported":1704629537,"current_range_meters":24000,"station_id":"ce4bgrh2rcd13ifvqc8g","pricing_plan_id":"free"},{"bike_id":"6afdf11e-f1e6-4c33-ba5b-3bf016fbed6d","system_id":"levelo_inurba_marseille","lat":43.307923,"lon":5.381557,"is_reserved":false,"is_disabled":false,"rental_uris":{"android":"levelo://app?vid=6afdf11e-f1e6-4c33-ba5b-3bf016fbed6d","ios":"levelo://app?vid=6afdf11e-f1e6-4c33-ba5b-3bf016fbed6d"},"vehicle_type_id":"4","last_reported":1704629537,"current_range_meters":1600,"station_id":"ce4bgt12rcd13ifvqce0","pricing_plan_id":"free"},{"bike_id":"ac455581-8a4c-4bd9-a121-5d4d71f9543a","system_id":"levelo_inurba_marseille","lat":43.308012,"lon":5.381511,"is_reserved":false,"is_disabled":false,"rental_uris":{"android":"levelo://app?vid=ac455581-8a4c-4bd9-a121-5d4d71f9543a","ios":"levelo://app?vid=ac455581-8a4c-4bd9-a121-5d4d71f9543a"},"vehicle_type_id":"4","last_reported":1704629537,"current_range_meters":800,"station_id":"ce4bgt12rcd13ifvqce0","pricing_plan_id":"free"},{"bike_id":"9a5d20fc-5739-4188-aece-a966211e1333","system_id":"levelo_inurba_marseille","lat":43.324771,"lon":5.36557,"is_reserved":false,"is_disabled":false,"rental_uris":{"android":"levelo://app?vid=9a5d20fc-5739-4188-aece-a966211e1333","ios":"levelo://app?vid=9a5d20fc-5739-4188-aece-a966211e1333"},"vehicle_type_id":"4","last_reported":1704629537,"current_range_meters":15200,"station_id":"ce4bhs12rcd13ifvqhvg","pricing_plan_id":"free"},{"bike_id":"2aa100e7-2671-4c1b-a1f0-ab7832afcbad","system_id":"levelo_inurba_marseille","lat":43.324771,"lon":5.36557,"is_reserved":false,"is_disabled":false,"rental_uris":{"android":"levelo://app?vid=2aa100e7-2671-4c1b-a1f0-ab7832afcbad","ios":"levelo://app?vid=2aa100e7-2671-4c1b-a1f0-ab7832afcbad"},"vehicle_type_id":"4","last_reported":1704629537,"current_range_meters":26000,"station_id":"ce4bhs12rcd13ifvqhvg","pricing_plan_id":"free"},{"bike_id":"fa8c356d-47f9-4e23-b13e-e70da7d167f1","system_id":"levelo_inurba_marseille","lat":43.301429,"lon":5.37413,"is_reserved":false,"is_disabled":false,"rental_uris":{"android":"levelo://app?vid=fa8c356d-47f9-4e23-b13e-e70da7d167f1","ios":"levelo://app?vid=fa8c356d-47f9-4e23-b13e-e70da7d167f1"},"vehicle_type_id":"4","last_reported":1704629537,"current_range_meters":26000,"station_id":"ce4bgs92rcd13ifvqcc0","pricing_plan_id":"free"},{"bike_id":"17504bde-947a-4cd6-98b3-9a4c66aca99b","system_id":"levelo_inurba_marseille","lat":43.313827,"lon":5.385007,"is_reserved":false,"is_disabled":false,"rental_uris":{"android":"levelo://app?vid=17504bde-947a-4cd6-98b3-9a4c66aca99b","ios":"levelo://app?vid=17504bde-947a-4cd6-98b3-9a4c66aca99b"},"vehicle_type_id":"4","last_reported":1704629537,"current_range_meters":2000,"station_id":"","pricing_plan_id":"free"},{"bike_id":"9d75b24e-edbb-4601-92f1-ba3cf530033b","system_id":"levelo_inurba_marseille","lat":43.299724,"lon":5.371829,"is_reserved":false,"is_disabled":false,"rental_uris":{"android":"levelo://app?vid=9d75b24e-edbb-4601-92f1-ba3cf530033b","ios":"levelo://app?vid=9d75b24e-edbb-4601-92f1-ba3cf530033b"},"vehicle_type_id":"4","last_reported":1704629537,"current_range_meters":26400,"station_id":"ce4bgr92rcd13ifvqc7g","pricing_plan_id":"free"},{"bike_id":"7fd606b4-c177-4d2d-a59a-731bab27b2ce","system_id":"levelo_inurba_marseille","lat":43.299222,"lon":5.365554,"is_reserved":false,"is_disabled":false,"rental_uris":{"android":"levelo://app?vid=7fd606b4-c177-4d2d-a59a-731bab27b2ce","ios":"levelo://app?vid=7fd606b4-c177-4d2d-a59a-731bab27b2ce"},"vehicle_type_id":"4","last_reported":1704629537,"current_range_meters":25200,"station_id":"ce4bgm92rcd13ifvqbr0","pricing_plan_id":"free"},{"bike_id":"b22604ec-0c4b-41b4-a20e-38add68f7682","system_id":"levelo_inurba_marseille","lat":43.32563,"lon":5.37486,"is_reserved":false,"is_disabled":false,"rental_uris":{"android":"levelo://app?vid=b22604ec-0c4b-41b4-a20e-38add68f7682","ios":"levelo://app?vid=b22604ec-0c4b-41b4-a20e-38add68f7682"},"vehicle_type_id":"4","last_reported":1704629537,"current_range_meters":9200,"station_id":"","pricing_plan_id":"free"},{"bike_id":"4b0dfd5b-2d03-4765-bf74-a220553e14c8","system_id":"levelo_inurba_marseille","lat":43.298433,"lon":5.362774,"is_reserved":false,"is_disabled":false,"rental_uris":{"android":"levelo://app?vid=4b0dfd5b-2d03-4765-bf74-a220553e14c8","ios":"levelo://app?vid=4b0dfd5b-2d03-4765-bf74-a220553e14c8"},"vehicle_type_id":"4","last_reported":1704629537,"current_range_meters":21600,"station_id":"ce4bgpp2rcd13ifvqc3g","pricing_plan_id":"free"},{"bike_id":"90f624c9-e920-42f0-bdb2-c7157855cdc0","system_id":"levelo_inurba_marseille","lat":43.311596,"lon":5.386826,"is_reserved":false,"is_disabled":false,"rental_uris":{"android":"levelo://app?vid=90f624c9-e920-42f0-bdb2-c7157855cdc0","ios":"levelo://app?vid=90f624c9-e920-42f0-bdb2-c7157855cdc0"},"vehicle_type_id":"4","last_reported":1704629537,"current_range_meters":9200,"station_id":"ce4bgv12rcd13ifvqcp0","pricing_plan_id":"free"},{"bike_id":"ae5a3721-c4e5-4ee9-9fd7-67280c04cfb6","system_id":"levelo_inurba_marseille","lat":43.298433,"lon":5.362774,"is_reserved":false,"is_disabled":false,"rental_uris":{"android":"levelo://app?vid=ae5a3721-c4e5-4ee9-9fd7-67280c04cfb6","ios":"levelo://app?vid=ae5a3721-c4e5-4ee9-9fd7-67280c04cfb6"},"vehicle_type_id":"4","last_reported":1704629537,"current_range_meters":25200,"station_id":"ce4bgpp2rcd13ifvqc3g","pricing_plan_id":"free"},{"bike_id":"810e69af-9419-4b23-96cc-5c2aefb76474","system_id":"levelo_inurba_marseille","lat":43.298433,"lon":5.362774,"is_reserved":false,"is_disabled":false,"rental_uris":{"android":"levelo://app?vid=810e69af-9419-4b23-96cc-5c2aefb76474","ios":"levelo://app?vid=810e69af-9419-4b23-96cc-5c2aefb76474"},"vehicle_type_id":"4","last_reported":1704629537,"current_range_meters":7200,"station_id":"ce4bgpp2rcd13ifvqc3g","pricing_plan_id":"free"},{"bike_id":"91853785-b412-43d8-9ede-1524189885ab","system_id":"levelo_inurba_marseille","lat":43.298433,"lon":5.362774,"is_reserved":false,"is_disabled":false,"rental_uris":{"android":"levelo://app?vid=91853785-b412-43d8-9ede-1524189885ab","ios":"levelo://app?vid=91853785-b412-43d8-9ede-1524189885ab"},"vehicle_type_id":"4","last_reported":1704629537,"current_range_meters":29600,"station_id":"ce4bgpp2rcd13ifvqc3g","pricing_plan_id":"free"},{"bike_id":"2b23ac9a-3cd7-46d2-9713-03ccc68b1bd1","system_id":"levelo_inurba_marseille","lat":43.299243,"lon":5.37481,"is_reserved":false,"is_disabled":false,"rental_uris":{"android":"levelo://app?vid=2b23ac9a-3cd7-46d2-9713-03ccc68b1bd1","ios":"levelo://app?vid=2b23ac9a-3cd7-46d2-9713-03ccc68b1bd1"},"vehicle_type_id":"4","last_reported":1704629537,"current_range_meters":27600,"station_id":"ce4bgjh2rcd13ifvqbg0","pricing_plan_id":"free"},{"bike_id":"691b5c25-410e-47d3-acfd-667556c527ad","system_id":"levelo_inurba_marseille","lat":43.311722,"lon":5.387247,"is_reserved":false,"is_disabled":false,"rental_uris":{"android":"levelo://app?vid=691b5c25-410e-47d3-acfd-667556c527ad","ios":"levelo://app?vid=691b5c25-410e-47d3-acfd-667556c527ad"},"vehicle_type_id":"4","last_reported":1704629537,"current_range_meters":28000,"station_id":"ce4bgv12rcd13ifvqcp0","pricing_plan_id":"free"},{"bike_id":"63f07019-ac6e-407e-9571-4ac96abcc3cf","system_id":"levelo_inurba_marseille","lat":43.32286,"lon":5.38255,"is_reserved":false,"is_disabled":false,"rental_uris":{"android":"levelo://app?vid=63f07019-ac6e-407e-9571-4ac96abcc3cf","ios":"levelo://app?vid=63f07019-ac6e-407e-9571-4ac96abcc3cf"},"vehicle_type_id":"4","last_reported":1704629537,"current_range_meters":16000,"station_id":"ce4bhr12rcd13ifvqhqg","pricing_plan_id":"free"},{"bike_id":"09da622d-5ec6-4261-a95d-695d32c570ab","system_id":"levelo_inurba_marseille","lat":43.322851,"lon":5.382615,"is_reserved":false,"is_disabled":false,"rental_uris":{"android":"levelo://app?vid=09da622d-5ec6-4261-a95d-695d32c570ab","ios":"levelo://app?vid=09da622d-5ec6-4261-a95d-695d32c570ab"},"vehicle_type_id":"4","last_reported":1704629537,"current_range_meters":10800,"station_id":"ce4bhr12rcd13ifvqhqg","pricing_plan_id":"free"},{"bike_id":"0581ab7b-dacd-4f0c-8e05-4d440bd397f0","system_id":"levelo_inurba_marseille","lat":43.297794,"lon":5.370888,"is_reserved":false,"is_disabled":false,"rental_uris":{"android":"levelo://app?vid=0581ab7b-dacd-4f0c-8e05-4d440bd397f0","ios":"levelo://app?vid=0581ab7b-dacd-4f0c-8e05-4d440bd397f0"},"vehicle_type_id":"4","last_reported":1704629537,"current_range_meters":29600,"station_id":"ce4bgop2rcd13ifvqc1g","pricing_plan_id":"free"},{"bike_id":"297a7823-4b34-45b3-8282-c78d31cc9f05","system_id":"levelo_inurba_marseille","lat":43.322872,"lon":5.382756,"is_reserved":false,"is_disabled":false,"rental_uris":{"android":"levelo://app?vid=297a7823-4b34-45b3-8282-c78d31cc9f05","ios":"levelo://app?vid=297a7823-4b34-45b3-8282-c78d31cc9f05"},"vehicle_type_id":"4","last_reported":1704629537,"current_range_meters":29600,"station_id":"ce4bhr12rcd13ifvqhqg","pricing_plan_id":"free"},{"bike_id":"276c91d7-6ca9-48bc-bf75-acd9920b9ec2","system_id":"levelo_inurba_marseille","lat":43.322872,"lon":5.382756,"is_reserved":false,"is_disabled":false,"rental_uris":{"android":"levelo://app?vid=276c91d7-6ca9-48bc-bf75-acd9920b9ec2","ios":"levelo://app?vid=276c91d7-6ca9-48bc-bf75-acd9920b9ec2"},"vehicle_type_id":"4","last_reported":1704629537,"current_range_meters":26400,"station_id":"ce4bhr12rcd13ifvqhqg","pricing_plan_id":"free"},{"bike_id":"3bb7c7dd-5eca-4a2d-a889-98c939c30e62","system_id":"levelo_inurba_marseille","lat":43.32288,"lon":5.38267,"is_reserved":false,"is_disabled":false,"rental_uris":{"android":"levelo://app?vid=3bb7c7dd-5eca-4a2d-a889-98c939c30e62","ios":"levelo://app?vid=3bb7c7dd-5eca-4a2d-a889-98c939c30e62"},"vehicle_type_id":"4","last_reported":1704629537,"current_range_meters":27200,"station_id":"ce4bhr12rcd13ifvqhqg","pricing_plan_id":"free"},{"bike_id":"cc495013-a9b7-4492-a4e4-0f0aca4a9939","system_id":"levelo_inurba_marseille","lat":43.322872,"lon":5.382756,"is_reserved":false,"is_disabled":false,"rental_uris":{"android":"levelo://app?vid=cc495013-a9b7-4492-a4e4-0f0aca4a9939","ios":"levelo://app?vid=cc495013-a9b7-4492-a4e4-0f0aca4a9939"},"vehicle_type_id":"4","last_reported":1704629537,"current_range_meters":8000,"station_id":"ce4bhr12rcd13ifvqhqg","pricing_plan_id":"free"},{"bike_id":"d0aaa14f-1070-4a80-a2f2-78508dd9f6bd","system_id":"levelo_inurba_marseille","lat":43.322872,"lon":5.382756,"is_reserved":false,"is_disabled":false,"rental_uris":{"android":"levelo://app?vid=d0aaa14f-1070-4a80-a2f2-78508dd9f6bd","ios":"levelo://app?vid=d0aaa14f-1070-4a80-a2f2-78508dd9f6bd"},"vehicle_type_id":"4","last_reported":1704629537,"current_range_meters":31600,"station_id":"ce4bhr12rcd13ifvqhqg","pricing_plan_id":"free"},{"bike_id":"48de57f3-12a8-4253-90b5-aab66c42162c","system_id":"levelo_inurba_marseille","lat":43.32821,"lon":5.36689,"is_reserved":false,"is_disabled":false,"rental_uris":{"android":"levelo://app?vid=48de57f3-12a8-4253-90b5-aab66c42162c","ios":"levelo://app?vid=48de57f3-12a8-4253-90b5-aab66c42162c"},"vehicle_type_id":"4","last_reported":1704629537,"current_range_meters":18000,"station_id":"ce4bhs92rcd13ifvqi0g","pricing_plan_id":"free"},{"bike_id":"387c1dff-fb7e-4547-838e-1af3f69c4219","system_id":"levelo_inurba_marseille","lat":43.328232,"lon":5.366798,"is_reserved":false,"is_disabled":false,"rental_uris":{"android":"levelo://app?vid=387c1dff-fb7e-4547-838e-1af3f69c4219","ios":"levelo://app?vid=387c1dff-fb7e-4547-838e-1af3f69c4219"},"vehicle_type_id":"4","last_reported":1704629537,"current_range_meters":23200,"station_id":"ce4bhs92rcd13ifvqi0g","pricing_plan_id":"free"},{"bike_id":"a791cb05-0716-4f7c-bfab-5cd10f4022f6","system_id":"levelo_inurba_marseille","lat":43.32825,"lon":5.3669,"is_reserved":false,"is_disabled":false,"rental_uris":{"android":"levelo://app?vid=a791cb05-0716-4f7c-bfab-5cd10f4022f6","ios":"levelo://app?vid=a791cb05-0716-4f7c-bfab-5cd10f4022f6"},"vehicle_type_id":"4","last_reported":1704629537,"current_range_meters":17200,"station_id":"ce4bhs92rcd13ifvqi0g","pricing_plan_id":"free"},{"bike_id":"c224ea64-7bb8-45be-8a3a-d137d9e17684","system_id":"levelo_inurba_marseille","lat":43.32825,"lon":5.36678,"is_reserved":false,"is_disabled":false,"rental_uris":{"android":"levelo://app?vid=c224ea64-7bb8-45be-8a3a-d137d9e17684","ios":"levelo://app?vid=c224ea64-7bb8-45be-8a3a-d137d9e17684"},"vehicle_type_id":"4","last_reported":1704629537,"current_range_meters":14000,"station_id":"ce4bhs92rcd13ifvqi0g","pricing_plan_id":"free"},{"bike_id":"72905f78-9c33-4138-8385-d331d9223abd","system_id":"levelo_inurba_marseille","lat":43.328269,"lon":5.366807,"is_reserved":false,"is_disabled":false,"rental_uris":{"android":"levelo://app?vid=72905f78-9c33-4138-8385-d331d9223abd","ios":"levelo://app?vid=72905f78-9c33-4138-8385-d331d9223abd"},"vehicle_type_id":"4","last_reported":1704629537,"current_range_meters":15200,"station_id":"ce4bhs92rcd13ifvqi0g","pricing_plan_id":"free"},{"bike_id":"30714412-926c-4fbd-8639-ea1fba1e8d22","system_id":"levelo_inurba_marseille","lat":43.32827,"lon":5.36687,"is_reserved":false,"is_disabled":false,"rental_uris":{"android":"levelo://app?vid=30714412-926c-4fbd-8639-ea1fba1e8d22","ios":"levelo://app?vid=30714412-926c-4fbd-8639-ea1fba1e8d22"},"vehicle_type_id":"4","last_reported":1704629537,"current_range_meters":21200,"station_id":"ce4bhs92rcd13ifvqi0g","pricing_plan_id":"free"},{"bike_id":"66addf4b-70b7-4ac4-8e17-37956e9ecfbb","system_id":"levelo_inurba_marseille","lat":43.32827,"lon":5.36683,"is_reserved":false,"is_disabled":false,"rental_uris":{"android":"levelo://app?vid=66addf4b-70b7-4ac4-8e17-37956e9ecfbb","ios":"levelo://app?vid=66addf4b-70b7-4ac4-8e17-37956e9ecfbb"},"vehicle_type_id":"4","last_reported":1704629537,"current_range_meters":19600,"station_id":"ce4bhs92rcd13ifvqi0g","pricing_plan_id":"free"},{"bike_id":"ca02ca89-8dd5-4fc4-9a30-db37a36b7ff7","system_id":"levelo_inurba_marseille","lat":43.32827,"lon":5.36678,"is_reserved":false,"is_disabled":false,"rental_uris":{"android":"levelo://app?vid=ca02ca89-8dd5-4fc4-9a30-db37a36b7ff7","ios":"levelo://app?vid=ca02ca89-8dd5-4fc4-9a30-db37a36b7ff7"},"vehicle_type_id":"4","last_reported":1704629537,"current_range_meters":29200,"station_id":"ce4bhs92rcd13ifvqi0g","pricing_plan_id":"free"},{"bike_id":"8341e063-523f-4d25-880b-99eb6edf220f","system_id":"levelo_inurba_marseille","lat":43.32827,"lon":5.36676,"is_reserved":false,"is_disabled":false,"rental_uris":{"android":"levelo://app?vid=8341e063-523f-4d25-880b-99eb6edf220f","ios":"levelo://app?vid=8341e063-523f-4d25-880b-99eb6edf220f"},"vehicle_type_id":"4","last_reported":1704629537,"current_range_meters":16000,"station_id":"ce4bhs92rcd13ifvqi0g","pricing_plan_id":"free"},{"bike_id":"43f47c35-ec23-411b-b2fa-7957e35eab11","system_id":"levelo_inurba_marseille","lat":43.328371,"lon":5.366909,"is_reserved":false,"is_disabled":false,"rental_uris":{"android":"levelo://app?vid=43f47c35-ec23-411b-b2fa-7957e35eab11","ios":"levelo://app?vid=43f47c35-ec23-411b-b2fa-7957e35eab11"},"vehicle_type_id":"4","last_reported":1704629537,"current_range_meters":10800,"station_id":"ce4bhs92rcd13ifvqi0g","pricing_plan_id":"free"},{"bike_id":"5021f406-3153-4a9e-a450-00a19314acbe","system_id":"levelo_inurba_marseille","lat":43.328297,"lon":5.366814,"is_reserved":false,"is_disabled":false,"rental_uris":{"android":"levelo://app?vid=5021f406-3153-4a9e-a450-00a19314acbe","ios":"levelo://app?vid=5021f406-3153-4a9e-a450-00a19314acbe"},"vehicle_type_id":"4","last_reported":1704629537,"current_range_meters":30800,"station_id":"ce4bhs92rcd13ifvqi0g","pricing_plan_id":"free"},{"bike_id":"9383789e-2a1a-4049-a767-e1f78cbdfc52","system_id":"levelo_inurba_marseille","lat":43.328371,"lon":5.366909,"is_reserved":false,"is_disabled":false,"rental_uris":{"android":"levelo://app?vid=9383789e-2a1a-4049-a767-e1f78cbdfc52","ios":"levelo://app?vid=9383789e-2a1a-4049-a767-e1f78cbdfc52"},"vehicle_type_id":"4","last_reported":1704629537,"current_range_meters":18800,"station_id":"ce4bhs92rcd13ifvqi0g","pricing_plan_id":"free"},{"bike_id":"064b14d2-f3e9-43be-a725-c95d6c66fd15","system_id":"levelo_inurba_marseille","lat":43.328371,"lon":5.366909,"is_reserved":false,"is_disabled":false,"rental_uris":{"android":"levelo://app?vid=064b14d2-f3e9-43be-a725-c95d6c66fd15","ios":"levelo://app?vid=064b14d2-f3e9-43be-a725-c95d6c66fd15"},"vehicle_type_id":"4","last_reported":1704629537,"current_range_meters":22400,"station_id":"ce4bhs92rcd13ifvqi0g","pricing_plan_id":"free"},{"bike_id":"42895378-a21e-445b-8e89-325727904609","system_id":"levelo_inurba_marseille","lat":43.328371,"lon":5.366909,"is_reserved":false,"is_disabled":false,"rental_uris":{"android":"levelo://app?vid=42895378-a21e-445b-8e89-325727904609","ios":"levelo://app?vid=42895378-a21e-445b-8e89-325727904609"},"vehicle_type_id":"4","last_reported":1704629537,"current_range_meters":22400,"station_id":"ce4bhs92rcd13ifvqi0g","pricing_plan_id":"free"},{"bike_id":"ee966a52-c4f3-4b5b-b8b2-c85b17eb5fb4","system_id":"levelo_inurba_marseille","lat":43.328371,"lon":5.366909,"is_reserved":false,"is_disabled":false,"rental_uris":{"android":"levelo://app?vid=ee966a52-c4f3-4b5b-b8b2-c85b17eb5fb4","ios":"levelo://app?vid=ee966a52-c4f3-4b5b-b8b2-c85b17eb5fb4"},"vehicle_type_id":"4","last_reported":1704629537,"current_range_meters":16000,"station_id":"ce4bhs92rcd13ifvqi0g","pricing_plan_id":"free"},{"bike_id":"0725f2a6-de18-43ea-a245-f699ddc19b55","system_id":"levelo_inurba_marseille","lat":43.328371,"lon":5.366909,"is_reserved":false,"is_disabled":false,"rental_uris":{"android":"levelo://app?vid=0725f2a6-de18-43ea-a245-f699ddc19b55","ios":"levelo://app?vid=0725f2a6-de18-43ea-a245-f699ddc19b55"},"vehicle_type_id":"4","last_reported":1704629537,"current_range_meters":8400,"station_id":"ce4bhs92rcd13ifvqi0g","pricing_plan_id":"free"},{"bike_id":"753d2fe5-d673-41f8-8778-4842dbb07364","system_id":"levelo_inurba_marseille","lat":43.328371,"lon":5.366912,"is_reserved":false,"is_disabled":false,"rental_uris":{"android":"levelo://app?vid=753d2fe5-d673-41f8-8778-4842dbb07364","ios":"levelo://app?vid=753d2fe5-d673-41f8-8778-4842dbb07364"},"vehicle_type_id":"4","last_reported":1704629537,"current_range_meters":29600,"station_id":"ce4bhs92rcd13ifvqi0g","pricing_plan_id":"free"},{"bike_id":"e22d5d66-2c33-444c-9a95-5d6517dd879c","system_id":"levelo_inurba_marseille","lat":43.328371,"lon":5.366909,"is_reserved":false,"is_disabled":false,"rental_uris":{"android":"levelo://app?vid=e22d5d66-2c33-444c-9a95-5d6517dd879c","ios":"levelo://app?vid=e22d5d66-2c33-444c-9a95-5d6517dd879c"},"vehicle_type_id":"4","last_reported":1704629537,"current_range_meters":6000,"station_id":"ce4bhs92rcd13ifvqi0g","pricing_plan_id":"free"},{"bike_id":"dfadd156-2808-4726-807d-ec8a8ae56db0","system_id":"levelo_inurba_marseille","lat":43.297163,"lon":5.365866,"is_reserved":false,"is_disabled":false,"rental_uris":{"android":"levelo://app?vid=dfadd156-2808-4726-807d-ec8a8ae56db0","ios":"levelo://app?vid=dfadd156-2808-4726-807d-ec8a8ae56db0"},"vehicle_type_id":"4","last_reported":1704629537,"current_range_meters":24400,"station_id":"ce4bgn12rcd13ifvqbt0","pricing_plan_id":"free"},{"bike_id":"800de75f-af60-4d3c-9377-ac6dc1eb5e02","system_id":"levelo_inurba_marseille","lat":43.298681,"lon":5.397225,"is_reserved":false,"is_disabled":false,"rental_uris":{"android":"levelo://app?vid=800de75f-af60-4d3c-9377-ac6dc1eb5e02","ios":"levelo://app?vid=800de75f-af60-4d3c-9377-ac6dc1eb5e02"},"vehicle_type_id":"4","last_reported":1704629537,"current_range_meters":25200,"station_id":"ce4bh0h2rcd13ifvqd50","pricing_plan_id":"free"},{"bike_id":"37ff019d-5bc8-4d13-b49b-87494de9ac4e","system_id":"levelo_inurba_marseille","lat":43.29581,"lon":5.36744,"is_reserved":false,"is_disabled":false,"rental_uris":{"android":"levelo://app?vid=37ff019d-5bc8-4d13-b49b-87494de9ac4e","ios":"levelo://app?vid=37ff019d-5bc8-4d13-b49b-87494de9ac4e"},"vehicle_type_id":"4","last_reported":1704629537,"current_range_meters":26400,"station_id":"ce4bgph2rcd13ifvqc2g","pricing_plan_id":"free"},{"bike_id":"025fa350-c471-4d9e-925e-9a805841960e","system_id":"levelo_inurba_marseille","lat":43.29573,"lon":5.367355,"is_reserved":false,"is_disabled":false,"rental_uris":{"android":"levelo://app?vid=025fa350-c471-4d9e-925e-9a805841960e","ios":"levelo://app?vid=025fa350-c471-4d9e-925e-9a805841960e"},"vehicle_type_id":"4","last_reported":1704629537,"current_range_meters":2400,"station_id":"ce4bgph2rcd13ifvqc2g","pricing_plan_id":"free"},{"bike_id":"4d1656e1-bca6-434e-b33b-4c2cbf8f7ae6","system_id":"levelo_inurba_marseille","lat":43.29573,"lon":5.367355,"is_reserved":false,"is_disabled":false,"rental_uris":{"android":"levelo://app?vid=4d1656e1-bca6-434e-b33b-4c2cbf8f7ae6","ios":"levelo://app?vid=4d1656e1-bca6-434e-b33b-4c2cbf8f7ae6"},"vehicle_type_id":"4","last_reported":1704629537,"current_range_meters":31600,"station_id":"ce4bgph2rcd13ifvqc2g","pricing_plan_id":"free"},{"bike_id":"1a6c1a1a-fa4e-497f-938c-a0634a653fab","system_id":"levelo_inurba_marseille","lat":43.296935,"lon":5.376544,"is_reserved":false,"is_disabled":false,"rental_uris":{"android":"levelo://app?vid=1a6c1a1a-fa4e-497f-938c-a0634a653fab","ios":"levelo://app?vid=1a6c1a1a-fa4e-497f-938c-a0634a653fab"},"vehicle_type_id":"4","last_reported":1704629537,"current_range_meters":22400,"station_id":"ce4bgkh2rcd13ifvqbl0","pricing_plan_id":"free"},{"bike_id":"6c5eebbe-3606-40f4-b51a-cdf8266c0074","system_id":"levelo_inurba_marseille","lat":43.309546,"lon":5.390441,"is_reserved":false,"is_disabled":false,"rental_uris":{"android":"levelo://app?vid=6c5eebbe-3606-40f4-b51a-cdf8266c0074","ios":"levelo://app?vid=6c5eebbe-3606-40f4-b51a-cdf8266c0074"},"vehicle_type_id":"4","last_reported":1704629537,"current_range_meters":25600,"station_id":"ce4bgup2rcd13ifvqco0","pricing_plan_id":"free"},{"bike_id":"c8f1c66d-517e-47cd-8c74-1fbdb664b117","system_id":"levelo_inurba_marseille","lat":43.30947,"lon":5.39048,"is_reserved":false,"is_disabled":false,"rental_uris":{"android":"levelo://app?vid=c8f1c66d-517e-47cd-8c74-1fbdb664b117","ios":"levelo://app?vid=c8f1c66d-517e-47cd-8c74-1fbdb664b117"},"vehicle_type_id":"4","last_reported":1704629537,"current_range_meters":0,"station_id":"ce4bgup2rcd13ifvqco0","pricing_plan_id":"free"},{"bike_id":"fcdaf753-8f4b-40ab-aab5-8b11ac124835","system_id":"levelo_inurba_marseille","lat":43.309589,"lon":5.390258,"is_reserved":false,"is_disabled":false,"rental_uris":{"android":"levelo://app?vid=fcdaf753-8f4b-40ab-aab5-8b11ac124835","ios":"levelo://app?vid=fcdaf753-8f4b-40ab-aab5-8b11ac124835"},"vehicle_type_id":"4","last_reported":1704629537,"current_range_meters":26000,"station_id":"ce4bgup2rcd13ifvqco0","pricing_plan_id":"free"},{"bike_id":"8088569f-085b-480e-8192-cee04b972d15","system_id":"levelo_inurba_marseille","lat":43.317557,"lon":5.390173,"is_reserved":false,"is_disabled":false,"rental_uris":{"android":"levelo://app?vid=8088569f-085b-480e-8192-cee04b972d15","ios":"levelo://app?vid=8088569f-085b-480e-8192-cee04b972d15"},"vehicle_type_id":"4","last_reported":1704629537,"current_range_meters":30800,"station_id":"ce4bhqp2rcd13ifvqhng","pricing_plan_id":"free"},{"bike_id":"712bc03c-4301-4f23-a402-31c4a3f6ea54","system_id":"levelo_inurba_marseille","lat":43.31759,"lon":5.39022,"is_reserved":false,"is_disabled":false,"rental_uris":{"android":"levelo://app?vid=712bc03c-4301-4f23-a402-31c4a3f6ea54","ios":"levelo://app?vid=712bc03c-4301-4f23-a402-31c4a3f6ea54"},"vehicle_type_id":"4","last_reported":1704629537,"current_range_meters":4000,"station_id":"ce4bhqp2rcd13ifvqhng","pricing_plan_id":"free"},{"bike_id":"63ef7e0d-f869-4079-ab7d-43ec4dcd860f","system_id":"levelo_inurba_marseille","lat":43.298037,"lon":5.381066,"is_reserved":false,"is_disabled":false,"rental_uris":{"android":"levelo://app?vid=63ef7e0d-f869-4079-ab7d-43ec4dcd860f","ios":"levelo://app?vid=63ef7e0d-f869-4079-ab7d-43ec4dcd860f"},"vehicle_type_id":"4","last_reported":1704629537,"current_range_meters":26800,"station_id":"ce4bgip2rcd13ifvqbb0","pricing_plan_id":"free"},{"bike_id":"64a995d5-0c94-4da4-b14d-e6b32baafd83","system_id":"levelo_inurba_marseille","lat":43.304278,"lon":5.388868,"is_reserved":false,"is_disabled":false,"rental_uris":{"android":"levelo://app?vid=64a995d5-0c94-4da4-b14d-e6b32baafd83","ios":"levelo://app?vid=64a995d5-0c94-4da4-b14d-e6b32baafd83"},"vehicle_type_id":"4","last_reported":1704629537,"current_range_meters":8400,"station_id":"ce4bgk12rcd13ifvqbi0","pricing_plan_id":"free"},{"bike_id":"82510559-7d96-440f-812f-83a389f9a5eb","system_id":"levelo_inurba_marseille","lat":43.295793,"lon":5.376512,"is_reserved":false,"is_disabled":false,"rental_uris":{"android":"levelo://app?vid=82510559-7d96-440f-812f-83a389f9a5eb","ios":"levelo://app?vid=82510559-7d96-440f-812f-83a389f9a5eb"},"vehicle_type_id":"4","last_reported":1704629537,"current_range_meters":19600,"station_id":"","pricing_plan_id":"free"},{"bike_id":"aa69f17c-5d3f-4e87-9e7f-ad13f8801741","system_id":"levelo_inurba_marseille","lat":43.299707,"lon":5.384859,"is_reserved":false,"is_disabled":false,"rental_uris":{"android":"levelo://app?vid=aa69f17c-5d3f-4e87-9e7f-ad13f8801741","ios":"levelo://app?vid=aa69f17c-5d3f-4e87-9e7f-ad13f8801741"},"vehicle_type_id":"4","last_reported":1704629537,"current_range_meters":20000,"station_id":"ce4bgj92rcd13ifvqbd0","pricing_plan_id":"free"},{"bike_id":"6685491a-2f79-44ed-9f7f-4a758b2bfa5c","system_id":"levelo_inurba_marseille","lat":43.299724,"lon":5.384848,"is_reserved":false,"is_disabled":false,"rental_uris":{"android":"levelo://app?vid=6685491a-2f79-44ed-9f7f-4a758b2bfa5c","ios":"levelo://app?vid=6685491a-2f79-44ed-9f7f-4a758b2bfa5c"},"vehicle_type_id":"4","last_reported":1704629537,"current_range_meters":26000,"station_id":"ce4bgj92rcd13ifvqbd0","pricing_plan_id":"free"},{"bike_id":"42486b5d-5a7f-4b8b-8138-84088d45b857","system_id":"levelo_inurba_marseille","lat":43.29974,"lon":5.38502,"is_reserved":false,"is_disabled":false,"rental_uris":{"android":"levelo://app?vid=42486b5d-5a7f-4b8b-8138-84088d45b857","ios":"levelo://app?vid=42486b5d-5a7f-4b8b-8138-84088d45b857"},"vehicle_type_id":"4","last_reported":1704629537,"current_range_meters":23600,"station_id":"ce4bgj92rcd13ifvqbd0","pricing_plan_id":"free"},{"bike_id":"a7386f31-f0e9-40f5-b015-206f5a435f02","system_id":"levelo_inurba_marseille","lat":43.305368,"lon":5.367343,"is_reserved":false,"is_disabled":false,"rental_uris":{"android":"levelo://app?vid=a7386f31-f0e9-40f5-b015-206f5a435f02","ios":"levelo://app?vid=a7386f31-f0e9-40f5-b015-206f5a435f02"},"vehicle_type_id":"4","last_reported":1704629537,"current_range_meters":6000,"station_id":"ce4bgrp2rcd13ifvqc9g","pricing_plan_id":"free"},{"bike_id":"204dea3f-87e7-4326-9f54-6cdab23e9e5a","system_id":"levelo_inurba_marseille","lat":43.323657,"lon":5.38879,"is_reserved":false,"is_disabled":false,"rental_uris":{"android":"levelo://app?vid=204dea3f-87e7-4326-9f54-6cdab23e9e5a","ios":"levelo://app?vid=204dea3f-87e7-4326-9f54-6cdab23e9e5a"},"vehicle_type_id":"4","last_reported":1704629537,"current_range_meters":30800,"station_id":"ce4bhqp2rcd13ifvqhog","pricing_plan_id":"free"},{"bike_id":"cdc52804-365f-47bc-ac28-e4ad9c3e46d7","system_id":"levelo_inurba_marseille","lat":43.32367,"lon":5.388836,"is_reserved":false,"is_disabled":false,"rental_uris":{"android":"levelo://app?vid=cdc52804-365f-47bc-ac28-e4ad9c3e46d7","ios":"levelo://app?vid=cdc52804-365f-47bc-ac28-e4ad9c3e46d7"},"vehicle_type_id":"4","last_reported":1704629537,"current_range_meters":30800,"station_id":"ce4bhqp2rcd13ifvqhog","pricing_plan_id":"free"},{"bike_id":"75a8a233-49eb-44ca-a6ff-e1203b9d1d72","system_id":"levelo_inurba_marseille","lat":43.29602,"lon":5.381084,"is_reserved":false,"is_disabled":false,"rental_uris":{"android":"levelo://app?vid=75a8a233-49eb-44ca-a6ff-e1203b9d1d72","ios":"levelo://app?vid=75a8a233-49eb-44ca-a6ff-e1203b9d1d72"},"vehicle_type_id":"4","last_reported":1704629537,"current_range_meters":24000,"station_id":"ce4bgl12rcd13ifvqbo0","pricing_plan_id":"free"},{"bike_id":"f1505aec-1395-4655-9cdc-11915a2b717c","system_id":"levelo_inurba_marseille","lat":43.293009,"lon":5.374584,"is_reserved":false,"is_disabled":false,"rental_uris":{"android":"levelo://app?vid=f1505aec-1395-4655-9cdc-11915a2b717c","ios":"levelo://app?vid=f1505aec-1395-4655-9cdc-11915a2b717c"},"vehicle_type_id":"4","last_reported":1704629537,"current_range_meters":29200,"station_id":"ce4bgi12rcd13ifvqb70","pricing_plan_id":"free"},{"bike_id":"5bcad76d-b2fe-45b7-a2b4-17e44f01dc51","system_id":"levelo_inurba_marseille","lat":43.293009,"lon":5.374584,"is_reserved":false,"is_disabled":false,"rental_uris":{"android":"levelo://app?vid=5bcad76d-b2fe-45b7-a2b4-17e44f01dc51","ios":"levelo://app?vid=5bcad76d-b2fe-45b7-a2b4-17e44f01dc51"},"vehicle_type_id":"4","last_reported":1704629537,"current_range_meters":27200,"station_id":"ce4bgi12rcd13ifvqb70","pricing_plan_id":"free"},{"bike_id":"9da74688-80fd-405f-b312-0b36646dcad5","system_id":"levelo_inurba_marseille","lat":43.303002,"lon":5.392142,"is_reserved":false,"is_disabled":false,"rental_uris":{"android":"levelo://app?vid=9da74688-80fd-405f-b312-0b36646dcad5","ios":"levelo://app?vid=9da74688-80fd-405f-b312-0b36646dcad5"},"vehicle_type_id":"4","last_reported":1704629537,"current_range_meters":30800,"station_id":"ce4bgkh2rcd13ifvqbk0","pricing_plan_id":"free"},{"bike_id":"733f713e-7317-4f74-95b6-25b57cde438e","system_id":"levelo_inurba_marseille","lat":43.30297,"lon":5.39216,"is_reserved":false,"is_disabled":false,"rental_uris":{"android":"levelo://app?vid=733f713e-7317-4f74-95b6-25b57cde438e","ios":"levelo://app?vid=733f713e-7317-4f74-95b6-25b57cde438e"},"vehicle_type_id":"4","last_reported":1704629537,"current_range_meters":12400,"station_id":"ce4bgkh2rcd13ifvqbk0","pricing_plan_id":"free"},{"bike_id":"0a60b9ed-5f6b-461f-a953-ef24ea717b17","system_id":"levelo_inurba_marseille","lat":43.292311,"lon":5.360731,"is_reserved":false,"is_disabled":false,"rental_uris":{"android":"levelo://app?vid=0a60b9ed-5f6b-461f-a953-ef24ea717b17","ios":"levelo://app?vid=0a60b9ed-5f6b-461f-a953-ef24ea717b17"},"vehicle_type_id":"4","last_reported":1704629537,"current_range_meters":23200,"station_id":"ce4bhbh2rcd13ifvqeqg","pricing_plan_id":"free"},{"bike_id":"5daaabd6-0643-483b-a1d9-ad2d92bbe838","system_id":"levelo_inurba_marseille","lat":43.300852,"lon":5.390859,"is_reserved":false,"is_disabled":false,"rental_uris":{"android":"levelo://app?vid=5daaabd6-0643-483b-a1d9-ad2d92bbe838","ios":"levelo://app?vid=5daaabd6-0643-483b-a1d9-ad2d92bbe838"},"vehicle_type_id":"4","last_reported":1704629537,"current_range_meters":18000,"station_id":"ce4bh192rcd13ifvqdb0","pricing_plan_id":"free"},{"bike_id":"7999e4b1-b9fc-4be5-b1c0-0e25603a9b99","system_id":"levelo_inurba_marseille","lat":43.30085,"lon":5.390856,"is_reserved":false,"is_disabled":false,"rental_uris":{"android":"levelo://app?vid=7999e4b1-b9fc-4be5-b1c0-0e25603a9b99","ios":"levelo://app?vid=7999e4b1-b9fc-4be5-b1c0-0e25603a9b99"},"vehicle_type_id":"4","last_reported":1704629537,"current_range_meters":25600,"station_id":"ce4bh192rcd13ifvqdb0","pricing_plan_id":"free"},{"bike_id":"8916738f-b248-4632-9b9e-f268074949a1","system_id":"levelo_inurba_marseille","lat":43.291671,"lon":5.371575,"is_reserved":false,"is_disabled":false,"rental_uris":{"android":"levelo://app?vid=8916738f-b248-4632-9b9e-f268074949a1","ios":"levelo://app?vid=8916738f-b248-4632-9b9e-f268074949a1"},"vehicle_type_id":"4","last_reported":1704629537,"current_range_meters":27600,"station_id":"ce4bha92rcd13ifvqeh0","pricing_plan_id":"free"},{"bike_id":"8214ba56-16fa-4c15-9e0b-9039815b6fec","system_id":"levelo_inurba_marseille","lat":43.291675,"lon":5.371583,"is_reserved":false,"is_disabled":false,"rental_uris":{"android":"levelo://app?vid=8214ba56-16fa-4c15-9e0b-9039815b6fec","ios":"levelo://app?vid=8214ba56-16fa-4c15-9e0b-9039815b6fec"},"vehicle_type_id":"4","last_reported":1704629537,"current_range_meters":15600,"station_id":"ce4bha92rcd13ifvqeh0","pricing_plan_id":"free"},{"bike_id":"719722b6-c0b5-41c5-854d-0427ebce7abf","system_id":"levelo_inurba_marseille","lat":43.291675,"lon":5.371583,"is_reserved":false,"is_disabled":false,"rental_uris":{"android":"levelo://app?vid=719722b6-c0b5-41c5-854d-0427ebce7abf","ios":"levelo://app?vid=719722b6-c0b5-41c5-854d-0427ebce7abf"},"vehicle_type_id":"4","last_reported":1704629537,"current_range_meters":28800,"station_id":"ce4bha92rcd13ifvqeh0","pricing_plan_id":"free"},{"bike_id":"ae2a9138-18ed-4595-8bb4-4817bfc4f816","system_id":"levelo_inurba_marseille","lat":43.291675,"lon":5.371583,"is_reserved":false,"is_disabled":false,"rental_uris":{"android":"levelo://app?vid=ae2a9138-18ed-4595-8bb4-4817bfc4f816","ios":"levelo://app?vid=ae2a9138-18ed-4595-8bb4-4817bfc4f816"},"vehicle_type_id":"4","last_reported":1704629537,"current_range_meters":26800,"station_id":"ce4bha92rcd13ifvqeh0","pricing_plan_id":"free"},{"bike_id":"79b5a47f-ebea-4486-8e54-cc1a7bd75c6e","system_id":"levelo_inurba_marseille","lat":43.291994,"lon":5.357886,"is_reserved":false,"is_disabled":false,"rental_uris":{"android":"levelo://app?vid=79b5a47f-ebea-4486-8e54-cc1a7bd75c6e","ios":"levelo://app?vid=79b5a47f-ebea-4486-8e54-cc1a7bd75c6e"},"vehicle_type_id":"4","last_reported":1704629537,"current_range_meters":16400,"station_id":"ce4bhb12rcd13ifvqel0","pricing_plan_id":"free"},{"bike_id":"0c55181c-11e1-4e55-9ca6-08cc7dab4996","system_id":"levelo_inurba_marseille","lat":43.313291,"lon":5.396838,"is_reserved":false,"is_disabled":false,"rental_uris":{"android":"levelo://app?vid=0c55181c-11e1-4e55-9ca6-08cc7dab4996","ios":"levelo://app?vid=0c55181c-11e1-4e55-9ca6-08cc7dab4996"},"vehicle_type_id":"4","last_reported":1704629537,"current_range_meters":21600,"station_id":"ce4bgvp2rcd13ifvqcu0","pricing_plan_id":"free"},{"bike_id":"95f6a36e-9303-4697-bbda-2024978f660e","system_id":"levelo_inurba_marseille","lat":43.313291,"lon":5.396838,"is_reserved":false,"is_disabled":false,"rental_uris":{"android":"levelo://app?vid=95f6a36e-9303-4697-bbda-2024978f660e","ios":"levelo://app?vid=95f6a36e-9303-4697-bbda-2024978f660e"},"vehicle_type_id":"4","last_reported":1704629537,"current_range_meters":29600,"station_id":"ce4bgvp2rcd13ifvqcu0","pricing_plan_id":"free"},{"bike_id":"82602c4f-65b2-4311-8e0f-02a3f42ac7c1","system_id":"levelo_inurba_marseille","lat":43.313291,"lon":5.396838,"is_reserved":false,"is_disabled":false,"rental_uris":{"android":"levelo://app?vid=82602c4f-65b2-4311-8e0f-02a3f42ac7c1","ios":"levelo://app?vid=82602c4f-65b2-4311-8e0f-02a3f42ac7c1"},"vehicle_type_id":"4","last_reported":1704629537,"current_range_meters":22000,"station_id":"ce4bgvp2rcd13ifvqcu0","pricing_plan_id":"free"},{"bike_id":"1d2960b8-60be-4cab-a361-0305908bc696","system_id":"levelo_inurba_marseille","lat":43.313291,"lon":5.396838,"is_reserved":false,"is_disabled":false,"rental_uris":{"android":"levelo://app?vid=1d2960b8-60be-4cab-a361-0305908bc696","ios":"levelo://app?vid=1d2960b8-60be-4cab-a361-0305908bc696"},"vehicle_type_id":"4","last_reported":1704629537,"current_range_meters":13200,"station_id":"ce4bgvp2rcd13ifvqcu0","pricing_plan_id":"free"},{"bike_id":"a32a7746-144b-4831-b829-ba30a3ecf321","system_id":"levelo_inurba_marseille","lat":43.313291,"lon":5.396838,"is_reserved":false,"is_disabled":false,"rental_uris":{"android":"levelo://app?vid=a32a7746-144b-4831-b829-ba30a3ecf321","ios":"levelo://app?vid=a32a7746-144b-4831-b829-ba30a3ecf321"},"vehicle_type_id":"4","last_reported":1704629537,"current_range_meters":30400,"station_id":"ce4bgvp2rcd13ifvqcu0","pricing_plan_id":"free"},{"bike_id":"07314d75-12cd-4f0e-b025-e1037b148c49","system_id":"levelo_inurba_marseille","lat":43.309038,"lon":5.396546,"is_reserved":false,"is_disabled":false,"rental_uris":{"android":"levelo://app?vid=07314d75-12cd-4f0e-b025-e1037b148c49","ios":"levelo://app?vid=07314d75-12cd-4f0e-b025-e1037b148c49"},"vehicle_type_id":"4","last_reported":1704629537,"current_range_meters":28400,"station_id":"ce4bh012rcd13ifvqcv0","pricing_plan_id":"free"},{"bike_id":"77e6d269-0bba-49b6-bd94-2f482fe6dc53","system_id":"levelo_inurba_marseille","lat":43.290779,"lon":5.371482,"is_reserved":false,"is_disabled":false,"rental_uris":{"android":"levelo://app?vid=77e6d269-0bba-49b6-bd94-2f482fe6dc53","ios":"levelo://app?vid=77e6d269-0bba-49b6-bd94-2f482fe6dc53"},"vehicle_type_id":"4","last_reported":1704629537,"current_range_meters":30400,"station_id":"ce4bh5p2rcd13ifvqe4g","pricing_plan_id":"free"},{"bike_id":"dd8183be-a822-4ba4-941f-f8962ed9c98a","system_id":"levelo_inurba_marseille","lat":43.290779,"lon":5.371482,"is_reserved":false,"is_disabled":false,"rental_uris":{"android":"levelo://app?vid=dd8183be-a822-4ba4-941f-f8962ed9c98a","ios":"levelo://app?vid=dd8183be-a822-4ba4-941f-f8962ed9c98a"},"vehicle_type_id":"4","last_reported":1704629537,"current_range_meters":26000,"station_id":"ce4bh5p2rcd13ifvqe4g","pricing_plan_id":"free"},{"bike_id":"c267dd1b-20e8-4788-9fbb-c6f8c2fa6a56","system_id":"levelo_inurba_marseille","lat":43.290073,"lon":5.35607,"is_reserved":false,"is_disabled":false,"rental_uris":{"android":"levelo://app?vid=c267dd1b-20e8-4788-9fbb-c6f8c2fa6a56","ios":"levelo://app?vid=c267dd1b-20e8-4788-9fbb-c6f8c2fa6a56"},"vehicle_type_id":"4","last_reported":1704629537,"current_range_meters":21600,"station_id":"ce4bhb92rcd13ifvqen0","pricing_plan_id":"free"},{"bike_id":"bb934503-d664-4247-bc48-fe7cb677b01c","system_id":"levelo_inurba_marseille","lat":43.29004,"lon":5.35611,"is_reserved":false,"is_disabled":false,"rental_uris":{"android":"levelo://app?vid=bb934503-d664-4247-bc48-fe7cb677b01c","ios":"levelo://app?vid=bb934503-d664-4247-bc48-fe7cb677b01c"},"vehicle_type_id":"4","last_reported":1704629537,"current_range_meters":24000,"station_id":"ce4bhb92rcd13ifvqen0","pricing_plan_id":"free"},{"bike_id":"161360f3-7572-432b-9789-1a3832602001","system_id":"levelo_inurba_marseille","lat":43.290036,"lon":5.356123,"is_reserved":false,"is_disabled":false,"rental_uris":{"android":"levelo://app?vid=161360f3-7572-432b-9789-1a3832602001","ios":"levelo://app?vid=161360f3-7572-432b-9789-1a3832602001"},"vehicle_type_id":"4","last_reported":1704629537,"current_range_meters":17600,"station_id":"ce4bhb92rcd13ifvqen0","pricing_plan_id":"free"},{"bike_id":"0f156316-050a-4b50-a5e5-efb090cfbd8c","system_id":"levelo_inurba_marseille","lat":43.290995,"lon":5.381361,"is_reserved":false,"is_disabled":false,"rental_uris":{"android":"levelo://app?vid=0f156316-050a-4b50-a5e5-efb090cfbd8c","ios":"levelo://app?vid=0f156316-050a-4b50-a5e5-efb090cfbd8c"},"vehicle_type_id":"4","last_reported":1704629537,"current_range_meters":30000,"station_id":"ce4bh512rcd13ifvqe2g","pricing_plan_id":"free"},{"bike_id":"29877edf-f914-4818-a395-be7aee9e9d72","system_id":"levelo_inurba_marseille","lat":43.330442,"lon":5.389148,"is_reserved":false,"is_disabled":false,"rental_uris":{"android":"levelo://app?vid=29877edf-f914-4818-a395-be7aee9e9d72","ios":"levelo://app?vid=29877edf-f914-4818-a395-be7aee9e9d72"},"vehicle_type_id":"4","last_reported":1704629537,"current_range_meters":15600,"station_id":"ce4bhr92rcd13ifvqhrg","pricing_plan_id":"free"},{"bike_id":"cae40047-590b-4bb0-8fe9-db1ac84adfa3","system_id":"levelo_inurba_marseille","lat":43.330442,"lon":5.389148,"is_reserved":false,"is_disabled":false,"rental_uris":{"android":"levelo://app?vid=cae40047-590b-4bb0-8fe9-db1ac84adfa3","ios":"levelo://app?vid=cae40047-590b-4bb0-8fe9-db1ac84adfa3"},"vehicle_type_id":"4","last_reported":1704629537,"current_range_meters":5600,"station_id":"ce4bhr92rcd13ifvqhrg","pricing_plan_id":"free"},{"bike_id":"8625464e-66d0-4621-bd34-1a2874fb7a19","system_id":"levelo_inurba_marseille","lat":43.330442,"lon":5.389148,"is_reserved":false,"is_disabled":false,"rental_uris":{"android":"levelo://app?vid=8625464e-66d0-4621-bd34-1a2874fb7a19","ios":"levelo://app?vid=8625464e-66d0-4621-bd34-1a2874fb7a19"},"vehicle_type_id":"4","last_reported":1704629537,"current_range_meters":31200,"station_id":"ce4bhr92rcd13ifvqhrg","pricing_plan_id":"free"},{"bike_id":"7c7a6206-545f-4749-ace7-a0c9f17d3062","system_id":"levelo_inurba_marseille","lat":43.330442,"lon":5.389148,"is_reserved":false,"is_disabled":false,"rental_uris":{"android":"levelo://app?vid=7c7a6206-545f-4749-ace7-a0c9f17d3062","ios":"levelo://app?vid=7c7a6206-545f-4749-ace7-a0c9f17d3062"},"vehicle_type_id":"4","last_reported":1704629537,"current_range_meters":14400,"station_id":"ce4bhr92rcd13ifvqhrg","pricing_plan_id":"free"},{"bike_id":"57a59c67-703f-4a83-aae5-f27109cb99b9","system_id":"levelo_inurba_marseille","lat":43.330442,"lon":5.389148,"is_reserved":false,"is_disabled":false,"rental_uris":{"android":"levelo://app?vid=57a59c67-703f-4a83-aae5-f27109cb99b9","ios":"levelo://app?vid=57a59c67-703f-4a83-aae5-f27109cb99b9"},"vehicle_type_id":"4","last_reported":1704629537,"current_range_meters":19200,"station_id":"ce4bhr92rcd13ifvqhrg","pricing_plan_id":"free"},{"bike_id":"604d70e1-4bfc-4c1a-ad50-5c45b428d61e","system_id":"levelo_inurba_marseille","lat":43.330442,"lon":5.389148,"is_reserved":false,"is_disabled":false,"rental_uris":{"android":"levelo://app?vid=604d70e1-4bfc-4c1a-ad50-5c45b428d61e","ios":"levelo://app?vid=604d70e1-4bfc-4c1a-ad50-5c45b428d61e"},"vehicle_type_id":"4","last_reported":1704629537,"current_range_meters":19200,"station_id":"ce4bhr92rcd13ifvqhrg","pricing_plan_id":"free"},{"bike_id":"9b00f8fb-6206-4605-ac45-58056796f106","system_id":"levelo_inurba_marseille","lat":43.290094,"lon":5.381264,"is_reserved":false,"is_disabled":false,"rental_uris":{"android":"levelo://app?vid=9b00f8fb-6206-4605-ac45-58056796f106","ios":"levelo://app?vid=9b00f8fb-6206-4605-ac45-58056796f106"},"vehicle_type_id":"4","last_reported":1704629537,"current_range_meters":30800,"station_id":"ce4bh4p2rcd13ifvqe1g","pricing_plan_id":"free"},{"bike_id":"71a5ab37-8afd-4cf6-ba9e-07e5096ddd0b","system_id":"levelo_inurba_marseille","lat":43.312609,"lon":5.401662,"is_reserved":false,"is_disabled":false,"rental_uris":{"android":"levelo://app?vid=71a5ab37-8afd-4cf6-ba9e-07e5096ddd0b","ios":"levelo://app?vid=71a5ab37-8afd-4cf6-ba9e-07e5096ddd0b"},"vehicle_type_id":"4","last_reported":1704629537,"current_range_meters":30400,"station_id":"ce4bh092rcd13ifvqd30","pricing_plan_id":"free"},{"bike_id":"d2980ee9-886d-4b76-9a8c-6c1cc8ac6543","system_id":"levelo_inurba_marseille","lat":43.312609,"lon":5.401662,"is_reserved":false,"is_disabled":false,"rental_uris":{"android":"levelo://app?vid=d2980ee9-886d-4b76-9a8c-6c1cc8ac6543","ios":"levelo://app?vid=d2980ee9-886d-4b76-9a8c-6c1cc8ac6543"},"vehicle_type_id":"4","last_reported":1704629537,"current_range_meters":1200,"station_id":"ce4bh092rcd13ifvqd30","pricing_plan_id":"free"},{"bike_id":"c5527485-3bbb-4ad9-ac15-0be0dadc774a","system_id":"levelo_inurba_marseille","lat":43.309371,"lon":5.401449,"is_reserved":false,"is_disabled":false,"rental_uris":{"android":"levelo://app?vid=c5527485-3bbb-4ad9-ac15-0be0dadc774a","ios":"levelo://app?vid=c5527485-3bbb-4ad9-ac15-0be0dadc774a"},"vehicle_type_id":"4","last_reported":1704629537,"current_range_meters":18000,"station_id":"ce4bgvp2rcd13ifvqct0","pricing_plan_id":"free"},{"bike_id":"79880bce-d32e-4636-9493-e11747d49352","system_id":"levelo_inurba_marseille","lat":43.309371,"lon":5.401449,"is_reserved":false,"is_disabled":false,"rental_uris":{"android":"levelo://app?vid=79880bce-d32e-4636-9493-e11747d49352","ios":"levelo://app?vid=79880bce-d32e-4636-9493-e11747d49352"},"vehicle_type_id":"4","last_reported":1704629537,"current_range_meters":30800,"station_id":"ce4bgvp2rcd13ifvqct0","pricing_plan_id":"free"},{"bike_id":"93310879-61e1-4b67-9a43-dfdb7f577908","system_id":"levelo_inurba_marseille","lat":43.30635,"lon":5.40069,"is_reserved":false,"is_disabled":false,"rental_uris":{"android":"levelo://app?vid=93310879-61e1-4b67-9a43-dfdb7f577908","ios":"levelo://app?vid=93310879-61e1-4b67-9a43-dfdb7f577908"},"vehicle_type_id":"4","last_reported":1704629537,"current_range_meters":25200,"station_id":"ce4bh112rcd13ifvqda0","pricing_plan_id":"free"},{"bike_id":"d7eacd65-805a-418e-a709-aba6de0ca27c","system_id":"levelo_inurba_marseille","lat":43.306378,"lon":5.400713,"is_reserved":false,"is_disabled":false,"rental_uris":{"android":"levelo://app?vid=d7eacd65-805a-418e-a709-aba6de0ca27c","ios":"levelo://app?vid=d7eacd65-805a-418e-a709-aba6de0ca27c"},"vehicle_type_id":"4","last_reported":1704629537,"current_range_meters":11600,"station_id":"ce4bh112rcd13ifvqda0","pricing_plan_id":"free"},{"bike_id":"c8150c2e-9fca-4c4a-8d6c-895c5f80e74a","system_id":"levelo_inurba_marseille","lat":43.309371,"lon":5.401449,"is_reserved":false,"is_disabled":false,"rental_uris":{"android":"levelo://app?vid=c8150c2e-9fca-4c4a-8d6c-895c5f80e74a","ios":"levelo://app?vid=c8150c2e-9fca-4c4a-8d6c-895c5f80e74a"},"vehicle_type_id":"4","last_reported":1704629537,"current_range_meters":8000,"station_id":"ce4bgvp2rcd13ifvqct0","pricing_plan_id":"free"},{"bike_id":"aff23bde-0640-48b1-ae47-acfe1f09273e","system_id":"levelo_inurba_marseille","lat":43.301117,"lon":5.398795,"is_reserved":false,"is_disabled":false,"rental_uris":{"android":"levelo://app?vid=aff23bde-0640-48b1-ae47-acfe1f09273e","ios":"levelo://app?vid=aff23bde-0640-48b1-ae47-acfe1f09273e"},"vehicle_type_id":"4","last_reported":1704629537,"current_range_meters":26800,"station_id":"ce4bh0h2rcd13ifvqd40","pricing_plan_id":"free"},{"bike_id":"e1ab8113-b962-49c7-b7dd-16ad9ff65aa9","system_id":"levelo_inurba_marseille","lat":43.301117,"lon":5.398795,"is_reserved":false,"is_disabled":false,"rental_uris":{"android":"levelo://app?vid=e1ab8113-b962-49c7-b7dd-16ad9ff65aa9","ios":"levelo://app?vid=e1ab8113-b962-49c7-b7dd-16ad9ff65aa9"},"vehicle_type_id":"4","last_reported":1704629537,"current_range_meters":26400,"station_id":"ce4bh0h2rcd13ifvqd40","pricing_plan_id":"free"},{"bike_id":"e1a5fe7d-0a98-4d0a-a94f-b2bfd529b2b3","system_id":"levelo_inurba_marseille","lat":43.30638,"lon":5.40096,"is_reserved":false,"is_disabled":false,"rental_uris":{"android":"levelo://app?vid=e1a5fe7d-0a98-4d0a-a94f-b2bfd529b2b3","ios":"levelo://app?vid=e1a5fe7d-0a98-4d0a-a94f-b2bfd529b2b3"},"vehicle_type_id":"4","last_reported":1704629537,"current_range_meters":17600,"station_id":"ce4bh112rcd13ifvqda0","pricing_plan_id":"free"},{"bike_id":"99955737-3050-4227-b1e4-dac8e5d13ece","system_id":"levelo_inurba_marseille","lat":43.28727,"lon":5.36078,"is_reserved":false,"is_disabled":false,"rental_uris":{"android":"levelo://app?vid=99955737-3050-4227-b1e4-dac8e5d13ece","ios":"levelo://app?vid=99955737-3050-4227-b1e4-dac8e5d13ece"},"vehicle_type_id":"4","last_reported":1704629537,"current_range_meters":28000,"station_id":"cki0cbj6b192h4jlfktg","pricing_plan_id":"free"},{"bike_id":"94b3ddfa-090a-43a9-858e-5ccda96b1594","system_id":"levelo_inurba_marseille","lat":43.28727,"lon":5.36078,"is_reserved":false,"is_disabled":false,"rental_uris":{"android":"levelo://app?vid=94b3ddfa-090a-43a9-858e-5ccda96b1594","ios":"levelo://app?vid=94b3ddfa-090a-43a9-858e-5ccda96b1594"},"vehicle_type_id":"4","last_reported":1704629537,"current_range_meters":26400,"station_id":"cki0cbj6b192h4jlfktg","pricing_plan_id":"free"},{"bike_id":"f182b2a2-f3ed-48be-83e1-8510337afb10","system_id":"levelo_inurba_marseille","lat":43.286961,"lon":5.373785,"is_reserved":false,"is_disabled":false,"rental_uris":{"android":"levelo://app?vid=f182b2a2-f3ed-48be-83e1-8510337afb10","ios":"levelo://app?vid=f182b2a2-f3ed-48be-83e1-8510337afb10"},"vehicle_type_id":"4","last_reported":1704629537,"current_range_meters":10000,"station_id":"ce4bh3p2rcd13ifvqdq0","pricing_plan_id":"free"},{"bike_id":"c7ac699f-5088-4545-8266-93985854909a","system_id":"levelo_inurba_marseille","lat":43.295196,"lon":5.39397,"is_reserved":false,"is_disabled":false,"rental_uris":{"android":"levelo://app?vid=c7ac699f-5088-4545-8266-93985854909a","ios":"levelo://app?vid=c7ac699f-5088-4545-8266-93985854909a"},"vehicle_type_id":"4","last_reported":1704629537,"current_range_meters":19600,"station_id":"ce4bh292rcd13ifvqdf0","pricing_plan_id":"free"},{"bike_id":"d9244805-05f0-4d80-a40b-2588bf892be1","system_id":"levelo_inurba_marseille","lat":43.286593,"lon":5.363346,"is_reserved":false,"is_disabled":false,"rental_uris":{"android":"levelo://app?vid=d9244805-05f0-4d80-a40b-2588bf892be1","ios":"levelo://app?vid=d9244805-05f0-4d80-a40b-2588bf892be1"},"vehicle_type_id":"4","last_reported":1704629537,"current_range_meters":28000,"station_id":"ce4bhah2rcd13ifvqej0","pricing_plan_id":"free"},{"bike_id":"40665879-7b09-4421-a451-3464bab8ef30","system_id":"levelo_inurba_marseille","lat":43.286961,"lon":5.373785,"is_reserved":false,"is_disabled":false,"rental_uris":{"android":"levelo://app?vid=40665879-7b09-4421-a451-3464bab8ef30","ios":"levelo://app?vid=40665879-7b09-4421-a451-3464bab8ef30"},"vehicle_type_id":"4","last_reported":1704629537,"current_range_meters":26400,"station_id":"ce4bh3p2rcd13ifvqdq0","pricing_plan_id":"free"},{"bike_id":"fcb822fe-f541-4cac-820c-28c0950f024a","system_id":"levelo_inurba_marseille","lat":43.295194,"lon":5.39397,"is_reserved":false,"is_disabled":false,"rental_uris":{"android":"levelo://app?vid=fcb822fe-f541-4cac-820c-28c0950f024a","ios":"levelo://app?vid=fcb822fe-f541-4cac-820c-28c0950f024a"},"vehicle_type_id":"4","last_reported":1704629537,"current_range_meters":0,"station_id":"ce4bh292rcd13ifvqdf0","pricing_plan_id":"free"},{"bike_id":"aa165219-3e9e-4c8f-b35b-244f2b3bfead","system_id":"levelo_inurba_marseille","lat":43.29027,"lon":5.38654,"is_reserved":false,"is_disabled":false,"rental_uris":{"android":"levelo://app?vid=aa165219-3e9e-4c8f-b35b-244f2b3bfead","ios":"levelo://app?vid=aa165219-3e9e-4c8f-b35b-244f2b3bfead"},"vehicle_type_id":"4","last_reported":1704629537,"current_range_meters":19600,"station_id":"ce4bh4p2rcd13ifvqe0g","pricing_plan_id":"free"},{"bike_id":"88fe19a8-8798-4719-a4a3-2c0343c72289","system_id":"levelo_inurba_marseille","lat":43.290345,"lon":5.38646,"is_reserved":false,"is_disabled":false,"rental_uris":{"android":"levelo://app?vid=88fe19a8-8798-4719-a4a3-2c0343c72289","ios":"levelo://app?vid=88fe19a8-8798-4719-a4a3-2c0343c72289"},"vehicle_type_id":"4","last_reported":1704629537,"current_range_meters":25200,"station_id":"ce4bh4p2rcd13ifvqe0g","pricing_plan_id":"free"},{"bike_id":"398026f8-e0c3-4a1c-a0bb-f5f6e64391fb","system_id":"levelo_inurba_marseille","lat":43.290345,"lon":5.38646,"is_reserved":false,"is_disabled":false,"rental_uris":{"android":"levelo://app?vid=398026f8-e0c3-4a1c-a0bb-f5f6e64391fb","ios":"levelo://app?vid=398026f8-e0c3-4a1c-a0bb-f5f6e64391fb"},"vehicle_type_id":"4","last_reported":1704629537,"current_range_meters":4400,"station_id":"ce4bh4p2rcd13ifvqe0g","pricing_plan_id":"free"},{"bike_id":"62675fad-c0d8-4cf0-ad08-192231905533","system_id":"levelo_inurba_marseille","lat":43.302759,"lon":5.400793,"is_reserved":false,"is_disabled":false,"rental_uris":{"android":"levelo://app?vid=62675fad-c0d8-4cf0-ad08-192231905533","ios":"levelo://app?vid=62675fad-c0d8-4cf0-ad08-192231905533"},"vehicle_type_id":"4","last_reported":1704629537,"current_range_meters":28000,"station_id":"ce4bgvh2rcd13ifvqcs0","pricing_plan_id":"free"},{"bike_id":"6c976029-5e7e-4dd8-bfaa-4c5c5ee6fad0","system_id":"levelo_inurba_marseille","lat":43.286039,"lon":5.370679,"is_reserved":false,"is_disabled":false,"rental_uris":{"android":"levelo://app?vid=6c976029-5e7e-4dd8-bfaa-4c5c5ee6fad0","ios":"levelo://app?vid=6c976029-5e7e-4dd8-bfaa-4c5c5ee6fad0"},"vehicle_type_id":"4","last_reported":1704629537,"current_range_meters":30400,"station_id":"ce4bht12rcd13ifvqi60","pricing_plan_id":"free"},{"bike_id":"3d586703-e7c7-4c93-820c-cc285dc4e8ac","system_id":"levelo_inurba_marseille","lat":43.286039,"lon":5.370681,"is_reserved":false,"is_disabled":false,"rental_uris":{"android":"levelo://app?vid=3d586703-e7c7-4c93-820c-cc285dc4e8ac","ios":"levelo://app?vid=3d586703-e7c7-4c93-820c-cc285dc4e8ac"},"vehicle_type_id":"4","last_reported":1704629537,"current_range_meters":28800,"station_id":"ce4bht12rcd13ifvqi60","pricing_plan_id":"free"},{"bike_id":"84645f28-366a-4535-a26a-f425708bd0f6","system_id":"levelo_inurba_marseille","lat":43.287184,"lon":5.37937,"is_reserved":false,"is_disabled":false,"rental_uris":{"android":"levelo://app?vid=84645f28-366a-4535-a26a-f425708bd0f6","ios":"levelo://app?vid=84645f28-366a-4535-a26a-f425708bd0f6"},"vehicle_type_id":"4","last_reported":1704629537,"current_range_meters":28400,"station_id":"ce4bh9p2rcd13ifvqec0","pricing_plan_id":"free"},{"bike_id":"5b6159d7-8602-452c-88a8-06b6b3d10096","system_id":"levelo_inurba_marseille","lat":43.316821,"lon":5.404737,"is_reserved":false,"is_disabled":false,"rental_uris":{"android":"levelo://app?vid=5b6159d7-8602-452c-88a8-06b6b3d10096","ios":"levelo://app?vid=5b6159d7-8602-452c-88a8-06b6b3d10096"},"vehicle_type_id":"4","last_reported":1704629537,"current_range_meters":24400,"station_id":"ce4bh012rcd13ifvqd00","pricing_plan_id":"free"},{"bike_id":"a1d745ef-3b4d-49c6-8988-d06db4b4f75a","system_id":"levelo_inurba_marseille","lat":43.291994,"lon":5.392907,"is_reserved":false,"is_disabled":false,"rental_uris":{"android":"levelo://app?vid=a1d745ef-3b4d-49c6-8988-d06db4b4f75a","ios":"levelo://app?vid=a1d745ef-3b4d-49c6-8988-d06db4b4f75a"},"vehicle_type_id":"4","last_reported":1704629537,"current_range_meters":21600,"station_id":"ce4bh192rcd13ifvqdd0","pricing_plan_id":"free"},{"bike_id":"154efb84-26fc-49e6-ada6-5bf0c44dd6f0","system_id":"levelo_inurba_marseille","lat":43.285856,"lon":5.350771,"is_reserved":false,"is_disabled":false,"rental_uris":{"android":"levelo://app?vid=154efb84-26fc-49e6-ada6-5bf0c44dd6f0","ios":"levelo://app?vid=154efb84-26fc-49e6-ada6-5bf0c44dd6f0"},"vehicle_type_id":"4","last_reported":1704629537,"current_range_meters":9600,"station_id":"ce4bhch2rcd13ifvqeug","pricing_plan_id":"free"},{"bike_id":"e7d08906-0d87-4715-8ffa-bdb9be03abd3","system_id":"levelo_inurba_marseille","lat":43.285856,"lon":5.350771,"is_reserved":false,"is_disabled":false,"rental_uris":{"android":"levelo://app?vid=e7d08906-0d87-4715-8ffa-bdb9be03abd3","ios":"levelo://app?vid=e7d08906-0d87-4715-8ffa-bdb9be03abd3"},"vehicle_type_id":"4","last_reported":1704629537,"current_range_meters":17600,"station_id":"ce4bhch2rcd13ifvqeug","pricing_plan_id":"free"},{"bike_id":"00b48936-7085-4cf8-b9f8-bfaeaa1c2437","system_id":"levelo_inurba_marseille","lat":43.285856,"lon":5.350771,"is_reserved":false,"is_disabled":false,"rental_uris":{"android":"levelo://app?vid=00b48936-7085-4cf8-b9f8-bfaeaa1c2437","ios":"levelo://app?vid=00b48936-7085-4cf8-b9f8-bfaeaa1c2437"},"vehicle_type_id":"4","last_reported":1704629537,"current_range_meters":23600,"station_id":"ce4bhch2rcd13ifvqeug","pricing_plan_id":"free"},{"bike_id":"a8a5a961-0292-4b80-81a4-a594170f711e","system_id":"levelo_inurba_marseille","lat":43.285856,"lon":5.350771,"is_reserved":false,"is_disabled":false,"rental_uris":{"android":"levelo://app?vid=a8a5a961-0292-4b80-81a4-a594170f711e","ios":"levelo://app?vid=a8a5a961-0292-4b80-81a4-a594170f711e"},"vehicle_type_id":"4","last_reported":1704629537,"current_range_meters":18400,"station_id":"ce4bhch2rcd13ifvqeug","pricing_plan_id":"free"},{"bike_id":"43b3ea92-a636-409a-a2bf-2cfcdf83346d","system_id":"levelo_inurba_marseille","lat":43.285856,"lon":5.350771,"is_reserved":false,"is_disabled":false,"rental_uris":{"android":"levelo://app?vid=43b3ea92-a636-409a-a2bf-2cfcdf83346d","ios":"levelo://app?vid=43b3ea92-a636-409a-a2bf-2cfcdf83346d"},"vehicle_type_id":"4","last_reported":1704629537,"current_range_meters":24400,"station_id":"ce4bhch2rcd13ifvqeug","pricing_plan_id":"free"},{"bike_id":"7e545478-533c-4cff-816a-9cd5b9b3b5a2","system_id":"levelo_inurba_marseille","lat":43.285856,"lon":5.350771,"is_reserved":false,"is_disabled":false,"rental_uris":{"android":"levelo://app?vid=7e545478-533c-4cff-816a-9cd5b9b3b5a2","ios":"levelo://app?vid=7e545478-533c-4cff-816a-9cd5b9b3b5a2"},"vehicle_type_id":"4","last_reported":1704629537,"current_range_meters":29600,"station_id":"ce4bhch2rcd13ifvqeug","pricing_plan_id":"free"},{"bike_id":"5688a380-9bf4-41fc-824e-d906fd2a2179","system_id":"levelo_inurba_marseille","lat":43.285856,"lon":5.350771,"is_reserved":false,"is_disabled":false,"rental_uris":{"android":"levelo://app?vid=5688a380-9bf4-41fc-824e-d906fd2a2179","ios":"levelo://app?vid=5688a380-9bf4-41fc-824e-d906fd2a2179"},"vehicle_type_id":"4","last_reported":1704629537,"current_range_meters":12800,"station_id":"ce4bhch2rcd13ifvqeug","pricing_plan_id":"free"},{"bike_id":"77dcd9db-8541-482e-80ea-3465701dc93c","system_id":"levelo_inurba_marseille","lat":43.285856,"lon":5.350771,"is_reserved":false,"is_disabled":false,"rental_uris":{"android":"levelo://app?vid=77dcd9db-8541-482e-80ea-3465701dc93c","ios":"levelo://app?vid=77dcd9db-8541-482e-80ea-3465701dc93c"},"vehicle_type_id":"4","last_reported":1704629537,"current_range_meters":14800,"station_id":"ce4bhch2rcd13ifvqeug","pricing_plan_id":"free"},{"bike_id":"dffb7f5d-3b19-429d-ac37-bf521bd72a68","system_id":"levelo_inurba_marseille","lat":43.28611,"lon":5.35111,"is_reserved":false,"is_disabled":false,"rental_uris":{"android":"levelo://app?vid=dffb7f5d-3b19-429d-ac37-bf521bd72a68","ios":"levelo://app?vid=dffb7f5d-3b19-429d-ac37-bf521bd72a68"},"vehicle_type_id":"4","last_reported":1704629537,"current_range_meters":30000,"station_id":"ce4bhch2rcd13ifvqeug","pricing_plan_id":"free"},{"bike_id":"01e59b64-29e9-4e48-86ad-7a3b4b582e04","system_id":"levelo_inurba_marseille","lat":43.285856,"lon":5.350771,"is_reserved":false,"is_disabled":false,"rental_uris":{"android":"levelo://app?vid=01e59b64-29e9-4e48-86ad-7a3b4b582e04","ios":"levelo://app?vid=01e59b64-29e9-4e48-86ad-7a3b4b582e04"},"vehicle_type_id":"4","last_reported":1704629537,"current_range_meters":28000,"station_id":"ce4bhch2rcd13ifvqeug","pricing_plan_id":"free"},{"bike_id":"f6d84242-536a-4227-995d-300e54eb18f6","system_id":"levelo_inurba_marseille","lat":43.28611,"lon":5.35106,"is_reserved":false,"is_disabled":false,"rental_uris":{"android":"levelo://app?vid=f6d84242-536a-4227-995d-300e54eb18f6","ios":"levelo://app?vid=f6d84242-536a-4227-995d-300e54eb18f6"},"vehicle_type_id":"4","last_reported":1704629537,"current_range_meters":8800,"station_id":"ce4bhch2rcd13ifvqeug","pricing_plan_id":"free"},{"bike_id":"b0d9c37a-12b7-4fcf-b2cc-70034df7a04b","system_id":"levelo_inurba_marseille","lat":43.29831,"lon":5.40154,"is_reserved":false,"is_disabled":false,"rental_uris":{"android":"levelo://app?vid=b0d9c37a-12b7-4fcf-b2cc-70034df7a04b","ios":"levelo://app?vid=b0d9c37a-12b7-4fcf-b2cc-70034df7a04b"},"vehicle_type_id":"4","last_reported":1704629537,"current_range_meters":0,"station_id":"","pricing_plan_id":"free"},{"bike_id":"2f3f9345-300d-4fbb-ba09-670bdff46489","system_id":"levelo_inurba_marseille","lat":43.319179,"lon":5.407725,"is_reserved":false,"is_disabled":false,"rental_uris":{"android":"levelo://app?vid=2f3f9345-300d-4fbb-ba09-670bdff46489","ios":"levelo://app?vid=2f3f9345-300d-4fbb-ba09-670bdff46489"},"vehicle_type_id":"4","last_reported":1704629537,"current_range_meters":27600,"station_id":"ce4bhq12rcd13ifvqhig","pricing_plan_id":"free"},{"bike_id":"50e7bc1f-9360-44c4-b0ce-42beb6cfdfce","system_id":"levelo_inurba_marseille","lat":43.319179,"lon":5.407725,"is_reserved":false,"is_disabled":false,"rental_uris":{"android":"levelo://app?vid=50e7bc1f-9360-44c4-b0ce-42beb6cfdfce","ios":"levelo://app?vid=50e7bc1f-9360-44c4-b0ce-42beb6cfdfce"},"vehicle_type_id":"4","last_reported":1704629537,"current_range_meters":24800,"station_id":"ce4bhq12rcd13ifvqhig","pricing_plan_id":"free"},{"bike_id":"54bec85a-3ad1-4ccc-9cab-e86a90c0ca6c","system_id":"levelo_inurba_marseille","lat":43.323464,"lon":5.406297,"is_reserved":false,"is_disabled":false,"rental_uris":{"android":"levelo://app?vid=54bec85a-3ad1-4ccc-9cab-e86a90c0ca6c","ios":"levelo://app?vid=54bec85a-3ad1-4ccc-9cab-e86a90c0ca6c"},"vehicle_type_id":"4","last_reported":1704629537,"current_range_meters":31600,"station_id":"ce4bhq92rcd13ifvqhjg","pricing_plan_id":"free"},{"bike_id":"747b4a07-a8db-40b3-a2bf-387b48385f47","system_id":"levelo_inurba_marseille","lat":43.323464,"lon":5.406297,"is_reserved":false,"is_disabled":false,"rental_uris":{"android":"levelo://app?vid=747b4a07-a8db-40b3-a2bf-387b48385f47","ios":"levelo://app?vid=747b4a07-a8db-40b3-a2bf-387b48385f47"},"vehicle_type_id":"4","last_reported":1704629537,"current_range_meters":20800,"station_id":"ce4bhq92rcd13ifvqhjg","pricing_plan_id":"free"},{"bike_id":"c90466d8-af0f-424c-ae93-c45253e4c4fa","system_id":"levelo_inurba_marseille","lat":43.323464,"lon":5.406297,"is_reserved":false,"is_disabled":false,"rental_uris":{"android":"levelo://app?vid=c90466d8-af0f-424c-ae93-c45253e4c4fa","ios":"levelo://app?vid=c90466d8-af0f-424c-ae93-c45253e4c4fa"},"vehicle_type_id":"4","last_reported":1704629537,"current_range_meters":10000,"station_id":"ce4bhq92rcd13ifvqhjg","pricing_plan_id":"free"},{"bike_id":"7d0030ca-5fd6-4caa-80e2-b1e7d6772e57","system_id":"levelo_inurba_marseille","lat":43.284793,"lon":5.384113,"is_reserved":false,"is_disabled":false,"rental_uris":{"android":"levelo://app?vid=7d0030ca-5fd6-4caa-80e2-b1e7d6772e57","ios":"levelo://app?vid=7d0030ca-5fd6-4caa-80e2-b1e7d6772e57"},"vehicle_type_id":"4","last_reported":1704629537,"current_range_meters":22800,"station_id":"ce4bh512rcd13ifvqe3g","pricing_plan_id":"free"},{"bike_id":"0f98ec4c-326d-4d9f-a16b-2383bb9d2fc6","system_id":"levelo_inurba_marseille","lat":43.288501,"lon":5.393087,"is_reserved":false,"is_disabled":false,"rental_uris":{"android":"levelo://app?vid=0f98ec4c-326d-4d9f-a16b-2383bb9d2fc6","ios":"levelo://app?vid=0f98ec4c-326d-4d9f-a16b-2383bb9d2fc6"},"vehicle_type_id":"4","last_reported":1704629537,"current_range_meters":25200,"station_id":"ce4bh2p2rcd13ifvqdi0","pricing_plan_id":"free"},{"bike_id":"4714bef9-5f38-4c26-b888-7b40cc11f281","system_id":"levelo_inurba_marseille","lat":43.284219,"lon":5.3497,"is_reserved":false,"is_disabled":false,"rental_uris":{"android":"levelo://app?vid=4714bef9-5f38-4c26-b888-7b40cc11f281","ios":"levelo://app?vid=4714bef9-5f38-4c26-b888-7b40cc11f281"},"vehicle_type_id":"4","last_reported":1704629537,"current_range_meters":32000,"station_id":"ce4bhbh2rcd13ifvqepg","pricing_plan_id":"free"},{"bike_id":"74c757a3-57f5-43bc-9cbd-c0caf045d565","system_id":"levelo_inurba_marseille","lat":43.284219,"lon":5.3497,"is_reserved":false,"is_disabled":false,"rental_uris":{"android":"levelo://app?vid=74c757a3-57f5-43bc-9cbd-c0caf045d565","ios":"levelo://app?vid=74c757a3-57f5-43bc-9cbd-c0caf045d565"},"vehicle_type_id":"4","last_reported":1704629537,"current_range_meters":25600,"station_id":"ce4bhbh2rcd13ifvqepg","pricing_plan_id":"free"},{"bike_id":"089fd505-dace-46fe-a5f8-d3c86a685bad","system_id":"levelo_inurba_marseille","lat":43.284235,"lon":5.349931,"is_reserved":false,"is_disabled":false,"rental_uris":{"android":"levelo://app?vid=089fd505-dace-46fe-a5f8-d3c86a685bad","ios":"levelo://app?vid=089fd505-dace-46fe-a5f8-d3c86a685bad"},"vehicle_type_id":"4","last_reported":1704629537,"current_range_meters":20400,"station_id":"ce4bhbh2rcd13ifvqepg","pricing_plan_id":"free"},{"bike_id":"9329076a-0d3e-4112-be77-66dd924dd8e2","system_id":"levelo_inurba_marseille","lat":43.284219,"lon":5.3497,"is_reserved":false,"is_disabled":false,"rental_uris":{"android":"levelo://app?vid=9329076a-0d3e-4112-be77-66dd924dd8e2","ios":"levelo://app?vid=9329076a-0d3e-4112-be77-66dd924dd8e2"},"vehicle_type_id":"4","last_reported":1704629537,"current_range_meters":12800,"station_id":"ce4bhbh2rcd13ifvqepg","pricing_plan_id":"free"},{"bike_id":"9117797d-3df0-46d0-9e5c-883fbec69ea3","system_id":"levelo_inurba_marseille","lat":43.284219,"lon":5.3497,"is_reserved":false,"is_disabled":false,"rental_uris":{"android":"levelo://app?vid=9117797d-3df0-46d0-9e5c-883fbec69ea3","ios":"levelo://app?vid=9117797d-3df0-46d0-9e5c-883fbec69ea3"},"vehicle_type_id":"4","last_reported":1704629537,"current_range_meters":29600,"station_id":"ce4bhbh2rcd13ifvqepg","pricing_plan_id":"free"},{"bike_id":"c3f119c8-a2c3-48cd-a23a-407567ed222b","system_id":"levelo_inurba_marseille","lat":43.284217,"lon":5.349697,"is_reserved":false,"is_disabled":false,"rental_uris":{"android":"levelo://app?vid=c3f119c8-a2c3-48cd-a23a-407567ed222b","ios":"levelo://app?vid=c3f119c8-a2c3-48cd-a23a-407567ed222b"},"vehicle_type_id":"4","last_reported":1704629537,"current_range_meters":31200,"station_id":"ce4bhbh2rcd13ifvqepg","pricing_plan_id":"free"},{"bike_id":"fa9ea4b8-ee0c-4c5f-982b-95b50d12858a","system_id":"levelo_inurba_marseille","lat":43.283498,"lon":5.380948,"is_reserved":false,"is_disabled":false,"rental_uris":{"android":"levelo://app?vid=fa9ea4b8-ee0c-4c5f-982b-95b50d12858a","ios":"levelo://app?vid=fa9ea4b8-ee0c-4c5f-982b-95b50d12858a"},"vehicle_type_id":"4","last_reported":1704629537,"current_range_meters":2400,"station_id":"ce4bh412rcd13ifvqdr0","pricing_plan_id":"free"},{"bike_id":"d6cf9ad8-9892-44d5-a0af-7f7d54026128","system_id":"levelo_inurba_marseille","lat":43.292724,"lon":5.401131,"is_reserved":false,"is_disabled":false,"rental_uris":{"android":"levelo://app?vid=d6cf9ad8-9892-44d5-a0af-7f7d54026128","ios":"levelo://app?vid=d6cf9ad8-9892-44d5-a0af-7f7d54026128"},"vehicle_type_id":"4","last_reported":1704629537,"current_range_meters":31200,"station_id":"ce4bh312rcd13ifvqdk0","pricing_plan_id":"free"},{"bike_id":"fd817817-289b-4ac7-a1d1-8ad432f14ee3","system_id":"levelo_inurba_marseille","lat":43.282744,"lon":5.350533,"is_reserved":false,"is_disabled":false,"rental_uris":{"android":"levelo://app?vid=fd817817-289b-4ac7-a1d1-8ad432f14ee3","ios":"levelo://app?vid=fd817817-289b-4ac7-a1d1-8ad432f14ee3"},"vehicle_type_id":"4","last_reported":1704629537,"current_range_meters":17200,"station_id":"ce4bhbp2rcd13ifvqerg","pricing_plan_id":"free"},{"bike_id":"d807c3a1-c397-4042-a278-4e087381b3b6","system_id":"levelo_inurba_marseille","lat":43.28274,"lon":5.35074,"is_reserved":false,"is_disabled":false,"rental_uris":{"android":"levelo://app?vid=d807c3a1-c397-4042-a278-4e087381b3b6","ios":"levelo://app?vid=d807c3a1-c397-4042-a278-4e087381b3b6"},"vehicle_type_id":"4","last_reported":1704629537,"current_range_meters":17600,"station_id":"ce4bhbp2rcd13ifvqerg","pricing_plan_id":"free"},{"bike_id":"f8dd31ec-fac5-40aa-bf57-1849aadae574","system_id":"levelo_inurba_marseille","lat":43.282744,"lon":5.350533,"is_reserved":false,"is_disabled":false,"rental_uris":{"android":"levelo://app?vid=f8dd31ec-fac5-40aa-bf57-1849aadae574","ios":"levelo://app?vid=f8dd31ec-fac5-40aa-bf57-1849aadae574"},"vehicle_type_id":"4","last_reported":1704629537,"current_range_meters":23200,"station_id":"ce4bhbp2rcd13ifvqerg","pricing_plan_id":"free"},{"bike_id":"52596233-efe2-42f7-a154-9ab226054d49","system_id":"levelo_inurba_marseille","lat":43.282648,"lon":5.35069,"is_reserved":false,"is_disabled":false,"rental_uris":{"android":"levelo://app?vid=52596233-efe2-42f7-a154-9ab226054d49","ios":"levelo://app?vid=52596233-efe2-42f7-a154-9ab226054d49"},"vehicle_type_id":"4","last_reported":1704629537,"current_range_meters":30400,"station_id":"ce4bhbp2rcd13ifvqerg","pricing_plan_id":"free"},{"bike_id":"e885103f-db97-41b4-99c6-c14b945ef173","system_id":"levelo_inurba_marseille","lat":43.283502,"lon":5.386471,"is_reserved":false,"is_disabled":false,"rental_uris":{"android":"levelo://app?vid=e885103f-db97-41b4-99c6-c14b945ef173","ios":"levelo://app?vid=e885103f-db97-41b4-99c6-c14b945ef173"},"vehicle_type_id":"4","last_reported":1704629537,"current_range_meters":26800,"station_id":"ce4bh492rcd13ifvqdvg","pricing_plan_id":"free"},{"bike_id":"64a3722c-d7b1-4c03-a920-a75f2903e4ba","system_id":"levelo_inurba_marseille","lat":43.282641,"lon":5.350588,"is_reserved":false,"is_disabled":false,"rental_uris":{"android":"levelo://app?vid=64a3722c-d7b1-4c03-a920-a75f2903e4ba","ios":"levelo://app?vid=64a3722c-d7b1-4c03-a920-a75f2903e4ba"},"vehicle_type_id":"4","last_reported":1704629537,"current_range_meters":30000,"station_id":"ce4bhbp2rcd13ifvqerg","pricing_plan_id":"free"},{"bike_id":"0803b6c4-8f2e-466e-82d7-d1b579f31541","system_id":"levelo_inurba_marseille","lat":43.29041,"lon":5.399634,"is_reserved":false,"is_disabled":false,"rental_uris":{"android":"levelo://app?vid=0803b6c4-8f2e-466e-82d7-d1b579f31541","ios":"levelo://app?vid=0803b6c4-8f2e-466e-82d7-d1b579f31541"},"vehicle_type_id":"4","last_reported":1704629537,"current_range_meters":18000,"station_id":"ce4bh392rcd13ifvqdm0","pricing_plan_id":"free"},{"bike_id":"73b7c303-bb17-492e-9d0f-94d5ac695eac","system_id":"levelo_inurba_marseille","lat":43.32661,"lon":5.40974,"is_reserved":false,"is_disabled":false,"rental_uris":{"android":"levelo://app?vid=73b7c303-bb17-492e-9d0f-94d5ac695eac","ios":"levelo://app?vid=73b7c303-bb17-492e-9d0f-94d5ac695eac"},"vehicle_type_id":"4","last_reported":1704629537,"current_range_meters":16400,"station_id":"ce4bhpp2rcd13ifvqhgg","pricing_plan_id":"free"},{"bike_id":"a0d20dd8-a3b3-4fa3-a6e9-2896226abf35","system_id":"levelo_inurba_marseille","lat":43.326605,"lon":5.409903,"is_reserved":false,"is_disabled":false,"rental_uris":{"android":"levelo://app?vid=a0d20dd8-a3b3-4fa3-a6e9-2896226abf35","ios":"levelo://app?vid=a0d20dd8-a3b3-4fa3-a6e9-2896226abf35"},"vehicle_type_id":"4","last_reported":1704629537,"current_range_meters":7200,"station_id":"ce4bhpp2rcd13ifvqhgg","pricing_plan_id":"free"},{"bike_id":"6bcc2d9f-ce8b-4eda-944e-d3d8c9887e44","system_id":"levelo_inurba_marseille","lat":43.304188,"lon":5.412904,"is_reserved":false,"is_disabled":false,"rental_uris":{"android":"levelo://app?vid=6bcc2d9f-ce8b-4eda-944e-d3d8c9887e44","ios":"levelo://app?vid=6bcc2d9f-ce8b-4eda-944e-d3d8c9887e44"},"vehicle_type_id":"4","last_reported":1704629537,"current_range_meters":16800,"station_id":"ce4bhop2rcd13ifvqh8g","pricing_plan_id":"free"},{"bike_id":"3d351d06-0266-45af-8adb-554012353f4c","system_id":"levelo_inurba_marseille","lat":43.30418,"lon":5.41289,"is_reserved":false,"is_disabled":false,"rental_uris":{"android":"levelo://app?vid=3d351d06-0266-45af-8adb-554012353f4c","ios":"levelo://app?vid=3d351d06-0266-45af-8adb-554012353f4c"},"vehicle_type_id":"4","last_reported":1704629537,"current_range_meters":31200,"station_id":"ce4bhop2rcd13ifvqh8g","pricing_plan_id":"free"},{"bike_id":"6b32fc1f-04a9-4fe2-b9d5-f7ed7bb851d8","system_id":"levelo_inurba_marseille","lat":43.304168,"lon":5.41291,"is_reserved":false,"is_disabled":false,"rental_uris":{"android":"levelo://app?vid=6b32fc1f-04a9-4fe2-b9d5-f7ed7bb851d8","ios":"levelo://app?vid=6b32fc1f-04a9-4fe2-b9d5-f7ed7bb851d8"},"vehicle_type_id":"4","last_reported":1704629537,"current_range_meters":28800,"station_id":"ce4bhop2rcd13ifvqh8g","pricing_plan_id":"free"},{"bike_id":"5ff05813-14ce-47ae-a306-8457a7145774","system_id":"levelo_inurba_marseille","lat":43.304141,"lon":5.412908,"is_reserved":false,"is_disabled":false,"rental_uris":{"android":"levelo://app?vid=5ff05813-14ce-47ae-a306-8457a7145774","ios":"levelo://app?vid=5ff05813-14ce-47ae-a306-8457a7145774"},"vehicle_type_id":"4","last_reported":1704629537,"current_range_meters":29200,"station_id":"ce4bhop2rcd13ifvqh8g","pricing_plan_id":"free"},{"bike_id":"2ec54be7-33d0-4179-a735-fb2cef180b23","system_id":"levelo_inurba_marseille","lat":43.287154,"lon":5.399979,"is_reserved":false,"is_disabled":false,"rental_uris":{"android":"levelo://app?vid=2ec54be7-33d0-4179-a735-fb2cef180b23","ios":"levelo://app?vid=2ec54be7-33d0-4179-a735-fb2cef180b23"},"vehicle_type_id":"4","last_reported":1704629537,"current_range_meters":13200,"station_id":"ce4bho92rcd13ifvqh3g","pricing_plan_id":"free"},{"bike_id":"4fecbc49-e81d-4a0a-9f23-e08740a286c3","system_id":"levelo_inurba_marseille","lat":43.279087,"lon":5.380114,"is_reserved":false,"is_disabled":false,"rental_uris":{"android":"levelo://app?vid=4fecbc49-e81d-4a0a-9f23-e08740a286c3","ios":"levelo://app?vid=4fecbc49-e81d-4a0a-9f23-e08740a286c3"},"vehicle_type_id":"4","last_reported":1704629537,"current_range_meters":28400,"station_id":"ce4bhf92rcd13ifvqf50","pricing_plan_id":"free"},{"bike_id":"14c089cd-fb62-4e3d-943d-3769aadc1b70","system_id":"levelo_inurba_marseille","lat":43.320045,"lon":5.415046,"is_reserved":false,"is_disabled":false,"rental_uris":{"android":"levelo://app?vid=14c089cd-fb62-4e3d-943d-3769aadc1b70","ios":"levelo://app?vid=14c089cd-fb62-4e3d-943d-3769aadc1b70"},"vehicle_type_id":"4","last_reported":1704629537,"current_range_meters":25200,"station_id":"ce4bhq92rcd13ifvqhkg","pricing_plan_id":"free"},{"bike_id":"d6a2b02c-e0c1-4dca-8213-5834db5127e5","system_id":"levelo_inurba_marseille","lat":43.27966,"lon":5.38723,"is_reserved":false,"is_disabled":false,"rental_uris":{"android":"levelo://app?vid=d6a2b02c-e0c1-4dca-8213-5834db5127e5","ios":"levelo://app?vid=d6a2b02c-e0c1-4dca-8213-5834db5127e5"},"vehicle_type_id":"4","last_reported":1704629537,"current_range_meters":26000,"station_id":"ce4bhg12rcd13ifvqf80","pricing_plan_id":"free"},{"bike_id":"9a33aa6d-1643-42a8-adf4-9983f5de7567","system_id":"levelo_inurba_marseille","lat":43.279742,"lon":5.38744,"is_reserved":false,"is_disabled":false,"rental_uris":{"android":"levelo://app?vid=9a33aa6d-1643-42a8-adf4-9983f5de7567","ios":"levelo://app?vid=9a33aa6d-1643-42a8-adf4-9983f5de7567"},"vehicle_type_id":"4","last_reported":1704629537,"current_range_meters":21200,"station_id":"ce4bhg12rcd13ifvqf80","pricing_plan_id":"free"},{"bike_id":"6839e748-dc98-4408-8bd8-32786d880019","system_id":"levelo_inurba_marseille","lat":43.280755,"lon":5.39657,"is_reserved":false,"is_disabled":false,"rental_uris":{"android":"levelo://app?vid=6839e748-dc98-4408-8bd8-32786d880019","ios":"levelo://app?vid=6839e748-dc98-4408-8bd8-32786d880019"},"vehicle_type_id":"4","last_reported":1704629537,"current_range_meters":14400,"station_id":"","pricing_plan_id":"free"},{"bike_id":"9289ea1f-b429-4c2f-ae6e-8ac0ed65171f","system_id":"levelo_inurba_marseille","lat":43.280784,"lon":5.396622,"is_reserved":false,"is_disabled":false,"rental_uris":{"android":"levelo://app?vid=9289ea1f-b429-4c2f-ae6e-8ac0ed65171f","ios":"levelo://app?vid=9289ea1f-b429-4c2f-ae6e-8ac0ed65171f"},"vehicle_type_id":"4","last_reported":1704629537,"current_range_meters":19200,"station_id":"ce4bho12rcd13ifvqh2g","pricing_plan_id":"free"},{"bike_id":"9d5095a4-b951-4636-9005-60267ecaf2d3","system_id":"levelo_inurba_marseille","lat":43.303837,"lon":5.418724,"is_reserved":false,"is_disabled":false,"rental_uris":{"android":"levelo://app?vid=9d5095a4-b951-4636-9005-60267ecaf2d3","ios":"levelo://app?vid=9d5095a4-b951-4636-9005-60267ecaf2d3"},"vehicle_type_id":"4","last_reported":1704629537,"current_range_meters":27600,"station_id":"ce4bhop2rcd13ifvqh7g","pricing_plan_id":"free"},{"bike_id":"fba911de-24ed-44b3-9638-3159465196b8","system_id":"levelo_inurba_marseille","lat":43.303837,"lon":5.418724,"is_reserved":false,"is_disabled":false,"rental_uris":{"android":"levelo://app?vid=fba911de-24ed-44b3-9638-3159465196b8","ios":"levelo://app?vid=fba911de-24ed-44b3-9638-3159465196b8"},"vehicle_type_id":"4","last_reported":1704629537,"current_range_meters":21600,"station_id":"ce4bhop2rcd13ifvqh7g","pricing_plan_id":"free"},{"bike_id":"8a5e0934-65c2-4121-bcaf-ae53774d4c4f","system_id":"levelo_inurba_marseille","lat":43.278401,"lon":5.392152,"is_reserved":false,"is_disabled":false,"rental_uris":{"android":"levelo://app?vid=8a5e0934-65c2-4121-bcaf-ae53774d4c4f","ios":"levelo://app?vid=8a5e0934-65c2-4121-bcaf-ae53774d4c4f"},"vehicle_type_id":"4","last_reported":1704629537,"current_range_meters":18800,"station_id":"ce4bhjp2rcd13ifvqga0","pricing_plan_id":"free"},{"bike_id":"bb8adbd1-c6ce-4f69-a424-43512474db42","system_id":"levelo_inurba_marseille","lat":43.275625,"lon":5.384392,"is_reserved":false,"is_disabled":false,"rental_uris":{"android":"levelo://app?vid=bb8adbd1-c6ce-4f69-a424-43512474db42","ios":"levelo://app?vid=bb8adbd1-c6ce-4f69-a424-43512474db42"},"vehicle_type_id":"4","last_reported":1704629537,"current_range_meters":29600,"station_id":"ce4bhh92rcd13ifvqfi0","pricing_plan_id":"free"},{"bike_id":"01608204-faa2-4814-91e7-1a982d36392a","system_id":"levelo_inurba_marseille","lat":43.273609,"lon":5.362708,"is_reserved":false,"is_disabled":false,"rental_uris":{"android":"levelo://app?vid=01608204-faa2-4814-91e7-1a982d36392a","ios":"levelo://app?vid=01608204-faa2-4814-91e7-1a982d36392a"},"vehicle_type_id":"4","last_reported":1704629537,"current_range_meters":26400,"station_id":"ce4bhbh2rcd13ifvqeo0","pricing_plan_id":"free"},{"bike_id":"e2ca198c-33a3-489b-9a72-467d13ddc47e","system_id":"levelo_inurba_marseille","lat":43.336134,"lon":5.410341,"is_reserved":false,"is_disabled":false,"rental_uris":{"android":"levelo://app?vid=e2ca198c-33a3-489b-9a72-467d13ddc47e","ios":"levelo://app?vid=e2ca198c-33a3-489b-9a72-467d13ddc47e"},"vehicle_type_id":"4","last_reported":1704629537,"current_range_meters":31200,"station_id":"ce4bhqh2rcd13ifvqhmg","pricing_plan_id":"free"},{"bike_id":"39876052-8ad5-4076-9920-79278262d549","system_id":"levelo_inurba_marseille","lat":43.275625,"lon":5.384392,"is_reserved":false,"is_disabled":false,"rental_uris":{"android":"levelo://app?vid=39876052-8ad5-4076-9920-79278262d549","ios":"levelo://app?vid=39876052-8ad5-4076-9920-79278262d549"},"vehicle_type_id":"4","last_reported":1704629537,"current_range_meters":29200,"station_id":"ce4bhh92rcd13ifvqfi0","pricing_plan_id":"free"},{"bike_id":"484223a5-9f26-43bb-9ac1-804d63161576","system_id":"levelo_inurba_marseille","lat":43.275625,"lon":5.384392,"is_reserved":false,"is_disabled":false,"rental_uris":{"android":"levelo://app?vid=484223a5-9f26-43bb-9ac1-804d63161576","ios":"levelo://app?vid=484223a5-9f26-43bb-9ac1-804d63161576"},"vehicle_type_id":"4","last_reported":1704629537,"current_range_meters":22800,"station_id":"ce4bhh92rcd13ifvqfi0","pricing_plan_id":"free"},{"bike_id":"31008af1-011a-429b-a4c8-c4f8d8d213c9","system_id":"levelo_inurba_marseille","lat":43.336134,"lon":5.410341,"is_reserved":false,"is_disabled":false,"rental_uris":{"android":"levelo://app?vid=31008af1-011a-429b-a4c8-c4f8d8d213c9","ios":"levelo://app?vid=31008af1-011a-429b-a4c8-c4f8d8d213c9"},"vehicle_type_id":"4","last_reported":1704629537,"current_range_meters":29200,"station_id":"ce4bhqh2rcd13ifvqhmg","pricing_plan_id":"free"},{"bike_id":"889deaf9-8c5b-46a2-b769-3ce6b0ce116e","system_id":"levelo_inurba_marseille","lat":43.336134,"lon":5.410341,"is_reserved":false,"is_disabled":false,"rental_uris":{"android":"levelo://app?vid=889deaf9-8c5b-46a2-b769-3ce6b0ce116e","ios":"levelo://app?vid=889deaf9-8c5b-46a2-b769-3ce6b0ce116e"},"vehicle_type_id":"4","last_reported":1704629537,"current_range_meters":31200,"station_id":"ce4bhqh2rcd13ifvqhmg","pricing_plan_id":"free"},{"bike_id":"d1f7ebfa-b33a-44c8-8083-15cad09ebb7a","system_id":"levelo_inurba_marseille","lat":43.336134,"lon":5.410341,"is_reserved":false,"is_disabled":false,"rental_uris":{"android":"levelo://app?vid=d1f7ebfa-b33a-44c8-8083-15cad09ebb7a","ios":"levelo://app?vid=d1f7ebfa-b33a-44c8-8083-15cad09ebb7a"},"vehicle_type_id":"4","last_reported":1704629537,"current_range_meters":28800,"station_id":"ce4bhqh2rcd13ifvqhmg","pricing_plan_id":"free"},{"bike_id":"b64097b7-cafd-40c8-9192-664316f67849","system_id":"levelo_inurba_marseille","lat":43.317121,"lon":5.423936,"is_reserved":false,"is_disabled":false,"rental_uris":{"android":"levelo://app?vid=b64097b7-cafd-40c8-9192-664316f67849","ios":"levelo://app?vid=b64097b7-cafd-40c8-9192-664316f67849"},"vehicle_type_id":"4","last_reported":1704629537,"current_range_meters":28000,"station_id":"ce4bhp92rcd13ifvqhbg","pricing_plan_id":"free"},{"bike_id":"927b60bd-b4d0-483f-b4f4-ca3a25b5243f","system_id":"levelo_inurba_marseille","lat":43.317121,"lon":5.423936,"is_reserved":false,"is_disabled":false,"rental_uris":{"android":"levelo://app?vid=927b60bd-b4d0-483f-b4f4-ca3a25b5243f","ios":"levelo://app?vid=927b60bd-b4d0-483f-b4f4-ca3a25b5243f"},"vehicle_type_id":"4","last_reported":1704629537,"current_range_meters":27600,"station_id":"ce4bhp92rcd13ifvqhbg","pricing_plan_id":"free"},{"bike_id":"464b252f-4a0d-4ecb-9f59-3d1a072c4274","system_id":"levelo_inurba_marseille","lat":43.317121,"lon":5.423936,"is_reserved":false,"is_disabled":false,"rental_uris":{"android":"levelo://app?vid=464b252f-4a0d-4ecb-9f59-3d1a072c4274","ios":"levelo://app?vid=464b252f-4a0d-4ecb-9f59-3d1a072c4274"},"vehicle_type_id":"4","last_reported":1704629537,"current_range_meters":31200,"station_id":"ce4bhp92rcd13ifvqhbg","pricing_plan_id":"free"},{"bike_id":"add79ccb-d238-4b0b-9447-1ee9e99bc8fe","system_id":"levelo_inurba_marseille","lat":43.310785,"lon":5.424305,"is_reserved":false,"is_disabled":false,"rental_uris":{"android":"levelo://app?vid=add79ccb-d238-4b0b-9447-1ee9e99bc8fe","ios":"levelo://app?vid=add79ccb-d238-4b0b-9447-1ee9e99bc8fe"},"vehicle_type_id":"4","last_reported":1704629537,"current_range_meters":30400,"station_id":"ce4bhp92rcd13ifvqhag","pricing_plan_id":"free"},{"bike_id":"494ed528-976a-494b-842c-db1f9fa2db39","system_id":"levelo_inurba_marseille","lat":43.340804,"lon":5.410219,"is_reserved":false,"is_disabled":false,"rental_uris":{"android":"levelo://app?vid=494ed528-976a-494b-842c-db1f9fa2db39","ios":"levelo://app?vid=494ed528-976a-494b-842c-db1f9fa2db39"},"vehicle_type_id":"4","last_reported":1704629537,"current_range_meters":29200,"station_id":"ce4bhqh2rcd13ifvqhlg","pricing_plan_id":"free"},{"bike_id":"64b9f263-1ea7-4547-a4df-eab95dfc94c8","system_id":"levelo_inurba_marseille","lat":43.340804,"lon":5.410219,"is_reserved":false,"is_disabled":false,"rental_uris":{"android":"levelo://app?vid=64b9f263-1ea7-4547-a4df-eab95dfc94c8","ios":"levelo://app?vid=64b9f263-1ea7-4547-a4df-eab95dfc94c8"},"vehicle_type_id":"4","last_reported":1704629537,"current_range_meters":17600,"station_id":"ce4bhqh2rcd13ifvqhlg","pricing_plan_id":"free"},{"bike_id":"11fe76d6-576f-4af1-b59f-34c2a58c871a","system_id":"levelo_inurba_marseille","lat":43.340804,"lon":5.410219,"is_reserved":false,"is_disabled":false,"rental_uris":{"android":"levelo://app?vid=11fe76d6-576f-4af1-b59f-34c2a58c871a","ios":"levelo://app?vid=11fe76d6-576f-4af1-b59f-34c2a58c871a"},"vehicle_type_id":"4","last_reported":1704629537,"current_range_meters":32000,"station_id":"ce4bhqh2rcd13ifvqhlg","pricing_plan_id":"free"},{"bike_id":"461657c9-e33a-46b1-991e-8729539ba8aa","system_id":"levelo_inurba_marseille","lat":43.340804,"lon":5.410219,"is_reserved":false,"is_disabled":false,"rental_uris":{"android":"levelo://app?vid=461657c9-e33a-46b1-991e-8729539ba8aa","ios":"levelo://app?vid=461657c9-e33a-46b1-991e-8729539ba8aa"},"vehicle_type_id":"4","last_reported":1704629537,"current_range_meters":12400,"station_id":"ce4bhqh2rcd13ifvqhlg","pricing_plan_id":"free"},{"bike_id":"439e6703-236e-4929-b5c1-cd3664ea20c1","system_id":"levelo_inurba_marseille","lat":43.273263,"lon":5.39079,"is_reserved":false,"is_disabled":false,"rental_uris":{"android":"levelo://app?vid=439e6703-236e-4929-b5c1-cd3664ea20c1","ios":"levelo://app?vid=439e6703-236e-4929-b5c1-cd3664ea20c1"},"vehicle_type_id":"4","last_reported":1704629537,"current_range_meters":13200,"station_id":"ce4bhgp2rcd13ifvqfe0","pricing_plan_id":"free"},{"bike_id":"5ce3514e-61b3-49dc-b002-b3b750ea2c6f","system_id":"levelo_inurba_marseille","lat":43.273129,"lon":5.390725,"is_reserved":false,"is_disabled":false,"rental_uris":{"android":"levelo://app?vid=5ce3514e-61b3-49dc-b002-b3b750ea2c6f","ios":"levelo://app?vid=5ce3514e-61b3-49dc-b002-b3b750ea2c6f"},"vehicle_type_id":"4","last_reported":1704629537,"current_range_meters":30400,"station_id":"ce4bhgp2rcd13ifvqfe0","pricing_plan_id":"free"},{"bike_id":"7d91815f-b01c-4b04-a387-438be19e9d2b","system_id":"levelo_inurba_marseille","lat":43.304096,"lon":5.425385,"is_reserved":false,"is_disabled":false,"rental_uris":{"android":"levelo://app?vid=7d91815f-b01c-4b04-a387-438be19e9d2b","ios":"levelo://app?vid=7d91815f-b01c-4b04-a387-438be19e9d2b"},"vehicle_type_id":"4","last_reported":1704629537,"current_range_meters":22400,"station_id":"ce4bhoh2rcd13ifvqh6g","pricing_plan_id":"free"},{"bike_id":"e49ae8e7-56f1-4292-bcab-1b0388d8a156","system_id":"levelo_inurba_marseille","lat":43.304096,"lon":5.425385,"is_reserved":false,"is_disabled":false,"rental_uris":{"android":"levelo://app?vid=e49ae8e7-56f1-4292-bcab-1b0388d8a156","ios":"levelo://app?vid=e49ae8e7-56f1-4292-bcab-1b0388d8a156"},"vehicle_type_id":"4","last_reported":1704629537,"current_range_meters":7600,"station_id":"ce4bhoh2rcd13ifvqh6g","pricing_plan_id":"free"},{"bike_id":"7345abd2-09ef-440c-b6e9-d57569a8415a","system_id":"levelo_inurba_marseille","lat":43.304096,"lon":5.425385,"is_reserved":false,"is_disabled":false,"rental_uris":{"android":"levelo://app?vid=7345abd2-09ef-440c-b6e9-d57569a8415a","ios":"levelo://app?vid=7345abd2-09ef-440c-b6e9-d57569a8415a"},"vehicle_type_id":"4","last_reported":1704629537,"current_range_meters":6000,"station_id":"ce4bhoh2rcd13ifvqh6g","pricing_plan_id":"free"},{"bike_id":"287d1458-a279-4139-94f8-da980c4a9cdb","system_id":"levelo_inurba_marseille","lat":43.304096,"lon":5.425385,"is_reserved":false,"is_disabled":false,"rental_uris":{"android":"levelo://app?vid=287d1458-a279-4139-94f8-da980c4a9cdb","ios":"levelo://app?vid=287d1458-a279-4139-94f8-da980c4a9cdb"},"vehicle_type_id":"4","last_reported":1704629537,"current_range_meters":2800,"station_id":"ce4bhoh2rcd13ifvqh6g","pricing_plan_id":"free"},{"bike_id":"e7cbbbff-b9d7-4c64-89bd-140b0f668fbf","system_id":"levelo_inurba_marseille","lat":43.294933,"lon":5.422425,"is_reserved":false,"is_disabled":false,"rental_uris":{"android":"levelo://app?vid=e7cbbbff-b9d7-4c64-89bd-140b0f668fbf","ios":"levelo://app?vid=e7cbbbff-b9d7-4c64-89bd-140b0f668fbf"},"vehicle_type_id":"4","last_reported":1704629537,"current_range_meters":22000,"station_id":"","pricing_plan_id":"free"},{"bike_id":"c085d901-e33c-457c-853f-9c02bb4444c1","system_id":"levelo_inurba_marseille","lat":43.295511,"lon":5.422926,"is_reserved":false,"is_disabled":false,"rental_uris":{"android":"levelo://app?vid=c085d901-e33c-457c-853f-9c02bb4444c1","ios":"levelo://app?vid=c085d901-e33c-457c-853f-9c02bb4444c1"},"vehicle_type_id":"4","last_reported":1704629537,"current_range_meters":26000,"station_id":"ce4bhph2rcd13ifvqhdg","pricing_plan_id":"free"},{"bike_id":"dfc41f1b-8a09-4d57-9d22-92d8b3ca40ca","system_id":"levelo_inurba_marseille","lat":43.272116,"lon":5.391763,"is_reserved":false,"is_disabled":false,"rental_uris":{"android":"levelo://app?vid=dfc41f1b-8a09-4d57-9d22-92d8b3ca40ca","ios":"levelo://app?vid=dfc41f1b-8a09-4d57-9d22-92d8b3ca40ca"},"vehicle_type_id":"4","last_reported":1704629537,"current_range_meters":24000,"station_id":"ce4bhhp2rcd13ifvqfm0","pricing_plan_id":"free"},{"bike_id":"d408f988-03cc-4414-bbe2-cb1e44c4b167","system_id":"levelo_inurba_marseille","lat":43.278128,"lon":5.407195,"is_reserved":false,"is_disabled":false,"rental_uris":{"android":"levelo://app?vid=d408f988-03cc-4414-bbe2-cb1e44c4b167","ios":"levelo://app?vid=d408f988-03cc-4414-bbe2-cb1e44c4b167"},"vehicle_type_id":"4","last_reported":1704629537,"current_range_meters":18800,"station_id":"ce4bhnh2rcd13ifvqgtg","pricing_plan_id":"free"},{"bike_id":"b2909878-28ca-4c3e-a47e-7da9a2179766","system_id":"levelo_inurba_marseille","lat":43.278128,"lon":5.407195,"is_reserved":false,"is_disabled":false,"rental_uris":{"android":"levelo://app?vid=b2909878-28ca-4c3e-a47e-7da9a2179766","ios":"levelo://app?vid=b2909878-28ca-4c3e-a47e-7da9a2179766"},"vehicle_type_id":"4","last_reported":1704629537,"current_range_meters":30000,"station_id":"ce4bhnh2rcd13ifvqgtg","pricing_plan_id":"free"},{"bike_id":"cb5fefc4-c01d-4c1b-a23c-22a74bce88ad","system_id":"levelo_inurba_marseille","lat":43.279465,"lon":5.410561,"is_reserved":false,"is_disabled":false,"rental_uris":{"android":"levelo://app?vid=cb5fefc4-c01d-4c1b-a23c-22a74bce88ad","ios":"levelo://app?vid=cb5fefc4-c01d-4c1b-a23c-22a74bce88ad"},"vehicle_type_id":"4","last_reported":1704629537,"current_range_meters":6000,"station_id":"ce4bhnp2rcd13ifvqh0g","pricing_plan_id":"free"},{"bike_id":"d5f53d09-eb42-4997-8fb8-09d821c12589","system_id":"levelo_inurba_marseille","lat":43.269319,"lon":5.389397,"is_reserved":false,"is_disabled":false,"rental_uris":{"android":"levelo://app?vid=d5f53d09-eb42-4997-8fb8-09d821c12589","ios":"levelo://app?vid=d5f53d09-eb42-4997-8fb8-09d821c12589"},"vehicle_type_id":"4","last_reported":1704629537,"current_range_meters":25200,"station_id":"ce4bhhh2rcd13ifvqfl0","pricing_plan_id":"free"},{"bike_id":"2dfe7f46-1780-4603-84fd-4485af06fb6e","system_id":"levelo_inurba_marseille","lat":43.269319,"lon":5.389397,"is_reserved":false,"is_disabled":false,"rental_uris":{"android":"levelo://app?vid=2dfe7f46-1780-4603-84fd-4485af06fb6e","ios":"levelo://app?vid=2dfe7f46-1780-4603-84fd-4485af06fb6e"},"vehicle_type_id":"4","last_reported":1704629537,"current_range_meters":28400,"station_id":"ce4bhhh2rcd13ifvqfl0","pricing_plan_id":"free"},{"bike_id":"b5c64b48-3d75-42cd-b938-105cf05daa13","system_id":"levelo_inurba_marseille","lat":43.265714,"lon":5.372891,"is_reserved":false,"is_disabled":false,"rental_uris":{"android":"levelo://app?vid=b5c64b48-3d75-42cd-b938-105cf05daa13","ios":"levelo://app?vid=b5c64b48-3d75-42cd-b938-105cf05daa13"},"vehicle_type_id":"4","last_reported":1704629537,"current_range_meters":21200,"station_id":"ce4bhg12rcd13ifvqf70","pricing_plan_id":"free"},{"bike_id":"0815c223-5f6b-498c-975b-a7e1f4a8f721","system_id":"levelo_inurba_marseille","lat":43.27996,"lon":5.416624,"is_reserved":false,"is_disabled":false,"rental_uris":{"android":"levelo://app?vid=0815c223-5f6b-498c-975b-a7e1f4a8f721","ios":"levelo://app?vid=0815c223-5f6b-498c-975b-a7e1f4a8f721"},"vehicle_type_id":"4","last_reported":1704629537,"current_range_meters":19200,"station_id":"ce4bho12rcd13ifvqh1g","pricing_plan_id":"free"},{"bike_id":"a66bebb3-68cc-4d73-abbc-ae2e502b1909","system_id":"levelo_inurba_marseille","lat":43.27996,"lon":5.416624,"is_reserved":false,"is_disabled":false,"rental_uris":{"android":"levelo://app?vid=a66bebb3-68cc-4d73-abbc-ae2e502b1909","ios":"levelo://app?vid=a66bebb3-68cc-4d73-abbc-ae2e502b1909"},"vehicle_type_id":"4","last_reported":1704629537,"current_range_meters":31600,"station_id":"ce4bho12rcd13ifvqh1g","pricing_plan_id":"free"},