{"last_updated":1739257757,"ttl":60,"version":"2.2","data":{"bikes":[{"bike_id":"5cda301b-bce8-41d3-abea-2e981f99524e","system_id":"levelo_inurba_marseille","lat":43.29865,"lon":5.36302,"is_reserved":false,"is_disabled":false,"rental_uris":{"android":"levelo://app?vid=5cda301b-bce8-41d3-abea-2e981f99524e","ios":"levelo://app?vid=5cda301b-bce8-41d3-abea-2e981f99524e"},"vehicle_type_id":"4","last_reported":1739257757,"current_range_meters":26800,"station_id":"ce4bgpp2rcd13ifvqc3g","pricing_plan_id":"cebpf4jnsgd1na2vs0mg"},{"bike_id":"47e5caa3-c9c1-44d5-b1b3-2d3d2324516e","system_id":"levelo_inurba_marseille","lat":43.28734,"lon":5.36133,"is_reserved":false,"is_disabled":false,"rental_uris":{"android":"levelo://app?vid=47e5caa3-c9c1-44d5-b1b3-2d3d2324516e","ios":"levelo://app?vid=47e5caa3-c9c1-44d5-b1b3-2d3d2324516e"},"vehicle_type_id":"4","last_reported":1739257757,"current_range_meters":28400,"station_id":"cki0cbj6b192h4jlfktg","pricing_plan_id":"cebpf4jnsgd1na2vs0mg"},{"bike_id":"e7d8ed8c-85a3-44c3-8805-56fbe310205d","system_id":"levelo_inurba_marseille","lat":43.28419,"lon":5.37559,"is_reserved":false,"is_disabled":false,"rental_uris":{"android":"levelo://app?vid=e7d8ed8c-85a3-44c3-8805-56fbe310205d","ios":"levelo://app?vid=e7d8ed8c-85a3-44c3-8805-56fbe310205d"},"vehicle_type_id":"4","last_reported":1739257757,"current_range_meters":36000,"station_id":"ce4bh412rcd13ifvqds0","pricing_plan_id":"cebpf4jnsgd1na2vs0mg"},{"bike_id":"22c045fc-190a-4657-8553-f45b5ff51ac2","system_id":"levelo_inurba_marseille","lat":43.34141,"lon":5.40909,"is_reserved":false,"is_disabled":false,"rental_uris":{"android":"levelo://app?vid=22c045fc-190a-4657-8553-f45b5ff51ac2","ios":"levelo://app?vid=22c045fc-190a-4657-8553-f45b5ff51ac2"},"vehicle_type_id":"4","last_reported":1739257757,"current_range_meters":34800,"station_id":"ce4bhqh2rcd13ifvqhlg","pricing_plan_id":"cebpf4jnsgd1na2vs0mg"},{"bike_id":"b068362a-3288-489d-9388-78d1aec4149d","system_id":"levelo_inurba_marseille","lat":43.265603,"lon":5.390184,"is_reserved":false,"is_disabled":false,"rental_uris":{"android":"levelo://app?vid=b068362a-3288-489d-9388-78d1aec4149d","ios":"levelo://app?vid=b068362a-3288-489d-9388-78d1aec4149d"},"vehicle_type_id":"4","last_reported":1739257757,"current_range_meters":37600,"station_id":"ce4bhe12rcd13ifvqf30","pricing_plan_id":"cebpf4jnsgd1na2vs0mg"},{"bike_id":"a0dd54ee-e890-4da0-a7d9-a7f80b816a23","system_id":"levelo_inurba_marseille","lat":43.27985,"lon":5.41691,"is_reserved":false,"is_disabled":false,"rental_uris":{"android":"levelo://app?vid=a0dd54ee-e890-4da0-a7d9-a7f80b816a23","ios":"levelo://app?vid=a0dd54ee-e890-4da0-a7d9-a7f80b816a23"},"vehicle_type_id":"4","last_reported":1739257757,"current_range_meters":34800,"station_id":"ce4bho12rcd13ifvqh1g","pricing_plan_id":"cebpf4jnsgd1na2vs0mg"},{"bike_id":"1e432c46-6902-4068-bc83-c8d18cce47cc","system_id":"levelo_inurba_marseille","lat":43.260536,"lon":5.393912,"is_reserved":false,"is_disabled":false,"rental_uris":{"android":"levelo://app?vid=1e432c46-6902-4068-bc83-c8d18cce47cc","ios":"levelo://app?vid=1e432c46-6902-4068-bc83-c8d18cce47cc"},"vehicle_type_id":"4","last_reported":1739257757,"current_range_meters":38800,"station_id":"ce4bhh92rcd13ifvqfj0","pricing_plan_id":"cebpf4jnsgd1na2vs0mg"},{"bike_id":"c6577954-718d-4605-b8d7-c82ecd1b7e00","system_id":"levelo_inurba_marseille","lat":43.27983,"lon":5.41675,"is_reserved":false,"is_disabled":false,"rental_uris":{"android":"levelo://app?vid=c6577954-718d-4605-b8d7-c82ecd1b7e00","ios":"levelo://app?vid=c6577954-718d-4605-b8d7-c82ecd1b7e00"},"vehicle_type_id":"4","last_reported":1739257757,"current_range_meters":27600,"station_id":"ce4bho12rcd13ifvqh1g","pricing_plan_id":"cebpf4jnsgd1na2vs0mg"},{"bike_id":"3887b386-3ca2-4422-b535-49b5419b189a","system_id":"levelo_inurba_marseille","lat":43.28351,"lon":5.38105,"is_reserved":false,"is_disabled":false,"rental_uris":{"android":"levelo://app?vid=3887b386-3ca2-4422-b535-49b5419b189a","ios":"levelo://app?vid=3887b386-3ca2-4422-b535-49b5419b189a"},"vehicle_type_id":"4","last_reported":1739257757,"current_range_meters":29600,"station_id":"ce4bh412rcd13ifvqdr0","pricing_plan_id":"cebpf4jnsgd1na2vs0mg"},{"bike_id":"6ad12fed-a7c3-4ded-a0c5-213958e34b8e","system_id":"levelo_inurba_marseille","lat":43.32481,"lon":5.36572,"is_reserved":false,"is_disabled":false,"rental_uris":{"android":"levelo://app?vid=6ad12fed-a7c3-4ded-a0c5-213958e34b8e","ios":"levelo://app?vid=6ad12fed-a7c3-4ded-a0c5-213958e34b8e"},"vehicle_type_id":"4","last_reported":1739257757,"current_range_meters":39200,"station_id":"ce4bhs12rcd13ifvqhvg","pricing_plan_id":"cebpf4jnsgd1na2vs0mg"},{"bike_id":"ff82ee3e-6927-4929-9ab9-69d9ba0b2981","system_id":"levelo_inurba_marseille","lat":43.27945,"lon":5.41041,"is_reserved":false,"is_disabled":true,"rental_uris":{"android":"levelo://app?vid=ff82ee3e-6927-4929-9ab9-69d9ba0b2981","ios":"levelo://app?vid=ff82ee3e-6927-4929-9ab9-69d9ba0b2981"},"vehicle_type_id":"4","last_reported":1739257757,"current_range_meters":0,"station_id":"ce4bhnp2rcd13ifvqh0g","pricing_plan_id":"cebpf4jnsgd1na2vs0mg"},{"bike_id":"acfa6e83-9dec-41be-a012-0d6b6130d9d9","system_id":"levelo_inurba_marseille","lat":43.31132,"lon":5.37775,"is_reserved":false,"is_disabled":false,"rental_uris":{"android":"levelo://app?vid=acfa6e83-9dec-41be-a012-0d6b6130d9d9","ios":"levelo://app?vid=acfa6e83-9dec-41be-a012-0d6b6130d9d9"},"vehicle_type_id":"4","last_reported":1739257757,"current_range_meters":32800,"station_id":"ce4bgt92rcd13ifvqcg0","pricing_plan_id":"cebpf4jnsgd1na2vs0mg"},{"bike_id":"acb6dbc2-db3a-4407-bf19-c5e8f08eeb54","system_id":"levelo_inurba_marseille","lat":43.26951,"lon":5.38913,"is_reserved":false,"is_disabled":false,"rental_uris":{"android":"levelo://app?vid=acb6dbc2-db3a-4407-bf19-c5e8f08eeb54","ios":"levelo://app?vid=acb6dbc2-db3a-4407-bf19-c5e8f08eeb54"},"vehicle_type_id":"4","last_reported":1739257757,"current_range_meters":7200,"station_id":"ce4bhhh2rcd13ifvqfl0","pricing_plan_id":"cebpf4jnsgd1na2vs0mg"},{"bike_id":"6137e2b6-9f28-4b0a-8923-7198ab8d9ffc","system_id":"levelo_inurba_marseille","lat":43.29027,"lon":5.38645,"is_reserved":false,"is_disabled":false,"rental_uris":{"android":"levelo://app?vid=6137e2b6-9f28-4b0a-8923-7198ab8d9ffc","ios":"levelo://app?vid=6137e2b6-9f28-4b0a-8923-7198ab8d9ffc"},"vehicle_type_id":"4","last_reported":1739257757,"current_range_meters":20800,"station_id":"ce4bh4p2rcd13ifvqe0g","pricing_plan_id":"cebpf4jnsgd1na2vs0mg"},{"bike_id":"9cebbfac-f2bd-4a25-81be-e499c5a5f4c8","system_id":"levelo_inurba_marseille","lat":43.30279,"lon":5.3772,"is_reserved":false,"is_disabled":false,"rental_uris":{"android":"levelo://app?vid=9cebbfac-f2bd-4a25-81be-e499c5a5f4c8","ios":"levelo://app?vid=9cebbfac-f2bd-4a25-81be-e499c5a5f4c8"},"vehicle_type_id":"4","last_reported":1739257757,"current_range_meters":38800,"station_id":"ce4bguh2rcd13ifvqcj0","pricing_plan_id":"cebpf4jnsgd1na2vs0mg"},{"bike_id":"783ee94b-6044-42f0-85b3-7d1aca1b3d61","system_id":"levelo_inurba_marseille","lat":43.29555,"lon":5.37517,"is_reserved":false,"is_disabled":true,"rental_uris":{"android":"levelo://app?vid=783ee94b-6044-42f0-85b3-7d1aca1b3d61","ios":"levelo://app?vid=783ee94b-6044-42f0-85b3-7d1aca1b3d61"},"vehicle_type_id":"4","last_reported":1739257757,"current_range_meters":20400,"station_id":"ce4bgh92rcd13ifvqb50","pricing_plan_id":"cebpf4jnsgd1na2vs0mg"},{"bike_id":"fc63d1c6-39db-42fc-a5f0-8ec761e9b064","system_id":"levelo_inurba_marseille","lat":43.31718,"lon":5.40464,"is_reserved":false,"is_disabled":false,"rental_uris":{"android":"levelo://app?vid=fc63d1c6-39db-42fc-a5f0-8ec761e9b064","ios":"levelo://app?vid=fc63d1c6-39db-42fc-a5f0-8ec761e9b064"},"vehicle_type_id":"4","last_reported":1739257757,"current_range_meters":39200,"station_id":"ce4bh012rcd13ifvqd00","pricing_plan_id":"cebpf4jnsgd1na2vs0mg"},{"bike_id":"9e4564f0-0519-46c9-beea-73f529a3ce6a","system_id":"levelo_inurba_marseille","lat":43.24813,"lon":5.37446,"is_reserved":false,"is_disabled":false,"rental_uris":{"android":"levelo://app?vid=9e4564f0-0519-46c9-beea-73f529a3ce6a","ios":"levelo://app?vid=9e4564f0-0519-46c9-beea-73f529a3ce6a"},"vehicle_type_id":"4","last_reported":1739257757,"current_range_meters":34000,"station_id":"ce4bhgh2rcd13ifvqfb0","pricing_plan_id":"cebpf4jnsgd1na2vs0mg"},{"bike_id":"c06e4f36-e54b-428e-ae8e-e2084d39a4ca","system_id":"levelo_inurba_marseille","lat":43.30106,"lon":5.39086,"is_reserved":false,"is_disabled":false,"rental_uris":{"android":"levelo://app?vid=c06e4f36-e54b-428e-ae8e-e2084d39a4ca","ios":"levelo://app?vid=c06e4f36-e54b-428e-ae8e-e2084d39a4ca"},"vehicle_type_id":"4","last_reported":1739257757,"current_range_meters":37600,"station_id":"ce4bh192rcd13ifvqdb0","pricing_plan_id":"cebpf4jnsgd1na2vs0mg"},{"bike_id":"4fec62a4-5d14-461f-a07c-ceeb3a48fbed","system_id":"levelo_inurba_marseille","lat":43.31066,"lon":5.38356,"is_reserved":false,"is_disabled":false,"rental_uris":{"android":"levelo://app?vid=4fec62a4-5d14-461f-a07c-ceeb3a48fbed","ios":"levelo://app?vid=4fec62a4-5d14-461f-a07c-ceeb3a48fbed"},"vehicle_type_id":"4","last_reported":1739257757,"current_range_meters":38800,"station_id":"ce4bgv92rcd13ifvqcr0","pricing_plan_id":"cebpf4jnsgd1na2vs0mg"},{"bike_id":"072d3ca1-ecff-4f62-b448-9bece6c27d45","system_id":"levelo_inurba_marseille","lat":43.308923,"lon":5.396381,"is_reserved":false,"is_disabled":false,"rental_uris":{"android":"levelo://app?vid=072d3ca1-ecff-4f62-b448-9bece6c27d45","ios":"levelo://app?vid=072d3ca1-ecff-4f62-b448-9bece6c27d45"},"vehicle_type_id":"4","last_reported":1739257757,"current_range_meters":38000,"station_id":"ce4bh012rcd13ifvqcv0","pricing_plan_id":"cebpf4jnsgd1na2vs0mg"},{"bike_id":"9b1d5f82-eea6-49eb-899b-9dd4b7f0d171","system_id":"levelo_inurba_marseille","lat":43.27076,"lon":5.42302,"is_reserved":false,"is_disabled":false,"rental_uris":{"android":"levelo://app?vid=9b1d5f82-eea6-49eb-899b-9dd4b7f0d171","ios":"levelo://app?vid=9b1d5f82-eea6-49eb-899b-9dd4b7f0d171"},"vehicle_type_id":"4","last_reported":1739257757,"current_range_meters":38400,"station_id":"ce4bhk92rcd13ifvqgb0","pricing_plan_id":"cebpf4jnsgd1na2vs0mg"},{"bike_id":"8e7ce03c-394f-4066-aafd-5b16027f082f","system_id":"levelo_inurba_marseille","lat":43.28347,"lon":5.38092,"is_reserved":false,"is_disabled":false,"rental_uris":{"android":"levelo://app?vid=8e7ce03c-394f-4066-aafd-5b16027f082f","ios":"levelo://app?vid=8e7ce03c-394f-4066-aafd-5b16027f082f"},"vehicle_type_id":"4","last_reported":1739257757,"current_range_meters":38000,"station_id":"ce4bh412rcd13ifvqdr0","pricing_plan_id":"cebpf4jnsgd1na2vs0mg"},{"bike_id":"6ec22194-1a30-444b-a0c3-0b65b4f66e9e","system_id":"levelo_inurba_marseille","lat":43.30547,"lon":5.38429,"is_reserved":false,"is_disabled":false,"rental_uris":{"android":"levelo://app?vid=6ec22194-1a30-444b-a0c3-0b65b4f66e9e","ios":"levelo://app?vid=6ec22194-1a30-444b-a0c3-0b65b4f66e9e"},"vehicle_type_id":"4","last_reported":1739257757,"current_range_meters":32800,"station_id":"ce4bgg92rcd13ifvqb30","pricing_plan_id":"cebpf4jnsgd1na2vs0mg"},{"bike_id":"8ce175ac-b904-4ebb-9b6e-482917069a41","system_id":"levelo_inurba_marseille","lat":43.26187,"lon":5.37447,"is_reserved":false,"is_disabled":false,"rental_uris":{"android":"levelo://app?vid=8ce175ac-b904-4ebb-9b6e-482917069a41","ios":"levelo://app?vid=8ce175ac-b904-4ebb-9b6e-482917069a41"},"vehicle_type_id":"4","last_reported":1739257757,"current_range_meters":17600,"station_id":"ce4bhgp2rcd13ifvqfc0","pricing_plan_id":"cebpf4jnsgd1na2vs0mg"},{"bike_id":"6803ddfa-d502-42a2-ad93-8e0a9a783768","system_id":"levelo_inurba_marseille","lat":43.260269,"lon":5.375525,"is_reserved":false,"is_disabled":false,"rental_uris":{"android":"levelo://app?vid=6803ddfa-d502-42a2-ad93-8e0a9a783768","ios":"levelo://app?vid=6803ddfa-d502-42a2-ad93-8e0a9a783768"},"vehicle_type_id":"4","last_reported":1739257757,"current_range_meters":20800,"station_id":"ce4bhgh2rcd13ifvqfa0","pricing_plan_id":"cebpf4jnsgd1na2vs0mg"},{"bike_id":"65cf4230-dc1e-423b-bd5e-a4f50317ec79","system_id":"levelo_inurba_marseille","lat":43.295105,"lon":5.383602,"is_reserved":false,"is_disabled":false,"rental_uris":{"android":"levelo://app?vid=65cf4230-dc1e-423b-bd5e-a4f50317ec79","ios":"levelo://app?vid=65cf4230-dc1e-423b-bd5e-a4f50317ec79"},"vehicle_type_id":"4","last_reported":1739257757,"current_range_meters":36800,"station_id":"ce4bh2h2rcd13ifvqdh0","pricing_plan_id":"cebpf4jnsgd1na2vs0mg"},{"bike_id":"dad063e9-988a-4024-a8c6-8940ca554398","system_id":"levelo_inurba_marseille","lat":43.2886,"lon":5.35857,"is_reserved":false,"is_disabled":false,"rental_uris":{"android":"levelo://app?vid=dad063e9-988a-4024-a8c6-8940ca554398","ios":"levelo://app?vid=dad063e9-988a-4024-a8c6-8940ca554398"},"vehicle_type_id":"4","last_reported":1739257757,"current_range_meters":16800,"station_id":"ce4bhb12rcd13ifvqem0","pricing_plan_id":"cebpf4jnsgd1na2vs0mg"},{"bike_id":"f798cbc4-a869-471f-bce8-f64397eebe81","system_id":"levelo_inurba_marseille","lat":43.23965,"lon":5.36641,"is_reserved":false,"is_disabled":false,"rental_uris":{"android":"levelo://app?vid=f798cbc4-a869-471f-bce8-f64397eebe81","ios":"levelo://app?vid=f798cbc4-a869-471f-bce8-f64397eebe81"},"vehicle_type_id":"4","last_reported":1739257757,"current_range_meters":23200,"station_id":"ce4bhi12rcd13ifvqfp0","pricing_plan_id":"cebpf4jnsgd1na2vs0mg"},{"bike_id":"70f8b8f3-c647-46aa-87a6-806fb665fa37","system_id":"levelo_inurba_marseille","lat":43.28016,"lon":5.36993,"is_reserved":false,"is_disabled":false,"rental_uris":{"android":"levelo://app?vid=70f8b8f3-c647-46aa-87a6-806fb665fa37","ios":"levelo://app?vid=70f8b8f3-c647-46aa-87a6-806fb665fa37"},"vehicle_type_id":"4","last_reported":1739257757,"current_range_meters":17200,"station_id":"","pricing_plan_id":"cebpf4jnsgd1na2vs0mg"},{"bike_id":"2cf3fcac-64a5-447d-8244-0c45e90ef3e9","system_id":"levelo_inurba_marseille","lat":43.29294,"lon":5.40202,"is_reserved":false,"is_disabled":false,"rental_uris":{"android":"levelo://app?vid=2cf3fcac-64a5-447d-8244-0c45e90ef3e9","ios":"levelo://app?vid=2cf3fcac-64a5-447d-8244-0c45e90ef3e9"},"vehicle_type_id":"4","last_reported":1739257757,"current_range_meters":38400,"station_id":"ce4bh312rcd13ifvqdk0","pricing_plan_id":"cebpf4jnsgd1na2vs0mg"},{"bike_id":"82432e1b-c28c-4f7d-a515-670f97b6b6c0","system_id":"levelo_inurba_marseille","lat":43.29027,"lon":5.39995,"is_reserved":false,"is_disabled":false,"rental_uris":{"android":"levelo://app?vid=82432e1b-c28c-4f7d-a515-670f97b6b6c0","ios":"levelo://app?vid=82432e1b-c28c-4f7d-a515-670f97b6b6c0"},"vehicle_type_id":"4","last_reported":1739257757,"current_range_meters":39200,"station_id":"ce4bh392rcd13ifvqdm0","pricing_plan_id":"cebpf4jnsgd1na2vs0mg"},{"bike_id":"a6d254f7-4619-4450-ac84-3257acf14119","system_id":"levelo_inurba_marseille","lat":43.299023,"lon":5.4367,"is_reserved":false,"is_disabled":false,"rental_uris":{"android":"levelo://app?vid=a6d254f7-4619-4450-ac84-3257acf14119","ios":"levelo://app?vid=a6d254f7-4619-4450-ac84-3257acf14119"},"vehicle_type_id":"4","last_reported":1739257757,"current_range_meters":18800,"station_id":"ce4bhpp2rcd13ifvqhfg","pricing_plan_id":"cebpf4jnsgd1na2vs0mg"},{"bike_id":"91a0d2f8-9680-4ad2-8f14-f4c94caca77b","system_id":"levelo_inurba_marseille","lat":43.33748,"lon":5.3746,"is_reserved":false,"is_disabled":false,"rental_uris":{"android":"levelo://app?vid=91a0d2f8-9680-4ad2-8f14-f4c94caca77b","ios":"levelo://app?vid=91a0d2f8-9680-4ad2-8f14-f4c94caca77b"},"vehicle_type_id":"4","last_reported":1739257757,"current_range_meters":6800,"station_id":"","pricing_plan_id":"cebpf4jnsgd1na2vs0mg"},{"bike_id":"bf8cd02e-ccdc-4523-894a-3fce83d782e3","system_id":"levelo_inurba_marseille","lat":43.337263,"lon":5.391857,"is_reserved":false,"is_disabled":false,"rental_uris":{"android":"levelo://app?vid=bf8cd02e-ccdc-4523-894a-3fce83d782e3","ios":"levelo://app?vid=bf8cd02e-ccdc-4523-894a-3fce83d782e3"},"vehicle_type_id":"4","last_reported":1739257757,"current_range_meters":37600,"station_id":"ce4bhr92rcd13ifvqhsg","pricing_plan_id":"cebpf4jnsgd1na2vs0mg"},{"bike_id":"7c6bbf7f-41d8-44ee-ba01-3c107a914dec","system_id":"levelo_inurba_marseille","lat":43.30738,"lon":5.3708,"is_reserved":false,"is_disabled":false,"rental_uris":{"android":"levelo://app?vid=7c6bbf7f-41d8-44ee-ba01-3c107a914dec","ios":"levelo://app?vid=7c6bbf7f-41d8-44ee-ba01-3c107a914dec"},"vehicle_type_id":"4","last_reported":1739257757,"current_range_meters":24800,"station_id":"","pricing_plan_id":"cebpf4jnsgd1na2vs0mg"},{"bike_id":"44250f9a-32b8-422c-ac24-5176fa2a88b0","system_id":"levelo_inurba_marseille","lat":43.29371,"lon":5.37873,"is_reserved":false,"is_disabled":true,"rental_uris":{"android":"levelo://app?vid=44250f9a-32b8-422c-ac24-5176fa2a88b0","ios":"levelo://app?vid=44250f9a-32b8-422c-ac24-5176fa2a88b0"},"vehicle_type_id":"4","last_reported":1739257757,"current_range_meters":33600,"station_id":"ce4bgjh2rcd13ifvqbf0","pricing_plan_id":"cebpf4jnsgd1na2vs0mg"},{"bike_id":"7ca80e67-cb2b-490a-b839-a5cc2b6a357b","system_id":"levelo_inurba_marseille","lat":43.29192,"lon":5.35803,"is_reserved":false,"is_disabled":false,"rental_uris":{"android":"levelo://app?vid=7ca80e67-cb2b-490a-b839-a5cc2b6a357b","ios":"levelo://app?vid=7ca80e67-cb2b-490a-b839-a5cc2b6a357b"},"vehicle_type_id":"4","last_reported":1739257757,"current_range_meters":38800,"station_id":"ce4bhb12rcd13ifvqel0","pricing_plan_id":"cebpf4jnsgd1na2vs0mg"},{"bike_id":"1aa99f4b-8abe-497b-8fe2-6de3812426b4","system_id":"levelo_inurba_marseille","lat":43.29279,"lon":5.40128,"is_reserved":false,"is_disabled":false,"rental_uris":{"android":"levelo://app?vid=1aa99f4b-8abe-497b-8fe2-6de3812426b4","ios":"levelo://app?vid=1aa99f4b-8abe-497b-8fe2-6de3812426b4"},"vehicle_type_id":"4","last_reported":1739257757,"current_range_meters":23200,"station_id":"ce4bh312rcd13ifvqdk0","pricing_plan_id":"cebpf4jnsgd1na2vs0mg"},{"bike_id":"139a9daf-9c74-4396-b43d-5e8ca17362be","system_id":"levelo_inurba_marseille","lat":43.27321,"lon":5.3909,"is_reserved":false,"is_disabled":true,"rental_uris":{"android":"levelo://app?vid=139a9daf-9c74-4396-b43d-5e8ca17362be","ios":"levelo://app?vid=139a9daf-9c74-4396-b43d-5e8ca17362be"},"vehicle_type_id":"4","last_reported":1739257757,"current_range_meters":37600,"station_id":"ce4bhgp2rcd13ifvqfe0","pricing_plan_id":"cebpf4jnsgd1na2vs0mg"},{"bike_id":"79f6247e-7327-43b7-b1bd-4e7e3d7f1f56","system_id":"levelo_inurba_marseille","lat":43.30469,"lon":5.37906,"is_reserved":false,"is_disabled":false,"rental_uris":{"android":"levelo://app?vid=79f6247e-7327-43b7-b1bd-4e7e3d7f1f56","ios":"levelo://app?vid=79f6247e-7327-43b7-b1bd-4e7e3d7f1f56"},"vehicle_type_id":"4","last_reported":1739257757,"current_range_meters":39200,"station_id":"ce4bgup2rcd13ifvqcn0","pricing_plan_id":"cebpf4jnsgd1na2vs0mg"},{"bike_id":"a1e1c154-9e5a-4afc-9a7e-cedaf38d9921","system_id":"levelo_inurba_marseille","lat":43.29006,"lon":5.35622,"is_reserved":false,"is_disabled":false,"rental_uris":{"android":"levelo://app?vid=a1e1c154-9e5a-4afc-9a7e-cedaf38d9921","ios":"levelo://app?vid=a1e1c154-9e5a-4afc-9a7e-cedaf38d9921"},"vehicle_type_id":"4","last_reported":1739257757,"current_range_meters":31200,"station_id":"ce4bhb92rcd13ifvqen0","pricing_plan_id":"cebpf4jnsgd1na2vs0mg"},{"bike_id":"7e129c81-e06e-4cc1-9421-5d38fa55e649","system_id":"levelo_inurba_marseille","lat":43.28473,"lon":5.38424,"is_reserved":false,"is_disabled":false,"rental_uris":{"android":"levelo://app?vid=7e129c81-e06e-4cc1-9421-5d38fa55e649","ios":"levelo://app?vid=7e129c81-e06e-4cc1-9421-5d38fa55e649"},"vehicle_type_id":"4","last_reported":1739257757,"current_range_meters":29600,"station_id":"ce4bh512rcd13ifvqe3g","pricing_plan_id":"cebpf4jnsgd1na2vs0mg"},{"bike_id":"726fb099-c3d7-4106-beb8-89951bfba46d","system_id":"levelo_inurba_marseille","lat":43.29584,"lon":5.37503,"is_reserved":false,"is_disabled":true,"rental_uris":{"android":"levelo://app?vid=726fb099-c3d7-4106-beb8-89951bfba46d","ios":"levelo://app?vid=726fb099-c3d7-4106-beb8-89951bfba46d"},"vehicle_type_id":"4","last_reported":1739257757,"current_range_meters":30800,"station_id":"ce4bgh92rcd13ifvqb50","pricing_plan_id":"cebpf4jnsgd1na2vs0mg"},{"bike_id":"62c83b91-0012-44d3-82e7-1c92856d675c","system_id":"levelo_inurba_marseille","lat":43.29711,"lon":5.36607,"is_reserved":false,"is_disabled":false,"rental_uris":{"android":"levelo://app?vid=62c83b91-0012-44d3-82e7-1c92856d675c","ios":"levelo://app?vid=62c83b91-0012-44d3-82e7-1c92856d675c"},"vehicle_type_id":"4","last_reported":1739257757,"current_range_meters":28000,"station_id":"ce4bgn12rcd13ifvqbt0","pricing_plan_id":"cebpf4jnsgd1na2vs0mg"},{"bike_id":"e1735f80-e414-4921-a2f8-e9a4583aa905","system_id":"levelo_inurba_marseille","lat":43.29611,"lon":5.37725,"is_reserved":false,"is_disabled":false,"rental_uris":{"android":"levelo://app?vid=e1735f80-e414-4921-a2f8-e9a4583aa905","ios":"levelo://app?vid=e1735f80-e414-4921-a2f8-e9a4583aa905"},"vehicle_type_id":"4","last_reported":1739257757,"current_range_meters":37600,"station_id":"ce4bgi92rcd13ifvqb90","pricing_plan_id":"cebpf4jnsgd1na2vs0mg"},{"bike_id":"ce077761-b5c2-4be4-aa16-eb408eaef56c","system_id":"levelo_inurba_marseille","lat":43.23176,"lon":5.39987,"is_reserved":false,"is_disabled":false,"rental_uris":{"android":"levelo://app?vid=ce077761-b5c2-4be4-aa16-eb408eaef56c","ios":"levelo://app?vid=ce077761-b5c2-4be4-aa16-eb408eaef56c"},"vehicle_type_id":"4","last_reported":1739257757,"current_range_meters":17200,"station_id":"ce4bhn12rcd13ifvqgqg","pricing_plan_id":"cebpf4jnsgd1na2vs0mg"},{"bike_id":"f7497ba6-7f7b-48c4-bbde-c8698d95bccc","system_id":"levelo_inurba_marseille","lat":43.284598,"lon":5.358956,"is_reserved":false,"is_disabled":false,"rental_uris":{"android":"levelo://app?vid=f7497ba6-7f7b-48c4-bbde-c8698d95bccc","ios":"levelo://app?vid=f7497ba6-7f7b-48c4-bbde-c8698d95bccc"},"vehicle_type_id":"4","last_reported":1739257757,"current_range_meters":38400,"station_id":"ce4bhah2rcd13ifvqei0","pricing_plan_id":"cebpf4jnsgd1na2vs0mg"},{"bike_id":"9836b973-7234-4581-b5b7-19d8b751167e","system_id":"levelo_inurba_marseille","lat":43.24181,"lon":5.39734,"is_reserved":false,"is_disabled":false,"rental_uris":{"android":"levelo://app?vid=9836b973-7234-4581-b5b7-19d8b751167e","ios":"levelo://app?vid=9836b973-7234-4581-b5b7-19d8b751167e"},"vehicle_type_id":"4","last_reported":1739257757,"current_range_meters":3600,"station_id":"ce4bhn12rcd13ifvqgpg","pricing_plan_id":"cebpf4jnsgd1na2vs0mg"},{"bike_id":"22c94491-be24-44a6-b016-d1625e0f50ee","system_id":"levelo_inurba_marseille","lat":43.298901,"lon":5.436593,"is_reserved":false,"is_disabled":false,"rental_uris":{"android":"levelo://app?vid=22c94491-be24-44a6-b016-d1625e0f50ee","ios":"levelo://app?vid=22c94491-be24-44a6-b016-d1625e0f50ee"},"vehicle_type_id":"4","last_reported":1739257757,"current_range_meters":35600,"station_id":"ce4bhpp2rcd13ifvqhfg","pricing_plan_id":"cebpf4jnsgd1na2vs0mg"},{"bike_id":"55fe04a7-d37a-4ee4-965a-2262a655cb55","system_id":"levelo_inurba_marseille","lat":43.231816,"lon":5.399835,"is_reserved":false,"is_disabled":false,"rental_uris":{"android":"levelo://app?vid=55fe04a7-d37a-4ee4-965a-2262a655cb55","ios":"levelo://app?vid=55fe04a7-d37a-4ee4-965a-2262a655cb55"},"vehicle_type_id":"4","last_reported":1739257757,"current_range_meters":38800,"station_id":"ce4bhn12rcd13ifvqgqg","pricing_plan_id":"cebpf4jnsgd1na2vs0mg"},{"bike_id":"3441c74a-282b-45aa-b329-9e43a88c8a80","system_id":"levelo_inurba_marseille","lat":43.24818,"lon":5.37464,"is_reserved":false,"is_disabled":false,"rental_uris":{"android":"levelo://app?vid=3441c74a-282b-45aa-b329-9e43a88c8a80","ios":"levelo://app?vid=3441c74a-282b-45aa-b329-9e43a88c8a80"},"vehicle_type_id":"4","last_reported":1739257757,"current_range_meters":16800,"station_id":"ce4bhgh2rcd13ifvqfb0","pricing_plan_id":"cebpf4jnsgd1na2vs0mg"},{"bike_id":"e00cd517-4a6d-40d8-b46e-27fb98e2bb39","system_id":"levelo_inurba_marseille","lat":43.28458,"lon":5.35898,"is_reserved":false,"is_disabled":false,"rental_uris":{"android":"levelo://app?vid=e00cd517-4a6d-40d8-b46e-27fb98e2bb39","ios":"levelo://app?vid=e00cd517-4a6d-40d8-b46e-27fb98e2bb39"},"vehicle_type_id":"4","last_reported":1739257757,"current_range_meters":38400,"station_id":"ce4bhah2rcd13ifvqei0","pricing_plan_id":"cebpf4jnsgd1na2vs0mg"},{"bike_id":"1ce59784-75cf-497f-9e45-0ea668f8d64e","system_id":"levelo_inurba_marseille","lat":43.27183,"lon":5.39157,"is_reserved":false,"is_disabled":false,"rental_uris":{"android":"levelo://app?vid=1ce59784-75cf-497f-9e45-0ea668f8d64e","ios":"levelo://app?vid=1ce59784-75cf-497f-9e45-0ea668f8d64e"},"vehicle_type_id":"4","last_reported":1739257757,"current_range_meters":38800,"station_id":"ce4bhhp2rcd13ifvqfm0","pricing_plan_id":"cebpf4jnsgd1na2vs0mg"},{"bike_id":"184a32a4-0697-49a3-b072-60f068b055c0","system_id":"levelo_inurba_marseille","lat":43.2809,"lon":5.39597,"is_reserved":false,"is_disabled":false,"rental_uris":{"android":"levelo://app?vid=184a32a4-0697-49a3-b072-60f068b055c0","ios":"levelo://app?vid=184a32a4-0697-49a3-b072-60f068b055c0"},"vehicle_type_id":"4","last_reported":1739257757,"current_range_meters":16800,"station_id":"ce4bho12rcd13ifvqh2g","pricing_plan_id":"cebpf4jnsgd1na2vs0mg"},{"bike_id":"8e2f681c-56b3-4dbe-acf6-d95949b97842","system_id":"levelo_inurba_marseille","lat":43.301561,"lon":5.380922,"is_reserved":false,"is_disabled":true,"rental_uris":{"android":"levelo://app?vid=8e2f681c-56b3-4dbe-acf6-d95949b97842","ios":"levelo://app?vid=8e2f681c-56b3-4dbe-acf6-d95949b97842"},"vehicle_type_id":"4","last_reported":1739257757,"current_range_meters":23200,"station_id":"","pricing_plan_id":"cebpf4jnsgd1na2vs0mg"},{"bike_id":"6e1b6112-cd26-421f-b157-6ac716f542d7","system_id":"levelo_inurba_marseille","lat":43.2718,"lon":5.40985,"is_reserved":false,"is_disabled":false,"rental_uris":{"android":"levelo://app?vid=6e1b6112-cd26-421f-b157-6ac716f542d7","ios":"levelo://app?vid=6e1b6112-cd26-421f-b157-6ac716f542d7"},"vehicle_type_id":"4","last_reported":1739257757,"current_range_meters":35600,"station_id":"ce4bhl12rcd13ifvqgf0","pricing_plan_id":"cebpf4jnsgd1na2vs0mg"},{"bike_id":"90cf9be2-0ddc-44a3-b1a7-469fe9e819be","system_id":"levelo_inurba_marseille","lat":43.29235,"lon":5.36053,"is_reserved":false,"is_disabled":false,"rental_uris":{"android":"levelo://app?vid=90cf9be2-0ddc-44a3-b1a7-469fe9e819be","ios":"levelo://app?vid=90cf9be2-0ddc-44a3-b1a7-469fe9e819be"},"vehicle_type_id":"4","last_reported":1739257757,"current_range_meters":38400,"station_id":"ce4bhbh2rcd13ifvqeqg","pricing_plan_id":"cebpf4jnsgd1na2vs0mg"},{"bike_id":"5a712f7b-faea-4b41-b7bd-078b067ddb56","system_id":"levelo_inurba_marseille","lat":43.2558,"lon":5.38254,"is_reserved":false,"is_disabled":true,"rental_uris":{"android":"levelo://app?vid=5a712f7b-faea-4b41-b7bd-078b067ddb56","ios":"levelo://app?vid=5a712f7b-faea-4b41-b7bd-078b067ddb56"},"vehicle_type_id":"4","last_reported":1739257757,"current_range_meters":29600,"station_id":"ce4bhih2rcd13ifvqfs0","pricing_plan_id":"cebpf4jnsgd1na2vs0mg"},{"bike_id":"b41d8475-1b61-4022-b648-2777adae10ea","system_id":"levelo_inurba_marseille","lat":43.24168,"lon":5.36399,"is_reserved":false,"is_disabled":false,"rental_uris":{"android":"levelo://app?vid=b41d8475-1b61-4022-b648-2777adae10ea","ios":"levelo://app?vid=b41d8475-1b61-4022-b648-2777adae10ea"},"vehicle_type_id":"4","last_reported":1739257757,"current_range_meters":27200,"station_id":"cpo36qri1sfpv3e86is0","pricing_plan_id":"cebpf4jnsgd1na2vs0mg"},{"bike_id":"797c91fd-a875-467b-999b-207e5af3706b","system_id":"levelo_inurba_marseille","lat":43.27873,"lon":5.37994,"is_reserved":false,"is_disabled":false,"rental_uris":{"android":"levelo://app?vid=797c91fd-a875-467b-999b-207e5af3706b","ios":"levelo://app?vid=797c91fd-a875-467b-999b-207e5af3706b"},"vehicle_type_id":"4","last_reported":1739257757,"current_range_meters":38800,"station_id":"ce4bhf92rcd13ifvqf50","pricing_plan_id":"cebpf4jnsgd1na2vs0mg"},{"bike_id":"3b3275f6-005e-466d-a091-71f91326b576","system_id":"levelo_inurba_marseille","lat":43.33601,"lon":5.40952,"is_reserved":false,"is_disabled":false,"rental_uris":{"android":"levelo://app?vid=3b3275f6-005e-466d-a091-71f91326b576","ios":"levelo://app?vid=3b3275f6-005e-466d-a091-71f91326b576"},"vehicle_type_id":"4","last_reported":1739257757,"current_range_meters":39200,"station_id":"ce4bhqh2rcd13ifvqhmg","pricing_plan_id":"cebpf4jnsgd1na2vs0mg"},{"bike_id":"e8896daa-b654-42d1-a724-b4eb39e0a0e8","system_id":"levelo_inurba_marseille","lat":43.24649,"lon":5.38892,"is_reserved":false,"is_disabled":false,"rental_uris":{"android":"levelo://app?vid=e8896daa-b654-42d1-a724-b4eb39e0a0e8","ios":"levelo://app?vid=e8896daa-b654-42d1-a724-b4eb39e0a0e8"},"vehicle_type_id":"4","last_reported":1739257757,"current_range_meters":35200,"station_id":"ce4bhg12rcd13ifvqf60","pricing_plan_id":"cebpf4jnsgd1na2vs0mg"},{"bike_id":"c6d668f6-941c-4533-8dc4-268029ce8ce4","system_id":"levelo_inurba_marseille","lat":43.27822,"lon":5.39207,"is_reserved":false,"is_disabled":false,"rental_uris":{"android":"levelo://app?vid=c6d668f6-941c-4533-8dc4-268029ce8ce4","ios":"levelo://app?vid=c6d668f6-941c-4533-8dc4-268029ce8ce4"},"vehicle_type_id":"4","last_reported":1739257757,"current_range_meters":38800,"station_id":"ce4bhjp2rcd13ifvqga0","pricing_plan_id":"cebpf4jnsgd1na2vs0mg"},{"bike_id":"5c5185fd-8820-4254-a5c9-0e6a473deec7","system_id":"levelo_inurba_marseille","lat":43.27797,"lon":5.42133,"is_reserved":false,"is_disabled":true,"rental_uris":{"android":"levelo://app?vid=5c5185fd-8820-4254-a5c9-0e6a473deec7","ios":"levelo://app?vid=5c5185fd-8820-4254-a5c9-0e6a473deec7"},"vehicle_type_id":"4","last_reported":1739257757,"current_range_meters":0,"station_id":"","pricing_plan_id":"cebpf4jnsgd1na2vs0mg"},{"bike_id":"5cc1c40c-0cfa-47bf-8c35-a147fbb523c6","system_id":"levelo_inurba_marseille","lat":43.33028,"lon":5.39227,"is_reserved":false,"is_disabled":false,"rental_uris":{"android":"levelo://app?vid=5cc1c40c-0cfa-47bf-8c35-a147fbb523c6","ios":"levelo://app?vid=5cc1c40c-0cfa-47bf-8c35-a147fbb523c6"},"vehicle_type_id":"4","last_reported":1739257757,"current_range_meters":36400,"station_id":"","pricing_plan_id":"cebpf4jnsgd1na2vs0mg"},{"bike_id":"92f07dea-90ac-401f-aa24-d823119dcbf1","system_id":"levelo_inurba_marseille","lat":43.28851,"lon":5.39354,"is_reserved":false,"is_disabled":false,"rental_uris":{"android":"levelo://app?vid=92f07dea-90ac-401f-aa24-d823119dcbf1","ios":"levelo://app?vid=92f07dea-90ac-401f-aa24-d823119dcbf1"},"vehicle_type_id":"4","last_reported":1739257757,"current_range_meters":36400,"station_id":"ce4bh2p2rcd13ifvqdi0","pricing_plan_id":"cebpf4jnsgd1na2vs0mg"},{"bike_id":"51ab7186-5043-4bed-baca-73708608a302","system_id":"levelo_inurba_marseille","lat":43.29584,"lon":5.37026,"is_reserved":false,"is_disabled":true,"rental_uris":{"android":"levelo://app?vid=51ab7186-5043-4bed-baca-73708608a302","ios":"levelo://app?vid=51ab7186-5043-4bed-baca-73708608a302"},"vehicle_type_id":"4","last_reported":1739257757,"current_range_meters":8400,"station_id":"","pricing_plan_id":"cebpf4jnsgd1na2vs0mg"},{"bike_id":"3664dbbc-23a1-4cc8-b192-1f5bf82ad2ae","system_id":"levelo_inurba_marseille","lat":43.2718,"lon":5.409947,"is_reserved":false,"is_disabled":false,"rental_uris":{"android":"levelo://app?vid=3664dbbc-23a1-4cc8-b192-1f5bf82ad2ae","ios":"levelo://app?vid=3664dbbc-23a1-4cc8-b192-1f5bf82ad2ae"},"vehicle_type_id":"4","last_reported":1739257757,"current_range_meters":38800,"station_id":"ce4bhl12rcd13ifvqgf0","pricing_plan_id":"cebpf4jnsgd1na2vs0mg"},{"bike_id":"439044a1-4dca-40df-9544-15d910bdc58c","system_id":"levelo_inurba_marseille","lat":43.29298,"lon":5.37458,"is_reserved":false,"is_disabled":false,"rental_uris":{"android":"levelo://app?vid=439044a1-4dca-40df-9544-15d910bdc58c","ios":"levelo://app?vid=439044a1-4dca-40df-9544-15d910bdc58c"},"vehicle_type_id":"4","last_reported":1739257757,"current_range_meters":14000,"station_id":"ce4bgi12rcd13ifvqb70","pricing_plan_id":"cebpf4jnsgd1na2vs0mg"},{"bike_id":"a8158c90-43cd-485b-b227-ab2c6a7833b6","system_id":"levelo_inurba_marseille","lat":43.2803,"lon":5.36945,"is_reserved":false,"is_disabled":false,"rental_uris":{"android":"levelo://app?vid=a8158c90-43cd-485b-b227-ab2c6a7833b6","ios":"levelo://app?vid=a8158c90-43cd-485b-b227-ab2c6a7833b6"},"vehicle_type_id":"4","last_reported":1739257757,"current_range_meters":29600,"station_id":"ce4bha12rcd13ifvqef0","pricing_plan_id":"cebpf4jnsgd1na2vs0mg"},{"bike_id":"890464c4-7185-412e-a93b-79d798bd90c9","system_id":"levelo_inurba_marseille","lat":43.28434,"lon":5.39189,"is_reserved":false,"is_disabled":false,"rental_uris":{"android":"levelo://app?vid=890464c4-7185-412e-a93b-79d798bd90c9","ios":"levelo://app?vid=890464c4-7185-412e-a93b-79d798bd90c9"},"vehicle_type_id":"4","last_reported":1739257757,"current_range_meters":39200,"station_id":"ce4bhoh2rcd13ifvqh5g","pricing_plan_id":"cebpf4jnsgd1na2vs0mg"},{"bike_id":"3e4d7c8f-9582-4c93-bb17-a6912e323d2f","system_id":"levelo_inurba_marseille","lat":43.30229,"lon":5.40092,"is_reserved":false,"is_disabled":false,"rental_uris":{"android":"levelo://app?vid=3e4d7c8f-9582-4c93-bb17-a6912e323d2f","ios":"levelo://app?vid=3e4d7c8f-9582-4c93-bb17-a6912e323d2f"},"vehicle_type_id":"4","last_reported":1739257757,"current_range_meters":23200,"station_id":"","pricing_plan_id":"cebpf4jnsgd1na2vs0mg"},{"bike_id":"698ec69a-f979-4c1b-bf85-1ac5b8a793cd","system_id":"levelo_inurba_marseille","lat":43.28703,"lon":5.37411,"is_reserved":false,"is_disabled":false,"rental_uris":{"android":"levelo://app?vid=698ec69a-f979-4c1b-bf85-1ac5b8a793cd","ios":"levelo://app?vid=698ec69a-f979-4c1b-bf85-1ac5b8a793cd"},"vehicle_type_id":"4","last_reported":1739257757,"current_range_meters":8400,"station_id":"ce4bh3p2rcd13ifvqdq0","pricing_plan_id":"cebpf4jnsgd1na2vs0mg"},{"bike_id":"d77ebab4-8330-4bd8-b943-62e52e95c5a3","system_id":"levelo_inurba_marseille","lat":43.298759,"lon":5.397466,"is_reserved":false,"is_disabled":false,"rental_uris":{"android":"levelo://app?vid=d77ebab4-8330-4bd8-b943-62e52e95c5a3","ios":"levelo://app?vid=d77ebab4-8330-4bd8-b943-62e52e95c5a3"},"vehicle_type_id":"4","last_reported":1739257757,"current_range_meters":36800,"station_id":"ce4bh0h2rcd13ifvqd50","pricing_plan_id":"cebpf4jnsgd1na2vs0mg"},{"bike_id":"b90ca344-1084-4ea6-8da0-1d09f34d7390","system_id":"levelo_inurba_marseille","lat":43.28931,"lon":5.38399,"is_reserved":false,"is_disabled":true,"rental_uris":{"android":"levelo://app?vid=b90ca344-1084-4ea6-8da0-1d09f34d7390","ios":"levelo://app?vid=b90ca344-1084-4ea6-8da0-1d09f34d7390"},"vehicle_type_id":"4","last_reported":1739257757,"current_range_meters":27200,"station_id":"ce4bh612rcd13ifvqe6g","pricing_plan_id":"cebpf4jnsgd1na2vs0mg"},{"bike_id":"0cdcc8f7-f674-43f1-9b73-0f1949650402","system_id":"levelo_inurba_marseille","lat":43.23963,"lon":5.36619,"is_reserved":false,"is_disabled":false,"rental_uris":{"android":"levelo://app?vid=0cdcc8f7-f674-43f1-9b73-0f1949650402","ios":"levelo://app?vid=0cdcc8f7-f674-43f1-9b73-0f1949650402"},"vehicle_type_id":"4","last_reported":1739257757,"current_range_meters":36400,"station_id":"ce4bhi12rcd13ifvqfp0","pricing_plan_id":"cebpf4jnsgd1na2vs0mg"},{"bike_id":"81c3dfa4-944c-4aff-b7a7-830072469697","system_id":"levelo_inurba_marseille","lat":43.299378,"lon":5.365309,"is_reserved":false,"is_disabled":false,"rental_uris":{"android":"levelo://app?vid=81c3dfa4-944c-4aff-b7a7-830072469697","ios":"levelo://app?vid=81c3dfa4-944c-4aff-b7a7-830072469697"},"vehicle_type_id":"4","last_reported":1739257757,"current_range_meters":32400,"station_id":"ce4bgm92rcd13ifvqbr0","pricing_plan_id":"cebpf4jnsgd1na2vs0mg"},{"bike_id":"de77abfa-6f74-40e9-8131-b7884eda37eb","system_id":"levelo_inurba_marseille","lat":43.29925,"lon":5.39413,"is_reserved":false,"is_disabled":false,"rental_uris":{"android":"levelo://app?vid=de77abfa-6f74-40e9-8131-b7884eda37eb","ios":"levelo://app?vid=de77abfa-6f74-40e9-8131-b7884eda37eb"},"vehicle_type_id":"4","last_reported":1739257757,"current_range_meters":29600,"station_id":"","pricing_plan_id":"cebpf4jnsgd1na2vs0mg"},{"bike_id":"c275a277-c8fc-4f3b-b3ec-a42a4ead8956","system_id":"levelo_inurba_marseille","lat":43.30138,"lon":5.37424,"is_reserved":false,"is_disabled":false,"rental_uris":{"android":"levelo://app?vid=c275a277-c8fc-4f3b-b3ec-a42a4ead8956","ios":"levelo://app?vid=c275a277-c8fc-4f3b-b3ec-a42a4ead8956"},"vehicle_type_id":"4","last_reported":1739257757,"current_range_meters":35600,"station_id":"ce4bgs92rcd13ifvqcc0","pricing_plan_id":"cebpf4jnsgd1na2vs0mg"},{"bike_id":"ee079ffa-4416-4a91-bc98-3bd665acea3b","system_id":"levelo_inurba_marseille","lat":43.33736,"lon":5.3918,"is_reserved":false,"is_disabled":false,"rental_uris":{"android":"levelo://app?vid=ee079ffa-4416-4a91-bc98-3bd665acea3b","ios":"levelo://app?vid=ee079ffa-4416-4a91-bc98-3bd665acea3b"},"vehicle_type_id":"4","last_reported":1739257757,"current_range_meters":38800,"station_id":"ce4bhr92rcd13ifvqhsg","pricing_plan_id":"cebpf4jnsgd1na2vs0mg"},{"bike_id":"1fa82dc6-47d4-4356-bbca-393bf4461726","system_id":"levelo_inurba_marseille","lat":43.239576,"lon":5.366284,"is_reserved":false,"is_disabled":false,"rental_uris":{"android":"levelo://app?vid=1fa82dc6-47d4-4356-bbca-393bf4461726","ios":"levelo://app?vid=1fa82dc6-47d4-4356-bbca-393bf4461726"},"vehicle_type_id":"4","last_reported":1739257757,"current_range_meters":19600,"station_id":"ce4bhi12rcd13ifvqfp0","pricing_plan_id":"cebpf4jnsgd1na2vs0mg"},{"bike_id":"349877b7-9480-404b-af6b-2873503fc028","system_id":"levelo_inurba_marseille","lat":43.28448,"lon":5.35887,"is_reserved":false,"is_disabled":false,"rental_uris":{"android":"levelo://app?vid=349877b7-9480-404b-af6b-2873503fc028","ios":"levelo://app?vid=349877b7-9480-404b-af6b-2873503fc028"},"vehicle_type_id":"4","last_reported":1739257757,"current_range_meters":35200,"station_id":"ce4bhah2rcd13ifvqei0","pricing_plan_id":"cebpf4jnsgd1na2vs0mg"},{"bike_id":"4a23c1d2-8301-4f81-ac21-63b310f2f54c","system_id":"levelo_inurba_marseille","lat":43.29021,"lon":5.36811,"is_reserved":false,"is_disabled":false,"rental_uris":{"android":"levelo://app?vid=4a23c1d2-8301-4f81-ac21-63b310f2f54c","ios":"levelo://app?vid=4a23c1d2-8301-4f81-ac21-63b310f2f54c"},"vehicle_type_id":"4","last_reported":1739257757,"current_range_meters":5600,"station_id":"","pricing_plan_id":"cebpf4jnsgd1na2vs0mg"},{"bike_id":"5be9460d-361e-4451-bdb4-798b48ec002e","system_id":"levelo_inurba_marseille","lat":43.24387,"lon":5.37055,"is_reserved":false,"is_disabled":false,"rental_uris":{"android":"levelo://app?vid=5be9460d-361e-4451-bdb4-798b48ec002e","ios":"levelo://app?vid=5be9460d-361e-4451-bdb4-798b48ec002e"},"vehicle_type_id":"4","last_reported":1739257757,"current_range_meters":3600,"station_id":"ce4bhhh2rcd13ifvqfk0","pricing_plan_id":"cebpf4jnsgd1na2vs0mg"},{"bike_id":"3fb479a7-ac98-409e-977d-caf933510e13","system_id":"levelo_inurba_marseille","lat":43.287268,"lon":5.360899,"is_reserved":false,"is_disabled":false,"rental_uris":{"android":"levelo://app?vid=3fb479a7-ac98-409e-977d-caf933510e13","ios":"levelo://app?vid=3fb479a7-ac98-409e-977d-caf933510e13"},"vehicle_type_id":"4","last_reported":1739257757,"current_range_meters":13600,"station_id":"cki0cbj6b192h4jlfktg","pricing_plan_id":"cebpf4jnsgd1na2vs0mg"},{"bike_id":"67c77a93-95e0-4dde-b030-1b6a0f65cf9a","system_id":"levelo_inurba_marseille","lat":43.27169,"lon":5.40985,"is_reserved":false,"is_disabled":false,"rental_uris":{"android":"levelo://app?vid=67c77a93-95e0-4dde-b030-1b6a0f65cf9a","ios":"levelo://app?vid=67c77a93-95e0-4dde-b030-1b6a0f65cf9a"},"vehicle_type_id":"4","last_reported":1739257757,"current_range_meters":9600,"station_id":"ce4bhl12rcd13ifvqgf0","pricing_plan_id":"cebpf4jnsgd1na2vs0mg"},{"bike_id":"59dd506f-4574-4745-9f77-fb0a35e88b3c","system_id":"levelo_inurba_marseille","lat":43.27053,"lon":5.40262,"is_reserved":false,"is_disabled":false,"rental_uris":{"android":"levelo://app?vid=59dd506f-4574-4745-9f77-fb0a35e88b3c","ios":"levelo://app?vid=59dd506f-4574-4745-9f77-fb0a35e88b3c"},"vehicle_type_id":"4","last_reported":1739257757,"current_range_meters":37600,"station_id":"ce4bhk92rcd13ifvqgc0","pricing_plan_id":"cebpf4jnsgd1na2vs0mg"},{"bike_id":"d0d8ec2f-c95a-46f3-be60-0d8863b57c52","system_id":"levelo_inurba_marseille","lat":43.28353,"lon":5.38111,"is_reserved":false,"is_disabled":false,"rental_uris":{"android":"levelo://app?vid=d0d8ec2f-c95a-46f3-be60-0d8863b57c52","ios":"levelo://app?vid=d0d8ec2f-c95a-46f3-be60-0d8863b57c52"},"vehicle_type_id":"4","last_reported":1739257757,"current_range_meters":38800,"station_id":"ce4bh412rcd13ifvqdr0","pricing_plan_id":"cebpf4jnsgd1na2vs0mg"},{"bike_id":"496fa2ad-a547-4095-b8b9-a29f1a78ab4b","system_id":"levelo_inurba_marseille","lat":43.27908,"lon":5.40639,"is_reserved":false,"is_disabled":false,"rental_uris":{"android":"levelo://app?vid=496fa2ad-a547-4095-b8b9-a29f1a78ab4b","ios":"levelo://app?vid=496fa2ad-a547-4095-b8b9-a29f1a78ab4b"},"vehicle_type_id":"4","last_reported":1739257757,"current_range_meters":37600,"station_id":"","pricing_plan_id":"cebpf4jnsgd1na2vs0mg"},{"bike_id":"f53564a4-cbf9-4b55-bb72-8eda8cad3a05","system_id":"levelo_inurba_marseille","lat":43.27084,"lon":5.42285,"is_reserved":false,"is_disabled":false,"rental_uris":{"android":"levelo://app?vid=f53564a4-cbf9-4b55-bb72-8eda8cad3a05","ios":"levelo://app?vid=f53564a4-cbf9-4b55-bb72-8eda8cad3a05"},"vehicle_type_id":"4","last_reported":1739257757,"current_range_meters":18800,"station_id":"ce4bhk92rcd13ifvqgb0","pricing_plan_id":"cebpf4jnsgd1na2vs0mg"},{"bike_id":"e0a4d656-8cb1-46e8-85ac-a240083f8662","system_id":"levelo_inurba_marseille","lat":43.28098,"lon":5.37849,"is_reserved":false,"is_disabled":false,"rental_uris":{"android":"levelo://app?vid=e0a4d656-8cb1-46e8-85ac-a240083f8662","ios":"levelo://app?vid=e0a4d656-8cb1-46e8-85ac-a240083f8662"},"vehicle_type_id":"4","last_reported":1739257757,"current_range_meters":35200,"station_id":"ce4bha12rcd13ifvqee0","pricing_plan_id":"cebpf4jnsgd1na2vs0mg"},{"bike_id":"05f6ac8f-0127-4e39-bd11-d53a74225ef8","system_id":"levelo_inurba_marseille","lat":43.27874,"lon":5.40597,"is_reserved":false,"is_disabled":true,"rental_uris":{"android":"levelo://app?vid=05f6ac8f-0127-4e39-bd11-d53a74225ef8","ios":"levelo://app?vid=05f6ac8f-0127-4e39-bd11-d53a74225ef8"},"vehicle_type_id":"4","last_reported":1739257757,"current_range_meters":0,"station_id":"","pricing_plan_id":"cebpf4jnsgd1na2vs0mg"},{"bike_id":"a3d2302b-9b93-49df-85ba-bce6080207a0","system_id":"levelo_inurba_marseille","lat":43.23148,"lon":5.43749,"is_reserved":false,"is_disabled":false,"rental_uris":{"android":"levelo://app?vid=a3d2302b-9b93-49df-85ba-bce6080207a0","ios":"levelo://app?vid=a3d2302b-9b93-49df-85ba-bce6080207a0"},"vehicle_type_id":"4","last_reported":1739257757,"current_range_meters":6000,"station_id":"ce4bhmp2rcd13ifvqgog","pricing_plan_id":"cebpf4jnsgd1na2vs0mg"},{"bike_id":"76f3170e-3ff7-41ad-9bc5-e166406e18c1","system_id":"levelo_inurba_marseille","lat":43.284233,"lon":5.349818,"is_reserved":false,"is_disabled":false,"rental_uris":{"android":"levelo://app?vid=76f3170e-3ff7-41ad-9bc5-e166406e18c1","ios":"levelo://app?vid=76f3170e-3ff7-41ad-9bc5-e166406e18c1"},"vehicle_type_id":"4","last_reported":1739257757,"current_range_meters":28000,"station_id":"ce4bhbh2rcd13ifvqepg","pricing_plan_id":"cebpf4jnsgd1na2vs0mg"},{"bike_id":"ff19b20c-ce22-4998-8731-8e01fed701e6","system_id":"levelo_inurba_marseille","lat":43.265535,"lon":5.372948,"is_reserved":false,"is_disabled":false,"rental_uris":{"android":"levelo://app?vid=ff19b20c-ce22-4998-8731-8e01fed701e6","ios":"levelo://app?vid=ff19b20c-ce22-4998-8731-8e01fed701e6"},"vehicle_type_id":"4","last_reported":1739257757,"current_range_meters":4400,"station_id":"ce4bhg12rcd13ifvqf70","pricing_plan_id":"cebpf4jnsgd1na2vs0mg"},{"bike_id":"0d5874f3-9e05-431e-8c35-c35c394384b1","system_id":"levelo_inurba_marseille","lat":43.27071,"lon":5.42287,"is_reserved":false,"is_disabled":false,"rental_uris":{"android":"levelo://app?vid=0d5874f3-9e05-431e-8c35-c35c394384b1","ios":"levelo://app?vid=0d5874f3-9e05-431e-8c35-c35c394384b1"},"vehicle_type_id":"4","last_reported":1739257757,"current_range_meters":31200,"station_id":"ce4bhk92rcd13ifvqgb0","pricing_plan_id":"cebpf4jnsgd1na2vs0mg"},{"bike_id":"3d01ee57-be5d-4165-815d-c5b06c8be331","system_id":"levelo_inurba_marseille","lat":43.250027,"lon":5.389297,"is_reserved":false,"is_disabled":false,"rental_uris":{"android":"levelo://app?vid=3d01ee57-be5d-4165-815d-c5b06c8be331","ios":"levelo://app?vid=3d01ee57-be5d-4165-815d-c5b06c8be331"},"vehicle_type_id":"4","last_reported":1739257757,"current_range_meters":39200,"station_id":"ce4bhgp2rcd13ifvqfd0","pricing_plan_id":"cebpf4jnsgd1na2vs0mg"},{"bike_id":"888de15d-5155-402d-af0b-510ff5556f61","system_id":"levelo_inurba_marseille","lat":43.32355,"lon":5.38918,"is_reserved":false,"is_disabled":false,"rental_uris":{"android":"levelo://app?vid=888de15d-5155-402d-af0b-510ff5556f61","ios":"levelo://app?vid=888de15d-5155-402d-af0b-510ff5556f61"},"vehicle_type_id":"4","last_reported":1739257757,"current_range_meters":27600,"station_id":"ce4bhqp2rcd13ifvqhog","pricing_plan_id":"cebpf4jnsgd1na2vs0mg"},{"bike_id":"04564863-f1f2-443b-b8f1-fcbab471f36d","system_id":"levelo_inurba_marseille","lat":43.29524,"lon":5.39053,"is_reserved":false,"is_disabled":false,"rental_uris":{"android":"levelo://app?vid=04564863-f1f2-443b-b8f1-fcbab471f36d","ios":"levelo://app?vid=04564863-f1f2-443b-b8f1-fcbab471f36d"},"vehicle_type_id":"4","last_reported":1739257757,"current_range_meters":38800,"station_id":"ce4bh3p2rcd13ifvqdp0","pricing_plan_id":"cebpf4jnsgd1na2vs0mg"},{"bike_id":"3eedc124-81a7-4614-9478-cebc39530283","system_id":"levelo_inurba_marseille","lat":43.30259,"lon":5.40111,"is_reserved":false,"is_disabled":false,"rental_uris":{"android":"levelo://app?vid=3eedc124-81a7-4614-9478-cebc39530283","ios":"levelo://app?vid=3eedc124-81a7-4614-9478-cebc39530283"},"vehicle_type_id":"4","last_reported":1739257757,"current_range_meters":21600,"station_id":"ce4bgvh2rcd13ifvqcs0","pricing_plan_id":"cebpf4jnsgd1na2vs0mg"},{"bike_id":"76ed4e97-7fa9-4836-bcd3-e52753ef31b4","system_id":"levelo_inurba_marseille","lat":43.29844,"lon":5.36278,"is_reserved":false,"is_disabled":false,"rental_uris":{"android":"levelo://app?vid=76ed4e97-7fa9-4836-bcd3-e52753ef31b4","ios":"levelo://app?vid=76ed4e97-7fa9-4836-bcd3-e52753ef31b4"},"vehicle_type_id":"4","last_reported":1739257757,"current_range_meters":39200,"station_id":"ce4bgpp2rcd13ifvqc3g","pricing_plan_id":"cebpf4jnsgd1na2vs0mg"},{"bike_id":"fd7cd6eb-8023-4160-9061-39fa556cf25c","system_id":"levelo_inurba_marseille","lat":43.30324,"lon":5.40453,"is_reserved":false,"is_disabled":true,"rental_uris":{"android":"levelo://app?vid=fd7cd6eb-8023-4160-9061-39fa556cf25c","ios":"levelo://app?vid=fd7cd6eb-8023-4160-9061-39fa556cf25c"},"vehicle_type_id":"4","last_reported":1739257757,"current_range_meters":29600,"station_id":"ce4bh012rcd13ifvqd10","pricing_plan_id":"cebpf4jnsgd1na2vs0mg"},{"bike_id":"e4e9f784-4a8b-4a3f-9f73-d7bbf81c2870","system_id":"levelo_inurba_marseille","lat":43.29036,"lon":5.3996,"is_reserved":false,"is_disabled":false,"rental_uris":{"android":"levelo://app?vid=e4e9f784-4a8b-4a3f-9f73-d7bbf81c2870","ios":"levelo://app?vid=e4e9f784-4a8b-4a3f-9f73-d7bbf81c2870"},"vehicle_type_id":"4","last_reported":1739257757,"current_range_meters":38800,"station_id":"ce4bh392rcd13ifvqdm0","pricing_plan_id":"cebpf4jnsgd1na2vs0mg"},{"bike_id":"d32849cf-4c14-4032-9063-172d06d3f04f","system_id":"levelo_inurba_marseille","lat":43.23196,"lon":5.35548,"is_reserved":false,"is_disabled":false,"rental_uris":{"android":"levelo://app?vid=d32849cf-4c14-4032-9063-172d06d3f04f","ios":"levelo://app?vid=d32849cf-4c14-4032-9063-172d06d3f04f"},"vehicle_type_id":"4","last_reported":1739257757,"current_range_meters":36000,"station_id":"ce4bhu92rcd13ifvqi70","pricing_plan_id":"cebpf4jnsgd1na2vs0mg"},{"bike_id":"8874a213-102d-48ef-b2d7-c6104bb686b2","system_id":"levelo_inurba_marseille","lat":43.2956,"lon":5.4228,"is_reserved":false,"is_disabled":false,"rental_uris":{"android":"levelo://app?vid=8874a213-102d-48ef-b2d7-c6104bb686b2","ios":"levelo://app?vid=8874a213-102d-48ef-b2d7-c6104bb686b2"},"vehicle_type_id":"4","last_reported":1739257757,"current_range_meters":38400,"station_id":"ce4bhph2rcd13ifvqhdg","pricing_plan_id":"cebpf4jnsgd1na2vs0mg"},{"bike_id":"a6b5776b-449a-4723-8d97-0d90502e8bfe","system_id":"levelo_inurba_marseille","lat":43.27957,"lon":5.41035,"is_reserved":false,"is_disabled":false,"rental_uris":{"android":"levelo://app?vid=a6b5776b-449a-4723-8d97-0d90502e8bfe","ios":"levelo://app?vid=a6b5776b-449a-4723-8d97-0d90502e8bfe"},"vehicle_type_id":"4","last_reported":1739257757,"current_range_meters":38800,"station_id":"ce4bhnp2rcd13ifvqh0g","pricing_plan_id":"cebpf4jnsgd1na2vs0mg"},{"bike_id":"ef0fbf5d-37dd-4e02-9a7e-6362d53f3649","system_id":"levelo_inurba_marseille","lat":43.30907,"lon":5.36865,"is_reserved":false,"is_disabled":false,"rental_uris":{"android":"levelo://app?vid=ef0fbf5d-37dd-4e02-9a7e-6362d53f3649","ios":"levelo://app?vid=ef0fbf5d-37dd-4e02-9a7e-6362d53f3649"},"vehicle_type_id":"4","last_reported":1739257757,"current_range_meters":36400,"station_id":"ce4bgn92rcd13ifvqbvg","pricing_plan_id":"cebpf4jnsgd1na2vs0mg"},{"bike_id":"537dfc6c-1cc0-4176-a7ee-b2ba41fb8041","system_id":"levelo_inurba_marseille","lat":43.26541,"lon":5.3732,"is_reserved":false,"is_disabled":false,"rental_uris":{"android":"levelo://app?vid=537dfc6c-1cc0-4176-a7ee-b2ba41fb8041","ios":"levelo://app?vid=537dfc6c-1cc0-4176-a7ee-b2ba41fb8041"},"vehicle_type_id":"4","last_reported":1739257757,"current_range_meters":32800,"station_id":"ce4bhg12rcd13ifvqf70","pricing_plan_id":"cebpf4jnsgd1na2vs0mg"},{"bike_id":"b7cfafc0-fba3-47fa-8c3d-d96c6bee1f7a","system_id":"levelo_inurba_marseille","lat":43.24391,"lon":5.37053,"is_reserved":false,"is_disabled":false,"rental_uris":{"android":"levelo://app?vid=b7cfafc0-fba3-47fa-8c3d-d96c6bee1f7a","ios":"levelo://app?vid=b7cfafc0-fba3-47fa-8c3d-d96c6bee1f7a"},"vehicle_type_id":"4","last_reported":1739257757,"current_range_meters":34800,"station_id":"ce4bhhh2rcd13ifvqfk0","pricing_plan_id":"cebpf4jnsgd1na2vs0mg"},{"bike_id":"9ba133ba-7b58-4607-8737-7fb5bce66e58","system_id":"levelo_inurba_marseille","lat":43.24394,"lon":5.37061,"is_reserved":false,"is_disabled":false,"rental_uris":{"android":"levelo://app?vid=9ba133ba-7b58-4607-8737-7fb5bce66e58","ios":"levelo://app?vid=9ba133ba-7b58-4607-8737-7fb5bce66e58"},"vehicle_type_id":"4","last_reported":1739257757,"current_range_meters":38800,"station_id":"ce4bhhh2rcd13ifvqfk0","pricing_plan_id":"cebpf4jnsgd1na2vs0mg"},{"bike_id":"7ad2debf-586d-4c17-96ee-4293391683d1","system_id":"levelo_inurba_marseille","lat":43.28144,"lon":5.42665,"is_reserved":false,"is_disabled":false,"rental_uris":{"android":"levelo://app?vid=7ad2debf-586d-4c17-96ee-4293391683d1","ios":"levelo://app?vid=7ad2debf-586d-4c17-96ee-4293391683d1"},"vehicle_type_id":"4","last_reported":1739257757,"current_range_meters":18000,"station_id":"ce4bhnh2rcd13ifvqgug","pricing_plan_id":"cebpf4jnsgd1na2vs0mg"},{"bike_id":"3053beb1-cf70-417b-badc-581ea0c267b6","system_id":"levelo_inurba_marseille","lat":43.318928,"lon":5.407289,"is_reserved":false,"is_disabled":false,"rental_uris":{"android":"levelo://app?vid=3053beb1-cf70-417b-badc-581ea0c267b6","ios":"levelo://app?vid=3053beb1-cf70-417b-badc-581ea0c267b6"},"vehicle_type_id":"4","last_reported":1739257757,"current_range_meters":27600,"station_id":"ce4bhq12rcd13ifvqhig","pricing_plan_id":"cebpf4jnsgd1na2vs0mg"},{"bike_id":"386a5c6b-0374-40ee-8fee-068f2ec38f9b","system_id":"levelo_inurba_marseille","lat":43.23958,"lon":5.36638,"is_reserved":false,"is_disabled":false,"rental_uris":{"android":"levelo://app?vid=386a5c6b-0374-40ee-8fee-068f2ec38f9b","ios":"levelo://app?vid=386a5c6b-0374-40ee-8fee-068f2ec38f9b"},"vehicle_type_id":"4","last_reported":1739257757,"current_range_meters":11600,"station_id":"ce4bhi12rcd13ifvqfp0","pricing_plan_id":"cebpf4jnsgd1na2vs0mg"},{"bike_id":"f97cf5ab-5809-4756-93c3-d41c2eaf9f41","system_id":"levelo_inurba_marseille","lat":43.317243,"lon":5.424055,"is_reserved":false,"is_disabled":false,"rental_uris":{"android":"levelo://app?vid=f97cf5ab-5809-4756-93c3-d41c2eaf9f41","ios":"levelo://app?vid=f97cf5ab-5809-4756-93c3-d41c2eaf9f41"},"vehicle_type_id":"4","last_reported":1739257757,"current_range_meters":38800,"station_id":"ce4bhp92rcd13ifvqhbg","pricing_plan_id":"cebpf4jnsgd1na2vs0mg"},{"bike_id":"d6cd364b-068f-40ad-824b-9dcfc623da26","system_id":"levelo_inurba_marseille","lat":43.32544,"lon":5.41424,"is_reserved":false,"is_disabled":false,"rental_uris":{"android":"levelo://app?vid=d6cd364b-068f-40ad-824b-9dcfc623da26","ios":"levelo://app?vid=d6cd364b-068f-40ad-824b-9dcfc623da26"},"vehicle_type_id":"4","last_reported":1739257757,"current_range_meters":26000,"station_id":"ce4bhq12rcd13ifvqhhg","pricing_plan_id":"cebpf4jnsgd1na2vs0mg"},{"bike_id":"27970130-9f58-408f-85a6-eea1ca4029cd","system_id":"levelo_inurba_marseille","lat":43.29532,"lon":5.39036,"is_reserved":false,"is_disabled":false,"rental_uris":{"android":"levelo://app?vid=27970130-9f58-408f-85a6-eea1ca4029cd","ios":"levelo://app?vid=27970130-9f58-408f-85a6-eea1ca4029cd"},"vehicle_type_id":"4","last_reported":1739257757,"current_range_meters":36800,"station_id":"ce4bh3p2rcd13ifvqdp0","pricing_plan_id":"cebpf4jnsgd1na2vs0mg"},{"bike_id":"3ad78980-d954-4439-b88d-56e0dcfe7b89","system_id":"levelo_inurba_marseille","lat":43.23962,"lon":5.3662,"is_reserved":false,"is_disabled":false,"rental_uris":{"android":"levelo://app?vid=3ad78980-d954-4439-b88d-56e0dcfe7b89","ios":"levelo://app?vid=3ad78980-d954-4439-b88d-56e0dcfe7b89"},"vehicle_type_id":"4","last_reported":1739257757,"current_range_meters":10800,"station_id":"ce4bhi12rcd13ifvqfp0","pricing_plan_id":"cebpf4jnsgd1na2vs0mg"},{"bike_id":"f654d2d3-817a-4c55-8ebd-8025694bc89f","system_id":"levelo_inurba_marseille","lat":43.30152,"lon":5.38107,"is_reserved":false,"is_disabled":false,"rental_uris":{"android":"levelo://app?vid=f654d2d3-817a-4c55-8ebd-8025694bc89f","ios":"levelo://app?vid=f654d2d3-817a-4c55-8ebd-8025694bc89f"},"vehicle_type_id":"4","last_reported":1739257757,"current_range_meters":28000,"station_id":"ce4bgjp2rcd13ifvqbh0","pricing_plan_id":"cebpf4jnsgd1na2vs0mg"},{"bike_id":"57bb23cc-aacd-4798-9d5f-20a9fef2ce8a","system_id":"levelo_inurba_marseille","lat":43.30638,"lon":5.40102,"is_reserved":false,"is_disabled":false,"rental_uris":{"android":"levelo://app?vid=57bb23cc-aacd-4798-9d5f-20a9fef2ce8a","ios":"levelo://app?vid=57bb23cc-aacd-4798-9d5f-20a9fef2ce8a"},"vehicle_type_id":"4","last_reported":1739257757,"current_range_meters":26000,"station_id":"ce4bh112rcd13ifvqda0","pricing_plan_id":"cebpf4jnsgd1na2vs0mg"},{"bike_id":"f69cd6be-4142-4fae-b32e-2ad56ba1af59","system_id":"levelo_inurba_marseille","lat":43.316881,"lon":5.404783,"is_reserved":false,"is_disabled":false,"rental_uris":{"android":"levelo://app?vid=f69cd6be-4142-4fae-b32e-2ad56ba1af59","ios":"levelo://app?vid=f69cd6be-4142-4fae-b32e-2ad56ba1af59"},"vehicle_type_id":"4","last_reported":1739257757,"current_range_meters":36800,"station_id":"ce4bh012rcd13ifvqd00","pricing_plan_id":"cebpf4jnsgd1na2vs0mg"},{"bike_id":"01b0e03f-7b96-4ac3-a2a1-cc92043b5081","system_id":"levelo_inurba_marseille","lat":43.291946,"lon":5.393113,"is_reserved":false,"is_disabled":true,"rental_uris":{"android":"levelo://app?vid=01b0e03f-7b96-4ac3-a2a1-cc92043b5081","ios":"levelo://app?vid=01b0e03f-7b96-4ac3-a2a1-cc92043b5081"},"vehicle_type_id":"4","last_reported":1739257757,"current_range_meters":24800,"station_id":"ce4bh192rcd13ifvqdd0","pricing_plan_id":"cebpf4jnsgd1na2vs0mg"},{"bike_id":"2b2b338a-6796-4c28-bf78-3d2fa48498dd","system_id":"levelo_inurba_marseille","lat":43.30924,"lon":5.40146,"is_reserved":false,"is_disabled":false,"rental_uris":{"android":"levelo://app?vid=2b2b338a-6796-4c28-bf78-3d2fa48498dd","ios":"levelo://app?vid=2b2b338a-6796-4c28-bf78-3d2fa48498dd"},"vehicle_type_id":"4","last_reported":1739257757,"current_range_meters":28800,"station_id":"ce4bgvp2rcd13ifvqct0","pricing_plan_id":"cebpf4jnsgd1na2vs0mg"},{"bike_id":"1e0e9e01-2b04-4047-aade-a61fcf59da4a","system_id":"levelo_inurba_marseille","lat":43.30927,"lon":5.40135,"is_reserved":false,"is_disabled":false,"rental_uris":{"android":"levelo://app?vid=1e0e9e01-2b04-4047-aade-a61fcf59da4a","ios":"levelo://app?vid=1e0e9e01-2b04-4047-aade-a61fcf59da4a"},"vehicle_type_id":"4","last_reported":1739257757,"current_range_meters":18800,"station_id":"ce4bgvp2rcd13ifvqct0","pricing_plan_id":"cebpf4jnsgd1na2vs0mg"},{"bike_id":"05b6af15-982f-4a40-a5ba-e94959fa39a7","system_id":"levelo_inurba_marseille","lat":43.29515,"lon":5.375,"is_reserved":false,"is_disabled":false,"rental_uris":{"android":"levelo://app?vid=05b6af15-982f-4a40-a5ba-e94959fa39a7","ios":"levelo://app?vid=05b6af15-982f-4a40-a5ba-e94959fa39a7"},"vehicle_type_id":"4","last_reported":1739257757,"current_range_meters":38400,"station_id":"ce4bgkp2rcd13ifvqbmg","pricing_plan_id":"cebpf4jnsgd1na2vs0mg"},{"bike_id":"1036513c-18f3-4856-bc98-c5b179f8a991","system_id":"levelo_inurba_marseille","lat":43.29031,"lon":5.38635,"is_reserved":false,"is_disabled":false,"rental_uris":{"android":"levelo://app?vid=1036513c-18f3-4856-bc98-c5b179f8a991","ios":"levelo://app?vid=1036513c-18f3-4856-bc98-c5b179f8a991"},"vehicle_type_id":"4","last_reported":1739257757,"current_range_meters":35600,"station_id":"ce4bh4p2rcd13ifvqe0g","pricing_plan_id":"cebpf4jnsgd1na2vs0mg"},{"bike_id":"9207b0f3-9707-4707-b4f6-b2339a5ec8ff","system_id":"levelo_inurba_marseille","lat":43.2815,"lon":5.42654,"is_reserved":false,"is_disabled":false,"rental_uris":{"android":"levelo://app?vid=9207b0f3-9707-4707-b4f6-b2339a5ec8ff","ios":"levelo://app?vid=9207b0f3-9707-4707-b4f6-b2339a5ec8ff"},"vehicle_type_id":"4","last_reported":1739257757,"current_range_meters":37600,"station_id":"ce4bhnh2rcd13ifvqgug","pricing_plan_id":"cebpf4jnsgd1na2vs0mg"},{"bike_id":"3bb91385-514e-4bb7-bbc6-ce3aa19ccbeb","system_id":"levelo_inurba_marseille","lat":43.31995,"lon":5.38169,"is_reserved":false,"is_disabled":false,"rental_uris":{"android":"levelo://app?vid=3bb91385-514e-4bb7-bbc6-ce3aa19ccbeb","ios":"levelo://app?vid=3bb91385-514e-4bb7-bbc6-ce3aa19ccbeb"},"vehicle_type_id":"4","last_reported":1739257757,"current_range_meters":38800,"station_id":"ce4bhr12rcd13ifvqhpg","pricing_plan_id":"cebpf4jnsgd1na2vs0mg"},{"bike_id":"9f443121-e8ff-4aac-bc9a-d9077c8e664b","system_id":"levelo_inurba_marseille","lat":43.27081,"lon":5.42282,"is_reserved":false,"is_disabled":false,"rental_uris":{"android":"levelo://app?vid=9f443121-e8ff-4aac-bc9a-d9077c8e664b","ios":"levelo://app?vid=9f443121-e8ff-4aac-bc9a-d9077c8e664b"},"vehicle_type_id":"4","last_reported":1739257757,"current_range_meters":27200,"station_id":"ce4bhk92rcd13ifvqgb0","pricing_plan_id":"cebpf4jnsgd1na2vs0mg"},{"bike_id":"ca4ef645-a9d5-4dec-bc8e-46d920a6e7cd","system_id":"levelo_inurba_marseille","lat":43.31113,"lon":5.37783,"is_reserved":false,"is_disabled":false,"rental_uris":{"android":"levelo://app?vid=ca4ef645-a9d5-4dec-bc8e-46d920a6e7cd","ios":"levelo://app?vid=ca4ef645-a9d5-4dec-bc8e-46d920a6e7cd"},"vehicle_type_id":"4","last_reported":1739257757,"current_range_meters":37600,"station_id":"ce4bgt92rcd13ifvqcg0","pricing_plan_id":"cebpf4jnsgd1na2vs0mg"},{"bike_id":"0085eac2-df35-4b37-a52c-ef336d4cbb2b","system_id":"levelo_inurba_marseille","lat":43.29033,"lon":5.3997,"is_reserved":false,"is_disabled":false,"rental_uris":{"android":"levelo://app?vid=0085eac2-df35-4b37-a52c-ef336d4cbb2b","ios":"levelo://app?vid=0085eac2-df35-4b37-a52c-ef336d4cbb2b"},"vehicle_type_id":"4","last_reported":1739257757,"current_range_meters":24000,"station_id":"ce4bh392rcd13ifvqdm0","pricing_plan_id":"cebpf4jnsgd1na2vs0mg"},{"bike_id":"c03e3e74-2231-4470-8600-8fa32748c474","system_id":"levelo_inurba_marseille","lat":43.248071,"lon":5.374506,"is_reserved":false,"is_disabled":false,"rental_uris":{"android":"levelo://app?vid=c03e3e74-2231-4470-8600-8fa32748c474","ios":"levelo://app?vid=c03e3e74-2231-4470-8600-8fa32748c474"},"vehicle_type_id":"4","last_reported":1739257757,"current_range_meters":36000,"station_id":"ce4bhgh2rcd13ifvqfb0","pricing_plan_id":"cebpf4jnsgd1na2vs0mg"},{"bike_id":"a7fa9bda-bdde-4da9-921e-27210f03b34a","system_id":"levelo_inurba_marseille","lat":43.284833,"lon":5.384106,"is_reserved":false,"is_disabled":false,"rental_uris":{"android":"levelo://app?vid=a7fa9bda-bdde-4da9-921e-27210f03b34a","ios":"levelo://app?vid=a7fa9bda-bdde-4da9-921e-27210f03b34a"},"vehicle_type_id":"4","last_reported":1739257757,"current_range_meters":38000,"station_id":"ce4bh512rcd13ifvqe3g","pricing_plan_id":"cebpf4jnsgd1na2vs0mg"},{"bike_id":"4591023d-5c1e-434a-8f93-a035257c7caf","system_id":"levelo_inurba_marseille","lat":43.28334,"lon":5.38123,"is_reserved":false,"is_disabled":false,"rental_uris":{"android":"levelo://app?vid=4591023d-5c1e-434a-8f93-a035257c7caf","ios":"levelo://app?vid=4591023d-5c1e-434a-8f93-a035257c7caf"},"vehicle_type_id":"4","last_reported":1739257757,"current_range_meters":28000,"station_id":"ce4bh412rcd13ifvqdr0","pricing_plan_id":"cebpf4jnsgd1na2vs0mg"},{"bike_id":"c2250f20-2283-4e17-b7ce-382f2f740aa1","system_id":"levelo_inurba_marseille","lat":43.24806,"lon":5.37453,"is_reserved":false,"is_disabled":false,"rental_uris":{"android":"levelo://app?vid=c2250f20-2283-4e17-b7ce-382f2f740aa1","ios":"levelo://app?vid=c2250f20-2283-4e17-b7ce-382f2f740aa1"},"vehicle_type_id":"4","last_reported":1739257757,"current_range_meters":39200,"station_id":"ce4bhgh2rcd13ifvqfb0","pricing_plan_id":"cebpf4jnsgd1na2vs0mg"},{"bike_id":"bd51d36f-a4a0-414c-82b1-0299fe80d1ca","system_id":"levelo_inurba_marseille","lat":43.28657,"lon":5.38682,"is_reserved":false,"is_disabled":false,"rental_uris":{"android":"levelo://app?vid=bd51d36f-a4a0-414c-82b1-0299fe80d1ca","ios":"levelo://app?vid=bd51d36f-a4a0-414c-82b1-0299fe80d1ca"},"vehicle_type_id":"4","last_reported":1739257757,"current_range_meters":30400,"station_id":"ce4bh492rcd13ifvqdug","pricing_plan_id":"cebpf4jnsgd1na2vs0mg"},{"bike_id":"8e7b398d-afd6-49c7-931a-57082626117b","system_id":"levelo_inurba_marseille","lat":43.26578,"lon":5.37291,"is_reserved":false,"is_disabled":false,"rental_uris":{"android":"levelo://app?vid=8e7b398d-afd6-49c7-931a-57082626117b","ios":"levelo://app?vid=8e7b398d-afd6-49c7-931a-57082626117b"},"vehicle_type_id":"4","last_reported":1739257757,"current_range_meters":17200,"station_id":"ce4bhg12rcd13ifvqf70","pricing_plan_id":"cebpf4jnsgd1na2vs0mg"},{"bike_id":"fdcb41f8-a4c8-462f-a3ed-fdbca4069024","system_id":"levelo_inurba_marseille","lat":43.2808,"lon":5.39656,"is_reserved":false,"is_disabled":false,"rental_uris":{"android":"levelo://app?vid=fdcb41f8-a4c8-462f-a3ed-fdbca4069024","ios":"levelo://app?vid=fdcb41f8-a4c8-462f-a3ed-fdbca4069024"},"vehicle_type_id":"4","last_reported":1739257757,"current_range_meters":38800,"station_id":"ce4bho12rcd13ifvqh2g","pricing_plan_id":"cebpf4jnsgd1na2vs0mg"},{"bike_id":"441756a0-4bd6-444f-844a-706673d06d5d","system_id":"levelo_inurba_marseille","lat":43.28109,"lon":5.39842,"is_reserved":false,"is_disabled":false,"rental_uris":{"android":"levelo://app?vid=441756a0-4bd6-444f-844a-706673d06d5d","ios":"levelo://app?vid=441756a0-4bd6-444f-844a-706673d06d5d"},"vehicle_type_id":"4","last_reported":1739257757,"current_range_meters":9200,"station_id":"","pricing_plan_id":"cebpf4jnsgd1na2vs0mg"},{"bike_id":"46364d9d-9e7c-4b5a-9d07-d05c87074a64","system_id":"levelo_inurba_marseille","lat":43.295255,"lon":5.390325,"is_reserved":false,"is_disabled":true,"rental_uris":{"android":"levelo://app?vid=46364d9d-9e7c-4b5a-9d07-d05c87074a64","ios":"levelo://app?vid=46364d9d-9e7c-4b5a-9d07-d05c87074a64"},"vehicle_type_id":"4","last_reported":1739257757,"current_range_meters":22000,"station_id":"ce4bh3p2rcd13ifvqdp0","pricing_plan_id":"cebpf4jnsgd1na2vs0mg"},{"bike_id":"35a15fce-0bc5-47ea-985a-488653db9c19","system_id":"levelo_inurba_marseille","lat":43.33604,"lon":5.41035,"is_reserved":false,"is_disabled":true,"rental_uris":{"android":"levelo://app?vid=35a15fce-0bc5-47ea-985a-488653db9c19","ios":"levelo://app?vid=35a15fce-0bc5-47ea-985a-488653db9c19"},"vehicle_type_id":"4","last_reported":1739257757,"current_range_meters":0,"station_id":"ce4bhqh2rcd13ifvqhmg","pricing_plan_id":"cebpf4jnsgd1na2vs0mg"},{"bike_id":"9250c9b2-797c-4732-8fd5-42f42ec1c970","system_id":"levelo_inurba_marseille","lat":43.31279,"lon":5.4017,"is_reserved":false,"is_disabled":false,"rental_uris":{"android":"levelo://app?vid=9250c9b2-797c-4732-8fd5-42f42ec1c970","ios":"levelo://app?vid=9250c9b2-797c-4732-8fd5-42f42ec1c970"},"vehicle_type_id":"4","last_reported":1739257757,"current_range_meters":27200,"station_id":"ce4bh092rcd13ifvqd30","pricing_plan_id":"cebpf4jnsgd1na2vs0mg"},{"bike_id":"d7db74d6-adb1-46ae-9c01-b94346bc5dd2","system_id":"levelo_inurba_marseille","lat":43.26495,"lon":5.39551,"is_reserved":false,"is_disabled":false,"rental_uris":{"android":"levelo://app?vid=d7db74d6-adb1-46ae-9c01-b94346bc5dd2","ios":"levelo://app?vid=d7db74d6-adb1-46ae-9c01-b94346bc5dd2"},"vehicle_type_id":"4","last_reported":1739257757,"current_range_meters":38000,"station_id":"ce4bhi12rcd13ifvqfq0","pricing_plan_id":"cebpf4jnsgd1na2vs0mg"},{"bike_id":"afc17562-3144-48d4-9cc5-555f7f658280","system_id":"levelo_inurba_marseille","lat":43.23202,"lon":5.35544,"is_reserved":false,"is_disabled":false,"rental_uris":{"android":"levelo://app?vid=afc17562-3144-48d4-9cc5-555f7f658280","ios":"levelo://app?vid=afc17562-3144-48d4-9cc5-555f7f658280"},"vehicle_type_id":"4","last_reported":1739257757,"current_range_meters":18000,"station_id":"ce4bhu92rcd13ifvqi70","pricing_plan_id":"cebpf4jnsgd1na2vs0mg"},{"bike_id":"5ae11b30-286f-4711-b3d2-169c9cc1d191","system_id":"levelo_inurba_marseille","lat":43.29434,"lon":5.39752,"is_reserved":false,"is_disabled":false,"rental_uris":{"android":"levelo://app?vid=5ae11b30-286f-4711-b3d2-169c9cc1d191","ios":"levelo://app?vid=5ae11b30-286f-4711-b3d2-169c9cc1d191"},"vehicle_type_id":"4","last_reported":1739257757,"current_range_meters":38400,"station_id":"ce4bh3h2rcd13ifvqdo0","pricing_plan_id":"cebpf4jnsgd1na2vs0mg"},{"bike_id":"882be2d9-83f1-4f8c-bbbd-d744734438ec","system_id":"levelo_inurba_marseille","lat":43.30159,"lon":5.38083,"is_reserved":false,"is_disabled":false,"rental_uris":{"android":"levelo://app?vid=882be2d9-83f1-4f8c-bbbd-d744734438ec","ios":"levelo://app?vid=882be2d9-83f1-4f8c-bbbd-d744734438ec"},"vehicle_type_id":"4","last_reported":1739257757,"current_range_meters":24400,"station_id":"ce4bgjp2rcd13ifvqbh0","pricing_plan_id":"cebpf4jnsgd1na2vs0mg"},{"bike_id":"cb1768ca-5396-479f-a0b8-10af7f1372e6","system_id":"levelo_inurba_marseille","lat":43.3046,"lon":5.37902,"is_reserved":false,"is_disabled":false,"rental_uris":{"android":"levelo://app?vid=cb1768ca-5396-479f-a0b8-10af7f1372e6","ios":"levelo://app?vid=cb1768ca-5396-479f-a0b8-10af7f1372e6"},"vehicle_type_id":"4","last_reported":1739257757,"current_range_meters":34800,"station_id":"ce4bgup2rcd13ifvqcn0","pricing_plan_id":"cebpf4jnsgd1na2vs0mg"},{"bike_id":"7778ab7e-867c-4916-9ab5-8e4d9b2f9cfc","system_id":"levelo_inurba_marseille","lat":43.28999,"lon":5.35619,"is_reserved":false,"is_disabled":false,"rental_uris":{"android":"levelo://app?vid=7778ab7e-867c-4916-9ab5-8e4d9b2f9cfc","ios":"levelo://app?vid=7778ab7e-867c-4916-9ab5-8e4d9b2f9cfc"},"vehicle_type_id":"4","last_reported":1739257757,"current_range_meters":32000,"station_id":"ce4bhb92rcd13ifvqen0","pricing_plan_id":"cebpf4jnsgd1na2vs0mg"},{"bike_id":"90992f30-e68b-4954-868a-2a864329bfcf","system_id":"levelo_inurba_marseille","lat":43.29039,"lon":5.39966,"is_reserved":false,"is_disabled":true,"rental_uris":{"android":"levelo://app?vid=90992f30-e68b-4954-868a-2a864329bfcf","ios":"levelo://app?vid=90992f30-e68b-4954-868a-2a864329bfcf"},"vehicle_type_id":"4","last_reported":1739257757,"current_range_meters":28000,"station_id":"ce4bh392rcd13ifvqdm0","pricing_plan_id":"cebpf4jnsgd1na2vs0mg"},{"bike_id":"6e9d127f-4cea-42ea-8ae3-0c782de1dde5","system_id":"levelo_inurba_marseille","lat":43.30457,"lon":5.37916,"is_reserved":false,"is_disabled":false,"rental_uris":{"android":"levelo://app?vid=6e9d127f-4cea-42ea-8ae3-0c782de1dde5","ios":"levelo://app?vid=6e9d127f-4cea-42ea-8ae3-0c782de1dde5"},"vehicle_type_id":"4","last_reported":1739257757,"current_range_meters":16400,"station_id":"ce4bgup2rcd13ifvqcn0","pricing_plan_id":"cebpf4jnsgd1na2vs0mg"},{"bike_id":"ac3db915-85ff-460a-b948-c32ecd7db728","system_id":"levelo_inurba_marseille","lat":43.30154,"lon":5.38083,"is_reserved":false,"is_disabled":false,"rental_uris":{"android":"levelo://app?vid=ac3db915-85ff-460a-b948-c32ecd7db728","ios":"levelo://app?vid=ac3db915-85ff-460a-b948-c32ecd7db728"},"vehicle_type_id":"4","last_reported":1739257757,"current_range_meters":38800,"station_id":"ce4bgjp2rcd13ifvqbh0","pricing_plan_id":"cebpf4jnsgd1na2vs0mg"},{"bike_id":"1d2000e3-6e82-4c8d-9a0a-5d8181e36eb3","system_id":"levelo_inurba_marseille","lat":43.25009,"lon":5.38922,"is_reserved":false,"is_disabled":false,"rental_uris":{"android":"levelo://app?vid=1d2000e3-6e82-4c8d-9a0a-5d8181e36eb3","ios":"levelo://app?vid=1d2000e3-6e82-4c8d-9a0a-5d8181e36eb3"},"vehicle_type_id":"4","last_reported":1739257757,"current_range_meters":8000,"station_id":"ce4bhgp2rcd13ifvqfd0","pricing_plan_id":"cebpf4jnsgd1na2vs0mg"},{"bike_id":"df32b82b-3edd-410c-809a-94d92822697b","system_id":"levelo_inurba_marseille","lat":43.269867,"lon":5.387921,"is_reserved":false,"is_disabled":false,"rental_uris":{"android":"levelo://app?vid=df32b82b-3edd-410c-809a-94d92822697b","ios":"levelo://app?vid=df32b82b-3edd-410c-809a-94d92822697b"},"vehicle_type_id":"4","last_reported":1739257757,"current_range_meters":38800,"station_id":"ce4bhhh2rcd13ifvqfl0","pricing_plan_id":"cebpf4jnsgd1na2vs0mg"},{"bike_id":"1ecb6694-20ff-4bc8-ac28-3228262fb33f","system_id":"levelo_inurba_marseille","lat":43.24076,"lon":5.37755,"is_reserved":false,"is_disabled":false,"rental_uris":{"android":"levelo://app?vid=1ecb6694-20ff-4bc8-ac28-3228262fb33f","ios":"levelo://app?vid=1ecb6694-20ff-4bc8-ac28-3228262fb33f"},"vehicle_type_id":"4","last_reported":1739257757,"current_range_meters":6400,"station_id":"ce4bhnp2rcd13ifvqgvg","pricing_plan_id":"cebpf4jnsgd1na2vs0mg"},{"bike_id":"e673b253-bd7c-45ce-a06f-ff88a62a7e4e","system_id":"levelo_inurba_marseille","lat":43.30192,"lon":5.38087,"is_reserved":false,"is_disabled":false,"rental_uris":{"android":"levelo://app?vid=e673b253-bd7c-45ce-a06f-ff88a62a7e4e","ios":"levelo://app?vid=e673b253-bd7c-45ce-a06f-ff88a62a7e4e"},"vehicle_type_id":"4","last_reported":1739257757,"current_range_meters":39200,"station_id":"ce4bgjp2rcd13ifvqbh0","pricing_plan_id":"cebpf4jnsgd1na2vs0mg"},{"bike_id":"0514374d-1a68-451b-bf7b-9ab34fed3a90","system_id":"levelo_inurba_marseille","lat":43.29043,"lon":5.39967,"is_reserved":false,"is_disabled":false,"rental_uris":{"android":"levelo://app?vid=0514374d-1a68-451b-bf7b-9ab34fed3a90","ios":"levelo://app?vid=0514374d-1a68-451b-bf7b-9ab34fed3a90"},"vehicle_type_id":"4","last_reported":1739257757,"current_range_meters":38800,"station_id":"ce4bh392rcd13ifvqdm0","pricing_plan_id":"cebpf4jnsgd1na2vs0mg"},{"bike_id":"e5b1d6c9-d60e-471e-8d30-08a5f4982ad7","system_id":"levelo_inurba_marseille","lat":43.306458,"lon":5.400759,"is_reserved":false,"is_disabled":false,"rental_uris":{"android":"levelo://app?vid=e5b1d6c9-d60e-471e-8d30-08a5f4982ad7","ios":"levelo://app?vid=e5b1d6c9-d60e-471e-8d30-08a5f4982ad7"},"vehicle_type_id":"4","last_reported":1739257757,"current_range_meters":36000,"station_id":"ce4bh112rcd13ifvqda0","pricing_plan_id":"cebpf4jnsgd1na2vs0mg"},{"bike_id":"79c27d1b-6e84-42bc-bef4-d8fc6ca0d19a","system_id":"levelo_inurba_marseille","lat":43.28702,"lon":5.39979,"is_reserved":false,"is_disabled":true,"rental_uris":{"android":"levelo://app?vid=79c27d1b-6e84-42bc-bef4-d8fc6ca0d19a","ios":"levelo://app?vid=79c27d1b-6e84-42bc-bef4-d8fc6ca0d19a"},"vehicle_type_id":"4","last_reported":1739257757,"current_range_meters":37600,"station_id":"ce4bho92rcd13ifvqh3g","pricing_plan_id":"cebpf4jnsgd1na2vs0mg"},{"bike_id":"d5a37605-4e0b-406c-a924-7ca9f964c4e0","system_id":"levelo_inurba_marseille","lat":43.24843,"lon":5.3749,"is_reserved":false,"is_disabled":false,"rental_uris":{"android":"levelo://app?vid=d5a37605-4e0b-406c-a924-7ca9f964c4e0","ios":"levelo://app?vid=d5a37605-4e0b-406c-a924-7ca9f964c4e0"},"vehicle_type_id":"4","last_reported":1739257757,"current_range_meters":27200,"station_id":"","pricing_plan_id":"cebpf4jnsgd1na2vs0mg"},{"bike_id":"0d5436a7-ea15-4265-aeba-3a9fe76321e1","system_id":"levelo_inurba_marseille","lat":43.27935,"lon":5.41048,"is_reserved":false,"is_disabled":false,"rental_uris":{"android":"levelo://app?vid=0d5436a7-ea15-4265-aeba-3a9fe76321e1","ios":"levelo://app?vid=0d5436a7-ea15-4265-aeba-3a9fe76321e1"},"vehicle_type_id":"4","last_reported":1739257757,"current_range_meters":25200,"station_id":"ce4bhnp2rcd13ifvqh0g","pricing_plan_id":"cebpf4jnsgd1na2vs0mg"},{"bike_id":"ddaf09b0-2c3b-4688-b484-14cdfe4165fc","system_id":"levelo_inurba_marseille","lat":43.28701,"lon":5.37426,"is_reserved":false,"is_disabled":false,"rental_uris":{"android":"levelo://app?vid=ddaf09b0-2c3b-4688-b484-14cdfe4165fc","ios":"levelo://app?vid=ddaf09b0-2c3b-4688-b484-14cdfe4165fc"},"vehicle_type_id":"4","last_reported":1739257757,"current_range_meters":20800,"station_id":"ce4bh3p2rcd13ifvqdq0","pricing_plan_id":"cebpf4jnsgd1na2vs0mg"},{"bike_id":"04d4b8ab-1d4d-44ab-9d49-e10f569c0553","system_id":"levelo_inurba_marseille","lat":43.298483,"lon":5.362594,"is_reserved":false,"is_disabled":false,"rental_uris":{"android":"levelo://app?vid=04d4b8ab-1d4d-44ab-9d49-e10f569c0553","ios":"levelo://app?vid=04d4b8ab-1d4d-44ab-9d49-e10f569c0553"},"vehicle_type_id":"4","last_reported":1739257757,"current_range_meters":9200,"station_id":"ce4bgpp2rcd13ifvqc3g","pricing_plan_id":"cebpf4jnsgd1na2vs0mg"},{"bike_id":"a97f3a8d-e1f7-4ede-af5a-b155aa57a80e","system_id":"levelo_inurba_marseille","lat":43.25583,"lon":5.38241,"is_reserved":false,"is_disabled":false,"rental_uris":{"android":"levelo://app?vid=a97f3a8d-e1f7-4ede-af5a-b155aa57a80e","ios":"levelo://app?vid=a97f3a8d-e1f7-4ede-af5a-b155aa57a80e"},"vehicle_type_id":"4","last_reported":1739257757,"current_range_meters":16000,"station_id":"ce4bhih2rcd13ifvqfs0","pricing_plan_id":"cebpf4jnsgd1na2vs0mg"},{"bike_id":"c65ef58b-ac53-4e82-8688-b6b2c1dcabea","system_id":"levelo_inurba_marseille","lat":43.26302,"lon":5.41179,"is_reserved":false,"is_disabled":false,"rental_uris":{"android":"levelo://app?vid=c65ef58b-ac53-4e82-8688-b6b2c1dcabea","ios":"levelo://app?vid=c65ef58b-ac53-4e82-8688-b6b2c1dcabea"},"vehicle_type_id":"4","last_reported":1739257757,"current_range_meters":38000,"station_id":"","pricing_plan_id":"cebpf4jnsgd1na2vs0mg"},{"bike_id":"07baf43e-fc57-48a3-beea-0bd26e095e21","system_id":"levelo_inurba_marseille","lat":43.291964,"lon":5.39318,"is_reserved":false,"is_disabled":false,"rental_uris":{"android":"levelo://app?vid=07baf43e-fc57-48a3-beea-0bd26e095e21","ios":"levelo://app?vid=07baf43e-fc57-48a3-beea-0bd26e095e21"},"vehicle_type_id":"4","last_reported":1739257757,"current_range_meters":23200,"station_id":"ce4bh192rcd13ifvqdd0","pricing_plan_id":"cebpf4jnsgd1na2vs0mg"},{"bike_id":"56d32f7e-a805-4b07-82eb-2b25d137f6df","system_id":"levelo_inurba_marseille","lat":43.32041,"lon":5.41549,"is_reserved":false,"is_disabled":false,"rental_uris":{"android":"levelo://app?vid=56d32f7e-a805-4b07-82eb-2b25d137f6df","ios":"levelo://app?vid=56d32f7e-a805-4b07-82eb-2b25d137f6df"},"vehicle_type_id":"4","last_reported":1739257757,"current_range_meters":36400,"station_id":"ce4bhq92rcd13ifvqhkg","pricing_plan_id":"cebpf4jnsgd1na2vs0mg"},{"bike_id":"c4813b27-4250-43ea-8be5-ccd7321d2af3","system_id":"levelo_inurba_marseille","lat":43.282216,"lon":5.36981,"is_reserved":false,"is_disabled":false,"rental_uris":{"android":"levelo://app?vid=c4813b27-4250-43ea-8be5-ccd7321d2af3","ios":"levelo://app?vid=c4813b27-4250-43ea-8be5-ccd7321d2af3"},"vehicle_type_id":"4","last_reported":1739257757,"current_range_meters":23200,"station_id":"","pricing_plan_id":"cebpf4jnsgd1na2vs0mg"},{"bike_id":"93bc07c8-c5e8-4508-b353-1c2773c131f8","system_id":"levelo_inurba_marseille","lat":43.33603,"lon":5.410256,"is_reserved":false,"is_disabled":false,"rental_uris":{"android":"levelo://app?vid=93bc07c8-c5e8-4508-b353-1c2773c131f8","ios":"levelo://app?vid=93bc07c8-c5e8-4508-b353-1c2773c131f8"},"vehicle_type_id":"4","last_reported":1739257757,"current_range_meters":39200,"station_id":"ce4bhqh2rcd13ifvqhmg","pricing_plan_id":"cebpf4jnsgd1na2vs0mg"},{"bike_id":"940f72ea-b886-4d0d-8faa-8d56b410e483","system_id":"levelo_inurba_marseille","lat":43.33774,"lon":5.37444,"is_reserved":false,"is_disabled":false,"rental_uris":{"android":"levelo://app?vid=940f72ea-b886-4d0d-8faa-8d56b410e483","ios":"levelo://app?vid=940f72ea-b886-4d0d-8faa-8d56b410e483"},"vehicle_type_id":"4","last_reported":1739257757,"current_range_meters":16800,"station_id":"","pricing_plan_id":"cebpf4jnsgd1na2vs0mg"},{"bike_id":"e37c9fdc-db44-44ae-b88a-8beacc270b7e","system_id":"levelo_inurba_marseille","lat":43.27945,"lon":5.41054,"is_reserved":false,"is_disabled":false,"rental_uris":{"android":"levelo://app?vid=e37c9fdc-db44-44ae-b88a-8beacc270b7e","ios":"levelo://app?vid=e37c9fdc-db44-44ae-b88a-8beacc270b7e"},"vehicle_type_id":"4","last_reported":1739257757,"current_range_meters":24800,"station_id":"ce4bhnp2rcd13ifvqh0g","pricing_plan_id":"cebpf4jnsgd1na2vs0mg"},{"bike_id":"30040434-0ce6-4639-9cfb-4b7e126d7c60","system_id":"levelo_inurba_marseille","lat":43.27498,"lon":5.42444,"is_reserved":false,"is_disabled":false,"rental_uris":{"android":"levelo://app?vid=30040434-0ce6-4639-9cfb-4b7e126d7c60","ios":"levelo://app?vid=30040434-0ce6-4639-9cfb-4b7e126d7c60"},"vehicle_type_id":"4","last_reported":1739257757,"current_range_meters":38000,"station_id":"ce4bhn92rcd13ifvqgrg","pricing_plan_id":"cebpf4jnsgd1na2vs0mg"},{"bike_id":"3a56c958-f518-44fc-b510-56471ff528e1","system_id":"levelo_inurba_marseille","lat":43.305987,"lon":5.372164,"is_reserved":false,"is_disabled":true,"rental_uris":{"android":"levelo://app?vid=3a56c958-f518-44fc-b510-56471ff528e1","ios":"levelo://app?vid=3a56c958-f518-44fc-b510-56471ff528e1"},"vehicle_type_id":"4","last_reported":1739257757,"current_range_meters":24400,"station_id":"ce4bgqh2rcd13ifvqc4g","pricing_plan_id":"cebpf4jnsgd1na2vs0mg"},{"bike_id":"addd07a1-34d8-46c5-813c-e5860355448f","system_id":"levelo_inurba_marseille","lat":43.28398,"lon":5.37514,"is_reserved":false,"is_disabled":false,"rental_uris":{"android":"levelo://app?vid=addd07a1-34d8-46c5-813c-e5860355448f","ios":"levelo://app?vid=addd07a1-34d8-46c5-813c-e5860355448f"},"vehicle_type_id":"4","last_reported":1739257757,"current_range_meters":28000,"station_id":"ce4bho92rcd13ifvqh3g","pricing_plan_id":"cebpf4jnsgd1na2vs0mg"},{"bike_id":"868bab58-7fb6-4926-8070-cd9a4296d6f1","system_id":"levelo_inurba_marseille","lat":43.28351,"lon":5.38101,"is_reserved":false,"is_disabled":false,"rental_uris":{"android":"levelo://app?vid=868bab58-7fb6-4926-8070-cd9a4296d6f1","ios":"levelo://app?vid=868bab58-7fb6-4926-8070-cd9a4296d6f1"},"vehicle_type_id":"4","last_reported":1739257757,"current_range_meters":38000,"station_id":"ce4bh412rcd13ifvqdr0","pricing_plan_id":"cebpf4jnsgd1na2vs0mg"},{"bike_id":"ce4a7ce0-e12e-4e73-b43d-a872476e1c85","system_id":"levelo_inurba_marseille","lat":43.30929,"lon":5.40148,"is_reserved":false,"is_disabled":false,"rental_uris":{"android":"levelo://app?vid=ce4a7ce0-e12e-4e73-b43d-a872476e1c85","ios":"levelo://app?vid=ce4a7ce0-e12e-4e73-b43d-a872476e1c85"},"vehicle_type_id":"4","last_reported":1739257757,"current_range_meters":15200,"station_id":"ce4bgvp2rcd13ifvqct0","pricing_plan_id":"cebpf4jnsgd1na2vs0mg"},{"bike_id":"3d63c9f7-67e2-4d36-9f8f-a132980161de","system_id":"levelo_inurba_marseille","lat":43.29044,"lon":5.39981,"is_reserved":false,"is_disabled":false,"rental_uris":{"android":"levelo://app?vid=3d63c9f7-67e2-4d36-9f8f-a132980161de","ios":"levelo://app?vid=3d63c9f7-67e2-4d36-9f8f-a132980161de"},"vehicle_type_id":"4","last_reported":1739257757,"current_range_meters":36400,"station_id":"ce4bh392rcd13ifvqdm0","pricing_plan_id":"cebpf4jnsgd1na2vs0mg"},{"bike_id":"6e000fc7-2c34-419c-ae07-0bb295f75ad0","system_id":"levelo_inurba_marseille","lat":43.234203,"lon":5.360927,"is_reserved":false,"is_disabled":false,"rental_uris":{"android":"levelo://app?vid=6e000fc7-2c34-419c-ae07-0bb295f75ad0","ios":"levelo://app?vid=6e000fc7-2c34-419c-ae07-0bb295f75ad0"},"vehicle_type_id":"4","last_reported":1739257757,"current_range_meters":6800,"station_id":"","pricing_plan_id":"cebpf4jnsgd1na2vs0mg"},{"bike_id":"841e0f04-b00a-44de-83b7-b9b92c40d93b","system_id":"levelo_inurba_marseille","lat":43.2817,"lon":5.42687,"is_reserved":false,"is_disabled":false,"rental_uris":{"android":"levelo://app?vid=841e0f04-b00a-44de-83b7-b9b92c40d93b","ios":"levelo://app?vid=841e0f04-b00a-44de-83b7-b9b92c40d93b"},"vehicle_type_id":"4","last_reported":1739257757,"current_range_meters":15200,"station_id":"ce4bhnh2rcd13ifvqgug","pricing_plan_id":"cebpf4jnsgd1na2vs0mg"},{"bike_id":"4740ba17-16bf-4c07-b1cb-0cf663b53a6e","system_id":"levelo_inurba_marseille","lat":43.311178,"lon":5.377651,"is_reserved":false,"is_disabled":false,"rental_uris":{"android":"levelo://app?vid=4740ba17-16bf-4c07-b1cb-0cf663b53a6e","ios":"levelo://app?vid=4740ba17-16bf-4c07-b1cb-0cf663b53a6e"},"vehicle_type_id":"4","last_reported":1739257757,"current_range_meters":37600,"station_id":"ce4bgt92rcd13ifvqcg0","pricing_plan_id":"cebpf4jnsgd1na2vs0mg"},{"bike_id":"88379eaf-5a6d-4117-a07a-21ee5231369a","system_id":"levelo_inurba_marseille","lat":43.31536,"lon":5.38031,"is_reserved":false,"is_disabled":false,"rental_uris":{"android":"levelo://app?vid=88379eaf-5a6d-4117-a07a-21ee5231369a","ios":"levelo://app?vid=88379eaf-5a6d-4117-a07a-21ee5231369a"},"vehicle_type_id":"4","last_reported":1739257757,"current_range_meters":38800,"station_id":"ce4bhsp2rcd13ifvqi50","pricing_plan_id":"cebpf4jnsgd1na2vs0mg"},{"bike_id":"1672a38a-2ede-4dd0-8d62-1b7a73ddefab","system_id":"levelo_inurba_marseille","lat":43.33595,"lon":5.41012,"is_reserved":false,"is_disabled":false,"rental_uris":{"android":"levelo://app?vid=1672a38a-2ede-4dd0-8d62-1b7a73ddefab","ios":"levelo://app?vid=1672a38a-2ede-4dd0-8d62-1b7a73ddefab"},"vehicle_type_id":"4","last_reported":1739257757,"current_range_meters":6400,"station_id":"ce4bhqh2rcd13ifvqhmg","pricing_plan_id":"cebpf4jnsgd1na2vs0mg"},{"bike_id":"bdbd6823-0ae0-46d9-9175-525bc482bf74","system_id":"levelo_inurba_marseille","lat":43.290233,"lon":5.381307,"is_reserved":false,"is_disabled":false,"rental_uris":{"android":"levelo://app?vid=bdbd6823-0ae0-46d9-9175-525bc482bf74","ios":"levelo://app?vid=bdbd6823-0ae0-46d9-9175-525bc482bf74"},"vehicle_type_id":"4","last_reported":1739257757,"current_range_meters":26000,"station_id":"ce4bh4p2rcd13ifvqe1g","pricing_plan_id":"cebpf4jnsgd1na2vs0mg"},{"bike_id":"f4e0845f-a8c8-479f-b059-554872ccc56d","system_id":"levelo_inurba_marseille","lat":43.2972,"lon":5.37702,"is_reserved":false,"is_disabled":false,"rental_uris":{"android":"levelo://app?vid=f4e0845f-a8c8-479f-b059-554872ccc56d","ios":"levelo://app?vid=f4e0845f-a8c8-479f-b059-554872ccc56d"},"vehicle_type_id":"4","last_reported":1739257757,"current_range_meters":32000,"station_id":"ce4bgkh2rcd13ifvqbl0","pricing_plan_id":"cebpf4jnsgd1na2vs0mg"},{"bike_id":"b8cbd248-db62-4d84-b3a4-fd8e7e00f9d3","system_id":"levelo_inurba_marseille","lat":43.28032,"lon":5.36945,"is_reserved":false,"is_disabled":false,"rental_uris":{"android":"levelo://app?vid=b8cbd248-db62-4d84-b3a4-fd8e7e00f9d3","ios":"levelo://app?vid=b8cbd248-db62-4d84-b3a4-fd8e7e00f9d3"},"vehicle_type_id":"4","last_reported":1739257757,"current_range_meters":30400,"station_id":"ce4bha12rcd13ifvqef0","pricing_plan_id":"cebpf4jnsgd1na2vs0mg"},{"bike_id":"1ec14052-2d33-4aa1-9ab8-58cc71db74d1","system_id":"levelo_inurba_marseille","lat":43.241682,"lon":5.363971,"is_reserved":false,"is_disabled":false,"rental_uris":{"android":"levelo://app?vid=1ec14052-2d33-4aa1-9ab8-58cc71db74d1","ios":"levelo://app?vid=1ec14052-2d33-4aa1-9ab8-58cc71db74d1"},"vehicle_type_id":"4","last_reported":1739257757,"current_range_meters":16000,"station_id":"cpo36qri1sfpv3e86is0","pricing_plan_id":"cebpf4jnsgd1na2vs0mg"},{"bike_id":"6e99eac2-ce29-457d-b4dd-f5cd87e6b34c","system_id":"levelo_inurba_marseille","lat":43.28334,"lon":5.38109,"is_reserved":false,"is_disabled":false,"rental_uris":{"android":"levelo://app?vid=6e99eac2-ce29-457d-b4dd-f5cd87e6b34c","ios":"levelo://app?vid=6e99eac2-ce29-457d-b4dd-f5cd87e6b34c"},"vehicle_type_id":"4","last_reported":1739257757,"current_range_meters":38800,"station_id":"ce4bh412rcd13ifvqdr0","pricing_plan_id":"cebpf4jnsgd1na2vs0mg"},{"bike_id":"b3b45130-4456-4f49-a726-9923bcb61db7","system_id":"levelo_inurba_marseille","lat":43.26948,"lon":5.38642,"is_reserved":false,"is_disabled":false,"rental_uris":{"android":"levelo://app?vid=b3b45130-4456-4f49-a726-9923bcb61db7","ios":"levelo://app?vid=b3b45130-4456-4f49-a726-9923bcb61db7"},"vehicle_type_id":"4","last_reported":1739257757,"current_range_meters":25600,"station_id":"ce4bhh92rcd13ifvqfh0","pricing_plan_id":"cebpf4jnsgd1na2vs0mg"},{"bike_id":"a8eb7d54-da88-4020-a71f-24fa02f4c4b2","system_id":"levelo_inurba_marseille","lat":43.323425,"lon":5.406151,"is_reserved":false,"is_disabled":false,"rental_uris":{"android":"levelo://app?vid=a8eb7d54-da88-4020-a71f-24fa02f4c4b2","ios":"levelo://app?vid=a8eb7d54-da88-4020-a71f-24fa02f4c4b2"},"vehicle_type_id":"4","last_reported":1739257757,"current_range_meters":38000,"station_id":"ce4bhq92rcd13ifvqhjg","pricing_plan_id":"cebpf4jnsgd1na2vs0mg"},{"bike_id":"1fc2e01a-39db-473e-9340-05e46c2bfee3","system_id":"levelo_inurba_marseille","lat":43.285708,"lon":5.394952,"is_reserved":false,"is_disabled":false,"rental_uris":{"android":"levelo://app?vid=1fc2e01a-39db-473e-9340-05e46c2bfee3","ios":"levelo://app?vid=1fc2e01a-39db-473e-9340-05e46c2bfee3"},"vehicle_type_id":"4","last_reported":1739257757,"current_range_meters":38800,"station_id":"ce4bh292rcd13ifvqdg0","pricing_plan_id":"cebpf4jnsgd1na2vs0mg"},{"bike_id":"443e1ca2-af34-45b1-bcc4-ac5839a766d9","system_id":"levelo_inurba_marseille","lat":43.28939,"lon":5.39638,"is_reserved":false,"is_disabled":false,"rental_uris":{"android":"levelo://app?vid=443e1ca2-af34-45b1-bcc4-ac5839a766d9","ios":"levelo://app?vid=443e1ca2-af34-45b1-bcc4-ac5839a766d9"},"vehicle_type_id":"4","last_reported":1739257757,"current_range_meters":36800,"station_id":"ce4bh3h2rcd13ifvqdn0","pricing_plan_id":"cebpf4jnsgd1na2vs0mg"},{"bike_id":"79df8d93-a019-4f4d-ad9b-607d770a7910","system_id":"levelo_inurba_marseille","lat":43.29393,"lon":5.38895,"is_reserved":false,"is_disabled":false,"rental_uris":{"android":"levelo://app?vid=79df8d93-a019-4f4d-ad9b-607d770a7910","ios":"levelo://app?vid=79df8d93-a019-4f4d-ad9b-607d770a7910"},"vehicle_type_id":"4","last_reported":1739257757,"current_range_meters":27600,"station_id":"","pricing_plan_id":"cebpf4jnsgd1na2vs0mg"},{"bike_id":"fbb98623-bd6f-4427-9463-8f7fc3b3bd20","system_id":"levelo_inurba_marseille","lat":43.28038,"lon":5.36941,"is_reserved":false,"is_disabled":false,"rental_uris":{"android":"levelo://app?vid=fbb98623-bd6f-4427-9463-8f7fc3b3bd20","ios":"levelo://app?vid=fbb98623-bd6f-4427-9463-8f7fc3b3bd20"},"vehicle_type_id":"4","last_reported":1739257757,"current_range_meters":29600,"station_id":"ce4bha12rcd13ifvqef0","pricing_plan_id":"cebpf4jnsgd1na2vs0mg"},{"bike_id":"d37a56cf-7136-4e6e-a35d-b588d1bd39ab","system_id":"levelo_inurba_marseille","lat":43.315404,"lon":5.380239,"is_reserved":false,"is_disabled":false,"rental_uris":{"android":"levelo://app?vid=d37a56cf-7136-4e6e-a35d-b588d1bd39ab","ios":"levelo://app?vid=d37a56cf-7136-4e6e-a35d-b588d1bd39ab"},"vehicle_type_id":"4","last_reported":1739257757,"current_range_meters":30000,"station_id":"ce4bhsp2rcd13ifvqi50","pricing_plan_id":"cebpf4jnsgd1na2vs0mg"},{"bike_id":"1f4035c9-8a5c-4fac-87cb-146b8f52eaaa","system_id":"levelo_inurba_marseille","lat":43.284342,"lon":5.39181,"is_reserved":false,"is_disabled":false,"rental_uris":{"android":"levelo://app?vid=1f4035c9-8a5c-4fac-87cb-146b8f52eaaa","ios":"levelo://app?vid=1f4035c9-8a5c-4fac-87cb-146b8f52eaaa"},"vehicle_type_id":"4","last_reported":1739257757,"current_range_meters":30800,"station_id":"ce4bhoh2rcd13ifvqh5g","pricing_plan_id":"cebpf4jnsgd1na2vs0mg"},{"bike_id":"e481c26a-2dc7-4c52-b371-4a0c4f3c10d0","system_id":"levelo_inurba_marseille","lat":43.31116,"lon":5.37779,"is_reserved":false,"is_disabled":true,"rental_uris":{"android":"levelo://app?vid=e481c26a-2dc7-4c52-b371-4a0c4f3c10d0","ios":"levelo://app?vid=e481c26a-2dc7-4c52-b371-4a0c4f3c10d0"},"vehicle_type_id":"4","last_reported":1739257757,"current_range_meters":10000,"station_id":"ce4bgt92rcd13ifvqcg0","pricing_plan_id":"cebpf4jnsgd1na2vs0mg"},{"bike_id":"5d5b9d52-4005-4b8d-8e03-12940e9796d0","system_id":"levelo_inurba_marseille","lat":43.24062,"lon":5.37758,"is_reserved":false,"is_disabled":true,"rental_uris":{"android":"levelo://app?vid=5d5b9d52-4005-4b8d-8e03-12940e9796d0","ios":"levelo://app?vid=5d5b9d52-4005-4b8d-8e03-12940e9796d0"},"vehicle_type_id":"4","last_reported":1739257757,"current_range_meters":16800,"station_id":"ce4bhnp2rcd13ifvqgvg","pricing_plan_id":"cebpf4jnsgd1na2vs0mg"},{"bike_id":"e74edd37-0ec7-4f56-b77f-e7249fd01314","system_id":"levelo_inurba_marseille","lat":43.3055,"lon":5.36534,"is_reserved":false,"is_disabled":true,"rental_uris":{"android":"levelo://app?vid=e74edd37-0ec7-4f56-b77f-e7249fd01314","ios":"levelo://app?vid=e74edd37-0ec7-4f56-b77f-e7249fd01314"},"vehicle_type_id":"4","last_reported":1739257757,"current_range_meters":14400,"station_id":"ce4bgs12rcd13ifvqcag","pricing_plan_id":"cebpf4jnsgd1na2vs0mg"},{"bike_id":"d65a14c4-ecf3-4048-b05f-9a757ce2f182","system_id":"levelo_inurba_marseille","lat":43.24677,"lon":5.38198,"is_reserved":false,"is_disabled":false,"rental_uris":{"android":"levelo://app?vid=d65a14c4-ecf3-4048-b05f-9a757ce2f182","ios":"levelo://app?vid=d65a14c4-ecf3-4048-b05f-9a757ce2f182"},"vehicle_type_id":"4","last_reported":1739257757,"current_range_meters":37600,"station_id":"ce4bhih2rcd13ifvqfr0","pricing_plan_id":"cebpf4jnsgd1na2vs0mg"},{"bike_id":"cf68207e-2485-4989-bee6-844731614980","system_id":"levelo_inurba_marseille","lat":43.28525,"lon":5.38506,"is_reserved":false,"is_disabled":false,"rental_uris":{"android":"levelo://app?vid=cf68207e-2485-4989-bee6-844731614980","ios":"levelo://app?vid=cf68207e-2485-4989-bee6-844731614980"},"vehicle_type_id":"4","last_reported":1739257757,"current_range_meters":35600,"station_id":"ce4bh8p2rcd13ifvqeb0","pricing_plan_id":"cebpf4jnsgd1na2vs0mg"},{"bike_id":"ca63d75f-d551-49cb-bec7-e060cadddd73","system_id":"levelo_inurba_marseille","lat":43.281,"lon":5.44176,"is_reserved":false,"is_disabled":false,"rental_uris":{"android":"levelo://app?vid=ca63d75f-d551-49cb-bec7-e060cadddd73","ios":"levelo://app?vid=ca63d75f-d551-49cb-bec7-e060cadddd73"},"vehicle_type_id":"4","last_reported":1739257757,"current_range_meters":16000,"station_id":"","pricing_plan_id":"cebpf4jnsgd1na2vs0mg"},{"bike_id":"6f905171-ccae-4083-a3c3-568ea9e819a0","system_id":"levelo_inurba_marseille","lat":43.30487,"lon":5.37887,"is_reserved":false,"is_disabled":false,"rental_uris":{"android":"levelo://app?vid=6f905171-ccae-4083-a3c3-568ea9e819a0","ios":"levelo://app?vid=6f905171-ccae-4083-a3c3-568ea9e819a0"},"vehicle_type_id":"4","last_reported":1739257757,"current_range_meters":30800,"station_id":"ce4bgup2rcd13ifvqcn0","pricing_plan_id":"cebpf4jnsgd1na2vs0mg"},{"bike_id":"f5192e58-2178-4d17-a82e-b63f16cde088","system_id":"levelo_inurba_marseille","lat":43.30308,"lon":5.36892,"is_reserved":false,"is_disabled":false,"rental_uris":{"android":"levelo://app?vid=f5192e58-2178-4d17-a82e-b63f16cde088","ios":"levelo://app?vid=f5192e58-2178-4d17-a82e-b63f16cde088"},"vehicle_type_id":"4","last_reported":1739257757,"current_range_meters":27200,"station_id":"ce4bgqh2rcd13ifvqc5g","pricing_plan_id":"cebpf4jnsgd1na2vs0mg"},{"bike_id":"e7e82525-0af3-42b9-9242-aabf5a8fb1ce","system_id":"levelo_inurba_marseille","lat":43.29888,"lon":5.39761,"is_reserved":false,"is_disabled":false,"rental_uris":{"android":"levelo://app?vid=e7e82525-0af3-42b9-9242-aabf5a8fb1ce","ios":"levelo://app?vid=e7e82525-0af3-42b9-9242-aabf5a8fb1ce"},"vehicle_type_id":"4","last_reported":1739257757,"current_range_meters":20400,"station_id":"ce4bh0h2rcd13ifvqd50","pricing_plan_id":"cebpf4jnsgd1na2vs0mg"},{"bike_id":"5baf39dd-07ca-4c36-b84d-55d91f868a26","system_id":"levelo_inurba_marseille","lat":43.295676,"lon":5.382458,"is_reserved":false,"is_disabled":true,"rental_uris":{"android":"levelo://app?vid=5baf39dd-07ca-4c36-b84d-55d91f868a26","ios":"levelo://app?vid=5baf39dd-07ca-4c36-b84d-55d91f868a26"},"vehicle_type_id":"4","last_reported":1739257757,"current_range_meters":33600,"station_id":"","pricing_plan_id":"cebpf4jnsgd1na2vs0mg"},{"bike_id":"c7cf034c-3bf6-4875-8401-dd6b25853f9e","system_id":"levelo_inurba_marseille","lat":43.28497,"lon":5.38345,"is_reserved":false,"is_disabled":false,"rental_uris":{"android":"levelo://app?vid=c7cf034c-3bf6-4875-8401-dd6b25853f9e","ios":"levelo://app?vid=c7cf034c-3bf6-4875-8401-dd6b25853f9e"},"vehicle_type_id":"4","last_reported":1739257757,"current_range_meters":38000,"station_id":"ce4bh512rcd13ifvqe3g","pricing_plan_id":"cebpf4jnsgd1na2vs0mg"},{"bike_id":"e5491c41-467c-40d9-b58c-33959b38346b","system_id":"levelo_inurba_marseille","lat":43.287304,"lon":5.360816,"is_reserved":false,"is_disabled":false,"rental_uris":{"android":"levelo://app?vid=e5491c41-467c-40d9-b58c-33959b38346b","ios":"levelo://app?vid=e5491c41-467c-40d9-b58c-33959b38346b"},"vehicle_type_id":"4","last_reported":1739257757,"current_range_meters":12000,"station_id":"cki0cbj6b192h4jlfktg","pricing_plan_id":"cebpf4jnsgd1na2vs0mg"},{"bike_id":"9b8abd08-e44c-4856-b389-4f5ff2f6b096","system_id":"levelo_inurba_marseille","lat":43.29197,"lon":5.37538,"is_reserved":false,"is_disabled":false,"rental_uris":{"android":"levelo://app?vid=9b8abd08-e44c-4856-b389-4f5ff2f6b096","ios":"levelo://app?vid=9b8abd08-e44c-4856-b389-4f5ff2f6b096"},"vehicle_type_id":"4","last_reported":1739257757,"current_range_meters":12400,"station_id":"","pricing_plan_id":"cebpf4jnsgd1na2vs0mg"},{"bike_id":"f2a19d6d-1c3c-4ae5-a155-e51d34c1aabd","system_id":"levelo_inurba_marseille","lat":43.28565,"lon":5.39494,"is_reserved":false,"is_disabled":false,"rental_uris":{"android":"levelo://app?vid=f2a19d6d-1c3c-4ae5-a155-e51d34c1aabd","ios":"levelo://app?vid=f2a19d6d-1c3c-4ae5-a155-e51d34c1aabd"},"vehicle_type_id":"4","last_reported":1739257757,"current_range_meters":39200,"station_id":"ce4bh292rcd13ifvqdg0","pricing_plan_id":"cebpf4jnsgd1na2vs0mg"},{"bike_id":"118acaa8-c377-4759-a8f9-c3303973ef34","system_id":"levelo_inurba_marseille","lat":43.29872,"lon":5.38893,"is_reserved":false,"is_disabled":false,"rental_uris":{"android":"levelo://app?vid=118acaa8-c377-4759-a8f9-c3303973ef34","ios":"levelo://app?vid=118acaa8-c377-4759-a8f9-c3303973ef34"},"vehicle_type_id":"4","last_reported":1739257757,"current_range_meters":26000,"station_id":"ce4bh392rcd13ifvqdl0","pricing_plan_id":"cebpf4jnsgd1na2vs0mg"},{"bike_id":"b5c7e723-5160-4d46-aadc-573ce8d75403","system_id":"levelo_inurba_marseille","lat":43.28078,"lon":5.39665,"is_reserved":false,"is_disabled":false,"rental_uris":{"android":"levelo://app?vid=b5c7e723-5160-4d46-aadc-573ce8d75403","ios":"levelo://app?vid=b5c7e723-5160-4d46-aadc-573ce8d75403"},"vehicle_type_id":"4","last_reported":1739257757,"current_range_meters":35200,"station_id":"ce4bho12rcd13ifvqh2g","pricing_plan_id":"cebpf4jnsgd1na2vs0mg"},{"bike_id":"009c85e4-baec-4633-b1b4-45e9257f05c1","system_id":"levelo_inurba_marseille","lat":43.2834,"lon":5.38104,"is_reserved":false,"is_disabled":false,"rental_uris":{"android":"levelo://app?vid=009c85e4-baec-4633-b1b4-45e9257f05c1","ios":"levelo://app?vid=009c85e4-baec-4633-b1b4-45e9257f05c1"},"vehicle_type_id":"4","last_reported":1739257757,"current_range_meters":35200,"station_id":"ce4bh412rcd13ifvqdr0","pricing_plan_id":"cebpf4jnsgd1na2vs0mg"},{"bike_id":"71729715-a0e6-4615-ae37-074e053a04bc","system_id":"levelo_inurba_marseille","lat":43.24168,"lon":5.39737,"is_reserved":false,"is_disabled":false,"rental_uris":{"android":"levelo://app?vid=71729715-a0e6-4615-ae37-074e053a04bc","ios":"levelo://app?vid=71729715-a0e6-4615-ae37-074e053a04bc"},"vehicle_type_id":"4","last_reported":1739257757,"current_range_meters":28400,"station_id":"ce4bhn12rcd13ifvqgpg","pricing_plan_id":"cebpf4jnsgd1na2vs0mg"},{"bike_id":"489ac8a5-aa2e-478a-b57e-8f3df1d6a265","system_id":"levelo_inurba_marseille","lat":43.31886,"lon":5.40747,"is_reserved":false,"is_disabled":false,"rental_uris":{"android":"levelo://app?vid=489ac8a5-aa2e-478a-b57e-8f3df1d6a265","ios":"levelo://app?vid=489ac8a5-aa2e-478a-b57e-8f3df1d6a265"},"vehicle_type_id":"4","last_reported":1739257757,"current_range_meters":24000,"station_id":"ce4bhq12rcd13ifvqhig","pricing_plan_id":"cebpf4jnsgd1na2vs0mg"},{"bike_id":"bb2c3666-e655-4322-865e-a1fcfe1f8a0c","system_id":"levelo_inurba_marseille","lat":43.30151,"lon":5.38085,"is_reserved":false,"is_disabled":false,"rental_uris":{"android":"levelo://app?vid=bb2c3666-e655-4322-865e-a1fcfe1f8a0c","ios":"levelo://app?vid=bb2c3666-e655-4322-865e-a1fcfe1f8a0c"},"vehicle_type_id":"4","last_reported":1739257757,"current_range_meters":29600,"station_id":"ce4bgjp2rcd13ifvqbh0","pricing_plan_id":"cebpf4jnsgd1na2vs0mg"},{"bike_id":"54ce597b-1ca1-4d62-923d-d4b29eec04b3","system_id":"levelo_inurba_marseille","lat":43.31131,"lon":5.38261,"is_reserved":false,"is_disabled":false,"rental_uris":{"android":"levelo://app?vid=54ce597b-1ca1-4d62-923d-d4b29eec04b3","ios":"levelo://app?vid=54ce597b-1ca1-4d62-923d-d4b29eec04b3"},"vehicle_type_id":"4","last_reported":1739257757,"current_range_meters":22000,"station_id":"","pricing_plan_id":"cebpf4jnsgd1na2vs0mg"},{"bike_id":"b4765ae2-b7fb-4718-bf68-ce7ba2c817f9","system_id":"levelo_inurba_marseille","lat":43.27077,"lon":5.42301,"is_reserved":false,"is_disabled":false,"rental_uris":{"android":"levelo://app?vid=b4765ae2-b7fb-4718-bf68-ce7ba2c817f9","ios":"levelo://app?vid=b4765ae2-b7fb-4718-bf68-ce7ba2c817f9"},"vehicle_type_id":"4","last_reported":1739257757,"current_range_meters":24800,"station_id":"ce4bhk92rcd13ifvqgb0","pricing_plan_id":"cebpf4jnsgd1na2vs0mg"},{"bike_id":"ace7c7c4-55ef-471c-935e-108dd26488b5","system_id":"levelo_inurba_marseille","lat":43.24555,"lon":5.39537,"is_reserved":false,"is_disabled":false,"rental_uris":{"android":"levelo://app?vid=ace7c7c4-55ef-471c-935e-108dd26488b5","ios":"levelo://app?vid=ace7c7c4-55ef-471c-935e-108dd26488b5"},"vehicle_type_id":"4","last_reported":1739257757,"current_range_meters":32000,"station_id":"ce4bhlp2rcd13ifvqgjg","pricing_plan_id":"cebpf4jnsgd1na2vs0mg"},{"bike_id":"28d378e6-36c4-4b00-a3bf-d0ec65a75739","system_id":"levelo_inurba_marseille","lat":43.28275,"lon":5.350721,"is_reserved":false,"is_disabled":false,"rental_uris":{"android":"levelo://app?vid=28d378e6-36c4-4b00-a3bf-d0ec65a75739","ios":"levelo://app?vid=28d378e6-36c4-4b00-a3bf-d0ec65a75739"},"vehicle_type_id":"4","last_reported":1739257757,"current_range_meters":16400,"station_id":"ce4bhbp2rcd13ifvqerg","pricing_plan_id":"cebpf4jnsgd1na2vs0mg"},{"bike_id":"9b44a597-055c-44b5-aa07-867f6b5bf564","system_id":"levelo_inurba_marseille","lat":43.26562,"lon":5.3901,"is_reserved":false,"is_disabled":false,"rental_uris":{"android":"levelo://app?vid=9b44a597-055c-44b5-aa07-867f6b5bf564","ios":"levelo://app?vid=9b44a597-055c-44b5-aa07-867f6b5bf564"},"vehicle_type_id":"4","last_reported":1739257757,"current_range_meters":6400,"station_id":"ce4bhe12rcd13ifvqf30","pricing_plan_id":"cebpf4jnsgd1na2vs0mg"},{"bike_id":"4a6a1800-2f28-4b12-b753-98cde892230c","system_id":"levelo_inurba_marseille","lat":43.3302,"lon":5.39067,"is_reserved":false,"is_disabled":false,"rental_uris":{"android":"levelo://app?vid=4a6a1800-2f28-4b12-b753-98cde892230c","ios":"levelo://app?vid=4a6a1800-2f28-4b12-b753-98cde892230c"},