{"last_updated":1700453366,"ttl":30,"version":"2.2","data":{"bikes":[{"bike_id":"66d006e6-4bfc-429c-9763-1ea3e4a4c668","system_id":"levelo_inurba_marseille","lat":43.313391,"lon":5.36706,"is_reserved":false,"is_disabled":false,"rental_uris":{"android":"levelo://app?vid=66d006e6-4bfc-429c-9763-1ea3e4a4c668","ios":"levelo://app?vid=66d006e6-4bfc-429c-9763-1ea3e4a4c668"},"vehicle_type_id":"4","last_reported":1700453366,"current_range_meters":20000,"station_id":"ce4bgr92rcd13ifvqc6g","pricing_plan_id":"free"},{"bike_id":"f66c7616-31f0-4b14-9cf5-dbeaf7180d0e","system_id":"levelo_inurba_marseille","lat":43.313391,"lon":5.36706,"is_reserved":false,"is_disabled":false,"rental_uris":{"android":"levelo://app?vid=f66c7616-31f0-4b14-9cf5-dbeaf7180d0e","ios":"levelo://app?vid=f66c7616-31f0-4b14-9cf5-dbeaf7180d0e"},"vehicle_type_id":"4","last_reported":1700453366,"current_range_meters":22800,"station_id":"ce4bgr92rcd13ifvqc6g","pricing_plan_id":"free"},{"bike_id":"f874da3e-b17e-47f0-a499-90fd16b42a65","system_id":"levelo_inurba_marseille","lat":43.31159,"lon":5.36888,"is_reserved":false,"is_disabled":false,"rental_uris":{"android":"levelo://app?vid=f874da3e-b17e-47f0-a499-90fd16b42a65","ios":"levelo://app?vid=f874da3e-b17e-47f0-a499-90fd16b42a65"},"vehicle_type_id":"4","last_reported":1700453366,"current_range_meters":0,"station_id":"","pricing_plan_id":"free"},{"bike_id":"aa9dafa9-7021-4086-a1bf-33f74f2110ab","system_id":"levelo_inurba_marseille","lat":43.314811,"lon":5.373103,"is_reserved":false,"is_disabled":false,"rental_uris":{"android":"levelo://app?vid=aa9dafa9-7021-4086-a1bf-33f74f2110ab","ios":"levelo://app?vid=aa9dafa9-7021-4086-a1bf-33f74f2110ab"},"vehicle_type_id":"4","last_reported":1700453366,"current_range_meters":31200,"station_id":"ce4bgt12rcd13ifvqcd0","pricing_plan_id":"free"},{"bike_id":"3475d204-43b6-43d9-b615-ca1d0d58200e","system_id":"levelo_inurba_marseille","lat":43.30679,"lon":5.3679,"is_reserved":false,"is_disabled":false,"rental_uris":{"android":"levelo://app?vid=3475d204-43b6-43d9-b615-ca1d0d58200e","ios":"levelo://app?vid=3475d204-43b6-43d9-b615-ca1d0d58200e"},"vehicle_type_id":"4","last_reported":1700453366,"current_range_meters":8400,"station_id":"","pricing_plan_id":"free"},{"bike_id":"20e61284-66c8-4e3c-b9a9-4601a49f2e5d","system_id":"levelo_inurba_marseille","lat":43.305712,"lon":5.365641,"is_reserved":false,"is_disabled":false,"rental_uris":{"android":"levelo://app?vid=20e61284-66c8-4e3c-b9a9-4601a49f2e5d","ios":"levelo://app?vid=20e61284-66c8-4e3c-b9a9-4601a49f2e5d"},"vehicle_type_id":"4","last_reported":1700453366,"current_range_meters":30400,"station_id":"ce4bgs12rcd13ifvqcag","pricing_plan_id":"free"},{"bike_id":"34c2e47c-93fb-4085-a86b-02aed4c7542f","system_id":"levelo_inurba_marseille","lat":43.305489,"lon":5.367048,"is_reserved":false,"is_disabled":false,"rental_uris":{"android":"levelo://app?vid=34c2e47c-93fb-4085-a86b-02aed4c7542f","ios":"levelo://app?vid=34c2e47c-93fb-4085-a86b-02aed4c7542f"},"vehicle_type_id":"4","last_reported":1700453366,"current_range_meters":0,"station_id":"ce4bgrp2rcd13ifvqc9g","pricing_plan_id":"free"},{"bike_id":"82a742ba-fe05-48d0-8f1a-221ee866fef8","system_id":"levelo_inurba_marseille","lat":43.305714,"lon":5.365633,"is_reserved":false,"is_disabled":false,"rental_uris":{"android":"levelo://app?vid=82a742ba-fe05-48d0-8f1a-221ee866fef8","ios":"levelo://app?vid=82a742ba-fe05-48d0-8f1a-221ee866fef8"},"vehicle_type_id":"4","last_reported":1700453366,"current_range_meters":22800,"station_id":"ce4bgs12rcd13ifvqcag","pricing_plan_id":"free"},{"bike_id":"eb60b594-5121-4262-a9bb-930c6e7979c4","system_id":"levelo_inurba_marseille","lat":43.305706,"lon":5.365654,"is_reserved":false,"is_disabled":false,"rental_uris":{"android":"levelo://app?vid=eb60b594-5121-4262-a9bb-930c6e7979c4","ios":"levelo://app?vid=eb60b594-5121-4262-a9bb-930c6e7979c4"},"vehicle_type_id":"4","last_reported":1700453366,"current_range_meters":28800,"station_id":"ce4bgs12rcd13ifvqcag","pricing_plan_id":"free"},{"bike_id":"9bd3ad0a-ab1f-4368-a3b2-08cd4ec74456","system_id":"levelo_inurba_marseille","lat":43.305706,"lon":5.365654,"is_reserved":false,"is_disabled":false,"rental_uris":{"android":"levelo://app?vid=9bd3ad0a-ab1f-4368-a3b2-08cd4ec74456","ios":"levelo://app?vid=9bd3ad0a-ab1f-4368-a3b2-08cd4ec74456"},"vehicle_type_id":"4","last_reported":1700453366,"current_range_meters":31200,"station_id":"ce4bgs12rcd13ifvqcag","pricing_plan_id":"free"},{"bike_id":"405263ae-d107-4a37-a5b5-b0d4ee34e7cb","system_id":"levelo_inurba_marseille","lat":43.305706,"lon":5.365654,"is_reserved":false,"is_disabled":false,"rental_uris":{"android":"levelo://app?vid=405263ae-d107-4a37-a5b5-b0d4ee34e7cb","ios":"levelo://app?vid=405263ae-d107-4a37-a5b5-b0d4ee34e7cb"},"vehicle_type_id":"4","last_reported":1700453366,"current_range_meters":30400,"station_id":"ce4bgs12rcd13ifvqcag","pricing_plan_id":"free"},{"bike_id":"8d92306a-be43-4837-829d-9eb08437f384","system_id":"levelo_inurba_marseille","lat":43.311231,"lon":5.377623,"is_reserved":false,"is_disabled":false,"rental_uris":{"android":"levelo://app?vid=8d92306a-be43-4837-829d-9eb08437f384","ios":"levelo://app?vid=8d92306a-be43-4837-829d-9eb08437f384"},"vehicle_type_id":"4","last_reported":1700453366,"current_range_meters":18000,"station_id":"ce4bgt92rcd13ifvqcg0","pricing_plan_id":"free"},{"bike_id":"a72ac6fd-c5a9-4c10-8613-ff869de4f924","system_id":"levelo_inurba_marseille","lat":43.311131,"lon":5.377651,"is_reserved":false,"is_disabled":false,"rental_uris":{"android":"levelo://app?vid=a72ac6fd-c5a9-4c10-8613-ff869de4f924","ios":"levelo://app?vid=a72ac6fd-c5a9-4c10-8613-ff869de4f924"},"vehicle_type_id":"4","last_reported":1700453366,"current_range_meters":24000,"station_id":"ce4bgt92rcd13ifvqcg0","pricing_plan_id":"free"},{"bike_id":"d73e9e56-ade7-4608-81ad-1602eb86987a","system_id":"levelo_inurba_marseille","lat":43.311131,"lon":5.377651,"is_reserved":false,"is_disabled":false,"rental_uris":{"android":"levelo://app?vid=d73e9e56-ade7-4608-81ad-1602eb86987a","ios":"levelo://app?vid=d73e9e56-ade7-4608-81ad-1602eb86987a"},"vehicle_type_id":"4","last_reported":1700453366,"current_range_meters":31200,"station_id":"ce4bgt92rcd13ifvqcg0","pricing_plan_id":"free"},{"bike_id":"9309ee71-2e1a-4cfb-a93e-8bae5a928dc1","system_id":"levelo_inurba_marseille","lat":43.308187,"lon":5.376602,"is_reserved":false,"is_disabled":false,"rental_uris":{"android":"levelo://app?vid=9309ee71-2e1a-4cfb-a93e-8bae5a928dc1","ios":"levelo://app?vid=9309ee71-2e1a-4cfb-a93e-8bae5a928dc1"},"vehicle_type_id":"4","last_reported":1700453366,"current_range_meters":8400,"station_id":"ce4bgv92rcd13ifvqcq0","pricing_plan_id":"free"},{"bike_id":"4d7bcdf3-6b6f-41c7-bd44-141f928abeaf","system_id":"levelo_inurba_marseille","lat":43.30785,"lon":5.37653,"is_reserved":false,"is_disabled":false,"rental_uris":{"android":"levelo://app?vid=4d7bcdf3-6b6f-41c7-bd44-141f928abeaf","ios":"levelo://app?vid=4d7bcdf3-6b6f-41c7-bd44-141f928abeaf"},"vehicle_type_id":"4","last_reported":1700453366,"current_range_meters":30000,"station_id":"ce4bgv92rcd13ifvqcq0","pricing_plan_id":"free"},{"bike_id":"b3b15093-db1e-44e4-a503-2fc50f48484e","system_id":"levelo_inurba_marseille","lat":43.317075,"lon":5.377367,"is_reserved":false,"is_disabled":false,"rental_uris":{"android":"levelo://app?vid=b3b15093-db1e-44e4-a503-2fc50f48484e","ios":"levelo://app?vid=b3b15093-db1e-44e4-a503-2fc50f48484e"},"vehicle_type_id":"4","last_reported":1700453366,"current_range_meters":28400,"station_id":"ce4bgth2rcd13ifvqch0","pricing_plan_id":"free"},{"bike_id":"df755a02-7a8a-4a1f-8fab-69a8b08bd6d7","system_id":"levelo_inurba_marseille","lat":43.31536,"lon":5.38024,"is_reserved":false,"is_disabled":false,"rental_uris":{"android":"levelo://app?vid=df755a02-7a8a-4a1f-8fab-69a8b08bd6d7","ios":"levelo://app?vid=df755a02-7a8a-4a1f-8fab-69a8b08bd6d7"},"vehicle_type_id":"4","last_reported":1700453366,"current_range_meters":12400,"station_id":"ce4bhsp2rcd13ifvqi50","pricing_plan_id":"free"},{"bike_id":"5b915d7f-0f09-4cbb-a933-dbedf34f3dd8","system_id":"levelo_inurba_marseille","lat":43.301939,"lon":5.366286,"is_reserved":false,"is_disabled":false,"rental_uris":{"android":"levelo://app?vid=5b915d7f-0f09-4cbb-a933-dbedf34f3dd8","ios":"levelo://app?vid=5b915d7f-0f09-4cbb-a933-dbedf34f3dd8"},"vehicle_type_id":"4","last_reported":1700453366,"current_range_meters":31600,"station_id":"ce4bgrh2rcd13ifvqc8g","pricing_plan_id":"free"},{"bike_id":"4eeb4a3b-df94-42e4-b0fa-bc9e18b03de4","system_id":"levelo_inurba_marseille","lat":43.301939,"lon":5.366286,"is_reserved":false,"is_disabled":false,"rental_uris":{"android":"levelo://app?vid=4eeb4a3b-df94-42e4-b0fa-bc9e18b03de4","ios":"levelo://app?vid=4eeb4a3b-df94-42e4-b0fa-bc9e18b03de4"},"vehicle_type_id":"4","last_reported":1700453366,"current_range_meters":20400,"station_id":"ce4bgrh2rcd13ifvqc8g","pricing_plan_id":"free"},{"bike_id":"c82ae51a-5174-4819-982d-48d53ee39644","system_id":"levelo_inurba_marseille","lat":43.301939,"lon":5.366286,"is_reserved":false,"is_disabled":false,"rental_uris":{"android":"levelo://app?vid=c82ae51a-5174-4819-982d-48d53ee39644","ios":"levelo://app?vid=c82ae51a-5174-4819-982d-48d53ee39644"},"vehicle_type_id":"4","last_reported":1700453366,"current_range_meters":26000,"station_id":"ce4bgrh2rcd13ifvqc8g","pricing_plan_id":"free"},{"bike_id":"d9eafd86-28e7-4609-b093-79a61fa1af0b","system_id":"levelo_inurba_marseille","lat":43.304606,"lon":5.379026,"is_reserved":false,"is_disabled":false,"rental_uris":{"android":"levelo://app?vid=d9eafd86-28e7-4609-b093-79a61fa1af0b","ios":"levelo://app?vid=d9eafd86-28e7-4609-b093-79a61fa1af0b"},"vehicle_type_id":"4","last_reported":1700453366,"current_range_meters":21600,"station_id":"ce4bgup2rcd13ifvqcn0","pricing_plan_id":"free"},{"bike_id":"2f150f50-714d-4964-86f7-776aea829379","system_id":"levelo_inurba_marseille","lat":43.30456,"lon":5.37892,"is_reserved":false,"is_disabled":false,"rental_uris":{"android":"levelo://app?vid=2f150f50-714d-4964-86f7-776aea829379","ios":"levelo://app?vid=2f150f50-714d-4964-86f7-776aea829379"},"vehicle_type_id":"4","last_reported":1700453366,"current_range_meters":24400,"station_id":"ce4bgup2rcd13ifvqcn0","pricing_plan_id":"free"},{"bike_id":"5e457378-59e6-47ed-a640-a4e666fba5c6","system_id":"levelo_inurba_marseille","lat":43.304606,"lon":5.379026,"is_reserved":false,"is_disabled":false,"rental_uris":{"android":"levelo://app?vid=5e457378-59e6-47ed-a640-a4e666fba5c6","ios":"levelo://app?vid=5e457378-59e6-47ed-a640-a4e666fba5c6"},"vehicle_type_id":"4","last_reported":1700453366,"current_range_meters":21600,"station_id":"ce4bgup2rcd13ifvqcn0","pricing_plan_id":"free"},{"bike_id":"3a722b20-8d9a-4ed7-bed2-82edca53ad10","system_id":"levelo_inurba_marseille","lat":43.324736,"lon":5.365589,"is_reserved":false,"is_disabled":false,"rental_uris":{"android":"levelo://app?vid=3a722b20-8d9a-4ed7-bed2-82edca53ad10","ios":"levelo://app?vid=3a722b20-8d9a-4ed7-bed2-82edca53ad10"},"vehicle_type_id":"4","last_reported":1700453366,"current_range_meters":15200,"station_id":"ce4bhs12rcd13ifvqhvg","pricing_plan_id":"free"},{"bike_id":"38e7561f-341a-4b31-9fe8-9303ec26abd7","system_id":"levelo_inurba_marseille","lat":43.32003,"lon":5.38142,"is_reserved":false,"is_disabled":false,"rental_uris":{"android":"levelo://app?vid=38e7561f-341a-4b31-9fe8-9303ec26abd7","ios":"levelo://app?vid=38e7561f-341a-4b31-9fe8-9303ec26abd7"},"vehicle_type_id":"4","last_reported":1700453366,"current_range_meters":12400,"station_id":"ce4bhr12rcd13ifvqhpg","pricing_plan_id":"free"},{"bike_id":"b86bd29c-7dae-4d1a-900b-90742660a871","system_id":"levelo_inurba_marseille","lat":43.320021,"lon":5.381466,"is_reserved":false,"is_disabled":false,"rental_uris":{"android":"levelo://app?vid=b86bd29c-7dae-4d1a-900b-90742660a871","ios":"levelo://app?vid=b86bd29c-7dae-4d1a-900b-90742660a871"},"vehicle_type_id":"4","last_reported":1700453366,"current_range_meters":23200,"station_id":"ce4bhr12rcd13ifvqhpg","pricing_plan_id":"free"},{"bike_id":"f88f70f6-5dec-47e8-88d7-7536575375c3","system_id":"levelo_inurba_marseille","lat":43.320032,"lon":5.381478,"is_reserved":false,"is_disabled":false,"rental_uris":{"android":"levelo://app?vid=f88f70f6-5dec-47e8-88d7-7536575375c3","ios":"levelo://app?vid=f88f70f6-5dec-47e8-88d7-7536575375c3"},"vehicle_type_id":"4","last_reported":1700453366,"current_range_meters":22400,"station_id":"ce4bhr12rcd13ifvqhpg","pricing_plan_id":"free"},{"bike_id":"cb9aaf1e-c165-4477-b766-07ed6f860aa9","system_id":"levelo_inurba_marseille","lat":43.320044,"lon":5.381468,"is_reserved":false,"is_disabled":false,"rental_uris":{"android":"levelo://app?vid=cb9aaf1e-c165-4477-b766-07ed6f860aa9","ios":"levelo://app?vid=cb9aaf1e-c165-4477-b766-07ed6f860aa9"},"vehicle_type_id":"4","last_reported":1700453366,"current_range_meters":0,"station_id":"ce4bhr12rcd13ifvqhpg","pricing_plan_id":"free"},{"bike_id":"2942a5e4-485b-4424-afe9-46af23362d5d","system_id":"levelo_inurba_marseille","lat":43.305364,"lon":5.384119,"is_reserved":false,"is_disabled":false,"rental_uris":{"android":"levelo://app?vid=2942a5e4-485b-4424-afe9-46af23362d5d","ios":"levelo://app?vid=2942a5e4-485b-4424-afe9-46af23362d5d"},"vehicle_type_id":"4","last_reported":1700453366,"current_range_meters":30000,"station_id":"ce4bgg92rcd13ifvqb30","pricing_plan_id":"free"},{"bike_id":"e6e696fb-884b-4952-a8cf-387425dfe273","system_id":"levelo_inurba_marseille","lat":43.305364,"lon":5.384119,"is_reserved":false,"is_disabled":false,"rental_uris":{"android":"levelo://app?vid=e6e696fb-884b-4952-a8cf-387425dfe273","ios":"levelo://app?vid=e6e696fb-884b-4952-a8cf-387425dfe273"},"vehicle_type_id":"4","last_reported":1700453366,"current_range_meters":30000,"station_id":"ce4bgg92rcd13ifvqb30","pricing_plan_id":"free"},{"bike_id":"dccbea69-b130-4def-b158-a2aef73f1c41","system_id":"levelo_inurba_marseille","lat":43.311722,"lon":5.387247,"is_reserved":false,"is_disabled":false,"rental_uris":{"android":"levelo://app?vid=dccbea69-b130-4def-b158-a2aef73f1c41","ios":"levelo://app?vid=dccbea69-b130-4def-b158-a2aef73f1c41"},"vehicle_type_id":"4","last_reported":1700453366,"current_range_meters":22400,"station_id":"ce4bgv12rcd13ifvqcp0","pricing_plan_id":"free"},{"bike_id":"4bfed5e0-8d2d-4aac-b233-c7d8cf5f1c05","system_id":"levelo_inurba_marseille","lat":43.311722,"lon":5.387247,"is_reserved":false,"is_disabled":false,"rental_uris":{"android":"levelo://app?vid=4bfed5e0-8d2d-4aac-b233-c7d8cf5f1c05","ios":"levelo://app?vid=4bfed5e0-8d2d-4aac-b233-c7d8cf5f1c05"},"vehicle_type_id":"4","last_reported":1700453366,"current_range_meters":31600,"station_id":"ce4bgv12rcd13ifvqcp0","pricing_plan_id":"free"},{"bike_id":"a52e9b98-465a-4395-8470-8bb824bcb3c9","system_id":"levelo_inurba_marseille","lat":43.299243,"lon":5.374807,"is_reserved":false,"is_disabled":false,"rental_uris":{"android":"levelo://app?vid=a52e9b98-465a-4395-8470-8bb824bcb3c9","ios":"levelo://app?vid=a52e9b98-465a-4395-8470-8bb824bcb3c9"},"vehicle_type_id":"4","last_reported":1700453366,"current_range_meters":31200,"station_id":"ce4bgjh2rcd13ifvqbg0","pricing_plan_id":"free"},{"bike_id":"1dc0dbc9-a05b-4919-9a64-72cefc142915","system_id":"levelo_inurba_marseille","lat":43.311722,"lon":5.387247,"is_reserved":false,"is_disabled":false,"rental_uris":{"android":"levelo://app?vid=1dc0dbc9-a05b-4919-9a64-72cefc142915","ios":"levelo://app?vid=1dc0dbc9-a05b-4919-9a64-72cefc142915"},"vehicle_type_id":"4","last_reported":1700453366,"current_range_meters":31600,"station_id":"ce4bgv12rcd13ifvqcp0","pricing_plan_id":"free"},{"bike_id":"cd93f441-2d5d-4170-830b-cc944c55bac6","system_id":"levelo_inurba_marseille","lat":43.311722,"lon":5.387247,"is_reserved":false,"is_disabled":false,"rental_uris":{"android":"levelo://app?vid=cd93f441-2d5d-4170-830b-cc944c55bac6","ios":"levelo://app?vid=cd93f441-2d5d-4170-830b-cc944c55bac6"},"vehicle_type_id":"4","last_reported":1700453366,"current_range_meters":20800,"station_id":"ce4bgv12rcd13ifvqcp0","pricing_plan_id":"free"},{"bike_id":"c8725501-4b55-4c9f-96e8-0849f4a16d4c","system_id":"levelo_inurba_marseille","lat":43.311722,"lon":5.387247,"is_reserved":false,"is_disabled":false,"rental_uris":{"android":"levelo://app?vid=c8725501-4b55-4c9f-96e8-0849f4a16d4c","ios":"levelo://app?vid=c8725501-4b55-4c9f-96e8-0849f4a16d4c"},"vehicle_type_id":"4","last_reported":1700453366,"current_range_meters":4800,"station_id":"ce4bgv12rcd13ifvqcp0","pricing_plan_id":"free"},{"bike_id":"96f889c7-720d-4fb5-aa27-276a7a5f0e89","system_id":"levelo_inurba_marseille","lat":43.311722,"lon":5.387247,"is_reserved":false,"is_disabled":false,"rental_uris":{"android":"levelo://app?vid=96f889c7-720d-4fb5-aa27-276a7a5f0e89","ios":"levelo://app?vid=96f889c7-720d-4fb5-aa27-276a7a5f0e89"},"vehicle_type_id":"4","last_reported":1700453366,"current_range_meters":31600,"station_id":"ce4bgv12rcd13ifvqcp0","pricing_plan_id":"free"},{"bike_id":"401d4e72-6e5b-4cf3-9a42-d3b1f2ab0649","system_id":"levelo_inurba_marseille","lat":43.311722,"lon":5.387247,"is_reserved":false,"is_disabled":false,"rental_uris":{"android":"levelo://app?vid=401d4e72-6e5b-4cf3-9a42-d3b1f2ab0649","ios":"levelo://app?vid=401d4e72-6e5b-4cf3-9a42-d3b1f2ab0649"},"vehicle_type_id":"4","last_reported":1700453366,"current_range_meters":0,"station_id":"ce4bgv12rcd13ifvqcp0","pricing_plan_id":"free"},{"bike_id":"0dc63073-f7a4-4522-a1b3-aa89746693bc","system_id":"levelo_inurba_marseille","lat":43.311622,"lon":5.387233,"is_reserved":false,"is_disabled":false,"rental_uris":{"android":"levelo://app?vid=0dc63073-f7a4-4522-a1b3-aa89746693bc","ios":"levelo://app?vid=0dc63073-f7a4-4522-a1b3-aa89746693bc"},"vehicle_type_id":"4","last_reported":1700453366,"current_range_meters":800,"station_id":"ce4bgv12rcd13ifvqcp0","pricing_plan_id":"free"},{"bike_id":"6a39162c-e492-4006-ac88-ecec59ca91a0","system_id":"levelo_inurba_marseille","lat":43.297929,"lon":5.371094,"is_reserved":false,"is_disabled":false,"rental_uris":{"android":"levelo://app?vid=6a39162c-e492-4006-ac88-ecec59ca91a0","ios":"levelo://app?vid=6a39162c-e492-4006-ac88-ecec59ca91a0"},"vehicle_type_id":"4","last_reported":1700453366,"current_range_meters":0,"station_id":"ce4bgop2rcd13ifvqc1g","pricing_plan_id":"free"},{"bike_id":"7a57bba3-e204-4f72-9a40-9175856f8e1d","system_id":"levelo_inurba_marseille","lat":43.322872,"lon":5.382756,"is_reserved":false,"is_disabled":false,"rental_uris":{"android":"levelo://app?vid=7a57bba3-e204-4f72-9a40-9175856f8e1d","ios":"levelo://app?vid=7a57bba3-e204-4f72-9a40-9175856f8e1d"},"vehicle_type_id":"4","last_reported":1700453366,"current_range_meters":26400,"station_id":"ce4bhr12rcd13ifvqhqg","pricing_plan_id":"free"},{"bike_id":"968f4f7b-37af-48de-87ce-50d7ef1a7b79","system_id":"levelo_inurba_marseille","lat":43.328371,"lon":5.366909,"is_reserved":false,"is_disabled":false,"rental_uris":{"android":"levelo://app?vid=968f4f7b-37af-48de-87ce-50d7ef1a7b79","ios":"levelo://app?vid=968f4f7b-37af-48de-87ce-50d7ef1a7b79"},"vehicle_type_id":"4","last_reported":1700453366,"current_range_meters":17200,"station_id":"ce4bhs92rcd13ifvqi0g","pricing_plan_id":"free"},{"bike_id":"800a1342-faab-459c-8c88-cbeaec705f5e","system_id":"levelo_inurba_marseille","lat":43.328287,"lon":5.366765,"is_reserved":false,"is_disabled":false,"rental_uris":{"android":"levelo://app?vid=800a1342-faab-459c-8c88-cbeaec705f5e","ios":"levelo://app?vid=800a1342-faab-459c-8c88-cbeaec705f5e"},"vehicle_type_id":"4","last_reported":1700453366,"current_range_meters":18000,"station_id":"ce4bhs92rcd13ifvqi0g","pricing_plan_id":"free"},{"bike_id":"e5c30010-bab4-4fba-b633-780bc1a27fa9","system_id":"levelo_inurba_marseille","lat":43.328371,"lon":5.366909,"is_reserved":false,"is_disabled":false,"rental_uris":{"android":"levelo://app?vid=e5c30010-bab4-4fba-b633-780bc1a27fa9","ios":"levelo://app?vid=e5c30010-bab4-4fba-b633-780bc1a27fa9"},"vehicle_type_id":"4","last_reported":1700453366,"current_range_meters":2800,"station_id":"ce4bhs92rcd13ifvqi0g","pricing_plan_id":"free"},{"bike_id":"d56d0a4a-ad27-4c16-990c-4d1f4e0c8609","system_id":"levelo_inurba_marseille","lat":43.328368,"lon":5.3668,"is_reserved":false,"is_disabled":false,"rental_uris":{"android":"levelo://app?vid=d56d0a4a-ad27-4c16-990c-4d1f4e0c8609","ios":"levelo://app?vid=d56d0a4a-ad27-4c16-990c-4d1f4e0c8609"},"vehicle_type_id":"4","last_reported":1700453366,"current_range_meters":25600,"station_id":"ce4bhs92rcd13ifvqi0g","pricing_plan_id":"free"},{"bike_id":"57a99e44-4b87-45cd-814d-913391f08902","system_id":"levelo_inurba_marseille","lat":43.297163,"lon":5.365866,"is_reserved":false,"is_disabled":false,"rental_uris":{"android":"levelo://app?vid=57a99e44-4b87-45cd-814d-913391f08902","ios":"levelo://app?vid=57a99e44-4b87-45cd-814d-913391f08902"},"vehicle_type_id":"4","last_reported":1700453366,"current_range_meters":28400,"station_id":"ce4bgn12rcd13ifvqbt0","pricing_plan_id":"free"},{"bike_id":"ed8c1f45-10f5-414d-81b3-b06491835906","system_id":"levelo_inurba_marseille","lat":43.296234,"lon":5.371496,"is_reserved":false,"is_disabled":false,"rental_uris":{"android":"levelo://app?vid=ed8c1f45-10f5-414d-81b3-b06491835906","ios":"levelo://app?vid=ed8c1f45-10f5-414d-81b3-b06491835906"},"vehicle_type_id":"4","last_reported":1700453366,"current_range_meters":31200,"station_id":"ce4bgk12rcd13ifvqbj0","pricing_plan_id":"free"},{"bike_id":"bbba92a3-ba6e-4621-a390-1b142f7c7c2b","system_id":"levelo_inurba_marseille","lat":43.296211,"lon":5.371511,"is_reserved":false,"is_disabled":false,"rental_uris":{"android":"levelo://app?vid=bbba92a3-ba6e-4621-a390-1b142f7c7c2b","ios":"levelo://app?vid=bbba92a3-ba6e-4621-a390-1b142f7c7c2b"},"vehicle_type_id":"4","last_reported":1700453366,"current_range_meters":30000,"station_id":"ce4bgnh2rcd13ifvqc0g","pricing_plan_id":"free"},{"bike_id":"47ca9adf-7a15-48cb-bb6a-0eaa1a4c6013","system_id":"levelo_inurba_marseille","lat":43.296921,"lon":5.376579,"is_reserved":false,"is_disabled":false,"rental_uris":{"android":"levelo://app?vid=47ca9adf-7a15-48cb-bb6a-0eaa1a4c6013","ios":"levelo://app?vid=47ca9adf-7a15-48cb-bb6a-0eaa1a4c6013"},"vehicle_type_id":"4","last_reported":1700453366,"current_range_meters":15200,"station_id":"ce4bgkh2rcd13ifvqbl0","pricing_plan_id":"free"},{"bike_id":"f73e4b62-db53-41c8-9427-31b1dc519812","system_id":"levelo_inurba_marseille","lat":43.29733,"lon":5.37684,"is_reserved":false,"is_disabled":false,"rental_uris":{"android":"levelo://app?vid=f73e4b62-db53-41c8-9427-31b1dc519812","ios":"levelo://app?vid=f73e4b62-db53-41c8-9427-31b1dc519812"},"vehicle_type_id":"4","last_reported":1700453366,"current_range_meters":21600,"station_id":"ce4bgkh2rcd13ifvqbl0","pricing_plan_id":"free"},{"bike_id":"3ae72b9a-0131-4c61-88af-66fd3897507a","system_id":"levelo_inurba_marseille","lat":43.297284,"lon":5.376909,"is_reserved":false,"is_disabled":false,"rental_uris":{"android":"levelo://app?vid=3ae72b9a-0131-4c61-88af-66fd3897507a","ios":"levelo://app?vid=3ae72b9a-0131-4c61-88af-66fd3897507a"},"vehicle_type_id":"4","last_reported":1700453366,"current_range_meters":28800,"station_id":"ce4bgkh2rcd13ifvqbl0","pricing_plan_id":"free"},{"bike_id":"7ab7b213-d950-43aa-8a09-e14eaf5eb50b","system_id":"levelo_inurba_marseille","lat":43.317557,"lon":5.390173,"is_reserved":false,"is_disabled":false,"rental_uris":{"android":"levelo://app?vid=7ab7b213-d950-43aa-8a09-e14eaf5eb50b","ios":"levelo://app?vid=7ab7b213-d950-43aa-8a09-e14eaf5eb50b"},"vehicle_type_id":"4","last_reported":1700453366,"current_range_meters":26800,"station_id":"ce4bhqp2rcd13ifvqhng","pricing_plan_id":"free"},{"bike_id":"15a3e63e-d7fa-44fa-b6b1-e060a5b17ce9","system_id":"levelo_inurba_marseille","lat":43.295776,"lon":5.375028,"is_reserved":false,"is_disabled":false,"rental_uris":{"android":"levelo://app?vid=15a3e63e-d7fa-44fa-b6b1-e060a5b17ce9","ios":"levelo://app?vid=15a3e63e-d7fa-44fa-b6b1-e060a5b17ce9"},"vehicle_type_id":"4","last_reported":1700453366,"current_range_meters":27600,"station_id":"ce4bgh92rcd13ifvqb50","pricing_plan_id":"free"},{"bike_id":"ae5aa86b-ede0-48f0-9d65-8954bd8210f9","system_id":"levelo_inurba_marseille","lat":43.295713,"lon":5.375057,"is_reserved":false,"is_disabled":false,"rental_uris":{"android":"levelo://app?vid=ae5aa86b-ede0-48f0-9d65-8954bd8210f9","ios":"levelo://app?vid=ae5aa86b-ede0-48f0-9d65-8954bd8210f9"},"vehicle_type_id":"4","last_reported":1700453366,"current_range_meters":31200,"station_id":"ce4bgh92rcd13ifvqb50","pricing_plan_id":"free"},{"bike_id":"67ffd28a-0325-489b-a10f-d90500122751","system_id":"levelo_inurba_marseille","lat":43.295748,"lon":5.37522,"is_reserved":false,"is_disabled":false,"rental_uris":{"android":"levelo://app?vid=67ffd28a-0325-489b-a10f-d90500122751","ios":"levelo://app?vid=67ffd28a-0325-489b-a10f-d90500122751"},"vehicle_type_id":"4","last_reported":1700453366,"current_range_meters":30000,"station_id":"ce4bgh92rcd13ifvqb50","pricing_plan_id":"free"},{"bike_id":"3e3e92fe-39b7-4933-99ff-3747b28b5d69","system_id":"levelo_inurba_marseille","lat":43.328154,"lon":5.380034,"is_reserved":false,"is_disabled":false,"rental_uris":{"android":"levelo://app?vid=3e3e92fe-39b7-4933-99ff-3747b28b5d69","ios":"levelo://app?vid=3e3e92fe-39b7-4933-99ff-3747b28b5d69"},"vehicle_type_id":"4","last_reported":1700453366,"current_range_meters":3600,"station_id":"","pricing_plan_id":"free"},{"bike_id":"7305f4bc-fd5a-47b9-b3e5-3357b2f0dad9","system_id":"levelo_inurba_marseille","lat":43.296199,"lon":5.377233,"is_reserved":false,"is_disabled":false,"rental_uris":{"android":"levelo://app?vid=7305f4bc-fd5a-47b9-b3e5-3357b2f0dad9","ios":"levelo://app?vid=7305f4bc-fd5a-47b9-b3e5-3357b2f0dad9"},"vehicle_type_id":"4","last_reported":1700453366,"current_range_meters":30400,"station_id":"ce4bgi92rcd13ifvqb90","pricing_plan_id":"free"},{"bike_id":"d81c4363-315d-4cd7-b4f5-d49d22faf266","system_id":"levelo_inurba_marseille","lat":43.29621,"lon":5.37727,"is_reserved":false,"is_disabled":false,"rental_uris":{"android":"levelo://app?vid=d81c4363-315d-4cd7-b4f5-d49d22faf266","ios":"levelo://app?vid=d81c4363-315d-4cd7-b4f5-d49d22faf266"},"vehicle_type_id":"4","last_reported":1700453366,"current_range_meters":28800,"station_id":"ce4bgi92rcd13ifvqb90","pricing_plan_id":"free"},{"bike_id":"c5388730-86a7-47d6-8a35-ea1808e84fe1","system_id":"levelo_inurba_marseille","lat":43.296113,"lon":5.377037,"is_reserved":false,"is_disabled":false,"rental_uris":{"android":"levelo://app?vid=c5388730-86a7-47d6-8a35-ea1808e84fe1","ios":"levelo://app?vid=c5388730-86a7-47d6-8a35-ea1808e84fe1"},"vehicle_type_id":"4","last_reported":1700453366,"current_range_meters":30000,"station_id":"ce4bgi92rcd13ifvqb90","pricing_plan_id":"free"},{"bike_id":"49b13a46-d50c-4b26-b800-3065917291cd","system_id":"levelo_inurba_marseille","lat":43.29614,"lon":5.37731,"is_reserved":false,"is_disabled":false,"rental_uris":{"android":"levelo://app?vid=49b13a46-d50c-4b26-b800-3065917291cd","ios":"levelo://app?vid=49b13a46-d50c-4b26-b800-3065917291cd"},"vehicle_type_id":"4","last_reported":1700453366,"current_range_meters":20000,"station_id":"ce4bgi92rcd13ifvqb90","pricing_plan_id":"free"},{"bike_id":"0c887b59-ce69-452e-9ee2-8078ee0f0bb3","system_id":"levelo_inurba_marseille","lat":43.295292,"lon":5.374998,"is_reserved":false,"is_disabled":false,"rental_uris":{"android":"levelo://app?vid=0c887b59-ce69-452e-9ee2-8078ee0f0bb3","ios":"levelo://app?vid=0c887b59-ce69-452e-9ee2-8078ee0f0bb3"},"vehicle_type_id":"4","last_reported":1700453366,"current_range_meters":27200,"station_id":"ce4bgkp2rcd13ifvqbmg","pricing_plan_id":"free"},{"bike_id":"881373cc-7e10-43a7-bb1e-2ef044c1fba6","system_id":"levelo_inurba_marseille","lat":43.299707,"lon":5.384859,"is_reserved":false,"is_disabled":false,"rental_uris":{"android":"levelo://app?vid=881373cc-7e10-43a7-bb1e-2ef044c1fba6","ios":"levelo://app?vid=881373cc-7e10-43a7-bb1e-2ef044c1fba6"},"vehicle_type_id":"4","last_reported":1700453366,"current_range_meters":28400,"station_id":"ce4bgj92rcd13ifvqbd0","pricing_plan_id":"free"},{"bike_id":"e91a6cdb-f322-4dc3-82d6-2ba84bde2e08","system_id":"levelo_inurba_marseille","lat":43.299717,"lon":5.384845,"is_reserved":false,"is_disabled":false,"rental_uris":{"android":"levelo://app?vid=e91a6cdb-f322-4dc3-82d6-2ba84bde2e08","ios":"levelo://app?vid=e91a6cdb-f322-4dc3-82d6-2ba84bde2e08"},"vehicle_type_id":"4","last_reported":1700453366,"current_range_meters":30400,"station_id":"ce4bgj92rcd13ifvqbd0","pricing_plan_id":"free"},{"bike_id":"e145a3f7-00ac-4f8f-bfe5-435bc38ccaf7","system_id":"levelo_inurba_marseille","lat":43.293801,"lon":5.363066,"is_reserved":false,"is_disabled":false,"rental_uris":{"android":"levelo://app?vid=e145a3f7-00ac-4f8f-bfe5-435bc38ccaf7","ios":"levelo://app?vid=e145a3f7-00ac-4f8f-bfe5-435bc38ccaf7"},"vehicle_type_id":"4","last_reported":1700453366,"current_range_meters":21200,"station_id":"","pricing_plan_id":"free"},{"bike_id":"70bb3d27-4857-4cfe-bb42-8ba77c521672","system_id":"levelo_inurba_marseille","lat":43.32366,"lon":5.38882,"is_reserved":false,"is_disabled":false,"rental_uris":{"android":"levelo://app?vid=70bb3d27-4857-4cfe-bb42-8ba77c521672","ios":"levelo://app?vid=70bb3d27-4857-4cfe-bb42-8ba77c521672"},"vehicle_type_id":"4","last_reported":1700453366,"current_range_meters":0,"station_id":"ce4bhqp2rcd13ifvqhog","pricing_plan_id":"free"},{"bike_id":"ded2c6f4-4716-438a-bf1b-5350d6e982db","system_id":"levelo_inurba_marseille","lat":43.32367,"lon":5.388836,"is_reserved":false,"is_disabled":false,"rental_uris":{"android":"levelo://app?vid=ded2c6f4-4716-438a-bf1b-5350d6e982db","ios":"levelo://app?vid=ded2c6f4-4716-438a-bf1b-5350d6e982db"},"vehicle_type_id":"4","last_reported":1700453366,"current_range_meters":24000,"station_id":"ce4bhqp2rcd13ifvqhog","pricing_plan_id":"free"},{"bike_id":"58c99be4-5c7d-4af2-aeeb-e918f6f42c6a","system_id":"levelo_inurba_marseille","lat":43.32367,"lon":5.388836,"is_reserved":false,"is_disabled":false,"rental_uris":{"android":"levelo://app?vid=58c99be4-5c7d-4af2-aeeb-e918f6f42c6a","ios":"levelo://app?vid=58c99be4-5c7d-4af2-aeeb-e918f6f42c6a"},"vehicle_type_id":"4","last_reported":1700453366,"current_range_meters":9200,"station_id":"ce4bhqp2rcd13ifvqhog","pricing_plan_id":"free"},{"bike_id":"8ab48bda-fdb7-405a-b50d-8f56062387c2","system_id":"levelo_inurba_marseille","lat":43.32366,"lon":5.38887,"is_reserved":false,"is_disabled":false,"rental_uris":{"android":"levelo://app?vid=8ab48bda-fdb7-405a-b50d-8f56062387c2","ios":"levelo://app?vid=8ab48bda-fdb7-405a-b50d-8f56062387c2"},"vehicle_type_id":"4","last_reported":1700453366,"current_range_meters":4400,"station_id":"ce4bhqp2rcd13ifvqhog","pricing_plan_id":"free"},{"bike_id":"94f35869-741c-4e5f-8198-d4693fca93ce","system_id":"levelo_inurba_marseille","lat":43.323381,"lon":5.38964,"is_reserved":false,"is_disabled":false,"rental_uris":{"android":"levelo://app?vid=94f35869-741c-4e5f-8198-d4693fca93ce","ios":"levelo://app?vid=94f35869-741c-4e5f-8198-d4693fca93ce"},"vehicle_type_id":"4","last_reported":1700453366,"current_range_meters":0,"station_id":"","pricing_plan_id":"free"},{"bike_id":"7bfaab12-8b27-4ef6-88af-e5a7a0b52a27","system_id":"levelo_inurba_marseille","lat":43.292759,"lon":5.368401,"is_reserved":false,"is_disabled":false,"rental_uris":{"android":"levelo://app?vid=7bfaab12-8b27-4ef6-88af-e5a7a0b52a27","ios":"levelo://app?vid=7bfaab12-8b27-4ef6-88af-e5a7a0b52a27"},"vehicle_type_id":"4","last_reported":1700453366,"current_range_meters":30400,"station_id":"ce4bhbp2rcd13ifvqesg","pricing_plan_id":"free"},{"bike_id":"1079dd62-0914-49a7-b707-bd746c4f995d","system_id":"levelo_inurba_marseille","lat":43.292749,"lon":5.368398,"is_reserved":false,"is_disabled":false,"rental_uris":{"android":"levelo://app?vid=1079dd62-0914-49a7-b707-bd746c4f995d","ios":"levelo://app?vid=1079dd62-0914-49a7-b707-bd746c4f995d"},"vehicle_type_id":"4","last_reported":1700453366,"current_range_meters":28000,"station_id":"ce4bhbp2rcd13ifvqesg","pricing_plan_id":"free"},{"bike_id":"5bf0267f-0708-4432-805a-722b1cc8d4c4","system_id":"levelo_inurba_marseille","lat":43.29274,"lon":5.36841,"is_reserved":false,"is_disabled":false,"rental_uris":{"android":"levelo://app?vid=5bf0267f-0708-4432-805a-722b1cc8d4c4","ios":"levelo://app?vid=5bf0267f-0708-4432-805a-722b1cc8d4c4"},"vehicle_type_id":"4","last_reported":1700453366,"current_range_meters":23200,"station_id":"ce4bhbp2rcd13ifvqesg","pricing_plan_id":"free"},{"bike_id":"17caa0b4-1fcd-4596-9270-5d412834ea25","system_id":"levelo_inurba_marseille","lat":43.292749,"lon":5.368402,"is_reserved":false,"is_disabled":false,"rental_uris":{"android":"levelo://app?vid=17caa0b4-1fcd-4596-9270-5d412834ea25","ios":"levelo://app?vid=17caa0b4-1fcd-4596-9270-5d412834ea25"},"vehicle_type_id":"4","last_reported":1700453366,"current_range_meters":28400,"station_id":"ce4bhbp2rcd13ifvqesg","pricing_plan_id":"free"},{"bike_id":"cac3f828-d55e-45e2-ae67-1d0ca20ab6f8","system_id":"levelo_inurba_marseille","lat":43.292731,"lon":5.368546,"is_reserved":false,"is_disabled":false,"rental_uris":{"android":"levelo://app?vid=cac3f828-d55e-45e2-ae67-1d0ca20ab6f8","ios":"levelo://app?vid=cac3f828-d55e-45e2-ae67-1d0ca20ab6f8"},"vehicle_type_id":"4","last_reported":1700453366,"current_range_meters":24000,"station_id":"ce4bhbp2rcd13ifvqesg","pricing_plan_id":"free"},{"bike_id":"cb1a02b0-330c-4f3d-8783-070eea7c5611","system_id":"levelo_inurba_marseille","lat":43.293075,"lon":5.37443,"is_reserved":false,"is_disabled":false,"rental_uris":{"android":"levelo://app?vid=cb1a02b0-330c-4f3d-8783-070eea7c5611","ios":"levelo://app?vid=cb1a02b0-330c-4f3d-8783-070eea7c5611"},"vehicle_type_id":"4","last_reported":1700453366,"current_range_meters":31200,"station_id":"ce4bgi12rcd13ifvqb70","pricing_plan_id":"free"},{"bike_id":"6d401293-110e-4194-af1a-4245e09ecd5f","system_id":"levelo_inurba_marseille","lat":43.293009,"lon":5.374584,"is_reserved":false,"is_disabled":false,"rental_uris":{"android":"levelo://app?vid=6d401293-110e-4194-af1a-4245e09ecd5f","ios":"levelo://app?vid=6d401293-110e-4194-af1a-4245e09ecd5f"},"vehicle_type_id":"4","last_reported":1700453366,"current_range_meters":30000,"station_id":"ce4bgi12rcd13ifvqb70","pricing_plan_id":"free"},{"bike_id":"aad9d01f-95cb-4bc9-83a0-c70333b53a84","system_id":"levelo_inurba_marseille","lat":43.293009,"lon":5.374584,"is_reserved":false,"is_disabled":false,"rental_uris":{"android":"levelo://app?vid=aad9d01f-95cb-4bc9-83a0-c70333b53a84","ios":"levelo://app?vid=aad9d01f-95cb-4bc9-83a0-c70333b53a84"},"vehicle_type_id":"4","last_reported":1700453366,"current_range_meters":31200,"station_id":"ce4bgi12rcd13ifvqb70","pricing_plan_id":"free"},{"bike_id":"7b92369f-35b8-474b-873d-f41efa2c8c93","system_id":"levelo_inurba_marseille","lat":43.305841,"lon":5.393496,"is_reserved":false,"is_disabled":false,"rental_uris":{"android":"levelo://app?vid=7b92369f-35b8-474b-873d-f41efa2c8c93","ios":"levelo://app?vid=7b92369f-35b8-474b-873d-f41efa2c8c93"},"vehicle_type_id":"4","last_reported":1700453366,"current_range_meters":28400,"station_id":"","pricing_plan_id":"free"},{"bike_id":"c14ea02d-1b0c-40f6-a293-b8c12160b764","system_id":"levelo_inurba_marseille","lat":43.303002,"lon":5.392142,"is_reserved":false,"is_disabled":false,"rental_uris":{"android":"levelo://app?vid=c14ea02d-1b0c-40f6-a293-b8c12160b764","ios":"levelo://app?vid=c14ea02d-1b0c-40f6-a293-b8c12160b764"},"vehicle_type_id":"4","last_reported":1700453366,"current_range_meters":31200,"station_id":"ce4bgkh2rcd13ifvqbk0","pricing_plan_id":"free"},{"bike_id":"fdb72020-6b46-446d-8d1e-9419fa87cad3","system_id":"levelo_inurba_marseille","lat":43.300852,"lon":5.390859,"is_reserved":false,"is_disabled":false,"rental_uris":{"android":"levelo://app?vid=fdb72020-6b46-446d-8d1e-9419fa87cad3","ios":"levelo://app?vid=fdb72020-6b46-446d-8d1e-9419fa87cad3"},"vehicle_type_id":"4","last_reported":1700453366,"current_range_meters":29200,"station_id":"ce4bh192rcd13ifvqdb0","pricing_plan_id":"free"},{"bike_id":"5d96c0aa-544a-4c1d-99c1-1295b4beedc2","system_id":"levelo_inurba_marseille","lat":43.292236,"lon":5.360539,"is_reserved":false,"is_disabled":false,"rental_uris":{"android":"levelo://app?vid=5d96c0aa-544a-4c1d-99c1-1295b4beedc2","ios":"levelo://app?vid=5d96c0aa-544a-4c1d-99c1-1295b4beedc2"},"vehicle_type_id":"4","last_reported":1700453366,"current_range_meters":20400,"station_id":"ce4bhbh2rcd13ifvqeqg","pricing_plan_id":"free"},{"bike_id":"58744d8f-c6c0-4408-bb3d-1bb4a9abf1e7","system_id":"levelo_inurba_marseille","lat":43.292208,"lon":5.360512,"is_reserved":false,"is_disabled":false,"rental_uris":{"android":"levelo://app?vid=58744d8f-c6c0-4408-bb3d-1bb4a9abf1e7","ios":"levelo://app?vid=58744d8f-c6c0-4408-bb3d-1bb4a9abf1e7"},"vehicle_type_id":"4","last_reported":1700453366,"current_range_meters":29600,"station_id":"ce4bhbh2rcd13ifvqeqg","pricing_plan_id":"free"},{"bike_id":"790e35c8-2555-4df4-8316-0bd46762a5de","system_id":"levelo_inurba_marseille","lat":43.291725,"lon":5.371425,"is_reserved":false,"is_disabled":false,"rental_uris":{"android":"levelo://app?vid=790e35c8-2555-4df4-8316-0bd46762a5de","ios":"levelo://app?vid=790e35c8-2555-4df4-8316-0bd46762a5de"},"vehicle_type_id":"4","last_reported":1700453366,"current_range_meters":29200,"station_id":"ce4bha92rcd13ifvqeh0","pricing_plan_id":"free"},{"bike_id":"9ec8ad31-51c5-4498-8ac4-15d08eba971d","system_id":"levelo_inurba_marseille","lat":43.309047,"lon":5.396551,"is_reserved":false,"is_disabled":false,"rental_uris":{"android":"levelo://app?vid=9ec8ad31-51c5-4498-8ac4-15d08eba971d","ios":"levelo://app?vid=9ec8ad31-51c5-4498-8ac4-15d08eba971d"},"vehicle_type_id":"4","last_reported":1700453366,"current_range_meters":26800,"station_id":"ce4bh012rcd13ifvqcv0","pricing_plan_id":"free"},{"bike_id":"4f741063-d11b-42bc-bb4e-2f33f4f14a82","system_id":"levelo_inurba_marseille","lat":43.309047,"lon":5.396551,"is_reserved":false,"is_disabled":false,"rental_uris":{"android":"levelo://app?vid=4f741063-d11b-42bc-bb4e-2f33f4f14a82","ios":"levelo://app?vid=4f741063-d11b-42bc-bb4e-2f33f4f14a82"},"vehicle_type_id":"4","last_reported":1700453366,"current_range_meters":15200,"station_id":"ce4bh012rcd13ifvqcv0","pricing_plan_id":"free"},{"bike_id":"32315189-76bb-475a-aae8-82309762cea1","system_id":"levelo_inurba_marseille","lat":43.30896,"lon":5.39632,"is_reserved":false,"is_disabled":false,"rental_uris":{"android":"levelo://app?vid=32315189-76bb-475a-aae8-82309762cea1","ios":"levelo://app?vid=32315189-76bb-475a-aae8-82309762cea1"},"vehicle_type_id":"4","last_reported":1700453366,"current_range_meters":21600,"station_id":"ce4bh012rcd13ifvqcv0","pricing_plan_id":"free"},{"bike_id":"2a510722-9c51-406b-8f54-1517a9949ecb","system_id":"levelo_inurba_marseille","lat":43.29203,"lon":5.35786,"is_reserved":false,"is_disabled":false,"rental_uris":{"android":"levelo://app?vid=2a510722-9c51-406b-8f54-1517a9949ecb","ios":"levelo://app?vid=2a510722-9c51-406b-8f54-1517a9949ecb"},"vehicle_type_id":"4","last_reported":1700453366,"current_range_meters":26400,"station_id":"ce4bhb12rcd13ifvqel0","pricing_plan_id":"free"},{"bike_id":"cb24ab4f-3362-4fc3-9963-33868fa67049","system_id":"levelo_inurba_marseille","lat":43.29194,"lon":5.35794,"is_reserved":false,"is_disabled":false,"rental_uris":{"android":"levelo://app?vid=cb24ab4f-3362-4fc3-9963-33868fa67049","ios":"levelo://app?vid=cb24ab4f-3362-4fc3-9963-33868fa67049"},"vehicle_type_id":"4","last_reported":1700453366,"current_range_meters":31200,"station_id":"ce4bhb12rcd13ifvqel0","pricing_plan_id":"free"},{"bike_id":"ba3a8270-b985-4151-bf3d-6e1dca6b2a72","system_id":"levelo_inurba_marseille","lat":43.31328,"lon":5.39693,"is_reserved":false,"is_disabled":false,"rental_uris":{"android":"levelo://app?vid=ba3a8270-b985-4151-bf3d-6e1dca6b2a72","ios":"levelo://app?vid=ba3a8270-b985-4151-bf3d-6e1dca6b2a72"},"vehicle_type_id":"4","last_reported":1700453366,"current_range_meters":20800,"station_id":"ce4bgvp2rcd13ifvqcu0","pricing_plan_id":"free"},{"bike_id":"48438ead-ec81-4c4b-9428-7132a5e4417a","system_id":"levelo_inurba_marseille","lat":43.309047,"lon":5.396551,"is_reserved":false,"is_disabled":false,"rental_uris":{"android":"levelo://app?vid=48438ead-ec81-4c4b-9428-7132a5e4417a","ios":"levelo://app?vid=48438ead-ec81-4c4b-9428-7132a5e4417a"},"vehicle_type_id":"4","last_reported":1700453366,"current_range_meters":28400,"station_id":"ce4bh012rcd13ifvqcv0","pricing_plan_id":"free"},{"bike_id":"4fc8e41e-900e-4889-a667-8a33697dfeb8","system_id":"levelo_inurba_marseille","lat":43.302008,"lon":5.394694,"is_reserved":false,"is_disabled":false,"rental_uris":{"android":"levelo://app?vid=4fc8e41e-900e-4889-a667-8a33697dfeb8","ios":"levelo://app?vid=4fc8e41e-900e-4889-a667-8a33697dfeb8"},"vehicle_type_id":"4","last_reported":1700453366,"current_range_meters":32000,"station_id":"ce4bh0p2rcd13ifvqd70","pricing_plan_id":"free"},{"bike_id":"1cea653c-38df-4e05-ba6b-6dea3272fbc3","system_id":"levelo_inurba_marseille","lat":43.302008,"lon":5.394694,"is_reserved":false,"is_disabled":false,"rental_uris":{"android":"levelo://app?vid=1cea653c-38df-4e05-ba6b-6dea3272fbc3","ios":"levelo://app?vid=1cea653c-38df-4e05-ba6b-6dea3272fbc3"},"vehicle_type_id":"4","last_reported":1700453366,"current_range_meters":27200,"station_id":"ce4bh0p2rcd13ifvqd70","pricing_plan_id":"free"},{"bike_id":"56ef20dd-2340-4fa3-9cd8-eb458700f829","system_id":"levelo_inurba_marseille","lat":43.290624,"lon":5.359245,"is_reserved":false,"is_disabled":false,"rental_uris":{"android":"levelo://app?vid=56ef20dd-2340-4fa3-9cd8-eb458700f829","ios":"levelo://app?vid=56ef20dd-2340-4fa3-9cd8-eb458700f829"},"vehicle_type_id":"4","last_reported":1700453366,"current_range_meters":29200,"station_id":"ce4bha92rcd13ifvqeg0","pricing_plan_id":"free"},{"bike_id":"3e9c2863-5269-4f58-8edf-391650c9c274","system_id":"levelo_inurba_marseille","lat":43.290631,"lon":5.359244,"is_reserved":false,"is_disabled":false,"rental_uris":{"android":"levelo://app?vid=3e9c2863-5269-4f58-8edf-391650c9c274","ios":"levelo://app?vid=3e9c2863-5269-4f58-8edf-391650c9c274"},"vehicle_type_id":"4","last_reported":1700453366,"current_range_meters":30400,"station_id":"ce4bha92rcd13ifvqeg0","pricing_plan_id":"free"},{"bike_id":"62126574-71cc-4709-9094-cce65b636d36","system_id":"levelo_inurba_marseille","lat":43.29624,"lon":5.38957,"is_reserved":false,"is_disabled":false,"rental_uris":{"android":"levelo://app?vid=62126574-71cc-4709-9094-cce65b636d36","ios":"levelo://app?vid=62126574-71cc-4709-9094-cce65b636d36"},"vehicle_type_id":"4","last_reported":1700453366,"current_range_meters":0,"station_id":"","pricing_plan_id":"free"},{"bike_id":"96985b75-9492-4cd1-bd98-4dbaadb89765","system_id":"levelo_inurba_marseille","lat":43.289423,"lon":5.366327,"is_reserved":false,"is_disabled":false,"rental_uris":{"android":"levelo://app?vid=96985b75-9492-4cd1-bd98-4dbaadb89765","ios":"levelo://app?vid=96985b75-9492-4cd1-bd98-4dbaadb89765"},"vehicle_type_id":"4","last_reported":1700453366,"current_range_meters":800,"station_id":"ce4bhap2rcd13ifvqek0","pricing_plan_id":"free"},{"bike_id":"bde7dd06-baa8-44cf-b42e-76b661db65ea","system_id":"levelo_inurba_marseille","lat":43.29419,"lon":5.38635,"is_reserved":false,"is_disabled":false,"rental_uris":{"android":"levelo://app?vid=bde7dd06-baa8-44cf-b42e-76b661db65ea","ios":"levelo://app?vid=bde7dd06-baa8-44cf-b42e-76b661db65ea"},"vehicle_type_id":"4","last_reported":1700453366,"current_range_meters":31200,"station_id":"ce4bh2h2rcd13ifvqdh0","pricing_plan_id":"free"},{"bike_id":"2d8930d3-eeca-4a57-8983-443fcdc2be04","system_id":"levelo_inurba_marseille","lat":43.290327,"lon":5.375711,"is_reserved":false,"is_disabled":false,"rental_uris":{"android":"levelo://app?vid=2d8930d3-eeca-4a57-8983-443fcdc2be04","ios":"levelo://app?vid=2d8930d3-eeca-4a57-8983-443fcdc2be04"},"vehicle_type_id":"4","last_reported":1700453366,"current_range_meters":26400,"station_id":"ce4bh692rcd13ifvqe90","pricing_plan_id":"free"},{"bike_id":"c18b1ace-c0cf-442b-a09c-5ffb0b5dfccf","system_id":"levelo_inurba_marseille","lat":43.29278,"lon":5.38443,"is_reserved":false,"is_disabled":false,"rental_uris":{"android":"levelo://app?vid=c18b1ace-c0cf-442b-a09c-5ffb0b5dfccf","ios":"levelo://app?vid=c18b1ace-c0cf-442b-a09c-5ffb0b5dfccf"},"vehicle_type_id":"4","last_reported":1700453366,"current_range_meters":30000,"station_id":"ce4bh692rcd13ifvqea0","pricing_plan_id":"free"},{"bike_id":"61ebf679-cd02-40b3-ae84-333265662308","system_id":"levelo_inurba_marseille","lat":43.292642,"lon":5.384254,"is_reserved":false,"is_disabled":false,"rental_uris":{"android":"levelo://app?vid=61ebf679-cd02-40b3-ae84-333265662308","ios":"levelo://app?vid=61ebf679-cd02-40b3-ae84-333265662308"},"vehicle_type_id":"4","last_reported":1700453366,"current_range_meters":27600,"station_id":"ce4bh692rcd13ifvqea0","pricing_plan_id":"free"},{"bike_id":"75db0dc0-c0f4-4073-b16b-419c675cf422","system_id":"levelo_inurba_marseille","lat":43.29265,"lon":5.38438,"is_reserved":false,"is_disabled":false,"rental_uris":{"android":"levelo://app?vid=75db0dc0-c0f4-4073-b16b-419c675cf422","ios":"levelo://app?vid=75db0dc0-c0f4-4073-b16b-419c675cf422"},"vehicle_type_id":"4","last_reported":1700453366,"current_range_meters":31200,"station_id":"ce4bh692rcd13ifvqea0","pricing_plan_id":"free"},{"bike_id":"17eddb9f-0e65-42b0-9bab-3e2e10d99fde","system_id":"levelo_inurba_marseille","lat":43.304274,"lon":5.397513,"is_reserved":false,"is_disabled":false,"rental_uris":{"android":"levelo://app?vid=17eddb9f-0e65-42b0-9bab-3e2e10d99fde","ios":"levelo://app?vid=17eddb9f-0e65-42b0-9bab-3e2e10d99fde"},"vehicle_type_id":"4","last_reported":1700453366,"current_range_meters":26800,"station_id":"ce4bh092rcd13ifvqd20","pricing_plan_id":"free"},{"bike_id":"09f9eb40-ceea-41cf-997f-b74600e37c02","system_id":"levelo_inurba_marseille","lat":43.290075,"lon":5.356146,"is_reserved":false,"is_disabled":false,"rental_uris":{"android":"levelo://app?vid=09f9eb40-ceea-41cf-997f-b74600e37c02","ios":"levelo://app?vid=09f9eb40-ceea-41cf-997f-b74600e37c02"},"vehicle_type_id":"4","last_reported":1700453366,"current_range_meters":29200,"station_id":"ce4bhb92rcd13ifvqen0","pricing_plan_id":"free"},{"bike_id":"2f36e32d-b683-4bd3-b890-d964dcdc6c36","system_id":"levelo_inurba_marseille","lat":43.330442,"lon":5.389148,"is_reserved":false,"is_disabled":false,"rental_uris":{"android":"levelo://app?vid=2f36e32d-b683-4bd3-b890-d964dcdc6c36","ios":"levelo://app?vid=2f36e32d-b683-4bd3-b890-d964dcdc6c36"},"vehicle_type_id":"4","last_reported":1700453366,"current_range_meters":21200,"station_id":"ce4bhr92rcd13ifvqhrg","pricing_plan_id":"free"},{"bike_id":"2d85653e-1feb-4abe-b03e-67b3a0418a6d","system_id":"levelo_inurba_marseille","lat":43.29001,"lon":5.35613,"is_reserved":false,"is_disabled":false,"rental_uris":{"android":"levelo://app?vid=2d85653e-1feb-4abe-b03e-67b3a0418a6d","ios":"levelo://app?vid=2d85653e-1feb-4abe-b03e-67b3a0418a6d"},"vehicle_type_id":"4","last_reported":1700453366,"current_range_meters":30400,"station_id":"ce4bhb92rcd13ifvqen0","pricing_plan_id":"free"},{"bike_id":"db36bf19-809a-43d6-89b3-a02362a882e1","system_id":"levelo_inurba_marseille","lat":43.291012,"lon":5.381534,"is_reserved":false,"is_disabled":false,"rental_uris":{"android":"levelo://app?vid=db36bf19-809a-43d6-89b3-a02362a882e1","ios":"levelo://app?vid=db36bf19-809a-43d6-89b3-a02362a882e1"},"vehicle_type_id":"4","last_reported":1700453366,"current_range_meters":31200,"station_id":"ce4bh512rcd13ifvqe2g","pricing_plan_id":"free"},{"bike_id":"90cd6d0d-5456-439b-8b10-5d1af17dd18e","system_id":"levelo_inurba_marseille","lat":43.290984,"lon":5.381536,"is_reserved":false,"is_disabled":false,"rental_uris":{"android":"levelo://app?vid=90cd6d0d-5456-439b-8b10-5d1af17dd18e","ios":"levelo://app?vid=90cd6d0d-5456-439b-8b10-5d1af17dd18e"},"vehicle_type_id":"4","last_reported":1700453366,"current_range_meters":31200,"station_id":"ce4bh512rcd13ifvqe2g","pricing_plan_id":"free"},{"bike_id":"07202f70-50d7-46f0-a5bd-59712659d6a0","system_id":"levelo_inurba_marseille","lat":43.31251,"lon":5.40162,"is_reserved":false,"is_disabled":false,"rental_uris":{"android":"levelo://app?vid=07202f70-50d7-46f0-a5bd-59712659d6a0","ios":"levelo://app?vid=07202f70-50d7-46f0-a5bd-59712659d6a0"},"vehicle_type_id":"4","last_reported":1700453366,"current_range_meters":8400,"station_id":"","pricing_plan_id":"free"},{"bike_id":"1ced8fdc-a6aa-4275-8265-965750bc86a3","system_id":"levelo_inurba_marseille","lat":43.312716,"lon":5.401661,"is_reserved":false,"is_disabled":false,"rental_uris":{"android":"levelo://app?vid=1ced8fdc-a6aa-4275-8265-965750bc86a3","ios":"levelo://app?vid=1ced8fdc-a6aa-4275-8265-965750bc86a3"},"vehicle_type_id":"4","last_reported":1700453366,"current_range_meters":4000,"station_id":"ce4bh092rcd13ifvqd30","pricing_plan_id":"free"},{"bike_id":"8fd2f6b8-1ad3-4738-b869-a5d6a26f9a7b","system_id":"levelo_inurba_marseille","lat":43.31279,"lon":5.401703,"is_reserved":false,"is_disabled":false,"rental_uris":{"android":"levelo://app?vid=8fd2f6b8-1ad3-4738-b869-a5d6a26f9a7b","ios":"levelo://app?vid=8fd2f6b8-1ad3-4738-b869-a5d6a26f9a7b"},"vehicle_type_id":"4","last_reported":1700453366,"current_range_meters":0,"station_id":"ce4bh092rcd13ifvqd30","pricing_plan_id":"free"},{"bike_id":"d42c3ac2-1c96-47da-942b-7cb85a47a349","system_id":"levelo_inurba_marseille","lat":43.30642,"lon":5.401031,"is_reserved":false,"is_disabled":false,"rental_uris":{"android":"levelo://app?vid=d42c3ac2-1c96-47da-942b-7cb85a47a349","ios":"levelo://app?vid=d42c3ac2-1c96-47da-942b-7cb85a47a349"},"vehicle_type_id":"4","last_reported":1700453366,"current_range_meters":20400,"station_id":"ce4bh112rcd13ifvqda0","pricing_plan_id":"free"},{"bike_id":"7e8fb516-3c5f-4ce3-a4ed-4c2dfc396eb0","system_id":"levelo_inurba_marseille","lat":43.309368,"lon":5.401542,"is_reserved":false,"is_disabled":false,"rental_uris":{"android":"levelo://app?vid=7e8fb516-3c5f-4ce3-a4ed-4c2dfc396eb0","ios":"levelo://app?vid=7e8fb516-3c5f-4ce3-a4ed-4c2dfc396eb0"},"vehicle_type_id":"4","last_reported":1700453366,"current_range_meters":11600,"station_id":"ce4bgvp2rcd13ifvqct0","pricing_plan_id":"free"},{"bike_id":"d5593712-5973-410d-8ffe-0970ba27da89","system_id":"levelo_inurba_marseille","lat":43.30642,"lon":5.401031,"is_reserved":false,"is_disabled":false,"rental_uris":{"android":"levelo://app?vid=d5593712-5973-410d-8ffe-0970ba27da89","ios":"levelo://app?vid=d5593712-5973-410d-8ffe-0970ba27da89"},"vehicle_type_id":"4","last_reported":1700453366,"current_range_meters":30000,"station_id":"ce4bh112rcd13ifvqda0","pricing_plan_id":"free"},{"bike_id":"b606b783-e792-49e9-aa4a-26ee0d218c26","system_id":"levelo_inurba_marseille","lat":43.306576,"lon":5.4009,"is_reserved":false,"is_disabled":false,"rental_uris":{"android":"levelo://app?vid=b606b783-e792-49e9-aa4a-26ee0d218c26","ios":"levelo://app?vid=b606b783-e792-49e9-aa4a-26ee0d218c26"},"vehicle_type_id":"4","last_reported":1700453366,"current_range_meters":20800,"station_id":"ce4bh112rcd13ifvqda0","pricing_plan_id":"free"},{"bike_id":"3735b4ac-0725-41ac-a50d-dab88529fdf7","system_id":"levelo_inurba_marseille","lat":43.28727,"lon":5.36078,"is_reserved":false,"is_disabled":false,"rental_uris":{"android":"levelo://app?vid=3735b4ac-0725-41ac-a50d-dab88529fdf7","ios":"levelo://app?vid=3735b4ac-0725-41ac-a50d-dab88529fdf7"},"vehicle_type_id":"4","last_reported":1700453366,"current_range_meters":22800,"station_id":"cki0cbj6b192h4jlfktg","pricing_plan_id":"free"},{"bike_id":"efee9a62-4950-4ea5-9b0b-665d7d1666b3","system_id":"levelo_inurba_marseille","lat":43.28727,"lon":5.36078,"is_reserved":false,"is_disabled":false,"rental_uris":{"android":"levelo://app?vid=efee9a62-4950-4ea5-9b0b-665d7d1666b3","ios":"levelo://app?vid=efee9a62-4950-4ea5-9b0b-665d7d1666b3"},"vehicle_type_id":"4","last_reported":1700453366,"current_range_meters":30400,"station_id":"cki0cbj6b192h4jlfktg","pricing_plan_id":"free"},{"bike_id":"ac565028-1bb3-4216-89d9-edc3cef2e6b5","system_id":"levelo_inurba_marseille","lat":43.286961,"lon":5.373785,"is_reserved":false,"is_disabled":false,"rental_uris":{"android":"levelo://app?vid=ac565028-1bb3-4216-89d9-edc3cef2e6b5","ios":"levelo://app?vid=ac565028-1bb3-4216-89d9-edc3cef2e6b5"},"vehicle_type_id":"4","last_reported":1700453366,"current_range_meters":27600,"station_id":"ce4bh3p2rcd13ifvqdq0","pricing_plan_id":"free"},{"bike_id":"bf6ecd45-d70e-454a-b3d2-d60d180de38a","system_id":"levelo_inurba_marseille","lat":43.286961,"lon":5.373785,"is_reserved":false,"is_disabled":false,"rental_uris":{"android":"levelo://app?vid=bf6ecd45-d70e-454a-b3d2-d60d180de38a","ios":"levelo://app?vid=bf6ecd45-d70e-454a-b3d2-d60d180de38a"},"vehicle_type_id":"4","last_reported":1700453366,"current_range_meters":18800,"station_id":"ce4bh3p2rcd13ifvqdq0","pricing_plan_id":"free"},{"bike_id":"88f42187-4280-4e7e-be69-90fea2faf6db","system_id":"levelo_inurba_marseille","lat":43.286961,"lon":5.373785,"is_reserved":false,"is_disabled":false,"rental_uris":{"android":"levelo://app?vid=88f42187-4280-4e7e-be69-90fea2faf6db","ios":"levelo://app?vid=88f42187-4280-4e7e-be69-90fea2faf6db"},"vehicle_type_id":"4","last_reported":1700453366,"current_range_meters":28400,"station_id":"ce4bh3p2rcd13ifvqdq0","pricing_plan_id":"free"},{"bike_id":"dd353de6-0d7a-48dc-8090-d433a85de0d3","system_id":"levelo_inurba_marseille","lat":43.286961,"lon":5.373785,"is_reserved":false,"is_disabled":false,"rental_uris":{"android":"levelo://app?vid=dd353de6-0d7a-48dc-8090-d433a85de0d3","ios":"levelo://app?vid=dd353de6-0d7a-48dc-8090-d433a85de0d3"},"vehicle_type_id":"4","last_reported":1700453366,"current_range_meters":30800,"station_id":"ce4bh3p2rcd13ifvqdq0","pricing_plan_id":"free"},{"bike_id":"7bf5f36e-b80b-43e3-b4bd-7e4475bb055c","system_id":"levelo_inurba_marseille","lat":43.286961,"lon":5.373785,"is_reserved":false,"is_disabled":false,"rental_uris":{"android":"levelo://app?vid=7bf5f36e-b80b-43e3-b4bd-7e4475bb055c","ios":"levelo://app?vid=7bf5f36e-b80b-43e3-b4bd-7e4475bb055c"},"vehicle_type_id":"4","last_reported":1700453366,"current_range_meters":30800,"station_id":"ce4bh3p2rcd13ifvqdq0","pricing_plan_id":"free"},{"bike_id":"abec3675-525c-4c81-929d-eb5bd2fd7941","system_id":"levelo_inurba_marseille","lat":43.298681,"lon":5.397225,"is_reserved":false,"is_disabled":false,"rental_uris":{"android":"levelo://app?vid=abec3675-525c-4c81-929d-eb5bd2fd7941","ios":"levelo://app?vid=abec3675-525c-4c81-929d-eb5bd2fd7941"},"vehicle_type_id":"4","last_reported":1700453366,"current_range_meters":26000,"station_id":"ce4bh0h2rcd13ifvqd50","pricing_plan_id":"free"},{"bike_id":"668a58be-3b97-49b0-8ecb-a2d5b16ce93b","system_id":"levelo_inurba_marseille","lat":43.286617,"lon":5.363588,"is_reserved":false,"is_disabled":false,"rental_uris":{"android":"levelo://app?vid=668a58be-3b97-49b0-8ecb-a2d5b16ce93b","ios":"levelo://app?vid=668a58be-3b97-49b0-8ecb-a2d5b16ce93b"},"vehicle_type_id":"4","last_reported":1700453366,"current_range_meters":26800,"station_id":"ce4bhah2rcd13ifvqej0","pricing_plan_id":"free"},{"bike_id":"0980a90a-5de9-4744-9de4-fe3e68b1e57a","system_id":"levelo_inurba_marseille","lat":43.286961,"lon":5.373785,"is_reserved":false,"is_disabled":false,"rental_uris":{"android":"levelo://app?vid=0980a90a-5de9-4744-9de4-fe3e68b1e57a","ios":"levelo://app?vid=0980a90a-5de9-4744-9de4-fe3e68b1e57a"},"vehicle_type_id":"4","last_reported":1700453366,"current_range_meters":31200,"station_id":"ce4bh3p2rcd13ifvqdq0","pricing_plan_id":"free"},{"bike_id":"a8f0bf5f-23a4-416a-b124-73a6e042717f","system_id":"levelo_inurba_marseille","lat":43.295194,"lon":5.39397,"is_reserved":false,"is_disabled":false,"rental_uris":{"android":"levelo://app?vid=a8f0bf5f-23a4-416a-b124-73a6e042717f","ios":"levelo://app?vid=a8f0bf5f-23a4-416a-b124-73a6e042717f"},"vehicle_type_id":"4","last_reported":1700453366,"current_range_meters":30800,"station_id":"ce4bh292rcd13ifvqdf0","pricing_plan_id":"free"},{"bike_id":"421ffa35-58e7-48d7-8a7e-3ef14f85d123","system_id":"levelo_inurba_marseille","lat":43.295136,"lon":5.394096,"is_reserved":false,"is_disabled":false,"rental_uris":{"android":"levelo://app?vid=421ffa35-58e7-48d7-8a7e-3ef14f85d123","ios":"levelo://app?vid=421ffa35-58e7-48d7-8a7e-3ef14f85d123"},"vehicle_type_id":"4","last_reported":1700453366,"current_range_meters":31200,"station_id":"ce4bh292rcd13ifvqdf0","pricing_plan_id":"free"},{"bike_id":"54d65b00-44a6-4bd0-afcc-58a3dcf3be4d","system_id":"levelo_inurba_marseille","lat":43.290333,"lon":5.386301,"is_reserved":false,"is_disabled":false,"rental_uris":{"android":"levelo://app?vid=54d65b00-44a6-4bd0-afcc-58a3dcf3be4d","ios":"levelo://app?vid=54d65b00-44a6-4bd0-afcc-58a3dcf3be4d"},"vehicle_type_id":"4","last_reported":1700453366,"current_range_meters":24000,"station_id":"ce4bh4p2rcd13ifvqe0g","pricing_plan_id":"free"},{"bike_id":"7fa372e6-8dd5-44e7-9b88-912c787d3790","system_id":"levelo_inurba_marseille","lat":43.295144,"lon":5.394148,"is_reserved":false,"is_disabled":false,"rental_uris":{"android":"levelo://app?vid=7fa372e6-8dd5-44e7-9b88-912c787d3790","ios":"levelo://app?vid=7fa372e6-8dd5-44e7-9b88-912c787d3790"},"vehicle_type_id":"4","last_reported":1700453366,"current_range_meters":31200,"station_id":"ce4bh292rcd13ifvqdf0","pricing_plan_id":"free"},{"bike_id":"6e65880d-414e-4771-8b8f-4db54365c8b7","system_id":"levelo_inurba_marseille","lat":43.290311,"lon":5.386339,"is_reserved":false,"is_disabled":false,"rental_uris":{"android":"levelo://app?vid=6e65880d-414e-4771-8b8f-4db54365c8b7","ios":"levelo://app?vid=6e65880d-414e-4771-8b8f-4db54365c8b7"},"vehicle_type_id":"4","last_reported":1700453366,"current_range_meters":31600,"station_id":"ce4bh4p2rcd13ifvqe0g","pricing_plan_id":"free"},{"bike_id":"104dbfff-841c-4d27-87f1-ff7c7c719c4c","system_id":"levelo_inurba_marseille","lat":43.287185,"lon":5.379373,"is_reserved":false,"is_disabled":false,"rental_uris":{"android":"levelo://app?vid=104dbfff-841c-4d27-87f1-ff7c7c719c4c","ios":"levelo://app?vid=104dbfff-841c-4d27-87f1-ff7c7c719c4c"},"vehicle_type_id":"4","last_reported":1700453366,"current_range_meters":22000,"station_id":"ce4bh9p2rcd13ifvqec0","pricing_plan_id":"free"},{"bike_id":"82f0bec1-510e-4e11-b022-4e2ec4798ad3","system_id":"levelo_inurba_marseille","lat":43.316523,"lon":5.404367,"is_reserved":false,"is_disabled":false,"rental_uris":{"android":"levelo://app?vid=82f0bec1-510e-4e11-b022-4e2ec4798ad3","ios":"levelo://app?vid=82f0bec1-510e-4e11-b022-4e2ec4798ad3"},"vehicle_type_id":"4","last_reported":1700453366,"current_range_meters":11200,"station_id":"ce4bh012rcd13ifvqd00","pricing_plan_id":"free"},{"bike_id":"83ce586d-d4c4-48ed-8407-6b6ca5d4f5dd","system_id":"levelo_inurba_marseille","lat":43.284538,"lon":5.358657,"is_reserved":false,"is_disabled":false,"rental_uris":{"android":"levelo://app?vid=83ce586d-d4c4-48ed-8407-6b6ca5d4f5dd","ios":"levelo://app?vid=83ce586d-d4c4-48ed-8407-6b6ca5d4f5dd"},"vehicle_type_id":"4","last_reported":1700453366,"current_range_meters":23600,"station_id":"ce4bhah2rcd13ifvqei0","pricing_plan_id":"free"},{"bike_id":"323b8e82-cd83-4462-8f9d-fceece34498a","system_id":"levelo_inurba_marseille","lat":43.284538,"lon":5.358657,"is_reserved":false,"is_disabled":false,"rental_uris":{"android":"levelo://app?vid=323b8e82-cd83-4462-8f9d-fceece34498a","ios":"levelo://app?vid=323b8e82-cd83-4462-8f9d-fceece34498a"},"vehicle_type_id":"4","last_reported":1700453366,"current_range_meters":27600,"station_id":"ce4bhah2rcd13ifvqei0","pricing_plan_id":"free"},{"bike_id":"9bd4fa47-272c-4a59-bbe3-5d67fc485b91","system_id":"levelo_inurba_marseille","lat":43.284538,"lon":5.358657,"is_reserved":false,"is_disabled":false,"rental_uris":{"android":"levelo://app?vid=9bd4fa47-272c-4a59-bbe3-5d67fc485b91","ios":"levelo://app?vid=9bd4fa47-272c-4a59-bbe3-5d67fc485b91"},"vehicle_type_id":"4","last_reported":1700453366,"current_range_meters":28400,"station_id":"ce4bhah2rcd13ifvqei0","pricing_plan_id":"free"},{"bike_id":"abaff342-1ad0-46f7-93d6-5af34e7fd688","system_id":"levelo_inurba_marseille","lat":43.284538,"lon":5.358657,"is_reserved":false,"is_disabled":false,"rental_uris":{"android":"levelo://app?vid=abaff342-1ad0-46f7-93d6-5af34e7fd688","ios":"levelo://app?vid=abaff342-1ad0-46f7-93d6-5af34e7fd688"},"vehicle_type_id":"4","last_reported":1700453366,"current_range_meters":31200,"station_id":"ce4bhah2rcd13ifvqei0","pricing_plan_id":"free"},{"bike_id":"ce19691d-4d93-4d0f-906a-8a8378c28796","system_id":"levelo_inurba_marseille","lat":43.284538,"lon":5.358657,"is_reserved":false,"is_disabled":false,"rental_uris":{"android":"levelo://app?vid=ce19691d-4d93-4d0f-906a-8a8378c28796","ios":"levelo://app?vid=ce19691d-4d93-4d0f-906a-8a8378c28796"},"vehicle_type_id":"4","last_reported":1700453366,"current_range_meters":26000,"station_id":"ce4bhah2rcd13ifvqei0","pricing_plan_id":"free"},{"bike_id":"8f6b8969-53e8-419c-be97-380429f41620","system_id":"levelo_inurba_marseille","lat":43.284534,"lon":5.358662,"is_reserved":false,"is_disabled":false,"rental_uris":{"android":"levelo://app?vid=8f6b8969-53e8-419c-be97-380429f41620","ios":"levelo://app?vid=8f6b8969-53e8-419c-be97-380429f41620"},"vehicle_type_id":"4","last_reported":1700453366,"current_range_meters":28000,"station_id":"ce4bhah2rcd13ifvqei0","pricing_plan_id":"free"},{"bike_id":"f7b42c77-1619-4c50-86b8-e89f1e2495c6","system_id":"levelo_inurba_marseille","lat":43.294314,"lon":5.397498,"is_reserved":false,"is_disabled":false,"rental_uris":{"android":"levelo://app?vid=f7b42c77-1619-4c50-86b8-e89f1e2495c6","ios":"levelo://app?vid=f7b42c77-1619-4c50-86b8-e89f1e2495c6"},"vehicle_type_id":"4","last_reported":1700453366,"current_range_meters":0,"station_id":"ce4bh3h2rcd13ifvqdo0","pricing_plan_id":"free"},{"bike_id":"222f57c4-c479-4764-9dce-77eaec5713c3","system_id":"levelo_inurba_marseille","lat":43.28613,"lon":5.35108,"is_reserved":false,"is_disabled":false,"rental_uris":{"android":"levelo://app?vid=222f57c4-c479-4764-9dce-77eaec5713c3","ios":"levelo://app?vid=222f57c4-c479-4764-9dce-77eaec5713c3"},"vehicle_type_id":"4","last_reported":1700453366,"current_range_meters":31200,"station_id":"ce4bhch2rcd13ifvqeug","pricing_plan_id":"free"},{"bike_id":"2cb5446b-79f2-48ea-aa99-573682f9e802","system_id":"levelo_inurba_marseille","lat":43.28615,"lon":5.35096,"is_reserved":false,"is_disabled":false,"rental_uris":{"android":"levelo://app?vid=2cb5446b-79f2-48ea-aa99-573682f9e802","ios":"levelo://app?vid=2cb5446b-79f2-48ea-aa99-573682f9e802"},"vehicle_type_id":"4","last_reported":1700453366,"current_range_meters":31200,"station_id":"ce4bhch2rcd13ifvqeug","pricing_plan_id":"free"},{"bike_id":"38a9956c-e9e2-49db-bda6-2d7b54a9aa53","system_id":"levelo_inurba_marseille","lat":43.28612,"lon":5.35102,"is_reserved":false,"is_disabled":false,"rental_uris":{"android":"levelo://app?vid=38a9956c-e9e2-49db-bda6-2d7b54a9aa53","ios":"levelo://app?vid=38a9956c-e9e2-49db-bda6-2d7b54a9aa53"},"vehicle_type_id":"4","last_reported":1700453366,"current_range_meters":30800,"station_id":"ce4bhch2rcd13ifvqeug","pricing_plan_id":"free"},{"bike_id":"f59307c9-0b2e-4bc2-8d26-b3095e7d397b","system_id":"levelo_inurba_marseille","lat":43.283998,"lon":5.375062,"is_reserved":false,"is_disabled":false,"rental_uris":{"android":"levelo://app?vid=f59307c9-0b2e-4bc2-8d26-b3095e7d397b","ios":"levelo://app?vid=f59307c9-0b2e-4bc2-8d26-b3095e7d397b"},"vehicle_type_id":"4","last_reported":1700453366,"current_range_meters":20800,"station_id":"ce4bh412rcd13ifvqds0","pricing_plan_id":"free"},{"bike_id":"06112d3a-4699-4a1f-b924-2e250542d358","system_id":"levelo_inurba_marseille","lat":43.28411,"lon":5.37508,"is_reserved":false,"is_disabled":false,"rental_uris":{"android":"levelo://app?vid=06112d3a-4699-4a1f-b924-2e250542d358","ios":"levelo://app?vid=06112d3a-4699-4a1f-b924-2e250542d358"},"vehicle_type_id":"4","last_reported":1700453366,"current_range_meters":31200,"station_id":"ce4bh412rcd13ifvqds0","pricing_plan_id":"free"},{"bike_id":"61163de4-dfa6-4983-8481-10206c9069b9","system_id":"levelo_inurba_marseille","lat":43.283998,"lon":5.375062,"is_reserved":false,"is_disabled":false,"rental_uris":{"android":"levelo://app?vid=61163de4-dfa6-4983-8481-10206c9069b9","ios":"levelo://app?vid=61163de4-dfa6-4983-8481-10206c9069b9"},"vehicle_type_id":"4","last_reported":1700453366,"current_range_meters":19200,"station_id":"ce4bh412rcd13ifvqds0","pricing_plan_id":"free"},{"bike_id":"f16c7963-22c6-4c10-9d93-914892954d35","system_id":"levelo_inurba_marseille","lat":43.313239,"lon":5.407109,"is_reserved":false,"is_disabled":false,"rental_uris":{"android":"levelo://app?vid=f16c7963-22c6-4c10-9d93-914892954d35","ios":"levelo://app?vid=f16c7963-22c6-4c10-9d93-914892954d35"},"vehicle_type_id":"4","last_reported":1700453366,"current_range_meters":12400,"station_id":"","pricing_plan_id":"free"},{"bike_id":"5d854a17-aa32-4378-b748-dacb290100c7","system_id":"levelo_inurba_marseille","lat":43.283998,"lon":5.375062,"is_reserved":false,"is_disabled":false,"rental_uris":{"android":"levelo://app?vid=5d854a17-aa32-4378-b748-dacb290100c7","ios":"levelo://app?vid=5d854a17-aa32-4378-b748-dacb290100c7"},"vehicle_type_id":"4","last_reported":1700453366,"current_range_meters":31200,"station_id":"ce4bh412rcd13ifvqds0","pricing_plan_id":"free"},{"bike_id":"e7c4b01d-d4b4-49a9-8cd6-a0c00760cd3f","system_id":"levelo_inurba_marseille","lat":43.284087,"lon":5.37506,"is_reserved":false,"is_disabled":false,"rental_uris":{"android":"levelo://app?vid=e7c4b01d-d4b4-49a9-8cd6-a0c00760cd3f","ios":"levelo://app?vid=e7c4b01d-d4b4-49a9-8cd6-a0c00760cd3f"},"vehicle_type_id":"4","last_reported":1700453366,"current_range_meters":29200,"station_id":"ce4bh412rcd13ifvqds0","pricing_plan_id":"free"},{"bike_id":"1b0edb4a-22e2-47ee-a937-d965b08da0c6","system_id":"levelo_inurba_marseille","lat":43.295727,"lon":5.399663,"is_reserved":false,"is_disabled":false,"rental_uris":{"android":"levelo://app?vid=1b0edb4a-22e2-47ee-a937-d965b08da0c6","ios":"levelo://app?vid=1b0edb4a-22e2-47ee-a937-d965b08da0c6"},"vehicle_type_id":"4","last_reported":1700453366,"current_range_meters":29600,"station_id":"ce4bh312rcd13ifvqdj0","pricing_plan_id":"free"},{"bike_id":"4a4a0380-28ee-4022-ab36-4a03b8c2f60d","system_id":"levelo_inurba_marseille","lat":43.28406,"lon":5.37515,"is_reserved":false,"is_disabled":false,"rental_uris":{"android":"levelo://app?vid=4a4a0380-28ee-4022-ab36-4a03b8c2f60d","ios":"levelo://app?vid=4a4a0380-28ee-4022-ab36-4a03b8c2f60d"},"vehicle_type_id":"4","last_reported":1700453366,"current_range_meters":30000,"station_id":"ce4bh412rcd13ifvqds0","pricing_plan_id":"free"},{"bike_id":"744d118c-d85b-47bb-9e5e-52d31cc43e3d","system_id":"levelo_inurba_marseille","lat":43.286693,"lon":5.386619,"is_reserved":false,"is_disabled":false,"rental_uris":{"android":"levelo://app?vid=744d118c-d85b-47bb-9e5e-52d31cc43e3d","ios":"levelo://app?vid=744d118c-d85b-47bb-9e5e-52d31cc43e3d"},"vehicle_type_id":"4","last_reported":1700453366,"current_range_meters":30000,"station_id":"ce4bh492rcd13ifvqdug","pricing_plan_id":"free"},{"bike_id":"5974ad3b-da81-42ca-a08b-1b3632a47afa","system_id":"levelo_inurba_marseille","lat":43.33237,"lon":5.3985,"is_reserved":false,"is_disabled":false,"rental_uris":{"android":"levelo://app?vid=5974ad3b-da81-42ca-a08b-1b3632a47afa","ios":"levelo://app?vid=5974ad3b-da81-42ca-a08b-1b3632a47afa"},"vehicle_type_id":"4","last_reported":1700453366,"current_range_meters":0,"station_id":"","pricing_plan_id":"free"},{"bike_id":"566b0e21-992b-4db7-a206-ca834d7dc8a7","system_id":"levelo_inurba_marseille","lat":43.323464,"lon":5.406297,"is_reserved":false,"is_disabled":false,"rental_uris":{"android":"levelo://app?vid=566b0e21-992b-4db7-a206-ca834d7dc8a7","ios":"levelo://app?vid=566b0e21-992b-4db7-a206-ca834d7dc8a7"},"vehicle_type_id":"4","last_reported":1700453366,"current_range_meters":26400,"station_id":"ce4bhq92rcd13ifvqhjg","pricing_plan_id":"free"},{"bike_id":"6d829e3a-1233-4989-b53e-278c5d002cbf","system_id":"levelo_inurba_marseille","lat":43.33717,"lon":5.391857,"is_reserved":false,"is_disabled":false,"rental_uris":{"android":"levelo://app?vid=6d829e3a-1233-4989-b53e-278c5d002cbf","ios":"levelo://app?vid=6d829e3a-1233-4989-b53e-278c5d002cbf"},"vehicle_type_id":"4","last_reported":1700453366,"current_range_meters":29200,"station_id":"ce4bhr92rcd13ifvqhsg","pricing_plan_id":"free"},{"bike_id":"f28249b3-397a-4bca-a5df-413e420d0595","system_id":"levelo_inurba_marseille","lat":43.288501,"lon":5.393087,"is_reserved":false,"is_disabled":false,"rental_uris":{"android":"levelo://app?vid=f28249b3-397a-4bca-a5df-413e420d0595","ios":"levelo://app?vid=f28249b3-397a-4bca-a5df-413e420d0595"},"vehicle_type_id":"4","last_reported":1700453366,"current_range_meters":800,"station_id":"ce4bh2p2rcd13ifvqdi0","pricing_plan_id":"free"},{"bike_id":"953ee5b9-ce1c-46af-9d96-16c9fb52bef1","system_id":"levelo_inurba_marseille","lat":43.288501,"lon":5.393087,"is_reserved":false,"is_disabled":false,"rental_uris":{"android":"levelo://app?vid=953ee5b9-ce1c-46af-9d96-16c9fb52bef1","ios":"levelo://app?vid=953ee5b9-ce1c-46af-9d96-16c9fb52bef1"},"vehicle_type_id":"4","last_reported":1700453366,"current_range_meters":14400,"station_id":"ce4bh2p2rcd13ifvqdi0","pricing_plan_id":"free"},{"bike_id":"314f21e3-d12c-4df0-85de-bd1a89a721df","system_id":"levelo_inurba_marseille","lat":43.288501,"lon":5.393087,"is_reserved":false,"is_disabled":false,"rental_uris":{"android":"levelo://app?vid=314f21e3-d12c-4df0-85de-bd1a89a721df","ios":"levelo://app?vid=314f21e3-d12c-4df0-85de-bd1a89a721df"},"vehicle_type_id":"4","last_reported":1700453366,"current_range_meters":28800,"station_id":"ce4bh2p2rcd13ifvqdi0","pricing_plan_id":"free"},{"bike_id":"f393d226-e938-4faf-b178-acabbdc55ed5","system_id":"levelo_inurba_marseille","lat":43.288497,"lon":5.393089,"is_reserved":false,"is_disabled":false,"rental_uris":{"android":"levelo://app?vid=f393d226-e938-4faf-b178-acabbdc55ed5","ios":"levelo://app?vid=f393d226-e938-4faf-b178-acabbdc55ed5"},"vehicle_type_id":"4","last_reported":1700453366,"current_range_meters":27200,"station_id":"ce4bh2p2rcd13ifvqdi0","pricing_plan_id":"free"},{"bike_id":"0fe52cb4-34f1-43b0-ba3f-a639b024a4ff","system_id":"levelo_inurba_marseille","lat":43.288501,"lon":5.393087,"is_reserved":false,"is_disabled":false,"rental_uris":{"android":"levelo://app?vid=0fe52cb4-34f1-43b0-ba3f-a639b024a4ff","ios":"levelo://app?vid=0fe52cb4-34f1-43b0-ba3f-a639b024a4ff"},"vehicle_type_id":"4","last_reported":1700453366,"current_range_meters":24400,"station_id":"ce4bh2p2rcd13ifvqdi0","pricing_plan_id":"free"},{"bike_id":"3eed9e98-a53b-4dc4-aa65-7a55c54585fd","system_id":"levelo_inurba_marseille","lat":43.283494,"lon":5.380945,"is_reserved":false,"is_disabled":false,"rental_uris":{"android":"levelo://app?vid=3eed9e98-a53b-4dc4-aa65-7a55c54585fd","ios":"levelo://app?vid=3eed9e98-a53b-4dc4-aa65-7a55c54585fd"},"vehicle_type_id":"4","last_reported":1700453366,"current_range_meters":13200,"station_id":"ce4bh412rcd13ifvqdr0","pricing_plan_id":"free"},{"bike_id":"b7da9083-5fd6-4f00-b4cf-3e929d01706e","system_id":"levelo_inurba_marseille","lat":43.283498,"lon":5.380948,"is_reserved":false,"is_disabled":false,"rental_uris":{"android":"levelo://app?vid=b7da9083-5fd6-4f00-b4cf-3e929d01706e","ios":"levelo://app?vid=b7da9083-5fd6-4f00-b4cf-3e929d01706e"},"vehicle_type_id":"4","last_reported":1700453366,"current_range_meters":28800,"station_id":"ce4bh412rcd13ifvqdr0","pricing_plan_id":"free"},{"bike_id":"9cb3374d-88b0-487e-987b-7ca530a3e4a2","system_id":"levelo_inurba_marseille","lat":43.343594,"lon":5.374984,"is_reserved":false,"is_disabled":false,"rental_uris":{"android":"levelo://app?vid=9cb3374d-88b0-487e-987b-7ca530a3e4a2","ios":"levelo://app?vid=9cb3374d-88b0-487e-987b-7ca530a3e4a2"},"vehicle_type_id":"4","last_reported":1700453366,"current_range_meters":0,"station_id":"","pricing_plan_id":"free"},{"bike_id":"16eadbc8-2db1-4ca3-930f-782ebdedfc3b","system_id":"levelo_inurba_marseille","lat":43.292724,"lon":5.401131,"is_reserved":false,"is_disabled":false,"rental_uris":{"android":"levelo://app?vid=16eadbc8-2db1-4ca3-930f-782ebdedfc3b","ios":"levelo://app?vid=16eadbc8-2db1-4ca3-930f-782ebdedfc3b"},"vehicle_type_id":"4","last_reported":1700453366,"current_range_meters":27200,"station_id":"ce4bh312rcd13ifvqdk0","pricing_plan_id":"free"},{"bike_id":"69675dbd-1618-44d0-b07e-ecb4a7502359","system_id":"levelo_inurba_marseille","lat":43.283502,"lon":5.386471,"is_reserved":false,"is_disabled":false,"rental_uris":{"android":"levelo://app?vid=69675dbd-1618-44d0-b07e-ecb4a7502359","ios":"levelo://app?vid=69675dbd-1618-44d0-b07e-ecb4a7502359"},"vehicle_type_id":"4","last_reported":1700453366,"current_range_meters":20800,"station_id":"ce4bh492rcd13ifvqdvg","pricing_plan_id":"free"},{"bike_id":"61ab78ed-24b3-4fb6-bfff-356ae9705b9d","system_id":"levelo_inurba_marseille","lat":43.28275,"lon":5.35069,"is_reserved":false,"is_disabled":false,"rental_uris":{"android":"levelo://app?vid=61ab78ed-24b3-4fb6-bfff-356ae9705b9d","ios":"levelo://app?vid=61ab78ed-24b3-4fb6-bfff-356ae9705b9d"},"vehicle_type_id":"4","last_reported":1700453366,"current_range_meters":31200,"station_id":"ce4bhbp2rcd13ifvqerg","pricing_plan_id":"free"},{"bike_id":"6e714327-bb58-48d3-9cd1-f964705d6a76","system_id":"levelo_inurba_marseille","lat":43.282744,"lon":5.350533,"is_reserved":false,"is_disabled":false,"rental_uris":{"android":"levelo://app?vid=6e714327-bb58-48d3-9cd1-f964705d6a76","ios":"levelo://app?vid=6e714327-bb58-48d3-9cd1-f964705d6a76"},"vehicle_type_id":"4","last_reported":1700453366,"current_range_meters":31200,"station_id":"ce4bhbp2rcd13ifvqerg","pricing_plan_id":"free"},{"bike_id":"6493c972-2e32-42a4-ba33-a39a1ddb1432","system_id":"levelo_inurba_marseille","lat":43.28268,"lon":5.35073,"is_reserved":false,"is_disabled":false,"rental_uris":{"android":"levelo://app?vid=6493c972-2e32-42a4-ba33-a39a1ddb1432","ios":"levelo://app?vid=6493c972-2e32-42a4-ba33-a39a1ddb1432"},"vehicle_type_id":"4","last_reported":1700453366,"current_range_meters":29200,"station_id":"ce4bhbp2rcd13ifvqerg","pricing_plan_id":"free"},{"bike_id":"4541a55d-acd9-42ef-ac59-d3974d8c3488","system_id":"levelo_inurba_marseille","lat":43.28047,"lon":5.36945,"is_reserved":false,"is_disabled":false,"rental_uris":{"android":"levelo://app?vid=4541a55d-acd9-42ef-ac59-d3974d8c3488","ios":"levelo://app?vid=4541a55d-acd9-42ef-ac59-d3974d8c3488"},"vehicle_type_id":"4","last_reported":1700453366,"current_range_meters":28000,"station_id":"ce4bha12rcd13ifvqef0","pricing_plan_id":"free"},{"bike_id":"34819cf5-6f68-4021-a7ab-5802f1c8441b","system_id":"levelo_inurba_marseille","lat":43.282744,"lon":5.350533,"is_reserved":false,"is_disabled":false,"rental_uris":{"android":"levelo://app?vid=34819cf5-6f68-4021-a7ab-5802f1c8441b","ios":"levelo://app?vid=34819cf5-6f68-4021-a7ab-5802f1c8441b"},"vehicle_type_id":"4","last_reported":1700453366,"current_range_meters":28800,"station_id":"ce4bhbp2rcd13ifvqerg","pricing_plan_id":"free"},{"bike_id":"aa574e3e-c56c-4559-b7b0-94b5225e97ef","system_id":"levelo_inurba_marseille","lat":43.280402,"lon":5.369458,"is_reserved":false,"is_disabled":false,"rental_uris":{"android":"levelo://app?vid=aa574e3e-c56c-4559-b7b0-94b5225e97ef","ios":"levelo://app?vid=aa574e3e-c56c-4559-b7b0-94b5225e97ef"},"vehicle_type_id":"4","last_reported":1700453366,"current_range_meters":21600,"station_id":"ce4bha12rcd13ifvqef0","pricing_plan_id":"free"},{"bike_id":"22c66337-ccc9-4e40-b4ac-433a51dc9b17","system_id":"levelo_inurba_marseille","lat":43.280368,"lon":5.369537,"is_reserved":false,"is_disabled":false,"rental_uris":{"android":"levelo://app?vid=22c66337-ccc9-4e40-b4ac-433a51dc9b17","ios":"levelo://app?vid=22c66337-ccc9-4e40-b4ac-433a51dc9b17"},"vehicle_type_id":"4","last_reported":1700453366,"current_range_meters":23200,"station_id":"ce4bha12rcd13ifvqef0","pricing_plan_id":"free"},{"bike_id":"eb3c6a59-8829-42fd-afae-17d0f065e2da","system_id":"levelo_inurba_marseille","lat":43.28039,"lon":5.369297,"is_reserved":false,"is_disabled":false,"rental_uris":{"android":"levelo://app?vid=eb3c6a59-8829-42fd-afae-17d0f065e2da","ios":"levelo://app?vid=eb3c6a59-8829-42fd-afae-17d0f065e2da"},"vehicle_type_id":"4","last_reported":1700453366,"current_range_meters":30000,"station_id":"ce4bha12rcd13ifvqef0","pricing_plan_id":"free"},{"bike_id":"c272454a-c762-470a-b13a-c52c37891705","system_id":"levelo_inurba_marseille","lat":43.280343,"lon":5.369539,"is_reserved":false,"is_disabled":false,"rental_uris":{"android":"levelo://app?vid=c272454a-c762-470a-b13a-c52c37891705","ios":"levelo://app?vid=c272454a-c762-470a-b13a-c52c37891705"},"vehicle_type_id":"4","last_reported":1700453366,"current_range_meters":10800,"station_id":"ce4bha12rcd13ifvqef0","pricing_plan_id":"free"},{"bike_id":"7d138bf8-dee6-44ee-98ab-84d3fd56c891","system_id":"levelo_inurba_marseille","lat":43.290465,"lon":5.399638,"is_reserved":false,"is_disabled":false,"rental_uris":{"android":"levelo://app?vid=7d138bf8-dee6-44ee-98ab-84d3fd56c891","ios":"levelo://app?vid=7d138bf8-dee6-44ee-98ab-84d3fd56c891"},"vehicle_type_id":"4","last_reported":1700453366,"current_range_meters":31200,"station_id":"ce4bh392rcd13ifvqdm0","pricing_plan_id":"free"},{"bike_id":"dfd1488e-0be7-49d2-afcc-b9da42221aa3","system_id":"levelo_inurba_marseille","lat":43.29037,"lon":5.39965,"is_reserved":false,"is_disabled":false,"rental_uris":{"android":"levelo://app?vid=dfd1488e-0be7-49d2-afcc-b9da42221aa3","ios":"levelo://app?vid=dfd1488e-0be7-49d2-afcc-b9da42221aa3"},"vehicle_type_id":"4","last_reported":1700453366,"current_range_meters":31200,"station_id":"ce4bh392rcd13ifvqdm0","pricing_plan_id":"free"},{"bike_id":"2d186741-ea87-4ff0-8f1f-7d75030d1075","system_id":"levelo_inurba_marseille","lat":43.29041,"lon":5.399634,"is_reserved":false,"is_disabled":false,"rental_uris":{"android":"levelo://app?vid=2d186741-ea87-4ff0-8f1f-7d75030d1075","ios":"levelo://app?vid=2d186741-ea87-4ff0-8f1f-7d75030d1075"},"vehicle_type_id":"4","last_reported":1700453366,"current_range_meters":30000,"station_id":"ce4bh392rcd13ifvqdm0","pricing_plan_id":"free"},{"bike_id":"e78a5ab7-932c-43c7-8dfb-ad0830b9b28e","system_id":"levelo_inurba_marseille","lat":43.281044,"lon":5.378308,"is_reserved":false,"is_disabled":false,"rental_uris":{"android":"levelo://app?vid=e78a5ab7-932c-43c7-8dfb-ad0830b9b28e","ios":"levelo://app?vid=e78a5ab7-932c-43c7-8dfb-ad0830b9b28e"},"vehicle_type_id":"4","last_reported":1700453366,"current_range_meters":30000,"station_id":"ce4bha12rcd13ifvqee0","pricing_plan_id":"free"},{"bike_id":"a9b35f6d-23da-465c-b338-adf1c279b799","system_id":"levelo_inurba_marseille","lat":43.296263,"lon":5.40601,"is_reserved":false,"is_disabled":false,"rental_uris":{"android":"levelo://app?vid=a9b35f6d-23da-465c-b338-adf1c279b799","ios":"levelo://app?vid=a9b35f6d-23da-465c-b338-adf1c279b799"},"vehicle_type_id":"4","last_reported":1700453366,"current_range_meters":23600,"station_id":"ce4bh0h2rcd13ifvqd60","pricing_plan_id":"free"},{"bike_id":"04afa565-9629-40d9-9d9b-d300eadd9e72","system_id":"levelo_inurba_marseille","lat":43.281044,"lon":5.378308,"is_reserved":false,"is_disabled":false,"rental_uris":{"android":"levelo://app?vid=04afa565-9629-40d9-9d9b-d300eadd9e72","ios":"levelo://app?vid=04afa565-9629-40d9-9d9b-d300eadd9e72"},"vehicle_type_id":"4","last_reported":1700453366,"current_range_meters":29200,"station_id":"ce4bha12rcd13ifvqee0","pricing_plan_id":"free"},{"bike_id":"ccf9b17e-2fb6-47d5-b5cb-73ea08fcb6e5","system_id":"levelo_inurba_marseille","lat":43.28575,"lon":5.39498,"is_reserved":false,"is_disabled":false,"rental_uris":{"android":"levelo://app?vid=ccf9b17e-2fb6-47d5-b5cb-73ea08fcb6e5","ios":"levelo://app?vid=ccf9b17e-2fb6-47d5-b5cb-73ea08fcb6e5"},"vehicle_type_id":"4","last_reported":1700453366,"current_range_meters":0,"station_id":"ce4bh292rcd13ifvqdg0","pricing_plan_id":"free"},{"bike_id":"81bdffcf-f932-4a50-a64c-baaaca8f05ff","system_id":"levelo_inurba_marseille","lat":43.285742,"lon":5.395004,"is_reserved":false,"is_disabled":false,"rental_uris":{"android":"levelo://app?vid=81bdffcf-f932-4a50-a64c-baaaca8f05ff","ios":"levelo://app?vid=81bdffcf-f932-4a50-a64c-baaaca8f05ff"},"vehicle_type_id":"4","last_reported":1700453366,"current_range_meters":30400,"station_id":"ce4bh292rcd13ifvqdg0","pricing_plan_id":"free"},{"bike_id":"fca3052f-8ec4-4ccf-bf65-31895f59b3e8","system_id":"levelo_inurba_marseille","lat":43.28714,"lon":5.39976,"is_reserved":false,"is_disabled":false,"rental_uris":{"android":"levelo://app?vid=fca3052f-8ec4-4ccf-bf65-31895f59b3e8","ios":"levelo://app?vid=fca3052f-8ec4-4ccf-bf65-31895f59b3e8"},"vehicle_type_id":"4","last_reported":1700453366,"current_range_meters":22000,"station_id":"ce4bho92rcd13ifvqh3g","pricing_plan_id":"free"},{"bike_id":"81b8e324-48e8-43c4-a9ef-3759cbf406ed","system_id":"levelo_inurba_marseille","lat":43.279087,"lon":5.380114,"is_reserved":false,"is_disabled":false,"rental_uris":{"android":"levelo://app?vid=81b8e324-48e8-43c4-a9ef-3759cbf406ed","ios":"levelo://app?vid=81b8e324-48e8-43c4-a9ef-3759cbf406ed"},"vehicle_type_id":"4","last_reported":1700453366,"current_range_meters":30000,"station_id":"ce4bhf92rcd13ifvqf50","pricing_plan_id":"free"},{"bike_id":"71eaa71a-f2cf-48ab-a273-05166976badc","system_id":"levelo_inurba_marseille","lat":43.279087,"lon":5.380114,"is_reserved":false,"is_disabled":false,"rental_uris":{"android":"levelo://app?vid=71eaa71a-f2cf-48ab-a273-05166976badc","ios":"levelo://app?vid=71eaa71a-f2cf-48ab-a273-05166976badc"},"vehicle_type_id":"4","last_reported":1700453366,"current_range_meters":26400,"station_id":"ce4bhf92rcd13ifvqf50","pricing_plan_id":"free"},{"bike_id":"45a1999e-869c-49dd-8a38-58d936534c23","system_id":"levelo_inurba_marseille","lat":43.287108,"lon":5.399864,"is_reserved":false,"is_disabled":false,"rental_uris":{"android":"levelo://app?vid=45a1999e-869c-49dd-8a38-58d936534c23","ios":"levelo://app?vid=45a1999e-869c-49dd-8a38-58d936534c23"},"vehicle_type_id":"4","last_reported":1700453366,"current_range_meters":20000,"station_id":"ce4bho92rcd13ifvqh3g","pricing_plan_id":"free"},{"bike_id":"df8315a3-2b8c-46fb-8ab2-9812b9ced3fb","system_id":"levelo_inurba_marseille","lat":43.287154,"lon":5.399979,"is_reserved":false,"is_disabled":false,"rental_uris":{"android":"levelo://app?vid=df8315a3-2b8c-46fb-8ab2-9812b9ced3fb","ios":"levelo://app?vid=df8315a3-2b8c-46fb-8ab2-9812b9ced3fb"},"vehicle_type_id":"4","last_reported":1700453366,"current_range_meters":23200,"station_id":"ce4bho92rcd13ifvqh3g","pricing_plan_id":"free"},{"bike_id":"26ed06fb-65c3-4a06-9042-7ed81835e8bc","system_id":"levelo_inurba_marseille","lat":43.287154,"lon":5.399979,"is_reserved":false,"is_disabled":false,"rental_uris":{"android":"levelo://app?vid=26ed06fb-65c3-4a06-9042-7ed81835e8bc","ios":"levelo://app?vid=26ed06fb-65c3-4a06-9042-7ed81835e8bc"},"vehicle_type_id":"4","last_reported":1700453366,"current_range_meters":25600,"station_id":"ce4bho92rcd13ifvqh3g","pricing_plan_id":"free"},{"bike_id":"6b686fd8-6af4-4d87-acca-58335e891be3","system_id":"levelo_inurba_marseille","lat":43.287154,"lon":5.399979,"is_reserved":false,"is_disabled":false,"rental_uris":{"android":"levelo://app?vid=6b686fd8-6af4-4d87-acca-58335e891be3","ios":"levelo://app?vid=6b686fd8-6af4-4d87-acca-58335e891be3"},"vehicle_type_id":"4","last_reported":1700453366,"current_range_meters":30800,"station_id":"ce4bho92rcd13ifvqh3g","pricing_plan_id":"free"},{"bike_id":"b5f3ebd8-3e96-47e5-807a-8523ccf3d920","system_id":"levelo_inurba_marseille","lat":43.287154,"lon":5.399979,"is_reserved":false,"is_disabled":false,"rental_uris":{"android":"levelo://app?vid=b5f3ebd8-3e96-47e5-807a-8523ccf3d920","ios":"levelo://app?vid=b5f3ebd8-3e96-47e5-807a-8523ccf3d920"},"vehicle_type_id":"4","last_reported":1700453366,"current_range_meters":31600,"station_id":"ce4bho92rcd13ifvqh3g","pricing_plan_id":"free"},{"bike_id":"04546a3f-e5f9-4ed7-8b64-5f947ebfbbf7","system_id":"levelo_inurba_marseille","lat":43.287154,"lon":5.399979,"is_reserved":false,"is_disabled":false,"rental_uris":{"android":"levelo://app?vid=04546a3f-e5f9-4ed7-8b64-5f947ebfbbf7","ios":"levelo://app?vid=04546a3f-e5f9-4ed7-8b64-5f947ebfbbf7"},"vehicle_type_id":"4","last_reported":1700453366,"current_range_meters":24400,"station_id":"ce4bho92rcd13ifvqh3g","pricing_plan_id":"free"},{"bike_id":"1cd4f039-ac36-4596-9847-31c56c0dc7ca","system_id":"levelo_inurba_marseille","lat":43.287154,"lon":5.399979,"is_reserved":false,"is_disabled":false,"rental_uris":{"android":"levelo://app?vid=1cd4f039-ac36-4596-9847-31c56c0dc7ca","ios":"levelo://app?vid=1cd4f039-ac36-4596-9847-31c56c0dc7ca"},"vehicle_type_id":"4","last_reported":1700453366,"current_range_meters":28400,"station_id":"ce4bho92rcd13ifvqh3g","pricing_plan_id":"free"},{"bike_id":"f41f6083-6ec6-4597-8152-76c78ee78027","system_id":"levelo_inurba_marseille","lat":43.287154,"lon":5.399979,"is_reserved":false,"is_disabled":false,"rental_uris":{"android":"levelo://app?vid=f41f6083-6ec6-4597-8152-76c78ee78027","ios":"levelo://app?vid=f41f6083-6ec6-4597-8152-76c78ee78027"},"vehicle_type_id":"4","last_reported":1700453366,"current_range_meters":19200,"station_id":"ce4bho92rcd13ifvqh3g","pricing_plan_id":"free"},{"bike_id":"de50e9b8-9705-426d-ab43-9b87152e90c9","system_id":"levelo_inurba_marseille","lat":43.287154,"lon":5.399979,"is_reserved":false,"is_disabled":false,"rental_uris":{"android":"levelo://app?vid=de50e9b8-9705-426d-ab43-9b87152e90c9","ios":"levelo://app?vid=de50e9b8-9705-426d-ab43-9b87152e90c9"},"vehicle_type_id":"4","last_reported":1700453366,"current_range_meters":5200,"station_id":"ce4bho92rcd13ifvqh3g","pricing_plan_id":"free"},{"bike_id":"a88f0f7b-4580-4ab2-b05c-e42778bbe333","system_id":"levelo_inurba_marseille","lat":43.287154,"lon":5.399979,"is_reserved":false,"is_disabled":false,"rental_uris":{"android":"levelo://app?vid=a88f0f7b-4580-4ab2-b05c-e42778bbe333","ios":"levelo://app?vid=a88f0f7b-4580-4ab2-b05c-e42778bbe333"},"vehicle_type_id":"4","last_reported":1700453366,"current_range_meters":12000,"station_id":"ce4bho92rcd13ifvqh3g","pricing_plan_id":"free"},{"bike_id":"a470fe4d-0de8-4153-9093-7bc98b7e8458","system_id":"levelo_inurba_marseille","lat":43.287154,"lon":5.399979,"is_reserved":false,"is_disabled":false,"rental_uris":{"android":"levelo://app?vid=a470fe4d-0de8-4153-9093-7bc98b7e8458","ios":"levelo://app?vid=a470fe4d-0de8-4153-9093-7bc98b7e8458"},"vehicle_type_id":"4","last_reported":1700453366,"current_range_meters":24400,"station_id":"ce4bho92rcd13ifvqh3g","pricing_plan_id":"free"},{"bike_id":"2836fb25-90fd-419f-ab95-f049a7d008c0","system_id":"levelo_inurba_marseille","lat":43.287154,"lon":5.399979,"is_reserved":false,"is_disabled":false,"rental_uris":{"android":"levelo://app?vid=2836fb25-90fd-419f-ab95-f049a7d008c0","ios":"levelo://app?vid=2836fb25-90fd-419f-ab95-f049a7d008c0"},"vehicle_type_id":"4","last_reported":1700453366,"current_range_meters":31600,"station_id":"ce4bho92rcd13ifvqh3g","pricing_plan_id":"free"},{"bike_id":"37c567bc-cf03-4f5b-b022-608729a5bae9","system_id":"levelo_inurba_marseille","lat":43.292571,"lon":5.409107,"is_reserved":false,"is_disabled":false,"rental_uris":{"android":"levelo://app?vid=37c567bc-cf03-4f5b-b022-608729a5bae9","ios":"levelo://app?vid=37c567bc-cf03-4f5b-b022-608729a5bae9"},"vehicle_type_id":"4","last_reported":1700453366,"current_range_meters":29600,"station_id":"ce4bh192rcd13ifvqdc0","pricing_plan_id":"free"},{"bike_id":"4da097bb-9c81-41dd-90ad-c3b5e2941019","system_id":"levelo_inurba_marseille","lat":43.292569,"lon":5.409107,"is_reserved":false,"is_disabled":false,"rental_uris":{"android":"levelo://app?vid=4da097bb-9c81-41dd-90ad-c3b5e2941019","ios":"levelo://app?vid=4da097bb-9c81-41dd-90ad-c3b5e2941019"},"vehicle_type_id":"4","last_reported":1700453366,"current_range_meters":28000,"station_id":"ce4bh192rcd13ifvqdc0","pricing_plan_id":"free"},{"bike_id":"8ccdbe57-1aa5-4e13-b9e3-67770d6b3584","system_id":"levelo_inurba_marseille","lat":43.292571,"lon":5.409107,"is_reserved":false,"is_disabled":false,"rental_uris":{"android":"levelo://app?vid=8ccdbe57-1aa5-4e13-b9e3-67770d6b3584","ios":"levelo://app?vid=8ccdbe57-1aa5-4e13-b9e3-67770d6b3584"},"vehicle_type_id":"4","last_reported":1700453366,"current_range_meters":28400,"station_id":"ce4bh192rcd13ifvqdc0","pricing_plan_id":"free"},{"bike_id":"ea6e999d-8474-41c3-8735-718a0921fb55","system_id":"levelo_inurba_marseille","lat":43.292569,"lon":5.409107,"is_reserved":false,"is_disabled":false,"rental_uris":{"android":"levelo://app?vid=ea6e999d-8474-41c3-8735-718a0921fb55","ios":"levelo://app?vid=ea6e999d-8474-41c3-8735-718a0921fb55"},"vehicle_type_id":"4","last_reported":1700453366,"current_range_meters":22800,"station_id":"ce4bh192rcd13ifvqdc0","pricing_plan_id":"free"},{"bike_id":"8c69b603-8a22-457a-9c65-5ead6ab43d89","system_id":"levelo_inurba_marseille","lat":43.280784,"lon":5.396622,"is_reserved":false,"is_disabled":false,"rental_uris":{"android":"levelo://app?vid=8c69b603-8a22-457a-9c65-5ead6ab43d89","ios":"levelo://app?vid=8c69b603-8a22-457a-9c65-5ead6ab43d89"},"vehicle_type_id":"4","last_reported":1700453366,"current_range_meters":28400,"station_id":"ce4bho12rcd13ifvqh2g","pricing_plan_id":"free"},{"bike_id":"1693c599-33fb-4470-99dd-e396cc305b93","system_id":"levelo_inurba_marseille","lat":43.303837,"lon":5.418724,"is_reserved":false,"is_disabled":false,"rental_uris":{"android":"levelo://app?vid=1693c599-33fb-4470-99dd-e396cc305b93","ios":"levelo://app?vid=1693c599-33fb-4470-99dd-e396cc305b93"},"vehicle_type_id":"4","last_reported":1700453366,"current_range_meters":5600,"station_id":"ce4bhop2rcd13ifvqh7g","pricing_plan_id":"free"},{"bike_id":"8e97420c-f368-4679-aebd-6fa9d8ab1f29","system_id":"levelo_inurba_marseille","lat":43.27388,"lon":5.36259,"is_reserved":false,"is_disabled":false,"rental_uris":{"android":"levelo://app?vid=8e97420c-f368-4679-aebd-6fa9d8ab1f29","ios":"levelo://app?vid=8e97420c-f368-4679-aebd-6fa9d8ab1f29"},"vehicle_type_id":"4","last_reported":1700453366,"current_range_meters":30000,"station_id":"ce4bhbh2rcd13ifvqeo0","pricing_plan_id":"free"},{"bike_id":"01ed7991-eaca-4c39-b3f9-40b4ebe9e070","system_id":"levelo_inurba_marseille","lat":43.27378,"lon":5.36252,"is_reserved":false,"is_disabled":false,"rental_uris":{"android":"levelo://app?vid=01ed7991-eaca-4c39-b3f9-40b4ebe9e070","ios":"levelo://app?vid=01ed7991-eaca-4c39-b3f9-40b4ebe9e070"},"vehicle_type_id":"4","last_reported":1700453366,"current_range_meters":30800,"station_id":"ce4bhbh2rcd13ifvqeo0","pricing_plan_id":"free"},{"bike_id":"820bf453-c21d-40da-b999-cf7ceb26f13e","system_id":"levelo_inurba_marseille","lat":43.33612,"lon":5.410321,"is_reserved":false,"is_disabled":false,"rental_uris":{"android":"levelo://app?vid=820bf453-c21d-40da-b999-cf7ceb26f13e","ios":"levelo://app?vid=820bf453-c21d-40da-b999-cf7ceb26f13e"},"vehicle_type_id":"4","last_reported":1700453366,"current_range_meters":20800,"station_id":"ce4bhqh2rcd13ifvqhmg","pricing_plan_id":"free"},{"bike_id":"b5dfed9a-5081-421c-aac0-95127032a7a0","system_id":"levelo_inurba_marseille","lat":43.33612,"lon":5.410321,"is_reserved":false,"is_disabled":false,"rental_uris":{"android":"levelo://app?vid=b5dfed9a-5081-421c-aac0-95127032a7a0","ios":"levelo://app?vid=b5dfed9a-5081-421c-aac0-95127032a7a0"},"vehicle_type_id":"4","last_reported":1700453366,"current_range_meters":31600,"station_id":"ce4bhqh2rcd13ifvqhmg","pricing_plan_id":"free"},{"bike_id":"a92d23bb-1057-4a39-9570-716e9b798b5d","system_id":"levelo_inurba_marseille","lat":43.275625,"lon":5.384392,"is_reserved":false,"is_disabled":false,"rental_uris":{"android":"levelo://app?vid=a92d23bb-1057-4a39-9570-716e9b798b5d","ios":"levelo://app?vid=a92d23bb-1057-4a39-9570-716e9b798b5d"},"vehicle_type_id":"4","last_reported":1700453366,"current_range_meters":28000,"station_id":"ce4bhh92rcd13ifvqfi0","pricing_plan_id":"free"},{"bike_id":"dec73f52-8ebd-406d-8694-3388896d0d7c","system_id":"levelo_inurba_marseille","lat":43.275625,"lon":5.384392,"is_reserved":false,"is_disabled":false,"rental_uris":{"android":"levelo://app?vid=dec73f52-8ebd-406d-8694-3388896d0d7c","ios":"levelo://app?vid=dec73f52-8ebd-406d-8694-3388896d0d7c"},"vehicle_type_id":"4","last_reported":1700453366,"current_range_meters":25200,"station_id":"ce4bhh92rcd13ifvqfi0","pricing_plan_id":"free"},{"bike_id":"5581f9e8-504c-4d2f-a780-7465313f92c2","system_id":"levelo_inurba_marseille","lat":43.336134,"lon":5.410341,"is_reserved":false,"is_disabled":false,"rental_uris":{"android":"levelo://app?vid=5581f9e8-504c-4d2f-a780-7465313f92c2","ios":"levelo://app?vid=5581f9e8-504c-4d2f-a780-7465313f92c2"},"vehicle_type_id":"4","last_reported":1700453366,"current_range_meters":25200,"station_id":"ce4bhqh2rcd13ifvqhmg","pricing_plan_id":"free"},{"bike_id":"6a93a014-1427-427d-b06c-a403bacb72b2","system_id":"levelo_inurba_marseille","lat":43.336134,"lon":5.410341,"is_reserved":false,"is_disabled":false,"rental_uris":{"android":"levelo://app?vid=6a93a014-1427-427d-b06c-a403bacb72b2","ios":"levelo://app?vid=6a93a014-1427-427d-b06c-a403bacb72b2"},"vehicle_type_id":"4","last_reported":1700453366,"current_range_meters":26800,"station_id":"ce4bhqh2rcd13ifvqhmg","pricing_plan_id":"free"},{"bike_id":"09598e6a-b738-4f12-ac60-d1462555796f","system_id":"levelo_inurba_marseille","lat":43.279952,"lon":5.400085,"is_reserved":false,"is_disabled":false,"rental_uris":{"android":"levelo://app?vid=09598e6a-b738-4f12-ac60-d1462555796f","ios":"levelo://app?vid=09598e6a-b738-4f12-ac60-d1462555796f"},"vehicle_type_id":"4","last_reported":1700453366,"current_range_meters":30000,"station_id":"ce4bho92rcd13ifvqh4g","pricing_plan_id":"free"},{"bike_id":"26e38500-cf06-412c-84c9-f57ade123ddf","system_id":"levelo_inurba_marseille","lat":43.27993,"lon":5.40017,"is_reserved":false,"is_disabled":false,"rental_uris":{"android":"levelo://app?vid=26e38500-cf06-412c-84c9-f57ade123ddf","ios":"levelo://app?vid=26e38500-cf06-412c-84c9-f57ade123ddf"},"vehicle_type_id":"4","last_reported":1700453366,"current_range_meters":31200,"station_id":"ce4bho92rcd13ifvqh4g","pricing_plan_id":"free"},{"bike_id":"8f64ab4c-e41b-42bc-8b04-fd401c60b361","system_id":"levelo_inurba_marseille","lat":43.279952,"lon":5.400085,"is_reserved":false,"is_disabled":false,"rental_uris":{"android":"levelo://app?vid=8f64ab4c-e41b-42bc-8b04-fd401c60b361","ios":"levelo://app?vid=8f64ab4c-e41b-42bc-8b04-fd401c60b361"},"vehicle_type_id":"4","last_reported":1700453366,"current_range_meters":31200,"station_id":"ce4bho92rcd13ifvqh4g","pricing_plan_id":"free"},{"bike_id":"130d76e3-8fce-46cb-8cc7-0c8a4297873b","system_id":"levelo_inurba_marseille","lat":43.310785,"lon":5.424305,"is_reserved":false,"is_disabled":false,"rental_uris":{"android":"levelo://app?vid=130d76e3-8fce-46cb-8cc7-0c8a4297873b","ios":"levelo://app?vid=130d76e3-8fce-46cb-8cc7-0c8a4297873b"},"vehicle_type_id":"4","last_reported":1700453366,"current_range_meters":28000,"station_id":"ce4bhp92rcd13ifvqhag","pricing_plan_id":"free"},{"bike_id":"f8f5619a-a183-461d-b100-453fb972fcd4","system_id":"levelo_inurba_marseille","lat":43.272118,"lon":5.391758,"is_reserved":false,"is_disabled":false,"rental_uris":{"android":"levelo://app?vid=f8f5619a-a183-461d-b100-453fb972fcd4","ios":"levelo://app?vid=f8f5619a-a183-461d-b100-453fb972fcd4"},"vehicle_type_id":"4","last_reported":1700453366,"current_range_meters":14800,"station_id":"ce4bhhp2rcd13ifvqfm0","pricing_plan_id":"free"},{"bike_id":"f0ed4531-078e-42fb-a007-3ed80505eb54","system_id":"levelo_inurba_marseille","lat":43.271891,"lon":5.392412,"is_reserved":false,"is_disabled":false,"rental_uris":{"android":"levelo://app?vid=f0ed4531-078e-42fb-a007-3ed80505eb54","ios":"levelo://app?vid=f0ed4531-078e-42fb-a007-3ed80505eb54"},"vehicle_type_id":"4","last_reported":1700453366,"current_range_meters":800,"station_id":"","pricing_plan_id":"free"},{"bike_id":"e8e0b2b6-a452-4c5b-a42e-75fe2c2ff459","system_id":"levelo_inurba_marseille","lat":43.27818,"lon":5.407075,"is_reserved":false,"is_disabled":false,"rental_uris":{"android":"levelo://app?vid=e8e0b2b6-a452-4c5b-a42e-75fe2c2ff459","ios":"levelo://app?vid=e8e0b2b6-a452-4c5b-a42e-75fe2c2ff459"},"vehicle_type_id":"4","last_reported":1700453366,"current_range_meters":31200,"station_id":"ce4bhnh2rcd13ifvqgtg","pricing_plan_id":"free"},{"bike_id":"5e1e74ef-1191-4f88-abc2-8533ac447e59","system_id":"levelo_inurba_marseille","lat":43.278128,"lon":5.407195,"is_reserved":false,"is_disabled":false,"rental_uris":{"android":"levelo://app?vid=5e1e74ef-1191-4f88-abc2-8533ac447e59","ios":"levelo://app?vid=5e1e74ef-1191-4f88-abc2-8533ac447e59"},"vehicle_type_id":"4","last_reported":1700453366,"current_range_meters":10800,"station_id":"ce4bhnh2rcd13ifvqgtg","pricing_plan_id":"free"},{"bike_id":"c905e957-df4d-418d-9b89-4091e59f9c28","system_id":"levelo_inurba_marseille","lat":43.278128,"lon":5.407195,"is_reserved":false,"is_disabled":false,"rental_uris":{"android":"levelo://app?vid=c905e957-df4d-418d-9b89-4091e59f9c28","ios":"levelo://app?vid=c905e957-df4d-418d-9b89-4091e59f9c28"},"vehicle_type_id":"4","last_reported":1700453366,"current_range_meters":28800,"station_id":"ce4bhnh2rcd13ifvqgtg","pricing_plan_id":"free"},{"bike_id":"e93711b2-3ed8-41b2-af7d-27f4a424297a","system_id":"levelo_inurba_marseille","lat":43.278128,"lon":5.407195,"is_reserved":false,"is_disabled":false,"rental_uris":{"android":"levelo://app?vid=e93711b2-3ed8-41b2-af7d-27f4a424297a","ios":"levelo://app?vid=e93711b2-3ed8-41b2-af7d-27f4a424297a"},"vehicle_type_id":"4","last_reported":1700453366,"current_range_meters":30800,"station_id":"ce4bhnh2rcd13ifvqgtg","pricing_plan_id":"free"},{"bike_id":"f9b41168-33d8-4a01-9cfe-c6147526c6af","system_id":"levelo_inurba_marseille","lat":43.278128,"lon":5.407195,"is_reserved":false,"is_disabled":false,"rental_uris":{"android":"levelo://app?vid=f9b41168-33d8-4a01-9cfe-c6147526c6af","ios":"levelo://app?vid=f9b41168-33d8-4a01-9cfe-c6147526c6af"},"vehicle_type_id":"4","last_reported":1700453366,"current_range_meters":10800,"station_id":"ce4bhnh2rcd13ifvqgtg","pricing_plan_id":"free"},{"bike_id":"009acd4d-8d8d-4608-b951-3f100344e398","system_id":"levelo_inurba_marseille","lat":43.279493,"lon":5.410457,"is_reserved":false,"is_disabled":false,"rental_uris":{"android":"levelo://app?vid=009acd4d-8d8d-4608-b951-3f100344e398","ios":"levelo://app?vid=009acd4d-8d8d-4608-b951-3f100344e398"},"vehicle_type_id":"4","last_reported":1700453366,"current_range_meters":28000,"station_id":"ce4bhnp2rcd13ifvqh0g","pricing_plan_id":"free"},{"bike_id":"139753b1-0b83-4c3a-80f1-5052bac15461","system_id":"levelo_inurba_marseille","lat":43.271043,"lon":5.393374,"is_reserved":false,"is_disabled":false,"rental_uris":{"android":"levelo://app?vid=139753b1-0b83-4c3a-80f1-5052bac15461","ios":"levelo://app?vid=139753b1-0b83-4c3a-80f1-5052bac15461"},"vehicle_type_id":"4","last_reported":1700453366,"current_range_meters":8400,"station_id":"","pricing_plan_id":"free"},{"bike_id":"eda35713-2d91-4d45-8887-2178060c317d","system_id":"levelo_inurba_marseille","lat":43.279465,"lon":5.410561,"is_reserved":false,"is_disabled":false,"rental_uris":{"android":"levelo://app?vid=eda35713-2d91-4d45-8887-2178060c317d","ios":"levelo://app?vid=eda35713-2d91-4d45-8887-2178060c317d"},"vehicle_type_id":"4","last_reported":1700453366,"current_range_meters":21200,"station_id":"ce4bhnp2rcd13ifvqh0g","pricing_plan_id":"free"},{"bike_id":"2cc58d44-a6fd-45a6-bd6e-9e0d2ffbc6b9","system_id":"levelo_inurba_marseille","lat":43.279441,"lon":5.410472,"is_reserved":false,"is_disabled":false,"rental_uris":{"android":"levelo://app?vid=2cc58d44-a6fd-45a6-bd6e-9e0d2ffbc6b9","ios":"levelo://app?vid=2cc58d44-a6fd-45a6-bd6e-9e0d2ffbc6b9"},"vehicle_type_id":"4","last_reported":1700453366,"current_range_meters":16400,"station_id":"ce4bhnp2rcd13ifvqh0g","pricing_plan_id":"free"},{"bike_id":"65b6befa-a620-45f5-ba6e-e961bacb7c3d","system_id":"levelo_inurba_marseille","lat":43.269319,"lon":5.389397,"is_reserved":false,"is_disabled":false,"rental_uris":{"android":"levelo://app?vid=65b6befa-a620-45f5-ba6e-e961bacb7c3d","ios":"levelo://app?vid=65b6befa-a620-45f5-ba6e-e961bacb7c3d"},"vehicle_type_id":"4","last_reported":1700453366,"current_range_meters":28800,"station_id":"ce4bhhh2rcd13ifvqfl0","pricing_plan_id":"free"},