{"last_updated":1700863596,"ttl":30,"version":"2.2","data":{"bikes":[{"bike_id":"ac82cc03-8a36-485c-a553-fd671067e196","system_id":"levelo_inurba_marseille","lat":43.31341,"lon":5.367098,"is_reserved":false,"is_disabled":false,"rental_uris":{"android":"levelo://app?vid=ac82cc03-8a36-485c-a553-fd671067e196","ios":"levelo://app?vid=ac82cc03-8a36-485c-a553-fd671067e196"},"vehicle_type_id":"4","last_reported":1700863596,"current_range_meters":28000,"station_id":"ce4bgr92rcd13ifvqc6g","pricing_plan_id":"free"},{"bike_id":"23e0f63c-9704-476c-993d-ee7c97d4c5d3","system_id":"levelo_inurba_marseille","lat":43.314811,"lon":5.373104,"is_reserved":false,"is_disabled":false,"rental_uris":{"android":"levelo://app?vid=23e0f63c-9704-476c-993d-ee7c97d4c5d3","ios":"levelo://app?vid=23e0f63c-9704-476c-993d-ee7c97d4c5d3"},"vehicle_type_id":"4","last_reported":1700863596,"current_range_meters":20800,"station_id":"ce4bgt12rcd13ifvqcd0","pricing_plan_id":"free"},{"bike_id":"a4e0b1c4-fb4d-49c8-a563-f861d7fbec6a","system_id":"levelo_inurba_marseille","lat":43.314811,"lon":5.373104,"is_reserved":false,"is_disabled":false,"rental_uris":{"android":"levelo://app?vid=a4e0b1c4-fb4d-49c8-a563-f861d7fbec6a","ios":"levelo://app?vid=a4e0b1c4-fb4d-49c8-a563-f861d7fbec6a"},"vehicle_type_id":"4","last_reported":1700863596,"current_range_meters":4000,"station_id":"ce4bgt12rcd13ifvqcd0","pricing_plan_id":"free"},{"bike_id":"e86ec09a-431c-4db9-89e9-f4647826db5b","system_id":"levelo_inurba_marseille","lat":43.309034,"lon":5.371783,"is_reserved":false,"is_disabled":false,"rental_uris":{"android":"levelo://app?vid=e86ec09a-431c-4db9-89e9-f4647826db5b","ios":"levelo://app?vid=e86ec09a-431c-4db9-89e9-f4647826db5b"},"vehicle_type_id":"4","last_reported":1700863596,"current_range_meters":4400,"station_id":"ce4bguh2rcd13ifvqckg","pricing_plan_id":"free"},{"bike_id":"0e3a20c0-fbe4-4be1-8a70-167c2d1fc9f6","system_id":"levelo_inurba_marseille","lat":43.305235,"lon":5.365638,"is_reserved":false,"is_disabled":false,"rental_uris":{"android":"levelo://app?vid=0e3a20c0-fbe4-4be1-8a70-167c2d1fc9f6","ios":"levelo://app?vid=0e3a20c0-fbe4-4be1-8a70-167c2d1fc9f6"},"vehicle_type_id":"4","last_reported":1700863596,"current_range_meters":1600,"station_id":"","pricing_plan_id":"free"},{"bike_id":"81c549ae-2094-41da-b799-f1422c94ffe2","system_id":"levelo_inurba_marseille","lat":43.305989,"lon":5.37225,"is_reserved":false,"is_disabled":false,"rental_uris":{"android":"levelo://app?vid=81c549ae-2094-41da-b799-f1422c94ffe2","ios":"levelo://app?vid=81c549ae-2094-41da-b799-f1422c94ffe2"},"vehicle_type_id":"4","last_reported":1700863596,"current_range_meters":24800,"station_id":"ce4bgqh2rcd13ifvqc4g","pricing_plan_id":"free"},{"bike_id":"5d222eb2-0360-4ec1-a896-f18ef9ec1751","system_id":"levelo_inurba_marseille","lat":43.305989,"lon":5.37225,"is_reserved":false,"is_disabled":false,"rental_uris":{"android":"levelo://app?vid=5d222eb2-0360-4ec1-a896-f18ef9ec1751","ios":"levelo://app?vid=5d222eb2-0360-4ec1-a896-f18ef9ec1751"},"vehicle_type_id":"4","last_reported":1700863596,"current_range_meters":19200,"station_id":"ce4bgqh2rcd13ifvqc4g","pricing_plan_id":"free"},{"bike_id":"60b937cc-43c5-4345-8f68-e4e85f65bd40","system_id":"levelo_inurba_marseille","lat":43.305989,"lon":5.37225,"is_reserved":false,"is_disabled":false,"rental_uris":{"android":"levelo://app?vid=60b937cc-43c5-4345-8f68-e4e85f65bd40","ios":"levelo://app?vid=60b937cc-43c5-4345-8f68-e4e85f65bd40"},"vehicle_type_id":"4","last_reported":1700863596,"current_range_meters":8000,"station_id":"ce4bgqh2rcd13ifvqc4g","pricing_plan_id":"free"},{"bike_id":"4f42c2e8-e45b-4b94-9dab-4e9525bc01d1","system_id":"levelo_inurba_marseille","lat":43.305989,"lon":5.37225,"is_reserved":false,"is_disabled":false,"rental_uris":{"android":"levelo://app?vid=4f42c2e8-e45b-4b94-9dab-4e9525bc01d1","ios":"levelo://app?vid=4f42c2e8-e45b-4b94-9dab-4e9525bc01d1"},"vehicle_type_id":"4","last_reported":1700863596,"current_range_meters":9600,"station_id":"ce4bgqh2rcd13ifvqc4g","pricing_plan_id":"free"},{"bike_id":"88165674-900a-4f46-91f0-308358f64ba1","system_id":"levelo_inurba_marseille","lat":43.305989,"lon":5.37225,"is_reserved":false,"is_disabled":false,"rental_uris":{"android":"levelo://app?vid=88165674-900a-4f46-91f0-308358f64ba1","ios":"levelo://app?vid=88165674-900a-4f46-91f0-308358f64ba1"},"vehicle_type_id":"4","last_reported":1700863596,"current_range_meters":26000,"station_id":"ce4bgqh2rcd13ifvqc4g","pricing_plan_id":"free"},{"bike_id":"804020a9-5ed3-4d6c-8c22-5db46b525424","system_id":"levelo_inurba_marseille","lat":43.31113,"lon":5.37776,"is_reserved":false,"is_disabled":false,"rental_uris":{"android":"levelo://app?vid=804020a9-5ed3-4d6c-8c22-5db46b525424","ios":"levelo://app?vid=804020a9-5ed3-4d6c-8c22-5db46b525424"},"vehicle_type_id":"4","last_reported":1700863596,"current_range_meters":14400,"station_id":"ce4bgt92rcd13ifvqcg0","pricing_plan_id":"free"},{"bike_id":"573a870a-b6c4-429d-8587-8103772b84bc","system_id":"levelo_inurba_marseille","lat":43.308186,"lon":5.376616,"is_reserved":false,"is_disabled":false,"rental_uris":{"android":"levelo://app?vid=573a870a-b6c4-429d-8587-8103772b84bc","ios":"levelo://app?vid=573a870a-b6c4-429d-8587-8103772b84bc"},"vehicle_type_id":"4","last_reported":1700863596,"current_range_meters":7200,"station_id":"ce4bgv92rcd13ifvqcq0","pricing_plan_id":"free"},{"bike_id":"f427a2c3-6e4a-446b-ae2f-9be8aa7f4122","system_id":"levelo_inurba_marseille","lat":43.31719,"lon":5.376813,"is_reserved":false,"is_disabled":false,"rental_uris":{"android":"levelo://app?vid=f427a2c3-6e4a-446b-ae2f-9be8aa7f4122","ios":"levelo://app?vid=f427a2c3-6e4a-446b-ae2f-9be8aa7f4122"},"vehicle_type_id":"4","last_reported":1700863596,"current_range_meters":27200,"station_id":"ce4bgth2rcd13ifvqch0","pricing_plan_id":"free"},{"bike_id":"b898b018-f57d-4901-bab2-fdd15d391de9","system_id":"levelo_inurba_marseille","lat":43.317168,"lon":5.376883,"is_reserved":false,"is_disabled":false,"rental_uris":{"android":"levelo://app?vid=b898b018-f57d-4901-bab2-fdd15d391de9","ios":"levelo://app?vid=b898b018-f57d-4901-bab2-fdd15d391de9"},"vehicle_type_id":"4","last_reported":1700863596,"current_range_meters":29600,"station_id":"ce4bgth2rcd13ifvqch0","pricing_plan_id":"free"},{"bike_id":"81af5a1c-2ee6-4565-89b5-e0651d4768cc","system_id":"levelo_inurba_marseille","lat":43.3061,"lon":5.37647,"is_reserved":false,"is_disabled":false,"rental_uris":{"android":"levelo://app?vid=81af5a1c-2ee6-4565-89b5-e0651d4768cc","ios":"levelo://app?vid=81af5a1c-2ee6-4565-89b5-e0651d4768cc"},"vehicle_type_id":"4","last_reported":1700863596,"current_range_meters":0,"station_id":"","pricing_plan_id":"free"},{"bike_id":"0109dba6-d5bd-4ae3-815d-4c101d8be0c5","system_id":"levelo_inurba_marseille","lat":43.30272,"lon":5.36906,"is_reserved":false,"is_disabled":false,"rental_uris":{"android":"levelo://app?vid=0109dba6-d5bd-4ae3-815d-4c101d8be0c5","ios":"levelo://app?vid=0109dba6-d5bd-4ae3-815d-4c101d8be0c5"},"vehicle_type_id":"4","last_reported":1700863596,"current_range_meters":19600,"station_id":"","pricing_plan_id":"free"},{"bike_id":"e68040f5-b8ba-4689-8298-158f1816e66c","system_id":"levelo_inurba_marseille","lat":43.301939,"lon":5.366286,"is_reserved":false,"is_disabled":false,"rental_uris":{"android":"levelo://app?vid=e68040f5-b8ba-4689-8298-158f1816e66c","ios":"levelo://app?vid=e68040f5-b8ba-4689-8298-158f1816e66c"},"vehicle_type_id":"4","last_reported":1700863596,"current_range_meters":4000,"station_id":"ce4bgrh2rcd13ifvqc8g","pricing_plan_id":"free"},{"bike_id":"40651570-2caa-481e-83f2-ed9b577fc84a","system_id":"levelo_inurba_marseille","lat":43.323155,"lon":5.374603,"is_reserved":false,"is_disabled":false,"rental_uris":{"android":"levelo://app?vid=40651570-2caa-481e-83f2-ed9b577fc84a","ios":"levelo://app?vid=40651570-2caa-481e-83f2-ed9b577fc84a"},"vehicle_type_id":"4","last_reported":1700863596,"current_range_meters":12400,"station_id":"","pricing_plan_id":"free"},{"bike_id":"bbd7c10c-db03-4741-a6c8-89f1871a4335","system_id":"levelo_inurba_marseille","lat":43.30408,"lon":5.378129,"is_reserved":false,"is_disabled":false,"rental_uris":{"android":"levelo://app?vid=bbd7c10c-db03-4741-a6c8-89f1871a4335","ios":"levelo://app?vid=bbd7c10c-db03-4741-a6c8-89f1871a4335"},"vehicle_type_id":"4","last_reported":1700863596,"current_range_meters":0,"station_id":"","pricing_plan_id":"free"},{"bike_id":"ee7b2315-1ca6-4f8e-a62a-6313cf5cda28","system_id":"levelo_inurba_marseille","lat":43.324771,"lon":5.36557,"is_reserved":false,"is_disabled":false,"rental_uris":{"android":"levelo://app?vid=ee7b2315-1ca6-4f8e-a62a-6313cf5cda28","ios":"levelo://app?vid=ee7b2315-1ca6-4f8e-a62a-6313cf5cda28"},"vehicle_type_id":"4","last_reported":1700863596,"current_range_meters":15600,"station_id":"ce4bhs12rcd13ifvqhvg","pricing_plan_id":"free"},{"bike_id":"babfdd7e-6cd2-4e72-8866-ac8539f5db7f","system_id":"levelo_inurba_marseille","lat":43.319946,"lon":5.381584,"is_reserved":false,"is_disabled":false,"rental_uris":{"android":"levelo://app?vid=babfdd7e-6cd2-4e72-8866-ac8539f5db7f","ios":"levelo://app?vid=babfdd7e-6cd2-4e72-8866-ac8539f5db7f"},"vehicle_type_id":"4","last_reported":1700863596,"current_range_meters":400,"station_id":"ce4bhr12rcd13ifvqhpg","pricing_plan_id":"free"},{"bike_id":"586d22ba-db2e-4f71-880f-36c0020a490f","system_id":"levelo_inurba_marseille","lat":43.313571,"lon":5.384829,"is_reserved":false,"is_disabled":false,"rental_uris":{"android":"levelo://app?vid=586d22ba-db2e-4f71-880f-36c0020a490f","ios":"levelo://app?vid=586d22ba-db2e-4f71-880f-36c0020a490f"},"vehicle_type_id":"4","last_reported":1700863596,"current_range_meters":20000,"station_id":"ce4bgt92rcd13ifvqcf0","pricing_plan_id":"free"},{"bike_id":"145804e6-eeb6-4fa8-a158-6396f208dd71","system_id":"levelo_inurba_marseille","lat":43.313571,"lon":5.384829,"is_reserved":false,"is_disabled":false,"rental_uris":{"android":"levelo://app?vid=145804e6-eeb6-4fa8-a158-6396f208dd71","ios":"levelo://app?vid=145804e6-eeb6-4fa8-a158-6396f208dd71"},"vehicle_type_id":"4","last_reported":1700863596,"current_range_meters":26000,"station_id":"ce4bgt92rcd13ifvqcf0","pricing_plan_id":"free"},{"bike_id":"7e752e1c-eb19-454a-b0bb-991905bc52a8","system_id":"levelo_inurba_marseille","lat":43.313571,"lon":5.384829,"is_reserved":false,"is_disabled":false,"rental_uris":{"android":"levelo://app?vid=7e752e1c-eb19-454a-b0bb-991905bc52a8","ios":"levelo://app?vid=7e752e1c-eb19-454a-b0bb-991905bc52a8"},"vehicle_type_id":"4","last_reported":1700863596,"current_range_meters":8000,"station_id":"ce4bgt92rcd13ifvqcf0","pricing_plan_id":"free"},{"bike_id":"4c1162cd-f57a-438a-bcb7-348367a19309","system_id":"levelo_inurba_marseille","lat":43.313571,"lon":5.384829,"is_reserved":false,"is_disabled":false,"rental_uris":{"android":"levelo://app?vid=4c1162cd-f57a-438a-bcb7-348367a19309","ios":"levelo://app?vid=4c1162cd-f57a-438a-bcb7-348367a19309"},"vehicle_type_id":"4","last_reported":1700863596,"current_range_meters":17200,"station_id":"ce4bgt92rcd13ifvqcf0","pricing_plan_id":"free"},{"bike_id":"d3044786-2431-4822-96f8-37c5954b4b4c","system_id":"levelo_inurba_marseille","lat":43.32296,"lon":5.37864,"is_reserved":false,"is_disabled":false,"rental_uris":{"android":"levelo://app?vid=d3044786-2431-4822-96f8-37c5954b4b4c","ios":"levelo://app?vid=d3044786-2431-4822-96f8-37c5954b4b4c"},"vehicle_type_id":"4","last_reported":1700863596,"current_range_meters":29200,"station_id":"","pricing_plan_id":"free"},{"bike_id":"d67ff8e9-2803-412b-a696-e7bd9b97f8cd","system_id":"levelo_inurba_marseille","lat":43.299724,"lon":5.371829,"is_reserved":false,"is_disabled":false,"rental_uris":{"android":"levelo://app?vid=d67ff8e9-2803-412b-a696-e7bd9b97f8cd","ios":"levelo://app?vid=d67ff8e9-2803-412b-a696-e7bd9b97f8cd"},"vehicle_type_id":"4","last_reported":1700863596,"current_range_meters":22400,"station_id":"ce4bgr92rcd13ifvqc7g","pricing_plan_id":"free"},{"bike_id":"3cf7df4e-117c-401f-a50b-b48096222f3f","system_id":"levelo_inurba_marseille","lat":43.299353,"lon":5.36534,"is_reserved":false,"is_disabled":false,"rental_uris":{"android":"levelo://app?vid=3cf7df4e-117c-401f-a50b-b48096222f3f","ios":"levelo://app?vid=3cf7df4e-117c-401f-a50b-b48096222f3f"},"vehicle_type_id":"4","last_reported":1700863596,"current_range_meters":0,"station_id":"ce4bgm92rcd13ifvqbr0","pricing_plan_id":"free"},{"bike_id":"d650aada-9793-42c7-bec4-60a6a4128b73","system_id":"levelo_inurba_marseille","lat":43.299222,"lon":5.365554,"is_reserved":false,"is_disabled":false,"rental_uris":{"android":"levelo://app?vid=d650aada-9793-42c7-bec4-60a6a4128b73","ios":"levelo://app?vid=d650aada-9793-42c7-bec4-60a6a4128b73"},"vehicle_type_id":"4","last_reported":1700863596,"current_range_meters":30000,"station_id":"ce4bgm92rcd13ifvqbr0","pricing_plan_id":"free"},{"bike_id":"7da68528-02c6-41e2-920b-13c34e46622d","system_id":"levelo_inurba_marseille","lat":43.299724,"lon":5.371829,"is_reserved":false,"is_disabled":false,"rental_uris":{"android":"levelo://app?vid=7da68528-02c6-41e2-920b-13c34e46622d","ios":"levelo://app?vid=7da68528-02c6-41e2-920b-13c34e46622d"},"vehicle_type_id":"4","last_reported":1700863596,"current_range_meters":8400,"station_id":"ce4bgr92rcd13ifvqc7g","pricing_plan_id":"free"},{"bike_id":"8eccf735-9f13-4d66-89ee-04a7bf59eec2","system_id":"levelo_inurba_marseille","lat":43.320688,"lon":5.383055,"is_reserved":false,"is_disabled":false,"rental_uris":{"android":"levelo://app?vid=8eccf735-9f13-4d66-89ee-04a7bf59eec2","ios":"levelo://app?vid=8eccf735-9f13-4d66-89ee-04a7bf59eec2"},"vehicle_type_id":"4","last_reported":1700863596,"current_range_meters":30400,"station_id":"","pricing_plan_id":"free"},{"bike_id":"799f10c9-81c3-4d79-a9aa-505ce434ae93","system_id":"levelo_inurba_marseille","lat":43.298433,"lon":5.362774,"is_reserved":false,"is_disabled":false,"rental_uris":{"android":"levelo://app?vid=799f10c9-81c3-4d79-a9aa-505ce434ae93","ios":"levelo://app?vid=799f10c9-81c3-4d79-a9aa-505ce434ae93"},"vehicle_type_id":"4","last_reported":1700863596,"current_range_meters":27200,"station_id":"ce4bgpp2rcd13ifvqc3g","pricing_plan_id":"free"},{"bike_id":"e226b742-1fae-4fad-b3b4-c5cdf0529d58","system_id":"levelo_inurba_marseille","lat":43.305364,"lon":5.384119,"is_reserved":false,"is_disabled":false,"rental_uris":{"android":"levelo://app?vid=e226b742-1fae-4fad-b3b4-c5cdf0529d58","ios":"levelo://app?vid=e226b742-1fae-4fad-b3b4-c5cdf0529d58"},"vehicle_type_id":"4","last_reported":1700863596,"current_range_meters":12000,"station_id":"ce4bgg92rcd13ifvqb30","pricing_plan_id":"free"},{"bike_id":"a54b949d-a7c0-4aa1-887f-e3d605343fe5","system_id":"levelo_inurba_marseille","lat":43.299243,"lon":5.37481,"is_reserved":false,"is_disabled":false,"rental_uris":{"android":"levelo://app?vid=a54b949d-a7c0-4aa1-887f-e3d605343fe5","ios":"levelo://app?vid=a54b949d-a7c0-4aa1-887f-e3d605343fe5"},"vehicle_type_id":"4","last_reported":1700863596,"current_range_meters":4400,"station_id":"ce4bgjh2rcd13ifvqbg0","pricing_plan_id":"free"},{"bike_id":"c8910587-c1eb-432b-b8b9-cf97fbce2acb","system_id":"levelo_inurba_marseille","lat":43.299243,"lon":5.37481,"is_reserved":false,"is_disabled":false,"rental_uris":{"android":"levelo://app?vid=c8910587-c1eb-432b-b8b9-cf97fbce2acb","ios":"levelo://app?vid=c8910587-c1eb-432b-b8b9-cf97fbce2acb"},"vehicle_type_id":"4","last_reported":1700863596,"current_range_meters":0,"station_id":"ce4bgjh2rcd13ifvqbg0","pricing_plan_id":"free"},{"bike_id":"1a40b385-68ba-48d5-a1cb-20965b2f9dc5","system_id":"levelo_inurba_marseille","lat":43.32039,"lon":5.384199,"is_reserved":false,"is_disabled":false,"rental_uris":{"android":"levelo://app?vid=1a40b385-68ba-48d5-a1cb-20965b2f9dc5","ios":"levelo://app?vid=1a40b385-68ba-48d5-a1cb-20965b2f9dc5"},"vehicle_type_id":"4","last_reported":1700863596,"current_range_meters":1200,"station_id":"","pricing_plan_id":"free"},{"bike_id":"4b4bedd7-3192-45ab-8c28-c9680ebac115","system_id":"levelo_inurba_marseille","lat":43.311722,"lon":5.387247,"is_reserved":false,"is_disabled":false,"rental_uris":{"android":"levelo://app?vid=4b4bedd7-3192-45ab-8c28-c9680ebac115","ios":"levelo://app?vid=4b4bedd7-3192-45ab-8c28-c9680ebac115"},"vehicle_type_id":"4","last_reported":1700863596,"current_range_meters":1600,"station_id":"ce4bgv12rcd13ifvqcp0","pricing_plan_id":"free"},{"bike_id":"4ce94ea1-8710-44bd-bb2b-7a04f49093ed","system_id":"levelo_inurba_marseille","lat":43.299243,"lon":5.37481,"is_reserved":false,"is_disabled":false,"rental_uris":{"android":"levelo://app?vid=4ce94ea1-8710-44bd-bb2b-7a04f49093ed","ios":"levelo://app?vid=4ce94ea1-8710-44bd-bb2b-7a04f49093ed"},"vehicle_type_id":"4","last_reported":1700863596,"current_range_meters":7200,"station_id":"ce4bgjh2rcd13ifvqbg0","pricing_plan_id":"free"},{"bike_id":"983d57ef-2fbd-4185-966a-a312f52fb3b0","system_id":"levelo_inurba_marseille","lat":43.311722,"lon":5.387247,"is_reserved":false,"is_disabled":false,"rental_uris":{"android":"levelo://app?vid=983d57ef-2fbd-4185-966a-a312f52fb3b0","ios":"levelo://app?vid=983d57ef-2fbd-4185-966a-a312f52fb3b0"},"vehicle_type_id":"4","last_reported":1700863596,"current_range_meters":2800,"station_id":"ce4bgv12rcd13ifvqcp0","pricing_plan_id":"free"},{"bike_id":"84da071e-5a75-47e3-a108-7b29d85f83d1","system_id":"levelo_inurba_marseille","lat":43.297794,"lon":5.370888,"is_reserved":false,"is_disabled":false,"rental_uris":{"android":"levelo://app?vid=84da071e-5a75-47e3-a108-7b29d85f83d1","ios":"levelo://app?vid=84da071e-5a75-47e3-a108-7b29d85f83d1"},"vehicle_type_id":"4","last_reported":1700863596,"current_range_meters":25600,"station_id":"ce4bgop2rcd13ifvqc1g","pricing_plan_id":"free"},{"bike_id":"7c93eefc-07fe-4a09-b42f-ee22a5cbe113","system_id":"levelo_inurba_marseille","lat":43.322872,"lon":5.382756,"is_reserved":false,"is_disabled":false,"rental_uris":{"android":"levelo://app?vid=7c93eefc-07fe-4a09-b42f-ee22a5cbe113","ios":"levelo://app?vid=7c93eefc-07fe-4a09-b42f-ee22a5cbe113"},"vehicle_type_id":"4","last_reported":1700863596,"current_range_meters":26400,"station_id":"ce4bhr12rcd13ifvqhqg","pricing_plan_id":"free"},{"bike_id":"f8736720-e966-45a6-a671-1e9c1c844291","system_id":"levelo_inurba_marseille","lat":43.322872,"lon":5.382756,"is_reserved":false,"is_disabled":false,"rental_uris":{"android":"levelo://app?vid=f8736720-e966-45a6-a671-1e9c1c844291","ios":"levelo://app?vid=f8736720-e966-45a6-a671-1e9c1c844291"},"vehicle_type_id":"4","last_reported":1700863596,"current_range_meters":25600,"station_id":"ce4bhr12rcd13ifvqhqg","pricing_plan_id":"free"},{"bike_id":"57f07daa-f979-41b2-bf81-49ff7a829b2a","system_id":"levelo_inurba_marseille","lat":43.322878,"lon":5.382668,"is_reserved":false,"is_disabled":false,"rental_uris":{"android":"levelo://app?vid=57f07daa-f979-41b2-bf81-49ff7a829b2a","ios":"levelo://app?vid=57f07daa-f979-41b2-bf81-49ff7a829b2a"},"vehicle_type_id":"4","last_reported":1700863596,"current_range_meters":30800,"station_id":"ce4bhr12rcd13ifvqhqg","pricing_plan_id":"free"},{"bike_id":"f9ce9c3f-5ce0-442f-986c-f1a94ddddd6a","system_id":"levelo_inurba_marseille","lat":43.322872,"lon":5.382756,"is_reserved":false,"is_disabled":false,"rental_uris":{"android":"levelo://app?vid=f9ce9c3f-5ce0-442f-986c-f1a94ddddd6a","ios":"levelo://app?vid=f9ce9c3f-5ce0-442f-986c-f1a94ddddd6a"},"vehicle_type_id":"4","last_reported":1700863596,"current_range_meters":30800,"station_id":"ce4bhr12rcd13ifvqhqg","pricing_plan_id":"free"},{"bike_id":"4625bec6-4af3-44cb-8699-3acd72afd201","system_id":"levelo_inurba_marseille","lat":43.322872,"lon":5.382756,"is_reserved":false,"is_disabled":false,"rental_uris":{"android":"levelo://app?vid=4625bec6-4af3-44cb-8699-3acd72afd201","ios":"levelo://app?vid=4625bec6-4af3-44cb-8699-3acd72afd201"},"vehicle_type_id":"4","last_reported":1700863596,"current_range_meters":22800,"station_id":"ce4bhr12rcd13ifvqhqg","pricing_plan_id":"free"},{"bike_id":"1a43851e-90fe-4bd3-bf83-8e67c213fe9f","system_id":"levelo_inurba_marseille","lat":43.322872,"lon":5.382756,"is_reserved":false,"is_disabled":false,"rental_uris":{"android":"levelo://app?vid=1a43851e-90fe-4bd3-bf83-8e67c213fe9f","ios":"levelo://app?vid=1a43851e-90fe-4bd3-bf83-8e67c213fe9f"},"vehicle_type_id":"4","last_reported":1700863596,"current_range_meters":28800,"station_id":"ce4bhr12rcd13ifvqhqg","pricing_plan_id":"free"},{"bike_id":"e275a45c-bfaf-4d19-897d-782d652e5c0c","system_id":"levelo_inurba_marseille","lat":43.32823,"lon":5.3668,"is_reserved":false,"is_disabled":false,"rental_uris":{"android":"levelo://app?vid=e275a45c-bfaf-4d19-897d-782d652e5c0c","ios":"levelo://app?vid=e275a45c-bfaf-4d19-897d-782d652e5c0c"},"vehicle_type_id":"4","last_reported":1700863596,"current_range_meters":20000,"station_id":"ce4bhs92rcd13ifvqi0g","pricing_plan_id":"free"},{"bike_id":"fdffc56c-47ba-4d10-9ef9-e94b4010e28f","system_id":"levelo_inurba_marseille","lat":43.297163,"lon":5.365866,"is_reserved":false,"is_disabled":false,"rental_uris":{"android":"levelo://app?vid=fdffc56c-47ba-4d10-9ef9-e94b4010e28f","ios":"levelo://app?vid=fdffc56c-47ba-4d10-9ef9-e94b4010e28f"},"vehicle_type_id":"4","last_reported":1700863596,"current_range_meters":1600,"station_id":"ce4bgn12rcd13ifvqbt0","pricing_plan_id":"free"},{"bike_id":"4c54ad9a-2574-4e1d-93be-a40f89776946","system_id":"levelo_inurba_marseille","lat":43.29706,"lon":5.36626,"is_reserved":false,"is_disabled":false,"rental_uris":{"android":"levelo://app?vid=4c54ad9a-2574-4e1d-93be-a40f89776946","ios":"levelo://app?vid=4c54ad9a-2574-4e1d-93be-a40f89776946"},"vehicle_type_id":"4","last_reported":1700863596,"current_range_meters":24800,"station_id":"ce4bgn12rcd13ifvqbt0","pricing_plan_id":"free"},{"bike_id":"4d7509f5-9559-42ca-a60d-bef9e80f0981","system_id":"levelo_inurba_marseille","lat":43.2996,"lon":5.37917,"is_reserved":false,"is_disabled":false,"rental_uris":{"android":"levelo://app?vid=4d7509f5-9559-42ca-a60d-bef9e80f0981","ios":"levelo://app?vid=4d7509f5-9559-42ca-a60d-bef9e80f0981"},"vehicle_type_id":"4","last_reported":1700863596,"current_range_meters":0,"station_id":"","pricing_plan_id":"free"},{"bike_id":"a4603200-a956-4b27-bc52-8f22fc00857f","system_id":"levelo_inurba_marseille","lat":43.29602,"lon":5.36826,"is_reserved":false,"is_disabled":false,"rental_uris":{"android":"levelo://app?vid=a4603200-a956-4b27-bc52-8f22fc00857f","ios":"levelo://app?vid=a4603200-a956-4b27-bc52-8f22fc00857f"},"vehicle_type_id":"4","last_reported":1700863596,"current_range_meters":12400,"station_id":"","pricing_plan_id":"free"},{"bike_id":"948a1e94-182f-4509-be65-399a07623263","system_id":"levelo_inurba_marseille","lat":43.295897,"lon":5.367263,"is_reserved":false,"is_disabled":false,"rental_uris":{"android":"levelo://app?vid=948a1e94-182f-4509-be65-399a07623263","ios":"levelo://app?vid=948a1e94-182f-4509-be65-399a07623263"},"vehicle_type_id":"4","last_reported":1700863596,"current_range_meters":11200,"station_id":"ce4bgph2rcd13ifvqc2g","pricing_plan_id":"free"},{"bike_id":"a9170ce1-2d6d-4e53-b904-68c979d78470","system_id":"levelo_inurba_marseille","lat":43.309589,"lon":5.390258,"is_reserved":false,"is_disabled":false,"rental_uris":{"android":"levelo://app?vid=a9170ce1-2d6d-4e53-b904-68c979d78470","ios":"levelo://app?vid=a9170ce1-2d6d-4e53-b904-68c979d78470"},"vehicle_type_id":"4","last_reported":1700863596,"current_range_meters":22400,"station_id":"ce4bgup2rcd13ifvqco0","pricing_plan_id":"free"},{"bike_id":"656459cf-498f-49a1-bb2c-2df4545f7de5","system_id":"levelo_inurba_marseille","lat":43.317566,"lon":5.390199,"is_reserved":false,"is_disabled":false,"rental_uris":{"android":"levelo://app?vid=656459cf-498f-49a1-bb2c-2df4545f7de5","ios":"levelo://app?vid=656459cf-498f-49a1-bb2c-2df4545f7de5"},"vehicle_type_id":"4","last_reported":1700863596,"current_range_meters":27600,"station_id":"ce4bhqp2rcd13ifvqhng","pricing_plan_id":"free"},{"bike_id":"b6ee9bcc-0fbd-43f3-aa80-cf4a5aabf6ef","system_id":"levelo_inurba_marseille","lat":43.304274,"lon":5.388873,"is_reserved":false,"is_disabled":false,"rental_uris":{"android":"levelo://app?vid=b6ee9bcc-0fbd-43f3-aa80-cf4a5aabf6ef","ios":"levelo://app?vid=b6ee9bcc-0fbd-43f3-aa80-cf4a5aabf6ef"},"vehicle_type_id":"4","last_reported":1700863596,"current_range_meters":12000,"station_id":"ce4bgk12rcd13ifvqbi0","pricing_plan_id":"free"},{"bike_id":"de41b2c3-5cee-45ee-8197-36b2b9ab5409","system_id":"levelo_inurba_marseille","lat":43.295346,"lon":5.375027,"is_reserved":false,"is_disabled":false,"rental_uris":{"android":"levelo://app?vid=de41b2c3-5cee-45ee-8197-36b2b9ab5409","ios":"levelo://app?vid=de41b2c3-5cee-45ee-8197-36b2b9ab5409"},"vehicle_type_id":"4","last_reported":1700863596,"current_range_meters":31200,"station_id":"ce4bgkp2rcd13ifvqbmg","pricing_plan_id":"free"},{"bike_id":"a2f4e33d-951a-4f4d-89cf-e3da3f04dd7b","system_id":"levelo_inurba_marseille","lat":43.299707,"lon":5.384859,"is_reserved":false,"is_disabled":false,"rental_uris":{"android":"levelo://app?vid=a2f4e33d-951a-4f4d-89cf-e3da3f04dd7b","ios":"levelo://app?vid=a2f4e33d-951a-4f4d-89cf-e3da3f04dd7b"},"vehicle_type_id":"4","last_reported":1700863596,"current_range_meters":14800,"station_id":"ce4bgj92rcd13ifvqbd0","pricing_plan_id":"free"},{"bike_id":"41d5517e-a92d-4e8c-bd92-f394cd9db40b","system_id":"levelo_inurba_marseille","lat":43.295139,"lon":5.374908,"is_reserved":false,"is_disabled":false,"rental_uris":{"android":"levelo://app?vid=41d5517e-a92d-4e8c-bd92-f394cd9db40b","ios":"levelo://app?vid=41d5517e-a92d-4e8c-bd92-f394cd9db40b"},"vehicle_type_id":"4","last_reported":1700863596,"current_range_meters":30000,"station_id":"ce4bgkp2rcd13ifvqbmg","pricing_plan_id":"free"},{"bike_id":"ff822368-00cb-4dfa-8697-959628b6f270","system_id":"levelo_inurba_marseille","lat":43.330373,"lon":5.358894,"is_reserved":false,"is_disabled":false,"rental_uris":{"android":"levelo://app?vid=ff822368-00cb-4dfa-8697-959628b6f270","ios":"levelo://app?vid=ff822368-00cb-4dfa-8697-959628b6f270"},"vehicle_type_id":"4","last_reported":1700863596,"current_range_meters":20000,"station_id":"","pricing_plan_id":"free"},{"bike_id":"6b621983-5e9e-42f7-990d-ad5a093820d2","system_id":"levelo_inurba_marseille","lat":43.293801,"lon":5.363066,"is_reserved":false,"is_disabled":false,"rental_uris":{"android":"levelo://app?vid=6b621983-5e9e-42f7-990d-ad5a093820d2","ios":"levelo://app?vid=6b621983-5e9e-42f7-990d-ad5a093820d2"},"vehicle_type_id":"4","last_reported":1700863596,"current_range_meters":3200,"station_id":"","pricing_plan_id":"free"},{"bike_id":"3579b072-efa9-4e62-b324-30ad6abef829","system_id":"levelo_inurba_marseille","lat":43.32367,"lon":5.388836,"is_reserved":false,"is_disabled":false,"rental_uris":{"android":"levelo://app?vid=3579b072-efa9-4e62-b324-30ad6abef829","ios":"levelo://app?vid=3579b072-efa9-4e62-b324-30ad6abef829"},"vehicle_type_id":"4","last_reported":1700863596,"current_range_meters":25600,"station_id":"ce4bhqp2rcd13ifvqhog","pricing_plan_id":"free"},{"bike_id":"52c17f8d-4940-4eb4-bdb7-7f33613db31f","system_id":"levelo_inurba_marseille","lat":43.293259,"lon":5.371586,"is_reserved":false,"is_disabled":false,"rental_uris":{"android":"levelo://app?vid=52c17f8d-4940-4eb4-bdb7-7f33613db31f","ios":"levelo://app?vid=52c17f8d-4940-4eb4-bdb7-7f33613db31f"},"vehicle_type_id":"4","last_reported":1700863596,"current_range_meters":20400,"station_id":"ce4bgh92rcd13ifvqb40","pricing_plan_id":"free"},{"bike_id":"5dd64787-043c-42b7-94fa-40309e1063ab","system_id":"levelo_inurba_marseille","lat":43.292749,"lon":5.368402,"is_reserved":false,"is_disabled":false,"rental_uris":{"android":"levelo://app?vid=5dd64787-043c-42b7-94fa-40309e1063ab","ios":"levelo://app?vid=5dd64787-043c-42b7-94fa-40309e1063ab"},"vehicle_type_id":"4","last_reported":1700863596,"current_range_meters":31200,"station_id":"ce4bhbp2rcd13ifvqesg","pricing_plan_id":"free"},{"bike_id":"8e282774-dc1e-4759-ac4a-ebd42052cacd","system_id":"levelo_inurba_marseille","lat":43.293249,"lon":5.371578,"is_reserved":false,"is_disabled":false,"rental_uris":{"android":"levelo://app?vid=8e282774-dc1e-4759-ac4a-ebd42052cacd","ios":"levelo://app?vid=8e282774-dc1e-4759-ac4a-ebd42052cacd"},"vehicle_type_id":"4","last_reported":1700863596,"current_range_meters":26800,"station_id":"ce4bgh92rcd13ifvqb40","pricing_plan_id":"free"},{"bike_id":"03340b38-64de-4eb6-9d8b-97462c088ac7","system_id":"levelo_inurba_marseille","lat":43.292709,"lon":5.368381,"is_reserved":false,"is_disabled":false,"rental_uris":{"android":"levelo://app?vid=03340b38-64de-4eb6-9d8b-97462c088ac7","ios":"levelo://app?vid=03340b38-64de-4eb6-9d8b-97462c088ac7"},"vehicle_type_id":"4","last_reported":1700863596,"current_range_meters":31200,"station_id":"ce4bhbp2rcd13ifvqesg","pricing_plan_id":"free"},{"bike_id":"02458ce8-2358-4fcf-bcbe-1740530cf69c","system_id":"levelo_inurba_marseille","lat":43.305994,"lon":5.393687,"is_reserved":false,"is_disabled":false,"rental_uris":{"android":"levelo://app?vid=02458ce8-2358-4fcf-bcbe-1740530cf69c","ios":"levelo://app?vid=02458ce8-2358-4fcf-bcbe-1740530cf69c"},"vehicle_type_id":"4","last_reported":1700863596,"current_range_meters":9200,"station_id":"ce4bh0p2rcd13ifvqd80","pricing_plan_id":"free"},{"bike_id":"9b8829c4-272f-4e78-b2c4-79fb5c0da66b","system_id":"levelo_inurba_marseille","lat":43.298988,"lon":5.388135,"is_reserved":false,"is_disabled":false,"rental_uris":{"android":"levelo://app?vid=9b8829c4-272f-4e78-b2c4-79fb5c0da66b","ios":"levelo://app?vid=9b8829c4-272f-4e78-b2c4-79fb5c0da66b"},"vehicle_type_id":"4","last_reported":1700863596,"current_range_meters":0,"station_id":"","pricing_plan_id":"free"},{"bike_id":"178eb7c0-6a62-4bf1-a56f-a82d0e477eba","system_id":"levelo_inurba_marseille","lat":43.333663,"lon":5.360116,"is_reserved":false,"is_disabled":false,"rental_uris":{"android":"levelo://app?vid=178eb7c0-6a62-4bf1-a56f-a82d0e477eba","ios":"levelo://app?vid=178eb7c0-6a62-4bf1-a56f-a82d0e477eba"},"vehicle_type_id":"4","last_reported":1700863596,"current_range_meters":3200,"station_id":"","pricing_plan_id":"free"},{"bike_id":"08e318de-e6be-4d92-bb43-f34e2aee1130","system_id":"levelo_inurba_marseille","lat":43.31331,"lon":5.39693,"is_reserved":false,"is_disabled":false,"rental_uris":{"android":"levelo://app?vid=08e318de-e6be-4d92-bb43-f34e2aee1130","ios":"levelo://app?vid=08e318de-e6be-4d92-bb43-f34e2aee1130"},"vehicle_type_id":"4","last_reported":1700863596,"current_range_meters":28000,"station_id":"ce4bgvp2rcd13ifvqcu0","pricing_plan_id":"free"},{"bike_id":"7cd9be1a-99b0-41ae-9072-ad1706b74100","system_id":"levelo_inurba_marseille","lat":43.309038,"lon":5.396546,"is_reserved":false,"is_disabled":false,"rental_uris":{"android":"levelo://app?vid=7cd9be1a-99b0-41ae-9072-ad1706b74100","ios":"levelo://app?vid=7cd9be1a-99b0-41ae-9072-ad1706b74100"},"vehicle_type_id":"4","last_reported":1700863596,"current_range_meters":5200,"station_id":"ce4bh012rcd13ifvqcv0","pricing_plan_id":"free"},{"bike_id":"1d10a1b1-d55f-4279-928a-9c6858f32ca9","system_id":"levelo_inurba_marseille","lat":43.33211,"lon":5.38112,"is_reserved":false,"is_disabled":false,"rental_uris":{"android":"levelo://app?vid=1d10a1b1-d55f-4279-928a-9c6858f32ca9","ios":"levelo://app?vid=1d10a1b1-d55f-4279-928a-9c6858f32ca9"},"vehicle_type_id":"4","last_reported":1700863596,"current_range_meters":0,"station_id":"","pricing_plan_id":"free"},{"bike_id":"722fcc18-e4e6-4f0f-9918-4129b517591a","system_id":"levelo_inurba_marseille","lat":43.29529,"lon":5.385581,"is_reserved":false,"is_disabled":false,"rental_uris":{"android":"levelo://app?vid=722fcc18-e4e6-4f0f-9918-4129b517591a","ios":"levelo://app?vid=722fcc18-e4e6-4f0f-9918-4129b517591a"},"vehicle_type_id":"4","last_reported":1700863596,"current_range_meters":1200,"station_id":"ce4bgih2rcd13ifvqba0","pricing_plan_id":"free"},{"bike_id":"918c0428-8dee-409b-b90b-2ffe0b8d36fd","system_id":"levelo_inurba_marseille","lat":43.29529,"lon":5.385581,"is_reserved":false,"is_disabled":false,"rental_uris":{"android":"levelo://app?vid=918c0428-8dee-409b-b90b-2ffe0b8d36fd","ios":"levelo://app?vid=918c0428-8dee-409b-b90b-2ffe0b8d36fd"},"vehicle_type_id":"4","last_reported":1700863596,"current_range_meters":23200,"station_id":"ce4bgih2rcd13ifvqba0","pricing_plan_id":"free"},{"bike_id":"43cdf951-3b65-4a63-ac1d-646ed0436392","system_id":"levelo_inurba_marseille","lat":43.290053,"lon":5.371721,"is_reserved":false,"is_disabled":false,"rental_uris":{"android":"levelo://app?vid=43cdf951-3b65-4a63-ac1d-646ed0436392","ios":"levelo://app?vid=43cdf951-3b65-4a63-ac1d-646ed0436392"},"vehicle_type_id":"4","last_reported":1700863596,"current_range_meters":27200,"station_id":"","pricing_plan_id":"free"},{"bike_id":"5e961636-ca45-4e70-be4a-25b8bf644f7a","system_id":"levelo_inurba_marseille","lat":43.29415,"lon":5.38621,"is_reserved":false,"is_disabled":false,"rental_uris":{"android":"levelo://app?vid=5e961636-ca45-4e70-be4a-25b8bf644f7a","ios":"levelo://app?vid=5e961636-ca45-4e70-be4a-25b8bf644f7a"},"vehicle_type_id":"4","last_reported":1700863596,"current_range_meters":0,"station_id":"ce4bh2h2rcd13ifvqdh0","pricing_plan_id":"free"},{"bike_id":"7c6af4fb-0039-4c86-b4bb-9aa8968ac747","system_id":"levelo_inurba_marseille","lat":43.294162,"lon":5.386292,"is_reserved":false,"is_disabled":false,"rental_uris":{"android":"levelo://app?vid=7c6af4fb-0039-4c86-b4bb-9aa8968ac747","ios":"levelo://app?vid=7c6af4fb-0039-4c86-b4bb-9aa8968ac747"},"vehicle_type_id":"4","last_reported":1700863596,"current_range_meters":0,"station_id":"ce4bh2h2rcd13ifvqdh0","pricing_plan_id":"free"},{"bike_id":"7fa9a759-e2bc-44f4-aadb-afd961684ee9","system_id":"levelo_inurba_marseille","lat":43.294153,"lon":5.386305,"is_reserved":false,"is_disabled":false,"rental_uris":{"android":"levelo://app?vid=7fa9a759-e2bc-44f4-aadb-afd961684ee9","ios":"levelo://app?vid=7fa9a759-e2bc-44f4-aadb-afd961684ee9"},"vehicle_type_id":"4","last_reported":1700863596,"current_range_meters":0,"station_id":"ce4bh2h2rcd13ifvqdh0","pricing_plan_id":"free"},{"bike_id":"d53d3da6-e52c-40b0-9c47-420f0f200250","system_id":"levelo_inurba_marseille","lat":43.290104,"lon":5.356111,"is_reserved":false,"is_disabled":false,"rental_uris":{"android":"levelo://app?vid=d53d3da6-e52c-40b0-9c47-420f0f200250","ios":"levelo://app?vid=d53d3da6-e52c-40b0-9c47-420f0f200250"},"vehicle_type_id":"4","last_reported":1700863596,"current_range_meters":10800,"station_id":"ce4bhb92rcd13ifvqen0","pricing_plan_id":"free"},{"bike_id":"f4de13f3-419a-4fbe-bdce-d41a8cebbbdb","system_id":"levelo_inurba_marseille","lat":43.290104,"lon":5.356111,"is_reserved":false,"is_disabled":false,"rental_uris":{"android":"levelo://app?vid=f4de13f3-419a-4fbe-bdce-d41a8cebbbdb","ios":"levelo://app?vid=f4de13f3-419a-4fbe-bdce-d41a8cebbbdb"},"vehicle_type_id":"4","last_reported":1700863596,"current_range_meters":21600,"station_id":"ce4bhb92rcd13ifvqen0","pricing_plan_id":"free"},{"bike_id":"66174760-4d4e-410f-bfa0-046282ce683f","system_id":"levelo_inurba_marseille","lat":43.290104,"lon":5.356111,"is_reserved":false,"is_disabled":false,"rental_uris":{"android":"levelo://app?vid=66174760-4d4e-410f-bfa0-046282ce683f","ios":"levelo://app?vid=66174760-4d4e-410f-bfa0-046282ce683f"},"vehicle_type_id":"4","last_reported":1700863596,"current_range_meters":23600,"station_id":"ce4bhb92rcd13ifvqen0","pricing_plan_id":"free"},{"bike_id":"4f080e12-3419-4997-bd7e-b716121d92a2","system_id":"levelo_inurba_marseille","lat":43.33031,"lon":5.38973,"is_reserved":false,"is_disabled":false,"rental_uris":{"android":"levelo://app?vid=4f080e12-3419-4997-bd7e-b716121d92a2","ios":"levelo://app?vid=4f080e12-3419-4997-bd7e-b716121d92a2"},"vehicle_type_id":"4","last_reported":1700863596,"current_range_meters":0,"station_id":"ce4bhr92rcd13ifvqhrg","pricing_plan_id":"free"},{"bike_id":"90b7a911-df89-4e70-96c8-667bf672669f","system_id":"levelo_inurba_marseille","lat":43.297823,"lon":5.393403,"is_reserved":false,"is_disabled":false,"rental_uris":{"android":"levelo://app?vid=90b7a911-df89-4e70-96c8-667bf672669f","ios":"levelo://app?vid=90b7a911-df89-4e70-96c8-667bf672669f"},"vehicle_type_id":"4","last_reported":1700863596,"current_range_meters":6000,"station_id":"chh1huq6cuj3fo74tm60","pricing_plan_id":"free"},{"bike_id":"12822328-2e12-4145-8898-bfb8f03d1dda","system_id":"levelo_inurba_marseille","lat":43.289743,"lon":5.378304,"is_reserved":false,"is_disabled":false,"rental_uris":{"android":"levelo://app?vid=12822328-2e12-4145-8898-bfb8f03d1dda","ios":"levelo://app?vid=12822328-2e12-4145-8898-bfb8f03d1dda"},"vehicle_type_id":"4","last_reported":1700863596,"current_range_meters":19600,"station_id":"ce4bh9p2rcd13ifvqed0","pricing_plan_id":"free"},{"bike_id":"e2c6ca20-7a4d-4a25-bf64-138be8cf61d8","system_id":"levelo_inurba_marseille","lat":43.295169,"lon":5.390426,"is_reserved":false,"is_disabled":false,"rental_uris":{"android":"levelo://app?vid=e2c6ca20-7a4d-4a25-bf64-138be8cf61d8","ios":"levelo://app?vid=e2c6ca20-7a4d-4a25-bf64-138be8cf61d8"},"vehicle_type_id":"4","last_reported":1700863596,"current_range_meters":20800,"station_id":"ce4bh3p2rcd13ifvqdp0","pricing_plan_id":"free"},{"bike_id":"4ecbefc9-0598-4481-bf3e-6dcf06fad11b","system_id":"levelo_inurba_marseille","lat":43.28856,"lon":5.358371,"is_reserved":false,"is_disabled":false,"rental_uris":{"android":"levelo://app?vid=4ecbefc9-0598-4481-bf3e-6dcf06fad11b","ios":"levelo://app?vid=4ecbefc9-0598-4481-bf3e-6dcf06fad11b"},"vehicle_type_id":"4","last_reported":1700863596,"current_range_meters":12800,"station_id":"ce4bhb12rcd13ifvqem0","pricing_plan_id":"free"},{"bike_id":"6ebf7f46-15ee-4bf6-a076-b183e2921d50","system_id":"levelo_inurba_marseille","lat":43.306412,"lon":5.401035,"is_reserved":false,"is_disabled":false,"rental_uris":{"android":"levelo://app?vid=6ebf7f46-15ee-4bf6-a076-b183e2921d50","ios":"levelo://app?vid=6ebf7f46-15ee-4bf6-a076-b183e2921d50"},"vehicle_type_id":"4","last_reported":1700863596,"current_range_meters":26400,"station_id":"ce4bh112rcd13ifvqda0","pricing_plan_id":"free"},{"bike_id":"6d3380cd-34a6-405f-9e14-9dfad01eb06b","system_id":"levelo_inurba_marseille","lat":43.31268,"lon":5.40186,"is_reserved":false,"is_disabled":false,"rental_uris":{"android":"levelo://app?vid=6d3380cd-34a6-405f-9e14-9dfad01eb06b","ios":"levelo://app?vid=6d3380cd-34a6-405f-9e14-9dfad01eb06b"},"vehicle_type_id":"4","last_reported":1700863596,"current_range_meters":28400,"station_id":"ce4bh092rcd13ifvqd30","pricing_plan_id":"free"},{"bike_id":"892704f3-1d77-4404-9d73-158b8203f713","system_id":"levelo_inurba_marseille","lat":43.306412,"lon":5.401035,"is_reserved":false,"is_disabled":false,"rental_uris":{"android":"levelo://app?vid=892704f3-1d77-4404-9d73-158b8203f713","ios":"levelo://app?vid=892704f3-1d77-4404-9d73-158b8203f713"},"vehicle_type_id":"4","last_reported":1700863596,"current_range_meters":18400,"station_id":"ce4bh112rcd13ifvqda0","pricing_plan_id":"free"},{"bike_id":"f0dd7707-ba88-4235-91e6-a42a6d1a0c9c","system_id":"levelo_inurba_marseille","lat":43.286591,"lon":5.363346,"is_reserved":false,"is_disabled":false,"rental_uris":{"android":"levelo://app?vid=f0dd7707-ba88-4235-91e6-a42a6d1a0c9c","ios":"levelo://app?vid=f0dd7707-ba88-4235-91e6-a42a6d1a0c9c"},"vehicle_type_id":"4","last_reported":1700863596,"current_range_meters":7200,"station_id":"ce4bhah2rcd13ifvqej0","pricing_plan_id":"free"},{"bike_id":"d56145cc-dfea-4cb5-ac4f-ef4cc4d4dcb7","system_id":"levelo_inurba_marseille","lat":43.298681,"lon":5.397225,"is_reserved":false,"is_disabled":false,"rental_uris":{"android":"levelo://app?vid=d56145cc-dfea-4cb5-ac4f-ef4cc4d4dcb7","ios":"levelo://app?vid=d56145cc-dfea-4cb5-ac4f-ef4cc4d4dcb7"},"vehicle_type_id":"4","last_reported":1700863596,"current_range_meters":22800,"station_id":"ce4bh0h2rcd13ifvqd50","pricing_plan_id":"free"},{"bike_id":"97c6ce70-1a7f-4e9a-8388-1b100d5d2d78","system_id":"levelo_inurba_marseille","lat":43.29033,"lon":5.38648,"is_reserved":false,"is_disabled":false,"rental_uris":{"android":"levelo://app?vid=97c6ce70-1a7f-4e9a-8388-1b100d5d2d78","ios":"levelo://app?vid=97c6ce70-1a7f-4e9a-8388-1b100d5d2d78"},"vehicle_type_id":"4","last_reported":1700863596,"current_range_meters":31200,"station_id":"ce4bh4p2rcd13ifvqe0g","pricing_plan_id":"free"},{"bike_id":"e1debb5b-8dc1-4787-84d3-7a8b8b6b0b58","system_id":"levelo_inurba_marseille","lat":43.29031,"lon":5.38649,"is_reserved":false,"is_disabled":false,"rental_uris":{"android":"levelo://app?vid=e1debb5b-8dc1-4787-84d3-7a8b8b6b0b58","ios":"levelo://app?vid=e1debb5b-8dc1-4787-84d3-7a8b8b6b0b58"},"vehicle_type_id":"4","last_reported":1700863596,"current_range_meters":21600,"station_id":"ce4bh4p2rcd13ifvqe0g","pricing_plan_id":"free"},{"bike_id":"aeea8f7f-c24d-43b5-901f-ccb44bed323e","system_id":"levelo_inurba_marseille","lat":43.290293,"lon":5.386493,"is_reserved":false,"is_disabled":false,"rental_uris":{"android":"levelo://app?vid=aeea8f7f-c24d-43b5-901f-ccb44bed323e","ios":"levelo://app?vid=aeea8f7f-c24d-43b5-901f-ccb44bed323e"},"vehicle_type_id":"4","last_reported":1700863596,"current_range_meters":23600,"station_id":"","pricing_plan_id":"free"},{"bike_id":"6849b89a-11e0-444d-9772-a041d1be0c28","system_id":"levelo_inurba_marseille","lat":43.29026,"lon":5.38643,"is_reserved":false,"is_disabled":false,"rental_uris":{"android":"levelo://app?vid=6849b89a-11e0-444d-9772-a041d1be0c28","ios":"levelo://app?vid=6849b89a-11e0-444d-9772-a041d1be0c28"},"vehicle_type_id":"4","last_reported":1700863596,"current_range_meters":28000,"station_id":"ce4bh4p2rcd13ifvqe0g","pricing_plan_id":"free"},{"bike_id":"f9027c22-39ba-452d-9c0e-66ad13b157e5","system_id":"levelo_inurba_marseille","lat":43.302759,"lon":5.400793,"is_reserved":false,"is_disabled":false,"rental_uris":{"android":"levelo://app?vid=f9027c22-39ba-452d-9c0e-66ad13b157e5","ios":"levelo://app?vid=f9027c22-39ba-452d-9c0e-66ad13b157e5"},"vehicle_type_id":"4","last_reported":1700863596,"current_range_meters":19600,"station_id":"ce4bgvh2rcd13ifvqcs0","pricing_plan_id":"free"},{"bike_id":"e6520639-8a84-47da-9877-7ecd2071f225","system_id":"levelo_inurba_marseille","lat":43.302759,"lon":5.400793,"is_reserved":false,"is_disabled":false,"rental_uris":{"android":"levelo://app?vid=e6520639-8a84-47da-9877-7ecd2071f225","ios":"levelo://app?vid=e6520639-8a84-47da-9877-7ecd2071f225"},"vehicle_type_id":"4","last_reported":1700863596,"current_range_meters":9200,"station_id":"ce4bgvh2rcd13ifvqcs0","pricing_plan_id":"free"},{"bike_id":"ae79dff4-5d66-495e-9277-2e93728b2c02","system_id":"levelo_inurba_marseille","lat":43.29192,"lon":5.39315,"is_reserved":false,"is_disabled":false,"rental_uris":{"android":"levelo://app?vid=ae79dff4-5d66-495e-9277-2e93728b2c02","ios":"levelo://app?vid=ae79dff4-5d66-495e-9277-2e93728b2c02"},"vehicle_type_id":"4","last_reported":1700863596,"current_range_meters":12800,"station_id":"ce4bh192rcd13ifvqdd0","pricing_plan_id":"free"},{"bike_id":"91a97946-e4f3-46ee-b4aa-eaf5f729c1d4","system_id":"levelo_inurba_marseille","lat":43.291994,"lon":5.392907,"is_reserved":false,"is_disabled":false,"rental_uris":{"android":"levelo://app?vid=91a97946-e4f3-46ee-b4aa-eaf5f729c1d4","ios":"levelo://app?vid=91a97946-e4f3-46ee-b4aa-eaf5f729c1d4"},"vehicle_type_id":"4","last_reported":1700863596,"current_range_meters":5200,"station_id":"ce4bh192rcd13ifvqdd0","pricing_plan_id":"free"},{"bike_id":"bd7806b1-cdf2-4a1e-b5e0-df163e1f8f4c","system_id":"levelo_inurba_marseille","lat":43.284538,"lon":5.358657,"is_reserved":false,"is_disabled":false,"rental_uris":{"android":"levelo://app?vid=bd7806b1-cdf2-4a1e-b5e0-df163e1f8f4c","ios":"levelo://app?vid=bd7806b1-cdf2-4a1e-b5e0-df163e1f8f4c"},"vehicle_type_id":"4","last_reported":1700863596,"current_range_meters":21600,"station_id":"ce4bhah2rcd13ifvqei0","pricing_plan_id":"free"},{"bike_id":"64be3bbe-3e62-46ea-a07c-c897856db173","system_id":"levelo_inurba_marseille","lat":43.28722,"lon":5.385218,"is_reserved":false,"is_disabled":false,"rental_uris":{"android":"levelo://app?vid=64be3bbe-3e62-46ea-a07c-c897856db173","ios":"levelo://app?vid=64be3bbe-3e62-46ea-a07c-c897856db173"},"vehicle_type_id":"4","last_reported":1700863596,"current_range_meters":14000,"station_id":"","pricing_plan_id":"free"},{"bike_id":"bec460e9-8bd7-4de2-b033-6f6fc15d3b46","system_id":"levelo_inurba_marseille","lat":43.28452,"lon":5.35892,"is_reserved":false,"is_disabled":false,"rental_uris":{"android":"levelo://app?vid=bec460e9-8bd7-4de2-b033-6f6fc15d3b46","ios":"levelo://app?vid=bec460e9-8bd7-4de2-b033-6f6fc15d3b46"},"vehicle_type_id":"4","last_reported":1700863596,"current_range_meters":7600,"station_id":"ce4bhah2rcd13ifvqei0","pricing_plan_id":"free"},{"bike_id":"644654b8-d8db-4a67-b105-c2e62ea91ba6","system_id":"levelo_inurba_marseille","lat":43.295713,"lon":5.399639,"is_reserved":false,"is_disabled":false,"rental_uris":{"android":"levelo://app?vid=644654b8-d8db-4a67-b105-c2e62ea91ba6","ios":"levelo://app?vid=644654b8-d8db-4a67-b105-c2e62ea91ba6"},"vehicle_type_id":"4","last_reported":1700863596,"current_range_meters":15200,"station_id":"ce4bh312rcd13ifvqdj0","pricing_plan_id":"free"},{"bike_id":"b0beddf5-7bb3-41c4-bfcf-47f938baf159","system_id":"levelo_inurba_marseille","lat":43.319179,"lon":5.407725,"is_reserved":false,"is_disabled":false,"rental_uris":{"android":"levelo://app?vid=b0beddf5-7bb3-41c4-bfcf-47f938baf159","ios":"levelo://app?vid=b0beddf5-7bb3-41c4-bfcf-47f938baf159"},"vehicle_type_id":"4","last_reported":1700863596,"current_range_meters":4800,"station_id":"ce4bhq12rcd13ifvqhig","pricing_plan_id":"free"},{"bike_id":"60fb846c-95d4-493d-8ff0-fc77dde513c4","system_id":"levelo_inurba_marseille","lat":43.337218,"lon":5.391612,"is_reserved":false,"is_disabled":false,"rental_uris":{"android":"levelo://app?vid=60fb846c-95d4-493d-8ff0-fc77dde513c4","ios":"levelo://app?vid=60fb846c-95d4-493d-8ff0-fc77dde513c4"},"vehicle_type_id":"4","last_reported":1700863596,"current_range_meters":8800,"station_id":"ce4bhr92rcd13ifvqhsg","pricing_plan_id":"free"},{"bike_id":"b4bc6c19-20e6-4b1e-b989-40d4ba171e93","system_id":"levelo_inurba_marseille","lat":43.332215,"lon":5.398959,"is_reserved":false,"is_disabled":false,"rental_uris":{"android":"levelo://app?vid=b4bc6c19-20e6-4b1e-b989-40d4ba171e93","ios":"levelo://app?vid=b4bc6c19-20e6-4b1e-b989-40d4ba171e93"},"vehicle_type_id":"4","last_reported":1700863596,"current_range_meters":6400,"station_id":"","pricing_plan_id":"free"},{"bike_id":"fbed67cb-7d52-4e0c-8488-1d40e28e0960","system_id":"levelo_inurba_marseille","lat":43.32339,"lon":5.40616,"is_reserved":false,"is_disabled":false,"rental_uris":{"android":"levelo://app?vid=fbed67cb-7d52-4e0c-8488-1d40e28e0960","ios":"levelo://app?vid=fbed67cb-7d52-4e0c-8488-1d40e28e0960"},"vehicle_type_id":"4","last_reported":1700863596,"current_range_meters":0,"station_id":"ce4bhq92rcd13ifvqhjg","pricing_plan_id":"free"},{"bike_id":"28d06626-8134-4bff-a604-6ccdc8308c77","system_id":"levelo_inurba_marseille","lat":43.28486,"lon":5.38419,"is_reserved":false,"is_disabled":false,"rental_uris":{"android":"levelo://app?vid=28d06626-8134-4bff-a604-6ccdc8308c77","ios":"levelo://app?vid=28d06626-8134-4bff-a604-6ccdc8308c77"},"vehicle_type_id":"4","last_reported":1700863596,"current_range_meters":23600,"station_id":"ce4bh512rcd13ifvqe3g","pricing_plan_id":"free"},{"bike_id":"78e51493-a8d4-41c4-9337-8c5776471ed2","system_id":"levelo_inurba_marseille","lat":43.28489,"lon":5.38429,"is_reserved":false,"is_disabled":false,"rental_uris":{"android":"levelo://app?vid=78e51493-a8d4-41c4-9337-8c5776471ed2","ios":"levelo://app?vid=78e51493-a8d4-41c4-9337-8c5776471ed2"},"vehicle_type_id":"4","last_reported":1700863596,"current_range_meters":0,"station_id":"ce4bh512rcd13ifvqe3g","pricing_plan_id":"free"},{"bike_id":"2758dd14-b7c3-4191-8e51-dc327f32832b","system_id":"levelo_inurba_marseille","lat":43.297946,"lon":5.404063,"is_reserved":false,"is_disabled":false,"rental_uris":{"android":"levelo://app?vid=2758dd14-b7c3-4191-8e51-dc327f32832b","ios":"levelo://app?vid=2758dd14-b7c3-4191-8e51-dc327f32832b"},"vehicle_type_id":"4","last_reported":1700863596,"current_range_meters":8400,"station_id":"ce4bh112rcd13ifvqd90","pricing_plan_id":"free"},{"bike_id":"efa3f2be-6e4b-40ed-98f9-fd49acdfd1fb","system_id":"levelo_inurba_marseille","lat":43.288463,"lon":5.393207,"is_reserved":false,"is_disabled":false,"rental_uris":{"android":"levelo://app?vid=efa3f2be-6e4b-40ed-98f9-fd49acdfd1fb","ios":"levelo://app?vid=efa3f2be-6e4b-40ed-98f9-fd49acdfd1fb"},"vehicle_type_id":"4","last_reported":1700863596,"current_range_meters":2000,"station_id":"ce4bh2p2rcd13ifvqdi0","pricing_plan_id":"free"},{"bike_id":"bd0c12a9-04ff-470d-91ad-1340d66a6ff7","system_id":"levelo_inurba_marseille","lat":43.288501,"lon":5.393087,"is_reserved":false,"is_disabled":false,"rental_uris":{"android":"levelo://app?vid=bd0c12a9-04ff-470d-91ad-1340d66a6ff7","ios":"levelo://app?vid=bd0c12a9-04ff-470d-91ad-1340d66a6ff7"},"vehicle_type_id":"4","last_reported":1700863596,"current_range_meters":27600,"station_id":"ce4bh2p2rcd13ifvqdi0","pricing_plan_id":"free"},{"bike_id":"f8f1c184-8509-4cc8-a97f-d770698ea62e","system_id":"levelo_inurba_marseille","lat":43.283498,"lon":5.380948,"is_reserved":false,"is_disabled":false,"rental_uris":{"android":"levelo://app?vid=f8f1c184-8509-4cc8-a97f-d770698ea62e","ios":"levelo://app?vid=f8f1c184-8509-4cc8-a97f-d770698ea62e"},"vehicle_type_id":"4","last_reported":1700863596,"current_range_meters":13200,"station_id":"ce4bh412rcd13ifvqdr0","pricing_plan_id":"free"},{"bike_id":"e2284003-4e46-4e0a-93e7-73d05c3666d9","system_id":"levelo_inurba_marseille","lat":43.33508,"lon":5.397755,"is_reserved":false,"is_disabled":false,"rental_uris":{"android":"levelo://app?vid=e2284003-4e46-4e0a-93e7-73d05c3666d9","ios":"levelo://app?vid=e2284003-4e46-4e0a-93e7-73d05c3666d9"},"vehicle_type_id":"4","last_reported":1700863596,"current_range_meters":24800,"station_id":"","pricing_plan_id":"free"},{"bike_id":"09a88198-c1d5-46a8-9a74-3393cd531e27","system_id":"levelo_inurba_marseille","lat":43.28039,"lon":5.369297,"is_reserved":false,"is_disabled":false,"rental_uris":{"android":"levelo://app?vid=09a88198-c1d5-46a8-9a74-3393cd531e27","ios":"levelo://app?vid=09a88198-c1d5-46a8-9a74-3393cd531e27"},"vehicle_type_id":"4","last_reported":1700863596,"current_range_meters":22400,"station_id":"ce4bha12rcd13ifvqef0","pricing_plan_id":"free"},{"bike_id":"0571e3d2-c9f0-4b14-9d35-ce14bd0d9dc3","system_id":"levelo_inurba_marseille","lat":43.281044,"lon":5.378308,"is_reserved":false,"is_disabled":false,"rental_uris":{"android":"levelo://app?vid=0571e3d2-c9f0-4b14-9d35-ce14bd0d9dc3","ios":"levelo://app?vid=0571e3d2-c9f0-4b14-9d35-ce14bd0d9dc3"},"vehicle_type_id":"4","last_reported":1700863596,"current_range_meters":16800,"station_id":"ce4bha12rcd13ifvqee0","pricing_plan_id":"free"},{"bike_id":"45d64da8-f563-497d-8b35-395815df924f","system_id":"levelo_inurba_marseille","lat":43.281044,"lon":5.378308,"is_reserved":false,"is_disabled":false,"rental_uris":{"android":"levelo://app?vid=45d64da8-f563-497d-8b35-395815df924f","ios":"levelo://app?vid=45d64da8-f563-497d-8b35-395815df924f"},"vehicle_type_id":"4","last_reported":1700863596,"current_range_meters":24400,"station_id":"ce4bha12rcd13ifvqee0","pricing_plan_id":"free"},{"bike_id":"21c2c07f-9127-42e9-ac39-12bb213a4ff5","system_id":"levelo_inurba_marseille","lat":43.28104,"lon":5.37841,"is_reserved":false,"is_disabled":false,"rental_uris":{"android":"levelo://app?vid=21c2c07f-9127-42e9-ac39-12bb213a4ff5","ios":"levelo://app?vid=21c2c07f-9127-42e9-ac39-12bb213a4ff5"},"vehicle_type_id":"4","last_reported":1700863596,"current_range_meters":6400,"station_id":"ce4bha12rcd13ifvqee0","pricing_plan_id":"free"},{"bike_id":"f8c269f0-b3be-4a2d-b649-d292c51dac5d","system_id":"levelo_inurba_marseille","lat":43.28102,"lon":5.37847,"is_reserved":false,"is_disabled":false,"rental_uris":{"android":"levelo://app?vid=f8c269f0-b3be-4a2d-b649-d292c51dac5d","ios":"levelo://app?vid=f8c269f0-b3be-4a2d-b649-d292c51dac5d"},"vehicle_type_id":"4","last_reported":1700863596,"current_range_meters":4000,"station_id":"ce4bha12rcd13ifvqee0","pricing_plan_id":"free"},{"bike_id":"924e4f11-17e7-46b8-8669-3a88327d779f","system_id":"levelo_inurba_marseille","lat":43.281044,"lon":5.378308,"is_reserved":false,"is_disabled":false,"rental_uris":{"android":"levelo://app?vid=924e4f11-17e7-46b8-8669-3a88327d779f","ios":"levelo://app?vid=924e4f11-17e7-46b8-8669-3a88327d779f"},"vehicle_type_id":"4","last_reported":1700863596,"current_range_meters":28000,"station_id":"ce4bha12rcd13ifvqee0","pricing_plan_id":"free"},{"bike_id":"59e761ea-e1c4-4aaa-a75f-dcc85eab25c7","system_id":"levelo_inurba_marseille","lat":43.285742,"lon":5.395004,"is_reserved":false,"is_disabled":false,"rental_uris":{"android":"levelo://app?vid=59e761ea-e1c4-4aaa-a75f-dcc85eab25c7","ios":"levelo://app?vid=59e761ea-e1c4-4aaa-a75f-dcc85eab25c7"},"vehicle_type_id":"4","last_reported":1700863596,"current_range_meters":0,"station_id":"ce4bh292rcd13ifvqdg0","pricing_plan_id":"free"},{"bike_id":"9321b615-81e4-4e68-a661-8544453fdb2b","system_id":"levelo_inurba_marseille","lat":43.28573,"lon":5.394992,"is_reserved":false,"is_disabled":false,"rental_uris":{"android":"levelo://app?vid=9321b615-81e4-4e68-a661-8544453fdb2b","ios":"levelo://app?vid=9321b615-81e4-4e68-a661-8544453fdb2b"},"vehicle_type_id":"4","last_reported":1700863596,"current_range_meters":18400,"station_id":"ce4bh292rcd13ifvqdg0","pricing_plan_id":"free"},{"bike_id":"c371bff1-b3d2-4c0b-a23c-92960c679caf","system_id":"levelo_inurba_marseille","lat":43.326605,"lon":5.409903,"is_reserved":false,"is_disabled":false,"rental_uris":{"android":"levelo://app?vid=c371bff1-b3d2-4c0b-a23c-92960c679caf","ios":"levelo://app?vid=c371bff1-b3d2-4c0b-a23c-92960c679caf"},"vehicle_type_id":"4","last_reported":1700863596,"current_range_meters":3200,"station_id":"ce4bhpp2rcd13ifvqhgg","pricing_plan_id":"free"},{"bike_id":"7d001ce1-3295-4b75-9e6e-3a475eef70ee","system_id":"levelo_inurba_marseille","lat":43.326605,"lon":5.409903,"is_reserved":false,"is_disabled":false,"rental_uris":{"android":"levelo://app?vid=7d001ce1-3295-4b75-9e6e-3a475eef70ee","ios":"levelo://app?vid=7d001ce1-3295-4b75-9e6e-3a475eef70ee"},"vehicle_type_id":"4","last_reported":1700863596,"current_range_meters":0,"station_id":"ce4bhpp2rcd13ifvqhgg","pricing_plan_id":"free"},{"bike_id":"fd114853-7457-45d8-9582-8acd9b09cf99","system_id":"levelo_inurba_marseille","lat":43.326605,"lon":5.409903,"is_reserved":false,"is_disabled":false,"rental_uris":{"android":"levelo://app?vid=fd114853-7457-45d8-9582-8acd9b09cf99","ios":"levelo://app?vid=fd114853-7457-45d8-9582-8acd9b09cf99"},"vehicle_type_id":"4","last_reported":1700863596,"current_range_meters":18400,"station_id":"ce4bhpp2rcd13ifvqhgg","pricing_plan_id":"free"},{"bike_id":"27937e94-ddb2-47f8-a077-4be732443cc4","system_id":"levelo_inurba_marseille","lat":43.287154,"lon":5.399979,"is_reserved":false,"is_disabled":false,"rental_uris":{"android":"levelo://app?vid=27937e94-ddb2-47f8-a077-4be732443cc4","ios":"levelo://app?vid=27937e94-ddb2-47f8-a077-4be732443cc4"},"vehicle_type_id":"4","last_reported":1700863596,"current_range_meters":31200,"station_id":"ce4bho92rcd13ifvqh3g","pricing_plan_id":"free"},{"bike_id":"4de02c4c-6788-47e8-86f7-ed7b45f7de7a","system_id":"levelo_inurba_marseille","lat":43.287154,"lon":5.399979,"is_reserved":false,"is_disabled":false,"rental_uris":{"android":"levelo://app?vid=4de02c4c-6788-47e8-86f7-ed7b45f7de7a","ios":"levelo://app?vid=4de02c4c-6788-47e8-86f7-ed7b45f7de7a"},"vehicle_type_id":"4","last_reported":1700863596,"current_range_meters":25200,"station_id":"ce4bho92rcd13ifvqh3g","pricing_plan_id":"free"},{"bike_id":"27acdbf5-43bc-44ce-8eba-b63c97170fea","system_id":"levelo_inurba_marseille","lat":43.287154,"lon":5.399979,"is_reserved":false,"is_disabled":false,"rental_uris":{"android":"levelo://app?vid=27acdbf5-43bc-44ce-8eba-b63c97170fea","ios":"levelo://app?vid=27acdbf5-43bc-44ce-8eba-b63c97170fea"},"vehicle_type_id":"4","last_reported":1700863596,"current_range_meters":30000,"station_id":"ce4bho92rcd13ifvqh3g","pricing_plan_id":"free"},{"bike_id":"6321c098-d2cd-4802-a556-094280956863","system_id":"levelo_inurba_marseille","lat":43.287154,"lon":5.399979,"is_reserved":false,"is_disabled":false,"rental_uris":{"android":"levelo://app?vid=6321c098-d2cd-4802-a556-094280956863","ios":"levelo://app?vid=6321c098-d2cd-4802-a556-094280956863"},"vehicle_type_id":"4","last_reported":1700863596,"current_range_meters":31600,"station_id":"ce4bho92rcd13ifvqh3g","pricing_plan_id":"free"},{"bike_id":"d16bbf07-b2e2-48ee-b805-bae3ac83b789","system_id":"levelo_inurba_marseille","lat":43.287154,"lon":5.399979,"is_reserved":false,"is_disabled":false,"rental_uris":{"android":"levelo://app?vid=d16bbf07-b2e2-48ee-b805-bae3ac83b789","ios":"levelo://app?vid=d16bbf07-b2e2-48ee-b805-bae3ac83b789"},"vehicle_type_id":"4","last_reported":1700863596,"current_range_meters":26400,"station_id":"ce4bho92rcd13ifvqh3g","pricing_plan_id":"free"},{"bike_id":"46857abf-efc6-4ffc-b652-8f2ca60edc0a","system_id":"levelo_inurba_marseille","lat":43.287154,"lon":5.399979,"is_reserved":false,"is_disabled":false,"rental_uris":{"android":"levelo://app?vid=46857abf-efc6-4ffc-b652-8f2ca60edc0a","ios":"levelo://app?vid=46857abf-efc6-4ffc-b652-8f2ca60edc0a"},"vehicle_type_id":"4","last_reported":1700863596,"current_range_meters":31600,"station_id":"ce4bho92rcd13ifvqh3g","pricing_plan_id":"free"},{"bike_id":"d1b5c516-b496-412b-b6ec-6fb07b03d1a9","system_id":"levelo_inurba_marseille","lat":43.287154,"lon":5.399979,"is_reserved":false,"is_disabled":false,"rental_uris":{"android":"levelo://app?vid=d1b5c516-b496-412b-b6ec-6fb07b03d1a9","ios":"levelo://app?vid=d1b5c516-b496-412b-b6ec-6fb07b03d1a9"},"vehicle_type_id":"4","last_reported":1700863596,"current_range_meters":28000,"station_id":"ce4bho92rcd13ifvqh3g","pricing_plan_id":"free"},{"bike_id":"00de6aa8-b204-48ba-b466-21a838ae3da5","system_id":"levelo_inurba_marseille","lat":43.287154,"lon":5.399979,"is_reserved":false,"is_disabled":false,"rental_uris":{"android":"levelo://app?vid=00de6aa8-b204-48ba-b466-21a838ae3da5","ios":"levelo://app?vid=00de6aa8-b204-48ba-b466-21a838ae3da5"},"vehicle_type_id":"4","last_reported":1700863596,"current_range_meters":28000,"station_id":"ce4bho92rcd13ifvqh3g","pricing_plan_id":"free"},{"bike_id":"a93e0362-81bc-4f4c-bc54-baee07d92e71","system_id":"levelo_inurba_marseille","lat":43.287154,"lon":5.399979,"is_reserved":false,"is_disabled":false,"rental_uris":{"android":"levelo://app?vid=a93e0362-81bc-4f4c-bc54-baee07d92e71","ios":"levelo://app?vid=a93e0362-81bc-4f4c-bc54-baee07d92e71"},"vehicle_type_id":"4","last_reported":1700863596,"current_range_meters":31200,"station_id":"ce4bho92rcd13ifvqh3g","pricing_plan_id":"free"},{"bike_id":"582347b7-7dff-46f8-87d4-0846ebc0b12d","system_id":"levelo_inurba_marseille","lat":43.287154,"lon":5.399979,"is_reserved":false,"is_disabled":false,"rental_uris":{"android":"levelo://app?vid=582347b7-7dff-46f8-87d4-0846ebc0b12d","ios":"levelo://app?vid=582347b7-7dff-46f8-87d4-0846ebc0b12d"},"vehicle_type_id":"4","last_reported":1700863596,"current_range_meters":6400,"station_id":"ce4bho92rcd13ifvqh3g","pricing_plan_id":"free"},{"bike_id":"a8d9014a-a3ad-4f23-951e-ee7258a51040","system_id":"levelo_inurba_marseille","lat":43.287154,"lon":5.399979,"is_reserved":false,"is_disabled":false,"rental_uris":{"android":"levelo://app?vid=a8d9014a-a3ad-4f23-951e-ee7258a51040","ios":"levelo://app?vid=a8d9014a-a3ad-4f23-951e-ee7258a51040"},"vehicle_type_id":"4","last_reported":1700863596,"current_range_meters":31200,"station_id":"ce4bho92rcd13ifvqh3g","pricing_plan_id":"free"},{"bike_id":"b9667a68-7d78-4505-8570-5bb655ac99d6","system_id":"levelo_inurba_marseille","lat":43.287154,"lon":5.399979,"is_reserved":false,"is_disabled":false,"rental_uris":{"android":"levelo://app?vid=b9667a68-7d78-4505-8570-5bb655ac99d6","ios":"levelo://app?vid=b9667a68-7d78-4505-8570-5bb655ac99d6"},"vehicle_type_id":"4","last_reported":1700863596,"current_range_meters":30800,"station_id":"ce4bho92rcd13ifvqh3g","pricing_plan_id":"free"},{"bike_id":"052b1800-26d9-41f0-9ebd-e64177fe5bdb","system_id":"levelo_inurba_marseille","lat":43.287154,"lon":5.399979,"is_reserved":false,"is_disabled":false,"rental_uris":{"android":"levelo://app?vid=052b1800-26d9-41f0-9ebd-e64177fe5bdb","ios":"levelo://app?vid=052b1800-26d9-41f0-9ebd-e64177fe5bdb"},"vehicle_type_id":"4","last_reported":1700863596,"current_range_meters":28400,"station_id":"ce4bho92rcd13ifvqh3g","pricing_plan_id":"free"},{"bike_id":"495c9886-34e3-479d-a1e0-c47a9c43931c","system_id":"levelo_inurba_marseille","lat":43.287154,"lon":5.399979,"is_reserved":false,"is_disabled":false,"rental_uris":{"android":"levelo://app?vid=495c9886-34e3-479d-a1e0-c47a9c43931c","ios":"levelo://app?vid=495c9886-34e3-479d-a1e0-c47a9c43931c"},"vehicle_type_id":"4","last_reported":1700863596,"current_range_meters":26000,"station_id":"ce4bho92rcd13ifvqh3g","pricing_plan_id":"free"},{"bike_id":"3ecc5dac-ba3d-4203-963e-6d2e785321f3","system_id":"levelo_inurba_marseille","lat":43.279742,"lon":5.38744,"is_reserved":false,"is_disabled":false,"rental_uris":{"android":"levelo://app?vid=3ecc5dac-ba3d-4203-963e-6d2e785321f3","ios":"levelo://app?vid=3ecc5dac-ba3d-4203-963e-6d2e785321f3"},"vehicle_type_id":"4","last_reported":1700863596,"current_range_meters":12800,"station_id":"ce4bhg12rcd13ifvqf80","pricing_plan_id":"free"},{"bike_id":"d0bb53f7-f1b8-4609-a668-27efdac67f66","system_id":"levelo_inurba_marseille","lat":43.27959,"lon":5.38764,"is_reserved":false,"is_disabled":false,"rental_uris":{"android":"levelo://app?vid=d0bb53f7-f1b8-4609-a668-27efdac67f66","ios":"levelo://app?vid=d0bb53f7-f1b8-4609-a668-27efdac67f66"},"vehicle_type_id":"4","last_reported":1700863596,"current_range_meters":0,"station_id":"ce4bhg12rcd13ifvqf80","pricing_plan_id":"free"},{"bike_id":"0a7d255e-499b-4057-821b-08d215075f2e","system_id":"levelo_inurba_marseille","lat":43.292571,"lon":5.409107,"is_reserved":false,"is_disabled":false,"rental_uris":{"android":"levelo://app?vid=0a7d255e-499b-4057-821b-08d215075f2e","ios":"levelo://app?vid=0a7d255e-499b-4057-821b-08d215075f2e"},"vehicle_type_id":"4","last_reported":1700863596,"current_range_meters":23200,"station_id":"ce4bh192rcd13ifvqdc0","pricing_plan_id":"free"},{"bike_id":"22d347e4-9673-489d-af28-13b064fc6114","system_id":"levelo_inurba_marseille","lat":43.292571,"lon":5.409107,"is_reserved":false,"is_disabled":false,"rental_uris":{"android":"levelo://app?vid=22d347e4-9673-489d-af28-13b064fc6114","ios":"levelo://app?vid=22d347e4-9673-489d-af28-13b064fc6114"},"vehicle_type_id":"4","last_reported":1700863596,"current_range_meters":25200,"station_id":"ce4bh192rcd13ifvqdc0","pricing_plan_id":"free"},{"bike_id":"266400c8-c19a-4cd0-a709-ca2d4218a415","system_id":"levelo_inurba_marseille","lat":43.280784,"lon":5.396622,"is_reserved":false,"is_disabled":false,"rental_uris":{"android":"levelo://app?vid=266400c8-c19a-4cd0-a709-ca2d4218a415","ios":"levelo://app?vid=266400c8-c19a-4cd0-a709-ca2d4218a415"},"vehicle_type_id":"4","last_reported":1700863596,"current_range_meters":800,"station_id":"ce4bho12rcd13ifvqh2g","pricing_plan_id":"free"},{"bike_id":"505bc0ec-0c48-4841-90f3-ca45b286b8db","system_id":"levelo_inurba_marseille","lat":43.280784,"lon":5.396622,"is_reserved":false,"is_disabled":false,"rental_uris":{"android":"levelo://app?vid=505bc0ec-0c48-4841-90f3-ca45b286b8db","ios":"levelo://app?vid=505bc0ec-0c48-4841-90f3-ca45b286b8db"},"vehicle_type_id":"4","last_reported":1700863596,"current_range_meters":31200,"station_id":"ce4bho12rcd13ifvqh2g","pricing_plan_id":"free"},{"bike_id":"bddcd2f9-ac70-40e6-baec-f36fced6eb47","system_id":"levelo_inurba_marseille","lat":43.278399,"lon":5.392139,"is_reserved":false,"is_disabled":false,"rental_uris":{"android":"levelo://app?vid=bddcd2f9-ac70-40e6-baec-f36fced6eb47","ios":"levelo://app?vid=bddcd2f9-ac70-40e6-baec-f36fced6eb47"},"vehicle_type_id":"4","last_reported":1700863596,"current_range_meters":9200,"station_id":"ce4bhjp2rcd13ifvqga0","pricing_plan_id":"free"},{"bike_id":"218e8d92-3a37-45f8-986c-da110f8373b6","system_id":"levelo_inurba_marseille","lat":43.278401,"lon":5.392152,"is_reserved":false,"is_disabled":false,"rental_uris":{"android":"levelo://app?vid=218e8d92-3a37-45f8-986c-da110f8373b6","ios":"levelo://app?vid=218e8d92-3a37-45f8-986c-da110f8373b6"},"vehicle_type_id":"4","last_reported":1700863596,"current_range_meters":19600,"station_id":"ce4bhjp2rcd13ifvqga0","pricing_plan_id":"free"},{"bike_id":"d7e96dab-8a31-411e-9eb2-a0c89e002e0c","system_id":"levelo_inurba_marseille","lat":43.3031,"lon":5.41916,"is_reserved":false,"is_disabled":false,"rental_uris":{"android":"levelo://app?vid=d7e96dab-8a31-411e-9eb2-a0c89e002e0c","ios":"levelo://app?vid=d7e96dab-8a31-411e-9eb2-a0c89e002e0c"},"vehicle_type_id":"4","last_reported":1700863596,"current_range_meters":25600,"station_id":"","pricing_plan_id":"free"},{"bike_id":"afbe1c8e-59e6-444c-a06d-40b4c873ce79","system_id":"levelo_inurba_marseille","lat":43.33612,"lon":5.410321,"is_reserved":false,"is_disabled":false,"rental_uris":{"android":"levelo://app?vid=afbe1c8e-59e6-444c-a06d-40b4c873ce79","ios":"levelo://app?vid=afbe1c8e-59e6-444c-a06d-40b4c873ce79"},"vehicle_type_id":"4","last_reported":1700863596,"current_range_meters":0,"station_id":"ce4bhqh2rcd13ifvqhmg","pricing_plan_id":"free"},{"bike_id":"ce28396f-bd42-4767-946b-ad3df086bf4a","system_id":"levelo_inurba_marseille","lat":43.33612,"lon":5.410321,"is_reserved":false,"is_disabled":false,"rental_uris":{"android":"levelo://app?vid=ce28396f-bd42-4767-946b-ad3df086bf4a","ios":"levelo://app?vid=ce28396f-bd42-4767-946b-ad3df086bf4a"},"vehicle_type_id":"4","last_reported":1700863596,"current_range_meters":0,"station_id":"ce4bhqh2rcd13ifvqhmg","pricing_plan_id":"free"},{"bike_id":"561d56c0-616a-4955-bd15-b0e0ddd3d6ba","system_id":"levelo_inurba_marseille","lat":43.279952,"lon":5.400085,"is_reserved":false,"is_disabled":false,"rental_uris":{"android":"levelo://app?vid=561d56c0-616a-4955-bd15-b0e0ddd3d6ba","ios":"levelo://app?vid=561d56c0-616a-4955-bd15-b0e0ddd3d6ba"},"vehicle_type_id":"4","last_reported":1700863596,"current_range_meters":26000,"station_id":"ce4bho92rcd13ifvqh4g","pricing_plan_id":"free"},{"bike_id":"3b5836a7-12bc-4eeb-81a3-25b20505d9af","system_id":"levelo_inurba_marseille","lat":43.317121,"lon":5.423936,"is_reserved":false,"is_disabled":false,"rental_uris":{"android":"levelo://app?vid=3b5836a7-12bc-4eeb-81a3-25b20505d9af","ios":"levelo://app?vid=3b5836a7-12bc-4eeb-81a3-25b20505d9af"},"vehicle_type_id":"4","last_reported":1700863596,"current_range_meters":30400,"station_id":"ce4bhp92rcd13ifvqhbg","pricing_plan_id":"free"},{"bike_id":"4fcce5d9-071c-4eeb-873d-e2b8131ef5b1","system_id":"levelo_inurba_marseille","lat":43.317121,"lon":5.423936,"is_reserved":false,"is_disabled":false,"rental_uris":{"android":"levelo://app?vid=4fcce5d9-071c-4eeb-873d-e2b8131ef5b1","ios":"levelo://app?vid=4fcce5d9-071c-4eeb-873d-e2b8131ef5b1"},"vehicle_type_id":"4","last_reported":1700863596,"current_range_meters":27600,"station_id":"ce4bhp92rcd13ifvqhbg","pricing_plan_id":"free"},{"bike_id":"62a4131c-a361-4342-8c26-db721e4c4d35","system_id":"levelo_inurba_marseille","lat":43.274099,"lon":5.394019,"is_reserved":false,"is_disabled":false,"rental_uris":{"android":"levelo://app?vid=62a4131c-a361-4342-8c26-db721e4c4d35","ios":"levelo://app?vid=62a4131c-a361-4342-8c26-db721e4c4d35"},"vehicle_type_id":"4","last_reported":1700863596,"current_range_meters":25600,"station_id":"ce4bhdp2rcd13ifvqf20","pricing_plan_id":"free"},{"bike_id":"30b1c21c-43f6-4096-a8a1-15bb8bf09358","system_id":"levelo_inurba_marseille","lat":43.274103,"lon":5.394016,"is_reserved":false,"is_disabled":false,"rental_uris":{"android":"levelo://app?vid=30b1c21c-43f6-4096-a8a1-15bb8bf09358","ios":"levelo://app?vid=30b1c21c-43f6-4096-a8a1-15bb8bf09358"},"vehicle_type_id":"4","last_reported":1700863596,"current_range_meters":5200,"station_id":"ce4bhdp2rcd13ifvqf20","pricing_plan_id":"free"},{"bike_id":"886b94e7-3f0f-4f28-ab90-06e9345b689d","system_id":"levelo_inurba_marseille","lat":43.295523,"lon":5.422926,"is_reserved":false,"is_disabled":false,"rental_uris":{"android":"levelo://app?vid=886b94e7-3f0f-4f28-ab90-06e9345b689d","ios":"levelo://app?vid=886b94e7-3f0f-4f28-ab90-06e9345b689d"},"vehicle_type_id":"4","last_reported":1700863596,"current_range_meters":2800,"station_id":"ce4bhph2rcd13ifvqhdg","pricing_plan_id":"free"},{"bike_id":"39ba2a28-4e45-47ae-b54e-2e865e84aa2a","system_id":"levelo_inurba_marseille","lat":43.295523,"lon":5.422926,"is_reserved":false,"is_disabled":false,"rental_uris":{"android":"levelo://app?vid=39ba2a28-4e45-47ae-b54e-2e865e84aa2a","ios":"levelo://app?vid=39ba2a28-4e45-47ae-b54e-2e865e84aa2a"},"vehicle_type_id":"4","last_reported":1700863596,"current_range_meters":28800,"station_id":"ce4bhph2rcd13ifvqhdg","pricing_plan_id":"free"},{"bike_id":"9830637b-caf5-476f-85b7-c02033487ff2","system_id":"levelo_inurba_marseille","lat":43.295511,"lon":5.422926,"is_reserved":false,"is_disabled":false,"rental_uris":{"android":"levelo://app?vid=9830637b-caf5-476f-85b7-c02033487ff2","ios":"levelo://app?vid=9830637b-caf5-476f-85b7-c02033487ff2"},"vehicle_type_id":"4","last_reported":1700863596,"current_range_meters":31200,"station_id":"ce4bhph2rcd13ifvqhdg","pricing_plan_id":"free"},{"bike_id":"6d892d9f-8bb7-466b-91e4-6b4cd5e06b20","system_id":"levelo_inurba_marseille","lat":43.295511,"lon":5.422926,"is_reserved":false,"is_disabled":false,"rental_uris":{"android":"levelo://app?vid=6d892d9f-8bb7-466b-91e4-6b4cd5e06b20","ios":"levelo://app?vid=6d892d9f-8bb7-466b-91e4-6b4cd5e06b20"},"vehicle_type_id":"4","last_reported":1700863596,"current_range_meters":27200,"station_id":"ce4bhph2rcd13ifvqhdg","pricing_plan_id":"free"},{"bike_id":"9f3ea0ae-761e-43b1-ad64-979f3efc0236","system_id":"levelo_inurba_marseille","lat":43.295511,"lon":5.422926,"is_reserved":false,"is_disabled":false,"rental_uris":{"android":"levelo://app?vid=9f3ea0ae-761e-43b1-ad64-979f3efc0236","ios":"levelo://app?vid=9f3ea0ae-761e-43b1-ad64-979f3efc0236"},"vehicle_type_id":"4","last_reported":1700863596,"current_range_meters":24400,"station_id":"ce4bhph2rcd13ifvqhdg","pricing_plan_id":"free"},{"bike_id":"118822d8-6e1e-4e74-a488-66c0b9bac4ea","system_id":"levelo_inurba_marseille","lat":43.29561,"lon":5.42289,"is_reserved":false,"is_disabled":false,"rental_uris":{"android":"levelo://app?vid=118822d8-6e1e-4e74-a488-66c0b9bac4ea","ios":"levelo://app?vid=118822d8-6e1e-4e74-a488-66c0b9bac4ea"},"vehicle_type_id":"4","last_reported":1700863596,"current_range_meters":22400,"station_id":"ce4bhph2rcd13ifvqhdg","pricing_plan_id":"free"},{"bike_id":"36c661af-b1d4-4283-adeb-a6b360ed03cd","system_id":"levelo_inurba_marseille","lat":43.29558,"lon":5.42288,"is_reserved":false,"is_disabled":false,"rental_uris":{"android":"levelo://app?vid=36c661af-b1d4-4283-adeb-a6b360ed03cd","ios":"levelo://app?vid=36c661af-b1d4-4283-adeb-a6b360ed03cd"},"vehicle_type_id":"4","last_reported":1700863596,"current_range_meters":14800,"station_id":"ce4bhph2rcd13ifvqhdg","pricing_plan_id":"free"},{"bike_id":"ec3d03da-78c9-4642-80f1-267154a38bb0","system_id":"levelo_inurba_marseille","lat":43.295511,"lon":5.422926,"is_reserved":false,"is_disabled":false,"rental_uris":{"android":"levelo://app?vid=ec3d03da-78c9-4642-80f1-267154a38bb0","ios":"levelo://app?vid=ec3d03da-78c9-4642-80f1-267154a38bb0"},"vehicle_type_id":"4","last_reported":1700863596,"current_range_meters":31200,"station_id":"ce4bhph2rcd13ifvqhdg","pricing_plan_id":"free"},{"bike_id":"1a90ad96-70fc-4155-86e7-f16ea0bf6707","system_id":"levelo_inurba_marseille","lat":43.295523,"lon":5.422926,"is_reserved":false,"is_disabled":false,"rental_uris":{"android":"levelo://app?vid=1a90ad96-70fc-4155-86e7-f16ea0bf6707","ios":"levelo://app?vid=1a90ad96-70fc-4155-86e7-f16ea0bf6707"},"vehicle_type_id":"4","last_reported":1700863596,"current_range_meters":28400,"station_id":"ce4bhph2rcd13ifvqhdg","pricing_plan_id":"free"},{"bike_id":"c0e7c921-2f34-4325-9644-1440c95e11ac","system_id":"levelo_inurba_marseille","lat":43.295523,"lon":5.422926,"is_reserved":false,"is_disabled":false,"rental_uris":{"android":"levelo://app?vid=c0e7c921-2f34-4325-9644-1440c95e11ac","ios":"levelo://app?vid=c0e7c921-2f34-4325-9644-1440c95e11ac"},"vehicle_type_id":"4","last_reported":1700863596,"current_range_meters":24800,"station_id":"ce4bhph2rcd13ifvqhdg","pricing_plan_id":"free"},{"bike_id":"60384595-5838-46d3-8ef9-ce34760ba3f9","system_id":"levelo_inurba_marseille","lat":43.295511,"lon":5.422926,"is_reserved":false,"is_disabled":false,"rental_uris":{"android":"levelo://app?vid=60384595-5838-46d3-8ef9-ce34760ba3f9","ios":"levelo://app?vid=60384595-5838-46d3-8ef9-ce34760ba3f9"},"vehicle_type_id":"4","last_reported":1700863596,"current_range_meters":31200,"station_id":"ce4bhph2rcd13ifvqhdg","pricing_plan_id":"free"},{"bike_id":"db0e19ee-ec25-4c34-8e29-8f41b2c14953","system_id":"levelo_inurba_marseille","lat":43.295523,"lon":5.422926,"is_reserved":false,"is_disabled":false,"rental_uris":{"android":"levelo://app?vid=db0e19ee-ec25-4c34-8e29-8f41b2c14953","ios":"levelo://app?vid=db0e19ee-ec25-4c34-8e29-8f41b2c14953"},"vehicle_type_id":"4","last_reported":1700863596,"current_range_meters":21600,"station_id":"ce4bhph2rcd13ifvqhdg","pricing_plan_id":"free"},{"bike_id":"24b0e14c-2449-4202-ac41-8946d5866910","system_id":"levelo_inurba_marseille","lat":43.272124,"lon":5.391768,"is_reserved":false,"is_disabled":false,"rental_uris":{"android":"levelo://app?vid=24b0e14c-2449-4202-ac41-8946d5866910","ios":"levelo://app?vid=24b0e14c-2449-4202-ac41-8946d5866910"},"vehicle_type_id":"4","last_reported":1700863596,"current_range_meters":9200,"station_id":"ce4bhhp2rcd13ifvqfm0","pricing_plan_id":"free"},{"bike_id":"64182f69-ed8f-42e2-a611-4044e31cb71b","system_id":"levelo_inurba_marseille","lat":43.272124,"lon":5.391768,"is_reserved":false,"is_disabled":false,"rental_uris":{"android":"levelo://app?vid=64182f69-ed8f-42e2-a611-4044e31cb71b","ios":"levelo://app?vid=64182f69-ed8f-42e2-a611-4044e31cb71b"},"vehicle_type_id":"4","last_reported":1700863596,"current_range_meters":5200,"station_id":"ce4bhhp2rcd13ifvqfm0","pricing_plan_id":"free"},{"bike_id":"65df21c1-ac0b-47f1-a7ba-4e2868a3b771","system_id":"levelo_inurba_marseille","lat":43.272124,"lon":5.391768,"is_reserved":false,"is_disabled":false,"rental_uris":{"android":"levelo://app?vid=65df21c1-ac0b-47f1-a7ba-4e2868a3b771","ios":"levelo://app?vid=65df21c1-ac0b-47f1-a7ba-4e2868a3b771"},"vehicle_type_id":"4","last_reported":1700863596,"current_range_meters":15200,"station_id":"ce4bhhp2rcd13ifvqfm0","pricing_plan_id":"free"},{"bike_id":"c6d8125a-1b62-4ad9-80dc-d1ee14e73569","system_id":"levelo_inurba_marseille","lat":43.272124,"lon":5.391768,"is_reserved":false,"is_disabled":false,"rental_uris":{"android":"levelo://app?vid=c6d8125a-1b62-4ad9-80dc-d1ee14e73569","ios":"levelo://app?vid=c6d8125a-1b62-4ad9-80dc-d1ee14e73569"},"vehicle_type_id":"4","last_reported":1700863596,"current_range_meters":26000,"station_id":"ce4bhhp2rcd13ifvqfm0","pricing_plan_id":"free"},{"bike_id":"8f5f574b-8e28-4011-81b8-fdc97b7da9a5","system_id":"levelo_inurba_marseille","lat":43.272116,"lon":5.391763,"is_reserved":false,"is_disabled":false,"rental_uris":{"android":"levelo://app?vid=8f5f574b-8e28-4011-81b8-fdc97b7da9a5","ios":"levelo://app?vid=8f5f574b-8e28-4011-81b8-fdc97b7da9a5"},"vehicle_type_id":"4","last_reported":1700863596,"current_range_meters":12000,"station_id":"ce4bhhp2rcd13ifvqfm0","pricing_plan_id":"free"},{"bike_id":"972365b9-5066-4bb4-a1e7-7285f81f2be6","system_id":"levelo_inurba_marseille","lat":43.272124,"lon":5.391768,"is_reserved":false,"is_disabled":false,"rental_uris":{"android":"levelo://app?vid=972365b9-5066-4bb4-a1e7-7285f81f2be6","ios":"levelo://app?vid=972365b9-5066-4bb4-a1e7-7285f81f2be6"},"vehicle_type_id":"4","last_reported":1700863596,"current_range_meters":4400,"station_id":"ce4bhhp2rcd13ifvqfm0","pricing_plan_id":"free"},{"bike_id":"3c60f82e-c309-4a8c-a544-21e9efb08d7f","system_id":"levelo_inurba_marseille","lat":43.272124,"lon":5.391768,"is_reserved":false,"is_disabled":false,"rental_uris":{"android":"levelo://app?vid=3c60f82e-c309-4a8c-a544-21e9efb08d7f","ios":"levelo://app?vid=3c60f82e-c309-4a8c-a544-21e9efb08d7f"},"vehicle_type_id":"4","last_reported":1700863596,"current_range_meters":15200,"station_id":"ce4bhhp2rcd13ifvqfm0","pricing_plan_id":"free"},{"bike_id":"5cd5ff54-0b74-41d5-be32-e9d0e2959c0b","system_id":"levelo_inurba_marseille","lat":43.272118,"lon":5.391758,"is_reserved":false,"is_disabled":false,"rental_uris":{"android":"levelo://app?vid=5cd5ff54-0b74-41d5-be32-e9d0e2959c0b","ios":"levelo://app?vid=5cd5ff54-0b74-41d5-be32-e9d0e2959c0b"},"vehicle_type_id":"4","last_reported":1700863596,"current_range_meters":30000,"station_id":"ce4bhhp2rcd13ifvqfm0","pricing_plan_id":"free"},{"bike_id":"58ba1594-dbb6-46f4-89e7-d4cbdd79499a","system_id":"levelo_inurba_marseille","lat":43.278128,"lon":5.407195,"is_reserved":false,"is_disabled":false,"rental_uris":{"android":"levelo://app?vid=58ba1594-dbb6-46f4-89e7-d4cbdd79499a","ios":"levelo://app?vid=58ba1594-dbb6-46f4-89e7-d4cbdd79499a"},"vehicle_type_id":"4","last_reported":1700863596,"current_range_meters":20400,"station_id":"ce4bhnh2rcd13ifvqgtg","pricing_plan_id":"free"},{"bike_id":"89a1ff33-0e14-4cd3-a8bc-87a198c4f371","system_id":"levelo_inurba_marseille","lat":43.278128,"lon":5.407195,"is_reserved":false,"is_disabled":false,"rental_uris":{"android":"levelo://app?vid=89a1ff33-0e14-4cd3-a8bc-87a198c4f371","ios":"levelo://app?vid=89a1ff33-0e14-4cd3-a8bc-87a198c4f371"},"vehicle_type_id":"4","last_reported":1700863596,"current_range_meters":31200,"station_id":"ce4bhnh2rcd13ifvqgtg","pricing_plan_id":"free"},{"bike_id":"229fd7f6-ab14-4456-9aa5-22c620e5a4f0","system_id":"levelo_inurba_marseille","lat":43.278128,"lon":5.407195,"is_reserved":false,"is_disabled":false,"rental_uris":{"android":"levelo://app?vid=229fd7f6-ab14-4456-9aa5-22c620e5a4f0","ios":"levelo://app?vid=229fd7f6-ab14-4456-9aa5-22c620e5a4f0"},"vehicle_type_id":"4","last_reported":1700863596,"current_range_meters":30400,"station_id":"ce4bhnh2rcd13ifvqgtg","pricing_plan_id":"free"},{"bike_id":"28e8ce00-6b21-4e06-9930-c7c4408cc650","system_id":"levelo_inurba_marseille","lat":43.278164,"lon":5.407143,"is_reserved":false,"is_disabled":false,"rental_uris":{"android":"levelo://app?vid=28e8ce00-6b21-4e06-9930-c7c4408cc650","ios":"levelo://app?vid=28e8ce00-6b21-4e06-9930-c7c4408cc650"},"vehicle_type_id":"4","last_reported":1700863596,"current_range_meters":0,"station_id":"","pricing_plan_id":"free"},{"bike_id":"143b2fff-69da-4899-a45d-9740b6b83a8b","system_id":"levelo_inurba_marseille","lat":43.278128,"lon":5.407195,"is_reserved":false,"is_disabled":false,"rental_uris":{"android":"levelo://app?vid=143b2fff-69da-4899-a45d-9740b6b83a8b","ios":"levelo://app?vid=143b2fff-69da-4899-a45d-9740b6b83a8b"},"vehicle_type_id":"4","last_reported":1700863596,"current_range_meters":29200,"station_id":"ce4bhnh2rcd13ifvqgtg","pricing_plan_id":"free"},{"bike_id":"fc3c3486-b5e3-401b-9cc4-f32844ec20e0","system_id":"levelo_inurba_marseille","lat":43.279557,"lon":5.410496,"is_reserved":false,"is_disabled":false,"rental_uris":{"android":"levelo://app?vid=fc3c3486-b5e3-401b-9cc4-f32844ec20e0","ios":"levelo://app?vid=fc3c3486-b5e3-401b-9cc4-f32844ec20e0"},"vehicle_type_id":"4","last_reported":1700863596,"current_range_meters":0,"station_id":"ce4bhnp2rcd13ifvqh0g","pricing_plan_id":"free"},{"bike_id":"b0224f45-ff87-4a78-af29-61aa85230331","system_id":"levelo_inurba_marseille","lat":43.269319,"lon":5.389397,"is_reserved":false,"is_disabled":false,"rental_uris":{"android":"levelo://app?vid=b0224f45-ff87-4a78-af29-61aa85230331","ios":"levelo://app?vid=b0224f45-ff87-4a78-af29-61aa85230331"},"vehicle_type_id":"4","last_reported":1700863596,"current_range_meters":7600,"station_id":"ce4bhhh2rcd13ifvqfl0","pricing_plan_id":"free"},{"bike_id":"f23d8119-b478-4639-98c5-6883279f9f84","system_id":"levelo_inurba_marseille","lat":43.32592,"lon":5.43067,"is_reserved":false,"is_disabled":false,"rental_uris":{"android":"levelo://app?vid=f23d8119-b478-4639-98c5-6883279f9f84","ios":"levelo://app?vid=f23d8119-b478-4639-98c5-6883279f9f84"},"vehicle_type_id":"4","last_reported":1700863596,"current_range_meters":29200,"station_id":"","pricing_plan_id":"free"},{"bike_id":"e7b368e8-9edf-4ac8-acef-7e9558d427aa","system_id":"levelo_inurba_marseille","lat":43.32591,"lon":5.430713,"is_reserved":false,"is_disabled":false,"rental_uris":{"android":"levelo://app?vid=e7b368e8-9edf-4ac8-acef-7e9558d427aa","ios":"levelo://app?vid=e7b368e8-9edf-4ac8-acef-7e9558d427aa"},"vehicle_type_id":"4","last_reported":1700863596,"current_range_meters":0,"station_id":"","pricing_plan_id":"free"},{"bike_id":"ed30d6a1-b23a-49e5-9c83-5546be72a734","system_id":"levelo_inurba_marseille","lat":43.3259,"lon":5.43075,"is_reserved":false,"is_disabled":false,"rental_uris":{"android":"levelo://app?vid=ed30d6a1-b23a-49e5-9c83-5546be72a734","ios":"levelo://app?vid=ed30d6a1-b23a-49e5-9c83-5546be72a734"},"vehicle_type_id":"4","last_reported":1700863596,"current_range_meters":24000,"station_id":"","pricing_plan_id":"free"},{"bike_id":"d67469ee-5362-4610-a163-fe05ae3cf4f7","system_id":"levelo_inurba_marseille","lat":43.32604,"lon":5.430817,"is_reserved":false,"is_disabled":false,"rental_uris":{"android":"levelo://app?vid=d67469ee-5362-4610-a163-fe05ae3cf4f7","ios":"levelo://app?vid=d67469ee-5362-4610-a163-fe05ae3cf4f7"},"vehicle_type_id":"4","last_reported":1700863596,"current_range_meters":12400,"station_id":"","pricing_plan_id":"free"},{"bike_id":"2b068fec-a347-44ce-93dd-4ed3db9c7a1a","system_id":"levelo_inurba_marseille","lat":43.267966,"lon":5.393976,"is_reserved":false,"is_disabled":false,"rental_uris":{"android":"levelo://app?vid=2b068fec-a347-44ce-93dd-4ed3db9c7a1a","ios":"levelo://app?vid=2b068fec-a347-44ce-93dd-4ed3db9c7a1a"},"vehicle_type_id":"4","last_reported":1700863596,"current_range_meters":2400,"station_id":"ce4bhh12rcd13ifvqfg0","pricing_plan_id":"free"},{"bike_id":"2b5f0b27-ae58-4e9e-bd76-c585f78e8a73","system_id":"levelo_inurba_marseille","lat":43.26386,"lon":5.37454,"is_reserved":false,"is_disabled":false,"rental_uris":{"android":"levelo://app?vid=2b5f0b27-ae58-4e9e-bd76-c585f78e8a73","ios":"levelo://app?vid=2b5f0b27-ae58-4e9e-bd76-c585f78e8a73"},"vehicle_type_id":"4","last_reported":1700863596,"current_range_meters":13200,"station_id":"","pricing_plan_id":"free"},{"bike_id":"a1d95e35-bc72-40fd-9474-104870c03b88","system_id":"levelo_inurba_marseille","lat":43.308051,"lon":5.43527,"is_reserved":false,"is_disabled":false,"rental_uris":{"android":"levelo://app?vid=a1d95e35-bc72-40fd-9474-104870c03b88","ios":"levelo://app?vid=a1d95e35-bc72-40fd-9474-104870c03b88"},"vehicle_type_id":"4","last_reported":1700863596,"current_range_meters":5200,"station_id":"ce4bhph2rcd13ifvqheg","pricing_plan_id":"free"},{"bike_id":"8bb5fb4c-f033-472d-9384-8c187d29c15f","system_id":"levelo_inurba_marseille","lat":43.308051,"lon":5.43527,"is_reserved":false,"is_disabled":false,"rental_uris":{"android":"levelo://app?vid=8bb5fb4c-f033-472d-9384-8c187d29c15f","ios":"levelo://app?vid=8bb5fb4c-f033-472d-9384-8c187d29c15f"},"vehicle_type_id":"4","last_reported":1700863596,"current_range_meters":31600,"station_id":"ce4bhph2rcd13ifvqheg","pricing_plan_id":"free"},{"bike_id":"a6cf9b04-855d-4dc5-9c72-ce4a8e5bbb9c","system_id":"levelo_inurba_marseille","lat":43.31716,"lon":5.43691,"is_reserved":false,"is_disabled":false,"rental_uris":{"android":"levelo://app?vid=a6cf9b04-855d-4dc5-9c72-ce4a8e5bbb9c","ios":"levelo://app?vid=a6cf9b04-855d-4dc5-9c72-ce4a8e5bbb9c"},"vehicle_type_id":"4","last_reported":1700863596,"current_range_meters":800,"station_id":"ce4bhp92rcd13ifvqhcg","pricing_plan_id":"free"},{"bike_id":"5de903a4-d8fa-4da7-a8ab-26b111b12ae1","system_id":"levelo_inurba_marseille","lat":43.261782,"lon":5.374515,"is_reserved":false,"is_disabled":false,"rental_uris":{"android":"levelo://app?vid=5de903a4-d8fa-4da7-a8ab-26b111b12ae1","ios":"levelo://app?vid=5de903a4-d8fa-4da7-a8ab-26b111b12ae1"},"vehicle_type_id":"4","last_reported":1700863596,"current_range_meters":30000,"station_id":"ce4bhgp2rcd13ifvqfc0","pricing_plan_id":"free"},{"bike_id":"1b98b7d3-c287-45d9-80ab-ed0171f3329e","system_id":"levelo_inurba_marseille","lat":43.317104,"lon":5.436818,"is_reserved":false,"is_disabled":false,"rental_uris":{"android":"levelo://app?vid=1b98b7d3-c287-45d9-80ab-ed0171f3329e","ios":"levelo://app?vid=1b98b7d3-c287-45d9-80ab-ed0171f3329e"},"vehicle_type_id":"4","last_reported":1700863596,"current_range_meters":22000,"station_id":"ce4bhp92rcd13ifvqhcg","pricing_plan_id":"free"},{"bike_id":"2f057b81-6fc8-4570-8186-e577abd426a5","system_id":"levelo_inurba_marseille","lat":43.262012,"lon":5.379307,"is_reserved":false,"is_disabled":false,"rental_uris":{"android":"levelo://app?vid=2f057b81-6fc8-4570-8186-e577abd426a5","ios":"levelo://app?vid=2f057b81-6fc8-4570-8186-e577abd426a5"},"vehicle_type_id":"4","last_reported":1700863596,"current_range_meters":6000,"station_id":"ce4bhjp2rcd13ifvqg90","pricing_plan_id":"free"},{"bike_id":"4572da7b-b339-4c7f-80aa-57f54e950769","system_id":"levelo_inurba_marseille","lat":43.271388,"lon":5.409269,"is_reserved":false,"is_disabled":false,"rental_uris":{"android":"levelo://app?vid=4572da7b-b339-4c7f-80aa-57f54e950769","ios":"levelo://app?vid=4572da7b-b339-4c7f-80aa-57f54e950769"},"vehicle_type_id":"4","last_reported":1700863596,"current_range_meters":25600,"station_id":"ce4bhl12rcd13ifvqgf0","pricing_plan_id":"free"},{"bike_id":"3f071054-5750-40df-87c2-67c9e3371e59","system_id":"levelo_inurba_marseille","lat":43.267959,"lon":5.402685,"is_reserved":false,"is_disabled":false,"rental_uris":{"android":"levelo://app?vid=3f071054-5750-40df-87c2-67c9e3371e59","ios":"levelo://app?vid=3f071054-5750-40df-87c2-67c9e3371e59"},"vehicle_type_id":"4","last_reported":1700863596,"current_range_meters":0,"station_id":"ce501612rcd8frsf0b60","pricing_plan_id":"free"},{"bike_id":"8af0d2ed-93d1-485d-9803-40c71e52d0d9","system_id":"levelo_inurba_marseille","lat":43.298768,"lon":5.43643,"is_reserved":false,"is_disabled":false,"rental_uris":{"android":"levelo://app?vid=8af0d2ed-93d1-485d-9803-40c71e52d0d9","ios":"levelo://app?vid=8af0d2ed-93d1-485d-9803-40c71e52d0d9"},"vehicle_type_id":"4","last_reported":1700863596,"current_range_meters":15600,"station_id":"ce4bhpp2rcd13ifvqhfg","pricing_plan_id":"free"},{"bike_id":"91794d0e-e2e6-4dd9-a1b6-ff7501e49342","system_id":"levelo_inurba_marseille","lat":43.298768,"lon":5.43643,"is_reserved":false,"is_disabled":false,"rental_uris":{"android":"levelo://app?vid=91794d0e-e2e6-4dd9-a1b6-ff7501e49342","ios":"levelo://app?vid=91794d0e-e2e6-4dd9-a1b6-ff7501e49342"},"vehicle_type_id":"4","last_reported":1700863596,"current_range_meters":3600,"station_id":"ce4bhpp2rcd13ifvqhfg","pricing_plan_id":"free"},{"bike_id":"1e272c67-0721-4a45-a082-8c54474509d1","system_id":"levelo_inurba_marseille","lat":43.29901,"lon":5.436851,"is_reserved":false,"is_disabled":false,"rental_uris":{"android":"levelo://app?vid=1e272c67-0721-4a45-a082-8c54474509d1","ios":"levelo://app?vid=1e272c67-0721-4a45-a082-8c54474509d1"},"vehicle_type_id":"4","last_reported":1700863596,"current_range_meters":0,"station_id":"ce4bhpp2rcd13ifvqhfg","pricing_plan_id":"free"},{"bike_id":"5cc76595-4035-4213-b74e-41dabe622aaf","system_id":"levelo_inurba_marseille","lat":43.28151,"lon":5.42632,"is_reserved":false,"is_disabled":false,"rental_uris":{"android":"levelo://app?vid=5cc76595-4035-4213-b74e-41dabe622aaf","ios":"levelo://app?vid=5cc76595-4035-4213-b74e-41dabe622aaf"},"vehicle_type_id":"4","last_reported":1700863596,"current_range_meters":7200,"station_id":"ce4bhnh2rcd13ifvqgug","pricing_plan_id":"free"},{"bike_id":"a490993e-37f7-483a-a40b-3a1888958a96","system_id":"levelo_inurba_marseille","lat":43.28157,"lon":5.42641,"is_reserved":false,"is_disabled":false,"rental_uris":{"android":"levelo://app?vid=a490993e-37f7-483a-a40b-3a1888958a96","ios":"levelo://app?vid=a490993e-37f7-483a-a40b-3a1888958a96"},"vehicle_type_id":"4","last_reported":1700863596,"current_range_meters":2400,"station_id":"ce4bhnh2rcd13ifvqgug","pricing_plan_id":"free"},{"bike_id":"a397e803-15ed-4f7f-93b9-1d8a8de9f50a","system_id":"levelo_inurba_marseille","lat":43.29785,"lon":5.43732,"is_reserved":false,"is_disabled":false,"rental_uris":{"android":"levelo://app?vid=a397e803-15ed-4f7f-93b9-1d8a8de9f50a","ios":"levelo://app?vid=a397e803-15ed-4f7f-93b9-1d8a8de9f50a"},"vehicle_type_id":"4","last_reported":1700863596,"current_range_meters":800,"station_id":"","pricing_plan_id":"free"},{"bike_id":"5ac38179-4d98-4b89-80f2-dc6cd474e479","system_id":"levelo_inurba_marseille","lat":43.28155,"lon":5.42647,"is_reserved":false,"is_disabled":false,"rental_uris":{"android":"levelo://app?vid=5ac38179-4d98-4b89-80f2-dc6cd474e479","ios":"levelo://app?vid=5ac38179-4d98-4b89-80f2-dc6cd474e479"},"vehicle_type_id":"4","last_reported":1700863596,"current_range_meters":20000,"station_id":"ce4bhnh2rcd13ifvqgug","pricing_plan_id":"free"},{"bike_id":"f154e957-88bd-4034-90de-05374419501a","system_id":"levelo_inurba_marseille","lat":43.281548,"lon":5.42643,"is_reserved":false,"is_disabled":false,"rental_uris":{"android":"levelo://app?vid=f154e957-88bd-4034-90de-05374419501a","ios":"levelo://app?vid=f154e957-88bd-4034-90de-05374419501a"},"vehicle_type_id":"4","last_reported":1700863596,"current_range_meters":19200,"station_id":"ce4bhnh2rcd13ifvqgug","pricing_plan_id":"free"},{"bike_id":"6181795c-d57f-4dce-a524-f46690bf06cb","system_id":"levelo_inurba_marseille","lat":43.28152,"lon":5.42649,"is_reserved":false,"is_disabled":false,"rental_uris":{"android":"levelo://app?vid=6181795c-d57f-4dce-a524-f46690bf06cb","ios":"levelo://app?vid=6181795c-d57f-4dce-a524-f46690bf06cb"},"vehicle_type_id":"4","last_reported":1700863596,"current_range_meters":28000,"station_id":"ce4bhnh2rcd13ifvqgug","pricing_plan_id":"free"},{"bike_id":"24f1bf1f-5268-45e6-a816-869a92bcc51d","system_id":"levelo_inurba_marseille","lat":43.275028,"lon":5.424534,"is_reserved":false,"is_disabled":false,"rental_uris":{"android":"levelo://app?vid=24f1bf1f-5268-45e6-a816-869a92bcc51d","ios":"levelo://app?vid=24f1bf1f-5268-45e6-a816-869a92bcc51d"},"vehicle_type_id":"4","last_reported":1700863596,"current_range_meters":26400,"station_id":"ce4bhn92rcd13ifvqgrg","pricing_plan_id":"free"},{"bike_id":"ff385c11-2b7e-45df-b8ce-aac89ab149ad","system_id":"levelo_inurba_marseille","lat":43.275028,"lon":5.424534,"is_reserved":false,"is_disabled":false,"rental_uris":{"android":"levelo://app?vid=ff385c11-2b7e-45df-b8ce-aac89ab149ad","ios":"levelo://app?vid=ff385c11-2b7e-45df-b8ce-aac89ab149ad"},"vehicle_type_id":"4","last_reported":1700863596,"current_range_meters":22000,"station_id":"ce4bhn92rcd13ifvqgrg","pricing_plan_id":"free"},{"bike_id":"c85f7616-3a9e-47a4-ae16-28a03e51ab4f","system_id":"levelo_inurba_marseille","lat":43.289333,"lon":5.43864,"is_reserved":false,"is_disabled":false,"rental_uris":{"android":"levelo://app?vid=c85f7616-3a9e-47a4-ae16-28a03e51ab4f","ios":"levelo://app?vid=c85f7616-3a9e-47a4-ae16-28a03e51ab4f"},"vehicle_type_id":"4","last_reported":1700863596,"current_range_meters":1200,"station_id":"","pricing_plan_id":"free"},{"bike_id":"0c183117-f8d1-45f2-b83d-553404d60b09","system_id":"levelo_inurba_marseille","lat":43.258224,"lon":5.394369,"is_reserved":false,"is_disabled":false,"rental_uris":{"android":"levelo://app?vid=0c183117-f8d1-45f2-b83d-553404d60b09","ios":"levelo://app?vid=0c183117-f8d1-45f2-b83d-553404d60b09"},"vehicle_type_id":"4","last_reported":1700863596,"current_range_meters":3600,"station_id":"ce4bhip2rcd13ifvqft0","pricing_plan_id":"free"},{"bike_id":"6b0a63d3-7c73-4ad6-b0e8-e96ad0e8570e","system_id":"levelo_inurba_marseille","lat":43.254947,"lon":5.376454,"is_reserved":false,"is_disabled":false,"rental_uris":{"android":"levelo://app?vid=6b0a63d3-7c73-4ad6-b0e8-e96ad0e8570e","ios":"levelo://app?vid=6b0a63d3-7c73-4ad6-b0e8-e96ad0e8570e"},"vehicle_type_id":"4","last_reported":1700863596,"current_range_meters":13600,"station_id":"ce4bhh12rcd13ifvqff0","pricing_plan_id":"free"},{"bike_id":"33365e98-9ada-4f35-b9c4-ebe09a662b13","system_id":"levelo_inurba_marseille","lat":43.254947,"lon":5.376454,"is_reserved":false,"is_disabled":false,"rental_uris":{"android":"levelo://app?vid=33365e98-9ada-4f35-b9c4-ebe09a662b13","ios":"levelo://app?vid=33365e98-9ada-4f35-b9c4-ebe09a662b13"},"vehicle_type_id":"4","last_reported":1700863596,"current_range_meters":19600,"station_id":"ce4bhh12rcd13ifvqff0","pricing_plan_id":"free"},{"bike_id":"628eca0c-5a2e-4ede-9dc7-a35efd009220","system_id":"levelo_inurba_marseille","lat":43.254947,"lon":5.376454,"is_reserved":false,"is_disabled":false,"rental_uris":{"android":"levelo://app?vid=628eca0c-5a2e-4ede-9dc7-a35efd009220","ios":"levelo://app?vid=628eca0c-5a2e-4ede-9dc7-a35efd009220"},"vehicle_type_id":"4","last_reported":1700863596,"current_range_meters":10400,"station_id":"ce4bhh12rcd13ifvqff0","pricing_plan_id":"free"},{"bike_id":"ad657e31-d5a7-459b-a7ef-89532e280c6c","system_id":"levelo_inurba_marseille","lat":43.270721,"lon":5.422764,"is_reserved":false,"is_disabled":false,"rental_uris":{"android":"levelo://app?vid=ad657e31-d5a7-459b-a7ef-89532e280c6c","ios":"levelo://app?vid=ad657e31-d5a7-459b-a7ef-89532e280c6c"},"vehicle_type_id":"4","last_reported":1700863596,"current_range_meters":29200,"station_id":"ce4bhk92rcd13ifvqgb0","pricing_plan_id":"free"},{"bike_id":"cfd2dccf-2ef8-4b4a-8469-7caa00dd869f","system_id":"levelo_inurba_marseille","lat":43.270721,"lon":5.422764,"is_reserved":false,"is_disabled":false,"rental_uris":{"android":"levelo://app?vid=cfd2dccf-2ef8-4b4a-8469-7caa00dd869f","ios":"levelo://app?vid=cfd2dccf-2ef8-4b4a-8469-7caa00dd869f"},"vehicle_type_id":"4","last_reported":1700863596,"current_range_meters":28000,"station_id":"ce4bhk92rcd13ifvqgb0","pricing_plan_id":"free"},{"bike_id":"6e55057c-225a-49d9-92b8-4a4d26b84634","system_id":"levelo_inurba_marseille","lat":43.26897,"lon":5.420966,"is_reserved":false,"is_disabled":false,"rental_uris":{"android":"levelo://app?vid=6e55057c-225a-49d9-92b8-4a4d26b84634","ios":"levelo://app?vid=6e55057c-225a-49d9-92b8-4a4d26b84634"},"vehicle_type_id":"4","last_reported":1700863596,"current_range_meters":30800,"station_id":"","pricing_plan_id":"free"},{"bike_id":"5c1d11fa-20ba-453d-9619-f4d6fb1453d2","system_id":"levelo_inurba_marseille","lat":43.259013,"lon":5.409301,"is_reserved":false,"is_disabled":false,"rental_uris":{"android":"levelo://app?vid=5c1d11fa-20ba-453d-9619-f4d6fb1453d2","ios":"levelo://app?vid=5c1d11fa-20ba-453d-9619-f4d6fb1453d2"},"vehicle_type_id":"4","last_reported":1700863596,"current_range_meters":12400,"station_id":"ce4bhm92rcd13ifvqglg","pricing_plan_id":"free"},{"bike_id":"c8d774f9-565e-4401-b7b2-fd8390149add","system_id":"levelo_inurba_marseille","lat":43.257079,"lon":5.411051,"is_reserved":false,"is_disabled":false,"rental_uris":{"android":"levelo://app?vid=c8d774f9-565e-4401-b7b2-fd8390149add","ios":"levelo://app?vid=c8d774f9-565e-4401-b7b2-fd8390149add"},"vehicle_type_id":"4","last_reported":1700863596,"current_range_meters":19200,"station_id":"ce4bhkp2rcd13ifvqgd0","pricing_plan_id":"free"},{"bike_id":"8b7aac62-2dc7-4433-9caa-c606b18bbc7b","system_id":"levelo_inurba_marseille","lat":43.257079,"lon":5.411051,"is_reserved":false,"is_disabled":false,"rental_uris":{"android":"levelo://app?vid=8b7aac62-2dc7-4433-9caa-c606b18bbc7b","ios":"levelo://app?vid=8b7aac62-2dc7-4433-9caa-c606b18bbc7b"},"vehicle_type_id":"4","last_reported":1700863596,"current_range_meters":17600,"station_id":"ce4bhkp2rcd13ifvqgd0","pricing_plan_id":"free"},{"bike_id":"d6458dd0-d251-4987-99cb-bc93cf4f63bd","system_id":"levelo_inurba_marseille","lat":43.250009,"lon":5.389195,"is_reserved":false,"is_disabled":false,"rental_uris":{"android":"levelo://app?vid=d6458dd0-d251-4987-99cb-bc93cf4f63bd","ios":"levelo://app?vid=d6458dd0-d251-4987-99cb-bc93cf4f63bd"},"vehicle_type_id":"4","last_reported":1700863596,"current_range_meters":5600,"station_id":"ce4bhgp2rcd13ifvqfd0","pricing_plan_id":"free"},{"bike_id":"88519be8-7050-4d98-8f39-11b31a4d68cd","system_id":"levelo_inurba_marseille","lat":43.2479,"lon":5.374457,"is_reserved":false,"is_disabled":false,"rental_uris":{"android":"levelo://app?vid=88519be8-7050-4d98-8f39-11b31a4d68cd","ios":"levelo://app?vid=88519be8-7050-4d98-8f39-11b31a4d68cd"},"vehicle_type_id":"4","last_reported":1700863596,"current_range_meters":0,"station_id":"ce4bhgh2rcd13ifvqfb0","pricing_plan_id":"free"},{"bike_id":"2527788f-c29a-4f1e-bf20-ae741335880f","system_id":"levelo_inurba_marseille","lat":43.2479,"lon":5.374457,"is_reserved":false,"is_disabled":false,"rental_uris":{"android":"levelo://app?vid=2527788f-c29a-4f1e-bf20-ae741335880f","ios":"levelo://app?vid=2527788f-c29a-4f1e-bf20-ae741335880f"},"vehicle_type_id":"4","last_reported":1700863596,"current_range_meters":6400,"station_id":"ce4bhgh2rcd13ifvqfb0","pricing_plan_id":"free"},{"bike_id":"ba40459b-fa92-48ea-89ea-ba99173bc463","system_id":"levelo_inurba_marseille","lat":43.2479,"lon":5.374457,"is_reserved":false,"is_disabled":false,"rental_uris":{"android":"levelo://app?vid=ba40459b-fa92-48ea-89ea-ba99173bc463","ios":"levelo://app?vid=ba40459b-fa92-48ea-89ea-ba99173bc463"},"vehicle_type_id":"4","last_reported":1700863596,"current_range_meters":28400,"station_id":"ce4bhgh2rcd13ifvqfb0","pricing_plan_id":"free"},{"bike_id":"0d59a7aa-71a7-4b34-9c6a-90f78040711d","system_id":"levelo_inurba_marseille","lat":43.2479,"lon":5.374457,"is_reserved":false,"is_disabled":false,"rental_uris":{"android":"levelo://app?vid=0d59a7aa-71a7-4b34-9c6a-90f78040711d","ios":"levelo://app?vid=0d59a7aa-71a7-4b34-9c6a-90f78040711d"},"vehicle_type_id":"4","last_reported":1700863596,"current_range_meters":1600,"station_id":"ce4bhgh2rcd13ifvqfb0","pricing_plan_id":"free"},{"bike_id":"52b1e6aa-c252-4bb8-9e3e-81aee86cd1b4","system_id":"levelo_inurba_marseille","lat":43.2479,"lon":5.374457,"is_reserved":false,"is_disabled":false,"rental_uris":{"android":"levelo://app?vid=52b1e6aa-c252-4bb8-9e3e-81aee86cd1b4","ios":"levelo://app?vid=52b1e6aa-c252-4bb8-9e3e-81aee86cd1b4"},"vehicle_type_id":"4","last_reported":1700863596,"current_range_meters":23200,"station_id":"ce4bhgh2rcd13ifvqfb0","pricing_plan_id":"free"},{"bike_id":"4ef0619b-5e9b-4bba-b8d3-4779dab6deef","system_id":"levelo_inurba_marseille","lat":43.250877,"lon":5.395172,"is_reserved":false,"is_disabled":false,"rental_uris":{"android":"levelo://app?vid=4ef0619b-5e9b-4bba-b8d3-4779dab6deef","ios":"levelo://app?vid=4ef0619b-5e9b-4bba-b8d3-4779dab6deef"},"vehicle_type_id":"4","last_reported":1700863596,"current_range_meters":10400,"station_id":"ce4bhm12rcd13ifvqgkg","pricing_plan_id":"free"},{"bike_id":"eae92935-d2e4-436e-884b-389e9d56d41a","system_id":"levelo_inurba_marseille","lat":43.250966,"lon":5.395186,"is_reserved":false,"is_disabled":false,"rental_uris":{"android":"levelo://app?vid=eae92935-d2e4-436e-884b-389e9d56d41a","ios":"levelo://app?vid=eae92935-d2e4-436e-884b-389e9d56d41a"},"vehicle_type_id":"4","last_reported":1700863596,"current_range_meters":30400,"station_id":"ce4bhm12rcd13ifvqgkg","pricing_plan_id":"free"},{"bike_id":"42f49140-9965-47cd-8af7-3e161c2f7b46","system_id":"levelo_inurba_marseille","lat":43.250966,"lon":5.395186,"is_reserved":false,"is_disabled":false,"rental_uris":{"android":"levelo://app?vid=42f49140-9965-47cd-8af7-3e161c2f7b46","ios":"levelo://app?vid=42f49140-9965-47cd-8af7-3e161c2f7b46"},"vehicle_type_id":"4","last_reported":1700863596,"current_range_meters":30400,"station_id":"ce4bhm12rcd13ifvqgkg","pricing_plan_id":"free"},{"bike_id":"11ff4b60-83a3-44cf-a8dc-b8ec034549c4","system_id":"levelo_inurba_marseille","lat":43.25107,"lon":5.403268,"is_reserved":false,"is_disabled":false,"rental_uris":{"android":"levelo://app?vid=11ff4b60-83a3-44cf-a8dc-b8ec034549c4","ios":"levelo://app?vid=11ff4b60-83a3-44cf-a8dc-b8ec034549c4"},"vehicle_type_id":"4","last_reported":1700863596,"current_range_meters":0,"station_id":"ce4bhlh2rcd13ifvqgig","pricing_plan_id":"free"},