{"last_updated":1725725353,"ttl":30,"version":"2.2","data":{"bikes":[{"bike_id":"4a1e4cf0-d4f6-412d-bf5f-689c45b52bce","system_id":"levelo_inurba_marseille","lat":43.31225,"lon":5.36851,"is_reserved":false,"is_disabled":false,"rental_uris":{"android":"levelo://app?vid=4a1e4cf0-d4f6-412d-bf5f-689c45b52bce","ios":"levelo://app?vid=4a1e4cf0-d4f6-412d-bf5f-689c45b52bce"},"vehicle_type_id":"4","last_reported":1725725353,"current_range_meters":0,"station_id":"ce4bgl92rcd13ifvqbq0","pricing_plan_id":"cebpf4jnsgd1na2vs0mg"},{"bike_id":"e590a758-d24a-4cc0-90a6-ae8be754c022","system_id":"levelo_inurba_marseille","lat":43.314811,"lon":5.373103,"is_reserved":false,"is_disabled":false,"rental_uris":{"android":"levelo://app?vid=e590a758-d24a-4cc0-90a6-ae8be754c022","ios":"levelo://app?vid=e590a758-d24a-4cc0-90a6-ae8be754c022"},"vehicle_type_id":"4","last_reported":1725725353,"current_range_meters":0,"station_id":"ce4bgt12rcd13ifvqcd0","pricing_plan_id":"cebpf4jnsgd1na2vs0mg"},{"bike_id":"3799a3e7-8183-49c8-abd8-f6ba3a48247b","system_id":"levelo_inurba_marseille","lat":43.314811,"lon":5.373103,"is_reserved":false,"is_disabled":false,"rental_uris":{"android":"levelo://app?vid=3799a3e7-8183-49c8-abd8-f6ba3a48247b","ios":"levelo://app?vid=3799a3e7-8183-49c8-abd8-f6ba3a48247b"},"vehicle_type_id":"4","last_reported":1725725353,"current_range_meters":6800,"station_id":"ce4bgt12rcd13ifvqcd0","pricing_plan_id":"cebpf4jnsgd1na2vs0mg"},{"bike_id":"711326e6-66f9-44d7-b48f-ce047075dc1a","system_id":"levelo_inurba_marseille","lat":43.30895,"lon":5.37186,"is_reserved":false,"is_disabled":false,"rental_uris":{"android":"levelo://app?vid=711326e6-66f9-44d7-b48f-ce047075dc1a","ios":"levelo://app?vid=711326e6-66f9-44d7-b48f-ce047075dc1a"},"vehicle_type_id":"4","last_reported":1725725353,"current_range_meters":5200,"station_id":"ce4bguh2rcd13ifvqckg","pricing_plan_id":"cebpf4jnsgd1na2vs0mg"},{"bike_id":"3ee32756-54f3-4661-b92a-08a8555d7181","system_id":"levelo_inurba_marseille","lat":43.309039,"lon":5.371797,"is_reserved":false,"is_disabled":false,"rental_uris":{"android":"levelo://app?vid=3ee32756-54f3-4661-b92a-08a8555d7181","ios":"levelo://app?vid=3ee32756-54f3-4661-b92a-08a8555d7181"},"vehicle_type_id":"4","last_reported":1725725353,"current_range_meters":6800,"station_id":"ce4bguh2rcd13ifvqckg","pricing_plan_id":"cebpf4jnsgd1na2vs0mg"},{"bike_id":"da4160f6-f0cd-4093-93c2-1bc61f606e3c","system_id":"levelo_inurba_marseille","lat":43.306257,"lon":5.365713,"is_reserved":false,"is_disabled":false,"rental_uris":{"android":"levelo://app?vid=da4160f6-f0cd-4093-93c2-1bc61f606e3c","ios":"levelo://app?vid=da4160f6-f0cd-4093-93c2-1bc61f606e3c"},"vehicle_type_id":"4","last_reported":1725725353,"current_range_meters":0,"station_id":"","pricing_plan_id":"cebpf4jnsgd1na2vs0mg"},{"bike_id":"9fb544ab-8f1e-4aa0-8f1c-8c724e9f3d89","system_id":"levelo_inurba_marseille","lat":43.30558,"lon":5.36519,"is_reserved":false,"is_disabled":false,"rental_uris":{"android":"levelo://app?vid=9fb544ab-8f1e-4aa0-8f1c-8c724e9f3d89","ios":"levelo://app?vid=9fb544ab-8f1e-4aa0-8f1c-8c724e9f3d89"},"vehicle_type_id":"4","last_reported":1725725353,"current_range_meters":4000,"station_id":"ce4bgs12rcd13ifvqcag","pricing_plan_id":"cebpf4jnsgd1na2vs0mg"},{"bike_id":"ae317101-92b1-4117-8baa-28593a29f64a","system_id":"levelo_inurba_marseille","lat":43.305714,"lon":5.365633,"is_reserved":false,"is_disabled":false,"rental_uris":{"android":"levelo://app?vid=ae317101-92b1-4117-8baa-28593a29f64a","ios":"levelo://app?vid=ae317101-92b1-4117-8baa-28593a29f64a"},"vehicle_type_id":"4","last_reported":1725725353,"current_range_meters":11600,"station_id":"ce4bgs12rcd13ifvqcag","pricing_plan_id":"cebpf4jnsgd1na2vs0mg"},{"bike_id":"2f64486f-b2f9-4c6a-a6ff-30cd0fa15055","system_id":"levelo_inurba_marseille","lat":43.305712,"lon":5.365641,"is_reserved":false,"is_disabled":false,"rental_uris":{"android":"levelo://app?vid=2f64486f-b2f9-4c6a-a6ff-30cd0fa15055","ios":"levelo://app?vid=2f64486f-b2f9-4c6a-a6ff-30cd0fa15055"},"vehicle_type_id":"4","last_reported":1725725353,"current_range_meters":24800,"station_id":"ce4bgs12rcd13ifvqcag","pricing_plan_id":"cebpf4jnsgd1na2vs0mg"},{"bike_id":"53058908-529e-408e-9249-23d702b14d86","system_id":"levelo_inurba_marseille","lat":43.31003,"lon":5.376387,"is_reserved":false,"is_disabled":false,"rental_uris":{"android":"levelo://app?vid=53058908-529e-408e-9249-23d702b14d86","ios":"levelo://app?vid=53058908-529e-408e-9249-23d702b14d86"},"vehicle_type_id":"4","last_reported":1725725353,"current_range_meters":0,"station_id":"","pricing_plan_id":"cebpf4jnsgd1na2vs0mg"},{"bike_id":"8d349c1d-f9e1-4ceb-b913-a12ab5904fd5","system_id":"levelo_inurba_marseille","lat":43.305368,"lon":5.367343,"is_reserved":false,"is_disabled":false,"rental_uris":{"android":"levelo://app?vid=8d349c1d-f9e1-4ceb-b913-a12ab5904fd5","ios":"levelo://app?vid=8d349c1d-f9e1-4ceb-b913-a12ab5904fd5"},"vehicle_type_id":"4","last_reported":1725725353,"current_range_meters":12400,"station_id":"ce4bgrp2rcd13ifvqc9g","pricing_plan_id":"cebpf4jnsgd1na2vs0mg"},{"bike_id":"c3871258-2ea9-40e6-8e0f-e0ea7bb58128","system_id":"levelo_inurba_marseille","lat":43.30542,"lon":5.36522,"is_reserved":false,"is_disabled":false,"rental_uris":{"android":"levelo://app?vid=c3871258-2ea9-40e6-8e0f-e0ea7bb58128","ios":"levelo://app?vid=c3871258-2ea9-40e6-8e0f-e0ea7bb58128"},"vehicle_type_id":"4","last_reported":1725725353,"current_range_meters":22800,"station_id":"ce4bgs12rcd13ifvqcag","pricing_plan_id":"cebpf4jnsgd1na2vs0mg"},{"bike_id":"8f391da0-31d1-4c78-95e9-a20b0b616639","system_id":"levelo_inurba_marseille","lat":43.311131,"lon":5.377651,"is_reserved":false,"is_disabled":false,"rental_uris":{"android":"levelo://app?vid=8f391da0-31d1-4c78-95e9-a20b0b616639","ios":"levelo://app?vid=8f391da0-31d1-4c78-95e9-a20b0b616639"},"vehicle_type_id":"4","last_reported":1725725353,"current_range_meters":20400,"station_id":"ce4bgt92rcd13ifvqcg0","pricing_plan_id":"cebpf4jnsgd1na2vs0mg"},{"bike_id":"a6efa3f3-e2e6-4f77-9da1-4bd424687556","system_id":"levelo_inurba_marseille","lat":43.311125,"lon":5.377624,"is_reserved":false,"is_disabled":false,"rental_uris":{"android":"levelo://app?vid=a6efa3f3-e2e6-4f77-9da1-4bd424687556","ios":"levelo://app?vid=a6efa3f3-e2e6-4f77-9da1-4bd424687556"},"vehicle_type_id":"4","last_reported":1725725353,"current_range_meters":24800,"station_id":"ce4bgt92rcd13ifvqcg0","pricing_plan_id":"cebpf4jnsgd1na2vs0mg"},{"bike_id":"0ff476c5-577d-499b-9ffd-09ef33fce8aa","system_id":"levelo_inurba_marseille","lat":43.307945,"lon":5.376487,"is_reserved":false,"is_disabled":false,"rental_uris":{"android":"levelo://app?vid=0ff476c5-577d-499b-9ffd-09ef33fce8aa","ios":"levelo://app?vid=0ff476c5-577d-499b-9ffd-09ef33fce8aa"},"vehicle_type_id":"4","last_reported":1725725353,"current_range_meters":800,"station_id":"ce4bgv92rcd13ifvqcq0","pricing_plan_id":"cebpf4jnsgd1na2vs0mg"},{"bike_id":"8acc1e77-4de6-4a7b-8a22-a6623441f3a7","system_id":"levelo_inurba_marseille","lat":43.317075,"lon":5.377367,"is_reserved":false,"is_disabled":false,"rental_uris":{"android":"levelo://app?vid=8acc1e77-4de6-4a7b-8a22-a6623441f3a7","ios":"levelo://app?vid=8acc1e77-4de6-4a7b-8a22-a6623441f3a7"},"vehicle_type_id":"4","last_reported":1725725353,"current_range_meters":11200,"station_id":"ce4bgth2rcd13ifvqch0","pricing_plan_id":"cebpf4jnsgd1na2vs0mg"},{"bike_id":"e6240958-5766-4e43-be3c-5414d3e93fa9","system_id":"levelo_inurba_marseille","lat":43.31354,"lon":5.37918,"is_reserved":false,"is_disabled":false,"rental_uris":{"android":"levelo://app?vid=e6240958-5766-4e43-be3c-5414d3e93fa9","ios":"levelo://app?vid=e6240958-5766-4e43-be3c-5414d3e93fa9"},"vehicle_type_id":"4","last_reported":1725725353,"current_range_meters":22800,"station_id":"","pricing_plan_id":"cebpf4jnsgd1na2vs0mg"},{"bike_id":"69c78e42-7244-400a-b149-798e93cec65e","system_id":"levelo_inurba_marseille","lat":43.31134,"lon":5.37975,"is_reserved":false,"is_disabled":false,"rental_uris":{"android":"levelo://app?vid=69c78e42-7244-400a-b149-798e93cec65e","ios":"levelo://app?vid=69c78e42-7244-400a-b149-798e93cec65e"},"vehicle_type_id":"4","last_reported":1725725353,"current_range_meters":800,"station_id":"","pricing_plan_id":"cebpf4jnsgd1na2vs0mg"},{"bike_id":"84b71bae-17fa-4759-a4fa-0ee91e7b6f12","system_id":"levelo_inurba_marseille","lat":43.303046,"lon":5.368981,"is_reserved":false,"is_disabled":false,"rental_uris":{"android":"levelo://app?vid=84b71bae-17fa-4759-a4fa-0ee91e7b6f12","ios":"levelo://app?vid=84b71bae-17fa-4759-a4fa-0ee91e7b6f12"},"vehicle_type_id":"4","last_reported":1725725353,"current_range_meters":27600,"station_id":"ce4bgqh2rcd13ifvqc5g","pricing_plan_id":"cebpf4jnsgd1na2vs0mg"},{"bike_id":"5c7e602c-f961-461f-96ab-799dea8e8115","system_id":"levelo_inurba_marseille","lat":43.32315,"lon":5.36737,"is_reserved":false,"is_disabled":false,"rental_uris":{"android":"levelo://app?vid=5c7e602c-f961-461f-96ab-799dea8e8115","ios":"levelo://app?vid=5c7e602c-f961-461f-96ab-799dea8e8115"},"vehicle_type_id":"4","last_reported":1725725353,"current_range_meters":14000,"station_id":"","pricing_plan_id":"cebpf4jnsgd1na2vs0mg"},{"bike_id":"00d1bf13-0cc0-4731-a7fe-5e036a72c9b1","system_id":"levelo_inurba_marseille","lat":43.301939,"lon":5.366286,"is_reserved":false,"is_disabled":false,"rental_uris":{"android":"levelo://app?vid=00d1bf13-0cc0-4731-a7fe-5e036a72c9b1","ios":"levelo://app?vid=00d1bf13-0cc0-4731-a7fe-5e036a72c9b1"},"vehicle_type_id":"4","last_reported":1725725353,"current_range_meters":14800,"station_id":"ce4bgrh2rcd13ifvqc8g","pricing_plan_id":"cebpf4jnsgd1na2vs0mg"},{"bike_id":"03516487-42bf-4058-97b6-4b1ff8ee985b","system_id":"levelo_inurba_marseille","lat":43.308012,"lon":5.381511,"is_reserved":false,"is_disabled":false,"rental_uris":{"android":"levelo://app?vid=03516487-42bf-4058-97b6-4b1ff8ee985b","ios":"levelo://app?vid=03516487-42bf-4058-97b6-4b1ff8ee985b"},"vehicle_type_id":"4","last_reported":1725725353,"current_range_meters":6400,"station_id":"ce4bgt12rcd13ifvqce0","pricing_plan_id":"cebpf4jnsgd1na2vs0mg"},{"bike_id":"8c464402-a0c6-4a4a-9839-3298008ef535","system_id":"levelo_inurba_marseille","lat":43.304606,"lon":5.379026,"is_reserved":false,"is_disabled":false,"rental_uris":{"android":"levelo://app?vid=8c464402-a0c6-4a4a-9839-3298008ef535","ios":"levelo://app?vid=8c464402-a0c6-4a4a-9839-3298008ef535"},"vehicle_type_id":"4","last_reported":1725725353,"current_range_meters":3600,"station_id":"ce4bgup2rcd13ifvqcn0","pricing_plan_id":"cebpf4jnsgd1na2vs0mg"},{"bike_id":"e99fee76-1029-40dc-bf90-a40684da047f","system_id":"levelo_inurba_marseille","lat":43.32477,"lon":5.3657,"is_reserved":false,"is_disabled":false,"rental_uris":{"android":"levelo://app?vid=e99fee76-1029-40dc-bf90-a40684da047f","ios":"levelo://app?vid=e99fee76-1029-40dc-bf90-a40684da047f"},"vehicle_type_id":"4","last_reported":1725725353,"current_range_meters":26400,"station_id":"ce4bhs12rcd13ifvqhvg","pricing_plan_id":"cebpf4jnsgd1na2vs0mg"},{"bike_id":"8e8b7298-bda1-42f1-9283-662fa4189aca","system_id":"levelo_inurba_marseille","lat":43.32478,"lon":5.36583,"is_reserved":false,"is_disabled":false,"rental_uris":{"android":"levelo://app?vid=8e8b7298-bda1-42f1-9283-662fa4189aca","ios":"levelo://app?vid=8e8b7298-bda1-42f1-9283-662fa4189aca"},"vehicle_type_id":"4","last_reported":1725725353,"current_range_meters":30400,"station_id":"ce4bhs12rcd13ifvqhvg","pricing_plan_id":"cebpf4jnsgd1na2vs0mg"},{"bike_id":"63c49738-d575-485b-92e6-c4dd9d962790","system_id":"levelo_inurba_marseille","lat":43.324771,"lon":5.36557,"is_reserved":false,"is_disabled":false,"rental_uris":{"android":"levelo://app?vid=63c49738-d575-485b-92e6-c4dd9d962790","ios":"levelo://app?vid=63c49738-d575-485b-92e6-c4dd9d962790"},"vehicle_type_id":"4","last_reported":1725725353,"current_range_meters":12000,"station_id":"ce4bhs12rcd13ifvqhvg","pricing_plan_id":"cebpf4jnsgd1na2vs0mg"},{"bike_id":"33a5524d-9e06-48a0-b030-c181cf3ce0c9","system_id":"levelo_inurba_marseille","lat":43.32482,"lon":5.365767,"is_reserved":false,"is_disabled":false,"rental_uris":{"android":"levelo://app?vid=33a5524d-9e06-48a0-b030-c181cf3ce0c9","ios":"levelo://app?vid=33a5524d-9e06-48a0-b030-c181cf3ce0c9"},"vehicle_type_id":"4","last_reported":1725725353,"current_range_meters":11600,"station_id":"ce4bhs12rcd13ifvqhvg","pricing_plan_id":"cebpf4jnsgd1na2vs0mg"},{"bike_id":"d5959fbd-009b-4440-810f-601f3cb302d3","system_id":"levelo_inurba_marseille","lat":43.32484,"lon":5.36581,"is_reserved":false,"is_disabled":false,"rental_uris":{"android":"levelo://app?vid=d5959fbd-009b-4440-810f-601f3cb302d3","ios":"levelo://app?vid=d5959fbd-009b-4440-810f-601f3cb302d3"},"vehicle_type_id":"4","last_reported":1725725353,"current_range_meters":6000,"station_id":"ce4bhs12rcd13ifvqhvg","pricing_plan_id":"cebpf4jnsgd1na2vs0mg"},{"bike_id":"62c5248c-5496-4914-9982-489da97f23ea","system_id":"levelo_inurba_marseille","lat":43.32485,"lon":5.36582,"is_reserved":false,"is_disabled":false,"rental_uris":{"android":"levelo://app?vid=62c5248c-5496-4914-9982-489da97f23ea","ios":"levelo://app?vid=62c5248c-5496-4914-9982-489da97f23ea"},"vehicle_type_id":"4","last_reported":1725725353,"current_range_meters":10000,"station_id":"ce4bhs12rcd13ifvqhvg","pricing_plan_id":"cebpf4jnsgd1na2vs0mg"},{"bike_id":"65c91795-2ec5-482a-afb8-a5b9b4bc73cc","system_id":"levelo_inurba_marseille","lat":43.324845,"lon":5.365585,"is_reserved":false,"is_disabled":false,"rental_uris":{"android":"levelo://app?vid=65c91795-2ec5-482a-afb8-a5b9b4bc73cc","ios":"levelo://app?vid=65c91795-2ec5-482a-afb8-a5b9b4bc73cc"},"vehicle_type_id":"4","last_reported":1725725353,"current_range_meters":0,"station_id":"ce4bhs12rcd13ifvqhvg","pricing_plan_id":"cebpf4jnsgd1na2vs0mg"},{"bike_id":"7e56b2f0-5b05-467e-b16c-93d9fe6a3d5c","system_id":"levelo_inurba_marseille","lat":43.310804,"lon":5.38359,"is_reserved":false,"is_disabled":false,"rental_uris":{"android":"levelo://app?vid=7e56b2f0-5b05-467e-b16c-93d9fe6a3d5c","ios":"levelo://app?vid=7e56b2f0-5b05-467e-b16c-93d9fe6a3d5c"},"vehicle_type_id":"4","last_reported":1725725353,"current_range_meters":0,"station_id":"ce4bgv92rcd13ifvqcr0","pricing_plan_id":"cebpf4jnsgd1na2vs0mg"},{"bike_id":"93c4077f-6215-40f0-a00b-57a3060882c1","system_id":"levelo_inurba_marseille","lat":43.310804,"lon":5.38359,"is_reserved":false,"is_disabled":false,"rental_uris":{"android":"levelo://app?vid=93c4077f-6215-40f0-a00b-57a3060882c1","ios":"levelo://app?vid=93c4077f-6215-40f0-a00b-57a3060882c1"},"vehicle_type_id":"4","last_reported":1725725353,"current_range_meters":22800,"station_id":"ce4bgv92rcd13ifvqcr0","pricing_plan_id":"cebpf4jnsgd1na2vs0mg"},{"bike_id":"96934dd4-6a6e-4235-bb58-9f80a5ba6c6b","system_id":"levelo_inurba_marseille","lat":43.31994,"lon":5.38149,"is_reserved":false,"is_disabled":false,"rental_uris":{"android":"levelo://app?vid=96934dd4-6a6e-4235-bb58-9f80a5ba6c6b","ios":"levelo://app?vid=96934dd4-6a6e-4235-bb58-9f80a5ba6c6b"},"vehicle_type_id":"4","last_reported":1725725353,"current_range_meters":31200,"station_id":"ce4bhr12rcd13ifvqhpg","pricing_plan_id":"cebpf4jnsgd1na2vs0mg"},{"bike_id":"a695f5b7-8baf-4130-8a46-0e6d56a1aec1","system_id":"levelo_inurba_marseille","lat":43.319935,"lon":5.381699,"is_reserved":false,"is_disabled":false,"rental_uris":{"android":"levelo://app?vid=a695f5b7-8baf-4130-8a46-0e6d56a1aec1","ios":"levelo://app?vid=a695f5b7-8baf-4130-8a46-0e6d56a1aec1"},"vehicle_type_id":"4","last_reported":1725725353,"current_range_meters":31200,"station_id":"ce4bhr12rcd13ifvqhpg","pricing_plan_id":"cebpf4jnsgd1na2vs0mg"},{"bike_id":"0b18d74f-3ca8-460c-aebb-e4acb471c2fa","system_id":"levelo_inurba_marseille","lat":43.29985,"lon":5.37162,"is_reserved":false,"is_disabled":false,"rental_uris":{"android":"levelo://app?vid=0b18d74f-3ca8-460c-aebb-e4acb471c2fa","ios":"levelo://app?vid=0b18d74f-3ca8-460c-aebb-e4acb471c2fa"},"vehicle_type_id":"4","last_reported":1725725353,"current_range_meters":27200,"station_id":"ce4bgr92rcd13ifvqc7g","pricing_plan_id":"cebpf4jnsgd1na2vs0mg"},{"bike_id":"83cfdb3e-0e81-4b70-82d6-7f3cd4542e8f","system_id":"levelo_inurba_marseille","lat":43.299209,"lon":5.365547,"is_reserved":false,"is_disabled":false,"rental_uris":{"android":"levelo://app?vid=83cfdb3e-0e81-4b70-82d6-7f3cd4542e8f","ios":"levelo://app?vid=83cfdb3e-0e81-4b70-82d6-7f3cd4542e8f"},"vehicle_type_id":"4","last_reported":1725725353,"current_range_meters":2800,"station_id":"ce4bgm92rcd13ifvqbr0","pricing_plan_id":"cebpf4jnsgd1na2vs0mg"},{"bike_id":"1c45c2b1-c709-4d78-8253-89d9f225314e","system_id":"levelo_inurba_marseille","lat":43.298433,"lon":5.362774,"is_reserved":false,"is_disabled":false,"rental_uris":{"android":"levelo://app?vid=1c45c2b1-c709-4d78-8253-89d9f225314e","ios":"levelo://app?vid=1c45c2b1-c709-4d78-8253-89d9f225314e"},"vehicle_type_id":"4","last_reported":1725725353,"current_range_meters":2800,"station_id":"ce4bgpp2rcd13ifvqc3g","pricing_plan_id":"cebpf4jnsgd1na2vs0mg"},{"bike_id":"32c6a42e-24f1-44ab-bb68-e9a2e9acea16","system_id":"levelo_inurba_marseille","lat":43.311722,"lon":5.387247,"is_reserved":false,"is_disabled":false,"rental_uris":{"android":"levelo://app?vid=32c6a42e-24f1-44ab-bb68-e9a2e9acea16","ios":"levelo://app?vid=32c6a42e-24f1-44ab-bb68-e9a2e9acea16"},"vehicle_type_id":"4","last_reported":1725725353,"current_range_meters":0,"station_id":"ce4bgv12rcd13ifvqcp0","pricing_plan_id":"cebpf4jnsgd1na2vs0mg"},{"bike_id":"4ae51d6b-aaaf-442a-873d-f8eca9a3e7b5","system_id":"levelo_inurba_marseille","lat":43.320716,"lon":5.384479,"is_reserved":false,"is_disabled":false,"rental_uris":{"android":"levelo://app?vid=4ae51d6b-aaaf-442a-873d-f8eca9a3e7b5","ios":"levelo://app?vid=4ae51d6b-aaaf-442a-873d-f8eca9a3e7b5"},"vehicle_type_id":"4","last_reported":1725725353,"current_range_meters":6400,"station_id":"","pricing_plan_id":"cebpf4jnsgd1na2vs0mg"},{"bike_id":"b7337cc8-69ef-48f4-929d-f3d9e28dffae","system_id":"levelo_inurba_marseille","lat":43.301417,"lon":5.3809,"is_reserved":false,"is_disabled":false,"rental_uris":{"android":"levelo://app?vid=b7337cc8-69ef-48f4-929d-f3d9e28dffae","ios":"levelo://app?vid=b7337cc8-69ef-48f4-929d-f3d9e28dffae"},"vehicle_type_id":"4","last_reported":1725725353,"current_range_meters":0,"station_id":"ce4bgjp2rcd13ifvqbh0","pricing_plan_id":"cebpf4jnsgd1na2vs0mg"},{"bike_id":"59582009-ac87-4904-87b1-c633fddca33a","system_id":"levelo_inurba_marseille","lat":43.297794,"lon":5.370888,"is_reserved":false,"is_disabled":false,"rental_uris":{"android":"levelo://app?vid=59582009-ac87-4904-87b1-c633fddca33a","ios":"levelo://app?vid=59582009-ac87-4904-87b1-c633fddca33a"},"vehicle_type_id":"4","last_reported":1725725353,"current_range_meters":0,"station_id":"ce4bgop2rcd13ifvqc1g","pricing_plan_id":"cebpf4jnsgd1na2vs0mg"},{"bike_id":"9d4d4ad3-9fa4-4394-8995-8a5887e80cc8","system_id":"levelo_inurba_marseille","lat":43.32281,"lon":5.382563,"is_reserved":false,"is_disabled":false,"rental_uris":{"android":"levelo://app?vid=9d4d4ad3-9fa4-4394-8995-8a5887e80cc8","ios":"levelo://app?vid=9d4d4ad3-9fa4-4394-8995-8a5887e80cc8"},"vehicle_type_id":"4","last_reported":1725725353,"current_range_meters":12800,"station_id":"ce4bhr12rcd13ifvqhqg","pricing_plan_id":"cebpf4jnsgd1na2vs0mg"},{"bike_id":"2123d3fa-0883-4589-9816-eb4d6e7e0779","system_id":"levelo_inurba_marseille","lat":43.297813,"lon":5.3711,"is_reserved":false,"is_disabled":false,"rental_uris":{"android":"levelo://app?vid=2123d3fa-0883-4589-9816-eb4d6e7e0779","ios":"levelo://app?vid=2123d3fa-0883-4589-9816-eb4d6e7e0779"},"vehicle_type_id":"4","last_reported":1725725353,"current_range_meters":28000,"station_id":"ce4bgop2rcd13ifvqc1g","pricing_plan_id":"cebpf4jnsgd1na2vs0mg"},{"bike_id":"3766bb8e-18b5-4219-8d78-79adaff5d9bd","system_id":"levelo_inurba_marseille","lat":43.297163,"lon":5.365866,"is_reserved":false,"is_disabled":false,"rental_uris":{"android":"levelo://app?vid=3766bb8e-18b5-4219-8d78-79adaff5d9bd","ios":"levelo://app?vid=3766bb8e-18b5-4219-8d78-79adaff5d9bd"},"vehicle_type_id":"4","last_reported":1725725353,"current_range_meters":23600,"station_id":"ce4bgn12rcd13ifvqbt0","pricing_plan_id":"cebpf4jnsgd1na2vs0mg"},{"bike_id":"01b8a30e-b3df-4a34-be8a-1740c0eb5672","system_id":"levelo_inurba_marseille","lat":43.297163,"lon":5.365866,"is_reserved":false,"is_disabled":false,"rental_uris":{"android":"levelo://app?vid=01b8a30e-b3df-4a34-be8a-1740c0eb5672","ios":"levelo://app?vid=01b8a30e-b3df-4a34-be8a-1740c0eb5672"},"vehicle_type_id":"4","last_reported":1725725353,"current_range_meters":15600,"station_id":"ce4bgn12rcd13ifvqbt0","pricing_plan_id":"cebpf4jnsgd1na2vs0mg"},{"bike_id":"18c5addf-dbba-43df-a696-b0cf904e7c96","system_id":"levelo_inurba_marseille","lat":43.29669,"lon":5.36865,"is_reserved":false,"is_disabled":false,"rental_uris":{"android":"levelo://app?vid=18c5addf-dbba-43df-a696-b0cf904e7c96","ios":"levelo://app?vid=18c5addf-dbba-43df-a696-b0cf904e7c96"},"vehicle_type_id":"4","last_reported":1725725353,"current_range_meters":17200,"station_id":"","pricing_plan_id":"cebpf4jnsgd1na2vs0mg"},{"bike_id":"43861736-011d-4c20-ae79-a4c9ab8daeff","system_id":"levelo_inurba_marseille","lat":43.295748,"lon":5.37522,"is_reserved":false,"is_disabled":false,"rental_uris":{"android":"levelo://app?vid=43861736-011d-4c20-ae79-a4c9ab8daeff","ios":"levelo://app?vid=43861736-011d-4c20-ae79-a4c9ab8daeff"},"vehicle_type_id":"4","last_reported":1725725353,"current_range_meters":30000,"station_id":"ce4bgh92rcd13ifvqb50","pricing_plan_id":"cebpf4jnsgd1na2vs0mg"},{"bike_id":"8a8887de-5c7d-4b1c-91b2-78e9c920b48d","system_id":"levelo_inurba_marseille","lat":43.2968,"lon":5.37291,"is_reserved":false,"is_disabled":false,"rental_uris":{"android":"levelo://app?vid=8a8887de-5c7d-4b1c-91b2-78e9c920b48d","ios":"levelo://app?vid=8a8887de-5c7d-4b1c-91b2-78e9c920b48d"},"vehicle_type_id":"4","last_reported":1725725353,"current_range_meters":28800,"station_id":"ce4bgk12rcd13ifvqbj0","pricing_plan_id":"cebpf4jnsgd1na2vs0mg"},{"bike_id":"1b1dab77-368d-4ad9-a785-2f5de6a5d8c3","system_id":"levelo_inurba_marseille","lat":43.2968,"lon":5.37291,"is_reserved":false,"is_disabled":false,"rental_uris":{"android":"levelo://app?vid=1b1dab77-368d-4ad9-a785-2f5de6a5d8c3","ios":"levelo://app?vid=1b1dab77-368d-4ad9-a785-2f5de6a5d8c3"},"vehicle_type_id":"4","last_reported":1725725353,"current_range_meters":23600,"station_id":"ce4bgk12rcd13ifvqbj0","pricing_plan_id":"cebpf4jnsgd1na2vs0mg"},{"bike_id":"463b3696-1dcb-4a4a-a889-782544d72a3f","system_id":"levelo_inurba_marseille","lat":43.296131,"lon":5.370791,"is_reserved":false,"is_disabled":false,"rental_uris":{"android":"levelo://app?vid=463b3696-1dcb-4a4a-a889-782544d72a3f","ios":"levelo://app?vid=463b3696-1dcb-4a4a-a889-782544d72a3f"},"vehicle_type_id":"4","last_reported":1725725353,"current_range_meters":31600,"station_id":"ce4bgnh2rcd13ifvqc0g","pricing_plan_id":"cebpf4jnsgd1na2vs0mg"},{"bike_id":"07040a7f-228a-4c8a-ab2d-5a4940f6c917","system_id":"levelo_inurba_marseille","lat":43.296131,"lon":5.370773,"is_reserved":false,"is_disabled":false,"rental_uris":{"android":"levelo://app?vid=07040a7f-228a-4c8a-ab2d-5a4940f6c917","ios":"levelo://app?vid=07040a7f-228a-4c8a-ab2d-5a4940f6c917"},"vehicle_type_id":"4","last_reported":1725725353,"current_range_meters":24400,"station_id":"ce4bgnh2rcd13ifvqc0g","pricing_plan_id":"cebpf4jnsgd1na2vs0mg"},{"bike_id":"c8d6fdfd-d06f-4e9d-917e-3a303e779bad","system_id":"levelo_inurba_marseille","lat":43.29573,"lon":5.367355,"is_reserved":false,"is_disabled":false,"rental_uris":{"android":"levelo://app?vid=c8d6fdfd-d06f-4e9d-917e-3a303e779bad","ios":"levelo://app?vid=c8d6fdfd-d06f-4e9d-917e-3a303e779bad"},"vehicle_type_id":"4","last_reported":1725725353,"current_range_meters":8000,"station_id":"ce4bgph2rcd13ifvqc2g","pricing_plan_id":"cebpf4jnsgd1na2vs0mg"},{"bike_id":"7e2a9981-304b-427f-9c45-fdaba7c305e1","system_id":"levelo_inurba_marseille","lat":43.295765,"lon":5.36504,"is_reserved":false,"is_disabled":false,"rental_uris":{"android":"levelo://app?vid=7e2a9981-304b-427f-9c45-fdaba7c305e1","ios":"levelo://app?vid=7e2a9981-304b-427f-9c45-fdaba7c305e1"},"vehicle_type_id":"4","last_reported":1725725353,"current_range_meters":20400,"station_id":"","pricing_plan_id":"cebpf4jnsgd1na2vs0mg"},{"bike_id":"2f76c30d-74c7-417c-98e5-81a25cb6037d","system_id":"levelo_inurba_marseille","lat":43.296921,"lon":5.376579,"is_reserved":false,"is_disabled":false,"rental_uris":{"android":"levelo://app?vid=2f76c30d-74c7-417c-98e5-81a25cb6037d","ios":"levelo://app?vid=2f76c30d-74c7-417c-98e5-81a25cb6037d"},"vehicle_type_id":"4","last_reported":1725725353,"current_range_meters":0,"station_id":"ce4bgkh2rcd13ifvqbl0","pricing_plan_id":"cebpf4jnsgd1na2vs0mg"},{"bike_id":"2894bf74-ee34-4c9e-b96c-e3e0fc5073c4","system_id":"levelo_inurba_marseille","lat":43.296935,"lon":5.376544,"is_reserved":false,"is_disabled":false,"rental_uris":{"android":"levelo://app?vid=2894bf74-ee34-4c9e-b96c-e3e0fc5073c4","ios":"levelo://app?vid=2894bf74-ee34-4c9e-b96c-e3e0fc5073c4"},"vehicle_type_id":"4","last_reported":1725725353,"current_range_meters":22000,"station_id":"ce4bgkh2rcd13ifvqbl0","pricing_plan_id":"cebpf4jnsgd1na2vs0mg"},{"bike_id":"6965f341-79db-40c7-8c89-2eb6d8977793","system_id":"levelo_inurba_marseille","lat":43.309589,"lon":5.390258,"is_reserved":false,"is_disabled":false,"rental_uris":{"android":"levelo://app?vid=6965f341-79db-40c7-8c89-2eb6d8977793","ios":"levelo://app?vid=6965f341-79db-40c7-8c89-2eb6d8977793"},"vehicle_type_id":"4","last_reported":1725725353,"current_range_meters":10400,"station_id":"ce4bgup2rcd13ifvqco0","pricing_plan_id":"cebpf4jnsgd1na2vs0mg"},{"bike_id":"1bef5fa3-8c5f-47b2-b437-481c95bc689d","system_id":"levelo_inurba_marseille","lat":43.322083,"lon":5.38706,"is_reserved":false,"is_disabled":false,"rental_uris":{"android":"levelo://app?vid=1bef5fa3-8c5f-47b2-b437-481c95bc689d","ios":"levelo://app?vid=1bef5fa3-8c5f-47b2-b437-481c95bc689d"},"vehicle_type_id":"4","last_reported":1725725353,"current_range_meters":26400,"station_id":"","pricing_plan_id":"cebpf4jnsgd1na2vs0mg"},{"bike_id":"10f69fe8-7773-460f-8cbc-84d5043d302b","system_id":"levelo_inurba_marseille","lat":43.32253,"lon":5.387034,"is_reserved":false,"is_disabled":false,"rental_uris":{"android":"levelo://app?vid=10f69fe8-7773-460f-8cbc-84d5043d302b","ios":"levelo://app?vid=10f69fe8-7773-460f-8cbc-84d5043d302b"},"vehicle_type_id":"4","last_reported":1725725353,"current_range_meters":22800,"station_id":"","pricing_plan_id":"cebpf4jnsgd1na2vs0mg"},{"bike_id":"42da01ce-9f84-48d8-a603-20061debe120","system_id":"levelo_inurba_marseille","lat":43.295748,"lon":5.37522,"is_reserved":false,"is_disabled":false,"rental_uris":{"android":"levelo://app?vid=42da01ce-9f84-48d8-a603-20061debe120","ios":"levelo://app?vid=42da01ce-9f84-48d8-a603-20061debe120"},"vehicle_type_id":"4","last_reported":1725725353,"current_range_meters":0,"station_id":"ce4bgh92rcd13ifvqb50","pricing_plan_id":"cebpf4jnsgd1na2vs0mg"},{"bike_id":"0ed0f1a0-e8fa-4051-b663-b8f07d4de291","system_id":"levelo_inurba_marseille","lat":43.29797,"lon":5.38096,"is_reserved":false,"is_disabled":false,"rental_uris":{"android":"levelo://app?vid=0ed0f1a0-e8fa-4051-b663-b8f07d4de291","ios":"levelo://app?vid=0ed0f1a0-e8fa-4051-b663-b8f07d4de291"},"vehicle_type_id":"4","last_reported":1725725353,"current_range_meters":30000,"station_id":"ce4bgip2rcd13ifvqbb0","pricing_plan_id":"cebpf4jnsgd1na2vs0mg"},{"bike_id":"a0d23ba6-c786-4a06-83f3-3fdd28e205ba","system_id":"levelo_inurba_marseille","lat":43.29573,"lon":5.37512,"is_reserved":false,"is_disabled":false,"rental_uris":{"android":"levelo://app?vid=a0d23ba6-c786-4a06-83f3-3fdd28e205ba","ios":"levelo://app?vid=a0d23ba6-c786-4a06-83f3-3fdd28e205ba"},"vehicle_type_id":"4","last_reported":1725725353,"current_range_meters":6000,"station_id":"ce4bgh92rcd13ifvqb50","pricing_plan_id":"cebpf4jnsgd1na2vs0mg"},{"bike_id":"f0158c0d-6464-406a-a6b3-a8881ac36ed5","system_id":"levelo_inurba_marseille","lat":43.304278,"lon":5.388868,"is_reserved":false,"is_disabled":false,"rental_uris":{"android":"levelo://app?vid=f0158c0d-6464-406a-a6b3-a8881ac36ed5","ios":"levelo://app?vid=f0158c0d-6464-406a-a6b3-a8881ac36ed5"},"vehicle_type_id":"4","last_reported":1725725353,"current_range_meters":5600,"station_id":"ce4bgk12rcd13ifvqbi0","pricing_plan_id":"cebpf4jnsgd1na2vs0mg"},{"bike_id":"3d6fdec5-25a9-4aea-946a-25a7067dc9e8","system_id":"levelo_inurba_marseille","lat":43.295748,"lon":5.37522,"is_reserved":false,"is_disabled":false,"rental_uris":{"android":"levelo://app?vid=3d6fdec5-25a9-4aea-946a-25a7067dc9e8","ios":"levelo://app?vid=3d6fdec5-25a9-4aea-946a-25a7067dc9e8"},"vehicle_type_id":"4","last_reported":1725725353,"current_range_meters":8000,"station_id":"ce4bgh92rcd13ifvqb50","pricing_plan_id":"cebpf4jnsgd1na2vs0mg"},{"bike_id":"ffaaf6b7-262c-4771-ae28-52a58955a29e","system_id":"levelo_inurba_marseille","lat":43.29531,"lon":5.37494,"is_reserved":false,"is_disabled":false,"rental_uris":{"android":"levelo://app?vid=ffaaf6b7-262c-4771-ae28-52a58955a29e","ios":"levelo://app?vid=ffaaf6b7-262c-4771-ae28-52a58955a29e"},"vehicle_type_id":"4","last_reported":1725725353,"current_range_meters":0,"station_id":"ce4bgkp2rcd13ifvqbmg","pricing_plan_id":"cebpf4jnsgd1na2vs0mg"},{"bike_id":"9d5e4d13-f20f-457f-a6fa-0a294519614a","system_id":"levelo_inurba_marseille","lat":43.29522,"lon":5.37509,"is_reserved":false,"is_disabled":false,"rental_uris":{"android":"levelo://app?vid=9d5e4d13-f20f-457f-a6fa-0a294519614a","ios":"levelo://app?vid=9d5e4d13-f20f-457f-a6fa-0a294519614a"},"vehicle_type_id":"4","last_reported":1725725353,"current_range_meters":0,"station_id":"","pricing_plan_id":"cebpf4jnsgd1na2vs0mg"},{"bike_id":"12be01e9-3fe5-4877-997e-232f03f6daa3","system_id":"levelo_inurba_marseille","lat":43.295279,"lon":5.375048,"is_reserved":false,"is_disabled":false,"rental_uris":{"android":"levelo://app?vid=12be01e9-3fe5-4877-997e-232f03f6daa3","ios":"levelo://app?vid=12be01e9-3fe5-4877-997e-232f03f6daa3"},"vehicle_type_id":"4","last_reported":1725725353,"current_range_meters":0,"station_id":"ce4bgkp2rcd13ifvqbmg","pricing_plan_id":"cebpf4jnsgd1na2vs0mg"},{"bike_id":"b6b6be6f-59e5-451a-8ecd-caa081837b19","system_id":"levelo_inurba_marseille","lat":43.295279,"lon":5.375048,"is_reserved":false,"is_disabled":false,"rental_uris":{"android":"levelo://app?vid=b6b6be6f-59e5-451a-8ecd-caa081837b19","ios":"levelo://app?vid=b6b6be6f-59e5-451a-8ecd-caa081837b19"},"vehicle_type_id":"4","last_reported":1725725353,"current_range_meters":26800,"station_id":"ce4bgkp2rcd13ifvqbmg","pricing_plan_id":"cebpf4jnsgd1na2vs0mg"},{"bike_id":"7b48eda0-321e-4400-97ac-4e10fd2b743a","system_id":"levelo_inurba_marseille","lat":43.295279,"lon":5.375048,"is_reserved":false,"is_disabled":false,"rental_uris":{"android":"levelo://app?vid=7b48eda0-321e-4400-97ac-4e10fd2b743a","ios":"levelo://app?vid=7b48eda0-321e-4400-97ac-4e10fd2b743a"},"vehicle_type_id":"4","last_reported":1725725353,"current_range_meters":29600,"station_id":"ce4bgkp2rcd13ifvqbmg","pricing_plan_id":"cebpf4jnsgd1na2vs0mg"},{"bike_id":"72297f8d-2236-491a-b7d8-b0971a3acd9e","system_id":"levelo_inurba_marseille","lat":43.30064,"lon":5.38656,"is_reserved":false,"is_disabled":false,"rental_uris":{"android":"levelo://app?vid=72297f8d-2236-491a-b7d8-b0971a3acd9e","ios":"levelo://app?vid=72297f8d-2236-491a-b7d8-b0971a3acd9e"},"vehicle_type_id":"4","last_reported":1725725353,"current_range_meters":6400,"station_id":"","pricing_plan_id":"cebpf4jnsgd1na2vs0mg"},{"bike_id":"d9fbae1e-b71b-4fb1-95da-e97e8d7d2821","system_id":"levelo_inurba_marseille","lat":43.301396,"lon":5.387812,"is_reserved":false,"is_disabled":false,"rental_uris":{"android":"levelo://app?vid=d9fbae1e-b71b-4fb1-95da-e97e8d7d2821","ios":"levelo://app?vid=d9fbae1e-b71b-4fb1-95da-e97e8d7d2821"},"vehicle_type_id":"4","last_reported":1725725353,"current_range_meters":0,"station_id":"ce4bghh2rcd13ifvqb60","pricing_plan_id":"cebpf4jnsgd1na2vs0mg"},{"bike_id":"7dfad6ee-3a0a-4e82-bc25-e7f709db6a07","system_id":"levelo_inurba_marseille","lat":43.293796,"lon":5.36258,"is_reserved":false,"is_disabled":false,"rental_uris":{"android":"levelo://app?vid=7dfad6ee-3a0a-4e82-bc25-e7f709db6a07","ios":"levelo://app?vid=7dfad6ee-3a0a-4e82-bc25-e7f709db6a07"},"vehicle_type_id":"4","last_reported":1725725353,"current_range_meters":13600,"station_id":"","pricing_plan_id":"cebpf4jnsgd1na2vs0mg"},{"bike_id":"cbbd6406-e8ea-4e6c-b10a-3bc83a55748c","system_id":"levelo_inurba_marseille","lat":43.29635,"lon":5.38076,"is_reserved":false,"is_disabled":false,"rental_uris":{"android":"levelo://app?vid=cbbd6406-e8ea-4e6c-b10a-3bc83a55748c","ios":"levelo://app?vid=cbbd6406-e8ea-4e6c-b10a-3bc83a55748c"},"vehicle_type_id":"4","last_reported":1725725353,"current_range_meters":24800,"station_id":"ce4bgl12rcd13ifvqbo0","pricing_plan_id":"cebpf4jnsgd1na2vs0mg"},{"bike_id":"d47c7584-adc9-4092-8d93-4a2b177c8edb","system_id":"levelo_inurba_marseille","lat":43.32367,"lon":5.388836,"is_reserved":false,"is_disabled":false,"rental_uris":{"android":"levelo://app?vid=d47c7584-adc9-4092-8d93-4a2b177c8edb","ios":"levelo://app?vid=d47c7584-adc9-4092-8d93-4a2b177c8edb"},"vehicle_type_id":"4","last_reported":1725725353,"current_range_meters":18000,"station_id":"ce4bhqp2rcd13ifvqhog","pricing_plan_id":"cebpf4jnsgd1na2vs0mg"},{"bike_id":"ea5b95c4-a87a-4621-abbb-25c1606618cc","system_id":"levelo_inurba_marseille","lat":43.32367,"lon":5.388836,"is_reserved":false,"is_disabled":false,"rental_uris":{"android":"levelo://app?vid=ea5b95c4-a87a-4621-abbb-25c1606618cc","ios":"levelo://app?vid=ea5b95c4-a87a-4621-abbb-25c1606618cc"},"vehicle_type_id":"4","last_reported":1725725353,"current_range_meters":6000,"station_id":"ce4bhqp2rcd13ifvqhog","pricing_plan_id":"cebpf4jnsgd1na2vs0mg"},{"bike_id":"e28855b0-2fdb-435b-9599-39a5e6028919","system_id":"levelo_inurba_marseille","lat":43.32367,"lon":5.388836,"is_reserved":false,"is_disabled":false,"rental_uris":{"android":"levelo://app?vid=e28855b0-2fdb-435b-9599-39a5e6028919","ios":"levelo://app?vid=e28855b0-2fdb-435b-9599-39a5e6028919"},"vehicle_type_id":"4","last_reported":1725725353,"current_range_meters":3600,"station_id":"ce4bhqp2rcd13ifvqhog","pricing_plan_id":"cebpf4jnsgd1na2vs0mg"},{"bike_id":"d6217d5e-9aa4-41fe-b651-1e980372679c","system_id":"levelo_inurba_marseille","lat":43.32367,"lon":5.388836,"is_reserved":false,"is_disabled":false,"rental_uris":{"android":"levelo://app?vid=d6217d5e-9aa4-41fe-b651-1e980372679c","ios":"levelo://app?vid=d6217d5e-9aa4-41fe-b651-1e980372679c"},"vehicle_type_id":"4","last_reported":1725725353,"current_range_meters":8400,"station_id":"ce4bhqp2rcd13ifvqhog","pricing_plan_id":"cebpf4jnsgd1na2vs0mg"},{"bike_id":"06837b6e-4155-42d7-a401-e7e1b3fa7627","system_id":"levelo_inurba_marseille","lat":43.29602,"lon":5.381084,"is_reserved":false,"is_disabled":false,"rental_uris":{"android":"levelo://app?vid=06837b6e-4155-42d7-a401-e7e1b3fa7627","ios":"levelo://app?vid=06837b6e-4155-42d7-a401-e7e1b3fa7627"},"vehicle_type_id":"4","last_reported":1725725353,"current_range_meters":0,"station_id":"ce4bgl12rcd13ifvqbo0","pricing_plan_id":"cebpf4jnsgd1na2vs0mg"},{"bike_id":"e9be3761-940b-4fa3-8c96-f72e59341f5b","system_id":"levelo_inurba_marseille","lat":43.304274,"lon":5.388873,"is_reserved":false,"is_disabled":false,"rental_uris":{"android":"levelo://app?vid=e9be3761-940b-4fa3-8c96-f72e59341f5b","ios":"levelo://app?vid=e9be3761-940b-4fa3-8c96-f72e59341f5b"},"vehicle_type_id":"4","last_reported":1725725353,"current_range_meters":24000,"station_id":"ce4bgk12rcd13ifvqbi0","pricing_plan_id":"cebpf4jnsgd1na2vs0mg"},{"bike_id":"1389f4a0-fe8c-45a8-89e1-761602337135","system_id":"levelo_inurba_marseille","lat":43.32367,"lon":5.38925,"is_reserved":false,"is_disabled":false,"rental_uris":{"android":"levelo://app?vid=1389f4a0-fe8c-45a8-89e1-761602337135","ios":"levelo://app?vid=1389f4a0-fe8c-45a8-89e1-761602337135"},"vehicle_type_id":"4","last_reported":1725725353,"current_range_meters":19600,"station_id":"ce4bhqp2rcd13ifvqhog","pricing_plan_id":"cebpf4jnsgd1na2vs0mg"},{"bike_id":"74c59e3d-56c9-4373-9efe-a345696f9a5c","system_id":"levelo_inurba_marseille","lat":43.3237,"lon":5.38926,"is_reserved":false,"is_disabled":false,"rental_uris":{"android":"levelo://app?vid=74c59e3d-56c9-4373-9efe-a345696f9a5c","ios":"levelo://app?vid=74c59e3d-56c9-4373-9efe-a345696f9a5c"},"vehicle_type_id":"4","last_reported":1725725353,"current_range_meters":24800,"station_id":"","pricing_plan_id":"cebpf4jnsgd1na2vs0mg"},{"bike_id":"41704600-e9e6-4869-aefd-a4a12996605b","system_id":"levelo_inurba_marseille","lat":43.3237,"lon":5.38926,"is_reserved":false,"is_disabled":false,"rental_uris":{"android":"levelo://app?vid=41704600-e9e6-4869-aefd-a4a12996605b","ios":"levelo://app?vid=41704600-e9e6-4869-aefd-a4a12996605b"},"vehicle_type_id":"4","last_reported":1725725353,"current_range_meters":12400,"station_id":"ce4bhqp2rcd13ifvqhog","pricing_plan_id":"cebpf4jnsgd1na2vs0mg"},{"bike_id":"b0497288-0742-44d1-9def-a7bcd7f955e4","system_id":"levelo_inurba_marseille","lat":43.29602,"lon":5.381084,"is_reserved":false,"is_disabled":false,"rental_uris":{"android":"levelo://app?vid=b0497288-0742-44d1-9def-a7bcd7f955e4","ios":"levelo://app?vid=b0497288-0742-44d1-9def-a7bcd7f955e4"},"vehicle_type_id":"4","last_reported":1725725353,"current_range_meters":1600,"station_id":"ce4bgl12rcd13ifvqbo0","pricing_plan_id":"cebpf4jnsgd1na2vs0mg"},{"bike_id":"e996d816-66a4-4e01-aa7a-439f6c8a2a8f","system_id":"levelo_inurba_marseille","lat":43.29327,"lon":5.37076,"is_reserved":false,"is_disabled":false,"rental_uris":{"android":"levelo://app?vid=e996d816-66a4-4e01-aa7a-439f6c8a2a8f","ios":"levelo://app?vid=e996d816-66a4-4e01-aa7a-439f6c8a2a8f"},"vehicle_type_id":"4","last_reported":1725725353,"current_range_meters":27600,"station_id":"","pricing_plan_id":"cebpf4jnsgd1na2vs0mg"},{"bike_id":"09b9c4d6-2f2e-4da7-a7f5-59e7a017eb15","system_id":"levelo_inurba_marseille","lat":43.292918,"lon":5.369048,"is_reserved":false,"is_disabled":false,"rental_uris":{"android":"levelo://app?vid=09b9c4d6-2f2e-4da7-a7f5-59e7a017eb15","ios":"levelo://app?vid=09b9c4d6-2f2e-4da7-a7f5-59e7a017eb15"},"vehicle_type_id":"4","last_reported":1725725353,"current_range_meters":19600,"station_id":"","pricing_plan_id":"cebpf4jnsgd1na2vs0mg"},{"bike_id":"3013ab60-2fd5-4bcf-8aa9-60479017c12b","system_id":"levelo_inurba_marseille","lat":43.29296,"lon":5.37168,"is_reserved":false,"is_disabled":false,"rental_uris":{"android":"levelo://app?vid=3013ab60-2fd5-4bcf-8aa9-60479017c12b","ios":"levelo://app?vid=3013ab60-2fd5-4bcf-8aa9-60479017c12b"},"vehicle_type_id":"4","last_reported":1725725353,"current_range_meters":0,"station_id":"ce4bgh92rcd13ifvqb40","pricing_plan_id":"cebpf4jnsgd1na2vs0mg"},{"bike_id":"6af58b7e-1fe0-4591-9800-1dcd6576ead9","system_id":"levelo_inurba_marseille","lat":43.305994,"lon":5.393687,"is_reserved":false,"is_disabled":false,"rental_uris":{"android":"levelo://app?vid=6af58b7e-1fe0-4591-9800-1dcd6576ead9","ios":"levelo://app?vid=6af58b7e-1fe0-4591-9800-1dcd6576ead9"},"vehicle_type_id":"4","last_reported":1725725353,"current_range_meters":30000,"station_id":"ce4bh0p2rcd13ifvqd80","pricing_plan_id":"cebpf4jnsgd1na2vs0mg"},{"bike_id":"d804dc5e-aaec-45b6-a904-fff7254a8948","system_id":"levelo_inurba_marseille","lat":43.29302,"lon":5.37459,"is_reserved":false,"is_disabled":false,"rental_uris":{"android":"levelo://app?vid=d804dc5e-aaec-45b6-a904-fff7254a8948","ios":"levelo://app?vid=d804dc5e-aaec-45b6-a904-fff7254a8948"},"vehicle_type_id":"4","last_reported":1725725353,"current_range_meters":0,"station_id":"ce4bgi12rcd13ifvqb70","pricing_plan_id":"cebpf4jnsgd1na2vs0mg"},{"bike_id":"fd231172-f9f9-4af0-9cdf-943bf2307180","system_id":"levelo_inurba_marseille","lat":43.292087,"lon":5.363228,"is_reserved":false,"is_disabled":false,"rental_uris":{"android":"levelo://app?vid=fd231172-f9f9-4af0-9cdf-943bf2307180","ios":"levelo://app?vid=fd231172-f9f9-4af0-9cdf-943bf2307180"},"vehicle_type_id":"4","last_reported":1725725353,"current_range_meters":0,"station_id":"","pricing_plan_id":"cebpf4jnsgd1na2vs0mg"},{"bike_id":"885efecf-a22f-4925-b664-38beac3a2690","system_id":"levelo_inurba_marseille","lat":43.292335,"lon":5.360454,"is_reserved":false,"is_disabled":false,"rental_uris":{"android":"levelo://app?vid=885efecf-a22f-4925-b664-38beac3a2690","ios":"levelo://app?vid=885efecf-a22f-4925-b664-38beac3a2690"},"vehicle_type_id":"4","last_reported":1725725353,"current_range_meters":0,"station_id":"ce4bhbh2rcd13ifvqeqg","pricing_plan_id":"cebpf4jnsgd1na2vs0mg"},{"bike_id":"e88c8f68-0e86-4502-9e95-182b55813ec4","system_id":"levelo_inurba_marseille","lat":43.300852,"lon":5.390859,"is_reserved":false,"is_disabled":false,"rental_uris":{"android":"levelo://app?vid=e88c8f68-0e86-4502-9e95-182b55813ec4","ios":"levelo://app?vid=e88c8f68-0e86-4502-9e95-182b55813ec4"},"vehicle_type_id":"4","last_reported":1725725353,"current_range_meters":27600,"station_id":"ce4bh192rcd13ifvqdb0","pricing_plan_id":"cebpf4jnsgd1na2vs0mg"},{"bike_id":"f895c0c7-73ff-4d92-aa64-64e8c4b35390","system_id":"levelo_inurba_marseille","lat":43.292311,"lon":5.360731,"is_reserved":false,"is_disabled":false,"rental_uris":{"android":"levelo://app?vid=f895c0c7-73ff-4d92-aa64-64e8c4b35390","ios":"levelo://app?vid=f895c0c7-73ff-4d92-aa64-64e8c4b35390"},"vehicle_type_id":"4","last_reported":1725725353,"current_range_meters":24400,"station_id":"ce4bhbh2rcd13ifvqeqg","pricing_plan_id":"cebpf4jnsgd1na2vs0mg"},{"bike_id":"d8e2e82e-51d8-47f4-aa2f-1033006c1bc3","system_id":"levelo_inurba_marseille","lat":43.29216,"lon":5.36049,"is_reserved":false,"is_disabled":false,"rental_uris":{"android":"levelo://app?vid=d8e2e82e-51d8-47f4-aa2f-1033006c1bc3","ios":"levelo://app?vid=d8e2e82e-51d8-47f4-aa2f-1033006c1bc3"},"vehicle_type_id":"4","last_reported":1725725353,"current_range_meters":22800,"station_id":"ce4bhbh2rcd13ifvqeqg","pricing_plan_id":"cebpf4jnsgd1na2vs0mg"},{"bike_id":"f204b3e3-b8bc-4a21-ad9f-bae2d7dffeba","system_id":"levelo_inurba_marseille","lat":43.29174,"lon":5.37163,"is_reserved":false,"is_disabled":false,"rental_uris":{"android":"levelo://app?vid=f204b3e3-b8bc-4a21-ad9f-bae2d7dffeba","ios":"levelo://app?vid=f204b3e3-b8bc-4a21-ad9f-bae2d7dffeba"},"vehicle_type_id":"4","last_reported":1725725353,"current_range_meters":0,"station_id":"ce4bha92rcd13ifvqeh0","pricing_plan_id":"cebpf4jnsgd1na2vs0mg"},{"bike_id":"ee83ae0a-d461-4938-9016-a7f2c9d800ad","system_id":"levelo_inurba_marseille","lat":43.29394,"lon":5.38136,"is_reserved":false,"is_disabled":false,"rental_uris":{"android":"levelo://app?vid=ee83ae0a-d461-4938-9016-a7f2c9d800ad","ios":"levelo://app?vid=ee83ae0a-d461-4938-9016-a7f2c9d800ad"},"vehicle_type_id":"4","last_reported":1725725353,"current_range_meters":0,"station_id":"","pricing_plan_id":"cebpf4jnsgd1na2vs0mg"},{"bike_id":"aa60f901-0f71-4bb4-b521-b47efc89c8bf","system_id":"levelo_inurba_marseille","lat":43.29529,"lon":5.385581,"is_reserved":false,"is_disabled":false,"rental_uris":{"android":"levelo://app?vid=aa60f901-0f71-4bb4-b521-b47efc89c8bf","ios":"levelo://app?vid=aa60f901-0f71-4bb4-b521-b47efc89c8bf"},"vehicle_type_id":"4","last_reported":1725725353,"current_range_meters":14400,"station_id":"ce4bgih2rcd13ifvqba0","pricing_plan_id":"cebpf4jnsgd1na2vs0mg"},{"bike_id":"a9b48199-36b2-4311-9050-9273b16661f2","system_id":"levelo_inurba_marseille","lat":43.29195,"lon":5.35797,"is_reserved":false,"is_disabled":false,"rental_uris":{"android":"levelo://app?vid=a9b48199-36b2-4311-9050-9273b16661f2","ios":"levelo://app?vid=a9b48199-36b2-4311-9050-9273b16661f2"},"vehicle_type_id":"4","last_reported":1725725353,"current_range_meters":15600,"station_id":"ce4bhb12rcd13ifvqel0","pricing_plan_id":"cebpf4jnsgd1na2vs0mg"},{"bike_id":"364c1f74-afe5-44bf-b3eb-4c694de689c2","system_id":"levelo_inurba_marseille","lat":43.309038,"lon":5.396546,"is_reserved":false,"is_disabled":false,"rental_uris":{"android":"levelo://app?vid=364c1f74-afe5-44bf-b3eb-4c694de689c2","ios":"levelo://app?vid=364c1f74-afe5-44bf-b3eb-4c694de689c2"},"vehicle_type_id":"4","last_reported":1725725353,"current_range_meters":23600,"station_id":"ce4bh012rcd13ifvqcv0","pricing_plan_id":"cebpf4jnsgd1na2vs0mg"},{"bike_id":"96bbe2c2-a2c1-4412-baad-a4030c4eaa57","system_id":"levelo_inurba_marseille","lat":43.309047,"lon":5.396551,"is_reserved":false,"is_disabled":false,"rental_uris":{"android":"levelo://app?vid=96bbe2c2-a2c1-4412-baad-a4030c4eaa57","ios":"levelo://app?vid=96bbe2c2-a2c1-4412-baad-a4030c4eaa57"},"vehicle_type_id":"4","last_reported":1725725353,"current_range_meters":14800,"station_id":"ce4bh012rcd13ifvqcv0","pricing_plan_id":"cebpf4jnsgd1na2vs0mg"},{"bike_id":"aa4d2d23-765b-4239-b12e-3d8a4c012941","system_id":"levelo_inurba_marseille","lat":43.309038,"lon":5.396546,"is_reserved":false,"is_disabled":false,"rental_uris":{"android":"levelo://app?vid=aa4d2d23-765b-4239-b12e-3d8a4c012941","ios":"levelo://app?vid=aa4d2d23-765b-4239-b12e-3d8a4c012941"},"vehicle_type_id":"4","last_reported":1725725353,"current_range_meters":0,"station_id":"ce4bh012rcd13ifvqcv0","pricing_plan_id":"cebpf4jnsgd1na2vs0mg"},{"bike_id":"0f4ade27-3f0a-4999-82c0-3e4ebc3e0f77","system_id":"levelo_inurba_marseille","lat":43.309038,"lon":5.396546,"is_reserved":false,"is_disabled":false,"rental_uris":{"android":"levelo://app?vid=0f4ade27-3f0a-4999-82c0-3e4ebc3e0f77","ios":"levelo://app?vid=0f4ade27-3f0a-4999-82c0-3e4ebc3e0f77"},"vehicle_type_id":"4","last_reported":1725725353,"current_range_meters":24400,"station_id":"ce4bh012rcd13ifvqcv0","pricing_plan_id":"cebpf4jnsgd1na2vs0mg"},{"bike_id":"78cf3188-e056-4a15-a31d-89dfd5ef25ef","system_id":"levelo_inurba_marseille","lat":43.29529,"lon":5.385581,"is_reserved":false,"is_disabled":false,"rental_uris":{"android":"levelo://app?vid=78cf3188-e056-4a15-a31d-89dfd5ef25ef","ios":"levelo://app?vid=78cf3188-e056-4a15-a31d-89dfd5ef25ef"},"vehicle_type_id":"4","last_reported":1725725353,"current_range_meters":3600,"station_id":"ce4bgih2rcd13ifvqba0","pricing_plan_id":"cebpf4jnsgd1na2vs0mg"},{"bike_id":"4128b10a-6e4f-46b7-b1e4-b27ee70eec22","system_id":"levelo_inurba_marseille","lat":43.29529,"lon":5.385581,"is_reserved":false,"is_disabled":false,"rental_uris":{"android":"levelo://app?vid=4128b10a-6e4f-46b7-b1e4-b27ee70eec22","ios":"levelo://app?vid=4128b10a-6e4f-46b7-b1e4-b27ee70eec22"},"vehicle_type_id":"4","last_reported":1725725353,"current_range_meters":800,"station_id":"ce4bgih2rcd13ifvqba0","pricing_plan_id":"cebpf4jnsgd1na2vs0mg"},{"bike_id":"3450f0d6-e45a-4949-a6d3-ba92fa59d37c","system_id":"levelo_inurba_marseille","lat":43.309038,"lon":5.396546,"is_reserved":false,"is_disabled":false,"rental_uris":{"android":"levelo://app?vid=3450f0d6-e45a-4949-a6d3-ba92fa59d37c","ios":"levelo://app?vid=3450f0d6-e45a-4949-a6d3-ba92fa59d37c"},"vehicle_type_id":"4","last_reported":1725725353,"current_range_meters":0,"station_id":"ce4bh012rcd13ifvqcv0","pricing_plan_id":"cebpf4jnsgd1na2vs0mg"},{"bike_id":"12a6281e-f760-4acd-8a6e-14d642f3acd4","system_id":"levelo_inurba_marseille","lat":43.290779,"lon":5.371482,"is_reserved":false,"is_disabled":false,"rental_uris":{"android":"levelo://app?vid=12a6281e-f760-4acd-8a6e-14d642f3acd4","ios":"levelo://app?vid=12a6281e-f760-4acd-8a6e-14d642f3acd4"},"vehicle_type_id":"4","last_reported":1725725353,"current_range_meters":29600,"station_id":"ce4bh5p2rcd13ifvqe4g","pricing_plan_id":"cebpf4jnsgd1na2vs0mg"},{"bike_id":"eacc1f36-8349-4596-9b8e-768bc7ba46fd","system_id":"levelo_inurba_marseille","lat":43.290779,"lon":5.371482,"is_reserved":false,"is_disabled":false,"rental_uris":{"android":"levelo://app?vid=eacc1f36-8349-4596-9b8e-768bc7ba46fd","ios":"levelo://app?vid=eacc1f36-8349-4596-9b8e-768bc7ba46fd"},"vehicle_type_id":"4","last_reported":1725725353,"current_range_meters":26800,"station_id":"ce4bh5p2rcd13ifvqe4g","pricing_plan_id":"cebpf4jnsgd1na2vs0mg"},{"bike_id":"c6721bde-3d10-4d83-a58e-e9124107c0bb","system_id":"levelo_inurba_marseille","lat":43.302008,"lon":5.394694,"is_reserved":false,"is_disabled":false,"rental_uris":{"android":"levelo://app?vid=c6721bde-3d10-4d83-a58e-e9124107c0bb","ios":"levelo://app?vid=c6721bde-3d10-4d83-a58e-e9124107c0bb"},"vehicle_type_id":"4","last_reported":1725725353,"current_range_meters":29600,"station_id":"ce4bh0p2rcd13ifvqd70","pricing_plan_id":"cebpf4jnsgd1na2vs0mg"},{"bike_id":"c503ac15-cbd3-4b45-b770-1631a44fab0e","system_id":"levelo_inurba_marseille","lat":43.302008,"lon":5.394694,"is_reserved":false,"is_disabled":false,"rental_uris":{"android":"levelo://app?vid=c503ac15-cbd3-4b45-b770-1631a44fab0e","ios":"levelo://app?vid=c503ac15-cbd3-4b45-b770-1631a44fab0e"},"vehicle_type_id":"4","last_reported":1725725353,"current_range_meters":0,"station_id":"ce4bh0p2rcd13ifvqd70","pricing_plan_id":"cebpf4jnsgd1na2vs0mg"},{"bike_id":"f0f952ac-6694-4e93-af13-84cc1f0c3845","system_id":"levelo_inurba_marseille","lat":43.290327,"lon":5.375711,"is_reserved":false,"is_disabled":false,"rental_uris":{"android":"levelo://app?vid=f0f952ac-6694-4e93-af13-84cc1f0c3845","ios":"levelo://app?vid=f0f952ac-6694-4e93-af13-84cc1f0c3845"},"vehicle_type_id":"4","last_reported":1725725353,"current_range_meters":0,"station_id":"ce4bh692rcd13ifvqe90","pricing_plan_id":"cebpf4jnsgd1na2vs0mg"},{"bike_id":"ab6dd138-f4bd-4e23-b812-78295372daa2","system_id":"levelo_inurba_marseille","lat":43.290327,"lon":5.375711,"is_reserved":false,"is_disabled":false,"rental_uris":{"android":"levelo://app?vid=ab6dd138-f4bd-4e23-b812-78295372daa2","ios":"levelo://app?vid=ab6dd138-f4bd-4e23-b812-78295372daa2"},"vehicle_type_id":"4","last_reported":1725725353,"current_range_meters":2400,"station_id":"ce4bh692rcd13ifvqe90","pricing_plan_id":"cebpf4jnsgd1na2vs0mg"},{"bike_id":"169a05b7-db3d-4e1f-bfb6-41217e2abc9e","system_id":"levelo_inurba_marseille","lat":43.289184,"lon":5.366408,"is_reserved":false,"is_disabled":false,"rental_uris":{"android":"levelo://app?vid=169a05b7-db3d-4e1f-bfb6-41217e2abc9e","ios":"levelo://app?vid=169a05b7-db3d-4e1f-bfb6-41217e2abc9e"},"vehicle_type_id":"4","last_reported":1725725353,"current_range_meters":16000,"station_id":"ce4bhap2rcd13ifvqek0","pricing_plan_id":"cebpf4jnsgd1na2vs0mg"},{"bike_id":"07ee239e-c4eb-4b2f-b2bc-7b43cdaea4d7","system_id":"levelo_inurba_marseille","lat":43.2905,"lon":5.37776,"is_reserved":false,"is_disabled":false,"rental_uris":{"android":"levelo://app?vid=07ee239e-c4eb-4b2f-b2bc-7b43cdaea4d7","ios":"levelo://app?vid=07ee239e-c4eb-4b2f-b2bc-7b43cdaea4d7"},"vehicle_type_id":"4","last_reported":1725725353,"current_range_meters":400,"station_id":"","pricing_plan_id":"cebpf4jnsgd1na2vs0mg"},{"bike_id":"79dd7387-b983-4207-8504-b5425e87d228","system_id":"levelo_inurba_marseille","lat":43.292644,"lon":5.384257,"is_reserved":false,"is_disabled":false,"rental_uris":{"android":"levelo://app?vid=79dd7387-b983-4207-8504-b5425e87d228","ios":"levelo://app?vid=79dd7387-b983-4207-8504-b5425e87d228"},"vehicle_type_id":"4","last_reported":1725725353,"current_range_meters":0,"station_id":"ce4bh692rcd13ifvqea0","pricing_plan_id":"cebpf4jnsgd1na2vs0mg"},{"bike_id":"bcafc9b3-0256-423c-aff0-45d3fee782ca","system_id":"levelo_inurba_marseille","lat":43.292642,"lon":5.384254,"is_reserved":false,"is_disabled":false,"rental_uris":{"android":"levelo://app?vid=bcafc9b3-0256-423c-aff0-45d3fee782ca","ios":"levelo://app?vid=bcafc9b3-0256-423c-aff0-45d3fee782ca"},"vehicle_type_id":"4","last_reported":1725725353,"current_range_meters":28400,"station_id":"ce4bh692rcd13ifvqea0","pricing_plan_id":"cebpf4jnsgd1na2vs0mg"},{"bike_id":"12f24658-85c7-4848-93cc-1e4be8ef5386","system_id":"levelo_inurba_marseille","lat":43.29267,"lon":5.3844,"is_reserved":false,"is_disabled":false,"rental_uris":{"android":"levelo://app?vid=12f24658-85c7-4848-93cc-1e4be8ef5386","ios":"levelo://app?vid=12f24658-85c7-4848-93cc-1e4be8ef5386"},"vehicle_type_id":"4","last_reported":1725725353,"current_range_meters":0,"station_id":"ce4bh692rcd13ifvqea0","pricing_plan_id":"cebpf4jnsgd1na2vs0mg"},{"bike_id":"938520d9-9286-4c8d-af77-6a5ce8d4ae33","system_id":"levelo_inurba_marseille","lat":43.290104,"lon":5.356111,"is_reserved":false,"is_disabled":false,"rental_uris":{"android":"levelo://app?vid=938520d9-9286-4c8d-af77-6a5ce8d4ae33","ios":"levelo://app?vid=938520d9-9286-4c8d-af77-6a5ce8d4ae33"},"vehicle_type_id":"4","last_reported":1725725353,"current_range_meters":400,"station_id":"ce4bhb92rcd13ifvqen0","pricing_plan_id":"cebpf4jnsgd1na2vs0mg"},{"bike_id":"2824188c-27dd-4aa1-89ea-9e1c788d1f3a","system_id":"levelo_inurba_marseille","lat":43.29006,"lon":5.35608,"is_reserved":false,"is_disabled":false,"rental_uris":{"android":"levelo://app?vid=2824188c-27dd-4aa1-89ea-9e1c788d1f3a","ios":"levelo://app?vid=2824188c-27dd-4aa1-89ea-9e1c788d1f3a"},"vehicle_type_id":"4","last_reported":1725725353,"current_range_meters":0,"station_id":"ce4bhb92rcd13ifvqen0","pricing_plan_id":"cebpf4jnsgd1na2vs0mg"},{"bike_id":"23cbc78f-7f11-46fa-8bf3-64d3524c1e6a","system_id":"levelo_inurba_marseille","lat":43.28982,"lon":5.37838,"is_reserved":false,"is_disabled":false,"rental_uris":{"android":"levelo://app?vid=23cbc78f-7f11-46fa-8bf3-64d3524c1e6a","ios":"levelo://app?vid=23cbc78f-7f11-46fa-8bf3-64d3524c1e6a"},"vehicle_type_id":"4","last_reported":1725725353,"current_range_meters":3600,"station_id":"ce4bh9p2rcd13ifvqed0","pricing_plan_id":"cebpf4jnsgd1na2vs0mg"},{"bike_id":"da907c71-43c7-4fea-84a5-f37e341b9bf3","system_id":"levelo_inurba_marseille","lat":43.295169,"lon":5.390426,"is_reserved":false,"is_disabled":false,"rental_uris":{"android":"levelo://app?vid=da907c71-43c7-4fea-84a5-f37e341b9bf3","ios":"levelo://app?vid=da907c71-43c7-4fea-84a5-f37e341b9bf3"},"vehicle_type_id":"4","last_reported":1725725353,"current_range_meters":25600,"station_id":"ce4bh3p2rcd13ifvqdp0","pricing_plan_id":"cebpf4jnsgd1na2vs0mg"},{"bike_id":"db114c49-6e15-4860-8283-7b47e21a1a86","system_id":"levelo_inurba_marseille","lat":43.330442,"lon":5.389148,"is_reserved":false,"is_disabled":false,"rental_uris":{"android":"levelo://app?vid=db114c49-6e15-4860-8283-7b47e21a1a86","ios":"levelo://app?vid=db114c49-6e15-4860-8283-7b47e21a1a86"},"vehicle_type_id":"4","last_reported":1725725353,"current_range_meters":30400,"station_id":"ce4bhr92rcd13ifvqhrg","pricing_plan_id":"cebpf4jnsgd1na2vs0mg"},{"bike_id":"dc4dc63c-4408-45e7-b6eb-2f7e646ba203","system_id":"levelo_inurba_marseille","lat":43.289741,"lon":5.378306,"is_reserved":false,"is_disabled":false,"rental_uris":{"android":"levelo://app?vid=dc4dc63c-4408-45e7-b6eb-2f7e646ba203","ios":"levelo://app?vid=dc4dc63c-4408-45e7-b6eb-2f7e646ba203"},"vehicle_type_id":"4","last_reported":1725725353,"current_range_meters":1200,"station_id":"ce4bh9p2rcd13ifvqed0","pricing_plan_id":"cebpf4jnsgd1na2vs0mg"},{"bike_id":"cfd3d8d8-db4b-45b9-acbc-e0c0bba0f864","system_id":"levelo_inurba_marseille","lat":43.330442,"lon":5.389148,"is_reserved":false,"is_disabled":false,"rental_uris":{"android":"levelo://app?vid=cfd3d8d8-db4b-45b9-acbc-e0c0bba0f864","ios":"levelo://app?vid=cfd3d8d8-db4b-45b9-acbc-e0c0bba0f864"},"vehicle_type_id":"4","last_reported":1725725353,"current_range_meters":1200,"station_id":"ce4bhr92rcd13ifvqhrg","pricing_plan_id":"cebpf4jnsgd1na2vs0mg"},{"bike_id":"f04bd275-ec11-4ef1-b3b2-15d2abbede83","system_id":"levelo_inurba_marseille","lat":43.310645,"lon":5.400571,"is_reserved":false,"is_disabled":false,"rental_uris":{"android":"levelo://app?vid=f04bd275-ec11-4ef1-b3b2-15d2abbede83","ios":"levelo://app?vid=f04bd275-ec11-4ef1-b3b2-15d2abbede83"},"vehicle_type_id":"4","last_reported":1725725353,"current_range_meters":15600,"station_id":"","pricing_plan_id":"cebpf4jnsgd1na2vs0mg"},{"bike_id":"c5501d27-5f11-49bb-a6c1-e1d379535a35","system_id":"levelo_inurba_marseille","lat":43.2901,"lon":5.381269,"is_reserved":false,"is_disabled":false,"rental_uris":{"android":"levelo://app?vid=c5501d27-5f11-49bb-a6c1-e1d379535a35","ios":"levelo://app?vid=c5501d27-5f11-49bb-a6c1-e1d379535a35"},"vehicle_type_id":"4","last_reported":1725725353,"current_range_meters":9600,"station_id":"ce4bh4p2rcd13ifvqe1g","pricing_plan_id":"cebpf4jnsgd1na2vs0mg"},{"bike_id":"c7239c45-881e-4f02-8428-739b39c6f9c1","system_id":"levelo_inurba_marseille","lat":43.28856,"lon":5.358371,"is_reserved":false,"is_disabled":false,"rental_uris":{"android":"levelo://app?vid=c7239c45-881e-4f02-8428-739b39c6f9c1","ios":"levelo://app?vid=c7239c45-881e-4f02-8428-739b39c6f9c1"},"vehicle_type_id":"4","last_reported":1725725353,"current_range_meters":0,"station_id":"ce4bhb12rcd13ifvqem0","pricing_plan_id":"cebpf4jnsgd1na2vs0mg"},{"bike_id":"137dc5de-f827-407b-bc57-692ceab0d501","system_id":"levelo_inurba_marseille","lat":43.28846,"lon":5.35853,"is_reserved":false,"is_disabled":false,"rental_uris":{"android":"levelo://app?vid=137dc5de-f827-407b-bc57-692ceab0d501","ios":"levelo://app?vid=137dc5de-f827-407b-bc57-692ceab0d501"},"vehicle_type_id":"4","last_reported":1725725353,"current_range_meters":0,"station_id":"ce4bhb12rcd13ifvqem0","pricing_plan_id":"cebpf4jnsgd1na2vs0mg"},{"bike_id":"40565d8c-4159-4883-b3f0-28e961f6be9e","system_id":"levelo_inurba_marseille","lat":43.337147,"lon":5.357647,"is_reserved":false,"is_disabled":false,"rental_uris":{"android":"levelo://app?vid=40565d8c-4159-4883-b3f0-28e961f6be9e","ios":"levelo://app?vid=40565d8c-4159-4883-b3f0-28e961f6be9e"},"vehicle_type_id":"4","last_reported":1725725353,"current_range_meters":16000,"station_id":"","pricing_plan_id":"cebpf4jnsgd1na2vs0mg"},{"bike_id":"3f3244df-bee4-4437-b2a1-ab9135c8e39a","system_id":"levelo_inurba_marseille","lat":43.33755,"lon":5.37455,"is_reserved":false,"is_disabled":false,"rental_uris":{"android":"levelo://app?vid=3f3244df-bee4-4437-b2a1-ab9135c8e39a","ios":"levelo://app?vid=3f3244df-bee4-4437-b2a1-ab9135c8e39a"},"vehicle_type_id":"4","last_reported":1725725353,"current_range_meters":19600,"station_id":"","pricing_plan_id":"cebpf4jnsgd1na2vs0mg"},{"bike_id":"45985ff5-fc75-4626-9a62-c7067a0f7ca9","system_id":"levelo_inurba_marseille","lat":43.337554,"lon":5.374586,"is_reserved":false,"is_disabled":false,"rental_uris":{"android":"levelo://app?vid=45985ff5-fc75-4626-9a62-c7067a0f7ca9","ios":"levelo://app?vid=45985ff5-fc75-4626-9a62-c7067a0f7ca9"},"vehicle_type_id":"4","last_reported":1725725353,"current_range_meters":31200,"station_id":"ce4bhr92rcd13ifvqhrg","pricing_plan_id":"cebpf4jnsgd1na2vs0mg"},{"bike_id":"39f5af82-2d9d-49b5-9de0-0477144a0224","system_id":"levelo_inurba_marseille","lat":43.33756,"lon":5.37457,"is_reserved":false,"is_disabled":false,"rental_uris":{"android":"levelo://app?vid=39f5af82-2d9d-49b5-9de0-0477144a0224","ios":"levelo://app?vid=39f5af82-2d9d-49b5-9de0-0477144a0224"},"vehicle_type_id":"4","last_reported":1725725353,"current_range_meters":22800,"station_id":"","pricing_plan_id":"cebpf4jnsgd1na2vs0mg"},{"bike_id":"f6f1bb6f-3505-4f0c-a039-57070617bd45","system_id":"levelo_inurba_marseille","lat":43.306412,"lon":5.401035,"is_reserved":false,"is_disabled":false,"rental_uris":{"android":"levelo://app?vid=f6f1bb6f-3505-4f0c-a039-57070617bd45","ios":"levelo://app?vid=f6f1bb6f-3505-4f0c-a039-57070617bd45"},"vehicle_type_id":"4","last_reported":1725725353,"current_range_meters":400,"station_id":"ce4bh112rcd13ifvqda0","pricing_plan_id":"cebpf4jnsgd1na2vs0mg"},{"bike_id":"336bea5a-7307-4ce9-b863-5214a1ed073f","system_id":"levelo_inurba_marseille","lat":43.301117,"lon":5.398795,"is_reserved":false,"is_disabled":false,"rental_uris":{"android":"levelo://app?vid=336bea5a-7307-4ce9-b863-5214a1ed073f","ios":"levelo://app?vid=336bea5a-7307-4ce9-b863-5214a1ed073f"},"vehicle_type_id":"4","last_reported":1725725353,"current_range_meters":400,"station_id":"ce4bh0h2rcd13ifvqd40","pricing_plan_id":"cebpf4jnsgd1na2vs0mg"},{"bike_id":"96993bdb-ac0f-4cc3-88e3-de34b40f232e","system_id":"levelo_inurba_marseille","lat":43.301117,"lon":5.398795,"is_reserved":false,"is_disabled":false,"rental_uris":{"android":"levelo://app?vid=96993bdb-ac0f-4cc3-88e3-de34b40f232e","ios":"levelo://app?vid=96993bdb-ac0f-4cc3-88e3-de34b40f232e"},"vehicle_type_id":"4","last_reported":1725725353,"current_range_meters":2800,"station_id":"ce4bh0h2rcd13ifvqd40","pricing_plan_id":"cebpf4jnsgd1na2vs0mg"},{"bike_id":"95eeba92-3e47-472d-94f6-8b2c1ba1297a","system_id":"levelo_inurba_marseille","lat":43.298681,"lon":5.397225,"is_reserved":false,"is_disabled":false,"rental_uris":{"android":"levelo://app?vid=95eeba92-3e47-472d-94f6-8b2c1ba1297a","ios":"levelo://app?vid=95eeba92-3e47-472d-94f6-8b2c1ba1297a"},"vehicle_type_id":"4","last_reported":1725725353,"current_range_meters":400,"station_id":"ce4bh0h2rcd13ifvqd50","pricing_plan_id":"cebpf4jnsgd1na2vs0mg"},{"bike_id":"5fc752c2-fe07-4f72-8dce-d566ad45b4fa","system_id":"levelo_inurba_marseille","lat":43.286961,"lon":5.373785,"is_reserved":false,"is_disabled":false,"rental_uris":{"android":"levelo://app?vid=5fc752c2-fe07-4f72-8dce-d566ad45b4fa","ios":"levelo://app?vid=5fc752c2-fe07-4f72-8dce-d566ad45b4fa"},"vehicle_type_id":"4","last_reported":1725725353,"current_range_meters":6400,"station_id":"ce4bh3p2rcd13ifvqdq0","pricing_plan_id":"cebpf4jnsgd1na2vs0mg"},{"bike_id":"28887c39-bb43-4d10-8ec7-e123b5dc2ad7","system_id":"levelo_inurba_marseille","lat":43.286593,"lon":5.363346,"is_reserved":false,"is_disabled":false,"rental_uris":{"android":"levelo://app?vid=28887c39-bb43-4d10-8ec7-e123b5dc2ad7","ios":"levelo://app?vid=28887c39-bb43-4d10-8ec7-e123b5dc2ad7"},"vehicle_type_id":"4","last_reported":1725725353,"current_range_meters":0,"station_id":"ce4bhah2rcd13ifvqej0","pricing_plan_id":"cebpf4jnsgd1na2vs0mg"},{"bike_id":"e12627ee-5a94-4f01-8975-79b57fad0875","system_id":"levelo_inurba_marseille","lat":43.286593,"lon":5.363346,"is_reserved":false,"is_disabled":false,"rental_uris":{"android":"levelo://app?vid=e12627ee-5a94-4f01-8975-79b57fad0875","ios":"levelo://app?vid=e12627ee-5a94-4f01-8975-79b57fad0875"},"vehicle_type_id":"4","last_reported":1725725353,"current_range_meters":26400,"station_id":"ce4bhah2rcd13ifvqej0","pricing_plan_id":"cebpf4jnsgd1na2vs0mg"},{"bike_id":"7d88bfaf-0f76-4aa1-85da-1380bd08c3c3","system_id":"levelo_inurba_marseille","lat":43.298681,"lon":5.397225,"is_reserved":false,"is_disabled":false,"rental_uris":{"android":"levelo://app?vid=7d88bfaf-0f76-4aa1-85da-1380bd08c3c3","ios":"levelo://app?vid=7d88bfaf-0f76-4aa1-85da-1380bd08c3c3"},"vehicle_type_id":"4","last_reported":1725725353,"current_range_meters":1600,"station_id":"ce4bh0h2rcd13ifvqd50","pricing_plan_id":"cebpf4jnsgd1na2vs0mg"},{"bike_id":"bd600e5e-a2e0-46a4-b49d-88d2bb7dc6fb","system_id":"levelo_inurba_marseille","lat":43.286961,"lon":5.373785,"is_reserved":false,"is_disabled":false,"rental_uris":{"android":"levelo://app?vid=bd600e5e-a2e0-46a4-b49d-88d2bb7dc6fb","ios":"levelo://app?vid=bd600e5e-a2e0-46a4-b49d-88d2bb7dc6fb"},"vehicle_type_id":"4","last_reported":1725725353,"current_range_meters":0,"station_id":"ce4bh3p2rcd13ifvqdq0","pricing_plan_id":"cebpf4jnsgd1na2vs0mg"},{"bike_id":"d042bbaa-7caa-4645-ac77-dc377916aed7","system_id":"levelo_inurba_marseille","lat":43.295196,"lon":5.39397,"is_reserved":false,"is_disabled":false,"rental_uris":{"android":"levelo://app?vid=d042bbaa-7caa-4645-ac77-dc377916aed7","ios":"levelo://app?vid=d042bbaa-7caa-4645-ac77-dc377916aed7"},"vehicle_type_id":"4","last_reported":1725725353,"current_range_meters":0,"station_id":"ce4bh292rcd13ifvqdf0","pricing_plan_id":"cebpf4jnsgd1na2vs0mg"},{"bike_id":"81fa7f78-b66b-4e79-b059-83f69c1e4796","system_id":"levelo_inurba_marseille","lat":43.302759,"lon":5.400793,"is_reserved":false,"is_disabled":false,"rental_uris":{"android":"levelo://app?vid=81fa7f78-b66b-4e79-b059-83f69c1e4796","ios":"levelo://app?vid=81fa7f78-b66b-4e79-b059-83f69c1e4796"},"vehicle_type_id":"4","last_reported":1725725353,"current_range_meters":24800,"station_id":"ce4bgvh2rcd13ifvqcs0","pricing_plan_id":"cebpf4jnsgd1na2vs0mg"},{"bike_id":"a9131ca4-d883-43c1-b9db-ea3e676d9a17","system_id":"levelo_inurba_marseille","lat":43.290336,"lon":5.386425,"is_reserved":false,"is_disabled":false,"rental_uris":{"android":"levelo://app?vid=a9131ca4-d883-43c1-b9db-ea3e676d9a17","ios":"levelo://app?vid=a9131ca4-d883-43c1-b9db-ea3e676d9a17"},"vehicle_type_id":"4","last_reported":1725725353,"current_range_meters":0,"station_id":"ce4bh4p2rcd13ifvqe0g","pricing_plan_id":"cebpf4jnsgd1na2vs0mg"},{"bike_id":"a302aba3-85c4-4816-af25-daa5430eb62d","system_id":"levelo_inurba_marseille","lat":43.29028,"lon":5.38654,"is_reserved":false,"is_disabled":false,"rental_uris":{"android":"levelo://app?vid=a302aba3-85c4-4816-af25-daa5430eb62d","ios":"levelo://app?vid=a302aba3-85c4-4816-af25-daa5430eb62d"},"vehicle_type_id":"4","last_reported":1725725353,"current_range_meters":28800,"station_id":"ce4bh4p2rcd13ifvqe0g","pricing_plan_id":"cebpf4jnsgd1na2vs0mg"},{"bike_id":"88a6a881-a4ba-4a90-bf09-0bc5db177cda","system_id":"levelo_inurba_marseille","lat":43.302759,"lon":5.400793,"is_reserved":false,"is_disabled":false,"rental_uris":{"android":"levelo://app?vid=88a6a881-a4ba-4a90-bf09-0bc5db177cda","ios":"levelo://app?vid=88a6a881-a4ba-4a90-bf09-0bc5db177cda"},"vehicle_type_id":"4","last_reported":1725725353,"current_range_meters":2400,"station_id":"ce4bgvh2rcd13ifvqcs0","pricing_plan_id":"cebpf4jnsgd1na2vs0mg"},{"bike_id":"67c374cb-e445-40ae-a691-1e143c42874d","system_id":"levelo_inurba_marseille","lat":43.28611,"lon":5.37058,"is_reserved":false,"is_disabled":false,"rental_uris":{"android":"levelo://app?vid=67c374cb-e445-40ae-a691-1e143c42874d","ios":"levelo://app?vid=67c374cb-e445-40ae-a691-1e143c42874d"},"vehicle_type_id":"4","last_reported":1725725353,"current_range_meters":3200,"station_id":"ce4bht12rcd13ifvqi60","pricing_plan_id":"cebpf4jnsgd1na2vs0mg"},{"bike_id":"6ce3f185-4139-42a1-a70e-c0b5041cb827","system_id":"levelo_inurba_marseille","lat":43.286039,"lon":5.370679,"is_reserved":false,"is_disabled":false,"rental_uris":{"android":"levelo://app?vid=6ce3f185-4139-42a1-a70e-c0b5041cb827","ios":"levelo://app?vid=6ce3f185-4139-42a1-a70e-c0b5041cb827"},"vehicle_type_id":"4","last_reported":1725725353,"current_range_meters":9600,"station_id":"ce4bht12rcd13ifvqi60","pricing_plan_id":"cebpf4jnsgd1na2vs0mg"},{"bike_id":"d8ae768e-774d-41dc-9869-2a072adefdf8","system_id":"levelo_inurba_marseille","lat":43.286039,"lon":5.370679,"is_reserved":false,"is_disabled":false,"rental_uris":{"android":"levelo://app?vid=d8ae768e-774d-41dc-9869-2a072adefdf8","ios":"levelo://app?vid=d8ae768e-774d-41dc-9869-2a072adefdf8"},"vehicle_type_id":"4","last_reported":1725725353,"current_range_meters":23600,"station_id":"ce4bht12rcd13ifvqi60","pricing_plan_id":"cebpf4jnsgd1na2vs0mg"},{"bike_id":"fda76631-b59c-459a-b0af-8c4f5f53a474","system_id":"levelo_inurba_marseille","lat":43.28591,"lon":5.37189,"is_reserved":false,"is_disabled":false,"rental_uris":{"android":"levelo://app?vid=fda76631-b59c-459a-b0af-8c4f5f53a474","ios":"levelo://app?vid=fda76631-b59c-459a-b0af-8c4f5f53a474"},"vehicle_type_id":"4","last_reported":1725725353,"current_range_meters":0,"station_id":"","pricing_plan_id":"cebpf4jnsgd1na2vs0mg"},{"bike_id":"125bdfa3-3abc-4d99-aee4-c8a2c3b7a63d","system_id":"levelo_inurba_marseille","lat":43.2872,"lon":5.37942,"is_reserved":false,"is_disabled":false,"rental_uris":{"android":"levelo://app?vid=125bdfa3-3abc-4d99-aee4-c8a2c3b7a63d","ios":"levelo://app?vid=125bdfa3-3abc-4d99-aee4-c8a2c3b7a63d"},"vehicle_type_id":"4","last_reported":1725725353,"current_range_meters":800,"station_id":"ce4bh9p2rcd13ifvqec0","pricing_plan_id":"cebpf4jnsgd1na2vs0mg"},{"bike_id":"69b89303-d856-49ed-ba21-c2013d128463","system_id":"levelo_inurba_marseille","lat":43.284538,"lon":5.358657,"is_reserved":false,"is_disabled":false,"rental_uris":{"android":"levelo://app?vid=69b89303-d856-49ed-ba21-c2013d128463","ios":"levelo://app?vid=69b89303-d856-49ed-ba21-c2013d128463"},"vehicle_type_id":"4","last_reported":1725725353,"current_range_meters":12000,"station_id":"ce4bhah2rcd13ifvqei0","pricing_plan_id":"cebpf4jnsgd1na2vs0mg"},{"bike_id":"8a9e2b9c-f32a-4246-8bb2-f54c4e918001","system_id":"levelo_inurba_marseille","lat":43.303256,"lon":5.404389,"is_reserved":false,"is_disabled":false,"rental_uris":{"android":"levelo://app?vid=8a9e2b9c-f32a-4246-8bb2-f54c4e918001","ios":"levelo://app?vid=8a9e2b9c-f32a-4246-8bb2-f54c4e918001"},"vehicle_type_id":"4","last_reported":1725725353,"current_range_meters":24800,"station_id":"ce4bh012rcd13ifvqd10","pricing_plan_id":"cebpf4jnsgd1na2vs0mg"},{"bike_id":"87d210b1-8560-4656-9bcf-323898357391","system_id":"levelo_inurba_marseille","lat":43.303256,"lon":5.404389,"is_reserved":false,"is_disabled":false,"rental_uris":{"android":"levelo://app?vid=87d210b1-8560-4656-9bcf-323898357391","ios":"levelo://app?vid=87d210b1-8560-4656-9bcf-323898357391"},"vehicle_type_id":"4","last_reported":1725725353,"current_range_meters":0,"station_id":"ce4bh012rcd13ifvqd10","pricing_plan_id":"cebpf4jnsgd1na2vs0mg"},{"bike_id":"5344e4e7-896b-45f9-9699-d7aa840ea2d1","system_id":"levelo_inurba_marseille","lat":43.294314,"lon":5.397498,"is_reserved":false,"is_disabled":false,"rental_uris":{"android":"levelo://app?vid=5344e4e7-896b-45f9-9699-d7aa840ea2d1","ios":"levelo://app?vid=5344e4e7-896b-45f9-9699-d7aa840ea2d1"},"vehicle_type_id":"4","last_reported":1725725353,"current_range_meters":12400,"station_id":"ce4bh3h2rcd13ifvqdo0","pricing_plan_id":"cebpf4jnsgd1na2vs0mg"},{"bike_id":"ff4b5248-45e2-458f-925b-dd46371f0903","system_id":"levelo_inurba_marseille","lat":43.28618,"lon":5.35099,"is_reserved":false,"is_disabled":false,"rental_uris":{"android":"levelo://app?vid=ff4b5248-45e2-458f-925b-dd46371f0903","ios":"levelo://app?vid=ff4b5248-45e2-458f-925b-dd46371f0903"},"vehicle_type_id":"4","last_reported":1725725353,"current_range_meters":30400,"station_id":"ce4bhch2rcd13ifvqeug","pricing_plan_id":"cebpf4jnsgd1na2vs0mg"},{"bike_id":"bbf873c2-4545-4d5b-b74d-d5a2aaece419","system_id":"levelo_inurba_marseille","lat":43.283998,"lon":5.375062,"is_reserved":false,"is_disabled":false,"rental_uris":{"android":"levelo://app?vid=bbf873c2-4545-4d5b-b74d-d5a2aaece419","ios":"levelo://app?vid=bbf873c2-4545-4d5b-b74d-d5a2aaece419"},"vehicle_type_id":"4","last_reported":1725725353,"current_range_meters":7200,"station_id":"ce4bh412rcd13ifvqds0","pricing_plan_id":"cebpf4jnsgd1na2vs0mg"},{"bike_id":"ee7e7e4c-f683-4996-b038-6f3ddb85e2ed","system_id":"levelo_inurba_marseille","lat":43.28409,"lon":5.37505,"is_reserved":false,"is_disabled":false,"rental_uris":{"android":"levelo://app?vid=ee7e7e4c-f683-4996-b038-6f3ddb85e2ed","ios":"levelo://app?vid=ee7e7e4c-f683-4996-b038-6f3ddb85e2ed"},"vehicle_type_id":"4","last_reported":1725725353,"current_range_meters":800,"station_id":"ce4bh412rcd13ifvqds0","pricing_plan_id":"cebpf4jnsgd1na2vs0mg"},{"bike_id":"ac6e9cea-97b4-4a82-80ce-b6d659a5bc8b","system_id":"levelo_inurba_marseille","lat":43.284042,"lon":5.375162,"is_reserved":false,"is_disabled":false,"rental_uris":{"android":"levelo://app?vid=ac6e9cea-97b4-4a82-80ce-b6d659a5bc8b","ios":"levelo://app?vid=ac6e9cea-97b4-4a82-80ce-b6d659a5bc8b"},"vehicle_type_id":"4","last_reported":1725725353,"current_range_meters":18400,"station_id":"ce4bh412rcd13ifvqds0","pricing_plan_id":"cebpf4jnsgd1na2vs0mg"},{"bike_id":"dec84430-3917-429d-a819-72a89bbb0cad","system_id":"levelo_inurba_marseille","lat":43.28402,"lon":5.37516,"is_reserved":false,"is_disabled":false,"rental_uris":{"android":"levelo://app?vid=dec84430-3917-429d-a819-72a89bbb0cad","ios":"levelo://app?vid=dec84430-3917-429d-a819-72a89bbb0cad"},"vehicle_type_id":"4","last_reported":1725725353,"current_range_meters":19200,"station_id":"ce4bh412rcd13ifvqds0","pricing_plan_id":"cebpf4jnsgd1na2vs0mg"},{"bike_id":"f8391d5a-30d2-46c9-934a-0af9ce71a910","system_id":"levelo_inurba_marseille","lat":43.28401,"lon":5.37512,"is_reserved":false,"is_disabled":false,"rental_uris":{"android":"levelo://app?vid=f8391d5a-30d2-46c9-934a-0af9ce71a910","ios":"levelo://app?vid=f8391d5a-30d2-46c9-934a-0af9ce71a910"},"vehicle_type_id":"4","last_reported":1725725353,"current_range_meters":30400,"station_id":"ce4bh412rcd13ifvqds0","pricing_plan_id":"cebpf4jnsgd1na2vs0mg"},{"bike_id":"6f9c2158-0434-49a5-a696-65b4a76fb06a","system_id":"levelo_inurba_marseille","lat":43.28398,"lon":5.37509,"is_reserved":false,"is_disabled":false,"rental_uris":{"android":"levelo://app?vid=6f9c2158-0434-49a5-a696-65b4a76fb06a","ios":"levelo://app?vid=6f9c2158-0434-49a5-a696-65b4a76fb06a"},"vehicle_type_id":"4","last_reported":1725725353,"current_range_meters":0,"station_id":"ce4bh412rcd13ifvqds0","pricing_plan_id":"cebpf4jnsgd1na2vs0mg"},{"bike_id":"5fed1784-3952-482e-ac58-405868f201b1","system_id":"levelo_inurba_marseille","lat":43.31891,"lon":5.4073,"is_reserved":false,"is_disabled":false,"rental_uris":{"android":"levelo://app?vid=5fed1784-3952-482e-ac58-405868f201b1","ios":"levelo://app?vid=5fed1784-3952-482e-ac58-405868f201b1"},"vehicle_type_id":"4","last_reported":1725725353,"current_range_meters":0,"station_id":"ce4bhq12rcd13ifvqhig","pricing_plan_id":"cebpf4jnsgd1na2vs0mg"},{"bike_id":"b4c25c00-feb2-4dc0-b8f1-a6f6f7341a59","system_id":"levelo_inurba_marseille","lat":43.319179,"lon":5.407725,"is_reserved":false,"is_disabled":false,"rental_uris":{"android":"levelo://app?vid=b4c25c00-feb2-4dc0-b8f1-a6f6f7341a59","ios":"levelo://app?vid=b4c25c00-feb2-4dc0-b8f1-a6f6f7341a59"},"vehicle_type_id":"4","last_reported":1725725353,"current_range_meters":23600,"station_id":"ce4bhq12rcd13ifvqhig","pricing_plan_id":"cebpf4jnsgd1na2vs0mg"},{"bike_id":"5da5bfbd-156f-4f48-98a2-49f15fb42792","system_id":"levelo_inurba_marseille","lat":43.323464,"lon":5.406297,"is_reserved":false,"is_disabled":false,"rental_uris":{"android":"levelo://app?vid=5da5bfbd-156f-4f48-98a2-49f15fb42792","ios":"levelo://app?vid=5da5bfbd-156f-4f48-98a2-49f15fb42792"},"vehicle_type_id":"4","last_reported":1725725353,"current_range_meters":18400,"station_id":"ce4bhq92rcd13ifvqhjg","pricing_plan_id":"cebpf4jnsgd1na2vs0mg"},{"bike_id":"7e92c364-ea1e-4355-baf6-32ed542b399f","system_id":"levelo_inurba_marseille","lat":43.323464,"lon":5.406297,"is_reserved":false,"is_disabled":false,"rental_uris":{"android":"levelo://app?vid=7e92c364-ea1e-4355-baf6-32ed542b399f","ios":"levelo://app?vid=7e92c364-ea1e-4355-baf6-32ed542b399f"},"vehicle_type_id":"4","last_reported":1725725353,"current_range_meters":5200,"station_id":"ce4bhq92rcd13ifvqhjg","pricing_plan_id":"cebpf4jnsgd1na2vs0mg"},{"bike_id":"fd8ebbb4-34fb-4ede-85f3-7ad2483e9658","system_id":"levelo_inurba_marseille","lat":43.284787,"lon":5.384116,"is_reserved":false,"is_disabled":false,"rental_uris":{"android":"levelo://app?vid=fd8ebbb4-34fb-4ede-85f3-7ad2483e9658","ios":"levelo://app?vid=fd8ebbb4-34fb-4ede-85f3-7ad2483e9658"},"vehicle_type_id":"4","last_reported":1725725353,"current_range_meters":0,"station_id":"ce4bh512rcd13ifvqe3g","pricing_plan_id":"cebpf4jnsgd1na2vs0mg"},{"bike_id":"79d46e24-5136-479b-b11f-40fedb559d27","system_id":"levelo_inurba_marseille","lat":43.284793,"lon":5.384119,"is_reserved":false,"is_disabled":false,"rental_uris":{"android":"levelo://app?vid=79d46e24-5136-479b-b11f-40fedb559d27","ios":"levelo://app?vid=79d46e24-5136-479b-b11f-40fedb559d27"},"vehicle_type_id":"4","last_reported":1725725353,"current_range_meters":29200,"station_id":"ce4bh512rcd13ifvqe3g","pricing_plan_id":"cebpf4jnsgd1na2vs0mg"},{"bike_id":"874729c8-806c-4e94-b16b-477fcbf9ad90","system_id":"levelo_inurba_marseille","lat":43.319179,"lon":5.407725,"is_reserved":false,"is_disabled":false,"rental_uris":{"android":"levelo://app?vid=874729c8-806c-4e94-b16b-477fcbf9ad90","ios":"levelo://app?vid=874729c8-806c-4e94-b16b-477fcbf9ad90"},"vehicle_type_id":"4","last_reported":1725725353,"current_range_meters":0,"station_id":"ce4bhq12rcd13ifvqhig","pricing_plan_id":"cebpf4jnsgd1na2vs0mg"},{"bike_id":"837710aa-8fbc-470f-a688-0ca721353773","system_id":"levelo_inurba_marseille","lat":43.288501,"lon":5.393087,"is_reserved":false,"is_disabled":false,"rental_uris":{"android":"levelo://app?vid=837710aa-8fbc-470f-a688-0ca721353773","ios":"levelo://app?vid=837710aa-8fbc-470f-a688-0ca721353773"},"vehicle_type_id":"4","last_reported":1725725353,"current_range_meters":8000,"station_id":"ce4bh2p2rcd13ifvqdi0","pricing_plan_id":"cebpf4jnsgd1na2vs0mg"},{"bike_id":"8c49bc3a-5192-4007-9a06-9aa363cea39b","system_id":"levelo_inurba_marseille","lat":43.28848,"lon":5.39324,"is_reserved":false,"is_disabled":false,"rental_uris":{"android":"levelo://app?vid=8c49bc3a-5192-4007-9a06-9aa363cea39b","ios":"levelo://app?vid=8c49bc3a-5192-4007-9a06-9aa363cea39b"},"vehicle_type_id":"4","last_reported":1725725353,"current_range_meters":0,"station_id":"","pricing_plan_id":"cebpf4jnsgd1na2vs0mg"},{"bike_id":"f21f8324-2e4a-4703-85e9-2fabe676eeb1","system_id":"levelo_inurba_marseille","lat":43.283498,"lon":5.380948,"is_reserved":false,"is_disabled":false,"rental_uris":{"android":"levelo://app?vid=f21f8324-2e4a-4703-85e9-2fabe676eeb1","ios":"levelo://app?vid=f21f8324-2e4a-4703-85e9-2fabe676eeb1"},"vehicle_type_id":"4","last_reported":1725725353,"current_range_meters":0,"station_id":"ce4bh412rcd13ifvqdr0","pricing_plan_id":"cebpf4jnsgd1na2vs0mg"},{"bike_id":"d391958c-26ef-4c2b-85e3-59246d2778c7","system_id":"levelo_inurba_marseille","lat":43.2843,"lon":5.34987,"is_reserved":false,"is_disabled":false,"rental_uris":{"android":"levelo://app?vid=d391958c-26ef-4c2b-85e3-59246d2778c7","ios":"levelo://app?vid=d391958c-26ef-4c2b-85e3-59246d2778c7"},"vehicle_type_id":"4","last_reported":1725725353,"current_range_meters":18000,"station_id":"ce4bhbh2rcd13ifvqepg","pricing_plan_id":"cebpf4jnsgd1na2vs0mg"},{"bike_id":"c5e537a5-2c29-4c3d-b6bb-86c079fb79ad","system_id":"levelo_inurba_marseille","lat":43.284776,"lon":5.385603,"is_reserved":false,"is_disabled":false,"rental_uris":{"android":"levelo://app?vid=c5e537a5-2c29-4c3d-b6bb-86c079fb79ad","ios":"levelo://app?vid=c5e537a5-2c29-4c3d-b6bb-86c079fb79ad"},"vehicle_type_id":"4","last_reported":1725725353,"current_range_meters":13200,"station_id":"ce4bh8p2rcd13ifvqeb0","pricing_plan_id":"cebpf4jnsgd1na2vs0mg"},{"bike_id":"0c6dc0bc-7045-4c80-9184-f34d2894e9f5","system_id":"levelo_inurba_marseille","lat":43.28427,"lon":5.34981,"is_reserved":false,"is_disabled":false,"rental_uris":{"android":"levelo://app?vid=0c6dc0bc-7045-4c80-9184-f34d2894e9f5","ios":"levelo://app?vid=0c6dc0bc-7045-4c80-9184-f34d2894e9f5"},"vehicle_type_id":"4","last_reported":1725725353,"current_range_meters":31200,"station_id":"ce4bhbh2rcd13ifvqepg","pricing_plan_id":"cebpf4jnsgd1na2vs0mg"},{"bike_id":"ff206635-8fe0-4ba9-a98f-a36af7d0ce8d","system_id":"levelo_inurba_marseille","lat":43.284217,"lon":5.349697,"is_reserved":false,"is_disabled":false,"rental_uris":{"android":"levelo://app?vid=ff206635-8fe0-4ba9-a98f-a36af7d0ce8d","ios":"levelo://app?vid=ff206635-8fe0-4ba9-a98f-a36af7d0ce8d"},"vehicle_type_id":"4","last_reported":1725725353,"current_range_meters":26400,"station_id":"ce4bhbh2rcd13ifvqepg","pricing_plan_id":"cebpf4jnsgd1na2vs0mg"},{"bike_id":"e619e81c-3fe7-4769-b86a-83594af57419","system_id":"levelo_inurba_marseille","lat":43.28422,"lon":5.34971,"is_reserved":false,"is_disabled":false,"rental_uris":{"android":"levelo://app?vid=e619e81c-3fe7-4769-b86a-83594af57419","ios":"levelo://app?vid=e619e81c-3fe7-4769-b86a-83594af57419"},"vehicle_type_id":"4","last_reported":1725725353,"current_range_meters":31200,"station_id":"ce4bhbh2rcd13ifvqepg","pricing_plan_id":"cebpf4jnsgd1na2vs0mg"},{"bike_id":"98542349-adfa-46f2-aea1-0f4e53e9f6c4","system_id":"levelo_inurba_marseille","lat":43.284214,"lon":5.349706,"is_reserved":false,"is_disabled":false,"rental_uris":{"android":"levelo://app?vid=98542349-adfa-46f2-aea1-0f4e53e9f6c4","ios":"levelo://app?vid=98542349-adfa-46f2-aea1-0f4e53e9f6c4"},"vehicle_type_id":"4","last_reported":1725725353,"current_range_meters":8800,"station_id":"ce4bhbh2rcd13ifvqepg","pricing_plan_id":"cebpf4jnsgd1na2vs0mg"},{"bike_id":"220cc789-18df-40df-9619-2a479ab30a02","system_id":"levelo_inurba_marseille","lat":43.284158,"lon":5.349687,"is_reserved":false,"is_disabled":false,"rental_uris":{"android":"levelo://app?vid=220cc789-18df-40df-9619-2a479ab30a02","ios":"levelo://app?vid=220cc789-18df-40df-9619-2a479ab30a02"},"vehicle_type_id":"4","last_reported":1725725353,"current_range_meters":31200,"station_id":"ce4bhbh2rcd13ifvqepg","pricing_plan_id":"cebpf4jnsgd1na2vs0mg"},{"bike_id":"94e7bb29-7a75-4942-9aa1-71ac7bd97f0b","system_id":"levelo_inurba_marseille","lat":43.284214,"lon":5.349706,"is_reserved":false,"is_disabled":false,"rental_uris":{"android":"levelo://app?vid=94e7bb29-7a75-4942-9aa1-71ac7bd97f0b","ios":"levelo://app?vid=94e7bb29-7a75-4942-9aa1-71ac7bd97f0b"},"vehicle_type_id":"4","last_reported":1725725353,"current_range_meters":0,"station_id":"ce4bhbh2rcd13ifvqepg","pricing_plan_id":"cebpf4jnsgd1na2vs0mg"},{"bike_id":"5a4da363-e839-4790-a3f5-6d2afa08d457","system_id":"levelo_inurba_marseille","lat":43.28407,"lon":5.34977,"is_reserved":false,"is_disabled":false,"rental_uris":{"android":"levelo://app?vid=5a4da363-e839-4790-a3f5-6d2afa08d457","ios":"levelo://app?vid=5a4da363-e839-4790-a3f5-6d2afa08d457"},"vehicle_type_id":"4","last_reported":1725725353,"current_range_meters":28000,"station_id":"ce4bhbh2rcd13ifvqepg","pricing_plan_id":"cebpf4jnsgd1na2vs0mg"},{"bike_id":"17d0cf96-8774-4ebf-8d91-4e5ca17f873d","system_id":"levelo_inurba_marseille","lat":43.282754,"lon":5.350519,"is_reserved":false,"is_disabled":false,"rental_uris":{"android":"levelo://app?vid=17d0cf96-8774-4ebf-8d91-4e5ca17f873d","ios":"levelo://app?vid=17d0cf96-8774-4ebf-8d91-4e5ca17f873d"},"vehicle_type_id":"4","last_reported":1725725353,"current_range_meters":800,"station_id":"ce4bhbp2rcd13ifvqerg","pricing_plan_id":"cebpf4jnsgd1na2vs0mg"},{"bike_id":"12aee54f-0757-4b64-8ac8-8edb0db208ab","system_id":"levelo_inurba_marseille","lat":43.282754,"lon":5.350519,"is_reserved":false,"is_disabled":false,"rental_uris":{"android":"levelo://app?vid=12aee54f-0757-4b64-8ac8-8edb0db208ab","ios":"levelo://app?vid=12aee54f-0757-4b64-8ac8-8edb0db208ab"},"vehicle_type_id":"4","last_reported":1725725353,"current_range_meters":8000,"station_id":"ce4bhbp2rcd13ifvqerg","pricing_plan_id":"cebpf4jnsgd1na2vs0mg"},{"bike_id":"5d55aec0-d462-4c97-862f-910fabbf0882","system_id":"levelo_inurba_marseille","lat":43.28273,"lon":5.35061,"is_reserved":false,"is_disabled":false,"rental_uris":{"android":"levelo://app?vid=5d55aec0-d462-4c97-862f-910fabbf0882","ios":"levelo://app?vid=5d55aec0-d462-4c97-862f-910fabbf0882"},"vehicle_type_id":"4","last_reported":1725725353,"current_range_meters":0,"station_id":"ce4bhbp2rcd13ifvqerg","pricing_plan_id":"cebpf4jnsgd1na2vs0mg"},{"bike_id":"0eda8cf1-5c4d-4dca-bb92-33fc93a5be2b","system_id":"levelo_inurba_marseille","lat":43.28272,"lon":5.35056,"is_reserved":false,"is_disabled":false,"rental_uris":{"android":"levelo://app?vid=0eda8cf1-5c4d-4dca-bb92-33fc93a5be2b","ios":"levelo://app?vid=0eda8cf1-5c4d-4dca-bb92-33fc93a5be2b"},"vehicle_type_id":"4","last_reported":1725725353,"current_range_meters":0,"station_id":"ce4bhbp2rcd13ifvqerg","pricing_plan_id":"cebpf4jnsgd1na2vs0mg"},{"bike_id":"f1d8b6eb-4c45-4382-b012-b952e684d7f1","system_id":"levelo_inurba_marseille","lat":43.282754,"lon":5.350519,"is_reserved":false,"is_disabled":false,"rental_uris":{"android":"levelo://app?vid=f1d8b6eb-4c45-4382-b012-b952e684d7f1","ios":"levelo://app?vid=f1d8b6eb-4c45-4382-b012-b952e684d7f1"},"vehicle_type_id":"4","last_reported":1725725353,"current_range_meters":31200,"station_id":"ce4bhbp2rcd13ifvqerg","pricing_plan_id":"cebpf4jnsgd1na2vs0mg"},{"bike_id":"70a1aec8-4698-47ea-913d-a81e3e4d9e64","system_id":"levelo_inurba_marseille","lat":43.283502,"lon":5.386471,"is_reserved":false,"is_disabled":false,"rental_uris":{"android":"levelo://app?vid=70a1aec8-4698-47ea-913d-a81e3e4d9e64","ios":"levelo://app?vid=70a1aec8-4698-47ea-913d-a81e3e4d9e64"},"vehicle_type_id":"4","last_reported":1725725353,"current_range_meters":1200,"station_id":"ce4bh492rcd13ifvqdvg","pricing_plan_id":"cebpf4jnsgd1na2vs0mg"},{"bike_id":"063409cc-bc14-444b-87d8-05d3440f95c1","system_id":"levelo_inurba_marseille","lat":43.28258,"lon":5.35061,"is_reserved":false,"is_disabled":false,"rental_uris":{"android":"levelo://app?vid=063409cc-bc14-444b-87d8-05d3440f95c1","ios":"levelo://app?vid=063409cc-bc14-444b-87d8-05d3440f95c1"},"vehicle_type_id":"4","last_reported":1725725353,"current_range_meters":0,"station_id":"ce4bhbp2rcd13ifvqerg","pricing_plan_id":"cebpf4jnsgd1na2vs0mg"},{"bike_id":"4e7b3956-2063-4d41-b2d6-07df4d16c827","system_id":"levelo_inurba_marseille","lat":43.28039,"lon":5.369297,"is_reserved":false,"is_disabled":false,"rental_uris":{"android":"levelo://app?vid=4e7b3956-2063-4d41-b2d6-07df4d16c827","ios":"levelo://app?vid=4e7b3956-2063-4d41-b2d6-07df4d16c827"},"vehicle_type_id":"4","last_reported":1725725353,"current_range_meters":4800,"station_id":"ce4bha12rcd13ifvqef0","pricing_plan_id":"cebpf4jnsgd1na2vs0mg"},{"bike_id":"7f1c58d2-8ae4-4b9c-a7ad-9670b5689c3d","system_id":"levelo_inurba_marseille","lat":43.280382,"lon":5.369291,"is_reserved":false,"is_disabled":false,"rental_uris":{"android":"levelo://app?vid=7f1c58d2-8ae4-4b9c-a7ad-9670b5689c3d","ios":"levelo://app?vid=7f1c58d2-8ae4-4b9c-a7ad-9670b5689c3d"},"vehicle_type_id":"4","last_reported":1725725353,"current_range_meters":15200,"station_id":"ce4bha12rcd13ifvqef0","pricing_plan_id":"cebpf4jnsgd1na2vs0mg"},{"bike_id":"a5edefb6-4afa-419a-a94f-1920693ff431","system_id":"levelo_inurba_marseille","lat":43.2964,"lon":5.40593,"is_reserved":false,"is_disabled":false,"rental_uris":{"android":"levelo://app?vid=a5edefb6-4afa-419a-a94f-1920693ff431","ios":"levelo://app?vid=a5edefb6-4afa-419a-a94f-1920693ff431"},"vehicle_type_id":"4","last_reported":1725725353,"current_range_meters":11600,"station_id":"ce4bh0h2rcd13ifvqd60","pricing_plan_id":"cebpf4jnsgd1na2vs0mg"},{"bike_id":"57522005-5224-4bf2-88a4-e42e479103a4","system_id":"levelo_inurba_marseille","lat":43.28104,"lon":5.37834,"is_reserved":false,"is_disabled":false,"rental_uris":{"android":"levelo://app?vid=57522005-5224-4bf2-88a4-e42e479103a4","ios":"levelo://app?vid=57522005-5224-4bf2-88a4-e42e479103a4"},"vehicle_type_id":"4","last_reported":1725725353,"current_range_meters":6000,"station_id":"ce4bha12rcd13ifvqee0","pricing_plan_id":"cebpf4jnsgd1na2vs0mg"},{"bike_id":"bfe66749-f78a-4807-9b55-23591e13e343","system_id":"levelo_inurba_marseille","lat":43.281044,"lon":5.378308,"is_reserved":false,"is_disabled":false,"rental_uris":{"android":"levelo://app?vid=bfe66749-f78a-4807-9b55-23591e13e343","ios":"levelo://app?vid=bfe66749-f78a-4807-9b55-23591e13e343"},"vehicle_type_id":"4","last_reported":1725725353,"current_range_meters":0,"station_id":"ce4bha12rcd13ifvqee0","pricing_plan_id":"cebpf4jnsgd1na2vs0mg"},{"bike_id":"ae3de037-d3d7-4f33-a290-8f9c5997cecf","system_id":"levelo_inurba_marseille","lat":43.296263,"lon":5.40601,"is_reserved":false,"is_disabled":false,"rental_uris":{"android":"levelo://app?vid=ae3de037-d3d7-4f33-a290-8f9c5997cecf","ios":"levelo://app?vid=ae3de037-d3d7-4f33-a290-8f9c5997cecf"},"vehicle_type_id":"4","last_reported":1725725353,"current_range_meters":8400,"station_id":"ce4bh0h2rcd13ifvqd60","pricing_plan_id":"cebpf4jnsgd1na2vs0mg"},{"bike_id":"15c49a71-f178-4bad-ba91-3c6cca02368b","system_id":"levelo_inurba_marseille","lat":43.34065,"lon":5.39137,"is_reserved":false,"is_disabled":false,"rental_uris":{"android":"levelo://app?vid=15c49a71-f178-4bad-ba91-3c6cca02368b","ios":"levelo://app?vid=15c49a71-f178-4bad-ba91-3c6cca02368b"},"vehicle_type_id":"4","last_reported":1725725353,"current_range_meters":20400,"station_id":"","pricing_plan_id":"cebpf4jnsgd1na2vs0mg"},{"bike_id":"116dc1fc-ea55-4654-994b-62455b13f041","system_id":"levelo_inurba_marseille","lat":43.28573,"lon":5.394992,"is_reserved":false,"is_disabled":false,"rental_uris":{"android":"levelo://app?vid=116dc1fc-ea55-4654-994b-62455b13f041","ios":"levelo://app?vid=116dc1fc-ea55-4654-994b-62455b13f041"},"vehicle_type_id":"4","last_reported":1725725353,"current_range_meters":0,"station_id":"ce4bh292rcd13ifvqdg0","pricing_plan_id":"cebpf4jnsgd1na2vs0mg"},{"bike_id":"22b51de0-611e-4c23-82c1-fbbd129e696f","system_id":"levelo_inurba_marseille","lat":43.28573,"lon":5.394992,"is_reserved":false,"is_disabled":false,"rental_uris":{"android":"levelo://app?vid=22b51de0-611e-4c23-82c1-fbbd129e696f","ios":"levelo://app?vid=22b51de0-611e-4c23-82c1-fbbd129e696f"},"vehicle_type_id":"4","last_reported":1725725353,"current_range_meters":28400,"station_id":"ce4bh292rcd13ifvqdg0","pricing_plan_id":"cebpf4jnsgd1na2vs0mg"},{"bike_id":"e37bcc10-7109-4864-b9b7-ee0873d5a9a9","system_id":"levelo_inurba_marseille","lat":43.32658,"lon":5.40987,"is_reserved":false,"is_disabled":false,"rental_uris":{"android":"levelo://app?vid=e37bcc10-7109-4864-b9b7-ee0873d5a9a9","ios":"levelo://app?vid=e37bcc10-7109-4864-b9b7-ee0873d5a9a9"},"vehicle_type_id":"4","last_reported":1725725353,"current_range_meters":3200,"station_id":"ce4bhpp2rcd13ifvqhgg","pricing_plan_id":"cebpf4jnsgd1na2vs0mg"},{"bike_id":"6f15d1f2-4815-45a3-906d-e88e1660ddec","system_id":"levelo_inurba_marseille","lat":43.3266,"lon":5.40986,"is_reserved":false,"is_disabled":false,"rental_uris":{"android":"levelo://app?vid=6f15d1f2-4815-45a3-906d-e88e1660ddec","ios":"levelo://app?vid=6f15d1f2-4815-45a3-906d-e88e1660ddec"},"vehicle_type_id":"4","last_reported":1725725353,"current_range_meters":9600,"station_id":"ce4bhpp2rcd13ifvqhgg","pricing_plan_id":"cebpf4jnsgd1na2vs0mg"},{"bike_id":"e6bb7793-e921-42d9-9225-a5048cf6a5ee","system_id":"levelo_inurba_marseille","lat":43.3266,"lon":5.40986,"is_reserved":false,"is_disabled":false,"rental_uris":{"android":"levelo://app?vid=e6bb7793-e921-42d9-9225-a5048cf6a5ee","ios":"levelo://app?vid=e6bb7793-e921-42d9-9225-a5048cf6a5ee"},"vehicle_type_id":"4","last_reported":1725725353,"current_range_meters":21200,"station_id":"ce4bhpp2rcd13ifvqhgg","pricing_plan_id":"cebpf4jnsgd1na2vs0mg"},{"bike_id":"28d56d9a-80eb-4e37-ab98-22881e7967ed","system_id":"levelo_inurba_marseille","lat":43.326605,"lon":5.409903,"is_reserved":false,"is_disabled":false,"rental_uris":{"android":"levelo://app?vid=28d56d9a-80eb-4e37-ab98-22881e7967ed","ios":"levelo://app?vid=28d56d9a-80eb-4e37-ab98-22881e7967ed"},"vehicle_type_id":"4","last_reported":1725725353,"current_range_meters":30400,"station_id":"ce4bhpp2rcd13ifvqhgg","pricing_plan_id":"cebpf4jnsgd1na2vs0mg"},{"bike_id":"1c19216d-5c2e-4f73-8a1c-18da95f08060","system_id":"levelo_inurba_marseille","lat":43.304188,"lon":5.412904,"is_reserved":false,"is_disabled":false,"rental_uris":{"android":"levelo://app?vid=1c19216d-5c2e-4f73-8a1c-18da95f08060","ios":"levelo://app?vid=1c19216d-5c2e-4f73-8a1c-18da95f08060"},"vehicle_type_id":"4","last_reported":1725725353,"current_range_meters":30000,"station_id":"ce4bhop2rcd13ifvqh8g","pricing_plan_id":"cebpf4jnsgd1na2vs0mg"},{"bike_id":"f9da68d9-c691-4a5c-b4a1-3549183ac906","system_id":"levelo_inurba_marseille","lat":43.26681,"lon":5.382694,"is_reserved":false,"is_disabled":false,"rental_uris":{"android":"levelo://app?vid=f9da68d9-c691-4a5c-b4a1-3549183ac906","ios":"levelo://app?vid=f9da68d9-c691-4a5c-b4a1-3549183ac906"},"vehicle_type_id":"4","last_reported":1725725353,"current_range_meters":8400,"station_id":"ce4bhg92rcd13ifvqf90","pricing_plan_id":"cebpf4jnsgd1na2vs0mg"},{"bike_id":"2c8f36b8-1da1-45b2-9aa9-3935f44453ab","system_id":"levelo_inurba_marseille","lat":43.279742,"lon":5.38744,"is_reserved":false,"is_disabled":false,"rental_uris":{"android":"levelo://app?vid=2c8f36b8-1da1-45b2-9aa9-3935f44453ab","ios":"levelo://app?vid=2c8f36b8-1da1-45b2-9aa9-3935f44453ab"},"vehicle_type_id":"4","last_reported":1725725353,"current_range_meters":17200,"station_id":"ce4bhg12rcd13ifvqf80","pricing_plan_id":"cebpf4jnsgd1na2vs0mg"},{"bike_id":"31f95d80-def0-4479-a735-1620a5327b49","system_id":"levelo_inurba_marseille","lat":43.278574,"lon":5.385012,"is_reserved":false,"is_disabled":false,"rental_uris":{"android":"levelo://app?vid=31f95d80-def0-4479-a735-1620a5327b49","ios":"levelo://app?vid=31f95d80-def0-4479-a735-1620a5327b49"},"vehicle_type_id":"4","last_reported":1725725353,"current_range_meters":20000,"station_id":"","pricing_plan_id":"cebpf4jnsgd1na2vs0mg"},{"bike_id":"a37b09f6-7b4b-4931-9a9a-6baacc336fb0","system_id":"levelo_inurba_marseille","lat":43.29251,"lon":5.40902,"is_reserved":false,"is_disabled":false,"rental_uris":{"android":"levelo://app?vid=a37b09f6-7b4b-4931-9a9a-6baacc336fb0","ios":"levelo://app?vid=a37b09f6-7b4b-4931-9a9a-6baacc336fb0"},"vehicle_type_id":"4","last_reported":1725725353,"current_range_meters":0,"station_id":"ce4bh192rcd13ifvqdc0","pricing_plan_id":"cebpf4jnsgd1na2vs0mg"},{"bike_id":"543fd6ba-24be-4c40-9d45-6f3cc9520f1a","system_id":"levelo_inurba_marseille","lat":43.27626,"lon":5.361,"is_reserved":false,"is_disabled":false,"rental_uris":{"android":"levelo://app?vid=543fd6ba-24be-4c40-9d45-6f3cc9520f1a","ios":"levelo://app?vid=543fd6ba-24be-4c40-9d45-6f3cc9520f1a"},"vehicle_type_id":"4","last_reported":1725725353,"current_range_meters":31200,"station_id":"ce4bgj92rcd13ifvqbe0","pricing_plan_id":"cebpf4jnsgd1na2vs0mg"},{"bike_id":"1d71a87f-b9bf-4a80-8ea2-abaeeb1e64ff","system_id":"levelo_inurba_marseille","lat":43.276179,"lon":5.361009,"is_reserved":false,"is_disabled":false,"rental_uris":{"android":"levelo://app?vid=1d71a87f-b9bf-4a80-8ea2-abaeeb1e64ff","ios":"levelo://app?vid=1d71a87f-b9bf-4a80-8ea2-abaeeb1e64ff"},"vehicle_type_id":"4","last_reported":1725725353,"current_range_meters":23600,"station_id":"ce4bgj92rcd13ifvqbe0","pricing_plan_id":"cebpf4jnsgd1na2vs0mg"},{"bike_id":"2ca75c6a-4c1c-4690-b4b7-ed67cbb8e09b","system_id":"levelo_inurba_marseille","lat":43.276179,"lon":5.361009,"is_reserved":false,"is_disabled":false,"rental_uris":{"android":"levelo://app?vid=2ca75c6a-4c1c-4690-b4b7-ed67cbb8e09b","ios":"levelo://app?vid=2ca75c6a-4c1c-4690-b4b7-ed67cbb8e09b"},"vehicle_type_id":"4","last_reported":1725725353,"current_range_meters":0,"station_id":"ce4bgj92rcd13ifvqbe0","pricing_plan_id":"cebpf4jnsgd1na2vs0mg"},{"bike_id":"62930fc1-a4e2-4f99-8787-069f6b2c3c47","system_id":"levelo_inurba_marseille","lat":43.276179,"lon":5.361009,"is_reserved":false,"is_disabled":false,"rental_uris":{"android":"levelo://app?vid=62930fc1-a4e2-4f99-8787-069f6b2c3c47","ios":"levelo://app?vid=62930fc1-a4e2-4f99-8787-069f6b2c3c47"},"vehicle_type_id":"4","last_reported":1725725353,"current_range_meters":31200,"station_id":"ce4bgj92rcd13ifvqbe0","pricing_plan_id":"cebpf4jnsgd1na2vs0mg"},{"bike_id":"880de136-8ec4-4dee-8b09-0ec012e5d4e3","system_id":"levelo_inurba_marseille","lat":43.276179,"lon":5.361009,"is_reserved":false,"is_disabled":false,"rental_uris":{"android":"levelo://app?vid=880de136-8ec4-4dee-8b09-0ec012e5d4e3","ios":"levelo://app?vid=880de136-8ec4-4dee-8b09-0ec012e5d4e3"},"vehicle_type_id":"4","last_reported":1725725353,"current_range_meters":15600,"station_id":"ce4bgj92rcd13ifvqbe0","pricing_plan_id":"cebpf4jnsgd1na2vs0mg"},{"bike_id":"76e42671-30e0-4b50-8f93-78fdfe2e0467","system_id":"levelo_inurba_marseille","lat":43.325233,"lon":5.414318,"is_reserved":false,"is_disabled":false,"rental_uris":{"android":"levelo://app?vid=76e42671-30e0-4b50-8f93-78fdfe2e0467","ios":"levelo://app?vid=76e42671-30e0-4b50-8f93-78fdfe2e0467"},"vehicle_type_id":"4","last_reported":1725725353,"current_range_meters":26800,"station_id":"ce4bhq12rcd13ifvqhhg","pricing_plan_id":"cebpf4jnsgd1na2vs0mg"},{"bike_id":"8040b042-8815-4c06-9ba8-833f79b01ce0","system_id":"levelo_inurba_marseille","lat":43.276179,"lon":5.361009,"is_reserved":false,"is_disabled":false,"rental_uris":{"android":"levelo://app?vid=8040b042-8815-4c06-9ba8-833f79b01ce0","ios":"levelo://app?vid=8040b042-8815-4c06-9ba8-833f79b01ce0"},"vehicle_type_id":"4","last_reported":1725725353,"current_range_meters":4400,"station_id":"ce4bgj92rcd13ifvqbe0","pricing_plan_id":"cebpf4jnsgd1na2vs0mg"},{"bike_id":"f668c47b-5923-460a-af9c-3a9cf26a401b","system_id":"levelo_inurba_marseille","lat":43.276179,"lon":5.361009,"is_reserved":false,"is_disabled":false,"rental_uris":{"android":"levelo://app?vid=f668c47b-5923-460a-af9c-3a9cf26a401b","ios":"levelo://app?vid=f668c47b-5923-460a-af9c-3a9cf26a401b"},"vehicle_type_id":"4","last_reported":1725725353,"current_range_meters":31200,"station_id":"ce4bgj92rcd13ifvqbe0","pricing_plan_id":"cebpf4jnsgd1na2vs0mg"},{"bike_id":"c2eabf2e-28bf-4a49-801b-55e1f4c75b49","system_id":"levelo_inurba_marseille","lat":43.27617,"lon":5.36116,"is_reserved":false,"is_disabled":false,"rental_uris":{"android":"levelo://app?vid=c2eabf2e-28bf-4a49-801b-55e1f4c75b49","ios":"levelo://app?vid=c2eabf2e-28bf-4a49-801b-55e1f4c75b49"},"vehicle_type_id":"4","last_reported":1725725353,"current_range_meters":6800,"station_id":"ce4bgj92rcd13ifvqbe0","pricing_plan_id":"cebpf4jnsgd1na2vs0mg"},{"bike_id":"4982a915-e2df-41c4-a837-4ac194b7ca57","system_id":"levelo_inurba_marseille","lat":43.27618,"lon":5.36094,"is_reserved":false,"is_disabled":false,"rental_uris":{"android":"levelo://app?vid=4982a915-e2df-41c4-a837-4ac194b7ca57","ios":"levelo://app?vid=4982a915-e2df-41c4-a837-4ac194b7ca57"},"vehicle_type_id":"4","last_reported":1725725353,"current_range_meters":24000,"station_id":"ce4bgj92rcd13ifvqbe0","pricing_plan_id":"cebpf4jnsgd1na2vs0mg"},{"bike_id":"2e1fb59a-a599-4ac9-978a-5aa7d7b65383","system_id":"levelo_inurba_marseille","lat":43.27614,"lon":5.36101,"is_reserved":false,"is_disabled":false,"rental_uris":{"android":"levelo://app?vid=2e1fb59a-a599-4ac9-978a-5aa7d7b65383","ios":"levelo://app?vid=2e1fb59a-a599-4ac9-978a-5aa7d7b65383"},"vehicle_type_id":"4","last_reported":1725725353,"current_range_meters":31200,"station_id":"ce4bgj92rcd13ifvqbe0","pricing_plan_id":"cebpf4jnsgd1na2vs0mg"},{"bike_id":"fec21478-05f1-467e-9a53-3e565c39166d","system_id":"levelo_inurba_marseille","lat":43.27608,"lon":5.36106,"is_reserved":false,"is_disabled":false,"rental_uris":{"android":"levelo://app?vid=fec21478-05f1-467e-9a53-3e565c39166d","ios":"levelo://app?vid=fec21478-05f1-467e-9a53-3e565c39166d"},"vehicle_type_id":"4","last_reported":1725725353,"current_range_meters":20000,"station_id":"ce4bgj92rcd13ifvqbe0","pricing_plan_id":"cebpf4jnsgd1na2vs0mg"},{"bike_id":"1cefe553-9ab6-4627-8f4f-3d357058d9dc","system_id":"levelo_inurba_marseille","lat":43.28262,"lon":5.39694,"is_reserved":false,"is_disabled":false,"rental_uris":{"android":"levelo://app?vid=1cefe553-9ab6-4627-8f4f-3d357058d9dc","ios":"levelo://app?vid=1cefe553-9ab6-4627-8f4f-3d357058d9dc"},"vehicle_type_id":"4","last_reported":1725725353,"current_range_meters":20800,"station_id":"","pricing_plan_id":"cebpf4jnsgd1na2vs0mg"},{"bike_id":"5c2b4c3e-a475-4851-95c6-a736530279d9","system_id":"levelo_inurba_marseille","lat":43.303837,"lon":5.418724,"is_reserved":false,"is_disabled":false,"rental_uris":{"android":"levelo://app?vid=5c2b4c3e-a475-4851-95c6-a736530279d9","ios":"levelo://app?vid=5c2b4c3e-a475-4851-95c6-a736530279d9"},"vehicle_type_id":"4","last_reported":1725725353,"current_range_meters":1200,"station_id":"ce4bhop2rcd13ifvqh7g","pricing_plan_id":"cebpf4jnsgd1na2vs0mg"},{"bike_id":"31301244-8676-4ce5-8a7d-8df7ac40f9fc","system_id":"levelo_inurba_marseille","lat":43.278399,"lon":5.392139,"is_reserved":false,"is_disabled":false,"rental_uris":{"android":"levelo://app?vid=31301244-8676-4ce5-8a7d-8df7ac40f9fc","ios":"levelo://app?vid=31301244-8676-4ce5-8a7d-8df7ac40f9fc"},"vehicle_type_id":"4","last_reported":1725725353,"current_range_meters":24000,"station_id":"ce4bhjp2rcd13ifvqga0","pricing_plan_id":"cebpf4jnsgd1na2vs0mg"},{"bike_id":"22bce32f-e150-41c1-9a33-cf1bca87d665","system_id":"levelo_inurba_marseille","lat":43.278401,"lon":5.392152,"is_reserved":false,"is_disabled":false,"rental_uris":{"android":"levelo://app?vid=22bce32f-e150-41c1-9a33-cf1bca87d665","ios":"levelo://app?vid=22bce32f-e150-41c1-9a33-cf1bca87d665"},"vehicle_type_id":"4","last_reported":1725725353,"current_range_meters":0,"station_id":"ce4bhjp2rcd13ifvqga0","pricing_plan_id":"cebpf4jnsgd1na2vs0mg"},{"bike_id":"12537acd-b468-4b2b-aaf6-3690f4ee3bc3","system_id":"levelo_inurba_marseille","lat":43.273613,"lon":5.362705,"is_reserved":false,"is_disabled":false,"rental_uris":{"android":"levelo://app?vid=12537acd-b468-4b2b-aaf6-3690f4ee3bc3","ios":"levelo://app?vid=12537acd-b468-4b2b-aaf6-3690f4ee3bc3"},