{"last_updated":1719083317,"ttl":30,"version":"2.2","data":{"bikes":[{"bike_id":"f28b40cf-9f08-4af5-a76b-d2dc1fc21075","system_id":"levelo_inurba_marseille","lat":43.31123,"lon":5.36774,"is_reserved":false,"is_disabled":false,"rental_uris":{"android":"levelo://app?vid=f28b40cf-9f08-4af5-a76b-d2dc1fc21075","ios":"levelo://app?vid=f28b40cf-9f08-4af5-a76b-d2dc1fc21075"},"vehicle_type_id":"4","last_reported":1719083317,"current_range_meters":31200,"station_id":"","pricing_plan_id":"cebpf4jnsgd1na2vs0mg"},{"bike_id":"a097e2f1-0b43-4c98-9658-d511f8f929e5","system_id":"levelo_inurba_marseille","lat":43.31101,"lon":5.36779,"is_reserved":false,"is_disabled":false,"rental_uris":{"android":"levelo://app?vid=a097e2f1-0b43-4c98-9658-d511f8f929e5","ios":"levelo://app?vid=a097e2f1-0b43-4c98-9658-d511f8f929e5"},"vehicle_type_id":"4","last_reported":1719083317,"current_range_meters":5200,"station_id":"","pricing_plan_id":"cebpf4jnsgd1na2vs0mg"},{"bike_id":"35571a6a-7a6e-485f-bd62-6a62effa95ec","system_id":"levelo_inurba_marseille","lat":43.309076,"lon":5.368465,"is_reserved":false,"is_disabled":false,"rental_uris":{"android":"levelo://app?vid=35571a6a-7a6e-485f-bd62-6a62effa95ec","ios":"levelo://app?vid=35571a6a-7a6e-485f-bd62-6a62effa95ec"},"vehicle_type_id":"4","last_reported":1719083317,"current_range_meters":17600,"station_id":"ce4bgn92rcd13ifvqbvg","pricing_plan_id":"cebpf4jnsgd1na2vs0mg"},{"bike_id":"24d509b5-ef37-465b-b8cc-6a71986a5c4f","system_id":"levelo_inurba_marseille","lat":43.308663,"lon":5.368071,"is_reserved":false,"is_disabled":false,"rental_uris":{"android":"levelo://app?vid=24d509b5-ef37-465b-b8cc-6a71986a5c4f","ios":"levelo://app?vid=24d509b5-ef37-465b-b8cc-6a71986a5c4f"},"vehicle_type_id":"4","last_reported":1719083317,"current_range_meters":20000,"station_id":"","pricing_plan_id":"cebpf4jnsgd1na2vs0mg"},{"bike_id":"bf04b6c6-a025-4395-a167-b6306a118261","system_id":"levelo_inurba_marseille","lat":43.314811,"lon":5.373104,"is_reserved":false,"is_disabled":false,"rental_uris":{"android":"levelo://app?vid=bf04b6c6-a025-4395-a167-b6306a118261","ios":"levelo://app?vid=bf04b6c6-a025-4395-a167-b6306a118261"},"vehicle_type_id":"4","last_reported":1719083317,"current_range_meters":4800,"station_id":"ce4bgt12rcd13ifvqcd0","pricing_plan_id":"cebpf4jnsgd1na2vs0mg"},{"bike_id":"e73af1c6-2615-42c2-9500-a80770dbda49","system_id":"levelo_inurba_marseille","lat":43.314811,"lon":5.373103,"is_reserved":false,"is_disabled":false,"rental_uris":{"android":"levelo://app?vid=e73af1c6-2615-42c2-9500-a80770dbda49","ios":"levelo://app?vid=e73af1c6-2615-42c2-9500-a80770dbda49"},"vehicle_type_id":"4","last_reported":1719083317,"current_range_meters":10800,"station_id":"ce4bgt12rcd13ifvqcd0","pricing_plan_id":"cebpf4jnsgd1na2vs0mg"},{"bike_id":"20f31c62-307b-4c16-93b6-6fcc5accd677","system_id":"levelo_inurba_marseille","lat":43.31458,"lon":5.373641,"is_reserved":false,"is_disabled":false,"rental_uris":{"android":"levelo://app?vid=20f31c62-307b-4c16-93b6-6fcc5accd677","ios":"levelo://app?vid=20f31c62-307b-4c16-93b6-6fcc5accd677"},"vehicle_type_id":"4","last_reported":1719083317,"current_range_meters":15200,"station_id":"","pricing_plan_id":"cebpf4jnsgd1na2vs0mg"},{"bike_id":"2832baf5-3e29-422b-b1ba-e70dc64d491a","system_id":"levelo_inurba_marseille","lat":43.309039,"lon":5.371797,"is_reserved":false,"is_disabled":false,"rental_uris":{"android":"levelo://app?vid=2832baf5-3e29-422b-b1ba-e70dc64d491a","ios":"levelo://app?vid=2832baf5-3e29-422b-b1ba-e70dc64d491a"},"vehicle_type_id":"4","last_reported":1719083317,"current_range_meters":21600,"station_id":"ce4bguh2rcd13ifvqckg","pricing_plan_id":"cebpf4jnsgd1na2vs0mg"},{"bike_id":"a43e7e1e-e283-47ba-bb74-77104a25b45c","system_id":"levelo_inurba_marseille","lat":43.30532,"lon":5.36661,"is_reserved":false,"is_disabled":false,"rental_uris":{"android":"levelo://app?vid=a43e7e1e-e283-47ba-bb74-77104a25b45c","ios":"levelo://app?vid=a43e7e1e-e283-47ba-bb74-77104a25b45c"},"vehicle_type_id":"4","last_reported":1719083317,"current_range_meters":21200,"station_id":"","pricing_plan_id":"cebpf4jnsgd1na2vs0mg"},{"bike_id":"5f150f51-cadb-4479-ac0b-37521952464e","system_id":"levelo_inurba_marseille","lat":43.31121,"lon":5.37768,"is_reserved":false,"is_disabled":false,"rental_uris":{"android":"levelo://app?vid=5f150f51-cadb-4479-ac0b-37521952464e","ios":"levelo://app?vid=5f150f51-cadb-4479-ac0b-37521952464e"},"vehicle_type_id":"4","last_reported":1719083317,"current_range_meters":30000,"station_id":"ce4bgt92rcd13ifvqcg0","pricing_plan_id":"cebpf4jnsgd1na2vs0mg"},{"bike_id":"501c3d49-2109-4c2e-9601-ba23e210258a","system_id":"levelo_inurba_marseille","lat":43.31122,"lon":5.37776,"is_reserved":false,"is_disabled":false,"rental_uris":{"android":"levelo://app?vid=501c3d49-2109-4c2e-9601-ba23e210258a","ios":"levelo://app?vid=501c3d49-2109-4c2e-9601-ba23e210258a"},"vehicle_type_id":"4","last_reported":1719083317,"current_range_meters":23200,"station_id":"ce4bgt92rcd13ifvqcg0","pricing_plan_id":"cebpf4jnsgd1na2vs0mg"},{"bike_id":"d46ab9df-ade0-4f53-a8a7-d2f384f3f540","system_id":"levelo_inurba_marseille","lat":43.31117,"lon":5.3778,"is_reserved":false,"is_disabled":false,"rental_uris":{"android":"levelo://app?vid=d46ab9df-ade0-4f53-a8a7-d2f384f3f540","ios":"levelo://app?vid=d46ab9df-ade0-4f53-a8a7-d2f384f3f540"},"vehicle_type_id":"4","last_reported":1719083317,"current_range_meters":0,"station_id":"ce4bgt92rcd13ifvqcg0","pricing_plan_id":"cebpf4jnsgd1na2vs0mg"},{"bike_id":"4302ecb6-bd14-4075-81ac-3e2e392646e7","system_id":"levelo_inurba_marseille","lat":43.307945,"lon":5.376487,"is_reserved":false,"is_disabled":false,"rental_uris":{"android":"levelo://app?vid=4302ecb6-bd14-4075-81ac-3e2e392646e7","ios":"levelo://app?vid=4302ecb6-bd14-4075-81ac-3e2e392646e7"},"vehicle_type_id":"4","last_reported":1719083317,"current_range_meters":30000,"station_id":"ce4bgv92rcd13ifvqcq0","pricing_plan_id":"cebpf4jnsgd1na2vs0mg"},{"bike_id":"d9dd7615-065b-4f8f-99f5-00d8dc23470f","system_id":"levelo_inurba_marseille","lat":43.307945,"lon":5.376487,"is_reserved":false,"is_disabled":false,"rental_uris":{"android":"levelo://app?vid=d9dd7615-065b-4f8f-99f5-00d8dc23470f","ios":"levelo://app?vid=d9dd7615-065b-4f8f-99f5-00d8dc23470f"},"vehicle_type_id":"4","last_reported":1719083317,"current_range_meters":16400,"station_id":"ce4bgv92rcd13ifvqcq0","pricing_plan_id":"cebpf4jnsgd1na2vs0mg"},{"bike_id":"0e1a6dba-f955-4f65-9a46-c225283dd3f6","system_id":"levelo_inurba_marseille","lat":43.307945,"lon":5.376487,"is_reserved":false,"is_disabled":false,"rental_uris":{"android":"levelo://app?vid=0e1a6dba-f955-4f65-9a46-c225283dd3f6","ios":"levelo://app?vid=0e1a6dba-f955-4f65-9a46-c225283dd3f6"},"vehicle_type_id":"4","last_reported":1719083317,"current_range_meters":28800,"station_id":"ce4bgv92rcd13ifvqcq0","pricing_plan_id":"cebpf4jnsgd1na2vs0mg"},{"bike_id":"1ea280b3-45cd-47e6-b088-4fca16f83ee8","system_id":"levelo_inurba_marseille","lat":43.307945,"lon":5.376487,"is_reserved":false,"is_disabled":false,"rental_uris":{"android":"levelo://app?vid=1ea280b3-45cd-47e6-b088-4fca16f83ee8","ios":"levelo://app?vid=1ea280b3-45cd-47e6-b088-4fca16f83ee8"},"vehicle_type_id":"4","last_reported":1719083317,"current_range_meters":28800,"station_id":"ce4bgv92rcd13ifvqcq0","pricing_plan_id":"cebpf4jnsgd1na2vs0mg"},{"bike_id":"8d974622-11ad-4574-a5ed-380f0e25b182","system_id":"levelo_inurba_marseille","lat":43.317075,"lon":5.377367,"is_reserved":false,"is_disabled":false,"rental_uris":{"android":"levelo://app?vid=8d974622-11ad-4574-a5ed-380f0e25b182","ios":"levelo://app?vid=8d974622-11ad-4574-a5ed-380f0e25b182"},"vehicle_type_id":"4","last_reported":1719083317,"current_range_meters":28000,"station_id":"ce4bgth2rcd13ifvqch0","pricing_plan_id":"cebpf4jnsgd1na2vs0mg"},{"bike_id":"aab79dad-a1ae-4339-8c96-06cf6a1df262","system_id":"levelo_inurba_marseille","lat":43.317075,"lon":5.377367,"is_reserved":false,"is_disabled":false,"rental_uris":{"android":"levelo://app?vid=aab79dad-a1ae-4339-8c96-06cf6a1df262","ios":"levelo://app?vid=aab79dad-a1ae-4339-8c96-06cf6a1df262"},"vehicle_type_id":"4","last_reported":1719083317,"current_range_meters":3200,"station_id":"ce4bgth2rcd13ifvqch0","pricing_plan_id":"cebpf4jnsgd1na2vs0mg"},{"bike_id":"2cd51ec7-b6ca-4502-90f1-ee33eefb9b73","system_id":"levelo_inurba_marseille","lat":43.30882,"lon":5.37859,"is_reserved":false,"is_disabled":false,"rental_uris":{"android":"levelo://app?vid=2cd51ec7-b6ca-4502-90f1-ee33eefb9b73","ios":"levelo://app?vid=2cd51ec7-b6ca-4502-90f1-ee33eefb9b73"},"vehicle_type_id":"4","last_reported":1719083317,"current_range_meters":30800,"station_id":"","pricing_plan_id":"cebpf4jnsgd1na2vs0mg"},{"bike_id":"3e6229a9-daa1-4e8e-b7ec-60b28f97252f","system_id":"levelo_inurba_marseille","lat":43.30343,"lon":5.3684,"is_reserved":false,"is_disabled":false,"rental_uris":{"android":"levelo://app?vid=3e6229a9-daa1-4e8e-b7ec-60b28f97252f","ios":"levelo://app?vid=3e6229a9-daa1-4e8e-b7ec-60b28f97252f"},"vehicle_type_id":"4","last_reported":1719083317,"current_range_meters":2800,"station_id":"","pricing_plan_id":"cebpf4jnsgd1na2vs0mg"},{"bike_id":"5b8007bb-0dd8-4352-b213-d088b8c4b4e0","system_id":"levelo_inurba_marseille","lat":43.315567,"lon":5.380107,"is_reserved":false,"is_disabled":false,"rental_uris":{"android":"levelo://app?vid=5b8007bb-0dd8-4352-b213-d088b8c4b4e0","ios":"levelo://app?vid=5b8007bb-0dd8-4352-b213-d088b8c4b4e0"},"vehicle_type_id":"4","last_reported":1719083317,"current_range_meters":7600,"station_id":"ce4bhsp2rcd13ifvqi50","pricing_plan_id":"cebpf4jnsgd1na2vs0mg"},{"bike_id":"d7febebb-f126-4a6e-8aad-951d2fc0b7cd","system_id":"levelo_inurba_marseille","lat":43.31564,"lon":5.38008,"is_reserved":false,"is_disabled":false,"rental_uris":{"android":"levelo://app?vid=d7febebb-f126-4a6e-8aad-951d2fc0b7cd","ios":"levelo://app?vid=d7febebb-f126-4a6e-8aad-951d2fc0b7cd"},"vehicle_type_id":"4","last_reported":1719083317,"current_range_meters":400,"station_id":"ce4bhsp2rcd13ifvqi50","pricing_plan_id":"cebpf4jnsgd1na2vs0mg"},{"bike_id":"1aa9382d-bd55-4aff-8971-b23615fccdae","system_id":"levelo_inurba_marseille","lat":43.311,"lon":5.38145,"is_reserved":false,"is_disabled":false,"rental_uris":{"android":"levelo://app?vid=1aa9382d-bd55-4aff-8971-b23615fccdae","ios":"levelo://app?vid=1aa9382d-bd55-4aff-8971-b23615fccdae"},"vehicle_type_id":"4","last_reported":1719083317,"current_range_meters":4800,"station_id":"","pricing_plan_id":"cebpf4jnsgd1na2vs0mg"},{"bike_id":"c8d74784-cfa3-4dc0-a55e-c53d6b6b7590","system_id":"levelo_inurba_marseille","lat":43.31299,"lon":5.38169,"is_reserved":false,"is_disabled":false,"rental_uris":{"android":"levelo://app?vid=c8d74784-cfa3-4dc0-a55e-c53d6b6b7590","ios":"levelo://app?vid=c8d74784-cfa3-4dc0-a55e-c53d6b6b7590"},"vehicle_type_id":"4","last_reported":1719083317,"current_range_meters":16400,"station_id":"","pricing_plan_id":"cebpf4jnsgd1na2vs0mg"},{"bike_id":"8c0649c0-7714-48b9-b669-725e054b359d","system_id":"levelo_inurba_marseille","lat":43.308012,"lon":5.381511,"is_reserved":false,"is_disabled":false,"rental_uris":{"android":"levelo://app?vid=8c0649c0-7714-48b9-b669-725e054b359d","ios":"levelo://app?vid=8c0649c0-7714-48b9-b669-725e054b359d"},"vehicle_type_id":"4","last_reported":1719083317,"current_range_meters":25600,"station_id":"ce4bgt12rcd13ifvqce0","pricing_plan_id":"cebpf4jnsgd1na2vs0mg"},{"bike_id":"301ceea3-9e06-416a-8833-3f3af1dd7bae","system_id":"levelo_inurba_marseille","lat":43.308012,"lon":5.381511,"is_reserved":false,"is_disabled":false,"rental_uris":{"android":"levelo://app?vid=301ceea3-9e06-416a-8833-3f3af1dd7bae","ios":"levelo://app?vid=301ceea3-9e06-416a-8833-3f3af1dd7bae"},"vehicle_type_id":"4","last_reported":1719083317,"current_range_meters":23600,"station_id":"ce4bgt12rcd13ifvqce0","pricing_plan_id":"cebpf4jnsgd1na2vs0mg"},{"bike_id":"ed14ec74-1f1c-4cfd-8d26-59aa92fdca8a","system_id":"levelo_inurba_marseille","lat":43.30082,"lon":5.367207,"is_reserved":false,"is_disabled":false,"rental_uris":{"android":"levelo://app?vid=ed14ec74-1f1c-4cfd-8d26-59aa92fdca8a","ios":"levelo://app?vid=ed14ec74-1f1c-4cfd-8d26-59aa92fdca8a"},"vehicle_type_id":"4","last_reported":1719083317,"current_range_meters":25200,"station_id":"","pricing_plan_id":"cebpf4jnsgd1na2vs0mg"},{"bike_id":"b4bef7df-047a-429f-b746-b32d1ebe7639","system_id":"levelo_inurba_marseille","lat":43.309885,"lon":5.382867,"is_reserved":false,"is_disabled":false,"rental_uris":{"android":"levelo://app?vid=b4bef7df-047a-429f-b746-b32d1ebe7639","ios":"levelo://app?vid=b4bef7df-047a-429f-b746-b32d1ebe7639"},"vehicle_type_id":"4","last_reported":1719083317,"current_range_meters":0,"station_id":"","pricing_plan_id":"cebpf4jnsgd1na2vs0mg"},{"bike_id":"5ea03a07-cc36-4542-8dc3-671a01d04dca","system_id":"levelo_inurba_marseille","lat":43.30462,"lon":5.37903,"is_reserved":false,"is_disabled":false,"rental_uris":{"android":"levelo://app?vid=5ea03a07-cc36-4542-8dc3-671a01d04dca","ios":"levelo://app?vid=5ea03a07-cc36-4542-8dc3-671a01d04dca"},"vehicle_type_id":"4","last_reported":1719083317,"current_range_meters":0,"station_id":"ce4bgup2rcd13ifvqcn0","pricing_plan_id":"cebpf4jnsgd1na2vs0mg"},{"bike_id":"05ec09e1-e4ed-4262-bae7-d0e78376b72c","system_id":"levelo_inurba_marseille","lat":43.324771,"lon":5.36557,"is_reserved":false,"is_disabled":false,"rental_uris":{"android":"levelo://app?vid=05ec09e1-e4ed-4262-bae7-d0e78376b72c","ios":"levelo://app?vid=05ec09e1-e4ed-4262-bae7-d0e78376b72c"},"vehicle_type_id":"4","last_reported":1719083317,"current_range_meters":22800,"station_id":"ce4bhs12rcd13ifvqhvg","pricing_plan_id":"cebpf4jnsgd1na2vs0mg"},{"bike_id":"58454f76-190a-422d-b042-55262cfd6402","system_id":"levelo_inurba_marseille","lat":43.324771,"lon":5.36557,"is_reserved":false,"is_disabled":false,"rental_uris":{"android":"levelo://app?vid=58454f76-190a-422d-b042-55262cfd6402","ios":"levelo://app?vid=58454f76-190a-422d-b042-55262cfd6402"},"vehicle_type_id":"4","last_reported":1719083317,"current_range_meters":0,"station_id":"ce4bhs12rcd13ifvqhvg","pricing_plan_id":"cebpf4jnsgd1na2vs0mg"},{"bike_id":"1a3b2049-3b40-43cc-805e-8cfb34f4287f","system_id":"levelo_inurba_marseille","lat":43.324771,"lon":5.36557,"is_reserved":false,"is_disabled":false,"rental_uris":{"android":"levelo://app?vid=1a3b2049-3b40-43cc-805e-8cfb34f4287f","ios":"levelo://app?vid=1a3b2049-3b40-43cc-805e-8cfb34f4287f"},"vehicle_type_id":"4","last_reported":1719083317,"current_range_meters":16400,"station_id":"ce4bhs12rcd13ifvqhvg","pricing_plan_id":"cebpf4jnsgd1na2vs0mg"},{"bike_id":"cdbf83c5-51e3-44b2-b105-d08117c562ec","system_id":"levelo_inurba_marseille","lat":43.324771,"lon":5.36557,"is_reserved":false,"is_disabled":false,"rental_uris":{"android":"levelo://app?vid=cdbf83c5-51e3-44b2-b105-d08117c562ec","ios":"levelo://app?vid=cdbf83c5-51e3-44b2-b105-d08117c562ec"},"vehicle_type_id":"4","last_reported":1719083317,"current_range_meters":3600,"station_id":"ce4bhs12rcd13ifvqhvg","pricing_plan_id":"cebpf4jnsgd1na2vs0mg"},{"bike_id":"ad726aa4-6660-41a3-b91c-e6875decb13c","system_id":"levelo_inurba_marseille","lat":43.324771,"lon":5.36557,"is_reserved":false,"is_disabled":false,"rental_uris":{"android":"levelo://app?vid=ad726aa4-6660-41a3-b91c-e6875decb13c","ios":"levelo://app?vid=ad726aa4-6660-41a3-b91c-e6875decb13c"},"vehicle_type_id":"4","last_reported":1719083317,"current_range_meters":7200,"station_id":"ce4bhs12rcd13ifvqhvg","pricing_plan_id":"cebpf4jnsgd1na2vs0mg"},{"bike_id":"a181c2bd-cda8-4598-ac39-96d1771e05c7","system_id":"levelo_inurba_marseille","lat":43.310804,"lon":5.38359,"is_reserved":false,"is_disabled":false,"rental_uris":{"android":"levelo://app?vid=a181c2bd-cda8-4598-ac39-96d1771e05c7","ios":"levelo://app?vid=a181c2bd-cda8-4598-ac39-96d1771e05c7"},"vehicle_type_id":"4","last_reported":1719083317,"current_range_meters":4800,"station_id":"ce4bgv92rcd13ifvqcr0","pricing_plan_id":"cebpf4jnsgd1na2vs0mg"},{"bike_id":"977267a5-f4db-4def-99f4-85b7f644d8ad","system_id":"levelo_inurba_marseille","lat":43.310804,"lon":5.38359,"is_reserved":false,"is_disabled":false,"rental_uris":{"android":"levelo://app?vid=977267a5-f4db-4def-99f4-85b7f644d8ad","ios":"levelo://app?vid=977267a5-f4db-4def-99f4-85b7f644d8ad"},"vehicle_type_id":"4","last_reported":1719083317,"current_range_meters":12400,"station_id":"ce4bgv92rcd13ifvqcr0","pricing_plan_id":"cebpf4jnsgd1na2vs0mg"},{"bike_id":"85402e3f-5ec7-40d1-9fa5-19a2a83e90b5","system_id":"levelo_inurba_marseille","lat":43.310804,"lon":5.38359,"is_reserved":false,"is_disabled":false,"rental_uris":{"android":"levelo://app?vid=85402e3f-5ec7-40d1-9fa5-19a2a83e90b5","ios":"levelo://app?vid=85402e3f-5ec7-40d1-9fa5-19a2a83e90b5"},"vehicle_type_id":"4","last_reported":1719083317,"current_range_meters":4800,"station_id":"ce4bgv92rcd13ifvqcr0","pricing_plan_id":"cebpf4jnsgd1na2vs0mg"},{"bike_id":"96faa4cf-6bc7-413d-af5a-5346d3939e3b","system_id":"levelo_inurba_marseille","lat":43.310804,"lon":5.38359,"is_reserved":false,"is_disabled":false,"rental_uris":{"android":"levelo://app?vid=96faa4cf-6bc7-413d-af5a-5346d3939e3b","ios":"levelo://app?vid=96faa4cf-6bc7-413d-af5a-5346d3939e3b"},"vehicle_type_id":"4","last_reported":1719083317,"current_range_meters":27600,"station_id":"ce4bgv92rcd13ifvqcr0","pricing_plan_id":"cebpf4jnsgd1na2vs0mg"},{"bike_id":"bb98d0cf-e857-4207-939e-c28594a8b980","system_id":"levelo_inurba_marseille","lat":43.310804,"lon":5.38359,"is_reserved":false,"is_disabled":false,"rental_uris":{"android":"levelo://app?vid=bb98d0cf-e857-4207-939e-c28594a8b980","ios":"levelo://app?vid=bb98d0cf-e857-4207-939e-c28594a8b980"},"vehicle_type_id":"4","last_reported":1719083317,"current_range_meters":0,"station_id":"ce4bgv92rcd13ifvqcr0","pricing_plan_id":"cebpf4jnsgd1na2vs0mg"},{"bike_id":"7b11090a-a761-4404-a6c5-f48c8ffdb42d","system_id":"levelo_inurba_marseille","lat":43.30041,"lon":5.36915,"is_reserved":false,"is_disabled":false,"rental_uris":{"android":"levelo://app?vid=7b11090a-a761-4404-a6c5-f48c8ffdb42d","ios":"levelo://app?vid=7b11090a-a761-4404-a6c5-f48c8ffdb42d"},"vehicle_type_id":"4","last_reported":1719083317,"current_range_meters":0,"station_id":"","pricing_plan_id":"cebpf4jnsgd1na2vs0mg"},{"bike_id":"d3df22f5-4486-49d4-a52d-5da77ef13279","system_id":"levelo_inurba_marseille","lat":43.319935,"lon":5.381699,"is_reserved":false,"is_disabled":false,"rental_uris":{"android":"levelo://app?vid=d3df22f5-4486-49d4-a52d-5da77ef13279","ios":"levelo://app?vid=d3df22f5-4486-49d4-a52d-5da77ef13279"},"vehicle_type_id":"4","last_reported":1719083317,"current_range_meters":20000,"station_id":"ce4bhr12rcd13ifvqhpg","pricing_plan_id":"cebpf4jnsgd1na2vs0mg"},{"bike_id":"cefe9064-7d05-4b92-87b0-7b4484fc3c23","system_id":"levelo_inurba_marseille","lat":43.319935,"lon":5.381699,"is_reserved":false,"is_disabled":false,"rental_uris":{"android":"levelo://app?vid=cefe9064-7d05-4b92-87b0-7b4484fc3c23","ios":"levelo://app?vid=cefe9064-7d05-4b92-87b0-7b4484fc3c23"},"vehicle_type_id":"4","last_reported":1719083317,"current_range_meters":18400,"station_id":"ce4bhr12rcd13ifvqhpg","pricing_plan_id":"cebpf4jnsgd1na2vs0mg"},{"bike_id":"b31587ea-90e3-4300-82dc-c88d14281159","system_id":"levelo_inurba_marseille","lat":43.319935,"lon":5.381699,"is_reserved":false,"is_disabled":false,"rental_uris":{"android":"levelo://app?vid=b31587ea-90e3-4300-82dc-c88d14281159","ios":"levelo://app?vid=b31587ea-90e3-4300-82dc-c88d14281159"},"vehicle_type_id":"4","last_reported":1719083317,"current_range_meters":12400,"station_id":"ce4bhr12rcd13ifvqhpg","pricing_plan_id":"cebpf4jnsgd1na2vs0mg"},{"bike_id":"efe57a82-2003-44cf-989b-e9d7b3b67d34","system_id":"levelo_inurba_marseille","lat":43.319935,"lon":5.381699,"is_reserved":false,"is_disabled":false,"rental_uris":{"android":"levelo://app?vid=efe57a82-2003-44cf-989b-e9d7b3b67d34","ios":"levelo://app?vid=efe57a82-2003-44cf-989b-e9d7b3b67d34"},"vehicle_type_id":"4","last_reported":1719083317,"current_range_meters":24400,"station_id":"ce4bhr12rcd13ifvqhpg","pricing_plan_id":"cebpf4jnsgd1na2vs0mg"},{"bike_id":"4a7d91fc-f4ff-4bc4-be5e-c977bcfa0c11","system_id":"levelo_inurba_marseille","lat":43.313571,"lon":5.384829,"is_reserved":false,"is_disabled":false,"rental_uris":{"android":"levelo://app?vid=4a7d91fc-f4ff-4bc4-be5e-c977bcfa0c11","ios":"levelo://app?vid=4a7d91fc-f4ff-4bc4-be5e-c977bcfa0c11"},"vehicle_type_id":"4","last_reported":1719083317,"current_range_meters":800,"station_id":"ce4bgt92rcd13ifvqcf0","pricing_plan_id":"cebpf4jnsgd1na2vs0mg"},{"bike_id":"a6657aae-8dbd-44af-8ad3-c09be27ed74e","system_id":"levelo_inurba_marseille","lat":43.313571,"lon":5.384829,"is_reserved":false,"is_disabled":false,"rental_uris":{"android":"levelo://app?vid=a6657aae-8dbd-44af-8ad3-c09be27ed74e","ios":"levelo://app?vid=a6657aae-8dbd-44af-8ad3-c09be27ed74e"},"vehicle_type_id":"4","last_reported":1719083317,"current_range_meters":23600,"station_id":"ce4bgt92rcd13ifvqcf0","pricing_plan_id":"cebpf4jnsgd1na2vs0mg"},{"bike_id":"0d416a4d-f77a-4a8d-b0ee-2bc7afcb94d1","system_id":"levelo_inurba_marseille","lat":43.313571,"lon":5.384829,"is_reserved":false,"is_disabled":false,"rental_uris":{"android":"levelo://app?vid=0d416a4d-f77a-4a8d-b0ee-2bc7afcb94d1","ios":"levelo://app?vid=0d416a4d-f77a-4a8d-b0ee-2bc7afcb94d1"},"vehicle_type_id":"4","last_reported":1719083317,"current_range_meters":18000,"station_id":"ce4bgt92rcd13ifvqcf0","pricing_plan_id":"cebpf4jnsgd1na2vs0mg"},{"bike_id":"9a199829-4657-445d-aa5f-f67a323f93d0","system_id":"levelo_inurba_marseille","lat":43.313571,"lon":5.384829,"is_reserved":false,"is_disabled":false,"rental_uris":{"android":"levelo://app?vid=9a199829-4657-445d-aa5f-f67a323f93d0","ios":"levelo://app?vid=9a199829-4657-445d-aa5f-f67a323f93d0"},"vehicle_type_id":"4","last_reported":1719083317,"current_range_meters":26400,"station_id":"ce4bgt92rcd13ifvqcf0","pricing_plan_id":"cebpf4jnsgd1na2vs0mg"},{"bike_id":"a72a56b7-d04f-4926-93c5-0054b66cd9c3","system_id":"levelo_inurba_marseille","lat":43.31366,"lon":5.38495,"is_reserved":false,"is_disabled":false,"rental_uris":{"android":"levelo://app?vid=a72a56b7-d04f-4926-93c5-0054b66cd9c3","ios":"levelo://app?vid=a72a56b7-d04f-4926-93c5-0054b66cd9c3"},"vehicle_type_id":"4","last_reported":1719083317,"current_range_meters":22000,"station_id":"ce4bgt92rcd13ifvqcf0","pricing_plan_id":"cebpf4jnsgd1na2vs0mg"},{"bike_id":"599228cf-3fef-48b1-92cc-34a3df2d253b","system_id":"levelo_inurba_marseille","lat":43.313571,"lon":5.384829,"is_reserved":false,"is_disabled":false,"rental_uris":{"android":"levelo://app?vid=599228cf-3fef-48b1-92cc-34a3df2d253b","ios":"levelo://app?vid=599228cf-3fef-48b1-92cc-34a3df2d253b"},"vehicle_type_id":"4","last_reported":1719083317,"current_range_meters":0,"station_id":"ce4bgt92rcd13ifvqcf0","pricing_plan_id":"cebpf4jnsgd1na2vs0mg"},{"bike_id":"1addd4d4-bc40-4880-a6f1-9b8dcf1b8abb","system_id":"levelo_inurba_marseille","lat":43.313571,"lon":5.384829,"is_reserved":false,"is_disabled":false,"rental_uris":{"android":"levelo://app?vid=1addd4d4-bc40-4880-a6f1-9b8dcf1b8abb","ios":"levelo://app?vid=1addd4d4-bc40-4880-a6f1-9b8dcf1b8abb"},"vehicle_type_id":"4","last_reported":1719083317,"current_range_meters":6800,"station_id":"ce4bgt92rcd13ifvqcf0","pricing_plan_id":"cebpf4jnsgd1na2vs0mg"},{"bike_id":"9da2bde2-6eb1-4fda-b5e3-9cbd8c18a548","system_id":"levelo_inurba_marseille","lat":43.299724,"lon":5.371829,"is_reserved":false,"is_disabled":false,"rental_uris":{"android":"levelo://app?vid=9da2bde2-6eb1-4fda-b5e3-9cbd8c18a548","ios":"levelo://app?vid=9da2bde2-6eb1-4fda-b5e3-9cbd8c18a548"},"vehicle_type_id":"4","last_reported":1719083317,"current_range_meters":3600,"station_id":"ce4bgr92rcd13ifvqc7g","pricing_plan_id":"cebpf4jnsgd1na2vs0mg"},{"bike_id":"ae44f4e6-5b38-47f5-bdd3-7282215dfa84","system_id":"levelo_inurba_marseille","lat":43.299724,"lon":5.371829,"is_reserved":false,"is_disabled":false,"rental_uris":{"android":"levelo://app?vid=ae44f4e6-5b38-47f5-bdd3-7282215dfa84","ios":"levelo://app?vid=ae44f4e6-5b38-47f5-bdd3-7282215dfa84"},"vehicle_type_id":"4","last_reported":1719083317,"current_range_meters":23200,"station_id":"ce4bgr92rcd13ifvqc7g","pricing_plan_id":"cebpf4jnsgd1na2vs0mg"},{"bike_id":"ce0a1677-9767-4b23-a6f2-86b32a16cede","system_id":"levelo_inurba_marseille","lat":43.299724,"lon":5.371829,"is_reserved":false,"is_disabled":false,"rental_uris":{"android":"levelo://app?vid=ce0a1677-9767-4b23-a6f2-86b32a16cede","ios":"levelo://app?vid=ce0a1677-9767-4b23-a6f2-86b32a16cede"},"vehicle_type_id":"4","last_reported":1719083317,"current_range_meters":12400,"station_id":"ce4bgr92rcd13ifvqc7g","pricing_plan_id":"cebpf4jnsgd1na2vs0mg"},{"bike_id":"9124f624-8dcb-4856-8934-70a2c9aa0da8","system_id":"levelo_inurba_marseille","lat":43.299203,"lon":5.374127,"is_reserved":false,"is_disabled":false,"rental_uris":{"android":"levelo://app?vid=9124f624-8dcb-4856-8934-70a2c9aa0da8","ios":"levelo://app?vid=9124f624-8dcb-4856-8934-70a2c9aa0da8"},"vehicle_type_id":"4","last_reported":1719083317,"current_range_meters":31200,"station_id":"","pricing_plan_id":"cebpf4jnsgd1na2vs0mg"},{"bike_id":"ea458278-68b8-40cb-9ee7-bc591e69b76b","system_id":"levelo_inurba_marseille","lat":43.298433,"lon":5.362774,"is_reserved":false,"is_disabled":false,"rental_uris":{"android":"levelo://app?vid=ea458278-68b8-40cb-9ee7-bc591e69b76b","ios":"levelo://app?vid=ea458278-68b8-40cb-9ee7-bc591e69b76b"},"vehicle_type_id":"4","last_reported":1719083317,"current_range_meters":6400,"station_id":"ce4bgpp2rcd13ifvqc3g","pricing_plan_id":"cebpf4jnsgd1na2vs0mg"},{"bike_id":"8197b4a0-3ab9-4867-8258-712255219b57","system_id":"levelo_inurba_marseille","lat":43.298433,"lon":5.362774,"is_reserved":false,"is_disabled":false,"rental_uris":{"android":"levelo://app?vid=8197b4a0-3ab9-4867-8258-712255219b57","ios":"levelo://app?vid=8197b4a0-3ab9-4867-8258-712255219b57"},"vehicle_type_id":"4","last_reported":1719083317,"current_range_meters":22400,"station_id":"ce4bgpp2rcd13ifvqc3g","pricing_plan_id":"cebpf4jnsgd1na2vs0mg"},{"bike_id":"7884443c-182f-47e3-912f-f73e29588268","system_id":"levelo_inurba_marseille","lat":43.299243,"lon":5.374807,"is_reserved":false,"is_disabled":false,"rental_uris":{"android":"levelo://app?vid=7884443c-182f-47e3-912f-f73e29588268","ios":"levelo://app?vid=7884443c-182f-47e3-912f-f73e29588268"},"vehicle_type_id":"4","last_reported":1719083317,"current_range_meters":23200,"station_id":"ce4bgjh2rcd13ifvqbg0","pricing_plan_id":"cebpf4jnsgd1na2vs0mg"},{"bike_id":"e29ea565-32ee-47a2-b62b-00a8172ae3aa","system_id":"levelo_inurba_marseille","lat":43.311722,"lon":5.387247,"is_reserved":false,"is_disabled":false,"rental_uris":{"android":"levelo://app?vid=e29ea565-32ee-47a2-b62b-00a8172ae3aa","ios":"levelo://app?vid=e29ea565-32ee-47a2-b62b-00a8172ae3aa"},"vehicle_type_id":"4","last_reported":1719083317,"current_range_meters":11600,"station_id":"ce4bgv12rcd13ifvqcp0","pricing_plan_id":"cebpf4jnsgd1na2vs0mg"},{"bike_id":"045bb32a-43d7-49a3-8a45-33694b915fb2","system_id":"levelo_inurba_marseille","lat":43.297774,"lon":5.370875,"is_reserved":false,"is_disabled":false,"rental_uris":{"android":"levelo://app?vid=045bb32a-43d7-49a3-8a45-33694b915fb2","ios":"levelo://app?vid=045bb32a-43d7-49a3-8a45-33694b915fb2"},"vehicle_type_id":"4","last_reported":1719083317,"current_range_meters":23600,"station_id":"ce4bgop2rcd13ifvqc1g","pricing_plan_id":"cebpf4jnsgd1na2vs0mg"},{"bike_id":"664769ea-25a1-4314-a103-472088278b42","system_id":"levelo_inurba_marseille","lat":43.2968,"lon":5.37291,"is_reserved":false,"is_disabled":false,"rental_uris":{"android":"levelo://app?vid=664769ea-25a1-4314-a103-472088278b42","ios":"levelo://app?vid=664769ea-25a1-4314-a103-472088278b42"},"vehicle_type_id":"4","last_reported":1719083317,"current_range_meters":12000,"station_id":"ce4bgk12rcd13ifvqbj0","pricing_plan_id":"cebpf4jnsgd1na2vs0mg"},{"bike_id":"a753915f-1637-42ad-b0ba-9609177a51b1","system_id":"levelo_inurba_marseille","lat":43.2968,"lon":5.37291,"is_reserved":false,"is_disabled":false,"rental_uris":{"android":"levelo://app?vid=a753915f-1637-42ad-b0ba-9609177a51b1","ios":"levelo://app?vid=a753915f-1637-42ad-b0ba-9609177a51b1"},"vehicle_type_id":"4","last_reported":1719083317,"current_range_meters":23600,"station_id":"ce4bgk12rcd13ifvqbj0","pricing_plan_id":"cebpf4jnsgd1na2vs0mg"},{"bike_id":"416e81a1-edc1-4614-88fe-b222da2fe502","system_id":"levelo_inurba_marseille","lat":43.296129,"lon":5.370777,"is_reserved":false,"is_disabled":false,"rental_uris":{"android":"levelo://app?vid=416e81a1-edc1-4614-88fe-b222da2fe502","ios":"levelo://app?vid=416e81a1-edc1-4614-88fe-b222da2fe502"},"vehicle_type_id":"4","last_reported":1719083317,"current_range_meters":24800,"station_id":"ce4bgnh2rcd13ifvqc0g","pricing_plan_id":"cebpf4jnsgd1na2vs0mg"},{"bike_id":"2620f015-438a-4160-8e38-d84ea8300063","system_id":"levelo_inurba_marseille","lat":43.299028,"lon":5.381509,"is_reserved":false,"is_disabled":false,"rental_uris":{"android":"levelo://app?vid=2620f015-438a-4160-8e38-d84ea8300063","ios":"levelo://app?vid=2620f015-438a-4160-8e38-d84ea8300063"},"vehicle_type_id":"4","last_reported":1719083317,"current_range_meters":8000,"station_id":"ce4bgj12rcd13ifvqbc0","pricing_plan_id":"cebpf4jnsgd1na2vs0mg"},{"bike_id":"b2f8c189-9044-422e-b64d-4a088a546d2e","system_id":"levelo_inurba_marseille","lat":43.29578,"lon":5.36278,"is_reserved":false,"is_disabled":false,"rental_uris":{"android":"levelo://app?vid=b2f8c189-9044-422e-b64d-4a088a546d2e","ios":"levelo://app?vid=b2f8c189-9044-422e-b64d-4a088a546d2e"},"vehicle_type_id":"4","last_reported":1719083317,"current_range_meters":22000,"station_id":"","pricing_plan_id":"cebpf4jnsgd1na2vs0mg"},{"bike_id":"ce95196b-5b08-4d04-b7a6-39c37431954d","system_id":"levelo_inurba_marseille","lat":43.296935,"lon":5.376544,"is_reserved":false,"is_disabled":false,"rental_uris":{"android":"levelo://app?vid=ce95196b-5b08-4d04-b7a6-39c37431954d","ios":"levelo://app?vid=ce95196b-5b08-4d04-b7a6-39c37431954d"},"vehicle_type_id":"4","last_reported":1719083317,"current_range_meters":31200,"station_id":"ce4bgkh2rcd13ifvqbl0","pricing_plan_id":"cebpf4jnsgd1na2vs0mg"},{"bike_id":"e5938561-0503-41f1-89d1-b8c21ece307f","system_id":"levelo_inurba_marseille","lat":43.309589,"lon":5.390258,"is_reserved":false,"is_disabled":false,"rental_uris":{"android":"levelo://app?vid=e5938561-0503-41f1-89d1-b8c21ece307f","ios":"levelo://app?vid=e5938561-0503-41f1-89d1-b8c21ece307f"},"vehicle_type_id":"4","last_reported":1719083317,"current_range_meters":0,"station_id":"ce4bgup2rcd13ifvqco0","pricing_plan_id":"cebpf4jnsgd1na2vs0mg"},{"bike_id":"fdd1f6ca-7850-4899-a357-8b7ecdc58382","system_id":"levelo_inurba_marseille","lat":43.309589,"lon":5.390258,"is_reserved":false,"is_disabled":false,"rental_uris":{"android":"levelo://app?vid=fdd1f6ca-7850-4899-a357-8b7ecdc58382","ios":"levelo://app?vid=fdd1f6ca-7850-4899-a357-8b7ecdc58382"},"vehicle_type_id":"4","last_reported":1719083317,"current_range_meters":0,"station_id":"ce4bgup2rcd13ifvqco0","pricing_plan_id":"cebpf4jnsgd1na2vs0mg"},{"bike_id":"1db6cf13-b3c6-4838-a7b3-91f14f5bb22f","system_id":"levelo_inurba_marseille","lat":43.299028,"lon":5.381509,"is_reserved":false,"is_disabled":false,"rental_uris":{"android":"levelo://app?vid=1db6cf13-b3c6-4838-a7b3-91f14f5bb22f","ios":"levelo://app?vid=1db6cf13-b3c6-4838-a7b3-91f14f5bb22f"},"vehicle_type_id":"4","last_reported":1719083317,"current_range_meters":18400,"station_id":"ce4bgj12rcd13ifvqbc0","pricing_plan_id":"cebpf4jnsgd1na2vs0mg"},{"bike_id":"85ba8d5d-9ad5-43a4-a18a-6375a22947b4","system_id":"levelo_inurba_marseille","lat":43.309589,"lon":5.390258,"is_reserved":false,"is_disabled":false,"rental_uris":{"android":"levelo://app?vid=85ba8d5d-9ad5-43a4-a18a-6375a22947b4","ios":"levelo://app?vid=85ba8d5d-9ad5-43a4-a18a-6375a22947b4"},"vehicle_type_id":"4","last_reported":1719083317,"current_range_meters":13200,"station_id":"ce4bgup2rcd13ifvqco0","pricing_plan_id":"cebpf4jnsgd1na2vs0mg"},{"bike_id":"13ffba60-4d23-4915-bb62-84be08aa4b60","system_id":"levelo_inurba_marseille","lat":43.296935,"lon":5.376544,"is_reserved":false,"is_disabled":false,"rental_uris":{"android":"levelo://app?vid=13ffba60-4d23-4915-bb62-84be08aa4b60","ios":"levelo://app?vid=13ffba60-4d23-4915-bb62-84be08aa4b60"},"vehicle_type_id":"4","last_reported":1719083317,"current_range_meters":17200,"station_id":"ce4bgkh2rcd13ifvqbl0","pricing_plan_id":"cebpf4jnsgd1na2vs0mg"},{"bike_id":"6057930c-8c7f-4128-a028-dfe1d635910b","system_id":"levelo_inurba_marseille","lat":43.299028,"lon":5.381509,"is_reserved":false,"is_disabled":false,"rental_uris":{"android":"levelo://app?vid=6057930c-8c7f-4128-a028-dfe1d635910b","ios":"levelo://app?vid=6057930c-8c7f-4128-a028-dfe1d635910b"},"vehicle_type_id":"4","last_reported":1719083317,"current_range_meters":26000,"station_id":"ce4bgj12rcd13ifvqbc0","pricing_plan_id":"cebpf4jnsgd1na2vs0mg"},{"bike_id":"f8dfad42-db7d-47a0-8eee-a4fbe721f507","system_id":"levelo_inurba_marseille","lat":43.299028,"lon":5.381509,"is_reserved":false,"is_disabled":false,"rental_uris":{"android":"levelo://app?vid=f8dfad42-db7d-47a0-8eee-a4fbe721f507","ios":"levelo://app?vid=f8dfad42-db7d-47a0-8eee-a4fbe721f507"},"vehicle_type_id":"4","last_reported":1719083317,"current_range_meters":3200,"station_id":"ce4bgj12rcd13ifvqbc0","pricing_plan_id":"cebpf4jnsgd1na2vs0mg"},{"bike_id":"08295462-61d2-4d7f-8a2b-1a21e29d1463","system_id":"levelo_inurba_marseille","lat":43.30972,"lon":5.39037,"is_reserved":false,"is_disabled":false,"rental_uris":{"android":"levelo://app?vid=08295462-61d2-4d7f-8a2b-1a21e29d1463","ios":"levelo://app?vid=08295462-61d2-4d7f-8a2b-1a21e29d1463"},"vehicle_type_id":"4","last_reported":1719083317,"current_range_meters":0,"station_id":"ce4bgup2rcd13ifvqco0","pricing_plan_id":"cebpf4jnsgd1na2vs0mg"},{"bike_id":"f507a5e3-5f32-47dd-8469-c404bcf707f3","system_id":"levelo_inurba_marseille","lat":43.309589,"lon":5.390258,"is_reserved":false,"is_disabled":false,"rental_uris":{"android":"levelo://app?vid=f507a5e3-5f32-47dd-8469-c404bcf707f3","ios":"levelo://app?vid=f507a5e3-5f32-47dd-8469-c404bcf707f3"},"vehicle_type_id":"4","last_reported":1719083317,"current_range_meters":11200,"station_id":"ce4bgup2rcd13ifvqco0","pricing_plan_id":"cebpf4jnsgd1na2vs0mg"},{"bike_id":"ad583dbf-2cc5-4959-9d9c-4828f914d941","system_id":"levelo_inurba_marseille","lat":43.309589,"lon":5.390258,"is_reserved":false,"is_disabled":false,"rental_uris":{"android":"levelo://app?vid=ad583dbf-2cc5-4959-9d9c-4828f914d941","ios":"levelo://app?vid=ad583dbf-2cc5-4959-9d9c-4828f914d941"},"vehicle_type_id":"4","last_reported":1719083317,"current_range_meters":19600,"station_id":"ce4bgup2rcd13ifvqco0","pricing_plan_id":"cebpf4jnsgd1na2vs0mg"},{"bike_id":"e2034b09-85dd-4123-8153-47c2e3bf671c","system_id":"levelo_inurba_marseille","lat":43.296921,"lon":5.376579,"is_reserved":false,"is_disabled":false,"rental_uris":{"android":"levelo://app?vid=e2034b09-85dd-4123-8153-47c2e3bf671c","ios":"levelo://app?vid=e2034b09-85dd-4123-8153-47c2e3bf671c"},"vehicle_type_id":"4","last_reported":1719083317,"current_range_meters":29600,"station_id":"ce4bgkh2rcd13ifvqbl0","pricing_plan_id":"cebpf4jnsgd1na2vs0mg"},{"bike_id":"45d456b1-37a3-4331-a662-caf9ef8e423f","system_id":"levelo_inurba_marseille","lat":43.30946,"lon":5.39039,"is_reserved":false,"is_disabled":false,"rental_uris":{"android":"levelo://app?vid=45d456b1-37a3-4331-a662-caf9ef8e423f","ios":"levelo://app?vid=45d456b1-37a3-4331-a662-caf9ef8e423f"},"vehicle_type_id":"4","last_reported":1719083317,"current_range_meters":29200,"station_id":"ce4bgup2rcd13ifvqco0","pricing_plan_id":"cebpf4jnsgd1na2vs0mg"},{"bike_id":"932be02f-782c-4c47-93c8-698acf24f786","system_id":"levelo_inurba_marseille","lat":43.30952,"lon":5.39041,"is_reserved":false,"is_disabled":false,"rental_uris":{"android":"levelo://app?vid=932be02f-782c-4c47-93c8-698acf24f786","ios":"levelo://app?vid=932be02f-782c-4c47-93c8-698acf24f786"},"vehicle_type_id":"4","last_reported":1719083317,"current_range_meters":0,"station_id":"ce4bgup2rcd13ifvqco0","pricing_plan_id":"cebpf4jnsgd1na2vs0mg"},{"bike_id":"b27acc5f-4269-44fe-b76f-57dbd53fe6bf","system_id":"levelo_inurba_marseille","lat":43.309589,"lon":5.390258,"is_reserved":false,"is_disabled":false,"rental_uris":{"android":"levelo://app?vid=b27acc5f-4269-44fe-b76f-57dbd53fe6bf","ios":"levelo://app?vid=b27acc5f-4269-44fe-b76f-57dbd53fe6bf"},"vehicle_type_id":"4","last_reported":1719083317,"current_range_meters":18400,"station_id":"ce4bgup2rcd13ifvqco0","pricing_plan_id":"cebpf4jnsgd1na2vs0mg"},{"bike_id":"5cd259bc-6e61-472f-b3cc-f3b40266c37d","system_id":"levelo_inurba_marseille","lat":43.296935,"lon":5.376544,"is_reserved":false,"is_disabled":false,"rental_uris":{"android":"levelo://app?vid=5cd259bc-6e61-472f-b3cc-f3b40266c37d","ios":"levelo://app?vid=5cd259bc-6e61-472f-b3cc-f3b40266c37d"},"vehicle_type_id":"4","last_reported":1719083317,"current_range_meters":22800,"station_id":"ce4bgkh2rcd13ifvqbl0","pricing_plan_id":"cebpf4jnsgd1na2vs0mg"},{"bike_id":"1d0c4229-ca91-4b1c-b486-45013dfba4bd","system_id":"levelo_inurba_marseille","lat":43.317557,"lon":5.390173,"is_reserved":false,"is_disabled":false,"rental_uris":{"android":"levelo://app?vid=1d0c4229-ca91-4b1c-b486-45013dfba4bd","ios":"levelo://app?vid=1d0c4229-ca91-4b1c-b486-45013dfba4bd"},"vehicle_type_id":"4","last_reported":1719083317,"current_range_meters":12800,"station_id":"ce4bhqp2rcd13ifvqhng","pricing_plan_id":"cebpf4jnsgd1na2vs0mg"},{"bike_id":"fe3bed7f-df19-458f-b38c-b2ab4ac32ada","system_id":"levelo_inurba_marseille","lat":43.298037,"lon":5.381066,"is_reserved":false,"is_disabled":false,"rental_uris":{"android":"levelo://app?vid=fe3bed7f-df19-458f-b38c-b2ab4ac32ada","ios":"levelo://app?vid=fe3bed7f-df19-458f-b38c-b2ab4ac32ada"},"vehicle_type_id":"4","last_reported":1719083317,"current_range_meters":2000,"station_id":"ce4bgip2rcd13ifvqbb0","pricing_plan_id":"cebpf4jnsgd1na2vs0mg"},{"bike_id":"b9e4f4b3-2635-4e12-bed9-71f6ce715363","system_id":"levelo_inurba_marseille","lat":43.296263,"lon":5.377094,"is_reserved":false,"is_disabled":false,"rental_uris":{"android":"levelo://app?vid=b9e4f4b3-2635-4e12-bed9-71f6ce715363","ios":"levelo://app?vid=b9e4f4b3-2635-4e12-bed9-71f6ce715363"},"vehicle_type_id":"4","last_reported":1719083317,"current_range_meters":6400,"station_id":"ce4bgi92rcd13ifvqb90","pricing_plan_id":"cebpf4jnsgd1na2vs0mg"},{"bike_id":"eec9eca8-a572-4f40-8bec-680b7862be73","system_id":"levelo_inurba_marseille","lat":43.304274,"lon":5.388873,"is_reserved":false,"is_disabled":false,"rental_uris":{"android":"levelo://app?vid=eec9eca8-a572-4f40-8bec-680b7862be73","ios":"levelo://app?vid=eec9eca8-a572-4f40-8bec-680b7862be73"},"vehicle_type_id":"4","last_reported":1719083317,"current_range_meters":8400,"station_id":"ce4bgk12rcd13ifvqbi0","pricing_plan_id":"cebpf4jnsgd1na2vs0mg"},{"bike_id":"d39e0582-ca3b-4952-9681-2b90be10e557","system_id":"levelo_inurba_marseille","lat":43.298037,"lon":5.381066,"is_reserved":false,"is_disabled":false,"rental_uris":{"android":"levelo://app?vid=d39e0582-ca3b-4952-9681-2b90be10e557","ios":"levelo://app?vid=d39e0582-ca3b-4952-9681-2b90be10e557"},"vehicle_type_id":"4","last_reported":1719083317,"current_range_meters":2800,"station_id":"ce4bgip2rcd13ifvqbb0","pricing_plan_id":"cebpf4jnsgd1na2vs0mg"},{"bike_id":"2b1bb6c2-9b23-4539-ae80-768e1c863351","system_id":"levelo_inurba_marseille","lat":43.29571,"lon":5.37512,"is_reserved":false,"is_disabled":false,"rental_uris":{"android":"levelo://app?vid=2b1bb6c2-9b23-4539-ae80-768e1c863351","ios":"levelo://app?vid=2b1bb6c2-9b23-4539-ae80-768e1c863351"},"vehicle_type_id":"4","last_reported":1719083317,"current_range_meters":30800,"station_id":"ce4bgh92rcd13ifvqb50","pricing_plan_id":"cebpf4jnsgd1na2vs0mg"},{"bike_id":"34f56e2d-33c3-495e-b2a4-6ec4fc51d0e5","system_id":"levelo_inurba_marseille","lat":43.295748,"lon":5.37522,"is_reserved":false,"is_disabled":false,"rental_uris":{"android":"levelo://app?vid=34f56e2d-33c3-495e-b2a4-6ec4fc51d0e5","ios":"levelo://app?vid=34f56e2d-33c3-495e-b2a4-6ec4fc51d0e5"},"vehicle_type_id":"4","last_reported":1719083317,"current_range_meters":25200,"station_id":"ce4bgh92rcd13ifvqb50","pricing_plan_id":"cebpf4jnsgd1na2vs0mg"},{"bike_id":"824a412f-ee98-4792-98b1-b9391ebedab8","system_id":"levelo_inurba_marseille","lat":43.295748,"lon":5.37522,"is_reserved":false,"is_disabled":false,"rental_uris":{"android":"levelo://app?vid=824a412f-ee98-4792-98b1-b9391ebedab8","ios":"levelo://app?vid=824a412f-ee98-4792-98b1-b9391ebedab8"},"vehicle_type_id":"4","last_reported":1719083317,"current_range_meters":20400,"station_id":"ce4bgh92rcd13ifvqb50","pricing_plan_id":"cebpf4jnsgd1na2vs0mg"},{"bike_id":"2d6f7c09-802b-438c-b4c4-7ce06b19c4a5","system_id":"levelo_inurba_marseille","lat":43.296277,"lon":5.377108,"is_reserved":false,"is_disabled":false,"rental_uris":{"android":"levelo://app?vid=2d6f7c09-802b-438c-b4c4-7ce06b19c4a5","ios":"levelo://app?vid=2d6f7c09-802b-438c-b4c4-7ce06b19c4a5"},"vehicle_type_id":"4","last_reported":1719083317,"current_range_meters":22800,"station_id":"ce4bgi92rcd13ifvqb90","pricing_plan_id":"cebpf4jnsgd1na2vs0mg"},{"bike_id":"de828abe-b542-438f-a1ce-785fc19f902f","system_id":"levelo_inurba_marseille","lat":43.296263,"lon":5.377094,"is_reserved":false,"is_disabled":false,"rental_uris":{"android":"levelo://app?vid=de828abe-b542-438f-a1ce-785fc19f902f","ios":"levelo://app?vid=de828abe-b542-438f-a1ce-785fc19f902f"},"vehicle_type_id":"4","last_reported":1719083317,"current_range_meters":18800,"station_id":"ce4bgi92rcd13ifvqb90","pricing_plan_id":"cebpf4jnsgd1na2vs0mg"},{"bike_id":"f21de03c-fc1c-49da-be2b-7e33a3a8056e","system_id":"levelo_inurba_marseille","lat":43.30422,"lon":5.38898,"is_reserved":false,"is_disabled":false,"rental_uris":{"android":"levelo://app?vid=f21de03c-fc1c-49da-be2b-7e33a3a8056e","ios":"levelo://app?vid=f21de03c-fc1c-49da-be2b-7e33a3a8056e"},"vehicle_type_id":"4","last_reported":1719083317,"current_range_meters":10000,"station_id":"ce4bgk12rcd13ifvqbi0","pricing_plan_id":"cebpf4jnsgd1na2vs0mg"},{"bike_id":"8af45bb9-d654-491f-9d3c-521496ee9175","system_id":"levelo_inurba_marseille","lat":43.295279,"lon":5.375048,"is_reserved":false,"is_disabled":false,"rental_uris":{"android":"levelo://app?vid=8af45bb9-d654-491f-9d3c-521496ee9175","ios":"levelo://app?vid=8af45bb9-d654-491f-9d3c-521496ee9175"},"vehicle_type_id":"4","last_reported":1719083317,"current_range_meters":8800,"station_id":"ce4bgkp2rcd13ifvqbmg","pricing_plan_id":"cebpf4jnsgd1na2vs0mg"},{"bike_id":"31783a36-af7f-4ea8-93f8-e4a73335b421","system_id":"levelo_inurba_marseille","lat":43.299717,"lon":5.384845,"is_reserved":false,"is_disabled":false,"rental_uris":{"android":"levelo://app?vid=31783a36-af7f-4ea8-93f8-e4a73335b421","ios":"levelo://app?vid=31783a36-af7f-4ea8-93f8-e4a73335b421"},"vehicle_type_id":"4","last_reported":1719083317,"current_range_meters":27600,"station_id":"ce4bgj92rcd13ifvqbd0","pricing_plan_id":"cebpf4jnsgd1na2vs0mg"},{"bike_id":"51dcf353-b37e-4112-9eca-d9ad624efd52","system_id":"levelo_inurba_marseille","lat":43.299717,"lon":5.384845,"is_reserved":false,"is_disabled":false,"rental_uris":{"android":"levelo://app?vid=51dcf353-b37e-4112-9eca-d9ad624efd52","ios":"levelo://app?vid=51dcf353-b37e-4112-9eca-d9ad624efd52"},"vehicle_type_id":"4","last_reported":1719083317,"current_range_meters":18400,"station_id":"ce4bgj92rcd13ifvqbd0","pricing_plan_id":"cebpf4jnsgd1na2vs0mg"},{"bike_id":"27199601-9fc6-42a1-a584-5affc0311c5f","system_id":"levelo_inurba_marseille","lat":43.299707,"lon":5.384859,"is_reserved":false,"is_disabled":false,"rental_uris":{"android":"levelo://app?vid=27199601-9fc6-42a1-a584-5affc0311c5f","ios":"levelo://app?vid=27199601-9fc6-42a1-a584-5affc0311c5f"},"vehicle_type_id":"4","last_reported":1719083317,"current_range_meters":20800,"station_id":"ce4bgj92rcd13ifvqbd0","pricing_plan_id":"cebpf4jnsgd1na2vs0mg"},{"bike_id":"f57191c4-cc71-4036-acda-a6153e55ebd3","system_id":"levelo_inurba_marseille","lat":43.299724,"lon":5.384848,"is_reserved":false,"is_disabled":false,"rental_uris":{"android":"levelo://app?vid=f57191c4-cc71-4036-acda-a6153e55ebd3","ios":"levelo://app?vid=f57191c4-cc71-4036-acda-a6153e55ebd3"},"vehicle_type_id":"4","last_reported":1719083317,"current_range_meters":3600,"station_id":"ce4bgj92rcd13ifvqbd0","pricing_plan_id":"cebpf4jnsgd1na2vs0mg"},{"bike_id":"67047250-8321-4261-b8de-8c095a8ce691","system_id":"levelo_inurba_marseille","lat":43.29486,"lon":5.37425,"is_reserved":false,"is_disabled":false,"rental_uris":{"android":"levelo://app?vid=67047250-8321-4261-b8de-8c095a8ce691","ios":"levelo://app?vid=67047250-8321-4261-b8de-8c095a8ce691"},"vehicle_type_id":"4","last_reported":1719083317,"current_range_meters":2000,"station_id":"","pricing_plan_id":"cebpf4jnsgd1na2vs0mg"},{"bike_id":"ea6d6e90-a134-43cf-9f36-d260850e9f9e","system_id":"levelo_inurba_marseille","lat":43.32367,"lon":5.388836,"is_reserved":false,"is_disabled":false,"rental_uris":{"android":"levelo://app?vid=ea6d6e90-a134-43cf-9f36-d260850e9f9e","ios":"levelo://app?vid=ea6d6e90-a134-43cf-9f36-d260850e9f9e"},"vehicle_type_id":"4","last_reported":1719083317,"current_range_meters":16000,"station_id":"ce4bhqp2rcd13ifvqhog","pricing_plan_id":"cebpf4jnsgd1na2vs0mg"},{"bike_id":"9c9ad7ff-4a79-4351-850c-d9d918fad406","system_id":"levelo_inurba_marseille","lat":43.32367,"lon":5.388836,"is_reserved":false,"is_disabled":false,"rental_uris":{"android":"levelo://app?vid=9c9ad7ff-4a79-4351-850c-d9d918fad406","ios":"levelo://app?vid=9c9ad7ff-4a79-4351-850c-d9d918fad406"},"vehicle_type_id":"4","last_reported":1719083317,"current_range_meters":0,"station_id":"ce4bhqp2rcd13ifvqhog","pricing_plan_id":"cebpf4jnsgd1na2vs0mg"},{"bike_id":"34c94df7-1c14-4f89-955c-1242b580f347","system_id":"levelo_inurba_marseille","lat":43.29602,"lon":5.381084,"is_reserved":false,"is_disabled":false,"rental_uris":{"android":"levelo://app?vid=34c94df7-1c14-4f89-955c-1242b580f347","ios":"levelo://app?vid=34c94df7-1c14-4f89-955c-1242b580f347"},"vehicle_type_id":"4","last_reported":1719083317,"current_range_meters":5600,"station_id":"ce4bgl12rcd13ifvqbo0","pricing_plan_id":"cebpf4jnsgd1na2vs0mg"},{"bike_id":"85ca67f0-3b7c-4a44-ab07-c1c2ad7f66be","system_id":"levelo_inurba_marseille","lat":43.296017,"lon":5.380907,"is_reserved":false,"is_disabled":false,"rental_uris":{"android":"levelo://app?vid=85ca67f0-3b7c-4a44-ab07-c1c2ad7f66be","ios":"levelo://app?vid=85ca67f0-3b7c-4a44-ab07-c1c2ad7f66be"},"vehicle_type_id":"4","last_reported":1719083317,"current_range_meters":12000,"station_id":"ce4bgl12rcd13ifvqbo0","pricing_plan_id":"cebpf4jnsgd1na2vs0mg"},{"bike_id":"cca41507-8cdf-4b65-bbe4-c46dce2fc710","system_id":"levelo_inurba_marseille","lat":43.29602,"lon":5.381084,"is_reserved":false,"is_disabled":false,"rental_uris":{"android":"levelo://app?vid=cca41507-8cdf-4b65-bbe4-c46dce2fc710","ios":"levelo://app?vid=cca41507-8cdf-4b65-bbe4-c46dce2fc710"},"vehicle_type_id":"4","last_reported":1719083317,"current_range_meters":11600,"station_id":"ce4bgl12rcd13ifvqbo0","pricing_plan_id":"cebpf4jnsgd1na2vs0mg"},{"bike_id":"276b21db-fe68-4cc8-be89-29f2ce42e379","system_id":"levelo_inurba_marseille","lat":43.29601,"lon":5.381084,"is_reserved":false,"is_disabled":false,"rental_uris":{"android":"levelo://app?vid=276b21db-fe68-4cc8-be89-29f2ce42e379","ios":"levelo://app?vid=276b21db-fe68-4cc8-be89-29f2ce42e379"},"vehicle_type_id":"4","last_reported":1719083317,"current_range_meters":12800,"station_id":"ce4bgl12rcd13ifvqbo0","pricing_plan_id":"cebpf4jnsgd1na2vs0mg"},{"bike_id":"c471535b-c753-4e41-a3a8-2a65f79512f0","system_id":"levelo_inurba_marseille","lat":43.29602,"lon":5.381084,"is_reserved":false,"is_disabled":false,"rental_uris":{"android":"levelo://app?vid=c471535b-c753-4e41-a3a8-2a65f79512f0","ios":"levelo://app?vid=c471535b-c753-4e41-a3a8-2a65f79512f0"},"vehicle_type_id":"4","last_reported":1719083317,"current_range_meters":12000,"station_id":"ce4bgl12rcd13ifvqbo0","pricing_plan_id":"cebpf4jnsgd1na2vs0mg"},{"bike_id":"2e7d832a-af6c-48af-b25a-4d90c3c1fccf","system_id":"levelo_inurba_marseille","lat":43.29303,"lon":5.37158,"is_reserved":false,"is_disabled":false,"rental_uris":{"android":"levelo://app?vid=2e7d832a-af6c-48af-b25a-4d90c3c1fccf","ios":"levelo://app?vid=2e7d832a-af6c-48af-b25a-4d90c3c1fccf"},"vehicle_type_id":"4","last_reported":1719083317,"current_range_meters":28800,"station_id":"ce4bgh92rcd13ifvqb40","pricing_plan_id":"cebpf4jnsgd1na2vs0mg"},{"bike_id":"08a57ce0-68e1-4baf-90f1-23fb76d88dd2","system_id":"levelo_inurba_marseille","lat":43.292703,"lon":5.368367,"is_reserved":false,"is_disabled":false,"rental_uris":{"android":"levelo://app?vid=08a57ce0-68e1-4baf-90f1-23fb76d88dd2","ios":"levelo://app?vid=08a57ce0-68e1-4baf-90f1-23fb76d88dd2"},"vehicle_type_id":"4","last_reported":1719083317,"current_range_meters":18000,"station_id":"ce4bhbp2rcd13ifvqesg","pricing_plan_id":"cebpf4jnsgd1na2vs0mg"},{"bike_id":"9275ff8b-f335-4cf4-a4a0-2044da468979","system_id":"levelo_inurba_marseille","lat":43.29302,"lon":5.37448,"is_reserved":false,"is_disabled":false,"rental_uris":{"android":"levelo://app?vid=9275ff8b-f335-4cf4-a4a0-2044da468979","ios":"levelo://app?vid=9275ff8b-f335-4cf4-a4a0-2044da468979"},"vehicle_type_id":"4","last_reported":1719083317,"current_range_meters":31200,"station_id":"ce4bgi12rcd13ifvqb70","pricing_plan_id":"cebpf4jnsgd1na2vs0mg"},{"bike_id":"fb03fe10-a996-49f0-9a5b-9caee0013b60","system_id":"levelo_inurba_marseille","lat":43.305994,"lon":5.393687,"is_reserved":false,"is_disabled":false,"rental_uris":{"android":"levelo://app?vid=fb03fe10-a996-49f0-9a5b-9caee0013b60","ios":"levelo://app?vid=fb03fe10-a996-49f0-9a5b-9caee0013b60"},"vehicle_type_id":"4","last_reported":1719083317,"current_range_meters":13600,"station_id":"ce4bh0p2rcd13ifvqd80","pricing_plan_id":"cebpf4jnsgd1na2vs0mg"},{"bike_id":"88177077-8b51-4cbb-8395-7077b79d09d6","system_id":"levelo_inurba_marseille","lat":43.305994,"lon":5.393687,"is_reserved":false,"is_disabled":false,"rental_uris":{"android":"levelo://app?vid=88177077-8b51-4cbb-8395-7077b79d09d6","ios":"levelo://app?vid=88177077-8b51-4cbb-8395-7077b79d09d6"},"vehicle_type_id":"4","last_reported":1719083317,"current_range_meters":26800,"station_id":"ce4bh0p2rcd13ifvqd80","pricing_plan_id":"cebpf4jnsgd1na2vs0mg"},{"bike_id":"947f5199-b362-48fc-a87b-a6f1d541204a","system_id":"levelo_inurba_marseille","lat":43.29297,"lon":5.37463,"is_reserved":false,"is_disabled":false,"rental_uris":{"android":"levelo://app?vid=947f5199-b362-48fc-a87b-a6f1d541204a","ios":"levelo://app?vid=947f5199-b362-48fc-a87b-a6f1d541204a"},"vehicle_type_id":"4","last_reported":1719083317,"current_range_meters":30800,"station_id":"ce4bgi12rcd13ifvqb70","pricing_plan_id":"cebpf4jnsgd1na2vs0mg"},{"bike_id":"e8b73319-e012-46dd-b55c-263a008b91c4","system_id":"levelo_inurba_marseille","lat":43.305994,"lon":5.393687,"is_reserved":false,"is_disabled":false,"rental_uris":{"android":"levelo://app?vid=e8b73319-e012-46dd-b55c-263a008b91c4","ios":"levelo://app?vid=e8b73319-e012-46dd-b55c-263a008b91c4"},"vehicle_type_id":"4","last_reported":1719083317,"current_range_meters":23600,"station_id":"ce4bh0p2rcd13ifvqd80","pricing_plan_id":"cebpf4jnsgd1na2vs0mg"},{"bike_id":"7c82170f-0d99-4b50-930c-eba2e5a1b34c","system_id":"levelo_inurba_marseille","lat":43.29292,"lon":5.37466,"is_reserved":false,"is_disabled":false,"rental_uris":{"android":"levelo://app?vid=7c82170f-0d99-4b50-930c-eba2e5a1b34c","ios":"levelo://app?vid=7c82170f-0d99-4b50-930c-eba2e5a1b34c"},"vehicle_type_id":"4","last_reported":1719083317,"current_range_meters":20000,"station_id":"ce4bgi12rcd13ifvqb70","pricing_plan_id":"cebpf4jnsgd1na2vs0mg"},{"bike_id":"1dea5dcc-34b6-487d-92fa-1300ffbd30bc","system_id":"levelo_inurba_marseille","lat":43.30319,"lon":5.39204,"is_reserved":false,"is_disabled":false,"rental_uris":{"android":"levelo://app?vid=1dea5dcc-34b6-487d-92fa-1300ffbd30bc","ios":"levelo://app?vid=1dea5dcc-34b6-487d-92fa-1300ffbd30bc"},"vehicle_type_id":"4","last_reported":1719083317,"current_range_meters":30400,"station_id":"ce4bgkh2rcd13ifvqbk0","pricing_plan_id":"cebpf4jnsgd1na2vs0mg"},{"bike_id":"24e66e82-15c7-471c-a9eb-024140b20105","system_id":"levelo_inurba_marseille","lat":43.302992,"lon":5.392136,"is_reserved":false,"is_disabled":false,"rental_uris":{"android":"levelo://app?vid=24e66e82-15c7-471c-a9eb-024140b20105","ios":"levelo://app?vid=24e66e82-15c7-471c-a9eb-024140b20105"},"vehicle_type_id":"4","last_reported":1719083317,"current_range_meters":28400,"station_id":"ce4bgkh2rcd13ifvqbk0","pricing_plan_id":"cebpf4jnsgd1na2vs0mg"},{"bike_id":"2f36a039-b467-4436-a519-5d3bd2b3097d","system_id":"levelo_inurba_marseille","lat":43.303002,"lon":5.392142,"is_reserved":false,"is_disabled":false,"rental_uris":{"android":"levelo://app?vid=2f36a039-b467-4436-a519-5d3bd2b3097d","ios":"levelo://app?vid=2f36a039-b467-4436-a519-5d3bd2b3097d"},"vehicle_type_id":"4","last_reported":1719083317,"current_range_meters":31200,"station_id":"ce4bgkh2rcd13ifvqbk0","pricing_plan_id":"cebpf4jnsgd1na2vs0mg"},{"bike_id":"1610589e-1067-4a29-89a3-0b54c26366a0","system_id":"levelo_inurba_marseille","lat":43.2936,"lon":5.37835,"is_reserved":false,"is_disabled":false,"rental_uris":{"android":"levelo://app?vid=1610589e-1067-4a29-89a3-0b54c26366a0","ios":"levelo://app?vid=1610589e-1067-4a29-89a3-0b54c26366a0"},"vehicle_type_id":"4","last_reported":1719083317,"current_range_meters":12800,"station_id":"ce4bgjh2rcd13ifvqbf0","pricing_plan_id":"cebpf4jnsgd1na2vs0mg"},{"bike_id":"5468676c-7829-4069-8de8-0434b93706b5","system_id":"levelo_inurba_marseille","lat":43.303002,"lon":5.392142,"is_reserved":false,"is_disabled":false,"rental_uris":{"android":"levelo://app?vid=5468676c-7829-4069-8de8-0434b93706b5","ios":"levelo://app?vid=5468676c-7829-4069-8de8-0434b93706b5"},"vehicle_type_id":"4","last_reported":1719083317,"current_range_meters":22000,"station_id":"ce4bgkh2rcd13ifvqbk0","pricing_plan_id":"cebpf4jnsgd1na2vs0mg"},{"bike_id":"a5402d66-5ed4-48cd-aee4-9837243581a4","system_id":"levelo_inurba_marseille","lat":43.29368,"lon":5.3784,"is_reserved":false,"is_disabled":false,"rental_uris":{"android":"levelo://app?vid=a5402d66-5ed4-48cd-aee4-9837243581a4","ios":"levelo://app?vid=a5402d66-5ed4-48cd-aee4-9837243581a4"},"vehicle_type_id":"4","last_reported":1719083317,"current_range_meters":0,"station_id":"ce4bgjh2rcd13ifvqbf0","pricing_plan_id":"cebpf4jnsgd1na2vs0mg"},{"bike_id":"df0b3e62-e5c2-4241-b580-f305871ce845","system_id":"levelo_inurba_marseille","lat":43.2936,"lon":5.37835,"is_reserved":false,"is_disabled":false,"rental_uris":{"android":"levelo://app?vid=df0b3e62-e5c2-4241-b580-f305871ce845","ios":"levelo://app?vid=df0b3e62-e5c2-4241-b580-f305871ce845"},"vehicle_type_id":"4","last_reported":1719083317,"current_range_meters":4800,"station_id":"ce4bgjh2rcd13ifvqbf0","pricing_plan_id":"cebpf4jnsgd1na2vs0mg"},{"bike_id":"8d5bac02-fe43-4a5a-955a-b88f5a6a9a05","system_id":"levelo_inurba_marseille","lat":43.30085,"lon":5.390856,"is_reserved":false,"is_disabled":false,"rental_uris":{"android":"levelo://app?vid=8d5bac02-fe43-4a5a-955a-b88f5a6a9a05","ios":"levelo://app?vid=8d5bac02-fe43-4a5a-955a-b88f5a6a9a05"},"vehicle_type_id":"4","last_reported":1719083317,"current_range_meters":30400,"station_id":"ce4bh192rcd13ifvqdb0","pricing_plan_id":"cebpf4jnsgd1na2vs0mg"},{"bike_id":"55a77ce5-31a7-479e-b69c-c7e060ebdc9e","system_id":"levelo_inurba_marseille","lat":43.29368,"lon":5.37844,"is_reserved":false,"is_disabled":false,"rental_uris":{"android":"levelo://app?vid=55a77ce5-31a7-479e-b69c-c7e060ebdc9e","ios":"levelo://app?vid=55a77ce5-31a7-479e-b69c-c7e060ebdc9e"},"vehicle_type_id":"4","last_reported":1719083317,"current_range_meters":11200,"station_id":"ce4bgjh2rcd13ifvqbf0","pricing_plan_id":"cebpf4jnsgd1na2vs0mg"},{"bike_id":"4c202b7e-e502-41f6-96e0-18ff8b751a6b","system_id":"levelo_inurba_marseille","lat":43.29225,"lon":5.36069,"is_reserved":false,"is_disabled":false,"rental_uris":{"android":"levelo://app?vid=4c202b7e-e502-41f6-96e0-18ff8b751a6b","ios":"levelo://app?vid=4c202b7e-e502-41f6-96e0-18ff8b751a6b"},"vehicle_type_id":"4","last_reported":1719083317,"current_range_meters":4400,"station_id":"ce4bhbh2rcd13ifvqeqg","pricing_plan_id":"cebpf4jnsgd1na2vs0mg"},{"bike_id":"c5e90907-ef63-4304-aa0f-8d5032391f20","system_id":"levelo_inurba_marseille","lat":43.292267,"lon":5.360483,"is_reserved":false,"is_disabled":false,"rental_uris":{"android":"levelo://app?vid=c5e90907-ef63-4304-aa0f-8d5032391f20","ios":"levelo://app?vid=c5e90907-ef63-4304-aa0f-8d5032391f20"},"vehicle_type_id":"4","last_reported":1719083317,"current_range_meters":3200,"station_id":"ce4bhbh2rcd13ifvqeqg","pricing_plan_id":"cebpf4jnsgd1na2vs0mg"},{"bike_id":"c1f92748-5583-4cd6-aa8f-ec23fd647d4c","system_id":"levelo_inurba_marseille","lat":43.292311,"lon":5.360731,"is_reserved":false,"is_disabled":false,"rental_uris":{"android":"levelo://app?vid=c1f92748-5583-4cd6-aa8f-ec23fd647d4c","ios":"levelo://app?vid=c1f92748-5583-4cd6-aa8f-ec23fd647d4c"},"vehicle_type_id":"4","last_reported":1719083317,"current_range_meters":26800,"station_id":"ce4bhbh2rcd13ifvqeqg","pricing_plan_id":"cebpf4jnsgd1na2vs0mg"},{"bike_id":"02d35c00-2ad5-4702-adce-7c403d48fe35","system_id":"levelo_inurba_marseille","lat":43.292311,"lon":5.360731,"is_reserved":false,"is_disabled":false,"rental_uris":{"android":"levelo://app?vid=02d35c00-2ad5-4702-adce-7c403d48fe35","ios":"levelo://app?vid=02d35c00-2ad5-4702-adce-7c403d48fe35"},"vehicle_type_id":"4","last_reported":1719083317,"current_range_meters":0,"station_id":"ce4bhbh2rcd13ifvqeqg","pricing_plan_id":"cebpf4jnsgd1na2vs0mg"},{"bike_id":"6cd2bf9b-a5d8-4be5-b088-f9b32d14ac7c","system_id":"levelo_inurba_marseille","lat":43.298764,"lon":5.388973,"is_reserved":false,"is_disabled":false,"rental_uris":{"android":"levelo://app?vid=6cd2bf9b-a5d8-4be5-b088-f9b32d14ac7c","ios":"levelo://app?vid=6cd2bf9b-a5d8-4be5-b088-f9b32d14ac7c"},"vehicle_type_id":"4","last_reported":1719083317,"current_range_meters":12800,"station_id":"ce4bh392rcd13ifvqdl0","pricing_plan_id":"cebpf4jnsgd1na2vs0mg"},{"bike_id":"d655d8c5-63d3-4bf2-9e55-cd747c737254","system_id":"levelo_inurba_marseille","lat":43.30888,"lon":5.39632,"is_reserved":false,"is_disabled":false,"rental_uris":{"android":"levelo://app?vid=d655d8c5-63d3-4bf2-9e55-cd747c737254","ios":"levelo://app?vid=d655d8c5-63d3-4bf2-9e55-cd747c737254"},"vehicle_type_id":"4","last_reported":1719083317,"current_range_meters":0,"station_id":"ce4bh012rcd13ifvqcv0","pricing_plan_id":"cebpf4jnsgd1na2vs0mg"},{"bike_id":"49667a19-6508-4358-a708-b2a4daa94938","system_id":"levelo_inurba_marseille","lat":43.30884,"lon":5.39636,"is_reserved":false,"is_disabled":false,"rental_uris":{"android":"levelo://app?vid=49667a19-6508-4358-a708-b2a4daa94938","ios":"levelo://app?vid=49667a19-6508-4358-a708-b2a4daa94938"},"vehicle_type_id":"4","last_reported":1719083317,"current_range_meters":0,"station_id":"ce4bh012rcd13ifvqcv0","pricing_plan_id":"cebpf4jnsgd1na2vs0mg"},{"bike_id":"81f9a372-9f46-4e31-8eac-3e18857bbba1","system_id":"levelo_inurba_marseille","lat":43.313291,"lon":5.396838,"is_reserved":false,"is_disabled":false,"rental_uris":{"android":"levelo://app?vid=81f9a372-9f46-4e31-8eac-3e18857bbba1","ios":"levelo://app?vid=81f9a372-9f46-4e31-8eac-3e18857bbba1"},"vehicle_type_id":"4","last_reported":1719083317,"current_range_meters":1600,"station_id":"ce4bgvp2rcd13ifvqcu0","pricing_plan_id":"cebpf4jnsgd1na2vs0mg"},{"bike_id":"2a8b8c50-329a-441e-8794-3dd596aeb88d","system_id":"levelo_inurba_marseille","lat":43.313291,"lon":5.396838,"is_reserved":false,"is_disabled":false,"rental_uris":{"android":"levelo://app?vid=2a8b8c50-329a-441e-8794-3dd596aeb88d","ios":"levelo://app?vid=2a8b8c50-329a-441e-8794-3dd596aeb88d"},"vehicle_type_id":"4","last_reported":1719083317,"current_range_meters":24000,"station_id":"ce4bgvp2rcd13ifvqcu0","pricing_plan_id":"cebpf4jnsgd1na2vs0mg"},{"bike_id":"3b3e1d31-2316-416c-a295-3d9f2ec0f2f5","system_id":"levelo_inurba_marseille","lat":43.309038,"lon":5.396546,"is_reserved":false,"is_disabled":false,"rental_uris":{"android":"levelo://app?vid=3b3e1d31-2316-416c-a295-3d9f2ec0f2f5","ios":"levelo://app?vid=3b3e1d31-2316-416c-a295-3d9f2ec0f2f5"},"vehicle_type_id":"4","last_reported":1719083317,"current_range_meters":20800,"station_id":"ce4bh012rcd13ifvqcv0","pricing_plan_id":"cebpf4jnsgd1na2vs0mg"},{"bike_id":"7182d483-6c12-4229-a363-0d1343847009","system_id":"levelo_inurba_marseille","lat":43.309047,"lon":5.396551,"is_reserved":false,"is_disabled":false,"rental_uris":{"android":"levelo://app?vid=7182d483-6c12-4229-a363-0d1343847009","ios":"levelo://app?vid=7182d483-6c12-4229-a363-0d1343847009"},"vehicle_type_id":"4","last_reported":1719083317,"current_range_meters":26800,"station_id":"ce4bh012rcd13ifvqcv0","pricing_plan_id":"cebpf4jnsgd1na2vs0mg"},{"bike_id":"5b527b25-95a1-492a-bf80-2dbe302c203c","system_id":"levelo_inurba_marseille","lat":43.309038,"lon":5.396546,"is_reserved":false,"is_disabled":false,"rental_uris":{"android":"levelo://app?vid=5b527b25-95a1-492a-bf80-2dbe302c203c","ios":"levelo://app?vid=5b527b25-95a1-492a-bf80-2dbe302c203c"},"vehicle_type_id":"4","last_reported":1719083317,"current_range_meters":19600,"station_id":"ce4bh012rcd13ifvqcv0","pricing_plan_id":"cebpf4jnsgd1na2vs0mg"},{"bike_id":"5364f75e-358f-4075-92ff-3989679f7124","system_id":"levelo_inurba_marseille","lat":43.309047,"lon":5.396551,"is_reserved":false,"is_disabled":false,"rental_uris":{"android":"levelo://app?vid=5364f75e-358f-4075-92ff-3989679f7124","ios":"levelo://app?vid=5364f75e-358f-4075-92ff-3989679f7124"},"vehicle_type_id":"4","last_reported":1719083317,"current_range_meters":27600,"station_id":"ce4bh012rcd13ifvqcv0","pricing_plan_id":"cebpf4jnsgd1na2vs0mg"},{"bike_id":"3e5d453b-9b7a-4093-944f-3d50574698e3","system_id":"levelo_inurba_marseille","lat":43.309047,"lon":5.396551,"is_reserved":false,"is_disabled":false,"rental_uris":{"android":"levelo://app?vid=3e5d453b-9b7a-4093-944f-3d50574698e3","ios":"levelo://app?vid=3e5d453b-9b7a-4093-944f-3d50574698e3"},"vehicle_type_id":"4","last_reported":1719083317,"current_range_meters":0,"station_id":"ce4bh012rcd13ifvqcv0","pricing_plan_id":"cebpf4jnsgd1na2vs0mg"},{"bike_id":"772dd48c-b64f-4b0b-8118-860e13477d60","system_id":"levelo_inurba_marseille","lat":43.309047,"lon":5.396551,"is_reserved":false,"is_disabled":false,"rental_uris":{"android":"levelo://app?vid=772dd48c-b64f-4b0b-8118-860e13477d60","ios":"levelo://app?vid=772dd48c-b64f-4b0b-8118-860e13477d60"},"vehicle_type_id":"4","last_reported":1719083317,"current_range_meters":24000,"station_id":"ce4bh012rcd13ifvqcv0","pricing_plan_id":"cebpf4jnsgd1na2vs0mg"},{"bike_id":"9c3efffe-ad52-47d7-a40c-71b7d5ee7994","system_id":"levelo_inurba_marseille","lat":43.2954,"lon":5.38545,"is_reserved":false,"is_disabled":false,"rental_uris":{"android":"levelo://app?vid=9c3efffe-ad52-47d7-a40c-71b7d5ee7994","ios":"levelo://app?vid=9c3efffe-ad52-47d7-a40c-71b7d5ee7994"},"vehicle_type_id":"4","last_reported":1719083317,"current_range_meters":31200,"station_id":"ce4bgih2rcd13ifvqba0","pricing_plan_id":"cebpf4jnsgd1na2vs0mg"},{"bike_id":"d00cd3c4-cffb-458c-88f9-ba555f8ca6c6","system_id":"levelo_inurba_marseille","lat":43.29529,"lon":5.385581,"is_reserved":false,"is_disabled":false,"rental_uris":{"android":"levelo://app?vid=d00cd3c4-cffb-458c-88f9-ba555f8ca6c6","ios":"levelo://app?vid=d00cd3c4-cffb-458c-88f9-ba555f8ca6c6"},"vehicle_type_id":"4","last_reported":1719083317,"current_range_meters":11200,"station_id":"ce4bgih2rcd13ifvqba0","pricing_plan_id":"cebpf4jnsgd1na2vs0mg"},{"bike_id":"22462360-d0f9-4e2a-b4f0-5f19dad6de70","system_id":"levelo_inurba_marseille","lat":43.29529,"lon":5.385581,"is_reserved":false,"is_disabled":false,"rental_uris":{"android":"levelo://app?vid=22462360-d0f9-4e2a-b4f0-5f19dad6de70","ios":"levelo://app?vid=22462360-d0f9-4e2a-b4f0-5f19dad6de70"},"vehicle_type_id":"4","last_reported":1719083317,"current_range_meters":10400,"station_id":"ce4bgih2rcd13ifvqba0","pricing_plan_id":"cebpf4jnsgd1na2vs0mg"},{"bike_id":"06965ce6-ea9d-4002-bcbe-cda02a085364","system_id":"levelo_inurba_marseille","lat":43.29529,"lon":5.385581,"is_reserved":false,"is_disabled":false,"rental_uris":{"android":"levelo://app?vid=06965ce6-ea9d-4002-bcbe-cda02a085364","ios":"levelo://app?vid=06965ce6-ea9d-4002-bcbe-cda02a085364"},"vehicle_type_id":"4","last_reported":1719083317,"current_range_meters":30800,"station_id":"ce4bgih2rcd13ifvqba0","pricing_plan_id":"cebpf4jnsgd1na2vs0mg"},{"bike_id":"b850c0c2-45ad-428c-a83a-4382f30f097a","system_id":"levelo_inurba_marseille","lat":43.29529,"lon":5.385581,"is_reserved":false,"is_disabled":false,"rental_uris":{"android":"levelo://app?vid=b850c0c2-45ad-428c-a83a-4382f30f097a","ios":"levelo://app?vid=b850c0c2-45ad-428c-a83a-4382f30f097a"},"vehicle_type_id":"4","last_reported":1719083317,"current_range_meters":18000,"station_id":"ce4bgih2rcd13ifvqba0","pricing_plan_id":"cebpf4jnsgd1na2vs0mg"},{"bike_id":"ff73dfa3-2f69-4a1d-9b8d-c7c8ac03f14e","system_id":"levelo_inurba_marseille","lat":43.29795,"lon":5.404086,"is_reserved":false,"is_disabled":false,"rental_uris":{"android":"levelo://app?vid=ff73dfa3-2f69-4a1d-9b8d-c7c8ac03f14e","ios":"levelo://app?vid=ff73dfa3-2f69-4a1d-9b8d-c7c8ac03f14e"},"vehicle_type_id":"4","last_reported":1719083317,"current_range_meters":18000,"station_id":"ce4bh112rcd13ifvqd90","pricing_plan_id":"cebpf4jnsgd1na2vs0mg"},{"bike_id":"84b6003e-d7ff-4b82-88e1-bcab48b28905","system_id":"levelo_inurba_marseille","lat":43.29529,"lon":5.385581,"is_reserved":false,"is_disabled":false,"rental_uris":{"android":"levelo://app?vid=84b6003e-d7ff-4b82-88e1-bcab48b28905","ios":"levelo://app?vid=84b6003e-d7ff-4b82-88e1-bcab48b28905"},"vehicle_type_id":"4","last_reported":1719083317,"current_range_meters":27600,"station_id":"ce4bgih2rcd13ifvqba0","pricing_plan_id":"cebpf4jnsgd1na2vs0mg"},{"bike_id":"ab01d602-5dee-4593-a5f2-784b7e7504af","system_id":"levelo_inurba_marseille","lat":43.29529,"lon":5.385581,"is_reserved":false,"is_disabled":false,"rental_uris":{"android":"levelo://app?vid=ab01d602-5dee-4593-a5f2-784b7e7504af","ios":"levelo://app?vid=ab01d602-5dee-4593-a5f2-784b7e7504af"},"vehicle_type_id":"4","last_reported":1719083317,"current_range_meters":16800,"station_id":"ce4bgih2rcd13ifvqba0","pricing_plan_id":"cebpf4jnsgd1na2vs0mg"},{"bike_id":"ad19c4f7-5fb1-4a83-ae96-bf41b092f22f","system_id":"levelo_inurba_marseille","lat":43.29529,"lon":5.385581,"is_reserved":false,"is_disabled":false,"rental_uris":{"android":"levelo://app?vid=ad19c4f7-5fb1-4a83-ae96-bf41b092f22f","ios":"levelo://app?vid=ad19c4f7-5fb1-4a83-ae96-bf41b092f22f"},"vehicle_type_id":"4","last_reported":1719083317,"current_range_meters":18800,"station_id":"ce4bgih2rcd13ifvqba0","pricing_plan_id":"cebpf4jnsgd1na2vs0mg"},{"bike_id":"4aaaffe7-7111-41d1-b010-eb987bedc874","system_id":"levelo_inurba_marseille","lat":43.29529,"lon":5.385581,"is_reserved":false,"is_disabled":false,"rental_uris":{"android":"levelo://app?vid=4aaaffe7-7111-41d1-b010-eb987bedc874","ios":"levelo://app?vid=4aaaffe7-7111-41d1-b010-eb987bedc874"},"vehicle_type_id":"4","last_reported":1719083317,"current_range_meters":9200,"station_id":"ce4bgih2rcd13ifvqba0","pricing_plan_id":"cebpf4jnsgd1na2vs0mg"},{"bike_id":"241eb437-18ad-40ac-920e-34259b26f110","system_id":"levelo_inurba_marseille","lat":43.29529,"lon":5.385581,"is_reserved":false,"is_disabled":false,"rental_uris":{"android":"levelo://app?vid=241eb437-18ad-40ac-920e-34259b26f110","ios":"levelo://app?vid=241eb437-18ad-40ac-920e-34259b26f110"},"vehicle_type_id":"4","last_reported":1719083317,"current_range_meters":4000,"station_id":"ce4bgih2rcd13ifvqba0","pricing_plan_id":"cebpf4jnsgd1na2vs0mg"},{"bike_id":"1a30683b-a1dc-4af3-9236-64d781b7edc0","system_id":"levelo_inurba_marseille","lat":43.29529,"lon":5.385581,"is_reserved":false,"is_disabled":false,"rental_uris":{"android":"levelo://app?vid=1a30683b-a1dc-4af3-9236-64d781b7edc0","ios":"levelo://app?vid=1a30683b-a1dc-4af3-9236-64d781b7edc0"},"vehicle_type_id":"4","last_reported":1719083317,"current_range_meters":24400,"station_id":"ce4bgih2rcd13ifvqba0","pricing_plan_id":"cebpf4jnsgd1na2vs0mg"},{"bike_id":"fbae516d-58a4-480a-9ca3-374e0bf60850","system_id":"levelo_inurba_marseille","lat":43.29529,"lon":5.385581,"is_reserved":false,"is_disabled":false,"rental_uris":{"android":"levelo://app?vid=fbae516d-58a4-480a-9ca3-374e0bf60850","ios":"levelo://app?vid=fbae516d-58a4-480a-9ca3-374e0bf60850"},"vehicle_type_id":"4","last_reported":1719083317,"current_range_meters":20800,"station_id":"ce4bgih2rcd13ifvqba0","pricing_plan_id":"cebpf4jnsgd1na2vs0mg"},{"bike_id":"80daf218-e373-4bff-a1ea-cfd8320644ee","system_id":"levelo_inurba_marseille","lat":43.290779,"lon":5.371482,"is_reserved":false,"is_disabled":false,"rental_uris":{"android":"levelo://app?vid=80daf218-e373-4bff-a1ea-cfd8320644ee","ios":"levelo://app?vid=80daf218-e373-4bff-a1ea-cfd8320644ee"},"vehicle_type_id":"4","last_reported":1719083317,"current_range_meters":0,"station_id":"ce4bh5p2rcd13ifvqe4g","pricing_plan_id":"cebpf4jnsgd1na2vs0mg"},{"bike_id":"ae2f7ab4-6a90-4640-a4fe-5c034b2632c9","system_id":"levelo_inurba_marseille","lat":43.290779,"lon":5.371482,"is_reserved":false,"is_disabled":false,"rental_uris":{"android":"levelo://app?vid=ae2f7ab4-6a90-4640-a4fe-5c034b2632c9","ios":"levelo://app?vid=ae2f7ab4-6a90-4640-a4fe-5c034b2632c9"},"vehicle_type_id":"4","last_reported":1719083317,"current_range_meters":21200,"station_id":"ce4bh5p2rcd13ifvqe4g","pricing_plan_id":"cebpf4jnsgd1na2vs0mg"},{"bike_id":"30fe302b-92c5-4faf-bad2-cfdd36b0b6e7","system_id":"levelo_inurba_marseille","lat":43.290779,"lon":5.371482,"is_reserved":false,"is_disabled":false,"rental_uris":{"android":"levelo://app?vid=30fe302b-92c5-4faf-bad2-cfdd36b0b6e7","ios":"levelo://app?vid=30fe302b-92c5-4faf-bad2-cfdd36b0b6e7"},"vehicle_type_id":"4","last_reported":1719083317,"current_range_meters":18000,"station_id":"ce4bh5p2rcd13ifvqe4g","pricing_plan_id":"cebpf4jnsgd1na2vs0mg"},{"bike_id":"59642672-e94b-470d-8a63-fe808b6b562a","system_id":"levelo_inurba_marseille","lat":43.302008,"lon":5.394694,"is_reserved":false,"is_disabled":false,"rental_uris":{"android":"levelo://app?vid=59642672-e94b-470d-8a63-fe808b6b562a","ios":"levelo://app?vid=59642672-e94b-470d-8a63-fe808b6b562a"},"vehicle_type_id":"4","last_reported":1719083317,"current_range_meters":22800,"station_id":"ce4bh0p2rcd13ifvqd70","pricing_plan_id":"cebpf4jnsgd1na2vs0mg"},{"bike_id":"de7e4ccf-70a9-4a1c-9521-5d8ac1e76102","system_id":"levelo_inurba_marseille","lat":43.290631,"lon":5.359244,"is_reserved":false,"is_disabled":false,"rental_uris":{"android":"levelo://app?vid=de7e4ccf-70a9-4a1c-9521-5d8ac1e76102","ios":"levelo://app?vid=de7e4ccf-70a9-4a1c-9521-5d8ac1e76102"},"vehicle_type_id":"4","last_reported":1719083317,"current_range_meters":5600,"station_id":"ce4bha92rcd13ifvqeg0","pricing_plan_id":"cebpf4jnsgd1na2vs0mg"},{"bike_id":"fd4f93c5-f41e-4136-822a-e20753ab5a4b","system_id":"levelo_inurba_marseille","lat":43.290624,"lon":5.359245,"is_reserved":false,"is_disabled":false,"rental_uris":{"android":"levelo://app?vid=fd4f93c5-f41e-4136-822a-e20753ab5a4b","ios":"levelo://app?vid=fd4f93c5-f41e-4136-822a-e20753ab5a4b"},"vehicle_type_id":"4","last_reported":1719083317,"current_range_meters":10000,"station_id":"ce4bha92rcd13ifvqeg0","pricing_plan_id":"cebpf4jnsgd1na2vs0mg"},{"bike_id":"556dd53f-8f03-4ee0-a163-65eb2da27c11","system_id":"levelo_inurba_marseille","lat":43.290624,"lon":5.359245,"is_reserved":false,"is_disabled":false,"rental_uris":{"android":"levelo://app?vid=556dd53f-8f03-4ee0-a163-65eb2da27c11","ios":"levelo://app?vid=556dd53f-8f03-4ee0-a163-65eb2da27c11"},"vehicle_type_id":"4","last_reported":1719083317,"current_range_meters":2400,"station_id":"ce4bha92rcd13ifvqeg0","pricing_plan_id":"cebpf4jnsgd1na2vs0mg"},{"bike_id":"f347532e-7952-4298-bff7-62d2e73e269e","system_id":"levelo_inurba_marseille","lat":43.290624,"lon":5.359245,"is_reserved":false,"is_disabled":false,"rental_uris":{"android":"levelo://app?vid=f347532e-7952-4298-bff7-62d2e73e269e","ios":"levelo://app?vid=f347532e-7952-4298-bff7-62d2e73e269e"},"vehicle_type_id":"4","last_reported":1719083317,"current_range_meters":0,"station_id":"ce4bha92rcd13ifvqeg0","pricing_plan_id":"cebpf4jnsgd1na2vs0mg"},{"bike_id":"6a4bd3de-82b6-48c5-8db0-80a5d5cec1f1","system_id":"levelo_inurba_marseille","lat":43.290319,"lon":5.375732,"is_reserved":false,"is_disabled":false,"rental_uris":{"android":"levelo://app?vid=6a4bd3de-82b6-48c5-8db0-80a5d5cec1f1","ios":"levelo://app?vid=6a4bd3de-82b6-48c5-8db0-80a5d5cec1f1"},"vehicle_type_id":"4","last_reported":1719083317,"current_range_meters":14000,"station_id":"ce4bh692rcd13ifvqe90","pricing_plan_id":"cebpf4jnsgd1na2vs0mg"},{"bike_id":"7b97af5c-98f0-4525-bdb6-01e8eb35b6dc","system_id":"levelo_inurba_marseille","lat":43.294162,"lon":5.386292,"is_reserved":false,"is_disabled":false,"rental_uris":{"android":"levelo://app?vid=7b97af5c-98f0-4525-bdb6-01e8eb35b6dc","ios":"levelo://app?vid=7b97af5c-98f0-4525-bdb6-01e8eb35b6dc"},"vehicle_type_id":"4","last_reported":1719083317,"current_range_meters":20000,"station_id":"ce4bh2h2rcd13ifvqdh0","pricing_plan_id":"cebpf4jnsgd1na2vs0mg"},{"bike_id":"741c9ef7-3525-4409-b1f5-08fc618048ce","system_id":"levelo_inurba_marseille","lat":43.294162,"lon":5.386292,"is_reserved":false,"is_disabled":false,"rental_uris":{"android":"levelo://app?vid=741c9ef7-3525-4409-b1f5-08fc618048ce","ios":"levelo://app?vid=741c9ef7-3525-4409-b1f5-08fc618048ce"},"vehicle_type_id":"4","last_reported":1719083317,"current_range_meters":31200,"station_id":"ce4bh2h2rcd13ifvqdh0","pricing_plan_id":"cebpf4jnsgd1na2vs0mg"},{"bike_id":"6242173a-8732-4979-aad6-4a39d8cf3a9e","system_id":"levelo_inurba_marseille","lat":43.289468,"lon":5.363719,"is_reserved":false,"is_disabled":false,"rental_uris":{"android":"levelo://app?vid=6242173a-8732-4979-aad6-4a39d8cf3a9e","ios":"levelo://app?vid=6242173a-8732-4979-aad6-4a39d8cf3a9e"},"vehicle_type_id":"4","last_reported":1719083317,"current_range_meters":9600,"station_id":"ce4bhc92rcd13ifvqetg","pricing_plan_id":"cebpf4jnsgd1na2vs0mg"},{"bike_id":"886028ef-93ed-4db9-bc68-8112ffcfa3a3","system_id":"levelo_inurba_marseille","lat":43.292781,"lon":5.384292,"is_reserved":false,"is_disabled":false,"rental_uris":{"android":"levelo://app?vid=886028ef-93ed-4db9-bc68-8112ffcfa3a3","ios":"levelo://app?vid=886028ef-93ed-4db9-bc68-8112ffcfa3a3"},"vehicle_type_id":"4","last_reported":1719083317,"current_range_meters":19600,"station_id":"ce4bh692rcd13ifvqea0","pricing_plan_id":"cebpf4jnsgd1na2vs0mg"},{"bike_id":"960a2969-2e64-4795-80fd-5c9371463634","system_id":"levelo_inurba_marseille","lat":43.292644,"lon":5.384257,"is_reserved":false,"is_disabled":false,"rental_uris":{"android":"levelo://app?vid=960a2969-2e64-4795-80fd-5c9371463634","ios":"levelo://app?vid=960a2969-2e64-4795-80fd-5c9371463634"},"vehicle_type_id":"4","last_reported":1719083317,"current_range_meters":23600,"station_id":"ce4bh692rcd13ifvqea0","pricing_plan_id":"cebpf4jnsgd1na2vs0mg"},{"bike_id":"3a6962c2-8971-490d-999f-5b8a36583839","system_id":"levelo_inurba_marseille","lat":43.304274,"lon":5.397513,"is_reserved":false,"is_disabled":false,"rental_uris":{"android":"levelo://app?vid=3a6962c2-8971-490d-999f-5b8a36583839","ios":"levelo://app?vid=3a6962c2-8971-490d-999f-5b8a36583839"},"vehicle_type_id":"4","last_reported":1719083317,"current_range_meters":26000,"station_id":"ce4bh092rcd13ifvqd20","pricing_plan_id":"cebpf4jnsgd1na2vs0mg"},{"bike_id":"171dce5a-c4e0-4696-90b4-c0dec4db45c1","system_id":"levelo_inurba_marseille","lat":43.292644,"lon":5.384257,"is_reserved":false,"is_disabled":false,"rental_uris":{"android":"levelo://app?vid=171dce5a-c4e0-4696-90b4-c0dec4db45c1","ios":"levelo://app?vid=171dce5a-c4e0-4696-90b4-c0dec4db45c1"},"vehicle_type_id":"4","last_reported":1719083317,"current_range_meters":26000,"station_id":"ce4bh692rcd13ifvqea0","pricing_plan_id":"cebpf4jnsgd1na2vs0mg"},{"bike_id":"fe79b72a-9063-4bb0-9b0b-11011b26d1f2","system_id":"levelo_inurba_marseille","lat":43.304296,"lon":5.397513,"is_reserved":false,"is_disabled":false,"rental_uris":{"android":"levelo://app?vid=fe79b72a-9063-4bb0-9b0b-11011b26d1f2","ios":"levelo://app?vid=fe79b72a-9063-4bb0-9b0b-11011b26d1f2"},"vehicle_type_id":"4","last_reported":1719083317,"current_range_meters":16400,"station_id":"ce4bh092rcd13ifvqd20","pricing_plan_id":"cebpf4jnsgd1na2vs0mg"},{"bike_id":"98ddfe87-6653-47e0-ad3b-e84aa772569c","system_id":"levelo_inurba_marseille","lat":43.304274,"lon":5.397513,"is_reserved":false,"is_disabled":false,"rental_uris":{"android":"levelo://app?vid=98ddfe87-6653-47e0-ad3b-e84aa772569c","ios":"levelo://app?vid=98ddfe87-6653-47e0-ad3b-e84aa772569c"},"vehicle_type_id":"4","last_reported":1719083317,"current_range_meters":28000,"station_id":"ce4bh092rcd13ifvqd20","pricing_plan_id":"cebpf4jnsgd1na2vs0mg"},{"bike_id":"8574d864-e129-46fa-a302-a361f38e2a85","system_id":"levelo_inurba_marseille","lat":43.290103,"lon":5.356114,"is_reserved":false,"is_disabled":false,"rental_uris":{"android":"levelo://app?vid=8574d864-e129-46fa-a302-a361f38e2a85","ios":"levelo://app?vid=8574d864-e129-46fa-a302-a361f38e2a85"},"vehicle_type_id":"4","last_reported":1719083317,"current_range_meters":20000,"station_id":"ce4bhb92rcd13ifvqen0","pricing_plan_id":"cebpf4jnsgd1na2vs0mg"},{"bike_id":"6962c0b7-bc6a-4e60-8be6-b8ac5aa216bf","system_id":"levelo_inurba_marseille","lat":43.290995,"lon":5.381361,"is_reserved":false,"is_disabled":false,"rental_uris":{"android":"levelo://app?vid=6962c0b7-bc6a-4e60-8be6-b8ac5aa216bf","ios":"levelo://app?vid=6962c0b7-bc6a-4e60-8be6-b8ac5aa216bf"},"vehicle_type_id":"4","last_reported":1719083317,"current_range_meters":15200,"station_id":"ce4bh512rcd13ifvqe2g","pricing_plan_id":"cebpf4jnsgd1na2vs0mg"},{"bike_id":"96a5b7f8-3f1a-4578-957f-a7baa0c95c9b","system_id":"levelo_inurba_marseille","lat":43.290995,"lon":5.381361,"is_reserved":false,"is_disabled":false,"rental_uris":{"android":"levelo://app?vid=96a5b7f8-3f1a-4578-957f-a7baa0c95c9b","ios":"levelo://app?vid=96a5b7f8-3f1a-4578-957f-a7baa0c95c9b"},"vehicle_type_id":"4","last_reported":1719083317,"current_range_meters":29600,"station_id":"ce4bh512rcd13ifvqe2g","pricing_plan_id":"cebpf4jnsgd1na2vs0mg"},{"bike_id":"139b437b-bed8-4008-8667-0205430be1e4","system_id":"levelo_inurba_marseille","lat":43.290995,"lon":5.381361,"is_reserved":false,"is_disabled":false,"rental_uris":{"android":"levelo://app?vid=139b437b-bed8-4008-8667-0205430be1e4","ios":"levelo://app?vid=139b437b-bed8-4008-8667-0205430be1e4"},"vehicle_type_id":"4","last_reported":1719083317,"current_range_meters":13200,"station_id":"ce4bh512rcd13ifvqe2g","pricing_plan_id":"cebpf4jnsgd1na2vs0mg"},{"bike_id":"a6587d85-6ec4-4f10-b6ee-e377ec64afa1","system_id":"levelo_inurba_marseille","lat":43.290995,"lon":5.381361,"is_reserved":false,"is_disabled":false,"rental_uris":{"android":"levelo://app?vid=a6587d85-6ec4-4f10-b6ee-e377ec64afa1","ios":"levelo://app?vid=a6587d85-6ec4-4f10-b6ee-e377ec64afa1"},"vehicle_type_id":"4","last_reported":1719083317,"current_range_meters":28400,"station_id":"ce4bh512rcd13ifvqe2g","pricing_plan_id":"cebpf4jnsgd1na2vs0mg"},{"bike_id":"68b0fbd6-3f2f-46a0-ae3c-936e3608113e","system_id":"levelo_inurba_marseille","lat":43.330442,"lon":5.389148,"is_reserved":false,"is_disabled":false,"rental_uris":{"android":"levelo://app?vid=68b0fbd6-3f2f-46a0-ae3c-936e3608113e","ios":"levelo://app?vid=68b0fbd6-3f2f-46a0-ae3c-936e3608113e"},"vehicle_type_id":"4","last_reported":1719083317,"current_range_meters":2400,"station_id":"ce4bhr92rcd13ifvqhrg","pricing_plan_id":"cebpf4jnsgd1na2vs0mg"},{"bike_id":"3d51333e-3c3e-46b1-bd12-5e5a4b33b1fb","system_id":"levelo_inurba_marseille","lat":43.295169,"lon":5.390426,"is_reserved":false,"is_disabled":false,"rental_uris":{"android":"levelo://app?vid=3d51333e-3c3e-46b1-bd12-5e5a4b33b1fb","ios":"levelo://app?vid=3d51333e-3c3e-46b1-bd12-5e5a4b33b1fb"},"vehicle_type_id":"4","last_reported":1719083317,"current_range_meters":0,"station_id":"ce4bh3p2rcd13ifvqdp0","pricing_plan_id":"cebpf4jnsgd1na2vs0mg"},{"bike_id":"a961d445-4eb8-423f-934a-5d02baa3f1bf","system_id":"levelo_inurba_marseille","lat":43.289741,"lon":5.378306,"is_reserved":false,"is_disabled":false,"rental_uris":{"android":"levelo://app?vid=a961d445-4eb8-423f-934a-5d02baa3f1bf","ios":"levelo://app?vid=a961d445-4eb8-423f-934a-5d02baa3f1bf"},"vehicle_type_id":"4","last_reported":1719083317,"current_range_meters":28800,"station_id":"ce4bh9p2rcd13ifvqed0","pricing_plan_id":"cebpf4jnsgd1na2vs0mg"},{"bike_id":"f4f121af-7ef8-4ac6-8195-ae161eeaaa5d","system_id":"levelo_inurba_marseille","lat":43.295169,"lon":5.390426,"is_reserved":false,"is_disabled":false,"rental_uris":{"android":"levelo://app?vid=f4f121af-7ef8-4ac6-8195-ae161eeaaa5d","ios":"levelo://app?vid=f4f121af-7ef8-4ac6-8195-ae161eeaaa5d"},"vehicle_type_id":"4","last_reported":1719083317,"current_range_meters":0,"station_id":"ce4bh3p2rcd13ifvqdp0","pricing_plan_id":"cebpf4jnsgd1na2vs0mg"},{"bike_id":"b6edac0f-d636-4218-8884-1af2a29d8774","system_id":"levelo_inurba_marseille","lat":43.289741,"lon":5.378306,"is_reserved":false,"is_disabled":false,"rental_uris":{"android":"levelo://app?vid=b6edac0f-d636-4218-8884-1af2a29d8774","ios":"levelo://app?vid=b6edac0f-d636-4218-8884-1af2a29d8774"},"vehicle_type_id":"4","last_reported":1719083317,"current_range_meters":16400,"station_id":"ce4bh9p2rcd13ifvqed0","pricing_plan_id":"cebpf4jnsgd1na2vs0mg"},{"bike_id":"88e2f51e-e62f-4278-ad1f-4f1a615dea1a","system_id":"levelo_inurba_marseille","lat":43.330442,"lon":5.389148,"is_reserved":false,"is_disabled":false,"rental_uris":{"android":"levelo://app?vid=88e2f51e-e62f-4278-ad1f-4f1a615dea1a","ios":"levelo://app?vid=88e2f51e-e62f-4278-ad1f-4f1a615dea1a"},"vehicle_type_id":"4","last_reported":1719083317,"current_range_meters":3200,"station_id":"ce4bhr92rcd13ifvqhrg","pricing_plan_id":"cebpf4jnsgd1na2vs0mg"},{"bike_id":"8b4d1d74-155c-490a-8e83-6ac454da073c","system_id":"levelo_inurba_marseille","lat":43.290094,"lon":5.381264,"is_reserved":false,"is_disabled":false,"rental_uris":{"android":"levelo://app?vid=8b4d1d74-155c-490a-8e83-6ac454da073c","ios":"levelo://app?vid=8b4d1d74-155c-490a-8e83-6ac454da073c"},"vehicle_type_id":"4","last_reported":1719083317,"current_range_meters":24000,"station_id":"ce4bh4p2rcd13ifvqe1g","pricing_plan_id":"cebpf4jnsgd1na2vs0mg"},{"bike_id":"0e03e884-35dc-41d0-8e40-1506a297c859","system_id":"levelo_inurba_marseille","lat":43.290094,"lon":5.381264,"is_reserved":false,"is_disabled":false,"rental_uris":{"android":"levelo://app?vid=0e03e884-35dc-41d0-8e40-1506a297c859","ios":"levelo://app?vid=0e03e884-35dc-41d0-8e40-1506a297c859"},"vehicle_type_id":"4","last_reported":1719083317,"current_range_meters":30000,"station_id":"ce4bh4p2rcd13ifvqe1g","pricing_plan_id":"cebpf4jnsgd1na2vs0mg"},{"bike_id":"3a8ec49f-a3cc-4017-b7e1-3440cfd52bac","system_id":"levelo_inurba_marseille","lat":43.290094,"lon":5.381264,"is_reserved":false,"is_disabled":false,"rental_uris":{"android":"levelo://app?vid=3a8ec49f-a3cc-4017-b7e1-3440cfd52bac","ios":"levelo://app?vid=3a8ec49f-a3cc-4017-b7e1-3440cfd52bac"},"vehicle_type_id":"4","last_reported":1719083317,"current_range_meters":15200,"station_id":"ce4bh4p2rcd13ifvqe1g","pricing_plan_id":"cebpf4jnsgd1na2vs0mg"},{"bike_id":"e3a7c7f9-e1ea-4b46-acbb-191f41b40206","system_id":"levelo_inurba_marseille","lat":43.29024,"lon":5.38151,"is_reserved":false,"is_disabled":false,"rental_uris":{"android":"levelo://app?vid=e3a7c7f9-e1ea-4b46-acbb-191f41b40206","ios":"levelo://app?vid=e3a7c7f9-e1ea-4b46-acbb-191f41b40206"},"vehicle_type_id":"4","last_reported":1719083317,"current_range_meters":31200,"station_id":"ce4bh4p2rcd13ifvqe1g","pricing_plan_id":"cebpf4jnsgd1na2vs0mg"},{"bike_id":"a1590b78-63f4-4fae-9e51-0fd008da83ba","system_id":"levelo_inurba_marseille","lat":43.2901,"lon":5.381269,"is_reserved":false,"is_disabled":false,"rental_uris":{"android":"levelo://app?vid=a1590b78-63f4-4fae-9e51-0fd008da83ba","ios":"levelo://app?vid=a1590b78-63f4-4fae-9e51-0fd008da83ba"},"vehicle_type_id":"4","last_reported":1719083317,"current_range_meters":21600,"station_id":"ce4bh4p2rcd13ifvqe1g","pricing_plan_id":"cebpf4jnsgd1na2vs0mg"},{"bike_id":"debe75d7-d633-4730-afc7-941aac5c8941","system_id":"levelo_inurba_marseille","lat":43.312609,"lon":5.401662,"is_reserved":false,"is_disabled":false,"rental_uris":{"android":"levelo://app?vid=debe75d7-d633-4730-afc7-941aac5c8941","ios":"levelo://app?vid=debe75d7-d633-4730-afc7-941aac5c8941"},"vehicle_type_id":"4","last_reported":1719083317,"current_range_meters":14000,"station_id":"ce4bh092rcd13ifvqd30","pricing_plan_id":"cebpf4jnsgd1na2vs0mg"},{"bike_id":"05092e03-5cef-41c3-9575-df5db7507ebd","system_id":"levelo_inurba_marseille","lat":43.33739,"lon":5.37464,"is_reserved":false,"is_disabled":false,"rental_uris":{"android":"levelo://app?vid=05092e03-5cef-41c3-9575-df5db7507ebd","ios":"levelo://app?vid=05092e03-5cef-41c3-9575-df5db7507ebd"},"vehicle_type_id":"4","last_reported":1719083317,"current_range_meters":18800,"station_id":"","pricing_plan_id":"cebpf4jnsgd1na2vs0mg"},{"bike_id":"b81fcc4e-cad8-4182-84b9-d420bf5181c0","system_id":"levelo_inurba_marseille","lat":43.30934,"lon":5.40141,"is_reserved":false,"is_disabled":false,"rental_uris":{"android":"levelo://app?vid=b81fcc4e-cad8-4182-84b9-d420bf5181c0","ios":"levelo://app?vid=b81fcc4e-cad8-4182-84b9-d420bf5181c0"},"vehicle_type_id":"4","last_reported":1719083317,"current_range_meters":0,"station_id":"","pricing_plan_id":"cebpf4jnsgd1na2vs0mg"},{"bike_id":"b96c5d51-82b0-4b78-bde4-3aaef404bf1b","system_id":"levelo_inurba_marseille","lat":43.309371,"lon":5.401449,"is_reserved":false,"is_disabled":false,"rental_uris":{"android":"levelo://app?vid=b96c5d51-82b0-4b78-bde4-3aaef404bf1b","ios":"levelo://app?vid=b96c5d51-82b0-4b78-bde4-3aaef404bf1b"},"vehicle_type_id":"4","last_reported":1719083317,"current_range_meters":0,"station_id":"ce4bgvp2rcd13ifvqct0","pricing_plan_id":"cebpf4jnsgd1na2vs0mg"},{"bike_id":"5b5cae36-09e1-4bd0-aeb4-83d37c064d16","system_id":"levelo_inurba_marseille","lat":43.33751,"lon":5.37454,"is_reserved":false,"is_disabled":false,"rental_uris":{"android":"levelo://app?vid=5b5cae36-09e1-4bd0-aeb4-83d37c064d16","ios":"levelo://app?vid=5b5cae36-09e1-4bd0-aeb4-83d37c064d16"},"vehicle_type_id":"4","last_reported":1719083317,"current_range_meters":24800,"station_id":"","pricing_plan_id":"cebpf4jnsgd1na2vs0mg"},{"bike_id":"a00c218c-138a-4388-aca4-2952a6961815","system_id":"levelo_inurba_marseille","lat":43.33753,"lon":5.37478,"is_reserved":false,"is_disabled":false,"rental_uris":{"android":"levelo://app?vid=a00c218c-138a-4388-aca4-2952a6961815","ios":"levelo://app?vid=a00c218c-138a-4388-aca4-2952a6961815"},"vehicle_type_id":"4","last_reported":1719083317,"current_range_meters":28400,"station_id":"","pricing_plan_id":"cebpf4jnsgd1na2vs0mg"},{"bike_id":"0e11bbab-a5d9-4098-a6f1-624d89f27c59","system_id":"levelo_inurba_marseille","lat":43.337572,"lon":5.374546,"is_reserved":false,"is_disabled":false,"rental_uris":{"android":"levelo://app?vid=0e11bbab-a5d9-4098-a6f1-624d89f27c59","ios":"levelo://app?vid=0e11bbab-a5d9-4098-a6f1-624d89f27c59"},"vehicle_type_id":"4","last_reported":1719083317,"current_range_meters":23200,"station_id":"","pricing_plan_id":"cebpf4jnsgd1na2vs0mg"},{"bike_id":"db534928-e6a2-47cc-a852-558fe66ed50c","system_id":"levelo_inurba_marseille","lat":43.337583,"lon":5.374633,"is_reserved":false,"is_disabled":false,"rental_uris":{"android":"levelo://app?vid=db534928-e6a2-47cc-a852-558fe66ed50c","ios":"levelo://app?vid=db534928-e6a2-47cc-a852-558fe66ed50c"},"vehicle_type_id":"4","last_reported":1719083317,"current_range_meters":21600,"station_id":"","pricing_plan_id":"cebpf4jnsgd1na2vs0mg"},{"bike_id":"e7be790b-07e4-40f3-b60f-da683b157943","system_id":"levelo_inurba_marseille","lat":43.33033,"lon":5.39238,"is_reserved":false,"is_disabled":false,"rental_uris":{"android":"levelo://app?vid=e7be790b-07e4-40f3-b60f-da683b157943","ios":"levelo://app?vid=e7be790b-07e4-40f3-b60f-da683b157943"},"vehicle_type_id":"4","last_reported":1719083317,"current_range_meters":18000,"station_id":"","pricing_plan_id":"cebpf4jnsgd1na2vs0mg"},{"bike_id":"a77bf3f1-dc55-4e35-8fe0-6292cee970ef","system_id":"levelo_inurba_marseille","lat":43.33035,"lon":5.39239,"is_reserved":false,"is_disabled":false,"rental_uris":{"android":"levelo://app?vid=a77bf3f1-dc55-4e35-8fe0-6292cee970ef","ios":"levelo://app?vid=a77bf3f1-dc55-4e35-8fe0-6292cee970ef"},"vehicle_type_id":"4","last_reported":1719083317,"current_range_meters":20800,"station_id":"","pricing_plan_id":"cebpf4jnsgd1na2vs0mg"},{"bike_id":"23e2e65b-cd29-4716-8f91-e2612f71fe42","system_id":"levelo_inurba_marseille","lat":43.301117,"lon":5.398795,"is_reserved":false,"is_disabled":false,"rental_uris":{"android":"levelo://app?vid=23e2e65b-cd29-4716-8f91-e2612f71fe42","ios":"levelo://app?vid=23e2e65b-cd29-4716-8f91-e2612f71fe42"},"vehicle_type_id":"4","last_reported":1719083317,"current_range_meters":30400,"station_id":"ce4bh0h2rcd13ifvqd40","pricing_plan_id":"cebpf4jnsgd1na2vs0mg"},{"bike_id":"286e87b4-9f57-41c6-b4d2-4a24cec7b480","system_id":"levelo_inurba_marseille","lat":43.28735,"lon":5.36091,"is_reserved":false,"is_disabled":false,"rental_uris":{"android":"levelo://app?vid=286e87b4-9f57-41c6-b4d2-4a24cec7b480","ios":"levelo://app?vid=286e87b4-9f57-41c6-b4d2-4a24cec7b480"},"vehicle_type_id":"4","last_reported":1719083317,"current_range_meters":21200,"station_id":"cki0cbj6b192h4jlfktg","pricing_plan_id":"cebpf4jnsgd1na2vs0mg"},{"bike_id":"1529575d-3c24-4053-9dc4-3fc753c20a3e","system_id":"levelo_inurba_marseille","lat":43.3304,"lon":5.39281,"is_reserved":false,"is_disabled":false,"rental_uris":{"android":"levelo://app?vid=1529575d-3c24-4053-9dc4-3fc753c20a3e","ios":"levelo://app?vid=1529575d-3c24-4053-9dc4-3fc753c20a3e"},"vehicle_type_id":"4","last_reported":1719083317,"current_range_meters":800,"station_id":"","pricing_plan_id":"cebpf4jnsgd1na2vs0mg"},{"bike_id":"2ee00857-3e8d-4bac-94c2-9123412e7b86","system_id":"levelo_inurba_marseille","lat":43.28727,"lon":5.36078,"is_reserved":false,"is_disabled":false,"rental_uris":{"android":"levelo://app?vid=2ee00857-3e8d-4bac-94c2-9123412e7b86","ios":"levelo://app?vid=2ee00857-3e8d-4bac-94c2-9123412e7b86"},"vehicle_type_id":"4","last_reported":1719083317,"current_range_meters":4800,"station_id":"cki0cbj6b192h4jlfktg","pricing_plan_id":"cebpf4jnsgd1na2vs0mg"},{"bike_id":"3d542d9b-7f3f-4e47-8ea6-905b1a70d50d","system_id":"levelo_inurba_marseille","lat":43.28727,"lon":5.36078,"is_reserved":false,"is_disabled":false,"rental_uris":{"android":"levelo://app?vid=3d542d9b-7f3f-4e47-8ea6-905b1a70d50d","ios":"levelo://app?vid=3d542d9b-7f3f-4e47-8ea6-905b1a70d50d"},"vehicle_type_id":"4","last_reported":1719083317,"current_range_meters":29600,"station_id":"cki0cbj6b192h4jlfktg","pricing_plan_id":"cebpf4jnsgd1na2vs0mg"},{"bike_id":"79ea8940-8e3b-4e0b-9d0f-ab03c4adc8a2","system_id":"levelo_inurba_marseille","lat":43.286961,"lon":5.373785,"is_reserved":false,"is_disabled":false,"rental_uris":{"android":"levelo://app?vid=79ea8940-8e3b-4e0b-9d0f-ab03c4adc8a2","ios":"levelo://app?vid=79ea8940-8e3b-4e0b-9d0f-ab03c4adc8a2"},"vehicle_type_id":"4","last_reported":1719083317,"current_range_meters":28400,"station_id":"ce4bh3p2rcd13ifvqdq0","pricing_plan_id":"cebpf4jnsgd1na2vs0mg"},{"bike_id":"372d2f54-f1a2-497f-b005-95fef048068f","system_id":"levelo_inurba_marseille","lat":43.286961,"lon":5.373785,"is_reserved":false,"is_disabled":false,"rental_uris":{"android":"levelo://app?vid=372d2f54-f1a2-497f-b005-95fef048068f","ios":"levelo://app?vid=372d2f54-f1a2-497f-b005-95fef048068f"},"vehicle_type_id":"4","last_reported":1719083317,"current_range_meters":15600,"station_id":"ce4bh3p2rcd13ifvqdq0","pricing_plan_id":"cebpf4jnsgd1na2vs0mg"},{"bike_id":"eeee3485-2d79-4101-a616-ef3d08a31003","system_id":"levelo_inurba_marseille","lat":43.286961,"lon":5.373785,"is_reserved":false,"is_disabled":false,"rental_uris":{"android":"levelo://app?vid=eeee3485-2d79-4101-a616-ef3d08a31003","ios":"levelo://app?vid=eeee3485-2d79-4101-a616-ef3d08a31003"},"vehicle_type_id":"4","last_reported":1719083317,"current_range_meters":23200,"station_id":"ce4bh3p2rcd13ifvqdq0","pricing_plan_id":"cebpf4jnsgd1na2vs0mg"},{"bike_id":"5f2278a0-2fd1-4d62-ada2-24430c6241ab","system_id":"levelo_inurba_marseille","lat":43.298681,"lon":5.397225,"is_reserved":false,"is_disabled":false,"rental_uris":{"android":"levelo://app?vid=5f2278a0-2fd1-4d62-ada2-24430c6241ab","ios":"levelo://app?vid=5f2278a0-2fd1-4d62-ada2-24430c6241ab"},"vehicle_type_id":"4","last_reported":1719083317,"current_range_meters":20400,"station_id":"ce4bh0h2rcd13ifvqd50","pricing_plan_id":"cebpf4jnsgd1na2vs0mg"},{"bike_id":"fec8dfee-719a-4264-964c-f233944b42c8","system_id":"levelo_inurba_marseille","lat":43.28668,"lon":5.363553,"is_reserved":false,"is_disabled":false,"rental_uris":{"android":"levelo://app?vid=fec8dfee-719a-4264-964c-f233944b42c8","ios":"levelo://app?vid=fec8dfee-719a-4264-964c-f233944b42c8"},"vehicle_type_id":"4","last_reported":1719083317,"current_range_meters":24400,"station_id":"ce4bhah2rcd13ifvqej0","pricing_plan_id":"cebpf4jnsgd1na2vs0mg"},{"bike_id":"faefdddc-be28-42bd-bede-882ae5612b00","system_id":"levelo_inurba_marseille","lat":43.286591,"lon":5.363346,"is_reserved":false,"is_disabled":false,"rental_uris":{"android":"levelo://app?vid=faefdddc-be28-42bd-bede-882ae5612b00","ios":"levelo://app?vid=faefdddc-be28-42bd-bede-882ae5612b00"},"vehicle_type_id":"4","last_reported":1719083317,"current_range_meters":23200,"station_id":"ce4bhah2rcd13ifvqej0","pricing_plan_id":"cebpf4jnsgd1na2vs0mg"},{"bike_id":"52c00303-bc31-459d-8cc1-b347be0999fa","system_id":"levelo_inurba_marseille","lat":43.28666,"lon":5.3636,"is_reserved":false,"is_disabled":false,"rental_uris":{"android":"levelo://app?vid=52c00303-bc31-459d-8cc1-b347be0999fa","ios":"levelo://app?vid=52c00303-bc31-459d-8cc1-b347be0999fa"},"vehicle_type_id":"4","last_reported":1719083317,"current_range_meters":0,"station_id":"ce4bhah2rcd13ifvqej0","pricing_plan_id":"cebpf4jnsgd1na2vs0mg"},{"bike_id":"dea2e88c-e0e2-4986-b668-03161be1bfa7","system_id":"levelo_inurba_marseille","lat":43.286593,"lon":5.363346,"is_reserved":false,"is_disabled":false,"rental_uris":{"android":"levelo://app?vid=dea2e88c-e0e2-4986-b668-03161be1bfa7","ios":"levelo://app?vid=dea2e88c-e0e2-4986-b668-03161be1bfa7"},"vehicle_type_id":"4","last_reported":1719083317,"current_range_meters":20000,"station_id":"ce4bhah2rcd13ifvqej0","pricing_plan_id":"cebpf4jnsgd1na2vs0mg"},{"bike_id":"511b3e30-9294-4a37-a2ea-1451f6fcdc05","system_id":"levelo_inurba_marseille","lat":43.29543,"lon":5.39399,"is_reserved":false,"is_disabled":false,"rental_uris":{"android":"levelo://app?vid=511b3e30-9294-4a37-a2ea-1451f6fcdc05","ios":"levelo://app?vid=511b3e30-9294-4a37-a2ea-1451f6fcdc05"},"vehicle_type_id":"4","last_reported":1719083317,"current_range_meters":4400,"station_id":"","pricing_plan_id":"cebpf4jnsgd1na2vs0mg"},{"bike_id":"fac23ce8-4923-4cec-bcf9-8738cb6268e2","system_id":"levelo_inurba_marseille","lat":43.28664,"lon":5.36347,"is_reserved":false,"is_disabled":false,"rental_uris":{"android":"levelo://app?vid=fac23ce8-4923-4cec-bcf9-8738cb6268e2","ios":"levelo://app?vid=fac23ce8-4923-4cec-bcf9-8738cb6268e2"},"vehicle_type_id":"4","last_reported":1719083317,"current_range_meters":2400,"station_id":"ce4bhah2rcd13ifvqej0","pricing_plan_id":"cebpf4jnsgd1na2vs0mg"},{"bike_id":"65c69f3c-5a65-4efe-b0d4-6aaeb2cb6aae","system_id":"levelo_inurba_marseille","lat":43.286593,"lon":5.363346,"is_reserved":false,"is_disabled":false,"rental_uris":{"android":"levelo://app?vid=65c69f3c-5a65-4efe-b0d4-6aaeb2cb6aae","ios":"levelo://app?vid=65c69f3c-5a65-4efe-b0d4-6aaeb2cb6aae"},"vehicle_type_id":"4","last_reported":1719083317,"current_range_meters":20000,"station_id":"ce4bhah2rcd13ifvqej0","pricing_plan_id":"cebpf4jnsgd1na2vs0mg"},{"bike_id":"7283ede7-2482-4312-bae1-fc25f74d967c","system_id":"levelo_inurba_marseille","lat":43.286593,"lon":5.363346,"is_reserved":false,"is_disabled":false,"rental_uris":{"android":"levelo://app?vid=7283ede7-2482-4312-bae1-fc25f74d967c","ios":"levelo://app?vid=7283ede7-2482-4312-bae1-fc25f74d967c"},"vehicle_type_id":"4","last_reported":1719083317,"current_range_meters":30800,"station_id":"ce4bhah2rcd13ifvqej0","pricing_plan_id":"cebpf4jnsgd1na2vs0mg"},{"bike_id":"7f5233a0-5483-4376-913e-610c7cf0cb3f","system_id":"levelo_inurba_marseille","lat":43.286961,"lon":5.373785,"is_reserved":false,"is_disabled":false,"rental_uris":{"android":"levelo://app?vid=7f5233a0-5483-4376-913e-610c7cf0cb3f","ios":"levelo://app?vid=7f5233a0-5483-4376-913e-610c7cf0cb3f"},"vehicle_type_id":"4","last_reported":1719083317,"current_range_meters":8400,"station_id":"ce4bh3p2rcd13ifvqdq0","pricing_plan_id":"cebpf4jnsgd1na2vs0mg"},{"bike_id":"c21714e2-ebdf-411c-ba73-049d857bba31","system_id":"levelo_inurba_marseille","lat":43.286961,"lon":5.373785,"is_reserved":false,"is_disabled":false,"rental_uris":{"android":"levelo://app?vid=c21714e2-ebdf-411c-ba73-049d857bba31","ios":"levelo://app?vid=c21714e2-ebdf-411c-ba73-049d857bba31"},"vehicle_type_id":"4","last_reported":1719083317,"current_range_meters":27200,"station_id":"ce4bh3p2rcd13ifvqdq0","pricing_plan_id":"cebpf4jnsgd1na2vs0mg"},{"bike_id":"25eaca8d-48cb-4b0a-82b8-d761cc369013","system_id":"levelo_inurba_marseille","lat":43.289307,"lon":5.38406,"is_reserved":false,"is_disabled":false,"rental_uris":{"android":"levelo://app?vid=25eaca8d-48cb-4b0a-82b8-d761cc369013","ios":"levelo://app?vid=25eaca8d-48cb-4b0a-82b8-d761cc369013"},"vehicle_type_id":"4","last_reported":1719083317,"current_range_meters":26400,"station_id":"ce4bh612rcd13ifvqe6g","pricing_plan_id":"cebpf4jnsgd1na2vs0mg"},{"bike_id":"85e862da-7a40-4f78-9ec2-1fae56aea691","system_id":"levelo_inurba_marseille","lat":43.283998,"lon":5.375062,"is_reserved":false,"is_disabled":false,"rental_uris":{"android":"levelo://app?vid=85e862da-7a40-4f78-9ec2-1fae56aea691","ios":"levelo://app?vid=85e862da-7a40-4f78-9ec2-1fae56aea691"},"vehicle_type_id":"4","last_reported":1719083317,"current_range_meters":7200,"station_id":"ce4bh412rcd13ifvqds0","pricing_plan_id":"cebpf4jnsgd1na2vs0mg"},{"bike_id":"587360f2-f492-4893-8388-af97b6c1bc18","system_id":"levelo_inurba_marseille","lat":43.290345,"lon":5.38646,"is_reserved":false,"is_disabled":false,"rental_uris":{"android":"levelo://app?vid=587360f2-f492-4893-8388-af97b6c1bc18","ios":"levelo://app?vid=587360f2-f492-4893-8388-af97b6c1bc18"},"vehicle_type_id":"4","last_reported":1719083317,"current_range_meters":8400,"station_id":"ce4bh4p2rcd13ifvqe0g","pricing_plan_id":"cebpf4jnsgd1na2vs0mg"},{"bike_id":"2fd3fbfd-d214-4ca8-9215-fe94bdf03128","system_id":"levelo_inurba_marseille","lat":43.290345,"lon":5.38646,"is_reserved":false,"is_disabled":false,"rental_uris":{"android":"levelo://app?vid=2fd3fbfd-d214-4ca8-9215-fe94bdf03128","ios":"levelo://app?vid=2fd3fbfd-d214-4ca8-9215-fe94bdf03128"},"vehicle_type_id":"4","last_reported":1719083317,"current_range_meters":4800,"station_id":"ce4bh4p2rcd13ifvqe0g","pricing_plan_id":"cebpf4jnsgd1na2vs0mg"},{"bike_id":"3bf6a8e4-9a95-4a60-ae01-fd0d960b9f12","system_id":"levelo_inurba_marseille","lat":43.290345,"lon":5.38646,"is_reserved":false,"is_disabled":false,"rental_uris":{"android":"levelo://app?vid=3bf6a8e4-9a95-4a60-ae01-fd0d960b9f12","ios":"levelo://app?vid=3bf6a8e4-9a95-4a60-ae01-fd0d960b9f12"},"vehicle_type_id":"4","last_reported":1719083317,"current_range_meters":12800,"station_id":"ce4bh4p2rcd13ifvqe0g","pricing_plan_id":"cebpf4jnsgd1na2vs0mg"},{"bike_id":"29136205-0d7c-4011-aa85-f7d851953d60","system_id":"levelo_inurba_marseille","lat":43.289307,"lon":5.38406,"is_reserved":false,"is_disabled":false,"rental_uris":{"android":"levelo://app?vid=29136205-0d7c-4011-aa85-f7d851953d60","ios":"levelo://app?vid=29136205-0d7c-4011-aa85-f7d851953d60"},"vehicle_type_id":"4","last_reported":1719083317,"current_range_meters":29600,"station_id":"ce4bh612rcd13ifvqe6g","pricing_plan_id":"cebpf4jnsgd1na2vs0mg"},