{"last_updated":1707332725,"ttl":30,"version":"2.2","data":{"bikes":[{"bike_id":"b758eba2-6110-4cb4-ba9e-b0df102a3255","system_id":"levelo_inurba_marseille","lat":43.31341,"lon":5.367098,"is_reserved":false,"is_disabled":false,"rental_uris":{"android":"levelo://app?vid=b758eba2-6110-4cb4-ba9e-b0df102a3255","ios":"levelo://app?vid=b758eba2-6110-4cb4-ba9e-b0df102a3255"},"vehicle_type_id":"4","last_reported":1707332725,"current_range_meters":30800,"station_id":"ce4bgr92rcd13ifvqc6g","pricing_plan_id":"free"},{"bike_id":"7635d16f-a69a-4678-84b4-e7f8c42cd67f","system_id":"levelo_inurba_marseille","lat":43.312239,"lon":5.368562,"is_reserved":false,"is_disabled":false,"rental_uris":{"android":"levelo://app?vid=7635d16f-a69a-4678-84b4-e7f8c42cd67f","ios":"levelo://app?vid=7635d16f-a69a-4678-84b4-e7f8c42cd67f"},"vehicle_type_id":"4","last_reported":1707332725,"current_range_meters":17600,"station_id":"ce4bgl92rcd13ifvqbq0","pricing_plan_id":"free"},{"bike_id":"1b099b18-0eef-4bfe-8e5f-128f4fbc7b02","system_id":"levelo_inurba_marseille","lat":43.314811,"lon":5.373103,"is_reserved":false,"is_disabled":false,"rental_uris":{"android":"levelo://app?vid=1b099b18-0eef-4bfe-8e5f-128f4fbc7b02","ios":"levelo://app?vid=1b099b18-0eef-4bfe-8e5f-128f4fbc7b02"},"vehicle_type_id":"4","last_reported":1707332725,"current_range_meters":5600,"station_id":"ce4bgt12rcd13ifvqcd0","pricing_plan_id":"free"},{"bike_id":"3d12ced6-1e13-4df3-9e7b-139b5d793f3e","system_id":"levelo_inurba_marseille","lat":43.309039,"lon":5.371797,"is_reserved":false,"is_disabled":false,"rental_uris":{"android":"levelo://app?vid=3d12ced6-1e13-4df3-9e7b-139b5d793f3e","ios":"levelo://app?vid=3d12ced6-1e13-4df3-9e7b-139b5d793f3e"},"vehicle_type_id":"4","last_reported":1707332725,"current_range_meters":6800,"station_id":"ce4bguh2rcd13ifvqckg","pricing_plan_id":"free"},{"bike_id":"256b7bcd-b8fa-4e45-a8df-9a1c11a1d5de","system_id":"levelo_inurba_marseille","lat":43.311125,"lon":5.377624,"is_reserved":false,"is_disabled":false,"rental_uris":{"android":"levelo://app?vid=256b7bcd-b8fa-4e45-a8df-9a1c11a1d5de","ios":"levelo://app?vid=256b7bcd-b8fa-4e45-a8df-9a1c11a1d5de"},"vehicle_type_id":"4","last_reported":1707332725,"current_range_meters":17200,"station_id":"ce4bgt92rcd13ifvqcg0","pricing_plan_id":"free"},{"bike_id":"1e694d10-4192-4f11-9e28-e5f50ea47a4f","system_id":"levelo_inurba_marseille","lat":43.311131,"lon":5.377651,"is_reserved":false,"is_disabled":false,"rental_uris":{"android":"levelo://app?vid=1e694d10-4192-4f11-9e28-e5f50ea47a4f","ios":"levelo://app?vid=1e694d10-4192-4f11-9e28-e5f50ea47a4f"},"vehicle_type_id":"4","last_reported":1707332725,"current_range_meters":31200,"station_id":"ce4bgt92rcd13ifvqcg0","pricing_plan_id":"free"},{"bike_id":"a9ff46f1-653b-4737-abb3-02631b035bbc","system_id":"levelo_inurba_marseille","lat":43.31902,"lon":5.37365,"is_reserved":false,"is_disabled":false,"rental_uris":{"android":"levelo://app?vid=a9ff46f1-653b-4737-abb3-02631b035bbc","ios":"levelo://app?vid=a9ff46f1-653b-4737-abb3-02631b035bbc"},"vehicle_type_id":"4","last_reported":1707332725,"current_range_meters":0,"station_id":"","pricing_plan_id":"free"},{"bike_id":"244ac516-0a64-4437-950f-4fd6793450d2","system_id":"levelo_inurba_marseille","lat":43.311125,"lon":5.377624,"is_reserved":false,"is_disabled":false,"rental_uris":{"android":"levelo://app?vid=244ac516-0a64-4437-950f-4fd6793450d2","ios":"levelo://app?vid=244ac516-0a64-4437-950f-4fd6793450d2"},"vehicle_type_id":"4","last_reported":1707332725,"current_range_meters":30400,"station_id":"ce4bgt92rcd13ifvqcg0","pricing_plan_id":"free"},{"bike_id":"916c5055-58ec-43d1-ab9f-50869e99f140","system_id":"levelo_inurba_marseille","lat":43.311125,"lon":5.377624,"is_reserved":false,"is_disabled":false,"rental_uris":{"android":"levelo://app?vid=916c5055-58ec-43d1-ab9f-50869e99f140","ios":"levelo://app?vid=916c5055-58ec-43d1-ab9f-50869e99f140"},"vehicle_type_id":"4","last_reported":1707332725,"current_range_meters":26000,"station_id":"ce4bgt92rcd13ifvqcg0","pricing_plan_id":"free"},{"bike_id":"f075ca9c-2ce1-4f8f-8241-8c30d0c592bd","system_id":"levelo_inurba_marseille","lat":43.311131,"lon":5.377651,"is_reserved":false,"is_disabled":false,"rental_uris":{"android":"levelo://app?vid=f075ca9c-2ce1-4f8f-8241-8c30d0c592bd","ios":"levelo://app?vid=f075ca9c-2ce1-4f8f-8241-8c30d0c592bd"},"vehicle_type_id":"4","last_reported":1707332725,"current_range_meters":26000,"station_id":"ce4bgt92rcd13ifvqcg0","pricing_plan_id":"free"},{"bike_id":"783a08dd-d18a-46b6-b24d-5df7c2ca626a","system_id":"levelo_inurba_marseille","lat":43.31122,"lon":5.377705,"is_reserved":false,"is_disabled":false,"rental_uris":{"android":"levelo://app?vid=783a08dd-d18a-46b6-b24d-5df7c2ca626a","ios":"levelo://app?vid=783a08dd-d18a-46b6-b24d-5df7c2ca626a"},"vehicle_type_id":"4","last_reported":1707332725,"current_range_meters":30000,"station_id":"ce4bgt92rcd13ifvqcg0","pricing_plan_id":"free"},{"bike_id":"75123130-b3bb-4099-ad9c-214be5b3d3b4","system_id":"levelo_inurba_marseille","lat":43.311131,"lon":5.377651,"is_reserved":false,"is_disabled":false,"rental_uris":{"android":"levelo://app?vid=75123130-b3bb-4099-ad9c-214be5b3d3b4","ios":"levelo://app?vid=75123130-b3bb-4099-ad9c-214be5b3d3b4"},"vehicle_type_id":"4","last_reported":1707332725,"current_range_meters":23200,"station_id":"ce4bgt92rcd13ifvqcg0","pricing_plan_id":"free"},{"bike_id":"26f727fb-8aae-447b-8089-322bd437378f","system_id":"levelo_inurba_marseille","lat":43.311131,"lon":5.377651,"is_reserved":false,"is_disabled":false,"rental_uris":{"android":"levelo://app?vid=26f727fb-8aae-447b-8089-322bd437378f","ios":"levelo://app?vid=26f727fb-8aae-447b-8089-322bd437378f"},"vehicle_type_id":"4","last_reported":1707332725,"current_range_meters":18800,"station_id":"ce4bgt92rcd13ifvqcg0","pricing_plan_id":"free"},{"bike_id":"8ed1f705-5b3c-47c5-84ff-b17b4bb12ed3","system_id":"levelo_inurba_marseille","lat":43.311131,"lon":5.377651,"is_reserved":false,"is_disabled":false,"rental_uris":{"android":"levelo://app?vid=8ed1f705-5b3c-47c5-84ff-b17b4bb12ed3","ios":"levelo://app?vid=8ed1f705-5b3c-47c5-84ff-b17b4bb12ed3"},"vehicle_type_id":"4","last_reported":1707332725,"current_range_meters":22000,"station_id":"ce4bgt92rcd13ifvqcg0","pricing_plan_id":"free"},{"bike_id":"f0b73710-61ad-49ff-954a-f1ca710e2d23","system_id":"levelo_inurba_marseille","lat":43.30787,"lon":5.37659,"is_reserved":false,"is_disabled":false,"rental_uris":{"android":"levelo://app?vid=f0b73710-61ad-49ff-954a-f1ca710e2d23","ios":"levelo://app?vid=f0b73710-61ad-49ff-954a-f1ca710e2d23"},"vehicle_type_id":"4","last_reported":1707332725,"current_range_meters":0,"station_id":"ce4bgv92rcd13ifvqcq0","pricing_plan_id":"free"},{"bike_id":"ca4da389-eb18-4409-ae97-d7878edd51a8","system_id":"levelo_inurba_marseille","lat":43.317075,"lon":5.377367,"is_reserved":false,"is_disabled":false,"rental_uris":{"android":"levelo://app?vid=ca4da389-eb18-4409-ae97-d7878edd51a8","ios":"levelo://app?vid=ca4da389-eb18-4409-ae97-d7878edd51a8"},"vehicle_type_id":"4","last_reported":1707332725,"current_range_meters":10000,"station_id":"ce4bgth2rcd13ifvqch0","pricing_plan_id":"free"},{"bike_id":"868abe45-9710-45f6-bc4f-ba8b889bfecd","system_id":"levelo_inurba_marseille","lat":43.317075,"lon":5.377367,"is_reserved":false,"is_disabled":false,"rental_uris":{"android":"levelo://app?vid=868abe45-9710-45f6-bc4f-ba8b889bfecd","ios":"levelo://app?vid=868abe45-9710-45f6-bc4f-ba8b889bfecd"},"vehicle_type_id":"4","last_reported":1707332725,"current_range_meters":31600,"station_id":"ce4bgth2rcd13ifvqch0","pricing_plan_id":"free"},{"bike_id":"323cc24f-0a93-4e30-987d-1b63aeb146b6","system_id":"levelo_inurba_marseille","lat":43.317075,"lon":5.377367,"is_reserved":false,"is_disabled":false,"rental_uris":{"android":"levelo://app?vid=323cc24f-0a93-4e30-987d-1b63aeb146b6","ios":"levelo://app?vid=323cc24f-0a93-4e30-987d-1b63aeb146b6"},"vehicle_type_id":"4","last_reported":1707332725,"current_range_meters":27600,"station_id":"ce4bgth2rcd13ifvqch0","pricing_plan_id":"free"},{"bike_id":"647857c9-134c-4f4e-abbd-ef55832b93da","system_id":"levelo_inurba_marseille","lat":43.317075,"lon":5.377367,"is_reserved":false,"is_disabled":false,"rental_uris":{"android":"levelo://app?vid=647857c9-134c-4f4e-abbd-ef55832b93da","ios":"levelo://app?vid=647857c9-134c-4f4e-abbd-ef55832b93da"},"vehicle_type_id":"4","last_reported":1707332725,"current_range_meters":31200,"station_id":"ce4bgth2rcd13ifvqch0","pricing_plan_id":"free"},{"bike_id":"77c56c26-358c-40bf-89d6-fd80c1465d49","system_id":"levelo_inurba_marseille","lat":43.317075,"lon":5.377367,"is_reserved":false,"is_disabled":false,"rental_uris":{"android":"levelo://app?vid=77c56c26-358c-40bf-89d6-fd80c1465d49","ios":"levelo://app?vid=77c56c26-358c-40bf-89d6-fd80c1465d49"},"vehicle_type_id":"4","last_reported":1707332725,"current_range_meters":26800,"station_id":"ce4bgth2rcd13ifvqch0","pricing_plan_id":"free"},{"bike_id":"77bd4f31-8633-48d5-b1a8-51bec2810ccc","system_id":"levelo_inurba_marseille","lat":43.317075,"lon":5.377367,"is_reserved":false,"is_disabled":false,"rental_uris":{"android":"levelo://app?vid=77bd4f31-8633-48d5-b1a8-51bec2810ccc","ios":"levelo://app?vid=77bd4f31-8633-48d5-b1a8-51bec2810ccc"},"vehicle_type_id":"4","last_reported":1707332725,"current_range_meters":22800,"station_id":"ce4bgth2rcd13ifvqch0","pricing_plan_id":"free"},{"bike_id":"dca02982-a8ca-4f8f-99aa-c4c50c3dc6cf","system_id":"levelo_inurba_marseille","lat":43.322256,"lon":5.368749,"is_reserved":false,"is_disabled":false,"rental_uris":{"android":"levelo://app?vid=dca02982-a8ca-4f8f-99aa-c4c50c3dc6cf","ios":"levelo://app?vid=dca02982-a8ca-4f8f-99aa-c4c50c3dc6cf"},"vehicle_type_id":"4","last_reported":1707332725,"current_range_meters":29600,"station_id":"","pricing_plan_id":"free"},{"bike_id":"17a82f80-4867-43c1-95f7-77649d07b813","system_id":"levelo_inurba_marseille","lat":43.315293,"lon":5.380372,"is_reserved":false,"is_disabled":false,"rental_uris":{"android":"levelo://app?vid=17a82f80-4867-43c1-95f7-77649d07b813","ios":"levelo://app?vid=17a82f80-4867-43c1-95f7-77649d07b813"},"vehicle_type_id":"4","last_reported":1707332725,"current_range_meters":28800,"station_id":"","pricing_plan_id":"free"},{"bike_id":"c3b775c4-e14e-4ab3-93e9-db305b00e1dd","system_id":"levelo_inurba_marseille","lat":43.315293,"lon":5.380349,"is_reserved":false,"is_disabled":false,"rental_uris":{"android":"levelo://app?vid=c3b775c4-e14e-4ab3-93e9-db305b00e1dd","ios":"levelo://app?vid=c3b775c4-e14e-4ab3-93e9-db305b00e1dd"},"vehicle_type_id":"4","last_reported":1707332725,"current_range_meters":26000,"station_id":"ce4bhsp2rcd13ifvqi50","pricing_plan_id":"free"},{"bike_id":"07c7ed2e-f649-416e-86c8-cddcd47bc029","system_id":"levelo_inurba_marseille","lat":43.301939,"lon":5.366286,"is_reserved":false,"is_disabled":false,"rental_uris":{"android":"levelo://app?vid=07c7ed2e-f649-416e-86c8-cddcd47bc029","ios":"levelo://app?vid=07c7ed2e-f649-416e-86c8-cddcd47bc029"},"vehicle_type_id":"4","last_reported":1707332725,"current_range_meters":26400,"station_id":"ce4bgrh2rcd13ifvqc8g","pricing_plan_id":"free"},{"bike_id":"bdaf6489-b236-4785-a8b6-1cc835b36eb8","system_id":"levelo_inurba_marseille","lat":43.301939,"lon":5.366286,"is_reserved":false,"is_disabled":false,"rental_uris":{"android":"levelo://app?vid=bdaf6489-b236-4785-a8b6-1cc835b36eb8","ios":"levelo://app?vid=bdaf6489-b236-4785-a8b6-1cc835b36eb8"},"vehicle_type_id":"4","last_reported":1707332725,"current_range_meters":20400,"station_id":"ce4bgrh2rcd13ifvqc8g","pricing_plan_id":"free"},{"bike_id":"36214bf8-b22e-4055-9f67-479c5de35cb6","system_id":"levelo_inurba_marseille","lat":43.308,"lon":5.38143,"is_reserved":false,"is_disabled":false,"rental_uris":{"android":"levelo://app?vid=36214bf8-b22e-4055-9f67-479c5de35cb6","ios":"levelo://app?vid=36214bf8-b22e-4055-9f67-479c5de35cb6"},"vehicle_type_id":"4","last_reported":1707332725,"current_range_meters":22800,"station_id":"ce4bgt12rcd13ifvqce0","pricing_plan_id":"free"},{"bike_id":"8893b99c-e097-425b-96ea-5b4951ce813c","system_id":"levelo_inurba_marseille","lat":43.30805,"lon":5.38147,"is_reserved":false,"is_disabled":false,"rental_uris":{"android":"levelo://app?vid=8893b99c-e097-425b-96ea-5b4951ce813c","ios":"levelo://app?vid=8893b99c-e097-425b-96ea-5b4951ce813c"},"vehicle_type_id":"4","last_reported":1707332725,"current_range_meters":4800,"station_id":"","pricing_plan_id":"free"},{"bike_id":"6b4af5c7-66fa-4394-9f63-65a4ff6e1859","system_id":"levelo_inurba_marseille","lat":43.308012,"lon":5.381511,"is_reserved":false,"is_disabled":false,"rental_uris":{"android":"levelo://app?vid=6b4af5c7-66fa-4394-9f63-65a4ff6e1859","ios":"levelo://app?vid=6b4af5c7-66fa-4394-9f63-65a4ff6e1859"},"vehicle_type_id":"4","last_reported":1707332725,"current_range_meters":10400,"station_id":"ce4bgt12rcd13ifvqce0","pricing_plan_id":"free"},{"bike_id":"b955a4d6-fb02-453c-a96a-8f4abafcb31f","system_id":"levelo_inurba_marseille","lat":43.307983,"lon":5.381507,"is_reserved":false,"is_disabled":false,"rental_uris":{"android":"levelo://app?vid=b955a4d6-fb02-453c-a96a-8f4abafcb31f","ios":"levelo://app?vid=b955a4d6-fb02-453c-a96a-8f4abafcb31f"},"vehicle_type_id":"4","last_reported":1707332725,"current_range_meters":13200,"station_id":"ce4bgt12rcd13ifvqce0","pricing_plan_id":"free"},{"bike_id":"b6d5a2fb-b6f9-41f7-b40d-d7ebccbeac74","system_id":"levelo_inurba_marseille","lat":43.30804,"lon":5.38158,"is_reserved":false,"is_disabled":false,"rental_uris":{"android":"levelo://app?vid=b6d5a2fb-b6f9-41f7-b40d-d7ebccbeac74","ios":"levelo://app?vid=b6d5a2fb-b6f9-41f7-b40d-d7ebccbeac74"},"vehicle_type_id":"4","last_reported":1707332725,"current_range_meters":12000,"station_id":"ce4bgt12rcd13ifvqce0","pricing_plan_id":"free"},{"bike_id":"749f056f-595a-4ae2-9a9a-e3ab7165006c","system_id":"levelo_inurba_marseille","lat":43.308012,"lon":5.381511,"is_reserved":false,"is_disabled":false,"rental_uris":{"android":"levelo://app?vid=749f056f-595a-4ae2-9a9a-e3ab7165006c","ios":"levelo://app?vid=749f056f-595a-4ae2-9a9a-e3ab7165006c"},"vehicle_type_id":"4","last_reported":1707332725,"current_range_meters":9600,"station_id":"ce4bgt12rcd13ifvqce0","pricing_plan_id":"free"},{"bike_id":"376260b1-8cfb-4be2-9495-fd13a4bdf26e","system_id":"levelo_inurba_marseille","lat":43.30801,"lon":5.38159,"is_reserved":false,"is_disabled":false,"rental_uris":{"android":"levelo://app?vid=376260b1-8cfb-4be2-9495-fd13a4bdf26e","ios":"levelo://app?vid=376260b1-8cfb-4be2-9495-fd13a4bdf26e"},"vehicle_type_id":"4","last_reported":1707332725,"current_range_meters":4400,"station_id":"ce4bgt12rcd13ifvqce0","pricing_plan_id":"free"},{"bike_id":"4fa081f0-aed2-4d07-8bf8-d2180542e185","system_id":"levelo_inurba_marseille","lat":43.308012,"lon":5.381511,"is_reserved":false,"is_disabled":false,"rental_uris":{"android":"levelo://app?vid=4fa081f0-aed2-4d07-8bf8-d2180542e185","ios":"levelo://app?vid=4fa081f0-aed2-4d07-8bf8-d2180542e185"},"vehicle_type_id":"4","last_reported":1707332725,"current_range_meters":18800,"station_id":"ce4bgt12rcd13ifvqce0","pricing_plan_id":"free"},{"bike_id":"6388d5ab-f4a7-4a75-a816-2d8a4b5cd76c","system_id":"levelo_inurba_marseille","lat":43.308012,"lon":5.381511,"is_reserved":false,"is_disabled":false,"rental_uris":{"android":"levelo://app?vid=6388d5ab-f4a7-4a75-a816-2d8a4b5cd76c","ios":"levelo://app?vid=6388d5ab-f4a7-4a75-a816-2d8a4b5cd76c"},"vehicle_type_id":"4","last_reported":1707332725,"current_range_meters":31600,"station_id":"ce4bgt12rcd13ifvqce0","pricing_plan_id":"free"},{"bike_id":"8cc9eb98-97cb-41a9-9276-144a79a61e69","system_id":"levelo_inurba_marseille","lat":43.30795,"lon":5.38162,"is_reserved":false,"is_disabled":false,"rental_uris":{"android":"levelo://app?vid=8cc9eb98-97cb-41a9-9276-144a79a61e69","ios":"levelo://app?vid=8cc9eb98-97cb-41a9-9276-144a79a61e69"},"vehicle_type_id":"4","last_reported":1707332725,"current_range_meters":14000,"station_id":"ce4bgt12rcd13ifvqce0","pricing_plan_id":"free"},{"bike_id":"d534a4f4-0dc9-4555-ac81-dcd469f4146c","system_id":"levelo_inurba_marseille","lat":43.308012,"lon":5.381511,"is_reserved":false,"is_disabled":false,"rental_uris":{"android":"levelo://app?vid=d534a4f4-0dc9-4555-ac81-dcd469f4146c","ios":"levelo://app?vid=d534a4f4-0dc9-4555-ac81-dcd469f4146c"},"vehicle_type_id":"4","last_reported":1707332725,"current_range_meters":14000,"station_id":"ce4bgt12rcd13ifvqce0","pricing_plan_id":"free"},{"bike_id":"d3bbaa1c-bd42-4480-83af-1675f959224a","system_id":"levelo_inurba_marseille","lat":43.32268,"lon":5.37605,"is_reserved":false,"is_disabled":false,"rental_uris":{"android":"levelo://app?vid=d3bbaa1c-bd42-4480-83af-1675f959224a","ios":"levelo://app?vid=d3bbaa1c-bd42-4480-83af-1675f959224a"},"vehicle_type_id":"4","last_reported":1707332725,"current_range_meters":15600,"station_id":"","pricing_plan_id":"free"},{"bike_id":"fbb4b2d4-8920-427a-8e7c-a5e500e14af9","system_id":"levelo_inurba_marseille","lat":43.304606,"lon":5.379026,"is_reserved":false,"is_disabled":false,"rental_uris":{"android":"levelo://app?vid=fbb4b2d4-8920-427a-8e7c-a5e500e14af9","ios":"levelo://app?vid=fbb4b2d4-8920-427a-8e7c-a5e500e14af9"},"vehicle_type_id":"4","last_reported":1707332725,"current_range_meters":2800,"station_id":"ce4bgup2rcd13ifvqcn0","pricing_plan_id":"free"},{"bike_id":"4dd495f9-40ef-4504-9881-1338142049ef","system_id":"levelo_inurba_marseille","lat":43.304606,"lon":5.379026,"is_reserved":false,"is_disabled":false,"rental_uris":{"android":"levelo://app?vid=4dd495f9-40ef-4504-9881-1338142049ef","ios":"levelo://app?vid=4dd495f9-40ef-4504-9881-1338142049ef"},"vehicle_type_id":"4","last_reported":1707332725,"current_range_meters":13600,"station_id":"ce4bgup2rcd13ifvqcn0","pricing_plan_id":"free"},{"bike_id":"5e3f4117-bf71-4295-8fac-b33a9c44e6b6","system_id":"levelo_inurba_marseille","lat":43.324771,"lon":5.36557,"is_reserved":false,"is_disabled":false,"rental_uris":{"android":"levelo://app?vid=5e3f4117-bf71-4295-8fac-b33a9c44e6b6","ios":"levelo://app?vid=5e3f4117-bf71-4295-8fac-b33a9c44e6b6"},"vehicle_type_id":"4","last_reported":1707332725,"current_range_meters":19200,"station_id":"ce4bhs12rcd13ifvqhvg","pricing_plan_id":"free"},{"bike_id":"97f71f75-d414-4d74-9636-20377fab8590","system_id":"levelo_inurba_marseille","lat":43.324771,"lon":5.36557,"is_reserved":false,"is_disabled":false,"rental_uris":{"android":"levelo://app?vid=97f71f75-d414-4d74-9636-20377fab8590","ios":"levelo://app?vid=97f71f75-d414-4d74-9636-20377fab8590"},"vehicle_type_id":"4","last_reported":1707332725,"current_range_meters":26800,"station_id":"ce4bhs12rcd13ifvqhvg","pricing_plan_id":"free"},{"bike_id":"91c66a19-a3c7-49c3-af5d-2beaa8d69313","system_id":"levelo_inurba_marseille","lat":43.324771,"lon":5.36557,"is_reserved":false,"is_disabled":false,"rental_uris":{"android":"levelo://app?vid=91c66a19-a3c7-49c3-af5d-2beaa8d69313","ios":"levelo://app?vid=91c66a19-a3c7-49c3-af5d-2beaa8d69313"},"vehicle_type_id":"4","last_reported":1707332725,"current_range_meters":14400,"station_id":"ce4bhs12rcd13ifvqhvg","pricing_plan_id":"free"},{"bike_id":"ba0fed93-7a86-4764-aa80-c77a5bb205b3","system_id":"levelo_inurba_marseille","lat":43.302784,"lon":5.377158,"is_reserved":false,"is_disabled":false,"rental_uris":{"android":"levelo://app?vid=ba0fed93-7a86-4764-aa80-c77a5bb205b3","ios":"levelo://app?vid=ba0fed93-7a86-4764-aa80-c77a5bb205b3"},"vehicle_type_id":"4","last_reported":1707332725,"current_range_meters":17600,"station_id":"ce4bguh2rcd13ifvqcj0","pricing_plan_id":"free"},{"bike_id":"740003d4-55d5-4974-b418-57fb3f4d1ce4","system_id":"levelo_inurba_marseille","lat":43.31998,"lon":5.38159,"is_reserved":false,"is_disabled":false,"rental_uris":{"android":"levelo://app?vid=740003d4-55d5-4974-b418-57fb3f4d1ce4","ios":"levelo://app?vid=740003d4-55d5-4974-b418-57fb3f4d1ce4"},"vehicle_type_id":"4","last_reported":1707332725,"current_range_meters":17200,"station_id":"ce4bhr12rcd13ifvqhpg","pricing_plan_id":"free"},{"bike_id":"3ef9e098-f523-456e-bb71-217f46f572ba","system_id":"levelo_inurba_marseille","lat":43.313571,"lon":5.384829,"is_reserved":false,"is_disabled":false,"rental_uris":{"android":"levelo://app?vid=3ef9e098-f523-456e-bb71-217f46f572ba","ios":"levelo://app?vid=3ef9e098-f523-456e-bb71-217f46f572ba"},"vehicle_type_id":"4","last_reported":1707332725,"current_range_meters":4800,"station_id":"ce4bgt92rcd13ifvqcf0","pricing_plan_id":"free"},{"bike_id":"cbd70567-7dad-4294-bbf0-7f71df06fea6","system_id":"levelo_inurba_marseille","lat":43.313571,"lon":5.384829,"is_reserved":false,"is_disabled":false,"rental_uris":{"android":"levelo://app?vid=cbd70567-7dad-4294-bbf0-7f71df06fea6","ios":"levelo://app?vid=cbd70567-7dad-4294-bbf0-7f71df06fea6"},"vehicle_type_id":"4","last_reported":1707332725,"current_range_meters":23200,"station_id":"ce4bgt92rcd13ifvqcf0","pricing_plan_id":"free"},{"bike_id":"23a28653-5113-493a-9e04-8bfdf1e44557","system_id":"levelo_inurba_marseille","lat":43.313571,"lon":5.384829,"is_reserved":false,"is_disabled":false,"rental_uris":{"android":"levelo://app?vid=23a28653-5113-493a-9e04-8bfdf1e44557","ios":"levelo://app?vid=23a28653-5113-493a-9e04-8bfdf1e44557"},"vehicle_type_id":"4","last_reported":1707332725,"current_range_meters":18400,"station_id":"ce4bgt92rcd13ifvqcf0","pricing_plan_id":"free"},{"bike_id":"d1627e1f-ceeb-4e27-9148-e8535ad39fb5","system_id":"levelo_inurba_marseille","lat":43.313678,"lon":5.384942,"is_reserved":false,"is_disabled":false,"rental_uris":{"android":"levelo://app?vid=d1627e1f-ceeb-4e27-9148-e8535ad39fb5","ios":"levelo://app?vid=d1627e1f-ceeb-4e27-9148-e8535ad39fb5"},"vehicle_type_id":"4","last_reported":1707332725,"current_range_meters":19600,"station_id":"ce4bgt92rcd13ifvqcf0","pricing_plan_id":"free"},{"bike_id":"a15b589b-1f0d-4b29-b945-5c2b3d09fb10","system_id":"levelo_inurba_marseille","lat":43.304606,"lon":5.379026,"is_reserved":false,"is_disabled":false,"rental_uris":{"android":"levelo://app?vid=a15b589b-1f0d-4b29-b945-5c2b3d09fb10","ios":"levelo://app?vid=a15b589b-1f0d-4b29-b945-5c2b3d09fb10"},"vehicle_type_id":"4","last_reported":1707332725,"current_range_meters":800,"station_id":"ce4bgup2rcd13ifvqcn0","pricing_plan_id":"free"},{"bike_id":"46568528-04d4-48cb-9de6-238cb8687882","system_id":"levelo_inurba_marseille","lat":43.299222,"lon":5.365554,"is_reserved":false,"is_disabled":false,"rental_uris":{"android":"levelo://app?vid=46568528-04d4-48cb-9de6-238cb8687882","ios":"levelo://app?vid=46568528-04d4-48cb-9de6-238cb8687882"},"vehicle_type_id":"4","last_reported":1707332725,"current_range_meters":14400,"station_id":"ce4bgm92rcd13ifvqbr0","pricing_plan_id":"free"},{"bike_id":"5631b8fb-95e2-41c3-bbb3-c4115e20767a","system_id":"levelo_inurba_marseille","lat":43.299222,"lon":5.365554,"is_reserved":false,"is_disabled":false,"rental_uris":{"android":"levelo://app?vid=5631b8fb-95e2-41c3-bbb3-c4115e20767a","ios":"levelo://app?vid=5631b8fb-95e2-41c3-bbb3-c4115e20767a"},"vehicle_type_id":"4","last_reported":1707332725,"current_range_meters":22400,"station_id":"ce4bgm92rcd13ifvqbr0","pricing_plan_id":"free"},{"bike_id":"b4226fc5-6d30-4a4c-bb24-74747fe28871","system_id":"levelo_inurba_marseille","lat":43.299724,"lon":5.371829,"is_reserved":false,"is_disabled":false,"rental_uris":{"android":"levelo://app?vid=b4226fc5-6d30-4a4c-bb24-74747fe28871","ios":"levelo://app?vid=b4226fc5-6d30-4a4c-bb24-74747fe28871"},"vehicle_type_id":"4","last_reported":1707332725,"current_range_meters":2000,"station_id":"ce4bgr92rcd13ifvqc7g","pricing_plan_id":"free"},{"bike_id":"d73908e2-2bfd-489b-804e-d4e95fac72d2","system_id":"levelo_inurba_marseille","lat":43.326525,"lon":5.36078,"is_reserved":false,"is_disabled":false,"rental_uris":{"android":"levelo://app?vid=d73908e2-2bfd-489b-804e-d4e95fac72d2","ios":"levelo://app?vid=d73908e2-2bfd-489b-804e-d4e95fac72d2"},"vehicle_type_id":"4","last_reported":1707332725,"current_range_meters":9600,"station_id":"","pricing_plan_id":"free"},{"bike_id":"5caa3576-d178-4ce7-b1bb-7297cdd2ffb0","system_id":"levelo_inurba_marseille","lat":43.305364,"lon":5.384119,"is_reserved":false,"is_disabled":false,"rental_uris":{"android":"levelo://app?vid=5caa3576-d178-4ce7-b1bb-7297cdd2ffb0","ios":"levelo://app?vid=5caa3576-d178-4ce7-b1bb-7297cdd2ffb0"},"vehicle_type_id":"4","last_reported":1707332725,"current_range_meters":1200,"station_id":"ce4bgg92rcd13ifvqb30","pricing_plan_id":"free"},{"bike_id":"cd2b4c7e-2a41-4c40-8c00-ca3977ee2253","system_id":"levelo_inurba_marseille","lat":43.299243,"lon":5.374807,"is_reserved":false,"is_disabled":false,"rental_uris":{"android":"levelo://app?vid=cd2b4c7e-2a41-4c40-8c00-ca3977ee2253","ios":"levelo://app?vid=cd2b4c7e-2a41-4c40-8c00-ca3977ee2253"},"vehicle_type_id":"4","last_reported":1707332725,"current_range_meters":15200,"station_id":"ce4bgjh2rcd13ifvqbg0","pricing_plan_id":"free"},{"bike_id":"867a7e36-d153-4291-a21e-34b84c500fb4","system_id":"levelo_inurba_marseille","lat":43.298433,"lon":5.362774,"is_reserved":false,"is_disabled":false,"rental_uris":{"android":"levelo://app?vid=867a7e36-d153-4291-a21e-34b84c500fb4","ios":"levelo://app?vid=867a7e36-d153-4291-a21e-34b84c500fb4"},"vehicle_type_id":"4","last_reported":1707332725,"current_range_meters":31200,"station_id":"ce4bgpp2rcd13ifvqc3g","pricing_plan_id":"free"},{"bike_id":"a8d2d21b-3427-4f6e-87ef-988bc6839881","system_id":"levelo_inurba_marseille","lat":43.298433,"lon":5.362774,"is_reserved":false,"is_disabled":false,"rental_uris":{"android":"levelo://app?vid=a8d2d21b-3427-4f6e-87ef-988bc6839881","ios":"levelo://app?vid=a8d2d21b-3427-4f6e-87ef-988bc6839881"},"vehicle_type_id":"4","last_reported":1707332725,"current_range_meters":31200,"station_id":"ce4bgpp2rcd13ifvqc3g","pricing_plan_id":"free"},{"bike_id":"748d70b7-618a-4e4b-a515-031cc5abb100","system_id":"levelo_inurba_marseille","lat":43.31179,"lon":5.38709,"is_reserved":false,"is_disabled":false,"rental_uris":{"android":"levelo://app?vid=748d70b7-618a-4e4b-a515-031cc5abb100","ios":"levelo://app?vid=748d70b7-618a-4e4b-a515-031cc5abb100"},"vehicle_type_id":"4","last_reported":1707332725,"current_range_meters":25200,"station_id":"ce4bgv12rcd13ifvqcp0","pricing_plan_id":"free"},{"bike_id":"497e5fba-3321-4b28-b287-02dd51180be7","system_id":"levelo_inurba_marseille","lat":43.311722,"lon":5.387247,"is_reserved":false,"is_disabled":false,"rental_uris":{"android":"levelo://app?vid=497e5fba-3321-4b28-b287-02dd51180be7","ios":"levelo://app?vid=497e5fba-3321-4b28-b287-02dd51180be7"},"vehicle_type_id":"4","last_reported":1707332725,"current_range_meters":1600,"station_id":"ce4bgv12rcd13ifvqcp0","pricing_plan_id":"free"},{"bike_id":"20f039a5-e7f6-44ae-bb7e-8299356bd2fe","system_id":"levelo_inurba_marseille","lat":43.311722,"lon":5.387247,"is_reserved":false,"is_disabled":false,"rental_uris":{"android":"levelo://app?vid=20f039a5-e7f6-44ae-bb7e-8299356bd2fe","ios":"levelo://app?vid=20f039a5-e7f6-44ae-bb7e-8299356bd2fe"},"vehicle_type_id":"4","last_reported":1707332725,"current_range_meters":2000,"station_id":"ce4bgv12rcd13ifvqcp0","pricing_plan_id":"free"},{"bike_id":"e86a9597-625e-4fec-b947-3b785d6fa235","system_id":"levelo_inurba_marseille","lat":43.299243,"lon":5.37481,"is_reserved":false,"is_disabled":false,"rental_uris":{"android":"levelo://app?vid=e86a9597-625e-4fec-b947-3b785d6fa235","ios":"levelo://app?vid=e86a9597-625e-4fec-b947-3b785d6fa235"},"vehicle_type_id":"4","last_reported":1707332725,"current_range_meters":4800,"station_id":"ce4bgjh2rcd13ifvqbg0","pricing_plan_id":"free"},{"bike_id":"06f065d6-4447-4908-bb64-be9ab3144d9a","system_id":"levelo_inurba_marseille","lat":43.299243,"lon":5.37481,"is_reserved":false,"is_disabled":false,"rental_uris":{"android":"levelo://app?vid=06f065d6-4447-4908-bb64-be9ab3144d9a","ios":"levelo://app?vid=06f065d6-4447-4908-bb64-be9ab3144d9a"},"vehicle_type_id":"4","last_reported":1707332725,"current_range_meters":3200,"station_id":"ce4bgjh2rcd13ifvqbg0","pricing_plan_id":"free"},{"bike_id":"d18e31e4-4ffb-4505-8526-6ad32d2b8284","system_id":"levelo_inurba_marseille","lat":43.322872,"lon":5.382756,"is_reserved":false,"is_disabled":false,"rental_uris":{"android":"levelo://app?vid=d18e31e4-4ffb-4505-8526-6ad32d2b8284","ios":"levelo://app?vid=d18e31e4-4ffb-4505-8526-6ad32d2b8284"},"vehicle_type_id":"4","last_reported":1707332725,"current_range_meters":28400,"station_id":"ce4bhr12rcd13ifvqhqg","pricing_plan_id":"free"},{"bike_id":"7e1b2a77-71b5-4003-b54e-450ad3f3f9d1","system_id":"levelo_inurba_marseille","lat":43.322872,"lon":5.382756,"is_reserved":false,"is_disabled":false,"rental_uris":{"android":"levelo://app?vid=7e1b2a77-71b5-4003-b54e-450ad3f3f9d1","ios":"levelo://app?vid=7e1b2a77-71b5-4003-b54e-450ad3f3f9d1"},"vehicle_type_id":"4","last_reported":1707332725,"current_range_meters":31200,"station_id":"ce4bhr12rcd13ifvqhqg","pricing_plan_id":"free"},{"bike_id":"2c3e498c-51f7-4742-8fc0-50b1b6152893","system_id":"levelo_inurba_marseille","lat":43.322872,"lon":5.382756,"is_reserved":false,"is_disabled":false,"rental_uris":{"android":"levelo://app?vid=2c3e498c-51f7-4742-8fc0-50b1b6152893","ios":"levelo://app?vid=2c3e498c-51f7-4742-8fc0-50b1b6152893"},"vehicle_type_id":"4","last_reported":1707332725,"current_range_meters":27600,"station_id":"ce4bhr12rcd13ifvqhqg","pricing_plan_id":"free"},{"bike_id":"72871506-5c8d-4246-b6ff-5c1fd4ecd534","system_id":"levelo_inurba_marseille","lat":43.322872,"lon":5.382756,"is_reserved":false,"is_disabled":false,"rental_uris":{"android":"levelo://app?vid=72871506-5c8d-4246-b6ff-5c1fd4ecd534","ios":"levelo://app?vid=72871506-5c8d-4246-b6ff-5c1fd4ecd534"},"vehicle_type_id":"4","last_reported":1707332725,"current_range_meters":19600,"station_id":"ce4bhr12rcd13ifvqhqg","pricing_plan_id":"free"},{"bike_id":"eefe6e9a-bb51-44f7-a644-f94de5a43093","system_id":"levelo_inurba_marseille","lat":43.322872,"lon":5.382756,"is_reserved":false,"is_disabled":false,"rental_uris":{"android":"levelo://app?vid=eefe6e9a-bb51-44f7-a644-f94de5a43093","ios":"levelo://app?vid=eefe6e9a-bb51-44f7-a644-f94de5a43093"},"vehicle_type_id":"4","last_reported":1707332725,"current_range_meters":24000,"station_id":"ce4bhr12rcd13ifvqhqg","pricing_plan_id":"free"},{"bike_id":"e9931e11-7f7d-405e-b611-f5c0a6974b86","system_id":"levelo_inurba_marseille","lat":43.32821,"lon":5.36687,"is_reserved":false,"is_disabled":false,"rental_uris":{"android":"levelo://app?vid=e9931e11-7f7d-405e-b611-f5c0a6974b86","ios":"levelo://app?vid=e9931e11-7f7d-405e-b611-f5c0a6974b86"},"vehicle_type_id":"4","last_reported":1707332725,"current_range_meters":8000,"station_id":"ce4bhs92rcd13ifvqi0g","pricing_plan_id":"free"},{"bike_id":"1900e2ea-9239-49b1-933e-57903fa99707","system_id":"levelo_inurba_marseille","lat":43.32826,"lon":5.36695,"is_reserved":false,"is_disabled":false,"rental_uris":{"android":"levelo://app?vid=1900e2ea-9239-49b1-933e-57903fa99707","ios":"levelo://app?vid=1900e2ea-9239-49b1-933e-57903fa99707"},"vehicle_type_id":"4","last_reported":1707332725,"current_range_meters":0,"station_id":"ce4bhs92rcd13ifvqi0g","pricing_plan_id":"free"},{"bike_id":"2c9e2bae-75ab-4fcb-a45a-bb416a6935c9","system_id":"levelo_inurba_marseille","lat":43.297163,"lon":5.365866,"is_reserved":false,"is_disabled":false,"rental_uris":{"android":"levelo://app?vid=2c9e2bae-75ab-4fcb-a45a-bb416a6935c9","ios":"levelo://app?vid=2c9e2bae-75ab-4fcb-a45a-bb416a6935c9"},"vehicle_type_id":"4","last_reported":1707332725,"current_range_meters":25200,"station_id":"ce4bgn12rcd13ifvqbt0","pricing_plan_id":"free"},{"bike_id":"47a33bc8-7e52-4c8c-b843-d318746dd21e","system_id":"levelo_inurba_marseille","lat":43.29714,"lon":5.36608,"is_reserved":false,"is_disabled":false,"rental_uris":{"android":"levelo://app?vid=47a33bc8-7e52-4c8c-b843-d318746dd21e","ios":"levelo://app?vid=47a33bc8-7e52-4c8c-b843-d318746dd21e"},"vehicle_type_id":"4","last_reported":1707332725,"current_range_meters":0,"station_id":"ce4bgn12rcd13ifvqbt0","pricing_plan_id":"free"},{"bike_id":"a32a8a31-c14a-4104-b5e3-65efbe9a2f37","system_id":"levelo_inurba_marseille","lat":43.29714,"lon":5.366,"is_reserved":false,"is_disabled":false,"rental_uris":{"android":"levelo://app?vid=a32a8a31-c14a-4104-b5e3-65efbe9a2f37","ios":"levelo://app?vid=a32a8a31-c14a-4104-b5e3-65efbe9a2f37"},"vehicle_type_id":"4","last_reported":1707332725,"current_range_meters":14000,"station_id":"ce4bgn12rcd13ifvqbt0","pricing_plan_id":"free"},{"bike_id":"c3a8472f-a94b-421f-b794-d7b1fd5b471a","system_id":"levelo_inurba_marseille","lat":43.297163,"lon":5.365866,"is_reserved":false,"is_disabled":false,"rental_uris":{"android":"levelo://app?vid=c3a8472f-a94b-421f-b794-d7b1fd5b471a","ios":"levelo://app?vid=c3a8472f-a94b-421f-b794-d7b1fd5b471a"},"vehicle_type_id":"4","last_reported":1707332725,"current_range_meters":800,"station_id":"ce4bgn12rcd13ifvqbt0","pricing_plan_id":"free"},{"bike_id":"04359a30-e6ae-4bf7-9221-b3e8c0b0c299","system_id":"levelo_inurba_marseille","lat":43.297163,"lon":5.365866,"is_reserved":false,"is_disabled":false,"rental_uris":{"android":"levelo://app?vid=04359a30-e6ae-4bf7-9221-b3e8c0b0c299","ios":"levelo://app?vid=04359a30-e6ae-4bf7-9221-b3e8c0b0c299"},"vehicle_type_id":"4","last_reported":1707332725,"current_range_meters":30000,"station_id":"ce4bgn12rcd13ifvqbt0","pricing_plan_id":"free"},{"bike_id":"6cab000d-8e7b-4b69-bb41-615e1cee47b7","system_id":"levelo_inurba_marseille","lat":43.297163,"lon":5.365866,"is_reserved":false,"is_disabled":false,"rental_uris":{"android":"levelo://app?vid=6cab000d-8e7b-4b69-bb41-615e1cee47b7","ios":"levelo://app?vid=6cab000d-8e7b-4b69-bb41-615e1cee47b7"},"vehicle_type_id":"4","last_reported":1707332725,"current_range_meters":23600,"station_id":"ce4bgn12rcd13ifvqbt0","pricing_plan_id":"free"},{"bike_id":"9a4dcd7a-1caa-43f9-87b5-3db3814d298d","system_id":"levelo_inurba_marseille","lat":43.297163,"lon":5.365866,"is_reserved":false,"is_disabled":false,"rental_uris":{"android":"levelo://app?vid=9a4dcd7a-1caa-43f9-87b5-3db3814d298d","ios":"levelo://app?vid=9a4dcd7a-1caa-43f9-87b5-3db3814d298d"},"vehicle_type_id":"4","last_reported":1707332725,"current_range_meters":24400,"station_id":"ce4bgn12rcd13ifvqbt0","pricing_plan_id":"free"},{"bike_id":"e4e5b0ce-a2f5-495b-b220-5b83695fdcd6","system_id":"levelo_inurba_marseille","lat":43.29704,"lon":5.36616,"is_reserved":false,"is_disabled":false,"rental_uris":{"android":"levelo://app?vid=e4e5b0ce-a2f5-495b-b220-5b83695fdcd6","ios":"levelo://app?vid=e4e5b0ce-a2f5-495b-b220-5b83695fdcd6"},"vehicle_type_id":"4","last_reported":1707332725,"current_range_meters":3600,"station_id":"ce4bgn12rcd13ifvqbt0","pricing_plan_id":"free"},{"bike_id":"e931a958-9d8e-4173-8580-6464df4cd02d","system_id":"levelo_inurba_marseille","lat":43.299028,"lon":5.381509,"is_reserved":false,"is_disabled":false,"rental_uris":{"android":"levelo://app?vid=e931a958-9d8e-4173-8580-6464df4cd02d","ios":"levelo://app?vid=e931a958-9d8e-4173-8580-6464df4cd02d"},"vehicle_type_id":"4","last_reported":1707332725,"current_range_meters":22800,"station_id":"ce4bgj12rcd13ifvqbc0","pricing_plan_id":"free"},{"bike_id":"ff79499d-6ec4-4f93-a781-f3d5b4d74c10","system_id":"levelo_inurba_marseille","lat":43.309589,"lon":5.390258,"is_reserved":false,"is_disabled":false,"rental_uris":{"android":"levelo://app?vid=ff79499d-6ec4-4f93-a781-f3d5b4d74c10","ios":"levelo://app?vid=ff79499d-6ec4-4f93-a781-f3d5b4d74c10"},"vehicle_type_id":"4","last_reported":1707332725,"current_range_meters":14400,"station_id":"ce4bgup2rcd13ifvqco0","pricing_plan_id":"free"},{"bike_id":"8be3180b-7f1b-4005-a231-b23333e54906","system_id":"levelo_inurba_marseille","lat":43.309589,"lon":5.390258,"is_reserved":false,"is_disabled":false,"rental_uris":{"android":"levelo://app?vid=8be3180b-7f1b-4005-a231-b23333e54906","ios":"levelo://app?vid=8be3180b-7f1b-4005-a231-b23333e54906"},"vehicle_type_id":"4","last_reported":1707332725,"current_range_meters":31200,"station_id":"ce4bgup2rcd13ifvqco0","pricing_plan_id":"free"},{"bike_id":"95297123-f62b-46bb-8eee-b9e2802a7c1c","system_id":"levelo_inurba_marseille","lat":43.309589,"lon":5.390258,"is_reserved":false,"is_disabled":false,"rental_uris":{"android":"levelo://app?vid=95297123-f62b-46bb-8eee-b9e2802a7c1c","ios":"levelo://app?vid=95297123-f62b-46bb-8eee-b9e2802a7c1c"},"vehicle_type_id":"4","last_reported":1707332725,"current_range_meters":25600,"station_id":"ce4bgup2rcd13ifvqco0","pricing_plan_id":"free"},{"bike_id":"b393e380-9b9a-4239-8934-e30e3f7bac4e","system_id":"levelo_inurba_marseille","lat":43.317418,"lon":5.390035,"is_reserved":false,"is_disabled":false,"rental_uris":{"android":"levelo://app?vid=b393e380-9b9a-4239-8934-e30e3f7bac4e","ios":"levelo://app?vid=b393e380-9b9a-4239-8934-e30e3f7bac4e"},"vehicle_type_id":"4","last_reported":1707332725,"current_range_meters":10800,"station_id":"ce4bhqp2rcd13ifvqhng","pricing_plan_id":"free"},{"bike_id":"b6c1c1be-a5aa-4d5d-89a2-fd3b94ed18a1","system_id":"levelo_inurba_marseille","lat":43.317557,"lon":5.390173,"is_reserved":false,"is_disabled":false,"rental_uris":{"android":"levelo://app?vid=b6c1c1be-a5aa-4d5d-89a2-fd3b94ed18a1","ios":"levelo://app?vid=b6c1c1be-a5aa-4d5d-89a2-fd3b94ed18a1"},"vehicle_type_id":"4","last_reported":1707332725,"current_range_meters":17200,"station_id":"ce4bhqp2rcd13ifvqhng","pricing_plan_id":"free"},{"bike_id":"a65680f1-b3cf-4a61-b0ee-2a9e0277a0af","system_id":"levelo_inurba_marseille","lat":43.317586,"lon":5.39012,"is_reserved":false,"is_disabled":false,"rental_uris":{"android":"levelo://app?vid=a65680f1-b3cf-4a61-b0ee-2a9e0277a0af","ios":"levelo://app?vid=a65680f1-b3cf-4a61-b0ee-2a9e0277a0af"},"vehicle_type_id":"4","last_reported":1707332725,"current_range_meters":12400,"station_id":"ce4bhqp2rcd13ifvqhng","pricing_plan_id":"free"},{"bike_id":"3ccd3931-8811-4b7f-a846-c32a0a6915a2","system_id":"levelo_inurba_marseille","lat":43.317557,"lon":5.390173,"is_reserved":false,"is_disabled":false,"rental_uris":{"android":"levelo://app?vid=3ccd3931-8811-4b7f-a846-c32a0a6915a2","ios":"levelo://app?vid=3ccd3931-8811-4b7f-a846-c32a0a6915a2"},"vehicle_type_id":"4","last_reported":1707332725,"current_range_meters":29200,"station_id":"ce4bhqp2rcd13ifvqhng","pricing_plan_id":"free"},{"bike_id":"28bba395-38ae-46b0-8bda-5604032e994c","system_id":"levelo_inurba_marseille","lat":43.31758,"lon":5.39014,"is_reserved":false,"is_disabled":false,"rental_uris":{"android":"levelo://app?vid=28bba395-38ae-46b0-8bda-5604032e994c","ios":"levelo://app?vid=28bba395-38ae-46b0-8bda-5604032e994c"},"vehicle_type_id":"4","last_reported":1707332725,"current_range_meters":14800,"station_id":"ce4bhqp2rcd13ifvqhng","pricing_plan_id":"free"},{"bike_id":"88ff91ba-f064-4fee-a4a7-78dcf0615456","system_id":"levelo_inurba_marseille","lat":43.317557,"lon":5.390173,"is_reserved":false,"is_disabled":false,"rental_uris":{"android":"levelo://app?vid=88ff91ba-f064-4fee-a4a7-78dcf0615456","ios":"levelo://app?vid=88ff91ba-f064-4fee-a4a7-78dcf0615456"},"vehicle_type_id":"4","last_reported":1707332725,"current_range_meters":21600,"station_id":"ce4bhqp2rcd13ifvqhng","pricing_plan_id":"free"},{"bike_id":"8236458b-34ca-49b5-ab60-c4f12ac61945","system_id":"levelo_inurba_marseille","lat":43.31759,"lon":5.39018,"is_reserved":false,"is_disabled":false,"rental_uris":{"android":"levelo://app?vid=8236458b-34ca-49b5-ab60-c4f12ac61945","ios":"levelo://app?vid=8236458b-34ca-49b5-ab60-c4f12ac61945"},"vehicle_type_id":"4","last_reported":1707332725,"current_range_meters":11600,"station_id":"ce4bhqp2rcd13ifvqhng","pricing_plan_id":"free"},{"bike_id":"f9e71f25-83c3-4ad2-95f8-b63267492ced","system_id":"levelo_inurba_marseille","lat":43.317557,"lon":5.390173,"is_reserved":false,"is_disabled":false,"rental_uris":{"android":"levelo://app?vid=f9e71f25-83c3-4ad2-95f8-b63267492ced","ios":"levelo://app?vid=f9e71f25-83c3-4ad2-95f8-b63267492ced"},"vehicle_type_id":"4","last_reported":1707332725,"current_range_meters":26800,"station_id":"ce4bhqp2rcd13ifvqhng","pricing_plan_id":"free"},{"bike_id":"5803286d-bc09-4cb9-b050-80f335e1e221","system_id":"levelo_inurba_marseille","lat":43.317557,"lon":5.390173,"is_reserved":false,"is_disabled":false,"rental_uris":{"android":"levelo://app?vid=5803286d-bc09-4cb9-b050-80f335e1e221","ios":"levelo://app?vid=5803286d-bc09-4cb9-b050-80f335e1e221"},"vehicle_type_id":"4","last_reported":1707332725,"current_range_meters":21200,"station_id":"ce4bhqp2rcd13ifvqhng","pricing_plan_id":"free"},{"bike_id":"36530bef-b0a9-4557-bc82-752d439888bc","system_id":"levelo_inurba_marseille","lat":43.31753,"lon":5.39026,"is_reserved":false,"is_disabled":false,"rental_uris":{"android":"levelo://app?vid=36530bef-b0a9-4557-bc82-752d439888bc","ios":"levelo://app?vid=36530bef-b0a9-4557-bc82-752d439888bc"},"vehicle_type_id":"4","last_reported":1707332725,"current_range_meters":14400,"station_id":"ce4bhqp2rcd13ifvqhng","pricing_plan_id":"free"},{"bike_id":"fc276ed7-a65b-4dfd-85ca-e57d999ca381","system_id":"levelo_inurba_marseille","lat":43.298137,"lon":5.380971,"is_reserved":false,"is_disabled":false,"rental_uris":{"android":"levelo://app?vid=fc276ed7-a65b-4dfd-85ca-e57d999ca381","ios":"levelo://app?vid=fc276ed7-a65b-4dfd-85ca-e57d999ca381"},"vehicle_type_id":"4","last_reported":1707332725,"current_range_meters":29600,"station_id":"ce4bgip2rcd13ifvqbb0","pricing_plan_id":"free"},{"bike_id":"bd95151c-a15e-4802-8734-129967673d93","system_id":"levelo_inurba_marseille","lat":43.298037,"lon":5.381066,"is_reserved":false,"is_disabled":false,"rental_uris":{"android":"levelo://app?vid=bd95151c-a15e-4802-8734-129967673d93","ios":"levelo://app?vid=bd95151c-a15e-4802-8734-129967673d93"},"vehicle_type_id":"4","last_reported":1707332725,"current_range_meters":25200,"station_id":"ce4bgip2rcd13ifvqbb0","pricing_plan_id":"free"},{"bike_id":"269f7df6-8e51-4512-ba8a-6c69f7e02af9","system_id":"levelo_inurba_marseille","lat":43.298037,"lon":5.381066,"is_reserved":false,"is_disabled":false,"rental_uris":{"android":"levelo://app?vid=269f7df6-8e51-4512-ba8a-6c69f7e02af9","ios":"levelo://app?vid=269f7df6-8e51-4512-ba8a-6c69f7e02af9"},"vehicle_type_id":"4","last_reported":1707332725,"current_range_meters":22000,"station_id":"ce4bgip2rcd13ifvqbb0","pricing_plan_id":"free"},{"bike_id":"6948958b-7411-486e-90c3-a6cc0fdbfb80","system_id":"levelo_inurba_marseille","lat":43.298,"lon":5.38116,"is_reserved":false,"is_disabled":false,"rental_uris":{"android":"levelo://app?vid=6948958b-7411-486e-90c3-a6cc0fdbfb80","ios":"levelo://app?vid=6948958b-7411-486e-90c3-a6cc0fdbfb80"},"vehicle_type_id":"4","last_reported":1707332725,"current_range_meters":26800,"station_id":"","pricing_plan_id":"free"},{"bike_id":"f3028c86-347e-446e-add5-6c842c94121b","system_id":"levelo_inurba_marseille","lat":43.304274,"lon":5.388873,"is_reserved":false,"is_disabled":false,"rental_uris":{"android":"levelo://app?vid=f3028c86-347e-446e-add5-6c842c94121b","ios":"levelo://app?vid=f3028c86-347e-446e-add5-6c842c94121b"},"vehicle_type_id":"4","last_reported":1707332725,"current_range_meters":26800,"station_id":"ce4bgk12rcd13ifvqbi0","pricing_plan_id":"free"},{"bike_id":"8fa7fa71-4a27-400b-9ccc-0e326b7b9d73","system_id":"levelo_inurba_marseille","lat":43.304274,"lon":5.388873,"is_reserved":false,"is_disabled":false,"rental_uris":{"android":"levelo://app?vid=8fa7fa71-4a27-400b-9ccc-0e326b7b9d73","ios":"levelo://app?vid=8fa7fa71-4a27-400b-9ccc-0e326b7b9d73"},"vehicle_type_id":"4","last_reported":1707332725,"current_range_meters":9600,"station_id":"ce4bgk12rcd13ifvqbi0","pricing_plan_id":"free"},{"bike_id":"50c6c70c-c9e5-4a8f-a3de-7e48d0b484ce","system_id":"levelo_inurba_marseille","lat":43.304274,"lon":5.388873,"is_reserved":false,"is_disabled":false,"rental_uris":{"android":"levelo://app?vid=50c6c70c-c9e5-4a8f-a3de-7e48d0b484ce","ios":"levelo://app?vid=50c6c70c-c9e5-4a8f-a3de-7e48d0b484ce"},"vehicle_type_id":"4","last_reported":1707332725,"current_range_meters":0,"station_id":"ce4bgk12rcd13ifvqbi0","pricing_plan_id":"free"},{"bike_id":"44b95b92-2f05-4a35-a5df-cb84d7c6365a","system_id":"levelo_inurba_marseille","lat":43.304384,"lon":5.388927,"is_reserved":false,"is_disabled":false,"rental_uris":{"android":"levelo://app?vid=44b95b92-2f05-4a35-a5df-cb84d7c6365a","ios":"levelo://app?vid=44b95b92-2f05-4a35-a5df-cb84d7c6365a"},"vehicle_type_id":"4","last_reported":1707332725,"current_range_meters":24400,"station_id":"ce4bgk12rcd13ifvqbi0","pricing_plan_id":"free"},{"bike_id":"9eb90190-32f1-4e9d-95cd-c95c767e807b","system_id":"levelo_inurba_marseille","lat":43.30428,"lon":5.3889,"is_reserved":false,"is_disabled":false,"rental_uris":{"android":"levelo://app?vid=9eb90190-32f1-4e9d-95cd-c95c767e807b","ios":"levelo://app?vid=9eb90190-32f1-4e9d-95cd-c95c767e807b"},"vehicle_type_id":"4","last_reported":1707332725,"current_range_meters":21600,"station_id":"ce4bgk12rcd13ifvqbi0","pricing_plan_id":"free"},{"bike_id":"ef4e03a3-2e8e-4448-83b6-1f0693fd7378","system_id":"levelo_inurba_marseille","lat":43.30433,"lon":5.38894,"is_reserved":false,"is_disabled":false,"rental_uris":{"android":"levelo://app?vid=ef4e03a3-2e8e-4448-83b6-1f0693fd7378","ios":"levelo://app?vid=ef4e03a3-2e8e-4448-83b6-1f0693fd7378"},"vehicle_type_id":"4","last_reported":1707332725,"current_range_meters":9600,"station_id":"ce4bgk12rcd13ifvqbi0","pricing_plan_id":"free"},{"bike_id":"4aa168e1-10ac-437d-abd2-9ce683e6532e","system_id":"levelo_inurba_marseille","lat":43.304274,"lon":5.388873,"is_reserved":false,"is_disabled":false,"rental_uris":{"android":"levelo://app?vid=4aa168e1-10ac-437d-abd2-9ce683e6532e","ios":"levelo://app?vid=4aa168e1-10ac-437d-abd2-9ce683e6532e"},"vehicle_type_id":"4","last_reported":1707332725,"current_range_meters":5200,"station_id":"ce4bgk12rcd13ifvqbi0","pricing_plan_id":"free"},{"bike_id":"f60ffeb9-4b54-4fe4-ac23-3eba649c6a5c","system_id":"levelo_inurba_marseille","lat":43.304274,"lon":5.388873,"is_reserved":false,"is_disabled":false,"rental_uris":{"android":"levelo://app?vid=f60ffeb9-4b54-4fe4-ac23-3eba649c6a5c","ios":"levelo://app?vid=f60ffeb9-4b54-4fe4-ac23-3eba649c6a5c"},"vehicle_type_id":"4","last_reported":1707332725,"current_range_meters":25600,"station_id":"ce4bgk12rcd13ifvqbi0","pricing_plan_id":"free"},{"bike_id":"72dd6906-8c97-434f-ae35-9374e7093b4b","system_id":"levelo_inurba_marseille","lat":43.30433,"lon":5.38896,"is_reserved":false,"is_disabled":false,"rental_uris":{"android":"levelo://app?vid=72dd6906-8c97-434f-ae35-9374e7093b4b","ios":"levelo://app?vid=72dd6906-8c97-434f-ae35-9374e7093b4b"},"vehicle_type_id":"4","last_reported":1707332725,"current_range_meters":27200,"station_id":"ce4bgk12rcd13ifvqbi0","pricing_plan_id":"free"},{"bike_id":"9d9937ab-7ef1-493d-b22f-27e972dced55","system_id":"levelo_inurba_marseille","lat":43.304274,"lon":5.388873,"is_reserved":false,"is_disabled":false,"rental_uris":{"android":"levelo://app?vid=9d9937ab-7ef1-493d-b22f-27e972dced55","ios":"levelo://app?vid=9d9937ab-7ef1-493d-b22f-27e972dced55"},"vehicle_type_id":"4","last_reported":1707332725,"current_range_meters":10000,"station_id":"ce4bgk12rcd13ifvqbi0","pricing_plan_id":"free"},{"bike_id":"b42a5ddc-f119-4260-a300-699d14c7a272","system_id":"levelo_inurba_marseille","lat":43.29567,"lon":5.37534,"is_reserved":false,"is_disabled":false,"rental_uris":{"android":"levelo://app?vid=b42a5ddc-f119-4260-a300-699d14c7a272","ios":"levelo://app?vid=b42a5ddc-f119-4260-a300-699d14c7a272"},"vehicle_type_id":"4","last_reported":1707332725,"current_range_meters":2000,"station_id":"","pricing_plan_id":"free"},{"bike_id":"00bb6097-66fc-46ad-85b1-a4645e15396b","system_id":"levelo_inurba_marseille","lat":43.30432,"lon":5.38901,"is_reserved":false,"is_disabled":false,"rental_uris":{"android":"levelo://app?vid=00bb6097-66fc-46ad-85b1-a4645e15396b","ios":"levelo://app?vid=00bb6097-66fc-46ad-85b1-a4645e15396b"},"vehicle_type_id":"4","last_reported":1707332725,"current_range_meters":25600,"station_id":"ce4bgk12rcd13ifvqbi0","pricing_plan_id":"free"},{"bike_id":"9fe502dc-d08d-45a9-b203-136d7680867e","system_id":"levelo_inurba_marseille","lat":43.30436,"lon":5.38904,"is_reserved":false,"is_disabled":false,"rental_uris":{"android":"levelo://app?vid=9fe502dc-d08d-45a9-b203-136d7680867e","ios":"levelo://app?vid=9fe502dc-d08d-45a9-b203-136d7680867e"},"vehicle_type_id":"4","last_reported":1707332725,"current_range_meters":7200,"station_id":"ce4bgk12rcd13ifvqbi0","pricing_plan_id":"free"},{"bike_id":"b9c75418-c502-43a3-a6e5-8a6f75a70676","system_id":"levelo_inurba_marseille","lat":43.297672,"lon":5.380851,"is_reserved":false,"is_disabled":false,"rental_uris":{"android":"levelo://app?vid=b9c75418-c502-43a3-a6e5-8a6f75a70676","ios":"levelo://app?vid=b9c75418-c502-43a3-a6e5-8a6f75a70676"},"vehicle_type_id":"4","last_reported":1707332725,"current_range_meters":11200,"station_id":"ce4bgip2rcd13ifvqbb0","pricing_plan_id":"free"},{"bike_id":"6b7d9f9e-96d1-4b72-bb04-b293acaa5f6b","system_id":"levelo_inurba_marseille","lat":43.29976,"lon":5.3849,"is_reserved":false,"is_disabled":false,"rental_uris":{"android":"levelo://app?vid=6b7d9f9e-96d1-4b72-bb04-b293acaa5f6b","ios":"levelo://app?vid=6b7d9f9e-96d1-4b72-bb04-b293acaa5f6b"},"vehicle_type_id":"4","last_reported":1707332725,"current_range_meters":20400,"station_id":"ce4bgj92rcd13ifvqbd0","pricing_plan_id":"free"},{"bike_id":"3f367b87-c064-48fe-be5a-379500737dc7","system_id":"levelo_inurba_marseille","lat":43.299724,"lon":5.384848,"is_reserved":false,"is_disabled":false,"rental_uris":{"android":"levelo://app?vid=3f367b87-c064-48fe-be5a-379500737dc7","ios":"levelo://app?vid=3f367b87-c064-48fe-be5a-379500737dc7"},"vehicle_type_id":"4","last_reported":1707332725,"current_range_meters":2400,"station_id":"ce4bgj92rcd13ifvqbd0","pricing_plan_id":"free"},{"bike_id":"f6023043-c87b-4cc2-a529-aec578052049","system_id":"levelo_inurba_marseille","lat":43.299717,"lon":5.384845,"is_reserved":false,"is_disabled":false,"rental_uris":{"android":"levelo://app?vid=f6023043-c87b-4cc2-a529-aec578052049","ios":"levelo://app?vid=f6023043-c87b-4cc2-a529-aec578052049"},"vehicle_type_id":"4","last_reported":1707332725,"current_range_meters":1200,"station_id":"ce4bgj92rcd13ifvqbd0","pricing_plan_id":"free"},{"bike_id":"392b6c33-becc-4d55-8df4-00be35c23a2e","system_id":"levelo_inurba_marseille","lat":43.299724,"lon":5.384848,"is_reserved":false,"is_disabled":false,"rental_uris":{"android":"levelo://app?vid=392b6c33-becc-4d55-8df4-00be35c23a2e","ios":"levelo://app?vid=392b6c33-becc-4d55-8df4-00be35c23a2e"},"vehicle_type_id":"4","last_reported":1707332725,"current_range_meters":18800,"station_id":"ce4bgj92rcd13ifvqbd0","pricing_plan_id":"free"},{"bike_id":"04cb7eff-1647-4470-9653-33a67422113b","system_id":"levelo_inurba_marseille","lat":43.309047,"lon":5.396551,"is_reserved":false,"is_disabled":false,"rental_uris":{"android":"levelo://app?vid=04cb7eff-1647-4470-9653-33a67422113b","ios":"levelo://app?vid=04cb7eff-1647-4470-9653-33a67422113b"},"vehicle_type_id":"4","last_reported":1707332725,"current_range_meters":0,"station_id":"ce4bh012rcd13ifvqcv0","pricing_plan_id":"free"},{"bike_id":"5add9a92-06aa-452f-8acb-08e8e903af82","system_id":"levelo_inurba_marseille","lat":43.299724,"lon":5.384848,"is_reserved":false,"is_disabled":false,"rental_uris":{"android":"levelo://app?vid=5add9a92-06aa-452f-8acb-08e8e903af82","ios":"levelo://app?vid=5add9a92-06aa-452f-8acb-08e8e903af82"},"vehicle_type_id":"4","last_reported":1707332725,"current_range_meters":6000,"station_id":"ce4bgj92rcd13ifvqbd0","pricing_plan_id":"free"},{"bike_id":"ed5d3f68-f6ae-4628-a68b-31e6c4c8b97c","system_id":"levelo_inurba_marseille","lat":43.32362,"lon":5.38881,"is_reserved":false,"is_disabled":false,"rental_uris":{"android":"levelo://app?vid=ed5d3f68-f6ae-4628-a68b-31e6c4c8b97c","ios":"levelo://app?vid=ed5d3f68-f6ae-4628-a68b-31e6c4c8b97c"},"vehicle_type_id":"4","last_reported":1707332725,"current_range_meters":27600,"station_id":"ce4bhqp2rcd13ifvqhog","pricing_plan_id":"free"},{"bike_id":"27e7d923-81e0-4c18-9a4b-aeb5de43f55c","system_id":"levelo_inurba_marseille","lat":43.32364,"lon":5.38881,"is_reserved":false,"is_disabled":false,"rental_uris":{"android":"levelo://app?vid=27e7d923-81e0-4c18-9a4b-aeb5de43f55c","ios":"levelo://app?vid=27e7d923-81e0-4c18-9a4b-aeb5de43f55c"},"vehicle_type_id":"4","last_reported":1707332725,"current_range_meters":13600,"station_id":"ce4bhqp2rcd13ifvqhog","pricing_plan_id":"free"},{"bike_id":"e46e8ff3-6efb-422c-88bb-36c5e9ce66e4","system_id":"levelo_inurba_marseille","lat":43.323679,"lon":5.388784,"is_reserved":false,"is_disabled":false,"rental_uris":{"android":"levelo://app?vid=e46e8ff3-6efb-422c-88bb-36c5e9ce66e4","ios":"levelo://app?vid=e46e8ff3-6efb-422c-88bb-36c5e9ce66e4"},"vehicle_type_id":"4","last_reported":1707332725,"current_range_meters":17600,"station_id":"ce4bhqp2rcd13ifvqhog","pricing_plan_id":"free"},{"bike_id":"55769c3e-d570-4ade-829b-4a0316d221aa","system_id":"levelo_inurba_marseille","lat":43.32367,"lon":5.3888,"is_reserved":false,"is_disabled":false,"rental_uris":{"android":"levelo://app?vid=55769c3e-d570-4ade-829b-4a0316d221aa","ios":"levelo://app?vid=55769c3e-d570-4ade-829b-4a0316d221aa"},"vehicle_type_id":"4","last_reported":1707332725,"current_range_meters":18400,"station_id":"ce4bhqp2rcd13ifvqhog","pricing_plan_id":"free"},{"bike_id":"69e0ab03-3f4e-4375-b305-57e86da379c2","system_id":"levelo_inurba_marseille","lat":43.32364,"lon":5.38883,"is_reserved":false,"is_disabled":false,"rental_uris":{"android":"levelo://app?vid=69e0ab03-3f4e-4375-b305-57e86da379c2","ios":"levelo://app?vid=69e0ab03-3f4e-4375-b305-57e86da379c2"},"vehicle_type_id":"4","last_reported":1707332725,"current_range_meters":24800,"station_id":"ce4bhqp2rcd13ifvqhog","pricing_plan_id":"free"},{"bike_id":"6fc9cf37-ecec-4c91-8570-1b2b0a9ff623","system_id":"levelo_inurba_marseille","lat":43.32366,"lon":5.38884,"is_reserved":false,"is_disabled":false,"rental_uris":{"android":"levelo://app?vid=6fc9cf37-ecec-4c91-8570-1b2b0a9ff623","ios":"levelo://app?vid=6fc9cf37-ecec-4c91-8570-1b2b0a9ff623"},"vehicle_type_id":"4","last_reported":1707332725,"current_range_meters":0,"station_id":"ce4bhqp2rcd13ifvqhog","pricing_plan_id":"free"},{"bike_id":"cc6530d2-5676-4593-9ee5-59ecbcd8f6a5","system_id":"levelo_inurba_marseille","lat":43.323684,"lon":5.388825,"is_reserved":false,"is_disabled":false,"rental_uris":{"android":"levelo://app?vid=cc6530d2-5676-4593-9ee5-59ecbcd8f6a5","ios":"levelo://app?vid=cc6530d2-5676-4593-9ee5-59ecbcd8f6a5"},"vehicle_type_id":"4","last_reported":1707332725,"current_range_meters":19200,"station_id":"ce4bhqp2rcd13ifvqhog","pricing_plan_id":"free"},{"bike_id":"606777c4-4d1f-4822-a9c7-ca190e9d7ac9","system_id":"levelo_inurba_marseille","lat":43.32365,"lon":5.38886,"is_reserved":false,"is_disabled":false,"rental_uris":{"android":"levelo://app?vid=606777c4-4d1f-4822-a9c7-ca190e9d7ac9","ios":"levelo://app?vid=606777c4-4d1f-4822-a9c7-ca190e9d7ac9"},"vehicle_type_id":"4","last_reported":1707332725,"current_range_meters":29200,"station_id":"ce4bhqp2rcd13ifvqhog","pricing_plan_id":"free"},{"bike_id":"1518e53d-eb94-4406-bc34-6493c7c75fd6","system_id":"levelo_inurba_marseille","lat":43.32364,"lon":5.388876,"is_reserved":false,"is_disabled":false,"rental_uris":{"android":"levelo://app?vid=1518e53d-eb94-4406-bc34-6493c7c75fd6","ios":"levelo://app?vid=1518e53d-eb94-4406-bc34-6493c7c75fd6"},"vehicle_type_id":"4","last_reported":1707332725,"current_range_meters":24000,"station_id":"ce4bhqp2rcd13ifvqhog","pricing_plan_id":"free"},{"bike_id":"2699b29a-e584-4936-892c-96f311fc0314","system_id":"levelo_inurba_marseille","lat":43.32364,"lon":5.38888,"is_reserved":false,"is_disabled":false,"rental_uris":{"android":"levelo://app?vid=2699b29a-e584-4936-892c-96f311fc0314","ios":"levelo://app?vid=2699b29a-e584-4936-892c-96f311fc0314"},"vehicle_type_id":"4","last_reported":1707332725,"current_range_meters":29200,"station_id":"ce4bhqp2rcd13ifvqhog","pricing_plan_id":"free"},{"bike_id":"bc85f4cd-0ffe-4ec0-9c96-dc31a76087c8","system_id":"levelo_inurba_marseille","lat":43.3237,"lon":5.38886,"is_reserved":false,"is_disabled":false,"rental_uris":{"android":"levelo://app?vid=bc85f4cd-0ffe-4ec0-9c96-dc31a76087c8","ios":"levelo://app?vid=bc85f4cd-0ffe-4ec0-9c96-dc31a76087c8"},"vehicle_type_id":"4","last_reported":1707332725,"current_range_meters":23600,"station_id":"ce4bhqp2rcd13ifvqhog","pricing_plan_id":"free"},{"bike_id":"a08a26fe-546a-4630-aced-98e496243792","system_id":"levelo_inurba_marseille","lat":43.32367,"lon":5.38891,"is_reserved":false,"is_disabled":false,"rental_uris":{"android":"levelo://app?vid=a08a26fe-546a-4630-aced-98e496243792","ios":"levelo://app?vid=a08a26fe-546a-4630-aced-98e496243792"},"vehicle_type_id":"4","last_reported":1707332725,"current_range_meters":22800,"station_id":"ce4bhqp2rcd13ifvqhog","pricing_plan_id":"free"},{"bike_id":"1431c39d-b4a3-4244-b7b6-a5c7c0691d93","system_id":"levelo_inurba_marseille","lat":43.293105,"lon":5.371607,"is_reserved":false,"is_disabled":false,"rental_uris":{"android":"levelo://app?vid=1431c39d-b4a3-4244-b7b6-a5c7c0691d93","ios":"levelo://app?vid=1431c39d-b4a3-4244-b7b6-a5c7c0691d93"},"vehicle_type_id":"4","last_reported":1707332725,"current_range_meters":400,"station_id":"ce4bgh92rcd13ifvqb40","pricing_plan_id":"free"},{"bike_id":"cee3a26f-48d4-4d3d-aa04-005b7b55b158","system_id":"levelo_inurba_marseille","lat":43.292749,"lon":5.368402,"is_reserved":false,"is_disabled":false,"rental_uris":{"android":"levelo://app?vid=cee3a26f-48d4-4d3d-aa04-005b7b55b158","ios":"levelo://app?vid=cee3a26f-48d4-4d3d-aa04-005b7b55b158"},"vehicle_type_id":"4","last_reported":1707332725,"current_range_meters":22000,"station_id":"ce4bhbp2rcd13ifvqesg","pricing_plan_id":"free"},{"bike_id":"f5912d6b-c3b2-48d0-9d36-6164c259bc92","system_id":"levelo_inurba_marseille","lat":43.29306,"lon":5.37178,"is_reserved":false,"is_disabled":false,"rental_uris":{"android":"levelo://app?vid=f5912d6b-c3b2-48d0-9d36-6164c259bc92","ios":"levelo://app?vid=f5912d6b-c3b2-48d0-9d36-6164c259bc92"},"vehicle_type_id":"4","last_reported":1707332725,"current_range_meters":24400,"station_id":"ce4bgh92rcd13ifvqb40","pricing_plan_id":"free"},{"bike_id":"cde9956a-1de2-4b35-af43-5c4476374786","system_id":"levelo_inurba_marseille","lat":43.29303,"lon":5.37164,"is_reserved":false,"is_disabled":false,"rental_uris":{"android":"levelo://app?vid=cde9956a-1de2-4b35-af43-5c4476374786","ios":"levelo://app?vid=cde9956a-1de2-4b35-af43-5c4476374786"},"vehicle_type_id":"4","last_reported":1707332725,"current_range_meters":0,"station_id":"ce4bgh92rcd13ifvqb40","pricing_plan_id":"free"},{"bike_id":"85fdb0f0-7ec8-443a-8212-1aa2f66ea25e","system_id":"levelo_inurba_marseille","lat":43.293259,"lon":5.371586,"is_reserved":false,"is_disabled":false,"rental_uris":{"android":"levelo://app?vid=85fdb0f0-7ec8-443a-8212-1aa2f66ea25e","ios":"levelo://app?vid=85fdb0f0-7ec8-443a-8212-1aa2f66ea25e"},"vehicle_type_id":"4","last_reported":1707332725,"current_range_meters":30400,"station_id":"ce4bgh92rcd13ifvqb40","pricing_plan_id":"free"},{"bike_id":"da4c3408-7f65-4173-84ca-4f5681c8fcaf","system_id":"levelo_inurba_marseille","lat":43.30018,"lon":5.38875,"is_reserved":false,"is_disabled":false,"rental_uris":{"android":"levelo://app?vid=da4c3408-7f65-4173-84ca-4f5681c8fcaf","ios":"levelo://app?vid=da4c3408-7f65-4173-84ca-4f5681c8fcaf"},"vehicle_type_id":"4","last_reported":1707332725,"current_range_meters":16400,"station_id":"","pricing_plan_id":"free"},{"bike_id":"58ce6322-a791-48f0-8bcc-95a1314180fc","system_id":"levelo_inurba_marseille","lat":43.29543,"lon":5.38168,"is_reserved":false,"is_disabled":false,"rental_uris":{"android":"levelo://app?vid=58ce6322-a791-48f0-8bcc-95a1314180fc","ios":"levelo://app?vid=58ce6322-a791-48f0-8bcc-95a1314180fc"},"vehicle_type_id":"4","last_reported":1707332725,"current_range_meters":2400,"station_id":"","pricing_plan_id":"free"},{"bike_id":"20bbdfff-c299-4948-81b3-c51e6159e8bc","system_id":"levelo_inurba_marseille","lat":43.293009,"lon":5.374584,"is_reserved":false,"is_disabled":false,"rental_uris":{"android":"levelo://app?vid=20bbdfff-c299-4948-81b3-c51e6159e8bc","ios":"levelo://app?vid=20bbdfff-c299-4948-81b3-c51e6159e8bc"},"vehicle_type_id":"4","last_reported":1707332725,"current_range_meters":0,"station_id":"ce4bgi12rcd13ifvqb70","pricing_plan_id":"free"},{"bike_id":"0c7e5ba5-b06f-49d1-b25f-53cf71229564","system_id":"levelo_inurba_marseille","lat":43.293009,"lon":5.374584,"is_reserved":false,"is_disabled":false,"rental_uris":{"android":"levelo://app?vid=0c7e5ba5-b06f-49d1-b25f-53cf71229564","ios":"levelo://app?vid=0c7e5ba5-b06f-49d1-b25f-53cf71229564"},"vehicle_type_id":"4","last_reported":1707332725,"current_range_meters":24400,"station_id":"ce4bgi12rcd13ifvqb70","pricing_plan_id":"free"},{"bike_id":"e8f50580-4d1c-4be1-a79e-883f68301407","system_id":"levelo_inurba_marseille","lat":43.293003,"lon":5.374495,"is_reserved":false,"is_disabled":false,"rental_uris":{"android":"levelo://app?vid=e8f50580-4d1c-4be1-a79e-883f68301407","ios":"levelo://app?vid=e8f50580-4d1c-4be1-a79e-883f68301407"},"vehicle_type_id":"4","last_reported":1707332725,"current_range_meters":20000,"station_id":"ce4bgi12rcd13ifvqb70","pricing_plan_id":"free"},{"bike_id":"d80c1faf-aab2-4a98-99ab-d350d130b98d","system_id":"levelo_inurba_marseille","lat":43.30589,"lon":5.3935,"is_reserved":false,"is_disabled":false,"rental_uris":{"android":"levelo://app?vid=d80c1faf-aab2-4a98-99ab-d350d130b98d","ios":"levelo://app?vid=d80c1faf-aab2-4a98-99ab-d350d130b98d"},"vehicle_type_id":"4","last_reported":1707332725,"current_range_meters":15200,"station_id":"ce4bh0p2rcd13ifvqd80","pricing_plan_id":"free"},{"bike_id":"57ecaa9a-a4b1-43dc-a6e9-d685fe46b089","system_id":"levelo_inurba_marseille","lat":43.293009,"lon":5.374584,"is_reserved":false,"is_disabled":false,"rental_uris":{"android":"levelo://app?vid=57ecaa9a-a4b1-43dc-a6e9-d685fe46b089","ios":"levelo://app?vid=57ecaa9a-a4b1-43dc-a6e9-d685fe46b089"},"vehicle_type_id":"4","last_reported":1707332725,"current_range_meters":12400,"station_id":"ce4bgi12rcd13ifvqb70","pricing_plan_id":"free"},{"bike_id":"1bc245f6-99f8-4b4a-bf93-921c9cab4a98","system_id":"levelo_inurba_marseille","lat":43.305994,"lon":5.393687,"is_reserved":false,"is_disabled":false,"rental_uris":{"android":"levelo://app?vid=1bc245f6-99f8-4b4a-bf93-921c9cab4a98","ios":"levelo://app?vid=1bc245f6-99f8-4b4a-bf93-921c9cab4a98"},"vehicle_type_id":"4","last_reported":1707332725,"current_range_meters":16400,"station_id":"ce4bh0p2rcd13ifvqd80","pricing_plan_id":"free"},{"bike_id":"a5759856-8d79-4584-a7a8-58b98dbc5037","system_id":"levelo_inurba_marseille","lat":43.305994,"lon":5.393687,"is_reserved":false,"is_disabled":false,"rental_uris":{"android":"levelo://app?vid=a5759856-8d79-4584-a7a8-58b98dbc5037","ios":"levelo://app?vid=a5759856-8d79-4584-a7a8-58b98dbc5037"},"vehicle_type_id":"4","last_reported":1707332725,"current_range_meters":400,"station_id":"ce4bh0p2rcd13ifvqd80","pricing_plan_id":"free"},{"bike_id":"1268ad7e-a83c-41c0-940b-fa139e566421","system_id":"levelo_inurba_marseille","lat":43.305994,"lon":5.393687,"is_reserved":false,"is_disabled":false,"rental_uris":{"android":"levelo://app?vid=1268ad7e-a83c-41c0-940b-fa139e566421","ios":"levelo://app?vid=1268ad7e-a83c-41c0-940b-fa139e566421"},"vehicle_type_id":"4","last_reported":1707332725,"current_range_meters":13200,"station_id":"ce4bh0p2rcd13ifvqd80","pricing_plan_id":"free"},{"bike_id":"6d06211f-c234-4938-890f-f52c3fe1780f","system_id":"levelo_inurba_marseille","lat":43.305994,"lon":5.393687,"is_reserved":false,"is_disabled":false,"rental_uris":{"android":"levelo://app?vid=6d06211f-c234-4938-890f-f52c3fe1780f","ios":"levelo://app?vid=6d06211f-c234-4938-890f-f52c3fe1780f"},"vehicle_type_id":"4","last_reported":1707332725,"current_range_meters":11200,"station_id":"ce4bh0p2rcd13ifvqd80","pricing_plan_id":"free"},{"bike_id":"67d5b71c-ee97-4daf-bf19-4b5529b40377","system_id":"levelo_inurba_marseille","lat":43.305994,"lon":5.393687,"is_reserved":false,"is_disabled":false,"rental_uris":{"android":"levelo://app?vid=67d5b71c-ee97-4daf-bf19-4b5529b40377","ios":"levelo://app?vid=67d5b71c-ee97-4daf-bf19-4b5529b40377"},"vehicle_type_id":"4","last_reported":1707332725,"current_range_meters":21600,"station_id":"ce4bh0p2rcd13ifvqd80","pricing_plan_id":"free"},{"bike_id":"47ac6e94-8874-490d-ba1d-d28d2686788b","system_id":"levelo_inurba_marseille","lat":43.30596,"lon":5.39362,"is_reserved":false,"is_disabled":false,"rental_uris":{"android":"levelo://app?vid=47ac6e94-8874-490d-ba1d-d28d2686788b","ios":"levelo://app?vid=47ac6e94-8874-490d-ba1d-d28d2686788b"},"vehicle_type_id":"4","last_reported":1707332725,"current_range_meters":16000,"station_id":"ce4bh0p2rcd13ifvqd80","pricing_plan_id":"free"},{"bike_id":"e78db64e-4614-425d-b6bd-44b8a9ad86bf","system_id":"levelo_inurba_marseille","lat":43.30591,"lon":5.39361,"is_reserved":false,"is_disabled":false,"rental_uris":{"android":"levelo://app?vid=e78db64e-4614-425d-b6bd-44b8a9ad86bf","ios":"levelo://app?vid=e78db64e-4614-425d-b6bd-44b8a9ad86bf"},"vehicle_type_id":"4","last_reported":1707332725,"current_range_meters":28400,"station_id":"ce4bh0p2rcd13ifvqd80","pricing_plan_id":"free"},{"bike_id":"ef601993-b1ef-4346-abc9-ff12b730206c","system_id":"levelo_inurba_marseille","lat":43.305994,"lon":5.393687,"is_reserved":false,"is_disabled":false,"rental_uris":{"android":"levelo://app?vid=ef601993-b1ef-4346-abc9-ff12b730206c","ios":"levelo://app?vid=ef601993-b1ef-4346-abc9-ff12b730206c"},"vehicle_type_id":"4","last_reported":1707332725,"current_range_meters":400,"station_id":"ce4bh0p2rcd13ifvqd80","pricing_plan_id":"free"},{"bike_id":"45b3ee02-2073-43ce-bcc7-6726b7982974","system_id":"levelo_inurba_marseille","lat":43.30598,"lon":5.39365,"is_reserved":false,"is_disabled":false,"rental_uris":{"android":"levelo://app?vid=45b3ee02-2073-43ce-bcc7-6726b7982974","ios":"levelo://app?vid=45b3ee02-2073-43ce-bcc7-6726b7982974"},"vehicle_type_id":"4","last_reported":1707332725,"current_range_meters":23600,"station_id":"ce4bh0p2rcd13ifvqd80","pricing_plan_id":"free"},{"bike_id":"a49e6728-3385-4c86-8fe8-c30f58956354","system_id":"levelo_inurba_marseille","lat":43.30595,"lon":5.39365,"is_reserved":false,"is_disabled":false,"rental_uris":{"android":"levelo://app?vid=a49e6728-3385-4c86-8fe8-c30f58956354","ios":"levelo://app?vid=a49e6728-3385-4c86-8fe8-c30f58956354"},"vehicle_type_id":"4","last_reported":1707332725,"current_range_meters":14000,"station_id":"ce4bh0p2rcd13ifvqd80","pricing_plan_id":"free"},{"bike_id":"0b7c8a80-3113-44b3-bdb9-2c5458b0750e","system_id":"levelo_inurba_marseille","lat":43.302992,"lon":5.392136,"is_reserved":false,"is_disabled":false,"rental_uris":{"android":"levelo://app?vid=0b7c8a80-3113-44b3-bdb9-2c5458b0750e","ios":"levelo://app?vid=0b7c8a80-3113-44b3-bdb9-2c5458b0750e"},"vehicle_type_id":"4","last_reported":1707332725,"current_range_meters":26000,"station_id":"ce4bgkh2rcd13ifvqbk0","pricing_plan_id":"free"},{"bike_id":"a596bc68-7cb8-4e3c-b2d5-53ec33e23d47","system_id":"levelo_inurba_marseille","lat":43.302992,"lon":5.392136,"is_reserved":false,"is_disabled":false,"rental_uris":{"android":"levelo://app?vid=a596bc68-7cb8-4e3c-b2d5-53ec33e23d47","ios":"levelo://app?vid=a596bc68-7cb8-4e3c-b2d5-53ec33e23d47"},"vehicle_type_id":"4","last_reported":1707332725,"current_range_meters":30000,"station_id":"ce4bgkh2rcd13ifvqbk0","pricing_plan_id":"free"},{"bike_id":"4c74deb1-0555-43c0-a497-14b690e369fa","system_id":"levelo_inurba_marseille","lat":43.2936,"lon":5.37835,"is_reserved":false,"is_disabled":false,"rental_uris":{"android":"levelo://app?vid=4c74deb1-0555-43c0-a497-14b690e369fa","ios":"levelo://app?vid=4c74deb1-0555-43c0-a497-14b690e369fa"},"vehicle_type_id":"4","last_reported":1707332725,"current_range_meters":2000,"station_id":"ce4bgjh2rcd13ifvqbf0","pricing_plan_id":"free"},{"bike_id":"2dcf14e8-3b7e-4e97-8b44-dbb88d06ff46","system_id":"levelo_inurba_marseille","lat":43.302992,"lon":5.392136,"is_reserved":false,"is_disabled":false,"rental_uris":{"android":"levelo://app?vid=2dcf14e8-3b7e-4e97-8b44-dbb88d06ff46","ios":"levelo://app?vid=2dcf14e8-3b7e-4e97-8b44-dbb88d06ff46"},"vehicle_type_id":"4","last_reported":1707332725,"current_range_meters":11600,"station_id":"ce4bgkh2rcd13ifvqbk0","pricing_plan_id":"free"},{"bike_id":"ce94bd1b-4375-4764-b6d6-3b35ef78fecb","system_id":"levelo_inurba_marseille","lat":43.291671,"lon":5.371575,"is_reserved":false,"is_disabled":false,"rental_uris":{"android":"levelo://app?vid=ce94bd1b-4375-4764-b6d6-3b35ef78fecb","ios":"levelo://app?vid=ce94bd1b-4375-4764-b6d6-3b35ef78fecb"},"vehicle_type_id":"4","last_reported":1707332725,"current_range_meters":3600,"station_id":"ce4bha92rcd13ifvqeh0","pricing_plan_id":"free"},{"bike_id":"75688759-0ad5-4c4e-98c4-24590af0b145","system_id":"levelo_inurba_marseille","lat":43.302992,"lon":5.392136,"is_reserved":false,"is_disabled":false,"rental_uris":{"android":"levelo://app?vid=75688759-0ad5-4c4e-98c4-24590af0b145","ios":"levelo://app?vid=75688759-0ad5-4c4e-98c4-24590af0b145"},"vehicle_type_id":"4","last_reported":1707332725,"current_range_meters":11600,"station_id":"ce4bgkh2rcd13ifvqbk0","pricing_plan_id":"free"},{"bike_id":"f702ea93-e487-42d4-a134-debfa2cfd9cf","system_id":"levelo_inurba_marseille","lat":43.300852,"lon":5.390859,"is_reserved":false,"is_disabled":false,"rental_uris":{"android":"levelo://app?vid=f702ea93-e487-42d4-a134-debfa2cfd9cf","ios":"levelo://app?vid=f702ea93-e487-42d4-a134-debfa2cfd9cf"},"vehicle_type_id":"4","last_reported":1707332725,"current_range_meters":17600,"station_id":"ce4bh192rcd13ifvqdb0","pricing_plan_id":"free"},{"bike_id":"e92eb114-adcd-41bb-9dd2-aec32e9d2055","system_id":"levelo_inurba_marseille","lat":43.30085,"lon":5.390856,"is_reserved":false,"is_disabled":false,"rental_uris":{"android":"levelo://app?vid=e92eb114-adcd-41bb-9dd2-aec32e9d2055","ios":"levelo://app?vid=e92eb114-adcd-41bb-9dd2-aec32e9d2055"},"vehicle_type_id":"4","last_reported":1707332725,"current_range_meters":17200,"station_id":"ce4bh192rcd13ifvqdb0","pricing_plan_id":"free"},{"bike_id":"803cd867-22d9-4234-b493-e3e74308465c","system_id":"levelo_inurba_marseille","lat":43.300852,"lon":5.390859,"is_reserved":false,"is_disabled":false,"rental_uris":{"android":"levelo://app?vid=803cd867-22d9-4234-b493-e3e74308465c","ios":"levelo://app?vid=803cd867-22d9-4234-b493-e3e74308465c"},"vehicle_type_id":"4","last_reported":1707332725,"current_range_meters":6800,"station_id":"ce4bh192rcd13ifvqdb0","pricing_plan_id":"free"},{"bike_id":"12835e54-73ec-41fd-b772-20fac025e404","system_id":"levelo_inurba_marseille","lat":43.292311,"lon":5.360731,"is_reserved":false,"is_disabled":false,"rental_uris":{"android":"levelo://app?vid=12835e54-73ec-41fd-b772-20fac025e404","ios":"levelo://app?vid=12835e54-73ec-41fd-b772-20fac025e404"},"vehicle_type_id":"4","last_reported":1707332725,"current_range_meters":13600,"station_id":"ce4bhbh2rcd13ifvqeqg","pricing_plan_id":"free"},{"bike_id":"582a6719-69a3-4713-a14e-ba2b8e9f8845","system_id":"levelo_inurba_marseille","lat":43.29298,"lon":5.37704,"is_reserved":false,"is_disabled":false,"rental_uris":{"android":"levelo://app?vid=582a6719-69a3-4713-a14e-ba2b8e9f8845","ios":"levelo://app?vid=582a6719-69a3-4713-a14e-ba2b8e9f8845"},"vehicle_type_id":"4","last_reported":1707332725,"current_range_meters":0,"station_id":"","pricing_plan_id":"free"},{"bike_id":"9d18b75b-910a-4862-89fe-82b3dde26bd1","system_id":"levelo_inurba_marseille","lat":43.291671,"lon":5.371575,"is_reserved":false,"is_disabled":false,"rental_uris":{"android":"levelo://app?vid=9d18b75b-910a-4862-89fe-82b3dde26bd1","ios":"levelo://app?vid=9d18b75b-910a-4862-89fe-82b3dde26bd1"},"vehicle_type_id":"4","last_reported":1707332725,"current_range_meters":6000,"station_id":"ce4bha92rcd13ifvqeh0","pricing_plan_id":"free"},{"bike_id":"2f6d5904-e6c7-4ba2-9490-9b235f9d40a0","system_id":"levelo_inurba_marseille","lat":43.293009,"lon":5.374584,"is_reserved":false,"is_disabled":false,"rental_uris":{"android":"levelo://app?vid=2f6d5904-e6c7-4ba2-9490-9b235f9d40a0","ios":"levelo://app?vid=2f6d5904-e6c7-4ba2-9490-9b235f9d40a0"},"vehicle_type_id":"4","last_reported":1707332725,"current_range_meters":16000,"station_id":"ce4bgi12rcd13ifvqb70","pricing_plan_id":"free"},{"bike_id":"31b36272-36f0-48a0-9561-37db8fa1b989","system_id":"levelo_inurba_marseille","lat":43.29872,"lon":5.38912,"is_reserved":false,"is_disabled":false,"rental_uris":{"android":"levelo://app?vid=31b36272-36f0-48a0-9561-37db8fa1b989","ios":"levelo://app?vid=31b36272-36f0-48a0-9561-37db8fa1b989"},"vehicle_type_id":"4","last_reported":1707332725,"current_range_meters":6800,"station_id":"ce4bh392rcd13ifvqdl0","pricing_plan_id":"free"},{"bike_id":"559c12e5-9af4-4463-93e9-fd6f046ba457","system_id":"levelo_inurba_marseille","lat":43.291994,"lon":5.357886,"is_reserved":false,"is_disabled":false,"rental_uris":{"android":"levelo://app?vid=559c12e5-9af4-4463-93e9-fd6f046ba457","ios":"levelo://app?vid=559c12e5-9af4-4463-93e9-fd6f046ba457"},"vehicle_type_id":"4","last_reported":1707332725,"current_range_meters":1200,"station_id":"ce4bhb12rcd13ifvqel0","pricing_plan_id":"free"},{"bike_id":"65555ee1-6283-4898-9bad-59a3bb58b2e7","system_id":"levelo_inurba_marseille","lat":43.291994,"lon":5.357886,"is_reserved":false,"is_disabled":false,"rental_uris":{"android":"levelo://app?vid=65555ee1-6283-4898-9bad-59a3bb58b2e7","ios":"levelo://app?vid=65555ee1-6283-4898-9bad-59a3bb58b2e7"},"vehicle_type_id":"4","last_reported":1707332725,"current_range_meters":12400,"station_id":"ce4bhb12rcd13ifvqel0","pricing_plan_id":"free"},{"bike_id":"4eeba977-bb99-4954-9eae-c8d8c7b08092","system_id":"levelo_inurba_marseille","lat":43.291994,"lon":5.357886,"is_reserved":false,"is_disabled":false,"rental_uris":{"android":"levelo://app?vid=4eeba977-bb99-4954-9eae-c8d8c7b08092","ios":"levelo://app?vid=4eeba977-bb99-4954-9eae-c8d8c7b08092"},"vehicle_type_id":"4","last_reported":1707332725,"current_range_meters":9200,"station_id":"ce4bhb12rcd13ifvqel0","pricing_plan_id":"free"},{"bike_id":"d249e24d-1f9f-43f2-817f-c68778aa0172","system_id":"levelo_inurba_marseille","lat":43.291994,"lon":5.357886,"is_reserved":false,"is_disabled":false,"rental_uris":{"android":"levelo://app?vid=d249e24d-1f9f-43f2-817f-c68778aa0172","ios":"levelo://app?vid=d249e24d-1f9f-43f2-817f-c68778aa0172"},"vehicle_type_id":"4","last_reported":1707332725,"current_range_meters":21600,"station_id":"ce4bhb12rcd13ifvqel0","pricing_plan_id":"free"},{"bike_id":"b9bf0314-a25e-4aa9-9b3c-8ddf4eee1850","system_id":"levelo_inurba_marseille","lat":43.313291,"lon":5.396838,"is_reserved":false,"is_disabled":false,"rental_uris":{"android":"levelo://app?vid=b9bf0314-a25e-4aa9-9b3c-8ddf4eee1850","ios":"levelo://app?vid=b9bf0314-a25e-4aa9-9b3c-8ddf4eee1850"},"vehicle_type_id":"4","last_reported":1707332725,"current_range_meters":16800,"station_id":"ce4bgvp2rcd13ifvqcu0","pricing_plan_id":"free"},{"bike_id":"ca0381d4-a7bb-4d4e-b380-75f503f97b3a","system_id":"levelo_inurba_marseille","lat":43.313291,"lon":5.396838,"is_reserved":false,"is_disabled":false,"rental_uris":{"android":"levelo://app?vid=ca0381d4-a7bb-4d4e-b380-75f503f97b3a","ios":"levelo://app?vid=ca0381d4-a7bb-4d4e-b380-75f503f97b3a"},"vehicle_type_id":"4","last_reported":1707332725,"current_range_meters":800,"station_id":"ce4bgvp2rcd13ifvqcu0","pricing_plan_id":"free"},{"bike_id":"58b5493f-9192-41f3-9ab9-b0144419b07e","system_id":"levelo_inurba_marseille","lat":43.313291,"lon":5.396838,"is_reserved":false,"is_disabled":false,"rental_uris":{"android":"levelo://app?vid=58b5493f-9192-41f3-9ab9-b0144419b07e","ios":"levelo://app?vid=58b5493f-9192-41f3-9ab9-b0144419b07e"},"vehicle_type_id":"4","last_reported":1707332725,"current_range_meters":20800,"station_id":"ce4bgvp2rcd13ifvqcu0","pricing_plan_id":"free"},{"bike_id":"c522e384-33f4-4712-a52c-9ba65fe63c49","system_id":"levelo_inurba_marseille","lat":43.309038,"lon":5.396546,"is_reserved":false,"is_disabled":false,"rental_uris":{"android":"levelo://app?vid=c522e384-33f4-4712-a52c-9ba65fe63c49","ios":"levelo://app?vid=c522e384-33f4-4712-a52c-9ba65fe63c49"},"vehicle_type_id":"4","last_reported":1707332725,"current_range_meters":17600,"station_id":"ce4bh012rcd13ifvqcv0","pricing_plan_id":"free"},{"bike_id":"604ff3af-7c8b-47ae-9eae-51d46285feb0","system_id":"levelo_inurba_marseille","lat":43.313291,"lon":5.396838,"is_reserved":false,"is_disabled":false,"rental_uris":{"android":"levelo://app?vid=604ff3af-7c8b-47ae-9eae-51d46285feb0","ios":"levelo://app?vid=604ff3af-7c8b-47ae-9eae-51d46285feb0"},"vehicle_type_id":"4","last_reported":1707332725,"current_range_meters":19600,"station_id":"ce4bgvp2rcd13ifvqcu0","pricing_plan_id":"free"},{"bike_id":"670ef743-7e2e-43f4-82d3-cbd2f89370c0","system_id":"levelo_inurba_marseille","lat":43.309038,"lon":5.396546,"is_reserved":false,"is_disabled":false,"rental_uris":{"android":"levelo://app?vid=670ef743-7e2e-43f4-82d3-cbd2f89370c0","ios":"levelo://app?vid=670ef743-7e2e-43f4-82d3-cbd2f89370c0"},"vehicle_type_id":"4","last_reported":1707332725,"current_range_meters":9600,"station_id":"ce4bh012rcd13ifvqcv0","pricing_plan_id":"free"},{"bike_id":"26f67b13-4e44-46c6-8586-90d041af89b4","system_id":"levelo_inurba_marseille","lat":43.29529,"lon":5.385581,"is_reserved":false,"is_disabled":false,"rental_uris":{"android":"levelo://app?vid=26f67b13-4e44-46c6-8586-90d041af89b4","ios":"levelo://app?vid=26f67b13-4e44-46c6-8586-90d041af89b4"},"vehicle_type_id":"4","last_reported":1707332725,"current_range_meters":11600,"station_id":"ce4bgih2rcd13ifvqba0","pricing_plan_id":"free"},{"bike_id":"f28e3eda-4a7b-43a0-971d-48fa2402fcef","system_id":"levelo_inurba_marseille","lat":43.29529,"lon":5.385581,"is_reserved":false,"is_disabled":false,"rental_uris":{"android":"levelo://app?vid=f28e3eda-4a7b-43a0-971d-48fa2402fcef","ios":"levelo://app?vid=f28e3eda-4a7b-43a0-971d-48fa2402fcef"},"vehicle_type_id":"4","last_reported":1707332725,"current_range_meters":18400,"station_id":"ce4bgih2rcd13ifvqba0","pricing_plan_id":"free"},{"bike_id":"42af090d-e5f4-4463-bfcb-6647bbe86a66","system_id":"levelo_inurba_marseille","lat":43.29531,"lon":5.38541,"is_reserved":false,"is_disabled":false,"rental_uris":{"android":"levelo://app?vid=42af090d-e5f4-4463-bfcb-6647bbe86a66","ios":"levelo://app?vid=42af090d-e5f4-4463-bfcb-6647bbe86a66"},"vehicle_type_id":"4","last_reported":1707332725,"current_range_meters":15600,"station_id":"ce4bgih2rcd13ifvqba0","pricing_plan_id":"free"},{"bike_id":"971a8b13-a8ad-4502-8b41-2369db8a4b60","system_id":"levelo_inurba_marseille","lat":43.29529,"lon":5.385581,"is_reserved":false,"is_disabled":false,"rental_uris":{"android":"levelo://app?vid=971a8b13-a8ad-4502-8b41-2369db8a4b60","ios":"levelo://app?vid=971a8b13-a8ad-4502-8b41-2369db8a4b60"},"vehicle_type_id":"4","last_reported":1707332725,"current_range_meters":14000,"station_id":"ce4bgih2rcd13ifvqba0","pricing_plan_id":"free"},{"bike_id":"8ec5bdd7-00f7-4116-b8e1-a22ad9b50462","system_id":"levelo_inurba_marseille","lat":43.298859,"lon":5.390631,"is_reserved":false,"is_disabled":false,"rental_uris":{"android":"levelo://app?vid=8ec5bdd7-00f7-4116-b8e1-a22ad9b50462","ios":"levelo://app?vid=8ec5bdd7-00f7-4116-b8e1-a22ad9b50462"},"vehicle_type_id":"4","last_reported":1707332725,"current_range_meters":3600,"station_id":"","pricing_plan_id":"free"},{"bike_id":"daa3c467-c8ec-4b3c-8e08-8c18a05b38e8","system_id":"levelo_inurba_marseille","lat":43.290779,"lon":5.371482,"is_reserved":false,"is_disabled":false,"rental_uris":{"android":"levelo://app?vid=daa3c467-c8ec-4b3c-8e08-8c18a05b38e8","ios":"levelo://app?vid=daa3c467-c8ec-4b3c-8e08-8c18a05b38e8"},"vehicle_type_id":"4","last_reported":1707332725,"current_range_meters":14000,"station_id":"ce4bh5p2rcd13ifvqe4g","pricing_plan_id":"free"},{"bike_id":"dbe48590-c220-4dfd-86d6-8e0a077ba63e","system_id":"levelo_inurba_marseille","lat":43.290779,"lon":5.371482,"is_reserved":false,"is_disabled":false,"rental_uris":{"android":"levelo://app?vid=dbe48590-c220-4dfd-86d6-8e0a077ba63e","ios":"levelo://app?vid=dbe48590-c220-4dfd-86d6-8e0a077ba63e"},"vehicle_type_id":"4","last_reported":1707332725,"current_range_meters":0,"station_id":"ce4bh5p2rcd13ifvqe4g","pricing_plan_id":"free"},{"bike_id":"d66128eb-a030-42d3-a6d9-90e8c3e4c18e","system_id":"levelo_inurba_marseille","lat":43.302008,"lon":5.394694,"is_reserved":false,"is_disabled":false,"rental_uris":{"android":"levelo://app?vid=d66128eb-a030-42d3-a6d9-90e8c3e4c18e","ios":"levelo://app?vid=d66128eb-a030-42d3-a6d9-90e8c3e4c18e"},"vehicle_type_id":"4","last_reported":1707332725,"current_range_meters":400,"station_id":"ce4bh0p2rcd13ifvqd70","pricing_plan_id":"free"},{"bike_id":"4513bc7e-ae14-4396-bc27-9a9457d41509","system_id":"levelo_inurba_marseille","lat":43.302008,"lon":5.394694,"is_reserved":false,"is_disabled":false,"rental_uris":{"android":"levelo://app?vid=4513bc7e-ae14-4396-bc27-9a9457d41509","ios":"levelo://app?vid=4513bc7e-ae14-4396-bc27-9a9457d41509"},"vehicle_type_id":"4","last_reported":1707332725,"current_range_meters":8000,"station_id":"ce4bh0p2rcd13ifvqd70","pricing_plan_id":"free"},{"bike_id":"c59e6c07-f6a9-4bae-8558-57a14728b212","system_id":"levelo_inurba_marseille","lat":43.302008,"lon":5.394694,"is_reserved":false,"is_disabled":false,"rental_uris":{"android":"levelo://app?vid=c59e6c07-f6a9-4bae-8558-57a14728b212","ios":"levelo://app?vid=c59e6c07-f6a9-4bae-8558-57a14728b212"},"vehicle_type_id":"4","last_reported":1707332725,"current_range_meters":12800,"station_id":"ce4bh0p2rcd13ifvqd70","pricing_plan_id":"free"},{"bike_id":"c10d4111-f488-45c1-abd4-513fb1575c81","system_id":"levelo_inurba_marseille","lat":43.290624,"lon":5.359245,"is_reserved":false,"is_disabled":false,"rental_uris":{"android":"levelo://app?vid=c10d4111-f488-45c1-abd4-513fb1575c81","ios":"levelo://app?vid=c10d4111-f488-45c1-abd4-513fb1575c81"},"vehicle_type_id":"4","last_reported":1707332725,"current_range_meters":1200,"station_id":"ce4bha92rcd13ifvqeg0","pricing_plan_id":"free"},{"bike_id":"db1e873c-c6ff-40cf-af2b-b52105a9c4f8","system_id":"levelo_inurba_marseille","lat":43.290631,"lon":5.359244,"is_reserved":false,"is_disabled":false,"rental_uris":{"android":"levelo://app?vid=db1e873c-c6ff-40cf-af2b-b52105a9c4f8","ios":"levelo://app?vid=db1e873c-c6ff-40cf-af2b-b52105a9c4f8"},"vehicle_type_id":"4","last_reported":1707332725,"current_range_meters":30800,"station_id":"ce4bha92rcd13ifvqeg0","pricing_plan_id":"free"},{"bike_id":"36d619b3-d4b4-4535-a98e-ee29178c1cb0","system_id":"levelo_inurba_marseille","lat":43.294332,"lon":5.38597,"is_reserved":false,"is_disabled":false,"rental_uris":{"android":"levelo://app?vid=36d619b3-d4b4-4535-a98e-ee29178c1cb0","ios":"levelo://app?vid=36d619b3-d4b4-4535-a98e-ee29178c1cb0"},"vehicle_type_id":"4","last_reported":1707332725,"current_range_meters":23600,"station_id":"ce4bh2h2rcd13ifvqdh0","pricing_plan_id":"free"},{"bike_id":"6dd206b4-aae2-4d4e-91a6-3b03e68f22c5","system_id":"levelo_inurba_marseille","lat":43.29424,"lon":5.3862,"is_reserved":false,"is_disabled":false,"rental_uris":{"android":"levelo://app?vid=6dd206b4-aae2-4d4e-91a6-3b03e68f22c5","ios":"levelo://app?vid=6dd206b4-aae2-4d4e-91a6-3b03e68f22c5"},"vehicle_type_id":"4","last_reported":1707332725,"current_range_meters":22400,"station_id":"ce4bh2h2rcd13ifvqdh0","pricing_plan_id":"free"},{"bike_id":"e8f9c4ed-5ebb-48d3-9c06-83bff1c249ac","system_id":"levelo_inurba_marseille","lat":43.29419,"lon":5.38623,"is_reserved":false,"is_disabled":false,"rental_uris":{"android":"levelo://app?vid=e8f9c4ed-5ebb-48d3-9c06-83bff1c249ac","ios":"levelo://app?vid=e8f9c4ed-5ebb-48d3-9c06-83bff1c249ac"},"vehicle_type_id":"4","last_reported":1707332725,"current_range_meters":3200,"station_id":"ce4bh2h2rcd13ifvqdh0","pricing_plan_id":"free"},{"bike_id":"d1cee841-56ef-4d57-8e98-4f77e9662c24","system_id":"levelo_inurba_marseille","lat":43.29423,"lon":5.38631,"is_reserved":false,"is_disabled":false,"rental_uris":{"android":"levelo://app?vid=d1cee841-56ef-4d57-8e98-4f77e9662c24","ios":"levelo://app?vid=d1cee841-56ef-4d57-8e98-4f77e9662c24"},"vehicle_type_id":"4","last_reported":1707332725,"current_range_meters":12800,"station_id":"ce4bh2h2rcd13ifvqdh0","pricing_plan_id":"free"},{"bike_id":"80f81776-752c-4d9b-ae92-8bd4351819b8","system_id":"levelo_inurba_marseille","lat":43.294153,"lon":5.386305,"is_reserved":false,"is_disabled":false,"rental_uris":{"android":"levelo://app?vid=80f81776-752c-4d9b-ae92-8bd4351819b8","ios":"levelo://app?vid=80f81776-752c-4d9b-ae92-8bd4351819b8"},"vehicle_type_id":"4","last_reported":1707332725,"current_range_meters":7600,"station_id":"ce4bh2h2rcd13ifvqdh0","pricing_plan_id":"free"},{"bike_id":"353a9587-f08c-419f-8222-1dbdc68542b6","system_id":"levelo_inurba_marseille","lat":43.289184,"lon":5.366408,"is_reserved":false,"is_disabled":false,"rental_uris":{"android":"levelo://app?vid=353a9587-f08c-419f-8222-1dbdc68542b6","ios":"levelo://app?vid=353a9587-f08c-419f-8222-1dbdc68542b6"},"vehicle_type_id":"4","last_reported":1707332725,"current_range_meters":0,"station_id":"ce4bhap2rcd13ifvqek0","pricing_plan_id":"free"},{"bike_id":"24055144-72b0-4238-b13d-6ef058a74371","system_id":"levelo_inurba_marseille","lat":43.29419,"lon":5.38628,"is_reserved":false,"is_disabled":false,"rental_uris":{"android":"levelo://app?vid=24055144-72b0-4238-b13d-6ef058a74371","ios":"levelo://app?vid=24055144-72b0-4238-b13d-6ef058a74371"},"vehicle_type_id":"4","last_reported":1707332725,"current_range_meters":0,"station_id":"ce4bh2h2rcd13ifvqdh0","pricing_plan_id":"free"},{"bike_id":"c0c9faf3-353a-4ad1-be06-ba1653f8b7b8","system_id":"levelo_inurba_marseille","lat":43.2942,"lon":5.38631,"is_reserved":false,"is_disabled":false,"rental_uris":{"android":"levelo://app?vid=c0c9faf3-353a-4ad1-be06-ba1653f8b7b8","ios":"levelo://app?vid=c0c9faf3-353a-4ad1-be06-ba1653f8b7b8"},"vehicle_type_id":"4","last_reported":1707332725,"current_range_meters":10400,"station_id":"ce4bh2h2rcd13ifvqdh0","pricing_plan_id":"free"},{"bike_id":"f0e03611-7246-4f6e-abd0-89cb91fb5b7c","system_id":"levelo_inurba_marseille","lat":43.29418,"lon":5.38628,"is_reserved":false,"is_disabled":false,"rental_uris":{"android":"levelo://app?vid=f0e03611-7246-4f6e-abd0-89cb91fb5b7c","ios":"levelo://app?vid=f0e03611-7246-4f6e-abd0-89cb91fb5b7c"},"vehicle_type_id":"4","last_reported":1707332725,"current_range_meters":18000,"station_id":"ce4bh2h2rcd13ifvqdh0","pricing_plan_id":"free"},{"bike_id":"9d9bde4a-aa7d-4ecd-a75c-b2424ff5d0d2","system_id":"levelo_inurba_marseille","lat":43.29419,"lon":5.3863,"is_reserved":false,"is_disabled":false,"rental_uris":{"android":"levelo://app?vid=9d9bde4a-aa7d-4ecd-a75c-b2424ff5d0d2","ios":"levelo://app?vid=9d9bde4a-aa7d-4ecd-a75c-b2424ff5d0d2"},"vehicle_type_id":"4","last_reported":1707332725,"current_range_meters":800,"station_id":"ce4bh2h2rcd13ifvqdh0","pricing_plan_id":"free"},{"bike_id":"6c092874-28bd-4f09-8cfe-b56c35c4c698","system_id":"levelo_inurba_marseille","lat":43.29421,"lon":5.38636,"is_reserved":false,"is_disabled":false,"rental_uris":{"android":"levelo://app?vid=6c092874-28bd-4f09-8cfe-b56c35c4c698","ios":"levelo://app?vid=6c092874-28bd-4f09-8cfe-b56c35c4c698"},"vehicle_type_id":"4","last_reported":1707332725,"current_range_meters":16800,"station_id":"ce4bh2h2rcd13ifvqdh0","pricing_plan_id":"free"},{"bike_id":"326f4fa5-5595-475a-a572-8df175a408b7","system_id":"levelo_inurba_marseille","lat":43.29416,"lon":5.38627,"is_reserved":false,"is_disabled":false,"rental_uris":{"android":"levelo://app?vid=326f4fa5-5595-475a-a572-8df175a408b7","ios":"levelo://app?vid=326f4fa5-5595-475a-a572-8df175a408b7"},"vehicle_type_id":"4","last_reported":1707332725,"current_range_meters":10400,"station_id":"ce4bh2h2rcd13ifvqdh0","pricing_plan_id":"free"},{"bike_id":"afd1d01c-aebf-478b-b40c-d3361438a821","system_id":"levelo_inurba_marseille","lat":43.28943,"lon":5.36635,"is_reserved":false,"is_disabled":false,"rental_uris":{"android":"levelo://app?vid=afd1d01c-aebf-478b-b40c-d3361438a821","ios":"levelo://app?vid=afd1d01c-aebf-478b-b40c-d3361438a821"},"vehicle_type_id":"4","last_reported":1707332725,"current_range_meters":0,"station_id":"ce4bhap2rcd13ifvqek0","pricing_plan_id":"free"},{"bike_id":"21fbaf72-48c5-496a-8bf2-96464bd03cfe","system_id":"levelo_inurba_marseille","lat":43.29416,"lon":5.38628,"is_reserved":false,"is_disabled":false,"rental_uris":{"android":"levelo://app?vid=21fbaf72-48c5-496a-8bf2-96464bd03cfe","ios":"levelo://app?vid=21fbaf72-48c5-496a-8bf2-96464bd03cfe"},"vehicle_type_id":"4","last_reported":1707332725,"current_range_meters":0,"station_id":"ce4bh2h2rcd13ifvqdh0","pricing_plan_id":"free"},{"bike_id":"7997289f-6588-4b17-bcbc-e8ceca2b2121","system_id":"levelo_inurba_marseille","lat":43.289468,"lon":5.363719,"is_reserved":false,"is_disabled":false,"rental_uris":{"android":"levelo://app?vid=7997289f-6588-4b17-bcbc-e8ceca2b2121","ios":"levelo://app?vid=7997289f-6588-4b17-bcbc-e8ceca2b2121"},"vehicle_type_id":"4","last_reported":1707332725,"current_range_meters":3600,"station_id":"ce4bhc92rcd13ifvqetg","pricing_plan_id":"free"},{"bike_id":"e99e91a8-2de2-4ec5-a272-b7c3251cb86e","system_id":"levelo_inurba_marseille","lat":43.29422,"lon":5.386423,"is_reserved":false,"is_disabled":false,"rental_uris":{"android":"levelo://app?vid=e99e91a8-2de2-4ec5-a272-b7c3251cb86e","ios":"levelo://app?vid=e99e91a8-2de2-4ec5-a272-b7c3251cb86e"},"vehicle_type_id":"4","last_reported":1707332725,"current_range_meters":12400,"station_id":"ce4bh2h2rcd13ifvqdh0","pricing_plan_id":"free"},{"bike_id":"2f08d919-521f-4196-8eda-27e8262d3502","system_id":"levelo_inurba_marseille","lat":43.289184,"lon":5.366408,"is_reserved":false,"is_disabled":false,"rental_uris":{"android":"levelo://app?vid=2f08d919-521f-4196-8eda-27e8262d3502","ios":"levelo://app?vid=2f08d919-521f-4196-8eda-27e8262d3502"},"vehicle_type_id":"4","last_reported":1707332725,"current_range_meters":4800,"station_id":"ce4bhap2rcd13ifvqek0","pricing_plan_id":"free"},{"bike_id":"0f4feece-124a-4dca-8acf-da2a69cd8f25","system_id":"levelo_inurba_marseille","lat":43.29418,"lon":5.38638,"is_reserved":false,"is_disabled":false,"rental_uris":{"android":"levelo://app?vid=0f4feece-124a-4dca-8acf-da2a69cd8f25","ios":"levelo://app?vid=0f4feece-124a-4dca-8acf-da2a69cd8f25"},"vehicle_type_id":"4","last_reported":1707332725,"current_range_meters":10000,"station_id":"ce4bh2h2rcd13ifvqdh0","pricing_plan_id":"free"},{"bike_id":"85c155af-7c01-4ebd-892d-e39d3bb33b04","system_id":"levelo_inurba_marseille","lat":43.29413,"lon":5.38633,"is_reserved":false,"is_disabled":false,"rental_uris":{"android":"levelo://app?vid=85c155af-7c01-4ebd-892d-e39d3bb33b04","ios":"levelo://app?vid=85c155af-7c01-4ebd-892d-e39d3bb33b04"},"vehicle_type_id":"4","last_reported":1707332725,"current_range_meters":5600,"station_id":"ce4bh2h2rcd13ifvqdh0","pricing_plan_id":"free"},{"bike_id":"c82330b6-f358-4daf-9658-3e0529d37f1f","system_id":"levelo_inurba_marseille","lat":43.289184,"lon":5.366408,"is_reserved":false,"is_disabled":false,"rental_uris":{"android":"levelo://app?vid=c82330b6-f358-4daf-9658-3e0529d37f1f","ios":"levelo://app?vid=c82330b6-f358-4daf-9658-3e0529d37f1f"},"vehicle_type_id":"4","last_reported":1707332725,"current_range_meters":12800,"station_id":"ce4bhap2rcd13ifvqek0","pricing_plan_id":"free"},{"bike_id":"0763390e-68bf-487f-9535-536e4bd278b8","system_id":"levelo_inurba_marseille","lat":43.29278,"lon":5.38449,"is_reserved":false,"is_disabled":false,"rental_uris":{"android":"levelo://app?vid=0763390e-68bf-487f-9535-536e4bd278b8","ios":"levelo://app?vid=0763390e-68bf-487f-9535-536e4bd278b8"},"vehicle_type_id":"4","last_reported":1707332725,"current_range_meters":800,"station_id":"ce4bh692rcd13ifvqea0","pricing_plan_id":"free"},{"bike_id":"04442833-e28a-4df0-b429-8f92abe0225f","system_id":"levelo_inurba_marseille","lat":43.295169,"lon":5.390426,"is_reserved":false,"is_disabled":false,"rental_uris":{"android":"levelo://app?vid=04442833-e28a-4df0-b429-8f92abe0225f","ios":"levelo://app?vid=04442833-e28a-4df0-b429-8f92abe0225f"},"vehicle_type_id":"4","last_reported":1707332725,"current_range_meters":25600,"station_id":"ce4bh3p2rcd13ifvqdp0","pricing_plan_id":"free"},{"bike_id":"cc0f128e-7d1f-4b75-a2d2-3f3d5085c7f9","system_id":"levelo_inurba_marseille","lat":43.292642,"lon":5.384254,"is_reserved":false,"is_disabled":false,"rental_uris":{"android":"levelo://app?vid=cc0f128e-7d1f-4b75-a2d2-3f3d5085c7f9","ios":"levelo://app?vid=cc0f128e-7d1f-4b75-a2d2-3f3d5085c7f9"},"vehicle_type_id":"4","last_reported":1707332725,"current_range_meters":17600,"station_id":"ce4bh692rcd13ifvqea0","pricing_plan_id":"free"},{"bike_id":"017d8d50-eaa3-45f4-a288-70c602280d86","system_id":"levelo_inurba_marseille","lat":43.29267,"lon":5.38443,"is_reserved":false,"is_disabled":false,"rental_uris":{"android":"levelo://app?vid=017d8d50-eaa3-45f4-a288-70c602280d86","ios":"levelo://app?vid=017d8d50-eaa3-45f4-a288-70c602280d86"},"vehicle_type_id":"4","last_reported":1707332725,"current_range_meters":0,"station_id":"ce4bh692rcd13ifvqea0","pricing_plan_id":"free"},{"bike_id":"a0f753fe-f25f-4bba-83b4-99c2b99099ad","system_id":"levelo_inurba_marseille","lat":43.292642,"lon":5.384254,"is_reserved":false,"is_disabled":false,"rental_uris":{"android":"levelo://app?vid=a0f753fe-f25f-4bba-83b4-99c2b99099ad","ios":"levelo://app?vid=a0f753fe-f25f-4bba-83b4-99c2b99099ad"},"vehicle_type_id":"4","last_reported":1707332725,"current_range_meters":20400,"station_id":"ce4bh692rcd13ifvqea0","pricing_plan_id":"free"},{"bike_id":"cc494729-5c52-4b16-96af-834b4ff1120f","system_id":"levelo_inurba_marseille","lat":43.29261,"lon":5.38434,"is_reserved":false,"is_disabled":false,"rental_uris":{"android":"levelo://app?vid=cc494729-5c52-4b16-96af-834b4ff1120f","ios":"levelo://app?vid=cc494729-5c52-4b16-96af-834b4ff1120f"},"vehicle_type_id":"4","last_reported":1707332725,"current_range_meters":8000,"station_id":"ce4bh692rcd13ifvqea0","pricing_plan_id":"free"},{"bike_id":"87dfd332-9711-4ecf-8db6-b7a2c4f0fc26","system_id":"levelo_inurba_marseille","lat":43.29262,"lon":5.38439,"is_reserved":false,"is_disabled":false,"rental_uris":{"android":"levelo://app?vid=87dfd332-9711-4ecf-8db6-b7a2c4f0fc26","ios":"levelo://app?vid=87dfd332-9711-4ecf-8db6-b7a2c4f0fc26"},"vehicle_type_id":"4","last_reported":1707332725,"current_range_meters":5200,"station_id":"ce4bh692rcd13ifvqea0","pricing_plan_id":"free"},{"bike_id":"0871e1fc-1317-4690-9623-25f24968d2a2","system_id":"levelo_inurba_marseille","lat":43.292642,"lon":5.384254,"is_reserved":false,"is_disabled":false,"rental_uris":{"android":"levelo://app?vid=0871e1fc-1317-4690-9623-25f24968d2a2","ios":"levelo://app?vid=0871e1fc-1317-4690-9623-25f24968d2a2"},"vehicle_type_id":"4","last_reported":1707332725,"current_range_meters":0,"station_id":"ce4bh692rcd13ifvqea0","pricing_plan_id":"free"},{"bike_id":"a775663f-ab34-4c67-9aec-7504c8d08c9c","system_id":"levelo_inurba_marseille","lat":43.292615,"lon":5.38443,"is_reserved":false,"is_disabled":false,"rental_uris":{"android":"levelo://app?vid=a775663f-ab34-4c67-9aec-7504c8d08c9c","ios":"levelo://app?vid=a775663f-ab34-4c67-9aec-7504c8d08c9c"},"vehicle_type_id":"4","last_reported":1707332725,"current_range_meters":27600,"station_id":"ce4bh692rcd13ifvqea0","pricing_plan_id":"free"},{"bike_id":"7e43dcb1-b8e3-4d4e-ba65-79825436701f","system_id":"levelo_inurba_marseille","lat":43.292638,"lon":5.384485,"is_reserved":false,"is_disabled":false,"rental_uris":{"android":"levelo://app?vid=7e43dcb1-b8e3-4d4e-ba65-79825436701f","ios":"levelo://app?vid=7e43dcb1-b8e3-4d4e-ba65-79825436701f"},"vehicle_type_id":"4","last_reported":1707332725,"current_range_meters":22000,"station_id":"ce4bh692rcd13ifvqea0","pricing_plan_id":"free"},{"bike_id":"06926800-b7ac-4a51-b7aa-9670bcf6da3e","system_id":"levelo_inurba_marseille","lat":43.304296,"lon":5.397513,"is_reserved":false,"is_disabled":false,"rental_uris":{"android":"levelo://app?vid=06926800-b7ac-4a51-b7aa-9670bcf6da3e","ios":"levelo://app?vid=06926800-b7ac-4a51-b7aa-9670bcf6da3e"},"vehicle_type_id":"4","last_reported":1707332725,"current_range_meters":24000,"station_id":"ce4bh092rcd13ifvqd20","pricing_plan_id":"free"},{"bike_id":"6416773e-031d-4d77-aea2-20062556282e","system_id":"levelo_inurba_marseille","lat":43.292642,"lon":5.384254,"is_reserved":false,"is_disabled":false,"rental_uris":{"android":"levelo://app?vid=6416773e-031d-4d77-aea2-20062556282e","ios":"levelo://app?vid=6416773e-031d-4d77-aea2-20062556282e"},"vehicle_type_id":"4","last_reported":1707332725,"current_range_meters":6400,"station_id":"ce4bh692rcd13ifvqea0","pricing_plan_id":"free"},{"bike_id":"5c7b4cd7-d438-4988-bd99-afbebe64a9f8","system_id":"levelo_inurba_marseille","lat":43.29263,"lon":5.38451,"is_reserved":false,"is_disabled":false,"rental_uris":{"android":"levelo://app?vid=5c7b4cd7-d438-4988-bd99-afbebe64a9f8","ios":"levelo://app?vid=5c7b4cd7-d438-4988-bd99-afbebe64a9f8"},"vehicle_type_id":"4","last_reported":1707332725,"current_range_meters":24400,"station_id":"ce4bh692rcd13ifvqea0","pricing_plan_id":"free"},{"bike_id":"3addc9cd-06ae-4dd8-8b01-5ae1a53e779e","system_id":"levelo_inurba_marseille","lat":43.292642,"lon":5.384254,"is_reserved":false,"is_disabled":false,"rental_uris":{"android":"levelo://app?vid=3addc9cd-06ae-4dd8-8b01-5ae1a53e779e","ios":"levelo://app?vid=3addc9cd-06ae-4dd8-8b01-5ae1a53e779e"},"vehicle_type_id":"4","last_reported":1707332725,"current_range_meters":18400,"station_id":"ce4bh692rcd13ifvqea0","pricing_plan_id":"free"},{"bike_id":"0cccf172-582d-4a96-825d-d71d08f63715","system_id":"levelo_inurba_marseille","lat":43.292642,"lon":5.384254,"is_reserved":false,"is_disabled":false,"rental_uris":{"android":"levelo://app?vid=0cccf172-582d-4a96-825d-d71d08f63715","ios":"levelo://app?vid=0cccf172-582d-4a96-825d-d71d08f63715"},"vehicle_type_id":"4","last_reported":1707332725,"current_range_meters":31200,"station_id":"ce4bh692rcd13ifvqea0","pricing_plan_id":"free"},{"bike_id":"9daacbce-94b8-425c-9393-339ecd817fe5","system_id":"levelo_inurba_marseille","lat":43.290995,"lon":5.381361,"is_reserved":false,"is_disabled":false,"rental_uris":{"android":"levelo://app?vid=9daacbce-94b8-425c-9393-339ecd817fe5","ios":"levelo://app?vid=9daacbce-94b8-425c-9393-339ecd817fe5"},"vehicle_type_id":"4","last_reported":1707332725,"current_range_meters":13600,"station_id":"ce4bh512rcd13ifvqe2g","pricing_plan_id":"free"},{"bike_id":"d475e962-e041-4261-85ae-e245db728d31","system_id":"levelo_inurba_marseille","lat":43.290995,"lon":5.381361,"is_reserved":false,"is_disabled":false,"rental_uris":{"android":"levelo://app?vid=d475e962-e041-4261-85ae-e245db728d31","ios":"levelo://app?vid=d475e962-e041-4261-85ae-e245db728d31"},"vehicle_type_id":"4","last_reported":1707332725,"current_range_meters":22800,"station_id":"ce4bh512rcd13ifvqe2g","pricing_plan_id":"free"},{"bike_id":"4cc06cd4-d530-45ec-bc86-b430e15ae38f","system_id":"levelo_inurba_marseille","lat":43.290995,"lon":5.381361,"is_reserved":false,"is_disabled":false,"rental_uris":{"android":"levelo://app?vid=4cc06cd4-d530-45ec-bc86-b430e15ae38f","ios":"levelo://app?vid=4cc06cd4-d530-45ec-bc86-b430e15ae38f"},"vehicle_type_id":"4","last_reported":1707332725,"current_range_meters":7600,"station_id":"ce4bh512rcd13ifvqe2g","pricing_plan_id":"free"},{"bike_id":"dcbb4f10-cf6b-45a3-82fa-a108922707b2","system_id":"levelo_inurba_marseille","lat":43.290995,"lon":5.381361,"is_reserved":false,"is_disabled":false,"rental_uris":{"android":"levelo://app?vid=dcbb4f10-cf6b-45a3-82fa-a108922707b2","ios":"levelo://app?vid=dcbb4f10-cf6b-45a3-82fa-a108922707b2"},"vehicle_type_id":"4","last_reported":1707332725,"current_range_meters":7200,"station_id":"ce4bh512rcd13ifvqe2g","pricing_plan_id":"free"},{"bike_id":"1b7e41b1-c68f-4513-807b-fa07556e95c3","system_id":"levelo_inurba_marseille","lat":43.29781,"lon":5.3932,"is_reserved":false,"is_disabled":false,"rental_uris":{"android":"levelo://app?vid=1b7e41b1-c68f-4513-807b-fa07556e95c3","ios":"levelo://app?vid=1b7e41b1-c68f-4513-807b-fa07556e95c3"},"vehicle_type_id":"4","last_reported":1707332725,"current_range_meters":29200,"station_id":"chh1huq6cuj3fo74tm60","pricing_plan_id":"free"},{"bike_id":"a026266b-b691-489a-b7c9-efc7e73952ab","system_id":"levelo_inurba_marseille","lat":43.297885,"lon":5.393285,"is_reserved":false,"is_disabled":false,"rental_uris":{"android":"levelo://app?vid=a026266b-b691-489a-b7c9-efc7e73952ab","ios":"levelo://app?vid=a026266b-b691-489a-b7c9-efc7e73952ab"},