{"last_updated":1690747590,"ttl":30,"version":"2.2","data":{"bikes":[{"bike_id":"e526d4e2-849c-44ae-a0d7-5572a62df909","system_id":"levelo_inurba_marseille","lat":43.31228,"lon":5.36867,"is_reserved":false,"is_disabled":false,"rental_uris":{"android":"levelo://app?vid=e526d4e2-849c-44ae-a0d7-5572a62df909","ios":"levelo://app?vid=e526d4e2-849c-44ae-a0d7-5572a62df909"},"vehicle_type_id":"4","last_reported":1690747590,"current_range_meters":22000,"station_id":"ce4bgl92rcd13ifvqbq0","pricing_plan_id":"free"},{"bike_id":"c83c5a34-1957-4419-a7f7-0c3ef0bb370e","system_id":"levelo_inurba_marseille","lat":43.314811,"lon":5.373103,"is_reserved":false,"is_disabled":false,"rental_uris":{"android":"levelo://app?vid=c83c5a34-1957-4419-a7f7-0c3ef0bb370e","ios":"levelo://app?vid=c83c5a34-1957-4419-a7f7-0c3ef0bb370e"},"vehicle_type_id":"4","last_reported":1690747590,"current_range_meters":15200,"station_id":"ce4bgt12rcd13ifvqcd0","pricing_plan_id":"free"},{"bike_id":"ed73c896-1709-4d48-9e72-fdc064066874","system_id":"levelo_inurba_marseille","lat":43.31493,"lon":5.37307,"is_reserved":false,"is_disabled":false,"rental_uris":{"android":"levelo://app?vid=ed73c896-1709-4d48-9e72-fdc064066874","ios":"levelo://app?vid=ed73c896-1709-4d48-9e72-fdc064066874"},"vehicle_type_id":"4","last_reported":1690747590,"current_range_meters":25200,"station_id":"ce4bgt12rcd13ifvqcd0","pricing_plan_id":"free"},{"bike_id":"a8056fe9-6fb0-49d2-b60e-a7be7d9e5dbe","system_id":"levelo_inurba_marseille","lat":43.305714,"lon":5.365633,"is_reserved":false,"is_disabled":false,"rental_uris":{"android":"levelo://app?vid=a8056fe9-6fb0-49d2-b60e-a7be7d9e5dbe","ios":"levelo://app?vid=a8056fe9-6fb0-49d2-b60e-a7be7d9e5dbe"},"vehicle_type_id":"4","last_reported":1690747590,"current_range_meters":11600,"station_id":"ce4bgs12rcd13ifvqcag","pricing_plan_id":"free"},{"bike_id":"7c3c202d-f86a-4532-a780-b801392cfb1c","system_id":"levelo_inurba_marseille","lat":43.305714,"lon":5.365633,"is_reserved":false,"is_disabled":false,"rental_uris":{"android":"levelo://app?vid=7c3c202d-f86a-4532-a780-b801392cfb1c","ios":"levelo://app?vid=7c3c202d-f86a-4532-a780-b801392cfb1c"},"vehicle_type_id":"4","last_reported":1690747590,"current_range_meters":28400,"station_id":"ce4bgs12rcd13ifvqcag","pricing_plan_id":"free"},{"bike_id":"f0604640-e99c-4f3a-b45a-61cdfb664c29","system_id":"levelo_inurba_marseille","lat":43.305714,"lon":5.365633,"is_reserved":false,"is_disabled":false,"rental_uris":{"android":"levelo://app?vid=f0604640-e99c-4f3a-b45a-61cdfb664c29","ios":"levelo://app?vid=f0604640-e99c-4f3a-b45a-61cdfb664c29"},"vehicle_type_id":"4","last_reported":1690747590,"current_range_meters":6000,"station_id":"ce4bgs12rcd13ifvqcag","pricing_plan_id":"free"},{"bike_id":"37ea31f8-d1b1-43c5-a29c-12b30d639a92","system_id":"levelo_inurba_marseille","lat":43.305706,"lon":5.365654,"is_reserved":false,"is_disabled":false,"rental_uris":{"android":"levelo://app?vid=37ea31f8-d1b1-43c5-a29c-12b30d639a92","ios":"levelo://app?vid=37ea31f8-d1b1-43c5-a29c-12b30d639a92"},"vehicle_type_id":"4","last_reported":1690747590,"current_range_meters":7200,"station_id":"ce4bgs12rcd13ifvqcag","pricing_plan_id":"free"},{"bike_id":"f79c5e8b-ebad-49cf-9a4a-927ffa2a3de3","system_id":"levelo_inurba_marseille","lat":43.30536,"lon":5.36557,"is_reserved":false,"is_disabled":false,"rental_uris":{"android":"levelo://app?vid=f79c5e8b-ebad-49cf-9a4a-927ffa2a3de3","ios":"levelo://app?vid=f79c5e8b-ebad-49cf-9a4a-927ffa2a3de3"},"vehicle_type_id":"4","last_reported":1690747590,"current_range_meters":19200,"station_id":"","pricing_plan_id":"free"},{"bike_id":"125d5878-ba66-4097-8161-7262e4469133","system_id":"levelo_inurba_marseille","lat":43.305706,"lon":5.365654,"is_reserved":false,"is_disabled":false,"rental_uris":{"android":"levelo://app?vid=125d5878-ba66-4097-8161-7262e4469133","ios":"levelo://app?vid=125d5878-ba66-4097-8161-7262e4469133"},"vehicle_type_id":"4","last_reported":1690747590,"current_range_meters":12800,"station_id":"ce4bgs12rcd13ifvqcag","pricing_plan_id":"free"},{"bike_id":"f20ea888-8740-440b-bfeb-8eb2a7c1f652","system_id":"levelo_inurba_marseille","lat":43.305989,"lon":5.37225,"is_reserved":false,"is_disabled":false,"rental_uris":{"android":"levelo://app?vid=f20ea888-8740-440b-bfeb-8eb2a7c1f652","ios":"levelo://app?vid=f20ea888-8740-440b-bfeb-8eb2a7c1f652"},"vehicle_type_id":"4","last_reported":1690747590,"current_range_meters":24000,"station_id":"ce4bgqh2rcd13ifvqc4g","pricing_plan_id":"free"},{"bike_id":"853e7613-8302-4aca-a554-492cf60aa406","system_id":"levelo_inurba_marseille","lat":43.317075,"lon":5.377367,"is_reserved":false,"is_disabled":false,"rental_uris":{"android":"levelo://app?vid=853e7613-8302-4aca-a554-492cf60aa406","ios":"levelo://app?vid=853e7613-8302-4aca-a554-492cf60aa406"},"vehicle_type_id":"4","last_reported":1690747590,"current_range_meters":5600,"station_id":"ce4bgth2rcd13ifvqch0","pricing_plan_id":"free"},{"bike_id":"244f4247-0f86-4a99-bdd6-13bf5af20159","system_id":"levelo_inurba_marseille","lat":43.3031,"lon":5.36901,"is_reserved":false,"is_disabled":false,"rental_uris":{"android":"levelo://app?vid=244f4247-0f86-4a99-bdd6-13bf5af20159","ios":"levelo://app?vid=244f4247-0f86-4a99-bdd6-13bf5af20159"},"vehicle_type_id":"4","last_reported":1690747590,"current_range_meters":14800,"station_id":"ce4bgqh2rcd13ifvqc5g","pricing_plan_id":"free"},{"bike_id":"9c1a6130-32ab-4254-82e7-e05de6b38888","system_id":"levelo_inurba_marseille","lat":43.3153,"lon":5.38029,"is_reserved":false,"is_disabled":false,"rental_uris":{"android":"levelo://app?vid=9c1a6130-32ab-4254-82e7-e05de6b38888","ios":"levelo://app?vid=9c1a6130-32ab-4254-82e7-e05de6b38888"},"vehicle_type_id":"4","last_reported":1690747590,"current_range_meters":23600,"station_id":"ce4bhsp2rcd13ifvqi50","pricing_plan_id":"free"},{"bike_id":"826d601a-9bd7-4da8-a822-1a3655483e9c","system_id":"levelo_inurba_marseille","lat":43.31527,"lon":5.38037,"is_reserved":false,"is_disabled":false,"rental_uris":{"android":"levelo://app?vid=826d601a-9bd7-4da8-a822-1a3655483e9c","ios":"levelo://app?vid=826d601a-9bd7-4da8-a822-1a3655483e9c"},"vehicle_type_id":"4","last_reported":1690747590,"current_range_meters":8800,"station_id":"ce4bhsp2rcd13ifvqi50","pricing_plan_id":"free"},{"bike_id":"4f35c9e7-a8ce-4817-83d1-7dae8f34fee3","system_id":"levelo_inurba_marseille","lat":43.31994,"lon":5.38157,"is_reserved":false,"is_disabled":false,"rental_uris":{"android":"levelo://app?vid=4f35c9e7-a8ce-4817-83d1-7dae8f34fee3","ios":"levelo://app?vid=4f35c9e7-a8ce-4817-83d1-7dae8f34fee3"},"vehicle_type_id":"4","last_reported":1690747590,"current_range_meters":4400,"station_id":"ce4bhr12rcd13ifvqhpg","pricing_plan_id":"free"},{"bike_id":"941ee9cb-d06b-4cb4-9196-9357d0edd36a","system_id":"levelo_inurba_marseille","lat":43.31999,"lon":5.38172,"is_reserved":false,"is_disabled":false,"rental_uris":{"android":"levelo://app?vid=941ee9cb-d06b-4cb4-9196-9357d0edd36a","ios":"levelo://app?vid=941ee9cb-d06b-4cb4-9196-9357d0edd36a"},"vehicle_type_id":"4","last_reported":1690747590,"current_range_meters":4800,"station_id":"ce4bhr12rcd13ifvqhpg","pricing_plan_id":"free"},{"bike_id":"e53aed83-c0f4-4e20-a148-fb34729ce561","system_id":"levelo_inurba_marseille","lat":43.2997,"lon":5.36744,"is_reserved":false,"is_disabled":false,"rental_uris":{"android":"levelo://app?vid=e53aed83-c0f4-4e20-a148-fb34729ce561","ios":"levelo://app?vid=e53aed83-c0f4-4e20-a148-fb34729ce561"},"vehicle_type_id":"4","last_reported":1690747590,"current_range_meters":18800,"station_id":"","pricing_plan_id":"free"},{"bike_id":"483f6ca0-352d-4cb8-9430-23f4ea74c16e","system_id":"levelo_inurba_marseille","lat":43.299724,"lon":5.371829,"is_reserved":false,"is_disabled":false,"rental_uris":{"android":"levelo://app?vid=483f6ca0-352d-4cb8-9430-23f4ea74c16e","ios":"levelo://app?vid=483f6ca0-352d-4cb8-9430-23f4ea74c16e"},"vehicle_type_id":"4","last_reported":1690747590,"current_range_meters":5200,"station_id":"ce4bgr92rcd13ifvqc7g","pricing_plan_id":"free"},{"bike_id":"30537d43-af02-4a10-b928-7b9b8cf633d2","system_id":"levelo_inurba_marseille","lat":43.305364,"lon":5.384119,"is_reserved":false,"is_disabled":false,"rental_uris":{"android":"levelo://app?vid=30537d43-af02-4a10-b928-7b9b8cf633d2","ios":"levelo://app?vid=30537d43-af02-4a10-b928-7b9b8cf633d2"},"vehicle_type_id":"4","last_reported":1690747590,"current_range_meters":29600,"station_id":"ce4bgg92rcd13ifvqb30","pricing_plan_id":"free"},{"bike_id":"8825dbbb-5e3d-4544-a6e7-4ed678613bb2","system_id":"levelo_inurba_marseille","lat":43.30541,"lon":5.38426,"is_reserved":false,"is_disabled":false,"rental_uris":{"android":"levelo://app?vid=8825dbbb-5e3d-4544-a6e7-4ed678613bb2","ios":"levelo://app?vid=8825dbbb-5e3d-4544-a6e7-4ed678613bb2"},"vehicle_type_id":"4","last_reported":1690747590,"current_range_meters":10800,"station_id":"ce4bgg92rcd13ifvqb30","pricing_plan_id":"free"},{"bike_id":"e1b509e0-4ca5-48bf-ac46-887ebb4f8fae","system_id":"levelo_inurba_marseille","lat":43.311722,"lon":5.387247,"is_reserved":false,"is_disabled":false,"rental_uris":{"android":"levelo://app?vid=e1b509e0-4ca5-48bf-ac46-887ebb4f8fae","ios":"levelo://app?vid=e1b509e0-4ca5-48bf-ac46-887ebb4f8fae"},"vehicle_type_id":"4","last_reported":1690747590,"current_range_meters":14800,"station_id":"ce4bgv12rcd13ifvqcp0","pricing_plan_id":"free"},{"bike_id":"9e32126a-1b49-4733-a44e-bb472072c4d6","system_id":"levelo_inurba_marseille","lat":43.30535,"lon":5.38426,"is_reserved":false,"is_disabled":false,"rental_uris":{"android":"levelo://app?vid=9e32126a-1b49-4733-a44e-bb472072c4d6","ios":"levelo://app?vid=9e32126a-1b49-4733-a44e-bb472072c4d6"},"vehicle_type_id":"4","last_reported":1690747590,"current_range_meters":8800,"station_id":"ce4bgg92rcd13ifvqb30","pricing_plan_id":"free"},{"bike_id":"2d3128b7-bfed-4992-b8a2-11e7bebfa16c","system_id":"levelo_inurba_marseille","lat":43.30539,"lon":5.38433,"is_reserved":false,"is_disabled":false,"rental_uris":{"android":"levelo://app?vid=2d3128b7-bfed-4992-b8a2-11e7bebfa16c","ios":"levelo://app?vid=2d3128b7-bfed-4992-b8a2-11e7bebfa16c"},"vehicle_type_id":"4","last_reported":1690747590,"current_range_meters":4400,"station_id":"ce4bgg92rcd13ifvqb30","pricing_plan_id":"free"},{"bike_id":"aca66f02-9315-4364-8ba1-a0a8ae90d044","system_id":"levelo_inurba_marseille","lat":43.311722,"lon":5.387247,"is_reserved":false,"is_disabled":false,"rental_uris":{"android":"levelo://app?vid=aca66f02-9315-4364-8ba1-a0a8ae90d044","ios":"levelo://app?vid=aca66f02-9315-4364-8ba1-a0a8ae90d044"},"vehicle_type_id":"4","last_reported":1690747590,"current_range_meters":9200,"station_id":"ce4bgv12rcd13ifvqcp0","pricing_plan_id":"free"},{"bike_id":"e71bed02-0ac5-42f4-9533-3bd948bd8722","system_id":"levelo_inurba_marseille","lat":43.311722,"lon":5.387247,"is_reserved":false,"is_disabled":false,"rental_uris":{"android":"levelo://app?vid=e71bed02-0ac5-42f4-9533-3bd948bd8722","ios":"levelo://app?vid=e71bed02-0ac5-42f4-9533-3bd948bd8722"},"vehicle_type_id":"4","last_reported":1690747590,"current_range_meters":11200,"station_id":"ce4bgv12rcd13ifvqcp0","pricing_plan_id":"free"},{"bike_id":"1a96d3a4-b35e-4639-a5cf-e48747301a0d","system_id":"levelo_inurba_marseille","lat":43.311722,"lon":5.387247,"is_reserved":false,"is_disabled":false,"rental_uris":{"android":"levelo://app?vid=1a96d3a4-b35e-4639-a5cf-e48747301a0d","ios":"levelo://app?vid=1a96d3a4-b35e-4639-a5cf-e48747301a0d"},"vehicle_type_id":"4","last_reported":1690747590,"current_range_meters":7600,"station_id":"ce4bgv12rcd13ifvqcp0","pricing_plan_id":"free"},{"bike_id":"cfaa776c-e242-4ea6-b6c7-d57517a1a35f","system_id":"levelo_inurba_marseille","lat":43.311722,"lon":5.387247,"is_reserved":false,"is_disabled":false,"rental_uris":{"android":"levelo://app?vid=cfaa776c-e242-4ea6-b6c7-d57517a1a35f","ios":"levelo://app?vid=cfaa776c-e242-4ea6-b6c7-d57517a1a35f"},"vehicle_type_id":"4","last_reported":1690747590,"current_range_meters":12800,"station_id":"ce4bgv12rcd13ifvqcp0","pricing_plan_id":"free"},{"bike_id":"b02cb080-dc72-411c-ad4d-e4938a65b740","system_id":"levelo_inurba_marseille","lat":43.311722,"lon":5.387247,"is_reserved":false,"is_disabled":false,"rental_uris":{"android":"levelo://app?vid=b02cb080-dc72-411c-ad4d-e4938a65b740","ios":"levelo://app?vid=b02cb080-dc72-411c-ad4d-e4938a65b740"},"vehicle_type_id":"4","last_reported":1690747590,"current_range_meters":2400,"station_id":"ce4bgv12rcd13ifvqcp0","pricing_plan_id":"free"},{"bike_id":"a196dbb0-0ca2-44b0-8b03-b7d3a734d20c","system_id":"levelo_inurba_marseille","lat":43.322872,"lon":5.382756,"is_reserved":false,"is_disabled":false,"rental_uris":{"android":"levelo://app?vid=a196dbb0-0ca2-44b0-8b03-b7d3a734d20c","ios":"levelo://app?vid=a196dbb0-0ca2-44b0-8b03-b7d3a734d20c"},"vehicle_type_id":"4","last_reported":1690747590,"current_range_meters":23200,"station_id":"ce4bhr12rcd13ifvqhqg","pricing_plan_id":"free"},{"bike_id":"262b7af0-f148-4687-a3df-262dca728faa","system_id":"levelo_inurba_marseille","lat":43.297794,"lon":5.370888,"is_reserved":false,"is_disabled":false,"rental_uris":{"android":"levelo://app?vid=262b7af0-f148-4687-a3df-262dca728faa","ios":"levelo://app?vid=262b7af0-f148-4687-a3df-262dca728faa"},"vehicle_type_id":"4","last_reported":1690747590,"current_range_meters":12000,"station_id":"ce4bgop2rcd13ifvqc1g","pricing_plan_id":"free"},{"bike_id":"82f1e03d-e4c3-4aac-b6f0-c9fc3950fe62","system_id":"levelo_inurba_marseille","lat":43.322919,"lon":5.382674,"is_reserved":false,"is_disabled":false,"rental_uris":{"android":"levelo://app?vid=82f1e03d-e4c3-4aac-b6f0-c9fc3950fe62","ios":"levelo://app?vid=82f1e03d-e4c3-4aac-b6f0-c9fc3950fe62"},"vehicle_type_id":"4","last_reported":1690747590,"current_range_meters":19600,"station_id":"","pricing_plan_id":"free"},{"bike_id":"a87c3d89-8ecc-4c20-a387-7842b25267e1","system_id":"levelo_inurba_marseille","lat":43.32288,"lon":5.38276,"is_reserved":false,"is_disabled":false,"rental_uris":{"android":"levelo://app?vid=a87c3d89-8ecc-4c20-a387-7842b25267e1","ios":"levelo://app?vid=a87c3d89-8ecc-4c20-a387-7842b25267e1"},"vehicle_type_id":"4","last_reported":1690747590,"current_range_meters":27600,"station_id":"ce4bhr12rcd13ifvqhqg","pricing_plan_id":"free"},{"bike_id":"aff0017d-8d19-4b8c-8490-dfc322af04d7","system_id":"levelo_inurba_marseille","lat":43.32289,"lon":5.38275,"is_reserved":false,"is_disabled":false,"rental_uris":{"android":"levelo://app?vid=aff0017d-8d19-4b8c-8490-dfc322af04d7","ios":"levelo://app?vid=aff0017d-8d19-4b8c-8490-dfc322af04d7"},"vehicle_type_id":"4","last_reported":1690747590,"current_range_meters":31200,"station_id":"ce4bhr12rcd13ifvqhqg","pricing_plan_id":"free"},{"bike_id":"79bf6da4-5f08-488b-96b1-6e23f74ec5ec","system_id":"levelo_inurba_marseille","lat":43.322872,"lon":5.382756,"is_reserved":false,"is_disabled":false,"rental_uris":{"android":"levelo://app?vid=79bf6da4-5f08-488b-96b1-6e23f74ec5ec","ios":"levelo://app?vid=79bf6da4-5f08-488b-96b1-6e23f74ec5ec"},"vehicle_type_id":"4","last_reported":1690747590,"current_range_meters":31200,"station_id":"ce4bhr12rcd13ifvqhqg","pricing_plan_id":"free"},{"bike_id":"20c7dcad-65a1-4446-8042-929c77c85d0f","system_id":"levelo_inurba_marseille","lat":43.30159,"lon":5.38147,"is_reserved":false,"is_disabled":false,"rental_uris":{"android":"levelo://app?vid=20c7dcad-65a1-4446-8042-929c77c85d0f","ios":"levelo://app?vid=20c7dcad-65a1-4446-8042-929c77c85d0f"},"vehicle_type_id":"4","last_reported":1690747590,"current_range_meters":0,"station_id":"","pricing_plan_id":"free"},{"bike_id":"cabe5a0b-8b65-42de-85e5-73402b1600bb","system_id":"levelo_inurba_marseille","lat":43.328371,"lon":5.366909,"is_reserved":false,"is_disabled":false,"rental_uris":{"android":"levelo://app?vid=cabe5a0b-8b65-42de-85e5-73402b1600bb","ios":"levelo://app?vid=cabe5a0b-8b65-42de-85e5-73402b1600bb"},"vehicle_type_id":"4","last_reported":1690747590,"current_range_meters":19600,"station_id":"ce4bhs92rcd13ifvqi0g","pricing_plan_id":"free"},{"bike_id":"7a3debfb-a4c2-4cbf-a70c-be28fe4f20ea","system_id":"levelo_inurba_marseille","lat":43.328371,"lon":5.366909,"is_reserved":false,"is_disabled":false,"rental_uris":{"android":"levelo://app?vid=7a3debfb-a4c2-4cbf-a70c-be28fe4f20ea","ios":"levelo://app?vid=7a3debfb-a4c2-4cbf-a70c-be28fe4f20ea"},"vehicle_type_id":"4","last_reported":1690747590,"current_range_meters":13600,"station_id":"ce4bhs92rcd13ifvqi0g","pricing_plan_id":"free"},{"bike_id":"dd789220-e7b5-42c1-b9dc-dc4243148021","system_id":"levelo_inurba_marseille","lat":43.297163,"lon":5.365866,"is_reserved":false,"is_disabled":false,"rental_uris":{"android":"levelo://app?vid=dd789220-e7b5-42c1-b9dc-dc4243148021","ios":"levelo://app?vid=dd789220-e7b5-42c1-b9dc-dc4243148021"},"vehicle_type_id":"4","last_reported":1690747590,"current_range_meters":31200,"station_id":"ce4bgn12rcd13ifvqbt0","pricing_plan_id":"free"},{"bike_id":"84a96a22-97c7-4b1f-bed3-d852a08ab163","system_id":"levelo_inurba_marseille","lat":43.29573,"lon":5.367355,"is_reserved":false,"is_disabled":false,"rental_uris":{"android":"levelo://app?vid=84a96a22-97c7-4b1f-bed3-d852a08ab163","ios":"levelo://app?vid=84a96a22-97c7-4b1f-bed3-d852a08ab163"},"vehicle_type_id":"4","last_reported":1690747590,"current_range_meters":4400,"station_id":"ce4bgph2rcd13ifvqc2g","pricing_plan_id":"free"},{"bike_id":"d5b46df2-ce04-46db-a953-68947b1ce92a","system_id":"levelo_inurba_marseille","lat":43.299028,"lon":5.381509,"is_reserved":false,"is_disabled":false,"rental_uris":{"android":"levelo://app?vid=d5b46df2-ce04-46db-a953-68947b1ce92a","ios":"levelo://app?vid=d5b46df2-ce04-46db-a953-68947b1ce92a"},"vehicle_type_id":"4","last_reported":1690747590,"current_range_meters":5600,"station_id":"ce4bgj12rcd13ifvqbc0","pricing_plan_id":"free"},{"bike_id":"52bfcf13-217f-4c20-8ca2-9c30f7b43137","system_id":"levelo_inurba_marseille","lat":43.309589,"lon":5.390258,"is_reserved":false,"is_disabled":false,"rental_uris":{"android":"levelo://app?vid=52bfcf13-217f-4c20-8ca2-9c30f7b43137","ios":"levelo://app?vid=52bfcf13-217f-4c20-8ca2-9c30f7b43137"},"vehicle_type_id":"4","last_reported":1690747590,"current_range_meters":9600,"station_id":"ce4bgup2rcd13ifvqco0","pricing_plan_id":"free"},{"bike_id":"2359fefc-26ad-4175-83a4-c8ece96e9323","system_id":"levelo_inurba_marseille","lat":43.309589,"lon":5.390258,"is_reserved":false,"is_disabled":false,"rental_uris":{"android":"levelo://app?vid=2359fefc-26ad-4175-83a4-c8ece96e9323","ios":"levelo://app?vid=2359fefc-26ad-4175-83a4-c8ece96e9323"},"vehicle_type_id":"4","last_reported":1690747590,"current_range_meters":9600,"station_id":"ce4bgup2rcd13ifvqco0","pricing_plan_id":"free"},{"bike_id":"ab4e9339-d225-4681-a327-f9ccd2d77ead","system_id":"levelo_inurba_marseille","lat":43.309589,"lon":5.390258,"is_reserved":false,"is_disabled":false,"rental_uris":{"android":"levelo://app?vid=ab4e9339-d225-4681-a327-f9ccd2d77ead","ios":"levelo://app?vid=ab4e9339-d225-4681-a327-f9ccd2d77ead"},"vehicle_type_id":"4","last_reported":1690747590,"current_range_meters":9200,"station_id":"ce4bgup2rcd13ifvqco0","pricing_plan_id":"free"},{"bike_id":"8df392f0-0567-4c90-9e15-5e6b55aaa125","system_id":"levelo_inurba_marseille","lat":43.309589,"lon":5.390258,"is_reserved":false,"is_disabled":false,"rental_uris":{"android":"levelo://app?vid=8df392f0-0567-4c90-9e15-5e6b55aaa125","ios":"levelo://app?vid=8df392f0-0567-4c90-9e15-5e6b55aaa125"},"vehicle_type_id":"4","last_reported":1690747590,"current_range_meters":19600,"station_id":"ce4bgup2rcd13ifvqco0","pricing_plan_id":"free"},{"bike_id":"f0b1921d-8fc5-42f6-8214-26455e772ce5","system_id":"levelo_inurba_marseille","lat":43.309589,"lon":5.390258,"is_reserved":false,"is_disabled":false,"rental_uris":{"android":"levelo://app?vid=f0b1921d-8fc5-42f6-8214-26455e772ce5","ios":"levelo://app?vid=f0b1921d-8fc5-42f6-8214-26455e772ce5"},"vehicle_type_id":"4","last_reported":1690747590,"current_range_meters":27600,"station_id":"ce4bgup2rcd13ifvqco0","pricing_plan_id":"free"},{"bike_id":"2b8bd7c0-c197-4594-956f-113594ee5f21","system_id":"levelo_inurba_marseille","lat":43.298037,"lon":5.381066,"is_reserved":false,"is_disabled":false,"rental_uris":{"android":"levelo://app?vid=2b8bd7c0-c197-4594-956f-113594ee5f21","ios":"levelo://app?vid=2b8bd7c0-c197-4594-956f-113594ee5f21"},"vehicle_type_id":"4","last_reported":1690747590,"current_range_meters":0,"station_id":"ce4bgip2rcd13ifvqbb0","pricing_plan_id":"free"},{"bike_id":"8a3af320-f920-41b6-bf07-7cadb0965586","system_id":"levelo_inurba_marseille","lat":43.295748,"lon":5.37522,"is_reserved":false,"is_disabled":false,"rental_uris":{"android":"levelo://app?vid=8a3af320-f920-41b6-bf07-7cadb0965586","ios":"levelo://app?vid=8a3af320-f920-41b6-bf07-7cadb0965586"},"vehicle_type_id":"4","last_reported":1690747590,"current_range_meters":8400,"station_id":"ce4bgh92rcd13ifvqb50","pricing_plan_id":"free"},{"bike_id":"234e5c37-2828-4456-aec0-a469394b77a3","system_id":"levelo_inurba_marseille","lat":43.304371,"lon":5.388865,"is_reserved":false,"is_disabled":false,"rental_uris":{"android":"levelo://app?vid=234e5c37-2828-4456-aec0-a469394b77a3","ios":"levelo://app?vid=234e5c37-2828-4456-aec0-a469394b77a3"},"vehicle_type_id":"4","last_reported":1690747590,"current_range_meters":4000,"station_id":"ce4bgk12rcd13ifvqbi0","pricing_plan_id":"free"},{"bike_id":"b86f9b41-1b37-4d83-9f69-48dc3caeab88","system_id":"levelo_inurba_marseille","lat":43.30428,"lon":5.38893,"is_reserved":false,"is_disabled":false,"rental_uris":{"android":"levelo://app?vid=b86f9b41-1b37-4d83-9f69-48dc3caeab88","ios":"levelo://app?vid=b86f9b41-1b37-4d83-9f69-48dc3caeab88"},"vehicle_type_id":"4","last_reported":1690747590,"current_range_meters":4000,"station_id":"ce4bgk12rcd13ifvqbi0","pricing_plan_id":"free"},{"bike_id":"6ca650af-5c05-462d-ae56-37c31e015d40","system_id":"levelo_inurba_marseille","lat":43.295279,"lon":5.375048,"is_reserved":false,"is_disabled":false,"rental_uris":{"android":"levelo://app?vid=6ca650af-5c05-462d-ae56-37c31e015d40","ios":"levelo://app?vid=6ca650af-5c05-462d-ae56-37c31e015d40"},"vehicle_type_id":"4","last_reported":1690747590,"current_range_meters":18400,"station_id":"ce4bgkp2rcd13ifvqbmg","pricing_plan_id":"free"},{"bike_id":"c372ec2b-dbfa-42f2-bca1-f0324122476d","system_id":"levelo_inurba_marseille","lat":43.32366,"lon":5.38874,"is_reserved":false,"is_disabled":false,"rental_uris":{"android":"levelo://app?vid=c372ec2b-dbfa-42f2-bca1-f0324122476d","ios":"levelo://app?vid=c372ec2b-dbfa-42f2-bca1-f0324122476d"},"vehicle_type_id":"4","last_reported":1690747590,"current_range_meters":17600,"station_id":"ce4bhqp2rcd13ifvqhog","pricing_plan_id":"free"},{"bike_id":"7807c496-4ca3-4030-b3ff-0db0f7503b2b","system_id":"levelo_inurba_marseille","lat":43.32366,"lon":5.38883,"is_reserved":false,"is_disabled":false,"rental_uris":{"android":"levelo://app?vid=7807c496-4ca3-4030-b3ff-0db0f7503b2b","ios":"levelo://app?vid=7807c496-4ca3-4030-b3ff-0db0f7503b2b"},"vehicle_type_id":"4","last_reported":1690747590,"current_range_meters":28800,"station_id":"ce4bhqp2rcd13ifvqhog","pricing_plan_id":"free"},{"bike_id":"eeb263b1-85bf-45c1-9ae9-d4f39665097c","system_id":"levelo_inurba_marseille","lat":43.32367,"lon":5.38886,"is_reserved":false,"is_disabled":false,"rental_uris":{"android":"levelo://app?vid=eeb263b1-85bf-45c1-9ae9-d4f39665097c","ios":"levelo://app?vid=eeb263b1-85bf-45c1-9ae9-d4f39665097c"},"vehicle_type_id":"4","last_reported":1690747590,"current_range_meters":20800,"station_id":"ce4bhqp2rcd13ifvqhog","pricing_plan_id":"free"},{"bike_id":"fd7c820b-48f7-46cc-9cc2-04480f29542d","system_id":"levelo_inurba_marseille","lat":43.299717,"lon":5.384845,"is_reserved":false,"is_disabled":false,"rental_uris":{"android":"levelo://app?vid=fd7c820b-48f7-46cc-9cc2-04480f29542d","ios":"levelo://app?vid=fd7c820b-48f7-46cc-9cc2-04480f29542d"},"vehicle_type_id":"4","last_reported":1690747590,"current_range_meters":5200,"station_id":"ce4bgj92rcd13ifvqbd0","pricing_plan_id":"free"},{"bike_id":"4c9a805f-5b0a-49cb-94f9-900f4cd8a9df","system_id":"levelo_inurba_marseille","lat":43.30303,"lon":5.3921,"is_reserved":false,"is_disabled":false,"rental_uris":{"android":"levelo://app?vid=4c9a805f-5b0a-49cb-94f9-900f4cd8a9df","ios":"levelo://app?vid=4c9a805f-5b0a-49cb-94f9-900f4cd8a9df"},"vehicle_type_id":"4","last_reported":1690747590,"current_range_meters":19600,"station_id":"ce4bgkh2rcd13ifvqbk0","pricing_plan_id":"free"},{"bike_id":"d51e7ca8-4da9-42b8-a3f3-fcbd58edc6b1","system_id":"levelo_inurba_marseille","lat":43.30303,"lon":5.39211,"is_reserved":false,"is_disabled":false,"rental_uris":{"android":"levelo://app?vid=d51e7ca8-4da9-42b8-a3f3-fcbd58edc6b1","ios":"levelo://app?vid=d51e7ca8-4da9-42b8-a3f3-fcbd58edc6b1"},"vehicle_type_id":"4","last_reported":1690747590,"current_range_meters":0,"station_id":"ce4bgkh2rcd13ifvqbk0","pricing_plan_id":"free"},{"bike_id":"332a1b65-3ded-4226-9ba2-6dac29c5a19b","system_id":"levelo_inurba_marseille","lat":43.30301,"lon":5.39211,"is_reserved":false,"is_disabled":false,"rental_uris":{"android":"levelo://app?vid=332a1b65-3ded-4226-9ba2-6dac29c5a19b","ios":"levelo://app?vid=332a1b65-3ded-4226-9ba2-6dac29c5a19b"},"vehicle_type_id":"4","last_reported":1690747590,"current_range_meters":5600,"station_id":"ce4bgkh2rcd13ifvqbk0","pricing_plan_id":"free"},{"bike_id":"b8ffb41a-24b0-4549-8d9a-4c538e5d7369","system_id":"levelo_inurba_marseille","lat":43.2936,"lon":5.37835,"is_reserved":false,"is_disabled":false,"rental_uris":{"android":"levelo://app?vid=b8ffb41a-24b0-4549-8d9a-4c538e5d7369","ios":"levelo://app?vid=b8ffb41a-24b0-4549-8d9a-4c538e5d7369"},"vehicle_type_id":"4","last_reported":1690747590,"current_range_meters":23600,"station_id":"ce4bgjh2rcd13ifvqbf0","pricing_plan_id":"free"},{"bike_id":"ef674ce9-86f3-4dc0-aff9-29f258fd5020","system_id":"levelo_inurba_marseille","lat":43.29338,"lon":5.37725,"is_reserved":false,"is_disabled":false,"rental_uris":{"android":"levelo://app?vid=ef674ce9-86f3-4dc0-aff9-29f258fd5020","ios":"levelo://app?vid=ef674ce9-86f3-4dc0-aff9-29f258fd5020"},"vehicle_type_id":"4","last_reported":1690747590,"current_range_meters":12800,"station_id":"","pricing_plan_id":"free"},{"bike_id":"99ac539c-2f2f-4f8c-8241-70b9dd11d070","system_id":"levelo_inurba_marseille","lat":43.300852,"lon":5.390859,"is_reserved":false,"is_disabled":false,"rental_uris":{"android":"levelo://app?vid=99ac539c-2f2f-4f8c-8241-70b9dd11d070","ios":"levelo://app?vid=99ac539c-2f2f-4f8c-8241-70b9dd11d070"},"vehicle_type_id":"4","last_reported":1690747590,"current_range_meters":18800,"station_id":"ce4bh192rcd13ifvqdb0","pricing_plan_id":"free"},{"bike_id":"b4651225-10b8-4ca7-af28-73876b110786","system_id":"levelo_inurba_marseille","lat":43.300852,"lon":5.390859,"is_reserved":false,"is_disabled":false,"rental_uris":{"android":"levelo://app?vid=b4651225-10b8-4ca7-af28-73876b110786","ios":"levelo://app?vid=b4651225-10b8-4ca7-af28-73876b110786"},"vehicle_type_id":"4","last_reported":1690747590,"current_range_meters":21200,"station_id":"ce4bh192rcd13ifvqdb0","pricing_plan_id":"free"},{"bike_id":"827512e9-6253-4bd3-a85e-b147cbd09836","system_id":"levelo_inurba_marseille","lat":43.30085,"lon":5.390856,"is_reserved":false,"is_disabled":false,"rental_uris":{"android":"levelo://app?vid=827512e9-6253-4bd3-a85e-b147cbd09836","ios":"levelo://app?vid=827512e9-6253-4bd3-a85e-b147cbd09836"},"vehicle_type_id":"4","last_reported":1690747590,"current_range_meters":27200,"station_id":"ce4bh192rcd13ifvqdb0","pricing_plan_id":"free"},{"bike_id":"f51df660-b83b-408c-becb-5278e3899b63","system_id":"levelo_inurba_marseille","lat":43.300852,"lon":5.390859,"is_reserved":false,"is_disabled":false,"rental_uris":{"android":"levelo://app?vid=f51df660-b83b-408c-becb-5278e3899b63","ios":"levelo://app?vid=f51df660-b83b-408c-becb-5278e3899b63"},"vehicle_type_id":"4","last_reported":1690747590,"current_range_meters":0,"station_id":"ce4bh192rcd13ifvqdb0","pricing_plan_id":"free"},{"bike_id":"5ddea216-ff59-495a-b62b-8d33fefc59fa","system_id":"levelo_inurba_marseille","lat":43.30887,"lon":5.39657,"is_reserved":false,"is_disabled":false,"rental_uris":{"android":"levelo://app?vid=5ddea216-ff59-495a-b62b-8d33fefc59fa","ios":"levelo://app?vid=5ddea216-ff59-495a-b62b-8d33fefc59fa"},"vehicle_type_id":"4","last_reported":1690747590,"current_range_meters":6800,"station_id":"ce4bh012rcd13ifvqcv0","pricing_plan_id":"free"},{"bike_id":"f1926456-fc7c-49fa-95b8-10e53a11ff3e","system_id":"levelo_inurba_marseille","lat":43.29534,"lon":5.38525,"is_reserved":false,"is_disabled":false,"rental_uris":{"android":"levelo://app?vid=f1926456-fc7c-49fa-95b8-10e53a11ff3e","ios":"levelo://app?vid=f1926456-fc7c-49fa-95b8-10e53a11ff3e"},"vehicle_type_id":"4","last_reported":1690747590,"current_range_meters":2400,"station_id":"ce4bgih2rcd13ifvqba0","pricing_plan_id":"free"},{"bike_id":"6bc82a0c-ac67-48a6-94cc-676ad336ceb6","system_id":"levelo_inurba_marseille","lat":43.30889,"lon":5.39661,"is_reserved":false,"is_disabled":false,"rental_uris":{"android":"levelo://app?vid=6bc82a0c-ac67-48a6-94cc-676ad336ceb6","ios":"levelo://app?vid=6bc82a0c-ac67-48a6-94cc-676ad336ceb6"},"vehicle_type_id":"4","last_reported":1690747590,"current_range_meters":23600,"station_id":"ce4bh012rcd13ifvqcv0","pricing_plan_id":"free"},{"bike_id":"10c5142d-34ca-479a-878d-e4183ca0a398","system_id":"levelo_inurba_marseille","lat":43.308929,"lon":5.396634,"is_reserved":false,"is_disabled":false,"rental_uris":{"android":"levelo://app?vid=10c5142d-34ca-479a-878d-e4183ca0a398","ios":"levelo://app?vid=10c5142d-34ca-479a-878d-e4183ca0a398"},"vehicle_type_id":"4","last_reported":1690747590,"current_range_meters":10400,"station_id":"","pricing_plan_id":"free"},{"bike_id":"3d7ea38d-cb9c-4f1e-ad49-1afbcb699abc","system_id":"levelo_inurba_marseille","lat":43.29531,"lon":5.38536,"is_reserved":false,"is_disabled":false,"rental_uris":{"android":"levelo://app?vid=3d7ea38d-cb9c-4f1e-ad49-1afbcb699abc","ios":"levelo://app?vid=3d7ea38d-cb9c-4f1e-ad49-1afbcb699abc"},"vehicle_type_id":"4","last_reported":1690747590,"current_range_meters":18400,"station_id":"ce4bgih2rcd13ifvqba0","pricing_plan_id":"free"},{"bike_id":"7fc73175-f2dc-4747-a315-4da7447ca6ec","system_id":"levelo_inurba_marseille","lat":43.29529,"lon":5.385581,"is_reserved":false,"is_disabled":false,"rental_uris":{"android":"levelo://app?vid=7fc73175-f2dc-4747-a315-4da7447ca6ec","ios":"levelo://app?vid=7fc73175-f2dc-4747-a315-4da7447ca6ec"},"vehicle_type_id":"4","last_reported":1690747590,"current_range_meters":30800,"station_id":"ce4bgih2rcd13ifvqba0","pricing_plan_id":"free"},{"bike_id":"b5f4db1c-3920-4d79-989a-06bfb2a96494","system_id":"levelo_inurba_marseille","lat":43.29528,"lon":5.38537,"is_reserved":false,"is_disabled":false,"rental_uris":{"android":"levelo://app?vid=b5f4db1c-3920-4d79-989a-06bfb2a96494","ios":"levelo://app?vid=b5f4db1c-3920-4d79-989a-06bfb2a96494"},"vehicle_type_id":"4","last_reported":1690747590,"current_range_meters":26800,"station_id":"","pricing_plan_id":"free"},{"bike_id":"26c49b1c-4df3-4e97-9c87-3efce6650a44","system_id":"levelo_inurba_marseille","lat":43.29526,"lon":5.38539,"is_reserved":false,"is_disabled":false,"rental_uris":{"android":"levelo://app?vid=26c49b1c-4df3-4e97-9c87-3efce6650a44","ios":"levelo://app?vid=26c49b1c-4df3-4e97-9c87-3efce6650a44"},"vehicle_type_id":"4","last_reported":1690747590,"current_range_meters":12000,"station_id":"ce4bgih2rcd13ifvqba0","pricing_plan_id":"free"},{"bike_id":"2f65809f-3e08-4df6-892e-d252588e3ef7","system_id":"levelo_inurba_marseille","lat":43.29526,"lon":5.3854,"is_reserved":false,"is_disabled":false,"rental_uris":{"android":"levelo://app?vid=2f65809f-3e08-4df6-892e-d252588e3ef7","ios":"levelo://app?vid=2f65809f-3e08-4df6-892e-d252588e3ef7"},"vehicle_type_id":"4","last_reported":1690747590,"current_range_meters":2400,"station_id":"ce4bgih2rcd13ifvqba0","pricing_plan_id":"free"},{"bike_id":"700f93cb-6d06-46a1-a7f7-0fc5d03925b7","system_id":"levelo_inurba_marseille","lat":43.29529,"lon":5.385581,"is_reserved":false,"is_disabled":false,"rental_uris":{"android":"levelo://app?vid=700f93cb-6d06-46a1-a7f7-0fc5d03925b7","ios":"levelo://app?vid=700f93cb-6d06-46a1-a7f7-0fc5d03925b7"},"vehicle_type_id":"4","last_reported":1690747590,"current_range_meters":22000,"station_id":"ce4bgih2rcd13ifvqba0","pricing_plan_id":"free"},{"bike_id":"863be538-aca5-4215-a74f-279061f1ea3a","system_id":"levelo_inurba_marseille","lat":43.29529,"lon":5.385581,"is_reserved":false,"is_disabled":false,"rental_uris":{"android":"levelo://app?vid=863be538-aca5-4215-a74f-279061f1ea3a","ios":"levelo://app?vid=863be538-aca5-4215-a74f-279061f1ea3a"},"vehicle_type_id":"4","last_reported":1690747590,"current_range_meters":17200,"station_id":"ce4bgih2rcd13ifvqba0","pricing_plan_id":"free"},{"bike_id":"b523ec1e-27e8-4ca2-be51-f671247b066c","system_id":"levelo_inurba_marseille","lat":43.302008,"lon":5.394694,"is_reserved":false,"is_disabled":false,"rental_uris":{"android":"levelo://app?vid=b523ec1e-27e8-4ca2-be51-f671247b066c","ios":"levelo://app?vid=b523ec1e-27e8-4ca2-be51-f671247b066c"},"vehicle_type_id":"4","last_reported":1690747590,"current_range_meters":23600,"station_id":"ce4bh0p2rcd13ifvqd70","pricing_plan_id":"free"},{"bike_id":"dea6310c-db77-459f-bdcb-5471df362365","system_id":"levelo_inurba_marseille","lat":43.302008,"lon":5.394694,"is_reserved":false,"is_disabled":false,"rental_uris":{"android":"levelo://app?vid=dea6310c-db77-459f-bdcb-5471df362365","ios":"levelo://app?vid=dea6310c-db77-459f-bdcb-5471df362365"},"vehicle_type_id":"4","last_reported":1690747590,"current_range_meters":23600,"station_id":"ce4bh0p2rcd13ifvqd70","pricing_plan_id":"free"},{"bike_id":"83d2f2fd-65e1-4f82-b5e3-5a929ec9a500","system_id":"levelo_inurba_marseille","lat":43.302008,"lon":5.394694,"is_reserved":false,"is_disabled":false,"rental_uris":{"android":"levelo://app?vid=83d2f2fd-65e1-4f82-b5e3-5a929ec9a500","ios":"levelo://app?vid=83d2f2fd-65e1-4f82-b5e3-5a929ec9a500"},"vehicle_type_id":"4","last_reported":1690747590,"current_range_meters":0,"station_id":"ce4bh0p2rcd13ifvqd70","pricing_plan_id":"free"},{"bike_id":"bf903d8d-b76e-4a62-bed7-2892c6e9730a","system_id":"levelo_inurba_marseille","lat":43.302008,"lon":5.394694,"is_reserved":false,"is_disabled":false,"rental_uris":{"android":"levelo://app?vid=bf903d8d-b76e-4a62-bed7-2892c6e9730a","ios":"levelo://app?vid=bf903d8d-b76e-4a62-bed7-2892c6e9730a"},"vehicle_type_id":"4","last_reported":1690747590,"current_range_meters":20400,"station_id":"ce4bh0p2rcd13ifvqd70","pricing_plan_id":"free"},{"bike_id":"bddf507d-3afa-43c2-8231-857ded983886","system_id":"levelo_inurba_marseille","lat":43.302008,"lon":5.394694,"is_reserved":false,"is_disabled":false,"rental_uris":{"android":"levelo://app?vid=bddf507d-3afa-43c2-8231-857ded983886","ios":"levelo://app?vid=bddf507d-3afa-43c2-8231-857ded983886"},"vehicle_type_id":"4","last_reported":1690747590,"current_range_meters":14800,"station_id":"ce4bh0p2rcd13ifvqd70","pricing_plan_id":"free"},{"bike_id":"06625194-9983-43a3-833e-a3b5d862f0cb","system_id":"levelo_inurba_marseille","lat":43.29419,"lon":5.38619,"is_reserved":false,"is_disabled":false,"rental_uris":{"android":"levelo://app?vid=06625194-9983-43a3-833e-a3b5d862f0cb","ios":"levelo://app?vid=06625194-9983-43a3-833e-a3b5d862f0cb"},"vehicle_type_id":"4","last_reported":1690747590,"current_range_meters":5200,"station_id":"ce4bh2h2rcd13ifvqdh0","pricing_plan_id":"free"},{"bike_id":"160e8980-b636-4ff9-a7f3-c235adcf83f7","system_id":"levelo_inurba_marseille","lat":43.29417,"lon":5.38619,"is_reserved":false,"is_disabled":false,"rental_uris":{"android":"levelo://app?vid=160e8980-b636-4ff9-a7f3-c235adcf83f7","ios":"levelo://app?vid=160e8980-b636-4ff9-a7f3-c235adcf83f7"},"vehicle_type_id":"4","last_reported":1690747590,"current_range_meters":18000,"station_id":"ce4bh2h2rcd13ifvqdh0","pricing_plan_id":"free"},{"bike_id":"712a9e61-8e33-44f0-ae8c-6db6d784d44a","system_id":"levelo_inurba_marseille","lat":43.29415,"lon":5.38619,"is_reserved":false,"is_disabled":false,"rental_uris":{"android":"levelo://app?vid=712a9e61-8e33-44f0-ae8c-6db6d784d44a","ios":"levelo://app?vid=712a9e61-8e33-44f0-ae8c-6db6d784d44a"},"vehicle_type_id":"4","last_reported":1690747590,"current_range_meters":11600,"station_id":"ce4bh2h2rcd13ifvqdh0","pricing_plan_id":"free"},{"bike_id":"779cd4f4-506e-47c0-80b0-f36887b1c6ac","system_id":"levelo_inurba_marseille","lat":43.29412,"lon":5.38617,"is_reserved":false,"is_disabled":false,"rental_uris":{"android":"levelo://app?vid=779cd4f4-506e-47c0-80b0-f36887b1c6ac","ios":"levelo://app?vid=779cd4f4-506e-47c0-80b0-f36887b1c6ac"},"vehicle_type_id":"4","last_reported":1690747590,"current_range_meters":14000,"station_id":"ce4bh2h2rcd13ifvqdh0","pricing_plan_id":"free"},{"bike_id":"26346b2d-b43c-4cb8-ae9a-6ba2bd2b2c3c","system_id":"levelo_inurba_marseille","lat":43.294162,"lon":5.386292,"is_reserved":false,"is_disabled":false,"rental_uris":{"android":"levelo://app?vid=26346b2d-b43c-4cb8-ae9a-6ba2bd2b2c3c","ios":"levelo://app?vid=26346b2d-b43c-4cb8-ae9a-6ba2bd2b2c3c"},"vehicle_type_id":"4","last_reported":1690747590,"current_range_meters":15600,"station_id":"ce4bh2h2rcd13ifvqdh0","pricing_plan_id":"free"},{"bike_id":"7a7a0125-e5eb-42fe-b86d-09a529077e95","system_id":"levelo_inurba_marseille","lat":43.29412,"lon":5.38622,"is_reserved":false,"is_disabled":false,"rental_uris":{"android":"levelo://app?vid=7a7a0125-e5eb-42fe-b86d-09a529077e95","ios":"levelo://app?vid=7a7a0125-e5eb-42fe-b86d-09a529077e95"},"vehicle_type_id":"4","last_reported":1690747590,"current_range_meters":10800,"station_id":"ce4bh2h2rcd13ifvqdh0","pricing_plan_id":"free"},{"bike_id":"756da559-096d-4f5a-88b5-b9b8437bc540","system_id":"levelo_inurba_marseille","lat":43.294162,"lon":5.386292,"is_reserved":false,"is_disabled":false,"rental_uris":{"android":"levelo://app?vid=756da559-096d-4f5a-88b5-b9b8437bc540","ios":"levelo://app?vid=756da559-096d-4f5a-88b5-b9b8437bc540"},"vehicle_type_id":"4","last_reported":1690747590,"current_range_meters":30400,"station_id":"ce4bh2h2rcd13ifvqdh0","pricing_plan_id":"free"},{"bike_id":"61ab1988-4773-441b-8e44-664cf94e9224","system_id":"levelo_inurba_marseille","lat":43.294162,"lon":5.386292,"is_reserved":false,"is_disabled":false,"rental_uris":{"android":"levelo://app?vid=61ab1988-4773-441b-8e44-664cf94e9224","ios":"levelo://app?vid=61ab1988-4773-441b-8e44-664cf94e9224"},"vehicle_type_id":"4","last_reported":1690747590,"current_range_meters":3200,"station_id":"ce4bh2h2rcd13ifvqdh0","pricing_plan_id":"free"},{"bike_id":"b3064c09-09bc-4e0f-b3aa-dd0d2ec7a41b","system_id":"levelo_inurba_marseille","lat":43.294162,"lon":5.386292,"is_reserved":false,"is_disabled":false,"rental_uris":{"android":"levelo://app?vid=b3064c09-09bc-4e0f-b3aa-dd0d2ec7a41b","ios":"levelo://app?vid=b3064c09-09bc-4e0f-b3aa-dd0d2ec7a41b"},"vehicle_type_id":"4","last_reported":1690747590,"current_range_meters":30800,"station_id":"ce4bh2h2rcd13ifvqdh0","pricing_plan_id":"free"},{"bike_id":"9ac2fb07-ef65-4b25-8511-b067f40b89ea","system_id":"levelo_inurba_marseille","lat":43.29413,"lon":5.38631,"is_reserved":false,"is_disabled":false,"rental_uris":{"android":"levelo://app?vid=9ac2fb07-ef65-4b25-8511-b067f40b89ea","ios":"levelo://app?vid=9ac2fb07-ef65-4b25-8511-b067f40b89ea"},"vehicle_type_id":"4","last_reported":1690747590,"current_range_meters":12800,"station_id":"ce4bh2h2rcd13ifvqdh0","pricing_plan_id":"free"},{"bike_id":"effc1d55-23f2-4426-b140-e80cde977e1f","system_id":"levelo_inurba_marseille","lat":43.29408,"lon":5.38625,"is_reserved":false,"is_disabled":false,"rental_uris":{"android":"levelo://app?vid=effc1d55-23f2-4426-b140-e80cde977e1f","ios":"levelo://app?vid=effc1d55-23f2-4426-b140-e80cde977e1f"},"vehicle_type_id":"4","last_reported":1690747590,"current_range_meters":8800,"station_id":"ce4bh2h2rcd13ifvqdh0","pricing_plan_id":"free"},{"bike_id":"7510b6db-2e67-48ae-ad6c-df2cf732a9ba","system_id":"levelo_inurba_marseille","lat":43.29409,"lon":5.38627,"is_reserved":false,"is_disabled":false,"rental_uris":{"android":"levelo://app?vid=7510b6db-2e67-48ae-ad6c-df2cf732a9ba","ios":"levelo://app?vid=7510b6db-2e67-48ae-ad6c-df2cf732a9ba"},"vehicle_type_id":"4","last_reported":1690747590,"current_range_meters":29600,"station_id":"ce4bh2h2rcd13ifvqdh0","pricing_plan_id":"free"},{"bike_id":"1ef9df4a-1d77-4aa9-b2f2-39b94abd35dd","system_id":"levelo_inurba_marseille","lat":43.289184,"lon":5.366408,"is_reserved":false,"is_disabled":false,"rental_uris":{"android":"levelo://app?vid=1ef9df4a-1d77-4aa9-b2f2-39b94abd35dd","ios":"levelo://app?vid=1ef9df4a-1d77-4aa9-b2f2-39b94abd35dd"},"vehicle_type_id":"4","last_reported":1690747590,"current_range_meters":26000,"station_id":"ce4bhap2rcd13ifvqek0","pricing_plan_id":"free"},{"bike_id":"8a86bd4f-983e-474d-bc0c-cf374cae1f1d","system_id":"levelo_inurba_marseille","lat":43.289468,"lon":5.363719,"is_reserved":false,"is_disabled":false,"rental_uris":{"android":"levelo://app?vid=8a86bd4f-983e-474d-bc0c-cf374cae1f1d","ios":"levelo://app?vid=8a86bd4f-983e-474d-bc0c-cf374cae1f1d"},"vehicle_type_id":"4","last_reported":1690747590,"current_range_meters":0,"station_id":"ce4bhc92rcd13ifvqetg","pricing_plan_id":"free"},{"bike_id":"0c7e0079-a9f5-4c7b-86e0-7f17c10cbc1a","system_id":"levelo_inurba_marseille","lat":43.304296,"lon":5.397513,"is_reserved":false,"is_disabled":false,"rental_uris":{"android":"levelo://app?vid=0c7e0079-a9f5-4c7b-86e0-7f17c10cbc1a","ios":"levelo://app?vid=0c7e0079-a9f5-4c7b-86e0-7f17c10cbc1a"},"vehicle_type_id":"4","last_reported":1690747590,"current_range_meters":28800,"station_id":"ce4bh092rcd13ifvqd20","pricing_plan_id":"free"},{"bike_id":"681138bf-d1d0-4769-8b2b-bb3a59d274f8","system_id":"levelo_inurba_marseille","lat":43.292628,"lon":5.384383,"is_reserved":false,"is_disabled":false,"rental_uris":{"android":"levelo://app?vid=681138bf-d1d0-4769-8b2b-bb3a59d274f8","ios":"levelo://app?vid=681138bf-d1d0-4769-8b2b-bb3a59d274f8"},"vehicle_type_id":"4","last_reported":1690747590,"current_range_meters":22800,"station_id":"ce4bh692rcd13ifvqea0","pricing_plan_id":"free"},{"bike_id":"b857a64d-160a-4c04-877a-f74a8005db72","system_id":"levelo_inurba_marseille","lat":43.304296,"lon":5.397513,"is_reserved":false,"is_disabled":false,"rental_uris":{"android":"levelo://app?vid=b857a64d-160a-4c04-877a-f74a8005db72","ios":"levelo://app?vid=b857a64d-160a-4c04-877a-f74a8005db72"},"vehicle_type_id":"4","last_reported":1690747590,"current_range_meters":20400,"station_id":"ce4bh092rcd13ifvqd20","pricing_plan_id":"free"},{"bike_id":"73fe9104-6215-499e-b89d-2c07839ba482","system_id":"levelo_inurba_marseille","lat":43.29263,"lon":5.38444,"is_reserved":false,"is_disabled":false,"rental_uris":{"android":"levelo://app?vid=73fe9104-6215-499e-b89d-2c07839ba482","ios":"levelo://app?vid=73fe9104-6215-499e-b89d-2c07839ba482"},"vehicle_type_id":"4","last_reported":1690747590,"current_range_meters":16400,"station_id":"ce4bh692rcd13ifvqea0","pricing_plan_id":"free"},{"bike_id":"192ac85a-7df9-4a34-bb7b-81b39764c625","system_id":"levelo_inurba_marseille","lat":43.29259,"lon":5.38436,"is_reserved":false,"is_disabled":false,"rental_uris":{"android":"levelo://app?vid=192ac85a-7df9-4a34-bb7b-81b39764c625","ios":"levelo://app?vid=192ac85a-7df9-4a34-bb7b-81b39764c625"},"vehicle_type_id":"4","last_reported":1690747590,"current_range_meters":22000,"station_id":"ce4bh692rcd13ifvqea0","pricing_plan_id":"free"},{"bike_id":"c41e3035-e709-406a-9306-d4be567ad647","system_id":"levelo_inurba_marseille","lat":43.2926,"lon":5.38444,"is_reserved":false,"is_disabled":false,"rental_uris":{"android":"levelo://app?vid=c41e3035-e709-406a-9306-d4be567ad647","ios":"levelo://app?vid=c41e3035-e709-406a-9306-d4be567ad647"},"vehicle_type_id":"4","last_reported":1690747590,"current_range_meters":20400,"station_id":"ce4bh692rcd13ifvqea0","pricing_plan_id":"free"},{"bike_id":"e70f5ae4-457a-4171-a1ff-44f55c73c688","system_id":"levelo_inurba_marseille","lat":43.29259,"lon":5.38443,"is_reserved":false,"is_disabled":false,"rental_uris":{"android":"levelo://app?vid=e70f5ae4-457a-4171-a1ff-44f55c73c688","ios":"levelo://app?vid=e70f5ae4-457a-4171-a1ff-44f55c73c688"},"vehicle_type_id":"4","last_reported":1690747590,"current_range_meters":2000,"station_id":"ce4bh692rcd13ifvqea0","pricing_plan_id":"free"},{"bike_id":"12a883fc-2af6-4172-bcfa-5c532ebf8ffe","system_id":"levelo_inurba_marseille","lat":43.29258,"lon":5.38441,"is_reserved":false,"is_disabled":false,"rental_uris":{"android":"levelo://app?vid=12a883fc-2af6-4172-bcfa-5c532ebf8ffe","ios":"levelo://app?vid=12a883fc-2af6-4172-bcfa-5c532ebf8ffe"},"vehicle_type_id":"4","last_reported":1690747590,"current_range_meters":20800,"station_id":"ce4bh692rcd13ifvqea0","pricing_plan_id":"free"},{"bike_id":"8f5527d1-6c9b-4467-add2-880e9b5e77d9","system_id":"levelo_inurba_marseille","lat":43.29256,"lon":5.38438,"is_reserved":false,"is_disabled":false,"rental_uris":{"android":"levelo://app?vid=8f5527d1-6c9b-4467-add2-880e9b5e77d9","ios":"levelo://app?vid=8f5527d1-6c9b-4467-add2-880e9b5e77d9"},"vehicle_type_id":"4","last_reported":1690747590,"current_range_meters":23600,"station_id":"ce4bh692rcd13ifvqea0","pricing_plan_id":"free"},{"bike_id":"cde5afd9-2110-4ab4-9565-9eb5dc6cdd6a","system_id":"levelo_inurba_marseille","lat":43.2926,"lon":5.38449,"is_reserved":false,"is_disabled":false,"rental_uris":{"android":"levelo://app?vid=cde5afd9-2110-4ab4-9565-9eb5dc6cdd6a","ios":"levelo://app?vid=cde5afd9-2110-4ab4-9565-9eb5dc6cdd6a"},"vehicle_type_id":"4","last_reported":1690747590,"current_range_meters":13600,"station_id":"ce4bh692rcd13ifvqea0","pricing_plan_id":"free"},{"bike_id":"5738edd5-1986-4c25-bd61-284c967a8bfb","system_id":"levelo_inurba_marseille","lat":43.29258,"lon":5.38446,"is_reserved":false,"is_disabled":false,"rental_uris":{"android":"levelo://app?vid=5738edd5-1986-4c25-bd61-284c967a8bfb","ios":"levelo://app?vid=5738edd5-1986-4c25-bd61-284c967a8bfb"},"vehicle_type_id":"4","last_reported":1690747590,"current_range_meters":21200,"station_id":"ce4bh692rcd13ifvqea0","pricing_plan_id":"free"},{"bike_id":"4cdb8e1c-4f6d-41b4-800b-d98d08ab3649","system_id":"levelo_inurba_marseille","lat":43.29252,"lon":5.38439,"is_reserved":false,"is_disabled":false,"rental_uris":{"android":"levelo://app?vid=4cdb8e1c-4f6d-41b4-800b-d98d08ab3649","ios":"levelo://app?vid=4cdb8e1c-4f6d-41b4-800b-d98d08ab3649"},"vehicle_type_id":"4","last_reported":1690747590,"current_range_meters":800,"station_id":"ce4bh692rcd13ifvqea0","pricing_plan_id":"free"},{"bike_id":"38896f0e-a973-4216-9cb2-0af23db60983","system_id":"levelo_inurba_marseille","lat":43.29256,"lon":5.3845,"is_reserved":false,"is_disabled":false,"rental_uris":{"android":"levelo://app?vid=38896f0e-a973-4216-9cb2-0af23db60983","ios":"levelo://app?vid=38896f0e-a973-4216-9cb2-0af23db60983"},"vehicle_type_id":"4","last_reported":1690747590,"current_range_meters":2400,"station_id":"ce4bh692rcd13ifvqea0","pricing_plan_id":"free"},{"bike_id":"95fa4923-98e9-4786-9415-4a109a345841","system_id":"levelo_inurba_marseille","lat":43.29253,"lon":5.38445,"is_reserved":false,"is_disabled":false,"rental_uris":{"android":"levelo://app?vid=95fa4923-98e9-4786-9415-4a109a345841","ios":"levelo://app?vid=95fa4923-98e9-4786-9415-4a109a345841"},"vehicle_type_id":"4","last_reported":1690747590,"current_range_meters":0,"station_id":"ce4bh692rcd13ifvqea0","pricing_plan_id":"free"},{"bike_id":"3668ee85-396f-4d92-adae-0fe885a1deb8","system_id":"levelo_inurba_marseille","lat":43.29251,"lon":5.38446,"is_reserved":false,"is_disabled":false,"rental_uris":{"android":"levelo://app?vid=3668ee85-396f-4d92-adae-0fe885a1deb8","ios":"levelo://app?vid=3668ee85-396f-4d92-adae-0fe885a1deb8"},"vehicle_type_id":"4","last_reported":1690747590,"current_range_meters":0,"station_id":"ce4bh692rcd13ifvqea0","pricing_plan_id":"free"},{"bike_id":"134ef223-0af9-48f2-bbd1-4d84dd8cb35c","system_id":"levelo_inurba_marseille","lat":43.290104,"lon":5.356111,"is_reserved":false,"is_disabled":false,"rental_uris":{"android":"levelo://app?vid=134ef223-0af9-48f2-bbd1-4d84dd8cb35c","ios":"levelo://app?vid=134ef223-0af9-48f2-bbd1-4d84dd8cb35c"},"vehicle_type_id":"4","last_reported":1690747590,"current_range_meters":31200,"station_id":"ce4bhb92rcd13ifvqen0","pricing_plan_id":"free"},{"bike_id":"272de1d6-6a6f-44c8-896c-f4a36515155c","system_id":"levelo_inurba_marseille","lat":43.292228,"lon":5.384243,"is_reserved":false,"is_disabled":false,"rental_uris":{"android":"levelo://app?vid=272de1d6-6a6f-44c8-896c-f4a36515155c","ios":"levelo://app?vid=272de1d6-6a6f-44c8-896c-f4a36515155c"},"vehicle_type_id":"4","last_reported":1690747590,"current_range_meters":30000,"station_id":"ce4bh2h2rcd13ifvqdh0","pricing_plan_id":"free"},{"bike_id":"f4b8a937-478a-4113-a141-eec483a34759","system_id":"levelo_inurba_marseille","lat":43.2951,"lon":5.38947,"is_reserved":false,"is_disabled":false,"rental_uris":{"android":"levelo://app?vid=f4b8a937-478a-4113-a141-eec483a34759","ios":"levelo://app?vid=f4b8a937-478a-4113-a141-eec483a34759"},"vehicle_type_id":"4","last_reported":1690747590,"current_range_meters":8400,"station_id":"","pricing_plan_id":"free"},{"bike_id":"a942cf92-22cd-4df3-830b-0379ed8f4259","system_id":"levelo_inurba_marseille","lat":43.297815,"lon":5.393548,"is_reserved":false,"is_disabled":false,"rental_uris":{"android":"levelo://app?vid=a942cf92-22cd-4df3-830b-0379ed8f4259","ios":"levelo://app?vid=a942cf92-22cd-4df3-830b-0379ed8f4259"},"vehicle_type_id":"4","last_reported":1690747590,"current_range_meters":12000,"station_id":"chh1huq6cuj3fo74tm60","pricing_plan_id":"free"},{"bike_id":"05bf2cc0-c80b-4d3b-9303-5cea93148e89","system_id":"levelo_inurba_marseille","lat":43.290995,"lon":5.381361,"is_reserved":false,"is_disabled":false,"rental_uris":{"android":"levelo://app?vid=05bf2cc0-c80b-4d3b-9303-5cea93148e89","ios":"levelo://app?vid=05bf2cc0-c80b-4d3b-9303-5cea93148e89"},"vehicle_type_id":"4","last_reported":1690747590,"current_range_meters":31200,"station_id":"ce4bh512rcd13ifvqe2g","pricing_plan_id":"free"},{"bike_id":"10bfb3b6-a271-4ccd-878a-d009de18f840","system_id":"levelo_inurba_marseille","lat":43.29785,"lon":5.39334,"is_reserved":false,"is_disabled":false,"rental_uris":{"android":"levelo://app?vid=10bfb3b6-a271-4ccd-878a-d009de18f840","ios":"levelo://app?vid=10bfb3b6-a271-4ccd-878a-d009de18f840"},"vehicle_type_id":"4","last_reported":1690747590,"current_range_meters":17200,"station_id":"chh1huq6cuj3fo74tm60","pricing_plan_id":"free"},{"bike_id":"18c4c711-aa4b-4f5c-89e7-3216cb739982","system_id":"levelo_inurba_marseille","lat":43.295169,"lon":5.390426,"is_reserved":false,"is_disabled":false,"rental_uris":{"android":"levelo://app?vid=18c4c711-aa4b-4f5c-89e7-3216cb739982","ios":"levelo://app?vid=18c4c711-aa4b-4f5c-89e7-3216cb739982"},"vehicle_type_id":"4","last_reported":1690747590,"current_range_meters":12800,"station_id":"ce4bh3p2rcd13ifvqdp0","pricing_plan_id":"free"},{"bike_id":"01bea9d5-120d-4e33-905f-f63c34af6dd2","system_id":"levelo_inurba_marseille","lat":43.295169,"lon":5.390426,"is_reserved":false,"is_disabled":false,"rental_uris":{"android":"levelo://app?vid=01bea9d5-120d-4e33-905f-f63c34af6dd2","ios":"levelo://app?vid=01bea9d5-120d-4e33-905f-f63c34af6dd2"},"vehicle_type_id":"4","last_reported":1690747590,"current_range_meters":12400,"station_id":"ce4bh3p2rcd13ifvqdp0","pricing_plan_id":"free"},{"bike_id":"338bd4be-b087-4988-a356-2bec2b828bee","system_id":"levelo_inurba_marseille","lat":43.295169,"lon":5.390426,"is_reserved":false,"is_disabled":false,"rental_uris":{"android":"levelo://app?vid=338bd4be-b087-4988-a356-2bec2b828bee","ios":"levelo://app?vid=338bd4be-b087-4988-a356-2bec2b828bee"},"vehicle_type_id":"4","last_reported":1690747590,"current_range_meters":29600,"station_id":"ce4bh3p2rcd13ifvqdp0","pricing_plan_id":"free"},{"bike_id":"3d01b93e-3206-4753-814e-fae352f65668","system_id":"levelo_inurba_marseille","lat":43.295169,"lon":5.390426,"is_reserved":false,"is_disabled":false,"rental_uris":{"android":"levelo://app?vid=3d01b93e-3206-4753-814e-fae352f65668","ios":"levelo://app?vid=3d01b93e-3206-4753-814e-fae352f65668"},"vehicle_type_id":"4","last_reported":1690747590,"current_range_meters":10000,"station_id":"ce4bh3p2rcd13ifvqdp0","pricing_plan_id":"free"},{"bike_id":"67c99f1f-ee27-4571-9010-d5da113e8b81","system_id":"levelo_inurba_marseille","lat":43.295169,"lon":5.390426,"is_reserved":false,"is_disabled":false,"rental_uris":{"android":"levelo://app?vid=67c99f1f-ee27-4571-9010-d5da113e8b81","ios":"levelo://app?vid=67c99f1f-ee27-4571-9010-d5da113e8b81"},"vehicle_type_id":"4","last_reported":1690747590,"current_range_meters":17600,"station_id":"ce4bh3p2rcd13ifvqdp0","pricing_plan_id":"free"},{"bike_id":"46de5829-b215-48bc-8b8d-754394cb277f","system_id":"levelo_inurba_marseille","lat":43.295169,"lon":5.390426,"is_reserved":false,"is_disabled":false,"rental_uris":{"android":"levelo://app?vid=46de5829-b215-48bc-8b8d-754394cb277f","ios":"levelo://app?vid=46de5829-b215-48bc-8b8d-754394cb277f"},"vehicle_type_id":"4","last_reported":1690747590,"current_range_meters":15600,"station_id":"ce4bh3p2rcd13ifvqdp0","pricing_plan_id":"free"},{"bike_id":"6d8b26a9-8341-4220-aab3-d7722cb8abee","system_id":"levelo_inurba_marseille","lat":43.295169,"lon":5.390426,"is_reserved":false,"is_disabled":false,"rental_uris":{"android":"levelo://app?vid=6d8b26a9-8341-4220-aab3-d7722cb8abee","ios":"levelo://app?vid=6d8b26a9-8341-4220-aab3-d7722cb8abee"},"vehicle_type_id":"4","last_reported":1690747590,"current_range_meters":31200,"station_id":"ce4bh3p2rcd13ifvqdp0","pricing_plan_id":"free"},{"bike_id":"b0e2e419-23ff-4534-9928-8a4cc6dffb63","system_id":"levelo_inurba_marseille","lat":43.31282,"lon":5.40167,"is_reserved":false,"is_disabled":false,"rental_uris":{"android":"levelo://app?vid=b0e2e419-23ff-4534-9928-8a4cc6dffb63","ios":"levelo://app?vid=b0e2e419-23ff-4534-9928-8a4cc6dffb63"},"vehicle_type_id":"4","last_reported":1690747590,"current_range_meters":20800,"station_id":"ce4bh092rcd13ifvqd30","pricing_plan_id":"free"},{"bike_id":"b5e2ab5f-09b5-4c60-aa79-495799e311d0","system_id":"levelo_inurba_marseille","lat":43.30934,"lon":5.4014,"is_reserved":false,"is_disabled":false,"rental_uris":{"android":"levelo://app?vid=b5e2ab5f-09b5-4c60-aa79-495799e311d0","ios":"levelo://app?vid=b5e2ab5f-09b5-4c60-aa79-495799e311d0"},"vehicle_type_id":"4","last_reported":1690747590,"current_range_meters":9200,"station_id":"ce4bgvp2rcd13ifvqct0","pricing_plan_id":"free"},{"bike_id":"93bef249-7fdc-408c-81e0-929ae7293663","system_id":"levelo_inurba_marseille","lat":43.3127,"lon":5.40174,"is_reserved":false,"is_disabled":false,"rental_uris":{"android":"levelo://app?vid=93bef249-7fdc-408c-81e0-929ae7293663","ios":"levelo://app?vid=93bef249-7fdc-408c-81e0-929ae7293663"},"vehicle_type_id":"4","last_reported":1690747590,"current_range_meters":1200,"station_id":"ce4bh092rcd13ifvqd30","pricing_plan_id":"free"},{"bike_id":"f5fdb543-1080-4047-8fdb-19dd3e662cee","system_id":"levelo_inurba_marseille","lat":43.31278,"lon":5.40175,"is_reserved":false,"is_disabled":false,"rental_uris":{"android":"levelo://app?vid=f5fdb543-1080-4047-8fdb-19dd3e662cee","ios":"levelo://app?vid=f5fdb543-1080-4047-8fdb-19dd3e662cee"},"vehicle_type_id":"4","last_reported":1690747590,"current_range_meters":12400,"station_id":"ce4bh092rcd13ifvqd30","pricing_plan_id":"free"},{"bike_id":"ad61ca21-4506-44fc-9538-ac6438246da1","system_id":"levelo_inurba_marseille","lat":43.31271,"lon":5.40177,"is_reserved":false,"is_disabled":false,"rental_uris":{"android":"levelo://app?vid=ad61ca21-4506-44fc-9538-ac6438246da1","ios":"levelo://app?vid=ad61ca21-4506-44fc-9538-ac6438246da1"},"vehicle_type_id":"4","last_reported":1690747590,"current_range_meters":24800,"station_id":"ce4bh092rcd13ifvqd30","pricing_plan_id":"free"},{"bike_id":"d94ae900-5fb7-4460-a7ae-0d4cf791d6ff","system_id":"levelo_inurba_marseille","lat":43.30926,"lon":5.40147,"is_reserved":false,"is_disabled":false,"rental_uris":{"android":"levelo://app?vid=d94ae900-5fb7-4460-a7ae-0d4cf791d6ff","ios":"levelo://app?vid=d94ae900-5fb7-4460-a7ae-0d4cf791d6ff"},"vehicle_type_id":"4","last_reported":1690747590,"current_range_meters":2400,"station_id":"ce4bgvp2rcd13ifvqct0","pricing_plan_id":"free"},{"bike_id":"7da1a325-9e23-4b19-8fcb-230daba25580","system_id":"levelo_inurba_marseille","lat":43.30642,"lon":5.401031,"is_reserved":false,"is_disabled":false,"rental_uris":{"android":"levelo://app?vid=7da1a325-9e23-4b19-8fcb-230daba25580","ios":"levelo://app?vid=7da1a325-9e23-4b19-8fcb-230daba25580"},"vehicle_type_id":"4","last_reported":1690747590,"current_range_meters":0,"station_id":"ce4bh112rcd13ifvqda0","pricing_plan_id":"free"},{"bike_id":"a998d525-07a8-49f9-add0-c80a8c546838","system_id":"levelo_inurba_marseille","lat":43.30644,"lon":5.40096,"is_reserved":false,"is_disabled":false,"rental_uris":{"android":"levelo://app?vid=a998d525-07a8-49f9-add0-c80a8c546838","ios":"levelo://app?vid=a998d525-07a8-49f9-add0-c80a8c546838"},"vehicle_type_id":"4","last_reported":1690747590,"current_range_meters":19600,"station_id":"ce4bh112rcd13ifvqda0","pricing_plan_id":"free"},{"bike_id":"07f53243-5c98-4dbb-842e-cf5ab2f6776b","system_id":"levelo_inurba_marseille","lat":43.301117,"lon":5.398795,"is_reserved":false,"is_disabled":false,"rental_uris":{"android":"levelo://app?vid=07f53243-5c98-4dbb-842e-cf5ab2f6776b","ios":"levelo://app?vid=07f53243-5c98-4dbb-842e-cf5ab2f6776b"},"vehicle_type_id":"4","last_reported":1690747590,"current_range_meters":24400,"station_id":"ce4bh0h2rcd13ifvqd40","pricing_plan_id":"free"},{"bike_id":"eac770e5-cbe2-43c8-b38f-c823d4fc3755","system_id":"levelo_inurba_marseille","lat":43.298681,"lon":5.397225,"is_reserved":false,"is_disabled":false,"rental_uris":{"android":"levelo://app?vid=eac770e5-cbe2-43c8-b38f-c823d4fc3755","ios":"levelo://app?vid=eac770e5-cbe2-43c8-b38f-c823d4fc3755"},"vehicle_type_id":"4","last_reported":1690747590,"current_range_meters":5200,"station_id":"ce4bh0h2rcd13ifvqd50","pricing_plan_id":"free"},{"bike_id":"71c881c8-3c82-4b6c-89f5-2cf0a5e03ba9","system_id":"levelo_inurba_marseille","lat":43.298681,"lon":5.397225,"is_reserved":false,"is_disabled":false,"rental_uris":{"android":"levelo://app?vid=71c881c8-3c82-4b6c-89f5-2cf0a5e03ba9","ios":"levelo://app?vid=71c881c8-3c82-4b6c-89f5-2cf0a5e03ba9"},"vehicle_type_id":"4","last_reported":1690747590,"current_range_meters":1200,"station_id":"ce4bh0h2rcd13ifvqd50","pricing_plan_id":"free"},{"bike_id":"75199276-b705-4ad7-b6a9-49aeaa84628a","system_id":"levelo_inurba_marseille","lat":43.286593,"lon":5.363346,"is_reserved":false,"is_disabled":false,"rental_uris":{"android":"levelo://app?vid=75199276-b705-4ad7-b6a9-49aeaa84628a","ios":"levelo://app?vid=75199276-b705-4ad7-b6a9-49aeaa84628a"},"vehicle_type_id":"4","last_reported":1690747590,"current_range_meters":31200,"station_id":"ce4bhah2rcd13ifvqej0","pricing_plan_id":"free"},{"bike_id":"8d2af8b0-2e07-47ef-9e9b-989c8bf2e89c","system_id":"levelo_inurba_marseille","lat":43.298681,"lon":5.397225,"is_reserved":false,"is_disabled":false,"rental_uris":{"android":"levelo://app?vid=8d2af8b0-2e07-47ef-9e9b-989c8bf2e89c","ios":"levelo://app?vid=8d2af8b0-2e07-47ef-9e9b-989c8bf2e89c"},"vehicle_type_id":"4","last_reported":1690747590,"current_range_meters":1200,"station_id":"ce4bh0h2rcd13ifvqd50","pricing_plan_id":"free"},{"bike_id":"036b8bf0-113d-42b6-808f-ba5f2ebfb658","system_id":"levelo_inurba_marseille","lat":43.295194,"lon":5.39397,"is_reserved":false,"is_disabled":false,"rental_uris":{"android":"levelo://app?vid=036b8bf0-113d-42b6-808f-ba5f2ebfb658","ios":"levelo://app?vid=036b8bf0-113d-42b6-808f-ba5f2ebfb658"},"vehicle_type_id":"4","last_reported":1690747590,"current_range_meters":25200,"station_id":"ce4bh292rcd13ifvqdf0","pricing_plan_id":"free"},{"bike_id":"74d84c2b-d285-41ee-a905-581851073b93","system_id":"levelo_inurba_marseille","lat":43.295196,"lon":5.39397,"is_reserved":false,"is_disabled":false,"rental_uris":{"android":"levelo://app?vid=74d84c2b-d285-41ee-a905-581851073b93","ios":"levelo://app?vid=74d84c2b-d285-41ee-a905-581851073b93"},"vehicle_type_id":"4","last_reported":1690747590,"current_range_meters":28400,"station_id":"ce4bh292rcd13ifvqdf0","pricing_plan_id":"free"},{"bike_id":"d8f254ea-027c-44cd-8eaf-c8dd87c83a75","system_id":"levelo_inurba_marseille","lat":43.295194,"lon":5.39397,"is_reserved":false,"is_disabled":false,"rental_uris":{"android":"levelo://app?vid=d8f254ea-027c-44cd-8eaf-c8dd87c83a75","ios":"levelo://app?vid=d8f254ea-027c-44cd-8eaf-c8dd87c83a75"},"vehicle_type_id":"4","last_reported":1690747590,"current_range_meters":0,"station_id":"ce4bh292rcd13ifvqdf0","pricing_plan_id":"free"},{"bike_id":"af4c662b-0d10-4cbf-8d84-7a26896e0159","system_id":"levelo_inurba_marseille","lat":43.290345,"lon":5.38646,"is_reserved":false,"is_disabled":false,"rental_uris":{"android":"levelo://app?vid=af4c662b-0d10-4cbf-8d84-7a26896e0159","ios":"levelo://app?vid=af4c662b-0d10-4cbf-8d84-7a26896e0159"},"vehicle_type_id":"4","last_reported":1690747590,"current_range_meters":20800,"station_id":"ce4bh4p2rcd13ifvqe0g","pricing_plan_id":"free"},{"bike_id":"d8085eed-55d8-47cc-b2bd-3503caaeb37d","system_id":"levelo_inurba_marseille","lat":43.29031,"lon":5.38646,"is_reserved":false,"is_disabled":false,"rental_uris":{"android":"levelo://app?vid=d8085eed-55d8-47cc-b2bd-3503caaeb37d","ios":"levelo://app?vid=d8085eed-55d8-47cc-b2bd-3503caaeb37d"},"vehicle_type_id":"4","last_reported":1690747590,"current_range_meters":17200,"station_id":"ce4bh4p2rcd13ifvqe0g","pricing_plan_id":"free"},{"bike_id":"2af4d9d5-7c0a-4f6f-8ba2-f25c31ae2f9a","system_id":"levelo_inurba_marseille","lat":43.29018,"lon":5.38641,"is_reserved":false,"is_disabled":false,"rental_uris":{"android":"levelo://app?vid=2af4d9d5-7c0a-4f6f-8ba2-f25c31ae2f9a","ios":"levelo://app?vid=2af4d9d5-7c0a-4f6f-8ba2-f25c31ae2f9a"},"vehicle_type_id":"4","last_reported":1690747590,"current_range_meters":25200,"station_id":"ce4bh4p2rcd13ifvqe0g","pricing_plan_id":"free"},{"bike_id":"4497238f-e939-47f0-8f2e-ea793c5fa804","system_id":"levelo_inurba_marseille","lat":43.2861,"lon":5.3707,"is_reserved":false,"is_disabled":false,"rental_uris":{"android":"levelo://app?vid=4497238f-e939-47f0-8f2e-ea793c5fa804","ios":"levelo://app?vid=4497238f-e939-47f0-8f2e-ea793c5fa804"},"vehicle_type_id":"4","last_reported":1690747590,"current_range_meters":6400,"station_id":"ce4bht12rcd13ifvqi60","pricing_plan_id":"free"},{"bike_id":"4ba6b691-6462-4587-91f7-975e99d37d3d","system_id":"levelo_inurba_marseille","lat":43.31365,"lon":5.4038,"is_reserved":false,"is_disabled":false,"rental_uris":{"android":"levelo://app?vid=4ba6b691-6462-4587-91f7-975e99d37d3d","ios":"levelo://app?vid=4ba6b691-6462-4587-91f7-975e99d37d3d"},"vehicle_type_id":"4","last_reported":1690747590,"current_range_meters":24000,"station_id":"","pricing_plan_id":"free"},{"bike_id":"85d608e2-81a9-4a7d-8a14-c3c84535849d","system_id":"levelo_inurba_marseille","lat":43.28574,"lon":5.37138,"is_reserved":false,"is_disabled":false,"rental_uris":{"android":"levelo://app?vid=85d608e2-81a9-4a7d-8a14-c3c84535849d","ios":"levelo://app?vid=85d608e2-81a9-4a7d-8a14-c3c84535849d"},"vehicle_type_id":"4","last_reported":1690747590,"current_range_meters":13200,"station_id":"","pricing_plan_id":"free"},{"bike_id":"fcc30dab-1e0c-482e-b26a-49546ad8766c","system_id":"levelo_inurba_marseille","lat":43.288547,"lon":5.384366,"is_reserved":false,"is_disabled":false,"rental_uris":{"android":"levelo://app?vid=fcc30dab-1e0c-482e-b26a-49546ad8766c","ios":"levelo://app?vid=fcc30dab-1e0c-482e-b26a-49546ad8766c"},"vehicle_type_id":"4","last_reported":1690747590,"current_range_meters":25600,"station_id":"","pricing_plan_id":"free"},{"bike_id":"c524a31c-a486-45a1-87ab-8346a2f1da65","system_id":"levelo_inurba_marseille","lat":43.3164,"lon":5.40436,"is_reserved":false,"is_disabled":false,"rental_uris":{"android":"levelo://app?vid=c524a31c-a486-45a1-87ab-8346a2f1da65","ios":"levelo://app?vid=c524a31c-a486-45a1-87ab-8346a2f1da65"},"vehicle_type_id":"4","last_reported":1690747590,"current_range_meters":17200,"station_id":"ce4bh012rcd13ifvqd00","pricing_plan_id":"free"},{"bike_id":"c6363034-fc2a-4f41-82f4-1f5220ca0514","system_id":"levelo_inurba_marseille","lat":43.316517,"lon":5.404375,"is_reserved":false,"is_disabled":false,"rental_uris":{"android":"levelo://app?vid=c6363034-fc2a-4f41-82f4-1f5220ca0514","ios":"levelo://app?vid=c6363034-fc2a-4f41-82f4-1f5220ca0514"},"vehicle_type_id":"4","last_reported":1690747590,"current_range_meters":20000,"station_id":"ce4bh012rcd13ifvqd00","pricing_plan_id":"free"},{"bike_id":"d0d63584-54f3-4ef4-95cc-b51c9cdb1c8b","system_id":"levelo_inurba_marseille","lat":43.316517,"lon":5.404375,"is_reserved":false,"is_disabled":false,"rental_uris":{"android":"levelo://app?vid=d0d63584-54f3-4ef4-95cc-b51c9cdb1c8b","ios":"levelo://app?vid=d0d63584-54f3-4ef4-95cc-b51c9cdb1c8b"},"vehicle_type_id":"4","last_reported":1690747590,"current_range_meters":17200,"station_id":"ce4bh012rcd13ifvqd00","pricing_plan_id":"free"},{"bike_id":"8f734c18-23cf-49ba-89fe-30508da6c31e","system_id":"levelo_inurba_marseille","lat":43.316517,"lon":5.404375,"is_reserved":false,"is_disabled":false,"rental_uris":{"android":"levelo://app?vid=8f734c18-23cf-49ba-89fe-30508da6c31e","ios":"levelo://app?vid=8f734c18-23cf-49ba-89fe-30508da6c31e"},"vehicle_type_id":"4","last_reported":1690747590,"current_range_meters":6000,"station_id":"ce4bh012rcd13ifvqd00","pricing_plan_id":"free"},{"bike_id":"023251d4-1386-48e2-80a6-0cfc06549ba5","system_id":"levelo_inurba_marseille","lat":43.31645,"lon":5.40443,"is_reserved":false,"is_disabled":false,"rental_uris":{"android":"levelo://app?vid=023251d4-1386-48e2-80a6-0cfc06549ba5","ios":"levelo://app?vid=023251d4-1386-48e2-80a6-0cfc06549ba5"},"vehicle_type_id":"4","last_reported":1690747590,"current_range_meters":17600,"station_id":"ce4bh012rcd13ifvqd00","pricing_plan_id":"free"},{"bike_id":"99c50597-4800-4e25-bd3e-243b23cee58b","system_id":"levelo_inurba_marseille","lat":43.292,"lon":5.39315,"is_reserved":false,"is_disabled":false,"rental_uris":{"android":"levelo://app?vid=99c50597-4800-4e25-bd3e-243b23cee58b","ios":"levelo://app?vid=99c50597-4800-4e25-bd3e-243b23cee58b"},"vehicle_type_id":"4","last_reported":1690747590,"current_range_meters":0,"station_id":"ce4bh192rcd13ifvqdd0","pricing_plan_id":"free"},{"bike_id":"6692445a-4117-4d85-ab4b-f698758530c8","system_id":"levelo_inurba_marseille","lat":43.291994,"lon":5.392907,"is_reserved":false,"is_disabled":false,"rental_uris":{"android":"levelo://app?vid=6692445a-4117-4d85-ab4b-f698758530c8","ios":"levelo://app?vid=6692445a-4117-4d85-ab4b-f698758530c8"},"vehicle_type_id":"4","last_reported":1690747590,"current_range_meters":18400,"station_id":"ce4bh192rcd13ifvqdd0","pricing_plan_id":"free"},{"bike_id":"0c2563a9-a8ff-44b0-91c3-52c9c13e56b7","system_id":"levelo_inurba_marseille","lat":43.291994,"lon":5.392907,"is_reserved":false,"is_disabled":false,"rental_uris":{"android":"levelo://app?vid=0c2563a9-a8ff-44b0-91c3-52c9c13e56b7","ios":"levelo://app?vid=0c2563a9-a8ff-44b0-91c3-52c9c13e56b7"},"vehicle_type_id":"4","last_reported":1690747590,"current_range_meters":5200,"station_id":"ce4bh192rcd13ifvqdd0","pricing_plan_id":"free"},{"bike_id":"44f1382b-dd81-4d72-8701-6af0dbe87b23","system_id":"levelo_inurba_marseille","lat":43.291994,"lon":5.392907,"is_reserved":false,"is_disabled":false,"rental_uris":{"android":"levelo://app?vid=44f1382b-dd81-4d72-8701-6af0dbe87b23","ios":"levelo://app?vid=44f1382b-dd81-4d72-8701-6af0dbe87b23"},"vehicle_type_id":"4","last_reported":1690747590,"current_range_meters":2000,"station_id":"ce4bh192rcd13ifvqdd0","pricing_plan_id":"free"},{"bike_id":"1f4cc0af-54d1-41c0-9200-8f463311f03e","system_id":"levelo_inurba_marseille","lat":43.291994,"lon":5.392907,"is_reserved":false,"is_disabled":false,"rental_uris":{"android":"levelo://app?vid=1f4cc0af-54d1-41c0-9200-8f463311f03e","ios":"levelo://app?vid=1f4cc0af-54d1-41c0-9200-8f463311f03e"},"vehicle_type_id":"4","last_reported":1690747590,"current_range_meters":14000,"station_id":"ce4bh192rcd13ifvqdd0","pricing_plan_id":"free"},{"bike_id":"f56860e2-f82d-4e5c-9b55-f8ae9d2af462","system_id":"levelo_inurba_marseille","lat":43.294314,"lon":5.397498,"is_reserved":false,"is_disabled":false,"rental_uris":{"android":"levelo://app?vid=f56860e2-f82d-4e5c-9b55-f8ae9d2af462","ios":"levelo://app?vid=f56860e2-f82d-4e5c-9b55-f8ae9d2af462"},"vehicle_type_id":"4","last_reported":1690747590,"current_range_meters":26400,"station_id":"ce4bh3h2rcd13ifvqdo0","pricing_plan_id":"free"},{"bike_id":"a5d90b5b-665a-4694-a496-1e960674914a","system_id":"levelo_inurba_marseille","lat":43.28453,"lon":5.35889,"is_reserved":false,"is_disabled":false,"rental_uris":{"android":"levelo://app?vid=a5d90b5b-665a-4694-a496-1e960674914a","ios":"levelo://app?vid=a5d90b5b-665a-4694-a496-1e960674914a"},"vehicle_type_id":"4","last_reported":1690747590,"current_range_meters":6400,"station_id":"ce4bhah2rcd13ifvqei0","pricing_plan_id":"free"},{"bike_id":"879c059f-e1b8-4860-8f7a-7e4e30c0a664","system_id":"levelo_inurba_marseille","lat":43.294314,"lon":5.397498,"is_reserved":false,"is_disabled":false,"rental_uris":{"android":"levelo://app?vid=879c059f-e1b8-4860-8f7a-7e4e30c0a664","ios":"levelo://app?vid=879c059f-e1b8-4860-8f7a-7e4e30c0a664"},"vehicle_type_id":"4","last_reported":1690747590,"current_range_meters":4800,"station_id":"ce4bh3h2rcd13ifvqdo0","pricing_plan_id":"free"},{"bike_id":"e5a3c789-f259-47e9-bbc6-2c0dd809354c","system_id":"levelo_inurba_marseille","lat":43.294314,"lon":5.397498,"is_reserved":false,"is_disabled":false,"rental_uris":{"android":"levelo://app?vid=e5a3c789-f259-47e9-bbc6-2c0dd809354c","ios":"levelo://app?vid=e5a3c789-f259-47e9-bbc6-2c0dd809354c"},"vehicle_type_id":"4","last_reported":1690747590,"current_range_meters":14400,"station_id":"ce4bh3h2rcd13ifvqdo0","pricing_plan_id":"free"},{"bike_id":"5b112069-dd75-4a1c-a0d8-84fb8f414b25","system_id":"levelo_inurba_marseille","lat":43.285856,"lon":5.350771,"is_reserved":false,"is_disabled":false,"rental_uris":{"android":"levelo://app?vid=5b112069-dd75-4a1c-a0d8-84fb8f414b25","ios":"levelo://app?vid=5b112069-dd75-4a1c-a0d8-84fb8f414b25"},"vehicle_type_id":"4","last_reported":1690747590,"current_range_meters":24400,"station_id":"ce4bhch2rcd13ifvqeug","pricing_plan_id":"free"},{"bike_id":"0ca3236e-679c-4cdd-9f53-d5303defbf93","system_id":"levelo_inurba_marseille","lat":43.28426,"lon":5.37492,"is_reserved":false,"is_disabled":false,"rental_uris":{"android":"levelo://app?vid=0ca3236e-679c-4cdd-9f53-d5303defbf93","ios":"levelo://app?vid=0ca3236e-679c-4cdd-9f53-d5303defbf93"},"vehicle_type_id":"4","last_reported":1690747590,"current_range_meters":23200,"station_id":"ce4bh412rcd13ifvqds0","pricing_plan_id":"free"},{"bike_id":"01b7d93f-e411-42ff-bd03-0bc5d1c372d8","system_id":"levelo_inurba_marseille","lat":43.283998,"lon":5.375062,"is_reserved":false,"is_disabled":false,"rental_uris":{"android":"levelo://app?vid=01b7d93f-e411-42ff-bd03-0bc5d1c372d8","ios":"levelo://app?vid=01b7d93f-e411-42ff-bd03-0bc5d1c372d8"},"vehicle_type_id":"4","last_reported":1690747590,"current_range_meters":0,"station_id":"ce4bh412rcd13ifvqds0","pricing_plan_id":"free"},{"bike_id":"30c0ad1a-a5d8-4a60-b5e6-e89227f106c4","system_id":"levelo_inurba_marseille","lat":43.283998,"lon":5.375062,"is_reserved":false,"is_disabled":false,"rental_uris":{"android":"levelo://app?vid=30c0ad1a-a5d8-4a60-b5e6-e89227f106c4","ios":"levelo://app?vid=30c0ad1a-a5d8-4a60-b5e6-e89227f106c4"},"vehicle_type_id":"4","last_reported":1690747590,"current_range_meters":21200,"station_id":"ce4bh412rcd13ifvqds0","pricing_plan_id":"free"},{"bike_id":"84b988b3-a9d7-4c06-824b-4e76a004ea8a","system_id":"levelo_inurba_marseille","lat":43.28411,"lon":5.37525,"is_reserved":false,"is_disabled":false,"rental_uris":{"android":"levelo://app?vid=84b988b3-a9d7-4c06-824b-4e76a004ea8a","ios":"levelo://app?vid=84b988b3-a9d7-4c06-824b-4e76a004ea8a"},"vehicle_type_id":"4","last_reported":1690747590,"current_range_meters":21200,"station_id":"ce4bh412rcd13ifvqds0","pricing_plan_id":"free"},{"bike_id":"d9e64e89-b46c-48e4-b3ef-bf33315bca12","system_id":"levelo_inurba_marseille","lat":43.28409,"lon":5.37522,"is_reserved":false,"is_disabled":false,"rental_uris":{"android":"levelo://app?vid=d9e64e89-b46c-48e4-b3ef-bf33315bca12","ios":"levelo://app?vid=d9e64e89-b46c-48e4-b3ef-bf33315bca12"},"vehicle_type_id":"4","last_reported":1690747590,"current_range_meters":28800,"station_id":"ce4bh412rcd13ifvqds0","pricing_plan_id":"free"},{"bike_id":"3da7ac56-00be-4893-aaf7-706c1b45600e","system_id":"levelo_inurba_marseille","lat":43.295713,"lon":5.399639,"is_reserved":false,"is_disabled":false,"rental_uris":{"android":"levelo://app?vid=3da7ac56-00be-4893-aaf7-706c1b45600e","ios":"levelo://app?vid=3da7ac56-00be-4893-aaf7-706c1b45600e"},"vehicle_type_id":"4","last_reported":1690747590,"current_range_meters":30400,"station_id":"ce4bh312rcd13ifvqdj0","pricing_plan_id":"free"},{"bike_id":"2018ff56-1aa6-41b7-9480-3c39c96a151d","system_id":"levelo_inurba_marseille","lat":43.295713,"lon":5.399639,"is_reserved":false,"is_disabled":false,"rental_uris":{"android":"levelo://app?vid=2018ff56-1aa6-41b7-9480-3c39c96a151d","ios":"levelo://app?vid=2018ff56-1aa6-41b7-9480-3c39c96a151d"},"vehicle_type_id":"4","last_reported":1690747590,"current_range_meters":11600,"station_id":"ce4bh312rcd13ifvqdj0","pricing_plan_id":"free"},{"bike_id":"511a5e6c-f200-4a55-b970-717b277f3040","system_id":"levelo_inurba_marseille","lat":43.286595,"lon":5.386795,"is_reserved":false,"is_disabled":false,"rental_uris":{"android":"levelo://app?vid=511a5e6c-f200-4a55-b970-717b277f3040","ios":"levelo://app?vid=511a5e6c-f200-4a55-b970-717b277f3040"},"vehicle_type_id":"4","last_reported":1690747590,"current_range_meters":6400,"station_id":"ce4bh492rcd13ifvqdug","pricing_plan_id":"free"},{"bike_id":"8be36985-470e-452c-bc24-29e3c3a6b0e5","system_id":"levelo_inurba_marseille","lat":43.319179,"lon":5.407725,"is_reserved":false,"is_disabled":false,"rental_uris":{"android":"levelo://app?vid=8be36985-470e-452c-bc24-29e3c3a6b0e5","ios":"levelo://app?vid=8be36985-470e-452c-bc24-29e3c3a6b0e5"},"vehicle_type_id":"4","last_reported":1690747590,"current_range_meters":31200,"station_id":"ce4bhq12rcd13ifvqhig","pricing_plan_id":"free"},{"bike_id":"e78794ab-1147-4e07-9747-4f03804e7014","system_id":"levelo_inurba_marseille","lat":43.33717,"lon":5.39185,"is_reserved":false,"is_disabled":false,"rental_uris":{"android":"levelo://app?vid=e78794ab-1147-4e07-9747-4f03804e7014","ios":"levelo://app?vid=e78794ab-1147-4e07-9747-4f03804e7014"},"vehicle_type_id":"4","last_reported":1690747590,"current_range_meters":23600,"station_id":"ce4bhr92rcd13ifvqhsg","pricing_plan_id":"free"},{"bike_id":"1cd10330-8c82-4645-9e31-791aa547d0aa","system_id":"levelo_inurba_marseille","lat":43.33719,"lon":5.39184,"is_reserved":false,"is_disabled":false,"rental_uris":{"android":"levelo://app?vid=1cd10330-8c82-4645-9e31-791aa547d0aa","ios":"levelo://app?vid=1cd10330-8c82-4645-9e31-791aa547d0aa"},"vehicle_type_id":"4","last_reported":1690747590,"current_range_meters":24800,"station_id":"ce4bhr92rcd13ifvqhsg","pricing_plan_id":"free"},{"bike_id":"798d0f30-e396-465f-aff2-43cfaea19281","system_id":"levelo_inurba_marseille","lat":43.3372,"lon":5.39186,"is_reserved":false,"is_disabled":false,"rental_uris":{"android":"levelo://app?vid=798d0f30-e396-465f-aff2-43cfaea19281","ios":"levelo://app?vid=798d0f30-e396-465f-aff2-43cfaea19281"},"vehicle_type_id":"4","last_reported":1690747590,"current_range_meters":0,"station_id":"ce4bhr92rcd13ifvqhsg","pricing_plan_id":"free"},{"bike_id":"c214d605-66d3-4e2d-8d08-d523874da159","system_id":"levelo_inurba_marseille","lat":43.33725,"lon":5.39183,"is_reserved":false,"is_disabled":false,"rental_uris":{"android":"levelo://app?vid=c214d605-66d3-4e2d-8d08-d523874da159","ios":"levelo://app?vid=c214d605-66d3-4e2d-8d08-d523874da159"},"vehicle_type_id":"4","last_reported":1690747590,"current_range_meters":20000,"station_id":"ce4bhr92rcd13ifvqhsg","pricing_plan_id":"free"},{"bike_id":"014d9948-2b3b-488a-86be-736137fe4ad2","system_id":"levelo_inurba_marseille","lat":43.32341,"lon":5.4062,"is_reserved":false,"is_disabled":false,"rental_uris":{"android":"levelo://app?vid=014d9948-2b3b-488a-86be-736137fe4ad2","ios":"levelo://app?vid=014d9948-2b3b-488a-86be-736137fe4ad2"},"vehicle_type_id":"4","last_reported":1690747590,"current_range_meters":22000,"station_id":"","pricing_plan_id":"free"},{"bike_id":"5fc62844-38f1-43ca-9b6d-b74675103304","system_id":"levelo_inurba_marseille","lat":43.3234,"lon":5.40621,"is_reserved":false,"is_disabled":false,"rental_uris":{"android":"levelo://app?vid=5fc62844-38f1-43ca-9b6d-b74675103304","ios":"levelo://app?vid=5fc62844-38f1-43ca-9b6d-b74675103304"},"vehicle_type_id":"4","last_reported":1690747590,"current_range_meters":4800,"station_id":"","pricing_plan_id":"free"},{"bike_id":"db9f1e9d-fa2e-4ef5-a5ae-91308d412f1f","system_id":"levelo_inurba_marseille","lat":43.323464,"lon":5.406297,"is_reserved":false,"is_disabled":false,"rental_uris":{"android":"levelo://app?vid=db9f1e9d-fa2e-4ef5-a5ae-91308d412f1f","ios":"levelo://app?vid=db9f1e9d-fa2e-4ef5-a5ae-91308d412f1f"},"vehicle_type_id":"4","last_reported":1690747590,"current_range_meters":14800,"station_id":"ce4bhq92rcd13ifvqhjg","pricing_plan_id":"free"},{"bike_id":"9a31be56-3045-467e-9880-032054760d46","system_id":"levelo_inurba_marseille","lat":43.288497,"lon":5.393089,"is_reserved":false,"is_disabled":false,"rental_uris":{"android":"levelo://app?vid=9a31be56-3045-467e-9880-032054760d46","ios":"levelo://app?vid=9a31be56-3045-467e-9880-032054760d46"},"vehicle_type_id":"4","last_reported":1690747590,"current_range_meters":19600,"station_id":"ce4bh2p2rcd13ifvqdi0","pricing_plan_id":"free"},{"bike_id":"cdaa888c-5fd6-49b0-a1d1-8d16a6539598","system_id":"levelo_inurba_marseille","lat":43.288497,"lon":5.393089,"is_reserved":false,"is_disabled":false,"rental_uris":{"android":"levelo://app?vid=cdaa888c-5fd6-49b0-a1d1-8d16a6539598","ios":"levelo://app?vid=cdaa888c-5fd6-49b0-a1d1-8d16a6539598"},"vehicle_type_id":"4","last_reported":1690747590,"current_range_meters":8400,"station_id":"ce4bh2p2rcd13ifvqdi0","pricing_plan_id":"free"},{"bike_id":"7b845670-63ea-4481-80f8-be2a76e055a0","system_id":"levelo_inurba_marseille","lat":43.28349,"lon":5.38111,"is_reserved":false,"is_disabled":false,"rental_uris":{"android":"levelo://app?vid=7b845670-63ea-4481-80f8-be2a76e055a0","ios":"levelo://app?vid=7b845670-63ea-4481-80f8-be2a76e055a0"},"vehicle_type_id":"4","last_reported":1690747590,"current_range_meters":0,"station_id":"ce4bh412rcd13ifvqdr0","pricing_plan_id":"free"},{"bike_id":"4f14fc10-9244-4a80-adcd-5a2b3dcde3e5","system_id":"levelo_inurba_marseille","lat":43.28347,"lon":5.38111,"is_reserved":false,"is_disabled":false,"rental_uris":{"android":"levelo://app?vid=4f14fc10-9244-4a80-adcd-5a2b3dcde3e5","ios":"levelo://app?vid=4f14fc10-9244-4a80-adcd-5a2b3dcde3e5"},"vehicle_type_id":"4","last_reported":1690747590,"current_range_meters":14000,"station_id":"ce4bh412rcd13ifvqdr0","pricing_plan_id":"free"},{"bike_id":"26bfcad4-2dc6-43bb-9f00-91622fd750a3","system_id":"levelo_inurba_marseille","lat":43.32482,"lon":5.40718,"is_reserved":false,"is_disabled":false,"rental_uris":{"android":"levelo://app?vid=26bfcad4-2dc6-43bb-9f00-91622fd750a3","ios":"levelo://app?vid=26bfcad4-2dc6-43bb-9f00-91622fd750a3"},"vehicle_type_id":"4","last_reported":1690747590,"current_range_meters":31200,"station_id":"","pricing_plan_id":"free"},{"bike_id":"c67fd003-011a-42e2-85f2-2714de5997e4","system_id":"levelo_inurba_marseille","lat":43.32482,"lon":5.40718,"is_reserved":false,"is_disabled":false,"rental_uris":{"android":"levelo://app?vid=c67fd003-011a-42e2-85f2-2714de5997e4","ios":"levelo://app?vid=c67fd003-011a-42e2-85f2-2714de5997e4"},"vehicle_type_id":"4","last_reported":1690747590,"current_range_meters":1600,"station_id":"","pricing_plan_id":"free"},{"bike_id":"edb26cb6-242d-4ac5-ba6e-f37ff60e3a33","system_id":"levelo_inurba_marseille","lat":43.28935,"lon":5.3963,"is_reserved":false,"is_disabled":false,"rental_uris":{"android":"levelo://app?vid=edb26cb6-242d-4ac5-ba6e-f37ff60e3a33","ios":"levelo://app?vid=edb26cb6-242d-4ac5-ba6e-f37ff60e3a33"},"vehicle_type_id":"4","last_reported":1690747590,"current_range_meters":19200,"station_id":"ce4bh3h2rcd13ifvqdn0","pricing_plan_id":"free"},{"bike_id":"d77babc3-2c73-446a-9efc-4ef9a8303fd5","system_id":"levelo_inurba_marseille","lat":43.28276,"lon":5.3506,"is_reserved":false,"is_disabled":false,"rental_uris":{"android":"levelo://app?vid=d77babc3-2c73-446a-9efc-4ef9a8303fd5","ios":"levelo://app?vid=d77babc3-2c73-446a-9efc-4ef9a8303fd5"},"vehicle_type_id":"4","last_reported":1690747590,"current_range_meters":27200,"station_id":"ce4bhbp2rcd13ifvqerg","pricing_plan_id":"free"},{"bike_id":"65db54c0-4e49-4d21-8a06-6a06dea6169f","system_id":"levelo_inurba_marseille","lat":43.28271,"lon":5.35077,"is_reserved":false,"is_disabled":false,"rental_uris":{"android":"levelo://app?vid=65db54c0-4e49-4d21-8a06-6a06dea6169f","ios":"levelo://app?vid=65db54c0-4e49-4d21-8a06-6a06dea6169f"},"vehicle_type_id":"4","last_reported":1690747590,"current_range_meters":2400,"station_id":"ce4bhbp2rcd13ifvqerg","pricing_plan_id":"free"},{"bike_id":"310116e4-c066-4845-b90e-d028b7280339","system_id":"levelo_inurba_marseille","lat":43.282744,"lon":5.350533,"is_reserved":false,"is_disabled":false,"rental_uris":{"android":"levelo://app?vid=310116e4-c066-4845-b90e-d028b7280339","ios":"levelo://app?vid=310116e4-c066-4845-b90e-d028b7280339"},"vehicle_type_id":"4","last_reported":1690747590,"current_range_meters":31200,"station_id":"ce4bhbp2rcd13ifvqerg","pricing_plan_id":"free"},{"bike_id":"9357d716-a96f-402c-809f-45bb048899b4","system_id":"levelo_inurba_marseille","lat":43.2827,"lon":5.35067,"is_reserved":false,"is_disabled":false,"rental_uris":{"android":"levelo://app?vid=9357d716-a96f-402c-809f-45bb048899b4","ios":"levelo://app?vid=9357d716-a96f-402c-809f-45bb048899b4"},"vehicle_type_id":"4","last_reported":1690747590,"current_range_meters":7600,"station_id":"ce4bhbp2rcd13ifvqerg","pricing_plan_id":"free"},{"bike_id":"492a71a1-2ab0-49d5-bebe-5e62282f7652","system_id":"levelo_inurba_marseille","lat":43.282754,"lon":5.350519,"is_reserved":false,"is_disabled":false,"rental_uris":{"android":"levelo://app?vid=492a71a1-2ab0-49d5-bebe-5e62282f7652","ios":"levelo://app?vid=492a71a1-2ab0-49d5-bebe-5e62282f7652"},"vehicle_type_id":"4","last_reported":1690747590,"current_range_meters":24000,"station_id":"ce4bhbp2rcd13ifvqerg","pricing_plan_id":"free"},{"bike_id":"44606200-19be-4b6e-8f2e-1ad662397e2e","system_id":"levelo_inurba_marseille","lat":43.282754,"lon":5.350519,"is_reserved":false,"is_disabled":false,"rental_uris":{"android":"levelo://app?vid=44606200-19be-4b6e-8f2e-1ad662397e2e","ios":"levelo://app?vid=44606200-19be-4b6e-8f2e-1ad662397e2e"},"vehicle_type_id":"4","last_reported":1690747590,"current_range_meters":23200,"station_id":"ce4bhbp2rcd13ifvqerg","pricing_plan_id":"free"},{"bike_id":"aed5f30d-2ad9-4347-808c-25b3bcdd1a80","system_id":"levelo_inurba_marseille","lat":43.282754,"lon":5.350519,"is_reserved":false,"is_disabled":false,"rental_uris":{"android":"levelo://app?vid=aed5f30d-2ad9-4347-808c-25b3bcdd1a80","ios":"levelo://app?vid=aed5f30d-2ad9-4347-808c-25b3bcdd1a80"},"vehicle_type_id":"4","last_reported":1690747590,"current_range_meters":15600,"station_id":"ce4bhbp2rcd13ifvqerg","pricing_plan_id":"free"},{"bike_id":"bea183fd-73f7-427f-a31c-7944611242f3","system_id":"levelo_inurba_marseille","lat":43.283502,"lon":5.386471,"is_reserved":false,"is_disabled":false,"rental_uris":{"android":"levelo://app?vid=bea183fd-73f7-427f-a31c-7944611242f3","ios":"levelo://app?vid=bea183fd-73f7-427f-a31c-7944611242f3"},"vehicle_type_id":"4","last_reported":1690747590,"current_range_meters":30000,"station_id":"ce4bh492rcd13ifvqdvg","pricing_plan_id":"free"},{"bike_id":"784a7cb7-f7f2-4980-9854-6c012d9bc499","system_id":"levelo_inurba_marseille","lat":43.282744,"lon":5.350533,"is_reserved":false,"is_disabled":false,"rental_uris":{"android":"levelo://app?vid=784a7cb7-f7f2-4980-9854-6c012d9bc499","ios":"levelo://app?vid=784a7cb7-f7f2-4980-9854-6c012d9bc499"},"vehicle_type_id":"4","last_reported":1690747590,"current_range_meters":2000,"station_id":"ce4bhbp2rcd13ifvqerg","pricing_plan_id":"free"},{"bike_id":"a8c24d88-705a-4bf2-a8b4-3b0d309f6402","system_id":"levelo_inurba_marseille","lat":43.32497,"lon":5.40818,"is_reserved":false,"is_disabled":false,"rental_uris":{"android":"levelo://app?vid=a8c24d88-705a-4bf2-a8b4-3b0d309f6402","ios":"levelo://app?vid=a8c24d88-705a-4bf2-a8b4-3b0d309f6402"},"vehicle_type_id":"4","last_reported":1690747590,"current_range_meters":7200,"station_id":"","pricing_plan_id":"free"},{"bike_id":"04ca89f4-5643-4221-b6cf-e95ba18677b7","system_id":"levelo_inurba_marseille","lat":43.28039,"lon":5.369297,"is_reserved":false,"is_disabled":false,"rental_uris":{"android":"levelo://app?vid=04ca89f4-5643-4221-b6cf-e95ba18677b7","ios":"levelo://app?vid=04ca89f4-5643-4221-b6cf-e95ba18677b7"},"vehicle_type_id":"4","last_reported":1690747590,"current_range_meters":6000,"station_id":"ce4bha12rcd13ifvqef0","pricing_plan_id":"free"},{"bike_id":"6d9931d3-9325-48b5-9a8f-55f7e00c0b81","system_id":"levelo_inurba_marseille","lat":43.28039,"lon":5.369297,"is_reserved":false,"is_disabled":false,"rental_uris":{"android":"levelo://app?vid=6d9931d3-9325-48b5-9a8f-55f7e00c0b81","ios":"levelo://app?vid=6d9931d3-9325-48b5-9a8f-55f7e00c0b81"},"vehicle_type_id":"4","last_reported":1690747590,"current_range_meters":10800,"station_id":"ce4bha12rcd13ifvqef0","pricing_plan_id":"free"},{"bike_id":"29567aef-feb0-4790-a955-fb1c0c223335","system_id":"levelo_inurba_marseille","lat":43.28108,"lon":5.37841,"is_reserved":false,"is_disabled":false,"rental_uris":{"android":"levelo://app?vid=29567aef-feb0-4790-a955-fb1c0c223335","ios":"levelo://app?vid=29567aef-feb0-4790-a955-fb1c0c223335"},"vehicle_type_id":"4","last_reported":1690747590,"current_range_meters":18800,"station_id":"ce4bha12rcd13ifvqee0","pricing_plan_id":"free"},{"bike_id":"2da11330-b1ef-469c-83e0-8863df14ada1","system_id":"levelo_inurba_marseille","lat":43.281044,"lon":5.378308,"is_reserved":false,"is_disabled":false,"rental_uris":{"android":"levelo://app?vid=2da11330-b1ef-469c-83e0-8863df14ada1","ios":"levelo://app?vid=2da11330-b1ef-469c-83e0-8863df14ada1"},"vehicle_type_id":"4","last_reported":1690747590,"current_range_meters":26000,"station_id":"ce4bha12rcd13ifvqee0","pricing_plan_id":"free"},{"bike_id":"b5a75f14-cac9-4bbf-9a05-ca19a97d1133","system_id":"levelo_inurba_marseille","lat":43.28441,"lon":5.39204,"is_reserved":false,"is_disabled":false,"rental_uris":{"android":"levelo://app?vid=b5a75f14-cac9-4bbf-9a05-ca19a97d1133","ios":"levelo://app?vid=b5a75f14-cac9-4bbf-9a05-ca19a97d1133"},"vehicle_type_id":"4","last_reported":1690747590,"current_range_meters":10000,"station_id":"","pricing_plan_id":"free"},{"bike_id":"2c4f1299-601e-4755-a4c0-830c20076443","system_id":"levelo_inurba_marseille","lat":43.284462,"lon":5.392121,"is_reserved":false,"is_disabled":false,"rental_uris":{"android":"levelo://app?vid=2c4f1299-601e-4755-a4c0-830c20076443","ios":"levelo://app?vid=2c4f1299-601e-4755-a4c0-830c20076443"},"vehicle_type_id":"4","last_reported":1690747590,"current_range_meters":24000,"station_id":"ce4bhoh2rcd13ifvqh5g","pricing_plan_id":"free"},{"bike_id":"f05f9cee-e9dc-4877-b6c2-883bd5735414","system_id":"levelo_inurba_marseille","lat":43.284462,"lon":5.392121,"is_reserved":false,"is_disabled":false,"rental_uris":{"android":"levelo://app?vid=f05f9cee-e9dc-4877-b6c2-883bd5735414","ios":"levelo://app?vid=f05f9cee-e9dc-4877-b6c2-883bd5735414"},"vehicle_type_id":"4","last_reported":1690747590,"current_range_meters":19600,"station_id":"ce4bhoh2rcd13ifvqh5g","pricing_plan_id":"free"},{"bike_id":"08242626-8e40-481e-94e0-f374a62da8e0","system_id":"levelo_inurba_marseille","lat":43.28573,"lon":5.394992,"is_reserved":false,"is_disabled":false,"rental_uris":{"android":"levelo://app?vid=08242626-8e40-481e-94e0-f374a62da8e0","ios":"levelo://app?vid=08242626-8e40-481e-94e0-f374a62da8e0"},"vehicle_type_id":"4","last_reported":1690747590,"current_range_meters":29600,"station_id":"ce4bh292rcd13ifvqdg0","pricing_plan_id":"free"},{"bike_id":"2db9766d-7c84-45dc-9fd1-a9abc4f97f43","system_id":"levelo_inurba_marseille","lat":43.28573,"lon":5.394992,"is_reserved":false,"is_disabled":false,"rental_uris":{"android":"levelo://app?vid=2db9766d-7c84-45dc-9fd1-a9abc4f97f43","ios":"levelo://app?vid=2db9766d-7c84-45dc-9fd1-a9abc4f97f43"},"vehicle_type_id":"4","last_reported":1690747590,"current_range_meters":30400,"station_id":"ce4bh292rcd13ifvqdg0","pricing_plan_id":"free"},{"bike_id":"6a24b094-8713-4fd2-bd39-7fed053cfe92","system_id":"levelo_inurba_marseille","lat":43.28573,"lon":5.394992,"is_reserved":false,"is_disabled":false,"rental_uris":{"android":"levelo://app?vid=6a24b094-8713-4fd2-bd39-7fed053cfe92","ios":"levelo://app?vid=6a24b094-8713-4fd2-bd39-7fed053cfe92"},"vehicle_type_id":"4","last_reported":1690747590,"current_range_meters":8000,"station_id":"ce4bh292rcd13ifvqdg0","pricing_plan_id":"free"},{"bike_id":"d44a68da-630c-4011-b376-d64f6364f24a","system_id":"levelo_inurba_marseille","lat":43.326605,"lon":5.409903,"is_reserved":false,"is_disabled":false,"rental_uris":{"android":"levelo://app?vid=d44a68da-630c-4011-b376-d64f6364f24a","ios":"levelo://app?vid=d44a68da-630c-4011-b376-d64f6364f24a"},"vehicle_type_id":"4","last_reported":1690747590,"current_range_meters":18000,"station_id":"ce4bhpp2rcd13ifvqhgg","pricing_plan_id":"free"},{"bike_id":"7295ee2e-c698-4fe2-b7c6-23085dc12954","system_id":"levelo_inurba_marseille","lat":43.304188,"lon":5.412904,"is_reserved":false,"is_disabled":false,"rental_uris":{"android":"levelo://app?vid=7295ee2e-c698-4fe2-b7c6-23085dc12954","ios":"levelo://app?vid=7295ee2e-c698-4fe2-b7c6-23085dc12954"},"vehicle_type_id":"4","last_reported":1690747590,"current_range_meters":26400,"station_id":"ce4bhop2rcd13ifvqh8g","pricing_plan_id":"free"},{"bike_id":"4ee69007-33b1-435a-8958-ca88268097c1","system_id":"levelo_inurba_marseille","lat":43.304188,"lon":5.412904,"is_reserved":false,"is_disabled":false,"rental_uris":{"android":"levelo://app?vid=4ee69007-33b1-435a-8958-ca88268097c1","ios":"levelo://app?vid=4ee69007-33b1-435a-8958-ca88268097c1"},"vehicle_type_id":"4","last_reported":1690747590,"current_range_meters":27200,"station_id":"ce4bhop2rcd13ifvqh8g","pricing_plan_id":"free"},{"bike_id":"20da83d1-2254-4617-81d1-964ed61ccff4","system_id":"levelo_inurba_marseille","lat":43.304188,"lon":5.412904,"is_reserved":false,"is_disabled":false,"rental_uris":{"android":"levelo://app?vid=20da83d1-2254-4617-81d1-964ed61ccff4","ios":"levelo://app?vid=20da83d1-2254-4617-81d1-964ed61ccff4"},"vehicle_type_id":"4","last_reported":1690747590,"current_range_meters":30000,"station_id":"ce4bhop2rcd13ifvqh8g","pricing_plan_id":"free"},{"bike_id":"b9ea5704-cbcf-4be6-8382-377b031b7ffb","system_id":"levelo_inurba_marseille","lat":43.287154,"lon":5.399979,"is_reserved":false,"is_disabled":false,"rental_uris":{"android":"levelo://app?vid=b9ea5704-cbcf-4be6-8382-377b031b7ffb","ios":"levelo://app?vid=b9ea5704-cbcf-4be6-8382-377b031b7ffb"},"vehicle_type_id":"4","last_reported":1690747590,"current_range_meters":0,"station_id":"ce4bho92rcd13ifvqh3g","pricing_plan_id":"free"},{"bike_id":"f98c244a-9348-4646-bb55-fbffddefc91e","system_id":"levelo_inurba_marseille","lat":43.32043,"lon":5.41519,"is_reserved":false,"is_disabled":false,"rental_uris":{"android":"levelo://app?vid=f98c244a-9348-4646-bb55-fbffddefc91e","ios":"levelo://app?vid=f98c244a-9348-4646-bb55-fbffddefc91e"},"vehicle_type_id":"4","last_reported":1690747590,"current_range_meters":4000,"station_id":"ce4bhq92rcd13ifvqhkg","pricing_plan_id":"free"},{"bike_id":"da74851f-183f-4ed8-bc32-44e1d656b516","system_id":"levelo_inurba_marseille","lat":43.32095,"lon":5.41512,"is_reserved":false,"is_disabled":false,"rental_uris":{"android":"levelo://app?vid=da74851f-183f-4ed8-bc32-44e1d656b516","ios":"levelo://app?vid=da74851f-183f-4ed8-bc32-44e1d656b516"},"vehicle_type_id":"4","last_reported":1690747590,"current_range_meters":17600,"station_id":"","pricing_plan_id":"free"},{"bike_id":"e9fbe7f4-c376-4a74-9a01-c2dfa71d30c2","system_id":"levelo_inurba_marseille","lat":43.3209,"lon":5.41514,"is_reserved":false,"is_disabled":false,"rental_uris":{"android":"levelo://app?vid=e9fbe7f4-c376-4a74-9a01-c2dfa71d30c2","ios":"levelo://app?vid=e9fbe7f4-c376-4a74-9a01-c2dfa71d30c2"},"vehicle_type_id":"4","last_reported":1690747590,"current_range_meters":14000,"station_id":"","pricing_plan_id":"free"},{"bike_id":"cdcd753a-4a9a-455e-a5ca-a773fea8741e","system_id":"levelo_inurba_marseille","lat":43.299577,"lon":5.413277,"is_reserved":false,"is_disabled":false,"rental_uris":{"android":"levelo://app?vid=cdcd753a-4a9a-455e-a5ca-a773fea8741e","ios":"levelo://app?vid=cdcd753a-4a9a-455e-a5ca-a773fea8741e"},"vehicle_type_id":"4","last_reported":1690747590,"current_range_meters":31200,"station_id":"ce4bhp12rcd13ifvqh9g","pricing_plan_id":"free"},{"bike_id":"39bfc890-c530-4457-ac62-976f6049a2e0","system_id":"levelo_inurba_marseille","lat":43.299579,"lon":5.413255,"is_reserved":false,"is_disabled":false,"rental_uris":{"android":"levelo://app?vid=39bfc890-c530-4457-ac62-976f6049a2e0","ios":"levelo://app?vid=39bfc890-c530-4457-ac62-976f6049a2e0"},"vehicle_type_id":"4","last_reported":1690747590,"current_range_meters":29200,"station_id":"ce4bhp12rcd13ifvqh9g","pricing_plan_id":"free"},{"bike_id":"5c3747dc-84c8-4dbd-a8e4-3d5d5d848bfb","system_id":"levelo_inurba_marseille","lat":43.299577,"lon":5.413277,"is_reserved":false,"is_disabled":false,"rental_uris":{"android":"levelo://app?vid=5c3747dc-84c8-4dbd-a8e4-3d5d5d848bfb","ios":"levelo://app?vid=5c3747dc-84c8-4dbd-a8e4-3d5d5d848bfb"},"vehicle_type_id":"4","last_reported":1690747590,"current_range_meters":30000,"station_id":"ce4bhp12rcd13ifvqh9g","pricing_plan_id":"free"},{"bike_id":"94f9bd9a-8376-4f9a-9803-375b36e777e7","system_id":"levelo_inurba_marseille","lat":43.299579,"lon":5.413255,"is_reserved":false,"is_disabled":false,"rental_uris":{"android":"levelo://app?vid=94f9bd9a-8376-4f9a-9803-375b36e777e7","ios":"levelo://app?vid=94f9bd9a-8376-4f9a-9803-375b36e777e7"},"vehicle_type_id":"4","last_reported":1690747590,"current_range_meters":31200,"station_id":"ce4bhp12rcd13ifvqh9g","pricing_plan_id":"free"},{"bike_id":"c327718a-8fe6-4791-a349-aba0f8f94e82","system_id":"levelo_inurba_marseille","lat":43.279742,"lon":5.38744,"is_reserved":false,"is_disabled":false,"rental_uris":{"android":"levelo://app?vid=c327718a-8fe6-4791-a349-aba0f8f94e82","ios":"levelo://app?vid=c327718a-8fe6-4791-a349-aba0f8f94e82"},"vehicle_type_id":"4","last_reported":1690747590,"current_range_meters":29600,"station_id":"ce4bhg12rcd13ifvqf80","pricing_plan_id":"free"},{"bike_id":"d35ffa09-4336-4c43-9ae2-9fadca05765d","system_id":"levelo_inurba_marseille","lat":43.292571,"lon":5.409107,"is_reserved":false,"is_disabled":false,"rental_uris":{"android":"levelo://app?vid=d35ffa09-4336-4c43-9ae2-9fadca05765d","ios":"levelo://app?vid=d35ffa09-4336-4c43-9ae2-9fadca05765d"},"vehicle_type_id":"4","last_reported":1690747590,"current_range_meters":14400,"station_id":"ce4bh192rcd13ifvqdc0","pricing_plan_id":"free"},{"bike_id":"f148a08d-c576-45a6-b247-7ecb6fff99cd","system_id":"levelo_inurba_marseille","lat":43.292571,"lon":5.409107,"is_reserved":false,"is_disabled":false,"rental_uris":{"android":"levelo://app?vid=f148a08d-c576-45a6-b247-7ecb6fff99cd","ios":"levelo://app?vid=f148a08d-c576-45a6-b247-7ecb6fff99cd"},"vehicle_type_id":"4","last_reported":1690747590,"current_range_meters":4000,"station_id":"ce4bh192rcd13ifvqdc0","pricing_plan_id":"free"},{"bike_id":"58f51ee5-b2ce-47d6-9f90-83c8a1442fa2","system_id":"levelo_inurba_marseille","lat":43.303837,"lon":5.418724,"is_reserved":false,"is_disabled":false,"rental_uris":{"android":"levelo://app?vid=58f51ee5-b2ce-47d6-9f90-83c8a1442fa2","ios":"levelo://app?vid=58f51ee5-b2ce-47d6-9f90-83c8a1442fa2"},"vehicle_type_id":"4","last_reported":1690747590,"current_range_meters":30400,"station_id":"ce4bhop2rcd13ifvqh7g","pricing_plan_id":"free"},{"bike_id":"c2a2e064-d931-4a6d-85af-0fb5a37143d0","system_id":"levelo_inurba_marseille","lat":43.303837,"lon":5.418724,"is_reserved":false,"is_disabled":false,"rental_uris":{"android":"levelo://app?vid=c2a2e064-d931-4a6d-85af-0fb5a37143d0","ios":"levelo://app?vid=c2a2e064-d931-4a6d-85af-0fb5a37143d0"},"vehicle_type_id":"4","last_reported":1690747590,"current_range_meters":3600,"station_id":"ce4bhop2rcd13ifvqh7g","pricing_plan_id":"free"},{"bike_id":"61237bfb-b255-438f-b371-5529eec164de","system_id":"levelo_inurba_marseille","lat":43.275625,"lon":5.384392,"is_reserved":false,"is_disabled":false,"rental_uris":{"android":"levelo://app?vid=61237bfb-b255-438f-b371-5529eec164de","ios":"levelo://app?vid=61237bfb-b255-438f-b371-5529eec164de"},"vehicle_type_id":"4","last_reported":1690747590,"current_range_meters":20800,"station_id":"ce4bhh92rcd13ifvqfi0","pricing_plan_id":"free"},{"bike_id":"5044a37c-cba4-4a97-90d6-245779d0a2f0","system_id":"levelo_inurba_marseille","lat":43.278399,"lon":5.392139,"is_reserved":false,"is_disabled":false,"rental_uris":{"android":"levelo://app?vid=5044a37c-cba4-4a97-90d6-245779d0a2f0","ios":"levelo://app?vid=5044a37c-cba4-4a97-90d6-245779d0a2f0"},"vehicle_type_id":"4","last_reported":1690747590,"current_range_meters":31200,"station_id":"ce4bhjp2rcd13ifvqga0","pricing_plan_id":"free"},{"bike_id":"2400785f-e467-49b7-8bbd-059046e2e7ee","system_id":"levelo_inurba_marseille","lat":43.275625,"lon":5.384392,"is_reserved":false,"is_disabled":false,"rental_uris":{"android":"levelo://app?vid=2400785f-e467-49b7-8bbd-059046e2e7ee","ios":"levelo://app?vid=2400785f-e467-49b7-8bbd-059046e2e7ee"},"vehicle_type_id":"4","last_reported":1690747590,"current_range_meters":13600,"station_id":"ce4bhh92rcd13ifvqfi0","pricing_plan_id":"free"},{"bike_id":"2df5a514-46cc-43e9-9c76-b3696ba8347a","system_id":"levelo_inurba_marseille","lat":43.273609,"lon":5.362708,"is_reserved":false,"is_disabled":false,"rental_uris":{"android":"levelo://app?vid=2df5a514-46cc-43e9-9c76-b3696ba8347a","ios":"levelo://app?vid=2df5a514-46cc-43e9-9c76-b3696ba8347a"},"vehicle_type_id":"4","last_reported":1690747590,"current_range_meters":16000,"station_id":"ce4bhbh2rcd13ifvqeo0","pricing_plan_id":"free"},{"bike_id":"69b4334a-8576-4933-858c-379192297a61","system_id":"levelo_inurba_marseille","lat":43.275625,"lon":5.384392,"is_reserved":false,"is_disabled":false,"rental_uris":{"android":"levelo://app?vid=69b4334a-8576-4933-858c-379192297a61","ios":"levelo://app?vid=69b4334a-8576-4933-858c-379192297a61"},"vehicle_type_id":"4","last_reported":1690747590,"current_range_meters":0,"station_id":"ce4bhh92rcd13ifvqfi0","pricing_plan_id":"free"},{"bike_id":"544be8c1-94b6-413b-acaf-de5aaebcf1c2","system_id":"levelo_inurba_marseille","lat":43.273609,"lon":5.362708,"is_reserved":false,"is_disabled":false,"rental_uris":{"android":"levelo://app?vid=544be8c1-94b6-413b-acaf-de5aaebcf1c2","ios":"levelo://app?vid=544be8c1-94b6-413b-acaf-de5aaebcf1c2"},"vehicle_type_id":"4","last_reported":1690747590,"current_range_meters":17600,"station_id":"ce4bhbh2rcd13ifvqeo0","pricing_plan_id":"free"},{"bike_id":"6bb4bd23-422f-4364-844f-918f116d9414","system_id":"levelo_inurba_marseille","lat":43.336134,"lon":5.410341,"is_reserved":false,"is_disabled":false,"rental_uris":{"android":"levelo://app?vid=6bb4bd23-422f-4364-844f-918f116d9414","ios":"levelo://app?vid=6bb4bd23-422f-4364-844f-918f116d9414"},"vehicle_type_id":"4","last_reported":1690747590,"current_range_meters":12000,"station_id":"ce4bhqh2rcd13ifvqhmg","pricing_plan_id":"free"},{"bike_id":"6a8e362c-dd0f-40a9-a798-2c880cc8099e","system_id":"levelo_inurba_marseille","lat":43.27673,"lon":5.38876,"is_reserved":false,"is_disabled":false,"rental_uris":{"android":"levelo://app?vid=6a8e362c-dd0f-40a9-a798-2c880cc8099e","ios":"levelo://app?vid=6a8e362c-dd0f-40a9-a798-2c880cc8099e"},"vehicle_type_id":"4","last_reported":1690747590,"current_range_meters":0,"station_id":"ce4bhi12rcd13ifvqfo0","pricing_plan_id":"free"},