{"last_updated":1747328980,"ttl":60,"version":"2.2","data":{"bikes":[{"bike_id":"c0b9fd4f-e181-46ce-b0bf-f5119973334f","system_id":"levelo_inurba_marseille","lat":43.33771,"lon":5.37424,"is_reserved":false,"is_disabled":false,"rental_uris":{"android":"levelo://app?vid=c0b9fd4f-e181-46ce-b0bf-f5119973334f","ios":"levelo://app?vid=c0b9fd4f-e181-46ce-b0bf-f5119973334f"},"vehicle_type_id":"4","last_reported":1747328980,"current_range_meters":14000,"station_id":"","pricing_plan_id":"cebpf4jnsgd1na2vs0mg"},{"bike_id":"fc2577e7-1497-425b-9d4f-ab8d7dc843c6","system_id":"levelo_inurba_marseille","lat":43.33771,"lon":5.37485,"is_reserved":false,"is_disabled":true,"rental_uris":{"android":"levelo://app?vid=fc2577e7-1497-425b-9d4f-ab8d7dc843c6","ios":"levelo://app?vid=fc2577e7-1497-425b-9d4f-ab8d7dc843c6"},"vehicle_type_id":"4","last_reported":1747328980,"current_range_meters":0,"station_id":"","pricing_plan_id":"cebpf4jnsgd1na2vs0mg"},{"bike_id":"893cee9f-22ed-4823-82b3-4da288b81784","system_id":"levelo_inurba_marseille","lat":43.318046,"lon":5.369352,"is_reserved":false,"is_disabled":true,"rental_uris":{"android":"levelo://app?vid=893cee9f-22ed-4823-82b3-4da288b81784","ios":"levelo://app?vid=893cee9f-22ed-4823-82b3-4da288b81784"},"vehicle_type_id":"4","last_reported":1747328980,"current_range_meters":0,"station_id":"","pricing_plan_id":"cebpf4jnsgd1na2vs0mg"},{"bike_id":"2b8fbf5f-4106-421b-bd48-29543ccb14db","system_id":"levelo_inurba_marseille","lat":43.23712,"lon":5.36294,"is_reserved":false,"is_disabled":true,"rental_uris":{"android":"levelo://app?vid=2b8fbf5f-4106-421b-bd48-29543ccb14db","ios":"levelo://app?vid=2b8fbf5f-4106-421b-bd48-29543ccb14db"},"vehicle_type_id":"4","last_reported":1747328980,"current_range_meters":0,"station_id":"","pricing_plan_id":"cebpf4jnsgd1na2vs0mg"},{"bike_id":"772b6fff-1447-445e-950b-c2e27d6bb6b1","system_id":"levelo_inurba_marseille","lat":43.31171,"lon":5.37585,"is_reserved":false,"is_disabled":true,"rental_uris":{"android":"levelo://app?vid=772b6fff-1447-445e-950b-c2e27d6bb6b1","ios":"levelo://app?vid=772b6fff-1447-445e-950b-c2e27d6bb6b1"},"vehicle_type_id":"4","last_reported":1747328980,"current_range_meters":0,"station_id":"","pricing_plan_id":"cebpf4jnsgd1na2vs0mg"},{"bike_id":"792567c6-0442-4011-aff0-9c05e25deb48","system_id":"levelo_inurba_marseille","lat":43.337444,"lon":5.374475,"is_reserved":false,"is_disabled":true,"rental_uris":{"android":"levelo://app?vid=792567c6-0442-4011-aff0-9c05e25deb48","ios":"levelo://app?vid=792567c6-0442-4011-aff0-9c05e25deb48"},"vehicle_type_id":"4","last_reported":1747328980,"current_range_meters":0,"station_id":"","pricing_plan_id":"cebpf4jnsgd1na2vs0mg"},{"bike_id":"d04e4038-14b2-48cd-ae33-a2234171bb1e","system_id":"levelo_inurba_marseille","lat":43.30139,"lon":5.37556,"is_reserved":false,"is_disabled":true,"rental_uris":{"android":"levelo://app?vid=d04e4038-14b2-48cd-ae33-a2234171bb1e","ios":"levelo://app?vid=d04e4038-14b2-48cd-ae33-a2234171bb1e"},"vehicle_type_id":"4","last_reported":1747328980,"current_range_meters":0,"station_id":"","pricing_plan_id":"cebpf4jnsgd1na2vs0mg"},{"bike_id":"da9bb356-920d-463b-84d4-adac192778c4","system_id":"levelo_inurba_marseille","lat":43.29531,"lon":5.38543,"is_reserved":false,"is_disabled":true,"rental_uris":{"android":"levelo://app?vid=da9bb356-920d-463b-84d4-adac192778c4","ios":"levelo://app?vid=da9bb356-920d-463b-84d4-adac192778c4"},"vehicle_type_id":"4","last_reported":1747328980,"current_range_meters":0,"station_id":"ce4bgih2rcd13ifvqba0","pricing_plan_id":"cebpf4jnsgd1na2vs0mg"},{"bike_id":"05644968-ecd8-43ab-9357-a88f0690c609","system_id":"levelo_inurba_marseille","lat":43.29962,"lon":5.3851,"is_reserved":false,"is_disabled":true,"rental_uris":{"android":"levelo://app?vid=05644968-ecd8-43ab-9357-a88f0690c609","ios":"levelo://app?vid=05644968-ecd8-43ab-9357-a88f0690c609"},"vehicle_type_id":"4","last_reported":1747328980,"current_range_meters":0,"station_id":"ce4bgj92rcd13ifvqbd0","pricing_plan_id":"cebpf4jnsgd1na2vs0mg"},{"bike_id":"6d49b91e-1dec-4cf6-8732-d31552cd9897","system_id":"levelo_inurba_marseille","lat":43.29963,"lon":5.38501,"is_reserved":false,"is_disabled":true,"rental_uris":{"android":"levelo://app?vid=6d49b91e-1dec-4cf6-8732-d31552cd9897","ios":"levelo://app?vid=6d49b91e-1dec-4cf6-8732-d31552cd9897"},"vehicle_type_id":"4","last_reported":1747328980,"current_range_meters":0,"station_id":"ce4bgj92rcd13ifvqbd0","pricing_plan_id":"cebpf4jnsgd1na2vs0mg"},{"bike_id":"cee06c58-74e0-4db0-88ce-d23885aa5cfc","system_id":"levelo_inurba_marseille","lat":43.30308,"lon":5.39204,"is_reserved":false,"is_disabled":true,"rental_uris":{"android":"levelo://app?vid=cee06c58-74e0-4db0-88ce-d23885aa5cfc","ios":"levelo://app?vid=cee06c58-74e0-4db0-88ce-d23885aa5cfc"},"vehicle_type_id":"4","last_reported":1747328980,"current_range_meters":0,"station_id":"ce4bgkh2rcd13ifvqbk0","pricing_plan_id":"cebpf4jnsgd1na2vs0mg"},{"bike_id":"6cd401d8-db9e-4b55-abb2-b6e30caed574","system_id":"levelo_inurba_marseille","lat":43.3136,"lon":5.38492,"is_reserved":false,"is_disabled":true,"rental_uris":{"android":"levelo://app?vid=6cd401d8-db9e-4b55-abb2-b6e30caed574","ios":"levelo://app?vid=6cd401d8-db9e-4b55-abb2-b6e30caed574"},"vehicle_type_id":"4","last_reported":1747328980,"current_range_meters":0,"station_id":"ce4bgt92rcd13ifvqcf0","pricing_plan_id":"cebpf4jnsgd1na2vs0mg"},{"bike_id":"7b94582c-9354-40fd-8666-eae699c7ddf8","system_id":"levelo_inurba_marseille","lat":43.3095,"lon":5.39023,"is_reserved":false,"is_disabled":true,"rental_uris":{"android":"levelo://app?vid=7b94582c-9354-40fd-8666-eae699c7ddf8","ios":"levelo://app?vid=7b94582c-9354-40fd-8666-eae699c7ddf8"},"vehicle_type_id":"4","last_reported":1747328980,"current_range_meters":0,"station_id":"ce4bgup2rcd13ifvqco0","pricing_plan_id":"cebpf4jnsgd1na2vs0mg"},{"bike_id":"249910e5-95af-4534-8268-d9a6fe511179","system_id":"levelo_inurba_marseille","lat":43.3024,"lon":5.4005,"is_reserved":false,"is_disabled":true,"rental_uris":{"android":"levelo://app?vid=249910e5-95af-4534-8268-d9a6fe511179","ios":"levelo://app?vid=249910e5-95af-4534-8268-d9a6fe511179"},"vehicle_type_id":"4","last_reported":1747328980,"current_range_meters":0,"station_id":"ce4bgvh2rcd13ifvqcs0","pricing_plan_id":"cebpf4jnsgd1na2vs0mg"},{"bike_id":"e6e64c52-8646-48dd-9eb7-2ff8f694ce76","system_id":"levelo_inurba_marseille","lat":43.29622,"lon":5.40593,"is_reserved":false,"is_disabled":true,"rental_uris":{"android":"levelo://app?vid=e6e64c52-8646-48dd-9eb7-2ff8f694ce76","ios":"levelo://app?vid=e6e64c52-8646-48dd-9eb7-2ff8f694ce76"},"vehicle_type_id":"4","last_reported":1747328980,"current_range_meters":0,"station_id":"ce4bh0h2rcd13ifvqd60","pricing_plan_id":"cebpf4jnsgd1na2vs0mg"},{"bike_id":"d5cbdb4b-c5ed-4e72-897a-bc1677deb417","system_id":"levelo_inurba_marseille","lat":43.30587,"lon":5.39348,"is_reserved":false,"is_disabled":true,"rental_uris":{"android":"levelo://app?vid=d5cbdb4b-c5ed-4e72-897a-bc1677deb417","ios":"levelo://app?vid=d5cbdb4b-c5ed-4e72-897a-bc1677deb417"},"vehicle_type_id":"4","last_reported":1747328980,"current_range_meters":0,"station_id":"ce4bh0p2rcd13ifvqd80","pricing_plan_id":"cebpf4jnsgd1na2vs0mg"},{"bike_id":"248b9fb7-631e-42f7-987b-7b2c2ab138f5","system_id":"levelo_inurba_marseille","lat":43.30643,"lon":5.40095,"is_reserved":false,"is_disabled":true,"rental_uris":{"android":"levelo://app?vid=248b9fb7-631e-42f7-987b-7b2c2ab138f5","ios":"levelo://app?vid=248b9fb7-631e-42f7-987b-7b2c2ab138f5"},"vehicle_type_id":"4","last_reported":1747328980,"current_range_meters":0,"station_id":"ce4bh112rcd13ifvqda0","pricing_plan_id":"cebpf4jnsgd1na2vs0mg"},{"bike_id":"78771fea-97f9-45af-bfee-f0b49b8b4852","system_id":"levelo_inurba_marseille","lat":43.29414,"lon":5.38622,"is_reserved":false,"is_disabled":true,"rental_uris":{"android":"levelo://app?vid=78771fea-97f9-45af-bfee-f0b49b8b4852","ios":"levelo://app?vid=78771fea-97f9-45af-bfee-f0b49b8b4852"},"vehicle_type_id":"4","last_reported":1747328980,"current_range_meters":0,"station_id":"ce4bh2h2rcd13ifvqdh0","pricing_plan_id":"cebpf4jnsgd1na2vs0mg"},{"bike_id":"4d31af3d-e1ab-44bd-9665-6c67b9efb59e","system_id":"levelo_inurba_marseille","lat":43.285684,"lon":5.383034,"is_reserved":false,"is_disabled":true,"rental_uris":{"android":"levelo://app?vid=4d31af3d-e1ab-44bd-9665-6c67b9efb59e","ios":"levelo://app?vid=4d31af3d-e1ab-44bd-9665-6c67b9efb59e"},"vehicle_type_id":"4","last_reported":1747328980,"current_range_meters":0,"station_id":"ce4bh412rcd13ifvqds0","pricing_plan_id":"cebpf4jnsgd1na2vs0mg"},{"bike_id":"6c51dac0-50a4-4be5-b72d-91524c45a6d7","system_id":"levelo_inurba_marseille","lat":43.29013,"lon":5.38128,"is_reserved":false,"is_disabled":true,"rental_uris":{"android":"levelo://app?vid=6c51dac0-50a4-4be5-b72d-91524c45a6d7","ios":"levelo://app?vid=6c51dac0-50a4-4be5-b72d-91524c45a6d7"},"vehicle_type_id":"4","last_reported":1747328980,"current_range_meters":0,"station_id":"ce4bh4p2rcd13ifvqe1g","pricing_plan_id":"cebpf4jnsgd1na2vs0mg"},{"bike_id":"d83eb2c9-ef59-44cb-afbc-d14a75954ac9","system_id":"levelo_inurba_marseille","lat":43.28479,"lon":5.38416,"is_reserved":false,"is_disabled":false,"rental_uris":{"android":"levelo://app?vid=d83eb2c9-ef59-44cb-afbc-d14a75954ac9","ios":"levelo://app?vid=d83eb2c9-ef59-44cb-afbc-d14a75954ac9"},"vehicle_type_id":"4","last_reported":1747328980,"current_range_meters":0,"station_id":"ce4bh512rcd13ifvqe3g","pricing_plan_id":"cebpf4jnsgd1na2vs0mg"},{"bike_id":"8121652d-262d-4d08-9e71-eb9b22cedbca","system_id":"levelo_inurba_marseille","lat":43.280344,"lon":5.369432,"is_reserved":false,"is_disabled":true,"rental_uris":{"android":"levelo://app?vid=8121652d-262d-4d08-9e71-eb9b22cedbca","ios":"levelo://app?vid=8121652d-262d-4d08-9e71-eb9b22cedbca"},"vehicle_type_id":"4","last_reported":1747328980,"current_range_meters":0,"station_id":"ce4bha12rcd13ifvqef0","pricing_plan_id":"cebpf4jnsgd1na2vs0mg"},{"bike_id":"cdedd82c-3f8c-42bd-8c0e-baf11e15522a","system_id":"levelo_inurba_marseille","lat":43.29194,"lon":5.35788,"is_reserved":false,"is_disabled":true,"rental_uris":{"android":"levelo://app?vid=cdedd82c-3f8c-42bd-8c0e-baf11e15522a","ios":"levelo://app?vid=cdedd82c-3f8c-42bd-8c0e-baf11e15522a"},"vehicle_type_id":"4","last_reported":1747328980,"current_range_meters":0,"station_id":"ce4bhb12rcd13ifvqel0","pricing_plan_id":"cebpf4jnsgd1na2vs0mg"},{"bike_id":"cbdc11b4-e6c2-4fb4-aceb-9537dac17c8c","system_id":"levelo_inurba_marseille","lat":43.289353,"lon":5.35525,"is_reserved":false,"is_disabled":true,"rental_uris":{"android":"levelo://app?vid=cbdc11b4-e6c2-4fb4-aceb-9537dac17c8c","ios":"levelo://app?vid=cbdc11b4-e6c2-4fb4-aceb-9537dac17c8c"},"vehicle_type_id":"4","last_reported":1747328980,"current_range_meters":0,"station_id":"ce4bhb92rcd13ifvqen0","pricing_plan_id":"cebpf4jnsgd1na2vs0mg"},{"bike_id":"f5df02bd-bafc-40b0-b40c-2415f5ecc1ad","system_id":"levelo_inurba_marseille","lat":43.2737,"lon":5.36266,"is_reserved":false,"is_disabled":true,"rental_uris":{"android":"levelo://app?vid=f5df02bd-bafc-40b0-b40c-2415f5ecc1ad","ios":"levelo://app?vid=f5df02bd-bafc-40b0-b40c-2415f5ecc1ad"},"vehicle_type_id":"4","last_reported":1747328980,"current_range_meters":0,"station_id":"ce4bhbh2rcd13ifvqeo0","pricing_plan_id":"cebpf4jnsgd1na2vs0mg"},{"bike_id":"88319570-11c0-425e-ae18-0bc31fbf088c","system_id":"levelo_inurba_marseille","lat":43.2737,"lon":5.3626,"is_reserved":false,"is_disabled":true,"rental_uris":{"android":"levelo://app?vid=88319570-11c0-425e-ae18-0bc31fbf088c","ios":"levelo://app?vid=88319570-11c0-425e-ae18-0bc31fbf088c"},"vehicle_type_id":"4","last_reported":1747328980,"current_range_meters":0,"station_id":"ce4bhbh2rcd13ifvqeo0","pricing_plan_id":"cebpf4jnsgd1na2vs0mg"},{"bike_id":"5c0fd154-26c5-4927-b10f-c5ad1b29f707","system_id":"levelo_inurba_marseille","lat":43.2923,"lon":5.36063,"is_reserved":false,"is_disabled":true,"rental_uris":{"android":"levelo://app?vid=5c0fd154-26c5-4927-b10f-c5ad1b29f707","ios":"levelo://app?vid=5c0fd154-26c5-4927-b10f-c5ad1b29f707"},"vehicle_type_id":"4","last_reported":1747328980,"current_range_meters":0,"station_id":"ce4bhbh2rcd13ifvqeqg","pricing_plan_id":"cebpf4jnsgd1na2vs0mg"},{"bike_id":"0fc74ff3-7c5c-4ac9-908c-257843e73c69","system_id":"levelo_inurba_marseille","lat":43.28261,"lon":5.3505,"is_reserved":false,"is_disabled":true,"rental_uris":{"android":"levelo://app?vid=0fc74ff3-7c5c-4ac9-908c-257843e73c69","ios":"levelo://app?vid=0fc74ff3-7c5c-4ac9-908c-257843e73c69"},"vehicle_type_id":"4","last_reported":1747328980,"current_range_meters":0,"station_id":"ce4bhbp2rcd13ifvqerg","pricing_plan_id":"cebpf4jnsgd1na2vs0mg"},{"bike_id":"ca739b27-21ac-4962-9a2a-f29e7aad4b99","system_id":"levelo_inurba_marseille","lat":43.29272,"lon":5.36834,"is_reserved":false,"is_disabled":true,"rental_uris":{"android":"levelo://app?vid=ca739b27-21ac-4962-9a2a-f29e7aad4b99","ios":"levelo://app?vid=ca739b27-21ac-4962-9a2a-f29e7aad4b99"},"vehicle_type_id":"4","last_reported":1747328980,"current_range_meters":0,"station_id":"ce4bhbp2rcd13ifvqesg","pricing_plan_id":"cebpf4jnsgd1na2vs0mg"},{"bike_id":"1cfbd37c-eaf6-4e81-a064-53a2599186f7","system_id":"levelo_inurba_marseille","lat":43.29268,"lon":5.36845,"is_reserved":false,"is_disabled":true,"rental_uris":{"android":"levelo://app?vid=1cfbd37c-eaf6-4e81-a064-53a2599186f7","ios":"levelo://app?vid=1cfbd37c-eaf6-4e81-a064-53a2599186f7"},"vehicle_type_id":"4","last_reported":1747328980,"current_range_meters":0,"station_id":"ce4bhbp2rcd13ifvqesg","pricing_plan_id":"cebpf4jnsgd1na2vs0mg"},{"bike_id":"57a1d57d-b51c-470b-89c5-8d50ea9c3838","system_id":"levelo_inurba_marseille","lat":43.279159,"lon":5.395804,"is_reserved":false,"is_disabled":true,"rental_uris":{"android":"levelo://app?vid=57a1d57d-b51c-470b-89c5-8d50ea9c3838","ios":"levelo://app?vid=57a1d57d-b51c-470b-89c5-8d50ea9c3838"},"vehicle_type_id":"4","last_reported":1747328980,"current_range_meters":0,"station_id":"ce4bhf92rcd13ifvqf40","pricing_plan_id":"cebpf4jnsgd1na2vs0mg"},{"bike_id":"30867549-efce-4b75-b2db-62606f97b103","system_id":"levelo_inurba_marseille","lat":43.26208,"lon":5.37445,"is_reserved":false,"is_disabled":true,"rental_uris":{"android":"levelo://app?vid=30867549-efce-4b75-b2db-62606f97b103","ios":"levelo://app?vid=30867549-efce-4b75-b2db-62606f97b103"},"vehicle_type_id":"4","last_reported":1747328980,"current_range_meters":0,"station_id":"ce4bhgp2rcd13ifvqfc0","pricing_plan_id":"cebpf4jnsgd1na2vs0mg"},{"bike_id":"4dbc68b6-8c01-4eef-9a51-8af9545b378c","system_id":"levelo_inurba_marseille","lat":43.28004,"lon":5.40006,"is_reserved":false,"is_disabled":true,"rental_uris":{"android":"levelo://app?vid=4dbc68b6-8c01-4eef-9a51-8af9545b378c","ios":"levelo://app?vid=4dbc68b6-8c01-4eef-9a51-8af9545b378c"},"vehicle_type_id":"4","last_reported":1747328980,"current_range_meters":0,"station_id":"ce4bho92rcd13ifvqh4g","pricing_plan_id":"cebpf4jnsgd1na2vs0mg"},{"bike_id":"9314dddf-072c-4cc0-8876-ed2b90349374","system_id":"levelo_inurba_marseille","lat":43.325386,"lon":5.41437,"is_reserved":false,"is_disabled":true,"rental_uris":{"android":"levelo://app?vid=9314dddf-072c-4cc0-8876-ed2b90349374","ios":"levelo://app?vid=9314dddf-072c-4cc0-8876-ed2b90349374"},"vehicle_type_id":"4","last_reported":1747328980,"current_range_meters":0,"station_id":"ce4bhq12rcd13ifvqhhg","pricing_plan_id":"cebpf4jnsgd1na2vs0mg"},{"bike_id":"027f978f-20bd-4629-a9b6-c7dd30f4fc53","system_id":"levelo_inurba_marseille","lat":43.268058,"lon":5.402681,"is_reserved":false,"is_disabled":true,"rental_uris":{"android":"levelo://app?vid=027f978f-20bd-4629-a9b6-c7dd30f4fc53","ios":"levelo://app?vid=027f978f-20bd-4629-a9b6-c7dd30f4fc53"},"vehicle_type_id":"4","last_reported":1747328980,"current_range_meters":0,"station_id":"ce501612rcd8frsf0b60","pricing_plan_id":"cebpf4jnsgd1na2vs0mg"},{"bike_id":"f0e60294-16fa-4c68-9436-ad9f44fcb057","system_id":"levelo_inurba_marseille","lat":43.229026,"lon":5.353153,"is_reserved":false,"is_disabled":true,"rental_uris":{"android":"levelo://app?vid=f0e60294-16fa-4c68-9436-ad9f44fcb057","ios":"levelo://app?vid=f0e60294-16fa-4c68-9436-ad9f44fcb057"},"vehicle_type_id":"4","last_reported":1747328980,"current_range_meters":0,"station_id":"cpo3532slgdg3j2ikp40","pricing_plan_id":"cebpf4jnsgd1na2vs0mg"},{"bike_id":"e62a2c8b-ebd4-4592-ae0f-ff5560db0b84","system_id":"levelo_inurba_marseille","lat":43.247023,"lon":5.399677,"is_reserved":false,"is_disabled":true,"rental_uris":{"android":"levelo://app?vid=e62a2c8b-ebd4-4592-ae0f-ff5560db0b84","ios":"levelo://app?vid=e62a2c8b-ebd4-4592-ae0f-ff5560db0b84"},"vehicle_type_id":"4","last_reported":1747328980,"current_range_meters":400,"station_id":"","pricing_plan_id":"cebpf4jnsgd1na2vs0mg"},{"bike_id":"e11a597c-22ae-4beb-b0b6-b702f1312fee","system_id":"levelo_inurba_marseille","lat":43.30295,"lon":5.3921,"is_reserved":false,"is_disabled":true,"rental_uris":{"android":"levelo://app?vid=e11a597c-22ae-4beb-b0b6-b702f1312fee","ios":"levelo://app?vid=e11a597c-22ae-4beb-b0b6-b702f1312fee"},"vehicle_type_id":"4","last_reported":1747328980,"current_range_meters":400,"station_id":"ce4bgkh2rcd13ifvqbk0","pricing_plan_id":"cebpf4jnsgd1na2vs0mg"},{"bike_id":"6dee009c-cfc9-452b-961e-3f277158d91f","system_id":"levelo_inurba_marseille","lat":43.30949,"lon":5.39024,"is_reserved":false,"is_disabled":true,"rental_uris":{"android":"levelo://app?vid=6dee009c-cfc9-452b-961e-3f277158d91f","ios":"levelo://app?vid=6dee009c-cfc9-452b-961e-3f277158d91f"},"vehicle_type_id":"4","last_reported":1747328980,"current_range_meters":400,"station_id":"ce4bgup2rcd13ifvqco0","pricing_plan_id":"cebpf4jnsgd1na2vs0mg"},{"bike_id":"6181fb45-c199-4704-90d3-ad3930468f3e","system_id":"levelo_inurba_marseille","lat":43.28111,"lon":5.37774,"is_reserved":false,"is_disabled":true,"rental_uris":{"android":"levelo://app?vid=6181fb45-c199-4704-90d3-ad3930468f3e","ios":"levelo://app?vid=6181fb45-c199-4704-90d3-ad3930468f3e"},"vehicle_type_id":"4","last_reported":1747328980,"current_range_meters":400,"station_id":"ce4bha12rcd13ifvqee0","pricing_plan_id":"cebpf4jnsgd1na2vs0mg"},{"bike_id":"a4002a32-9200-4e8d-9c5a-2243a2acf2e3","system_id":"levelo_inurba_marseille","lat":43.29189,"lon":5.35798,"is_reserved":false,"is_disabled":true,"rental_uris":{"android":"levelo://app?vid=a4002a32-9200-4e8d-9c5a-2243a2acf2e3","ios":"levelo://app?vid=a4002a32-9200-4e8d-9c5a-2243a2acf2e3"},"vehicle_type_id":"4","last_reported":1747328980,"current_range_meters":400,"station_id":"ce4bhb12rcd13ifvqel0","pricing_plan_id":"cebpf4jnsgd1na2vs0mg"},{"bike_id":"28fc39d2-e97f-4bbc-89a6-0fe82a19d8aa","system_id":"levelo_inurba_marseille","lat":43.27428,"lon":5.39404,"is_reserved":false,"is_disabled":true,"rental_uris":{"android":"levelo://app?vid=28fc39d2-e97f-4bbc-89a6-0fe82a19d8aa","ios":"levelo://app?vid=28fc39d2-e97f-4bbc-89a6-0fe82a19d8aa"},"vehicle_type_id":"4","last_reported":1747328980,"current_range_meters":400,"station_id":"ce4bhdp2rcd13ifvqf20","pricing_plan_id":"cebpf4jnsgd1na2vs0mg"},{"bike_id":"f86d531e-e6a2-4268-ba7e-8088225e8e02","system_id":"levelo_inurba_marseille","lat":43.28697,"lon":5.39988,"is_reserved":false,"is_disabled":true,"rental_uris":{"android":"levelo://app?vid=f86d531e-e6a2-4268-ba7e-8088225e8e02","ios":"levelo://app?vid=f86d531e-e6a2-4268-ba7e-8088225e8e02"},"vehicle_type_id":"4","last_reported":1747328980,"current_range_meters":400,"station_id":"ce4bho92rcd13ifvqh3g","pricing_plan_id":"cebpf4jnsgd1na2vs0mg"},{"bike_id":"50f0eb23-5b0e-487e-8419-b1da69e5d44e","system_id":"levelo_inurba_marseille","lat":43.28629,"lon":5.38172,"is_reserved":false,"is_disabled":true,"rental_uris":{"android":"levelo://app?vid=50f0eb23-5b0e-487e-8419-b1da69e5d44e","ios":"levelo://app?vid=50f0eb23-5b0e-487e-8419-b1da69e5d44e"},"vehicle_type_id":"4","last_reported":1747328980,"current_range_meters":800,"station_id":"","pricing_plan_id":"cebpf4jnsgd1na2vs0mg"},{"bike_id":"81d0ac8a-dab9-4392-a91e-e08a82fcbf57","system_id":"levelo_inurba_marseille","lat":43.293635,"lon":5.372015,"is_reserved":false,"is_disabled":true,"rental_uris":{"android":"levelo://app?vid=81d0ac8a-dab9-4392-a91e-e08a82fcbf57","ios":"levelo://app?vid=81d0ac8a-dab9-4392-a91e-e08a82fcbf57"},"vehicle_type_id":"4","last_reported":1747328980,"current_range_meters":800,"station_id":"","pricing_plan_id":"cebpf4jnsgd1na2vs0mg"},{"bike_id":"4138f223-aad0-40e3-9d93-339a6c384895","system_id":"levelo_inurba_marseille","lat":43.29282,"lon":5.37172,"is_reserved":false,"is_disabled":true,"rental_uris":{"android":"levelo://app?vid=4138f223-aad0-40e3-9d93-339a6c384895","ios":"levelo://app?vid=4138f223-aad0-40e3-9d93-339a6c384895"},"vehicle_type_id":"4","last_reported":1747328980,"current_range_meters":800,"station_id":"ce4bgh92rcd13ifvqb40","pricing_plan_id":"cebpf4jnsgd1na2vs0mg"},{"bike_id":"ab953235-ce7e-413e-b632-d866609cdb02","system_id":"levelo_inurba_marseille","lat":43.2962,"lon":5.37715,"is_reserved":false,"is_disabled":true,"rental_uris":{"android":"levelo://app?vid=ab953235-ce7e-413e-b632-d866609cdb02","ios":"levelo://app?vid=ab953235-ce7e-413e-b632-d866609cdb02"},"vehicle_type_id":"4","last_reported":1747328980,"current_range_meters":800,"station_id":"ce4bgi92rcd13ifvqb90","pricing_plan_id":"cebpf4jnsgd1na2vs0mg"},{"bike_id":"d091520e-b0ef-4370-a93e-03f6501b3967","system_id":"levelo_inurba_marseille","lat":43.30234,"lon":5.40057,"is_reserved":false,"is_disabled":true,"rental_uris":{"android":"levelo://app?vid=d091520e-b0ef-4370-a93e-03f6501b3967","ios":"levelo://app?vid=d091520e-b0ef-4370-a93e-03f6501b3967"},"vehicle_type_id":"4","last_reported":1747328980,"current_range_meters":800,"station_id":"ce4bgvh2rcd13ifvqcs0","pricing_plan_id":"cebpf4jnsgd1na2vs0mg"},{"bike_id":"10480347-965f-4d2b-b0aa-061e78ae042d","system_id":"levelo_inurba_marseille","lat":43.28457,"lon":5.35893,"is_reserved":false,"is_disabled":true,"rental_uris":{"android":"levelo://app?vid=10480347-965f-4d2b-b0aa-061e78ae042d","ios":"levelo://app?vid=10480347-965f-4d2b-b0aa-061e78ae042d"},"vehicle_type_id":"4","last_reported":1747328980,"current_range_meters":800,"station_id":"ce4bhah2rcd13ifvqei0","pricing_plan_id":"cebpf4jnsgd1na2vs0mg"},{"bike_id":"db4157f5-edd7-4145-ae5f-e07604a7e49a","system_id":"levelo_inurba_marseille","lat":43.28945,"lon":5.36389,"is_reserved":false,"is_disabled":true,"rental_uris":{"android":"levelo://app?vid=db4157f5-edd7-4145-ae5f-e07604a7e49a","ios":"levelo://app?vid=db4157f5-edd7-4145-ae5f-e07604a7e49a"},"vehicle_type_id":"4","last_reported":1747328980,"current_range_meters":800,"station_id":"ce4bhc92rcd13ifvqetg","pricing_plan_id":"cebpf4jnsgd1na2vs0mg"},{"bike_id":"5891a0b7-1797-48d5-97e3-5afc5bcfe168","system_id":"levelo_inurba_marseille","lat":43.2582,"lon":5.39429,"is_reserved":false,"is_disabled":true,"rental_uris":{"android":"levelo://app?vid=5891a0b7-1797-48d5-97e3-5afc5bcfe168","ios":"levelo://app?vid=5891a0b7-1797-48d5-97e3-5afc5bcfe168"},"vehicle_type_id":"4","last_reported":1747328980,"current_range_meters":800,"station_id":"ce4bhip2rcd13ifvqft0","pricing_plan_id":"cebpf4jnsgd1na2vs0mg"},{"bike_id":"84f518dc-50a3-4a16-9d63-3d1898cec109","system_id":"levelo_inurba_marseille","lat":43.32653,"lon":5.40977,"is_reserved":false,"is_disabled":true,"rental_uris":{"android":"levelo://app?vid=84f518dc-50a3-4a16-9d63-3d1898cec109","ios":"levelo://app?vid=84f518dc-50a3-4a16-9d63-3d1898cec109"},"vehicle_type_id":"4","last_reported":1747328980,"current_range_meters":800,"station_id":"ce4bhpp2rcd13ifvqhgg","pricing_plan_id":"cebpf4jnsgd1na2vs0mg"},{"bike_id":"420b922a-6c75-4199-a992-a4588e02630c","system_id":"levelo_inurba_marseille","lat":43.32369,"lon":5.38886,"is_reserved":false,"is_disabled":true,"rental_uris":{"android":"levelo://app?vid=420b922a-6c75-4199-a992-a4588e02630c","ios":"levelo://app?vid=420b922a-6c75-4199-a992-a4588e02630c"},"vehicle_type_id":"4","last_reported":1747328980,"current_range_meters":800,"station_id":"ce4bhqp2rcd13ifvqhog","pricing_plan_id":"cebpf4jnsgd1na2vs0mg"},{"bike_id":"ce4325af-2448-4172-bdec-81d552ee0b62","system_id":"levelo_inurba_marseille","lat":43.2618,"lon":5.42046,"is_reserved":false,"is_disabled":true,"rental_uris":{"android":"levelo://app?vid=ce4325af-2448-4172-bdec-81d552ee0b62","ios":"levelo://app?vid=ce4325af-2448-4172-bdec-81d552ee0b62"},"vehicle_type_id":"4","last_reported":1747328980,"current_range_meters":1200,"station_id":"","pricing_plan_id":"cebpf4jnsgd1na2vs0mg"},{"bike_id":"7904e55c-80d5-4167-ba52-baa82330bb66","system_id":"levelo_inurba_marseille","lat":43.27869,"lon":5.38753,"is_reserved":false,"is_disabled":true,"rental_uris":{"android":"levelo://app?vid=7904e55c-80d5-4167-ba52-baa82330bb66","ios":"levelo://app?vid=7904e55c-80d5-4167-ba52-baa82330bb66"},"vehicle_type_id":"4","last_reported":1747328980,"current_range_meters":1200,"station_id":"","pricing_plan_id":"cebpf4jnsgd1na2vs0mg"},{"bike_id":"9abaa5c3-6089-4a05-b15d-1761c618940e","system_id":"levelo_inurba_marseille","lat":43.305224,"lon":5.365468,"is_reserved":false,"is_disabled":true,"rental_uris":{"android":"levelo://app?vid=9abaa5c3-6089-4a05-b15d-1761c618940e","ios":"levelo://app?vid=9abaa5c3-6089-4a05-b15d-1761c618940e"},"vehicle_type_id":"4","last_reported":1747328980,"current_range_meters":1200,"station_id":"ce4bgs12rcd13ifvqcag","pricing_plan_id":"cebpf4jnsgd1na2vs0mg"},{"bike_id":"38369702-6f18-4018-a7ca-597ded976db6","system_id":"levelo_inurba_marseille","lat":43.31687,"lon":5.40467,"is_reserved":false,"is_disabled":true,"rental_uris":{"android":"levelo://app?vid=38369702-6f18-4018-a7ca-597ded976db6","ios":"levelo://app?vid=38369702-6f18-4018-a7ca-597ded976db6"},"vehicle_type_id":"4","last_reported":1747328980,"current_range_meters":1200,"station_id":"ce4bh012rcd13ifvqd00","pricing_plan_id":"cebpf4jnsgd1na2vs0mg"},{"bike_id":"15205ee7-ce03-494b-8da7-c23de66c5160","system_id":"levelo_inurba_marseille","lat":43.28923,"lon":5.3839,"is_reserved":false,"is_disabled":true,"rental_uris":{"android":"levelo://app?vid=15205ee7-ce03-494b-8da7-c23de66c5160","ios":"levelo://app?vid=15205ee7-ce03-494b-8da7-c23de66c5160"},"vehicle_type_id":"4","last_reported":1747328980,"current_range_meters":1200,"station_id":"ce4bh612rcd13ifvqe6g","pricing_plan_id":"cebpf4jnsgd1na2vs0mg"},{"bike_id":"d3bd01e4-d3cc-483e-a896-1be24c193110","system_id":"levelo_inurba_marseille","lat":43.28039,"lon":5.3694,"is_reserved":false,"is_disabled":true,"rental_uris":{"android":"levelo://app?vid=d3bd01e4-d3cc-483e-a896-1be24c193110","ios":"levelo://app?vid=d3bd01e4-d3cc-483e-a896-1be24c193110"},"vehicle_type_id":"4","last_reported":1747328980,"current_range_meters":1200,"station_id":"ce4bha12rcd13ifvqef0","pricing_plan_id":"cebpf4jnsgd1na2vs0mg"},{"bike_id":"e6da1d3c-fae8-40a4-a5dd-7c8b5fa2b3b4","system_id":"levelo_inurba_marseille","lat":43.27373,"lon":5.36264,"is_reserved":false,"is_disabled":true,"rental_uris":{"android":"levelo://app?vid=e6da1d3c-fae8-40a4-a5dd-7c8b5fa2b3b4","ios":"levelo://app?vid=e6da1d3c-fae8-40a4-a5dd-7c8b5fa2b3b4"},"vehicle_type_id":"4","last_reported":1747328980,"current_range_meters":1200,"station_id":"ce4bhbh2rcd13ifvqeo0","pricing_plan_id":"cebpf4jnsgd1na2vs0mg"},{"bike_id":"81b466f6-83b3-471c-850c-cd8147a23039","system_id":"levelo_inurba_marseille","lat":43.290247,"lon":5.381277,"is_reserved":false,"is_disabled":true,"rental_uris":{"android":"levelo://app?vid=81b466f6-83b3-471c-850c-cd8147a23039","ios":"levelo://app?vid=81b466f6-83b3-471c-850c-cd8147a23039"},"vehicle_type_id":"4","last_reported":1747328980,"current_range_meters":1200,"station_id":"ce4bhbp2rcd13ifvqerg","pricing_plan_id":"cebpf4jnsgd1na2vs0mg"},{"bike_id":"bdcb8913-dcfe-4a20-a7bd-a33b8437ddba","system_id":"levelo_inurba_marseille","lat":43.24645,"lon":5.38892,"is_reserved":false,"is_disabled":true,"rental_uris":{"android":"levelo://app?vid=bdcb8913-dcfe-4a20-a7bd-a33b8437ddba","ios":"levelo://app?vid=bdcb8913-dcfe-4a20-a7bd-a33b8437ddba"},"vehicle_type_id":"4","last_reported":1747328980,"current_range_meters":1200,"station_id":"ce4bhg12rcd13ifvqf60","pricing_plan_id":"cebpf4jnsgd1na2vs0mg"},{"bike_id":"ca9ac99a-5ab5-46d9-b35c-79859d3667aa","system_id":"levelo_inurba_marseille","lat":43.26207,"lon":5.37445,"is_reserved":false,"is_disabled":true,"rental_uris":{"android":"levelo://app?vid=ca9ac99a-5ab5-46d9-b35c-79859d3667aa","ios":"levelo://app?vid=ca9ac99a-5ab5-46d9-b35c-79859d3667aa"},"vehicle_type_id":"4","last_reported":1747328980,"current_range_meters":1200,"station_id":"ce4bhgp2rcd13ifvqfc0","pricing_plan_id":"cebpf4jnsgd1na2vs0mg"},{"bike_id":"825f38ab-1fe0-47ee-8b7e-8322cdd70401","system_id":"levelo_inurba_marseille","lat":43.279427,"lon":5.410425,"is_reserved":false,"is_disabled":false,"rental_uris":{"android":"levelo://app?vid=825f38ab-1fe0-47ee-8b7e-8322cdd70401","ios":"levelo://app?vid=825f38ab-1fe0-47ee-8b7e-8322cdd70401"},"vehicle_type_id":"4","last_reported":1747328980,"current_range_meters":1200,"station_id":"ce4bhnp2rcd13ifvqh0g","pricing_plan_id":"cebpf4jnsgd1na2vs0mg"},{"bike_id":"f25419af-79fa-43b0-af4a-a0738706a661","system_id":"levelo_inurba_marseille","lat":43.28081,"lon":5.39653,"is_reserved":false,"is_disabled":true,"rental_uris":{"android":"levelo://app?vid=f25419af-79fa-43b0-af4a-a0738706a661","ios":"levelo://app?vid=f25419af-79fa-43b0-af4a-a0738706a661"},"vehicle_type_id":"4","last_reported":1747328980,"current_range_meters":1200,"station_id":"ce4bho12rcd13ifvqh2g","pricing_plan_id":"cebpf4jnsgd1na2vs0mg"},{"bike_id":"13ccaadc-b269-47eb-bafa-2d5f1181c90c","system_id":"levelo_inurba_marseille","lat":43.298985,"lon":5.43677,"is_reserved":false,"is_disabled":true,"rental_uris":{"android":"levelo://app?vid=13ccaadc-b269-47eb-bafa-2d5f1181c90c","ios":"levelo://app?vid=13ccaadc-b269-47eb-bafa-2d5f1181c90c"},"vehicle_type_id":"4","last_reported":1747328980,"current_range_meters":1200,"station_id":"ce4bhpp2rcd13ifvqhfg","pricing_plan_id":"cebpf4jnsgd1na2vs0mg"},{"bike_id":"4c07e2e6-8b71-4eb3-afca-c3ad538ed30c","system_id":"levelo_inurba_marseille","lat":43.299685,"lon":5.384947,"is_reserved":false,"is_disabled":true,"rental_uris":{"android":"levelo://app?vid=4c07e2e6-8b71-4eb3-afca-c3ad538ed30c","ios":"levelo://app?vid=4c07e2e6-8b71-4eb3-afca-c3ad538ed30c"},"vehicle_type_id":"4","last_reported":1747328980,"current_range_meters":1600,"station_id":"","pricing_plan_id":"cebpf4jnsgd1na2vs0mg"},{"bike_id":"6c620fda-6c06-49e6-b737-205be2ca2320","system_id":"levelo_inurba_marseille","lat":43.28878,"lon":5.35856,"is_reserved":false,"is_disabled":true,"rental_uris":{"android":"levelo://app?vid=6c620fda-6c06-49e6-b737-205be2ca2320","ios":"levelo://app?vid=6c620fda-6c06-49e6-b737-205be2ca2320"},"vehicle_type_id":"4","last_reported":1747328980,"current_range_meters":1600,"station_id":"","pricing_plan_id":"cebpf4jnsgd1na2vs0mg"},{"bike_id":"73ec4b4f-60b7-44a8-a1c9-0e2b395f5f39","system_id":"levelo_inurba_marseille","lat":43.29933,"lon":5.36556,"is_reserved":false,"is_disabled":true,"rental_uris":{"android":"levelo://app?vid=73ec4b4f-60b7-44a8-a1c9-0e2b395f5f39","ios":"levelo://app?vid=73ec4b4f-60b7-44a8-a1c9-0e2b395f5f39"},"vehicle_type_id":"4","last_reported":1747328980,"current_range_meters":1600,"station_id":"ce4bgm92rcd13ifvqbr0","pricing_plan_id":"cebpf4jnsgd1na2vs0mg"},{"bike_id":"78c858f0-260c-48be-800b-ff056bf2d103","system_id":"levelo_inurba_marseille","lat":43.30903,"lon":5.36842,"is_reserved":false,"is_disabled":true,"rental_uris":{"android":"levelo://app?vid=78c858f0-260c-48be-800b-ff056bf2d103","ios":"levelo://app?vid=78c858f0-260c-48be-800b-ff056bf2d103"},"vehicle_type_id":"4","last_reported":1747328980,"current_range_meters":1600,"station_id":"ce4bgn92rcd13ifvqbvg","pricing_plan_id":"cebpf4jnsgd1na2vs0mg"},{"bike_id":"402e2b67-de9a-4478-81be-a2eb4af734db","system_id":"levelo_inurba_marseille","lat":43.28659,"lon":5.3635,"is_reserved":false,"is_disabled":true,"rental_uris":{"android":"levelo://app?vid=402e2b67-de9a-4478-81be-a2eb4af734db","ios":"levelo://app?vid=402e2b67-de9a-4478-81be-a2eb4af734db"},"vehicle_type_id":"4","last_reported":1747328980,"current_range_meters":1600,"station_id":"ce4bhah2rcd13ifvqej0","pricing_plan_id":"cebpf4jnsgd1na2vs0mg"},{"bike_id":"8cafbaf4-db5f-4f20-ba59-8ee50dd610b5","system_id":"levelo_inurba_marseille","lat":43.293672,"lon":5.378265,"is_reserved":false,"is_disabled":true,"rental_uris":{"android":"levelo://app?vid=8cafbaf4-db5f-4f20-ba59-8ee50dd610b5","ios":"levelo://app?vid=8cafbaf4-db5f-4f20-ba59-8ee50dd610b5"},"vehicle_type_id":"4","last_reported":1747328980,"current_range_meters":2000,"station_id":"ce4bgvp2rcd13ifvqcu0","pricing_plan_id":"cebpf4jnsgd1na2vs0mg"},{"bike_id":"aceb9160-a9b6-4c86-8d35-f1765b449b21","system_id":"levelo_inurba_marseille","lat":43.29021,"lon":5.38641,"is_reserved":false,"is_disabled":true,"rental_uris":{"android":"levelo://app?vid=aceb9160-a9b6-4c86-8d35-f1765b449b21","ios":"levelo://app?vid=aceb9160-a9b6-4c86-8d35-f1765b449b21"},"vehicle_type_id":"4","last_reported":1747328980,"current_range_meters":2000,"station_id":"ce4bh4p2rcd13ifvqe0g","pricing_plan_id":"cebpf4jnsgd1na2vs0mg"},{"bike_id":"4a04ef87-f1be-4ab0-be8d-dba23c8b3abd","system_id":"levelo_inurba_marseille","lat":43.28859,"lon":5.35857,"is_reserved":false,"is_disabled":true,"rental_uris":{"android":"levelo://app?vid=4a04ef87-f1be-4ab0-be8d-dba23c8b3abd","ios":"levelo://app?vid=4a04ef87-f1be-4ab0-be8d-dba23c8b3abd"},"vehicle_type_id":"4","last_reported":1747328980,"current_range_meters":2000,"station_id":"ce4bhb12rcd13ifvqem0","pricing_plan_id":"cebpf4jnsgd1na2vs0mg"},{"bike_id":"b8fb6ebd-c6b7-4f13-9930-8ad0c0b75e81","system_id":"levelo_inurba_marseille","lat":43.29245,"lon":5.36042,"is_reserved":false,"is_disabled":true,"rental_uris":{"android":"levelo://app?vid=b8fb6ebd-c6b7-4f13-9930-8ad0c0b75e81","ios":"levelo://app?vid=b8fb6ebd-c6b7-4f13-9930-8ad0c0b75e81"},"vehicle_type_id":"4","last_reported":1747328980,"current_range_meters":2000,"station_id":"ce4bhbh2rcd13ifvqeqg","pricing_plan_id":"cebpf4jnsgd1na2vs0mg"},{"bike_id":"ab9e11b4-243f-46c4-ab2b-123f4522436f","system_id":"levelo_inurba_marseille","lat":43.26558,"lon":5.37293,"is_reserved":false,"is_disabled":true,"rental_uris":{"android":"levelo://app?vid=ab9e11b4-243f-46c4-ab2b-123f4522436f","ios":"levelo://app?vid=ab9e11b4-243f-46c4-ab2b-123f4522436f"},"vehicle_type_id":"4","last_reported":1747328980,"current_range_meters":2000,"station_id":"ce4bhg12rcd13ifvqf70","pricing_plan_id":"cebpf4jnsgd1na2vs0mg"},{"bike_id":"e6257f53-e3c4-4580-8e0b-c0f555173ef9","system_id":"levelo_inurba_marseille","lat":43.272099,"lon":5.391916,"is_reserved":false,"is_disabled":true,"rental_uris":{"android":"levelo://app?vid=e6257f53-e3c4-4580-8e0b-c0f555173ef9","ios":"levelo://app?vid=e6257f53-e3c4-4580-8e0b-c0f555173ef9"},"vehicle_type_id":"4","last_reported":1747328980,"current_range_meters":2000,"station_id":"ce4bhhp2rcd13ifvqfm0","pricing_plan_id":"cebpf4jnsgd1na2vs0mg"},{"bike_id":"9d7989c4-7f8f-41fc-92fe-5802baa813e1","system_id":"levelo_inurba_marseille","lat":43.26205,"lon":5.37917,"is_reserved":false,"is_disabled":true,"rental_uris":{"android":"levelo://app?vid=9d7989c4-7f8f-41fc-92fe-5802baa813e1","ios":"levelo://app?vid=9d7989c4-7f8f-41fc-92fe-5802baa813e1"},"vehicle_type_id":"4","last_reported":1747328980,"current_range_meters":2000,"station_id":"ce4bhjp2rcd13ifvqg90","pricing_plan_id":"cebpf4jnsgd1na2vs0mg"},{"bike_id":"f6178d9c-6aef-4eb3-8b69-c42e6b5fe297","system_id":"levelo_inurba_marseille","lat":43.295384,"lon":5.374947,"is_reserved":false,"is_disabled":false,"rental_uris":{"android":"levelo://app?vid=f6178d9c-6aef-4eb3-8b69-c42e6b5fe297","ios":"levelo://app?vid=f6178d9c-6aef-4eb3-8b69-c42e6b5fe297"},"vehicle_type_id":"4","last_reported":1747328980,"current_range_meters":2800,"station_id":"","pricing_plan_id":"cebpf4jnsgd1na2vs0mg"},{"bike_id":"dbef1ad0-8499-45c5-8bb3-96bdd61e0c89","system_id":"levelo_inurba_marseille","lat":43.30258,"lon":5.40048,"is_reserved":false,"is_disabled":false,"rental_uris":{"android":"levelo://app?vid=dbef1ad0-8499-45c5-8bb3-96bdd61e0c89","ios":"levelo://app?vid=dbef1ad0-8499-45c5-8bb3-96bdd61e0c89"},"vehicle_type_id":"4","last_reported":1747328980,"current_range_meters":2800,"station_id":"ce4bgvh2rcd13ifvqcs0","pricing_plan_id":"cebpf4jnsgd1na2vs0mg"},{"bike_id":"b8a21b57-dd00-4576-a2c2-c649baaf2a48","system_id":"levelo_inurba_marseille","lat":43.284762,"lon":5.38421,"is_reserved":false,"is_disabled":false,"rental_uris":{"android":"levelo://app?vid=b8a21b57-dd00-4576-a2c2-c649baaf2a48","ios":"levelo://app?vid=b8a21b57-dd00-4576-a2c2-c649baaf2a48"},"vehicle_type_id":"4","last_reported":1747328980,"current_range_meters":2800,"station_id":"ce4bh512rcd13ifvqe3g","pricing_plan_id":"cebpf4jnsgd1na2vs0mg"},{"bike_id":"dde8c98c-dbd5-4b6d-b9e0-a1ce8aa73c67","system_id":"levelo_inurba_marseille","lat":43.29002,"lon":5.35608,"is_reserved":false,"is_disabled":false,"rental_uris":{"android":"levelo://app?vid=dde8c98c-dbd5-4b6d-b9e0-a1ce8aa73c67","ios":"levelo://app?vid=dde8c98c-dbd5-4b6d-b9e0-a1ce8aa73c67"},"vehicle_type_id":"4","last_reported":1747328980,"current_range_meters":2800,"station_id":"ce4bhb92rcd13ifvqen0","pricing_plan_id":"cebpf4jnsgd1na2vs0mg"},{"bike_id":"cfea2d3e-8e9c-4e09-a159-cc6f3e330413","system_id":"levelo_inurba_marseille","lat":43.29001,"lon":5.35611,"is_reserved":false,"is_disabled":true,"rental_uris":{"android":"levelo://app?vid=cfea2d3e-8e9c-4e09-a159-cc6f3e330413","ios":"levelo://app?vid=cfea2d3e-8e9c-4e09-a159-cc6f3e330413"},"vehicle_type_id":"4","last_reported":1747328980,"current_range_meters":2800,"station_id":"ce4bhb92rcd13ifvqen0","pricing_plan_id":"cebpf4jnsgd1na2vs0mg"},{"bike_id":"60a54dd8-10ab-471a-9e3e-217b94cba1ea","system_id":"levelo_inurba_marseille","lat":43.284,"lon":5.34991,"is_reserved":false,"is_disabled":false,"rental_uris":{"android":"levelo://app?vid=60a54dd8-10ab-471a-9e3e-217b94cba1ea","ios":"levelo://app?vid=60a54dd8-10ab-471a-9e3e-217b94cba1ea"},"vehicle_type_id":"4","last_reported":1747328980,"current_range_meters":2800,"station_id":"ce4bhbh2rcd13ifvqepg","pricing_plan_id":"cebpf4jnsgd1na2vs0mg"},{"bike_id":"5e9fa20e-1340-4d0d-b683-901a4275ba5d","system_id":"levelo_inurba_marseille","lat":43.28181,"lon":5.425331,"is_reserved":false,"is_disabled":false,"rental_uris":{"android":"levelo://app?vid=5e9fa20e-1340-4d0d-b683-901a4275ba5d","ios":"levelo://app?vid=5e9fa20e-1340-4d0d-b683-901a4275ba5d"},"vehicle_type_id":"4","last_reported":1747328980,"current_range_meters":3200,"station_id":"","pricing_plan_id":"cebpf4jnsgd1na2vs0mg"},{"bike_id":"ba62dbb8-4fc7-45e1-92a2-15d601a61c08","system_id":"levelo_inurba_marseille","lat":43.30146,"lon":5.39881,"is_reserved":false,"is_disabled":false,"rental_uris":{"android":"levelo://app?vid=ba62dbb8-4fc7-45e1-92a2-15d601a61c08","ios":"levelo://app?vid=ba62dbb8-4fc7-45e1-92a2-15d601a61c08"},"vehicle_type_id":"4","last_reported":1747328980,"current_range_meters":3200,"station_id":"ce4bh0h2rcd13ifvqd40","pricing_plan_id":"cebpf4jnsgd1na2vs0mg"},{"bike_id":"8dc1bdad-e9d4-41ce-94d3-1c9a63b7f672","system_id":"levelo_inurba_marseille","lat":43.28457,"lon":5.35881,"is_reserved":false,"is_disabled":false,"rental_uris":{"android":"levelo://app?vid=8dc1bdad-e9d4-41ce-94d3-1c9a63b7f672","ios":"levelo://app?vid=8dc1bdad-e9d4-41ce-94d3-1c9a63b7f672"},"vehicle_type_id":"4","last_reported":1747328980,"current_range_meters":3200,"station_id":"ce4bhah2rcd13ifvqei0","pricing_plan_id":"cebpf4jnsgd1na2vs0mg"},{"bike_id":"1095c83d-ca0a-4e57-af48-5f97891ce0fb","system_id":"levelo_inurba_marseille","lat":43.29004,"lon":5.35617,"is_reserved":false,"is_disabled":false,"rental_uris":{"android":"levelo://app?vid=1095c83d-ca0a-4e57-af48-5f97891ce0fb","ios":"levelo://app?vid=1095c83d-ca0a-4e57-af48-5f97891ce0fb"},"vehicle_type_id":"4","last_reported":1747328980,"current_range_meters":3200,"station_id":"ce4bhb92rcd13ifvqen0","pricing_plan_id":"cebpf4jnsgd1na2vs0mg"},{"bike_id":"51440358-593f-4371-b556-a46113b57465","system_id":"levelo_inurba_marseille","lat":43.25579,"lon":5.38227,"is_reserved":false,"is_disabled":false,"rental_uris":{"android":"levelo://app?vid=51440358-593f-4371-b556-a46113b57465","ios":"levelo://app?vid=51440358-593f-4371-b556-a46113b57465"},"vehicle_type_id":"4","last_reported":1747328980,"current_range_meters":3200,"station_id":"ce4bhih2rcd13ifvqfs0","pricing_plan_id":"cebpf4jnsgd1na2vs0mg"},{"bike_id":"a8bcd020-642e-439b-b3ec-b7e6d3c5a1df","system_id":"levelo_inurba_marseille","lat":43.28153,"lon":5.4265,"is_reserved":false,"is_disabled":false,"rental_uris":{"android":"levelo://app?vid=a8bcd020-642e-439b-b3ec-b7e6d3c5a1df","ios":"levelo://app?vid=a8bcd020-642e-439b-b3ec-b7e6d3c5a1df"},"vehicle_type_id":"4","last_reported":1747328980,"current_range_meters":3200,"station_id":"ce4bhnh2rcd13ifvqgug","pricing_plan_id":"cebpf4jnsgd1na2vs0mg"},{"bike_id":"47738770-919f-4b96-ac77-93cfe3a1ed87","system_id":"levelo_inurba_marseille","lat":43.32285,"lon":5.38276,"is_reserved":false,"is_disabled":false,"rental_uris":{"android":"levelo://app?vid=47738770-919f-4b96-ac77-93cfe3a1ed87","ios":"levelo://app?vid=47738770-919f-4b96-ac77-93cfe3a1ed87"},"vehicle_type_id":"4","last_reported":1747328980,"current_range_meters":3200,"station_id":"ce4bhr12rcd13ifvqhqg","pricing_plan_id":"cebpf4jnsgd1na2vs0mg"},{"bike_id":"21e54135-13c7-41ef-9520-1138348f826c","system_id":"levelo_inurba_marseille","lat":43.22932,"lon":5.3538,"is_reserved":false,"is_disabled":false,"rental_uris":{"android":"levelo://app?vid=21e54135-13c7-41ef-9520-1138348f826c","ios":"levelo://app?vid=21e54135-13c7-41ef-9520-1138348f826c"},"vehicle_type_id":"4","last_reported":1747328980,"current_range_meters":3200,"station_id":"cpo3532slgdg3j2ikp40","pricing_plan_id":"cebpf4jnsgd1na2vs0mg"},{"bike_id":"802beaf8-f029-4795-a529-7b9749a235c5","system_id":"levelo_inurba_marseille","lat":43.29796,"lon":5.38087,"is_reserved":false,"is_disabled":false,"rental_uris":{"android":"levelo://app?vid=802beaf8-f029-4795-a529-7b9749a235c5","ios":"levelo://app?vid=802beaf8-f029-4795-a529-7b9749a235c5"},"vehicle_type_id":"4","last_reported":1747328980,"current_range_meters":4000,"station_id":"ce4bgip2rcd13ifvqbb0","pricing_plan_id":"cebpf4jnsgd1na2vs0mg"},{"bike_id":"e7985839-2678-4d61-afa6-e4e4e42e2756","system_id":"levelo_inurba_marseille","lat":43.28616,"lon":5.3511,"is_reserved":false,"is_disabled":false,"rental_uris":{"android":"levelo://app?vid=e7985839-2678-4d61-afa6-e4e4e42e2756","ios":"levelo://app?vid=e7985839-2678-4d61-afa6-e4e4e42e2756"},"vehicle_type_id":"4","last_reported":1747328980,"current_range_meters":4000,"station_id":"ce4bhch2rcd13ifvqeug","pricing_plan_id":"cebpf4jnsgd1na2vs0mg"},{"bike_id":"b4b2c93d-74ca-401e-b6b1-f072b3d9244c","system_id":"levelo_inurba_marseille","lat":43.27843,"lon":5.39193,"is_reserved":false,"is_disabled":false,"rental_uris":{"android":"levelo://app?vid=b4b2c93d-74ca-401e-b6b1-f072b3d9244c","ios":"levelo://app?vid=b4b2c93d-74ca-401e-b6b1-f072b3d9244c"},"vehicle_type_id":"4","last_reported":1747328980,"current_range_meters":4000,"station_id":"ce4bhjp2rcd13ifvqga0","pricing_plan_id":"cebpf4jnsgd1na2vs0mg"},{"bike_id":"aec24788-fd23-4746-bb9c-8a61588b8e27","system_id":"levelo_inurba_marseille","lat":43.31754,"lon":5.39012,"is_reserved":false,"is_disabled":false,"rental_uris":{"android":"levelo://app?vid=aec24788-fd23-4746-bb9c-8a61588b8e27","ios":"levelo://app?vid=aec24788-fd23-4746-bb9c-8a61588b8e27"},"vehicle_type_id":"4","last_reported":1747328980,"current_range_meters":4000,"station_id":"ce4bhqp2rcd13ifvqhng","pricing_plan_id":"cebpf4jnsgd1na2vs0mg"},{"bike_id":"2094d6aa-5d25-4955-87f7-52e5157802cb","system_id":"levelo_inurba_marseille","lat":43.25119,"lon":5.40313,"is_reserved":false,"is_disabled":false,"rental_uris":{"android":"levelo://app?vid=2094d6aa-5d25-4955-87f7-52e5157802cb","ios":"levelo://app?vid=2094d6aa-5d25-4955-87f7-52e5157802cb"},"vehicle_type_id":"4","last_reported":1747328980,"current_range_meters":4400,"station_id":"ce4bhlh2rcd13ifvqgig","pricing_plan_id":"cebpf4jnsgd1na2vs0mg"},{"bike_id":"a1dc1686-bcd8-4ed0-b326-bc4877c1e14c","system_id":"levelo_inurba_marseille","lat":43.28071,"lon":5.39652,"is_reserved":false,"is_disabled":false,"rental_uris":{"android":"levelo://app?vid=a1dc1686-bcd8-4ed0-b326-bc4877c1e14c","ios":"levelo://app?vid=a1dc1686-bcd8-4ed0-b326-bc4877c1e14c"},"vehicle_type_id":"4","last_reported":1747328980,"current_range_meters":4400,"station_id":"ce4bho12rcd13ifvqh2g","pricing_plan_id":"cebpf4jnsgd1na2vs0mg"},{"bike_id":"368e2931-437b-4efb-a108-36288fc19e11","system_id":"levelo_inurba_marseille","lat":43.29058,"lon":5.37166,"is_reserved":false,"is_disabled":false,"rental_uris":{"android":"levelo://app?vid=368e2931-437b-4efb-a108-36288fc19e11","ios":"levelo://app?vid=368e2931-437b-4efb-a108-36288fc19e11"},"vehicle_type_id":"4","last_reported":1747328980,"current_range_meters":4800,"station_id":"ce4bh5p2rcd13ifvqe4g","pricing_plan_id":"cebpf4jnsgd1na2vs0mg"},{"bike_id":"d6457429-6cb4-4349-a843-732dcefdcfc8","system_id":"levelo_inurba_marseille","lat":43.246502,"lon":5.388878,"is_reserved":false,"is_disabled":false,"rental_uris":{"android":"levelo://app?vid=d6457429-6cb4-4349-a843-732dcefdcfc8","ios":"levelo://app?vid=d6457429-6cb4-4349-a843-732dcefdcfc8"},"vehicle_type_id":"4","last_reported":1747328980,"current_range_meters":4800,"station_id":"ce4bhg12rcd13ifvqf60","pricing_plan_id":"cebpf4jnsgd1na2vs0mg"},{"bike_id":"cbba5560-f67e-4e46-81c8-e819705c11a3","system_id":"levelo_inurba_marseille","lat":43.26222,"lon":5.40452,"is_reserved":false,"is_disabled":false,"rental_uris":{"android":"levelo://app?vid=cbba5560-f67e-4e46-81c8-e819705c11a3","ios":"levelo://app?vid=cbba5560-f67e-4e46-81c8-e819705c11a3"},"vehicle_type_id":"4","last_reported":1747328980,"current_range_meters":4800,"station_id":"ce4bhmh2rcd13ifvqgmg","pricing_plan_id":"cebpf4jnsgd1na2vs0mg"},{"bike_id":"238d7f52-41a9-4d4e-836b-955a6b2dfec8","system_id":"levelo_inurba_marseille","lat":43.28148,"lon":5.4264,"is_reserved":false,"is_disabled":false,"rental_uris":{"android":"levelo://app?vid=238d7f52-41a9-4d4e-836b-955a6b2dfec8","ios":"levelo://app?vid=238d7f52-41a9-4d4e-836b-955a6b2dfec8"},"vehicle_type_id":"4","last_reported":1747328980,"current_range_meters":4800,"station_id":"ce4bhnh2rcd13ifvqgug","pricing_plan_id":"cebpf4jnsgd1na2vs0mg"},{"bike_id":"4ec727a9-f01b-459e-8521-dff0b009d0da","system_id":"levelo_inurba_marseille","lat":43.28075,"lon":5.3966,"is_reserved":false,"is_disabled":false,"rental_uris":{"android":"levelo://app?vid=4ec727a9-f01b-459e-8521-dff0b009d0da","ios":"levelo://app?vid=4ec727a9-f01b-459e-8521-dff0b009d0da"},"vehicle_type_id":"4","last_reported":1747328980,"current_range_meters":4800,"station_id":"ce4bho12rcd13ifvqh2g","pricing_plan_id":"cebpf4jnsgd1na2vs0mg"},{"bike_id":"4080ec5a-6403-4764-88a5-a875c21a25da","system_id":"levelo_inurba_marseille","lat":43.28722,"lon":5.37938,"is_reserved":false,"is_disabled":false,"rental_uris":{"android":"levelo://app?vid=4080ec5a-6403-4764-88a5-a875c21a25da","ios":"levelo://app?vid=4080ec5a-6403-4764-88a5-a875c21a25da"},"vehicle_type_id":"4","last_reported":1747328980,"current_range_meters":5600,"station_id":"ce4bh9p2rcd13ifvqec0","pricing_plan_id":"cebpf4jnsgd1na2vs0mg"},{"bike_id":"d19b45e9-4bbf-4777-be7e-4389410a659a","system_id":"levelo_inurba_marseille","lat":43.28002,"lon":5.4002,"is_reserved":false,"is_disabled":false,"rental_uris":{"android":"levelo://app?vid=d19b45e9-4bbf-4777-be7e-4389410a659a","ios":"levelo://app?vid=d19b45e9-4bbf-4777-be7e-4389410a659a"},"vehicle_type_id":"4","last_reported":1747328980,"current_range_meters":5600,"station_id":"ce4bho92rcd13ifvqh4g","pricing_plan_id":"cebpf4jnsgd1na2vs0mg"},{"bike_id":"16b0e1e4-4e2b-4036-9819-eb4c693f4bf6","system_id":"levelo_inurba_marseille","lat":43.31863,"lon":5.37637,"is_reserved":false,"is_disabled":false,"rental_uris":{"android":"levelo://app?vid=16b0e1e4-4e2b-4036-9819-eb4c693f4bf6","ios":"levelo://app?vid=16b0e1e4-4e2b-4036-9819-eb4c693f4bf6"},"vehicle_type_id":"4","last_reported":1747328980,"current_range_meters":6000,"station_id":"","pricing_plan_id":"cebpf4jnsgd1na2vs0mg"},{"bike_id":"e5c6e2fe-a072-4a17-88fe-23207f7eb982","system_id":"levelo_inurba_marseille","lat":43.28616,"lon":5.35104,"is_reserved":false,"is_disabled":false,"rental_uris":{"android":"levelo://app?vid=e5c6e2fe-a072-4a17-88fe-23207f7eb982","ios":"levelo://app?vid=e5c6e2fe-a072-4a17-88fe-23207f7eb982"},"vehicle_type_id":"4","last_reported":1747328980,"current_range_meters":6000,"station_id":"ce4bhch2rcd13ifvqeug","pricing_plan_id":"cebpf4jnsgd1na2vs0mg"},{"bike_id":"cb5091bc-af7b-44fd-82a4-22e56ab4718a","system_id":"levelo_inurba_marseille","lat":43.27552,"lon":5.38432,"is_reserved":false,"is_disabled":false,"rental_uris":{"android":"levelo://app?vid=cb5091bc-af7b-44fd-82a4-22e56ab4718a","ios":"levelo://app?vid=cb5091bc-af7b-44fd-82a4-22e56ab4718a"},"vehicle_type_id":"4","last_reported":1747328980,"current_range_meters":6000,"station_id":"ce4bhh92rcd13ifvqfi0","pricing_plan_id":"cebpf4jnsgd1na2vs0mg"},{"bike_id":"2a352e45-4e11-423b-905c-58eb3a5f3b68","system_id":"levelo_inurba_marseille","lat":43.24171,"lon":5.39723,"is_reserved":false,"is_disabled":false,"rental_uris":{"android":"levelo://app?vid=2a352e45-4e11-423b-905c-58eb3a5f3b68","ios":"levelo://app?vid=2a352e45-4e11-423b-905c-58eb3a5f3b68"},"vehicle_type_id":"4","last_reported":1747328980,"current_range_meters":6000,"station_id":"ce4bhn12rcd13ifvqgpg","pricing_plan_id":"cebpf4jnsgd1na2vs0mg"},{"bike_id":"2d868c7d-1773-4908-befa-cd0aaed09d96","system_id":"levelo_inurba_marseille","lat":43.32365,"lon":5.3888,"is_reserved":false,"is_disabled":false,"rental_uris":{"android":"levelo://app?vid=2d868c7d-1773-4908-befa-cd0aaed09d96","ios":"levelo://app?vid=2d868c7d-1773-4908-befa-cd0aaed09d96"},"vehicle_type_id":"4","last_reported":1747328980,"current_range_meters":6000,"station_id":"ce4bhqp2rcd13ifvqhog","pricing_plan_id":"cebpf4jnsgd1na2vs0mg"},{"bike_id":"0ab059e7-b8c2-4f48-86f6-9565a30a3133","system_id":"levelo_inurba_marseille","lat":43.30732,"lon":5.4245,"is_reserved":false,"is_disabled":false,"rental_uris":{"android":"levelo://app?vid=0ab059e7-b8c2-4f48-86f6-9565a30a3133","ios":"levelo://app?vid=0ab059e7-b8c2-4f48-86f6-9565a30a3133"},"vehicle_type_id":"4","last_reported":1747328980,"current_range_meters":6000,"station_id":"st_cvj6ca6bvosntc0bfgr0","pricing_plan_id":"cebpf4jnsgd1na2vs0mg"},{"bike_id":"9a2afe38-0551-444e-adab-0aa037f17d1c","system_id":"levelo_inurba_marseille","lat":43.31713,"lon":5.3776,"is_reserved":false,"is_disabled":false,"rental_uris":{"android":"levelo://app?vid=9a2afe38-0551-444e-adab-0aa037f17d1c","ios":"levelo://app?vid=9a2afe38-0551-444e-adab-0aa037f17d1c"},"vehicle_type_id":"4","last_reported":1747328980,"current_range_meters":6400,"station_id":"ce4bgth2rcd13ifvqch0","pricing_plan_id":"cebpf4jnsgd1na2vs0mg"},{"bike_id":"b7d169f3-601c-48f9-ab08-c9f01252866f","system_id":"levelo_inurba_marseille","lat":43.28462,"lon":5.35883,"is_reserved":false,"is_disabled":false,"rental_uris":{"android":"levelo://app?vid=b7d169f3-601c-48f9-ab08-c9f01252866f","ios":"levelo://app?vid=b7d169f3-601c-48f9-ab08-c9f01252866f"},"vehicle_type_id":"4","last_reported":1747328980,"current_range_meters":6400,"station_id":"ce4bhah2rcd13ifvqei0","pricing_plan_id":"cebpf4jnsgd1na2vs0mg"},{"bike_id":"d4d78516-1638-49f2-bf28-242cface3a85","system_id":"levelo_inurba_marseille","lat":43.27371,"lon":5.36242,"is_reserved":false,"is_disabled":false,"rental_uris":{"android":"levelo://app?vid=d4d78516-1638-49f2-bf28-242cface3a85","ios":"levelo://app?vid=d4d78516-1638-49f2-bf28-242cface3a85"},"vehicle_type_id":"4","last_reported":1747328980,"current_range_meters":6400,"station_id":"ce4bhbh2rcd13ifvqeo0","pricing_plan_id":"cebpf4jnsgd1na2vs0mg"},{"bike_id":"c6eba4b5-3db0-4d42-805c-48eeee3d27c8","system_id":"levelo_inurba_marseille","lat":43.292215,"lon":5.36056,"is_reserved":false,"is_disabled":false,"rental_uris":{"android":"levelo://app?vid=c6eba4b5-3db0-4d42-805c-48eeee3d27c8","ios":"levelo://app?vid=c6eba4b5-3db0-4d42-805c-48eeee3d27c8"},"vehicle_type_id":"4","last_reported":1747328980,"current_range_meters":6400,"station_id":"ce4bhbh2rcd13ifvqeqg","pricing_plan_id":"cebpf4jnsgd1na2vs0mg"},{"bike_id":"78c865d5-26bb-42e7-b10c-3ebc7922d3e1","system_id":"levelo_inurba_marseille","lat":43.261889,"lon":5.374504,"is_reserved":false,"is_disabled":false,"rental_uris":{"android":"levelo://app?vid=78c865d5-26bb-42e7-b10c-3ebc7922d3e1","ios":"levelo://app?vid=78c865d5-26bb-42e7-b10c-3ebc7922d3e1"},"vehicle_type_id":"4","last_reported":1747328980,"current_range_meters":6400,"station_id":"ce4bhgp2rcd13ifvqfc0","pricing_plan_id":"cebpf4jnsgd1na2vs0mg"},{"bike_id":"e9cc3c08-07b9-4920-a740-789ca341cd23","system_id":"levelo_inurba_marseille","lat":43.25578,"lon":5.38229,"is_reserved":false,"is_disabled":false,"rental_uris":{"android":"levelo://app?vid=e9cc3c08-07b9-4920-a740-789ca341cd23","ios":"levelo://app?vid=e9cc3c08-07b9-4920-a740-789ca341cd23"},"vehicle_type_id":"4","last_reported":1747328980,"current_range_meters":6400,"station_id":"ce4bhih2rcd13ifvqfs0","pricing_plan_id":"cebpf4jnsgd1na2vs0mg"},{"bike_id":"815d1090-4e12-4d7f-8b73-b3d3852bd1f1","system_id":"levelo_inurba_marseille","lat":43.25084,"lon":5.39524,"is_reserved":false,"is_disabled":false,"rental_uris":{"android":"levelo://app?vid=815d1090-4e12-4d7f-8b73-b3d3852bd1f1","ios":"levelo://app?vid=815d1090-4e12-4d7f-8b73-b3d3852bd1f1"},"vehicle_type_id":"4","last_reported":1747328980,"current_range_meters":6400,"station_id":"ce4bhm12rcd13ifvqgkg","pricing_plan_id":"cebpf4jnsgd1na2vs0mg"},{"bike_id":"4f9c9436-24c0-48ed-aa5a-79e34271c11c","system_id":"levelo_inurba_marseille","lat":43.30648,"lon":5.40103,"is_reserved":false,"is_disabled":false,"rental_uris":{"android":"levelo://app?vid=4f9c9436-24c0-48ed-aa5a-79e34271c11c","ios":"levelo://app?vid=4f9c9436-24c0-48ed-aa5a-79e34271c11c"},"vehicle_type_id":"4","last_reported":1747328980,"current_range_meters":6800,"station_id":"ce4bh112rcd13ifvqda0","pricing_plan_id":"cebpf4jnsgd1na2vs0mg"},{"bike_id":"aed46a3a-86a2-4005-bbf3-bc4a73c4234c","system_id":"levelo_inurba_marseille","lat":43.2903,"lon":5.38653,"is_reserved":false,"is_disabled":false,"rental_uris":{"android":"levelo://app?vid=aed46a3a-86a2-4005-bbf3-bc4a73c4234c","ios":"levelo://app?vid=aed46a3a-86a2-4005-bbf3-bc4a73c4234c"},"vehicle_type_id":"4","last_reported":1747328980,"current_range_meters":6800,"station_id":"ce4bh4p2rcd13ifvqe0g","pricing_plan_id":"cebpf4jnsgd1na2vs0mg"},{"bike_id":"5baa7772-e2fe-4389-a345-745b93ef1034","system_id":"levelo_inurba_marseille","lat":43.28451,"lon":5.35891,"is_reserved":false,"is_disabled":false,"rental_uris":{"android":"levelo://app?vid=5baa7772-e2fe-4389-a345-745b93ef1034","ios":"levelo://app?vid=5baa7772-e2fe-4389-a345-745b93ef1034"},"vehicle_type_id":"4","last_reported":1747328980,"current_range_meters":6800,"station_id":"ce4bhah2rcd13ifvqei0","pricing_plan_id":"cebpf4jnsgd1na2vs0mg"},{"bike_id":"486afbdf-7a7b-486f-8589-e9d2eeef6dda","system_id":"levelo_inurba_marseille","lat":43.27373,"lon":5.36246,"is_reserved":false,"is_disabled":false,"rental_uris":{"android":"levelo://app?vid=486afbdf-7a7b-486f-8589-e9d2eeef6dda","ios":"levelo://app?vid=486afbdf-7a7b-486f-8589-e9d2eeef6dda"},"vehicle_type_id":"4","last_reported":1747328980,"current_range_meters":6800,"station_id":"ce4bhbh2rcd13ifvqeo0","pricing_plan_id":"cebpf4jnsgd1na2vs0mg"},{"bike_id":"91407e0d-f816-4dfd-ae17-6383ee21b0db","system_id":"levelo_inurba_marseille","lat":43.28614,"lon":5.35105,"is_reserved":false,"is_disabled":false,"rental_uris":{"android":"levelo://app?vid=91407e0d-f816-4dfd-ae17-6383ee21b0db","ios":"levelo://app?vid=91407e0d-f816-4dfd-ae17-6383ee21b0db"},"vehicle_type_id":"4","last_reported":1747328980,"current_range_meters":6800,"station_id":"ce4bhch2rcd13ifvqeug","pricing_plan_id":"cebpf4jnsgd1na2vs0mg"},{"bike_id":"0879446b-b8ed-4b78-99ee-34328427e22f","system_id":"levelo_inurba_marseille","lat":43.31706,"lon":5.37729,"is_reserved":false,"is_disabled":false,"rental_uris":{"android":"levelo://app?vid=0879446b-b8ed-4b78-99ee-34328427e22f","ios":"levelo://app?vid=0879446b-b8ed-4b78-99ee-34328427e22f"},"vehicle_type_id":"4","last_reported":1747328980,"current_range_meters":7200,"station_id":"ce4bgth2rcd13ifvqch0","pricing_plan_id":"cebpf4jnsgd1na2vs0mg"},{"bike_id":"a3ed8666-bb91-4163-9214-48ab0a202124","system_id":"levelo_inurba_marseille","lat":43.28457,"lon":5.35891,"is_reserved":false,"is_disabled":false,"rental_uris":{"android":"levelo://app?vid=a3ed8666-bb91-4163-9214-48ab0a202124","ios":"levelo://app?vid=a3ed8666-bb91-4163-9214-48ab0a202124"},"vehicle_type_id":"4","last_reported":1747328980,"current_range_meters":7200,"station_id":"ce4bhah2rcd13ifvqei0","pricing_plan_id":"cebpf4jnsgd1na2vs0mg"},{"bike_id":"d794e1d5-9d96-40e7-8b9d-75cd5dbd478f","system_id":"levelo_inurba_marseille","lat":43.26203,"lon":5.37928,"is_reserved":false,"is_disabled":false,"rental_uris":{"android":"levelo://app?vid=d794e1d5-9d96-40e7-8b9d-75cd5dbd478f","ios":"levelo://app?vid=d794e1d5-9d96-40e7-8b9d-75cd5dbd478f"},"vehicle_type_id":"4","last_reported":1747328980,"current_range_meters":7200,"station_id":"ce4bhjp2rcd13ifvqg90","pricing_plan_id":"cebpf4jnsgd1na2vs0mg"},{"bike_id":"eef43706-5283-49d8-be22-52e3e8ee5770","system_id":"levelo_inurba_marseille","lat":43.28444,"lon":5.39205,"is_reserved":false,"is_disabled":false,"rental_uris":{"android":"levelo://app?vid=eef43706-5283-49d8-be22-52e3e8ee5770","ios":"levelo://app?vid=eef43706-5283-49d8-be22-52e3e8ee5770"},"vehicle_type_id":"4","last_reported":1747328980,"current_range_meters":7200,"station_id":"ce4bhoh2rcd13ifvqh5g","pricing_plan_id":"cebpf4jnsgd1na2vs0mg"},{"bike_id":"e3faef6f-635a-4b6b-b2b3-c0b918604df6","system_id":"levelo_inurba_marseille","lat":43.299129,"lon":5.436621,"is_reserved":false,"is_disabled":false,"rental_uris":{"android":"levelo://app?vid=e3faef6f-635a-4b6b-b2b3-c0b918604df6","ios":"levelo://app?vid=e3faef6f-635a-4b6b-b2b3-c0b918604df6"},"vehicle_type_id":"4","last_reported":1747328980,"current_range_meters":7200,"station_id":"ce4bhpp2rcd13ifvqhfg","pricing_plan_id":"cebpf4jnsgd1na2vs0mg"},{"bike_id":"abbde732-55b3-44e2-a8d9-bd07ac2f0c10","system_id":"levelo_inurba_marseille","lat":43.23058,"lon":5.35488,"is_reserved":false,"is_disabled":false,"rental_uris":{"android":"levelo://app?vid=abbde732-55b3-44e2-a8d9-bd07ac2f0c10","ios":"levelo://app?vid=abbde732-55b3-44e2-a8d9-bd07ac2f0c10"},"vehicle_type_id":"4","last_reported":1747328980,"current_range_meters":8000,"station_id":"","pricing_plan_id":"cebpf4jnsgd1na2vs0mg"},{"bike_id":"ab1db8f0-a780-49dd-b580-b37ae7fb27cb","system_id":"levelo_inurba_marseille","lat":43.29526,"lon":5.38536,"is_reserved":false,"is_disabled":false,"rental_uris":{"android":"levelo://app?vid=ab1db8f0-a780-49dd-b580-b37ae7fb27cb","ios":"levelo://app?vid=ab1db8f0-a780-49dd-b580-b37ae7fb27cb"},"vehicle_type_id":"4","last_reported":1747328980,"current_range_meters":8000,"station_id":"ce4bgih2rcd13ifvqba0","pricing_plan_id":"cebpf4jnsgd1na2vs0mg"},{"bike_id":"634a3426-8c81-481c-86bb-8a57d68d8b15","system_id":"levelo_inurba_marseille","lat":43.28722,"lon":5.37934,"is_reserved":false,"is_disabled":false,"rental_uris":{"android":"levelo://app?vid=634a3426-8c81-481c-86bb-8a57d68d8b15","ios":"levelo://app?vid=634a3426-8c81-481c-86bb-8a57d68d8b15"},"vehicle_type_id":"4","last_reported":1747328980,"current_range_meters":8000,"station_id":"ce4bh9p2rcd13ifvqec0","pricing_plan_id":"cebpf4jnsgd1na2vs0mg"},{"bike_id":"1d774fd4-d9fe-42e0-b701-37196646cbb9","system_id":"levelo_inurba_marseille","lat":43.28418,"lon":5.35009,"is_reserved":false,"is_disabled":false,"rental_uris":{"android":"levelo://app?vid=1d774fd4-d9fe-42e0-b701-37196646cbb9","ios":"levelo://app?vid=1d774fd4-d9fe-42e0-b701-37196646cbb9"},"vehicle_type_id":"4","last_reported":1747328980,"current_range_meters":8000,"station_id":"ce4bhbh2rcd13ifvqepg","pricing_plan_id":"cebpf4jnsgd1na2vs0mg"},{"bike_id":"dc219803-a80a-4559-a109-9cc24d6562b5","system_id":"levelo_inurba_marseille","lat":43.286105,"lon":5.35102,"is_reserved":false,"is_disabled":false,"rental_uris":{"android":"levelo://app?vid=dc219803-a80a-4559-a109-9cc24d6562b5","ios":"levelo://app?vid=dc219803-a80a-4559-a109-9cc24d6562b5"},"vehicle_type_id":"4","last_reported":1747328980,"current_range_meters":8000,"station_id":"ce4bhch2rcd13ifvqeug","pricing_plan_id":"cebpf4jnsgd1na2vs0mg"},{"bike_id":"48c52cf1-b798-4745-b1e3-8174aa8dfdef","system_id":"levelo_inurba_marseille","lat":43.2717,"lon":5.40991,"is_reserved":false,"is_disabled":false,"rental_uris":{"android":"levelo://app?vid=48c52cf1-b798-4745-b1e3-8174aa8dfdef","ios":"levelo://app?vid=48c52cf1-b798-4745-b1e3-8174aa8dfdef"},"vehicle_type_id":"4","last_reported":1747328980,"current_range_meters":8000,"station_id":"ce4bhl12rcd13ifvqgf0","pricing_plan_id":"cebpf4jnsgd1na2vs0mg"},{"bike_id":"2c6d0412-351e-4625-b56a-3899483bad43","system_id":"levelo_inurba_marseille","lat":43.28614,"lon":5.3706,"is_reserved":false,"is_disabled":false,"rental_uris":{"android":"levelo://app?vid=2c6d0412-351e-4625-b56a-3899483bad43","ios":"levelo://app?vid=2c6d0412-351e-4625-b56a-3899483bad43"},"vehicle_type_id":"4","last_reported":1747328980,"current_range_meters":8000,"station_id":"ce4bht12rcd13ifvqi60","pricing_plan_id":"cebpf4jnsgd1na2vs0mg"},{"bike_id":"28d20e7b-66cc-47f6-b7ce-266c97196420","system_id":"levelo_inurba_marseille","lat":43.268117,"lon":5.402557,"is_reserved":false,"is_disabled":false,"rental_uris":{"android":"levelo://app?vid=28d20e7b-66cc-47f6-b7ce-266c97196420","ios":"levelo://app?vid=28d20e7b-66cc-47f6-b7ce-266c97196420"},"vehicle_type_id":"4","last_reported":1747328980,"current_range_meters":8000,"station_id":"ce501612rcd8frsf0b60","pricing_plan_id":"cebpf4jnsgd1na2vs0mg"},{"bike_id":"3af32192-c016-45af-9f47-161010c71733","system_id":"levelo_inurba_marseille","lat":43.29531,"lon":5.3854,"is_reserved":false,"is_disabled":false,"rental_uris":{"android":"levelo://app?vid=3af32192-c016-45af-9f47-161010c71733","ios":"levelo://app?vid=3af32192-c016-45af-9f47-161010c71733"},"vehicle_type_id":"4","last_reported":1747328980,"current_range_meters":8400,"station_id":"ce4bgih2rcd13ifvqba0","pricing_plan_id":"cebpf4jnsgd1na2vs0mg"},{"bike_id":"d69c8012-e8a3-4dd1-b873-c5b0eb8cd59e","system_id":"levelo_inurba_marseille","lat":43.29694,"lon":5.37289,"is_reserved":false,"is_disabled":false,"rental_uris":{"android":"levelo://app?vid=d69c8012-e8a3-4dd1-b873-c5b0eb8cd59e","ios":"levelo://app?vid=d69c8012-e8a3-4dd1-b873-c5b0eb8cd59e"},"vehicle_type_id":"4","last_reported":1747328980,"current_range_meters":8400,"station_id":"ce4bgk12rcd13ifvqbj0","pricing_plan_id":"cebpf4jnsgd1na2vs0mg"},{"bike_id":"39b6ac28-429d-4387-b591-17a6722af7c8","system_id":"levelo_inurba_marseille","lat":43.29418,"lon":5.38625,"is_reserved":false,"is_disabled":false,"rental_uris":{"android":"levelo://app?vid=39b6ac28-429d-4387-b591-17a6722af7c8","ios":"levelo://app?vid=39b6ac28-429d-4387-b591-17a6722af7c8"},"vehicle_type_id":"4","last_reported":1747328980,"current_range_meters":8400,"station_id":"ce4bh2h2rcd13ifvqdh0","pricing_plan_id":"cebpf4jnsgd1na2vs0mg"},{"bike_id":"2e682a4e-fdbc-4953-bdc6-67fc7dfd0439","system_id":"levelo_inurba_marseille","lat":43.28036,"lon":5.369393,"is_reserved":false,"is_disabled":false,"rental_uris":{"android":"levelo://app?vid=2e682a4e-fdbc-4953-bdc6-67fc7dfd0439","ios":"levelo://app?vid=2e682a4e-fdbc-4953-bdc6-67fc7dfd0439"},"vehicle_type_id":"4","last_reported":1747328980,"current_range_meters":8400,"station_id":"ce4bha12rcd13ifvqef0","pricing_plan_id":"cebpf4jnsgd1na2vs0mg"},{"bike_id":"e64d0eef-59d1-420e-8ebf-8a9b7465588f","system_id":"levelo_inurba_marseille","lat":43.28478,"lon":5.3589,"is_reserved":false,"is_disabled":false,"rental_uris":{"android":"levelo://app?vid=e64d0eef-59d1-420e-8ebf-8a9b7465588f","ios":"levelo://app?vid=e64d0eef-59d1-420e-8ebf-8a9b7465588f"},"vehicle_type_id":"4","last_reported":1747328980,"current_range_meters":8400,"station_id":"ce4bhah2rcd13ifvqei0","pricing_plan_id":"cebpf4jnsgd1na2vs0mg"},{"bike_id":"0c4d88aa-d524-4ae2-bf44-37a32f7f889d","system_id":"levelo_inurba_marseille","lat":43.28611,"lon":5.351,"is_reserved":false,"is_disabled":false,"rental_uris":{"android":"levelo://app?vid=0c4d88aa-d524-4ae2-bf44-37a32f7f889d","ios":"levelo://app?vid=0c4d88aa-d524-4ae2-bf44-37a32f7f889d"},"vehicle_type_id":"4","last_reported":1747328980,"current_range_meters":8400,"station_id":"ce4bhch2rcd13ifvqeug","pricing_plan_id":"cebpf4jnsgd1na2vs0mg"},{"bike_id":"a296ae11-7677-48e3-9422-191e4a7c33ff","system_id":"levelo_inurba_marseille","lat":43.32336,"lon":5.4062,"is_reserved":false,"is_disabled":false,"rental_uris":{"android":"levelo://app?vid=a296ae11-7677-48e3-9422-191e4a7c33ff","ios":"levelo://app?vid=a296ae11-7677-48e3-9422-191e4a7c33ff"},"vehicle_type_id":"4","last_reported":1747328980,"current_range_meters":8400,"station_id":"ce4bhq92rcd13ifvqhjg","pricing_plan_id":"cebpf4jnsgd1na2vs0mg"},{"bike_id":"b73a5a19-fa9d-4d06-91b9-20e2fa6e5973","system_id":"levelo_inurba_marseille","lat":43.28605,"lon":5.37062,"is_reserved":false,"is_disabled":false,"rental_uris":{"android":"levelo://app?vid=b73a5a19-fa9d-4d06-91b9-20e2fa6e5973","ios":"levelo://app?vid=b73a5a19-fa9d-4d06-91b9-20e2fa6e5973"},"vehicle_type_id":"4","last_reported":1747328980,"current_range_meters":8400,"station_id":"ce4bht12rcd13ifvqi60","pricing_plan_id":"cebpf4jnsgd1na2vs0mg"},{"bike_id":"a102770f-a58b-42c1-9c8b-97c218748081","system_id":"levelo_inurba_marseille","lat":43.301543,"lon":5.38768,"is_reserved":false,"is_disabled":false,"rental_uris":{"android":"levelo://app?vid=a102770f-a58b-42c1-9c8b-97c218748081","ios":"levelo://app?vid=a102770f-a58b-42c1-9c8b-97c218748081"},"vehicle_type_id":"4","last_reported":1747328980,"current_range_meters":8800,"station_id":"ce4bghh2rcd13ifvqb60","pricing_plan_id":"cebpf4jnsgd1na2vs0mg"},{"bike_id":"17a8dab2-c26e-4b21-aba1-f468aa9b3f43","system_id":"levelo_inurba_marseille","lat":43.27354,"lon":5.3626,"is_reserved":false,"is_disabled":false,"rental_uris":{"android":"levelo://app?vid=17a8dab2-c26e-4b21-aba1-f468aa9b3f43","ios":"levelo://app?vid=17a8dab2-c26e-4b21-aba1-f468aa9b3f43"},"vehicle_type_id":"4","last_reported":1747328980,"current_range_meters":8800,"station_id":"ce4bhbh2rcd13ifvqeo0","pricing_plan_id":"cebpf4jnsgd1na2vs0mg"},{"bike_id":"2d37f806-56b2-4d18-8138-8e9deece46bd","system_id":"levelo_inurba_marseille","lat":43.28608,"lon":5.35109,"is_reserved":false,"is_disabled":false,"rental_uris":{"android":"levelo://app?vid=2d37f806-56b2-4d18-8138-8e9deece46bd","ios":"levelo://app?vid=2d37f806-56b2-4d18-8138-8e9deece46bd"},"vehicle_type_id":"4","last_reported":1747328980,"current_range_meters":8800,"station_id":"ce4bhch2rcd13ifvqeug","pricing_plan_id":"cebpf4jnsgd1na2vs0mg"},{"bike_id":"7cad8bbf-afe9-4767-8543-3e633fd367b9","system_id":"levelo_inurba_marseille","lat":43.278106,"lon":5.407117,"is_reserved":false,"is_disabled":false,"rental_uris":{"android":"levelo://app?vid=7cad8bbf-afe9-4767-8543-3e633fd367b9","ios":"levelo://app?vid=7cad8bbf-afe9-4767-8543-3e633fd367b9"},"vehicle_type_id":"4","last_reported":1747328980,"current_range_meters":8800,"station_id":"ce4bhnh2rcd13ifvqgtg","pricing_plan_id":"cebpf4jnsgd1na2vs0mg"},{"bike_id":"3bbd92f2-6806-408b-a244-9d40163b65cd","system_id":"levelo_inurba_marseille","lat":43.29418,"lon":5.3861,"is_reserved":false,"is_disabled":false,"rental_uris":{"android":"levelo://app?vid=3bbd92f2-6806-408b-a244-9d40163b65cd","ios":"levelo://app?vid=3bbd92f2-6806-408b-a244-9d40163b65cd"},"vehicle_type_id":"4","last_reported":1747328980,"current_range_meters":9200,"station_id":"ce4bh2h2rcd13ifvqdh0","pricing_plan_id":"cebpf4jnsgd1na2vs0mg"},{"bike_id":"79c7c75c-06c8-4b67-ba55-9c002664cae0","system_id":"levelo_inurba_marseille","lat":43.26561,"lon":5.39022,"is_reserved":false,"is_disabled":false,"rental_uris":{"android":"levelo://app?vid=79c7c75c-06c8-4b67-ba55-9c002664cae0","ios":"levelo://app?vid=79c7c75c-06c8-4b67-ba55-9c002664cae0"},"vehicle_type_id":"4","last_reported":1747328980,"current_range_meters":9200,"station_id":"ce4bhe12rcd13ifvqf30","pricing_plan_id":"cebpf4jnsgd1na2vs0mg"},{"bike_id":"414d56c9-f1a7-4e20-9c42-836e3990fabb","system_id":"levelo_inurba_marseille","lat":43.22927,"lon":5.35379,"is_reserved":false,"is_disabled":false,"rental_uris":{"android":"levelo://app?vid=414d56c9-f1a7-4e20-9c42-836e3990fabb","ios":"levelo://app?vid=414d56c9-f1a7-4e20-9c42-836e3990fabb"},"vehicle_type_id":"4","last_reported":1747328980,"current_range_meters":9200,"station_id":"cpo3532slgdg3j2ikp40","pricing_plan_id":"cebpf4jnsgd1na2vs0mg"},{"bike_id":"55697a48-9aaa-468a-9813-6afc6f45d640","system_id":"levelo_inurba_marseille","lat":43.2761,"lon":5.36134,"is_reserved":false,"is_disabled":false,"rental_uris":{"android":"levelo://app?vid=55697a48-9aaa-468a-9813-6afc6f45d640","ios":"levelo://app?vid=55697a48-9aaa-468a-9813-6afc6f45d640"},"vehicle_type_id":"4","last_reported":1747328980,"current_range_meters":9600,"station_id":"ce4bgj92rcd13ifvqbe0","pricing_plan_id":"cebpf4jnsgd1na2vs0mg"},{"bike_id":"79239c75-6649-441e-a90b-b41389ba1856","system_id":"levelo_inurba_marseille","lat":43.29254,"lon":5.40898,"is_reserved":false,"is_disabled":false,"rental_uris":{"android":"levelo://app?vid=79239c75-6649-441e-a90b-b41389ba1856","ios":"levelo://app?vid=79239c75-6649-441e-a90b-b41389ba1856"},"vehicle_type_id":"4","last_reported":1747328980,"current_range_meters":9600,"station_id":"ce4bh192rcd13ifvqdc0","pricing_plan_id":"cebpf4jnsgd1na2vs0mg"},{"bike_id":"eef35790-ff61-4ee3-b58c-7aeb97b488a4","system_id":"levelo_inurba_marseille","lat":43.26062,"lon":5.39396,"is_reserved":false,"is_disabled":false,"rental_uris":{"android":"levelo://app?vid=eef35790-ff61-4ee3-b58c-7aeb97b488a4","ios":"levelo://app?vid=eef35790-ff61-4ee3-b58c-7aeb97b488a4"},"vehicle_type_id":"4","last_reported":1747328980,"current_range_meters":9600,"station_id":"ce4bhh92rcd13ifvqfj0","pricing_plan_id":"cebpf4jnsgd1na2vs0mg"},{"bike_id":"8e89d319-3aa4-4daf-a5a7-abe665193adb","system_id":"levelo_inurba_marseille","lat":43.25082,"lon":5.39521,"is_reserved":false,"is_disabled":false,"rental_uris":{"android":"levelo://app?vid=8e89d319-3aa4-4daf-a5a7-abe665193adb","ios":"levelo://app?vid=8e89d319-3aa4-4daf-a5a7-abe665193adb"},"vehicle_type_id":"4","last_reported":1747328980,"current_range_meters":9600,"station_id":"ce4bhm12rcd13ifvqgkg","pricing_plan_id":"cebpf4jnsgd1na2vs0mg"},{"bike_id":"0077f398-56b6-43bb-8eeb-9798d08de05c","system_id":"levelo_inurba_marseille","lat":43.30948,"lon":5.37261,"is_reserved":false,"is_disabled":false,"rental_uris":{"android":"levelo://app?vid=0077f398-56b6-43bb-8eeb-9798d08de05c","ios":"levelo://app?vid=0077f398-56b6-43bb-8eeb-9798d08de05c"},"vehicle_type_id":"4","last_reported":1747328980,"current_range_meters":10000,"station_id":"","pricing_plan_id":"cebpf4jnsgd1na2vs0mg"},{"bike_id":"475a0baf-0176-427b-83bf-7567ee21e493","system_id":"levelo_inurba_marseille","lat":43.28613,"lon":5.35106,"is_reserved":false,"is_disabled":false,"rental_uris":{"android":"levelo://app?vid=475a0baf-0176-427b-83bf-7567ee21e493","ios":"levelo://app?vid=475a0baf-0176-427b-83bf-7567ee21e493"},"vehicle_type_id":"4","last_reported":1747328980,"current_range_meters":10000,"station_id":"ce4bhch2rcd13ifvqeug","pricing_plan_id":"cebpf4jnsgd1na2vs0mg"},{"bike_id":"31abc0c3-2e69-4f41-97be-c4b688974d25","system_id":"levelo_inurba_marseille","lat":43.26203,"lon":5.37927,"is_reserved":false,"is_disabled":false,"rental_uris":{"android":"levelo://app?vid=31abc0c3-2e69-4f41-97be-c4b688974d25","ios":"levelo://app?vid=31abc0c3-2e69-4f41-97be-c4b688974d25"},"vehicle_type_id":"4","last_reported":1747328980,"current_range_meters":10000,"station_id":"ce4bhjp2rcd13ifvqg90","pricing_plan_id":"cebpf4jnsgd1na2vs0mg"},{"bike_id":"d45e9c2c-3528-48af-a2cf-a850799df807","system_id":"levelo_inurba_marseille","lat":43.27813,"lon":5.40716,"is_reserved":false,"is_disabled":false,"rental_uris":{"android":"levelo://app?vid=d45e9c2c-3528-48af-a2cf-a850799df807","ios":"levelo://app?vid=d45e9c2c-3528-48af-a2cf-a850799df807"},"vehicle_type_id":"4","last_reported":1747328980,"current_range_meters":10000,"station_id":"ce4bhnh2rcd13ifvqgtg","pricing_plan_id":"cebpf4jnsgd1na2vs0mg"},{"bike_id":"8afdc07e-85e1-4d02-9b84-797b4373b2a1","system_id":"levelo_inurba_marseille","lat":43.27944,"lon":5.41043,"is_reserved":false,"is_disabled":false,"rental_uris":{"android":"levelo://app?vid=8afdc07e-85e1-4d02-9b84-797b4373b2a1","ios":"levelo://app?vid=8afdc07e-85e1-4d02-9b84-797b4373b2a1"},"vehicle_type_id":"4","last_reported":1747328980,"current_range_meters":10000,"station_id":"ce4bhnp2rcd13ifvqh0g","pricing_plan_id":"cebpf4jnsgd1na2vs0mg"},{"bike_id":"3a9cca28-102a-49eb-8d61-5ffeaa3be282","system_id":"levelo_inurba_marseille","lat":43.31722,"lon":5.42408,"is_reserved":false,"is_disabled":false,"rental_uris":{"android":"levelo://app?vid=3a9cca28-102a-49eb-8d61-5ffeaa3be282","ios":"levelo://app?vid=3a9cca28-102a-49eb-8d61-5ffeaa3be282"},"vehicle_type_id":"4","last_reported":1747328980,"current_range_meters":10000,"station_id":"ce4bhp92rcd13ifvqhbg","pricing_plan_id":"cebpf4jnsgd1na2vs0mg"},{"bike_id":"8c7308bf-84fd-4edb-9b86-07fbeaf5e51b","system_id":"levelo_inurba_marseille","lat":43.3172,"lon":5.424,"is_reserved":false,"is_disabled":false,"rental_uris":{"android":"levelo://app?vid=8c7308bf-84fd-4edb-9b86-07fbeaf5e51b","ios":"levelo://app?vid=8c7308bf-84fd-4edb-9b86-07fbeaf5e51b"},"vehicle_type_id":"4","last_reported":1747328980,"current_range_meters":10000,"station_id":"ce4bhp92rcd13ifvqhbg","pricing_plan_id":"cebpf4jnsgd1na2vs0mg"},{"bike_id":"0f3d78b5-d474-45ec-974c-32fc1c93c162","system_id":"levelo_inurba_marseille","lat":43.32365,"lon":5.38879,"is_reserved":false,"is_disabled":false,"rental_uris":{"android":"levelo://app?vid=0f3d78b5-d474-45ec-974c-32fc1c93c162","ios":"levelo://app?vid=0f3d78b5-d474-45ec-974c-32fc1c93c162"},"vehicle_type_id":"4","last_reported":1747328980,"current_range_meters":10000,"station_id":"ce4bhqp2rcd13ifvqhog","pricing_plan_id":"cebpf4jnsgd1na2vs0mg"},{"bike_id":"4584eb39-29cf-45eb-b66e-032b7736feb1","system_id":"levelo_inurba_marseille","lat":43.236127,"lon":5.361772,"is_reserved":false,"is_disabled":false,"rental_uris":{"android":"levelo://app?vid=4584eb39-29cf-45eb-b66e-032b7736feb1","ios":"levelo://app?vid=4584eb39-29cf-45eb-b66e-032b7736feb1"},"vehicle_type_id":"4","last_reported":1747328980,"current_range_meters":10000,"station_id":"cpo3342slgdg3j2ifvpg","pricing_plan_id":"cebpf4jnsgd1na2vs0mg"},{"bike_id":"5fbcd3a8-5fba-4859-a6da-5a3b617f4707","system_id":"levelo_inurba_marseille","lat":43.2416,"lon":5.36411,"is_reserved":false,"is_disabled":false,"rental_uris":{"android":"levelo://app?vid=5fbcd3a8-5fba-4859-a6da-5a3b617f4707","ios":"levelo://app?vid=5fbcd3a8-5fba-4859-a6da-5a3b617f4707"},"vehicle_type_id":"4","last_reported":1747328980,"current_range_meters":10000,"station_id":"cpo36qri1sfpv3e86is0","pricing_plan_id":"cebpf4jnsgd1na2vs0mg"},{"bike_id":"ec2ab989-c0a5-4e32-bb9a-8564e6bcafbb","system_id":"levelo_inurba_marseille","lat":43.27618,"lon":5.36118,"is_reserved":false,"is_disabled":false,"rental_uris":{"android":"levelo://app?vid=ec2ab989-c0a5-4e32-bb9a-8564e6bcafbb","ios":"levelo://app?vid=ec2ab989-c0a5-4e32-bb9a-8564e6bcafbb"},"vehicle_type_id":"4","last_reported":1747328980,"current_range_meters":10800,"station_id":"ce4bgj92rcd13ifvqbe0","pricing_plan_id":"cebpf4jnsgd1na2vs0mg"},{"bike_id":"cd155e29-b690-4f7b-b293-84349a2d52a5","system_id":"levelo_inurba_marseille","lat":43.28415,"lon":5.34996,"is_reserved":false,"is_disabled":false,"rental_uris":{"android":"levelo://app?vid=cd155e29-b690-4f7b-b293-84349a2d52a5","ios":"levelo://app?vid=cd155e29-b690-4f7b-b293-84349a2d52a5"},"vehicle_type_id":"4","last_reported":1747328980,"current_range_meters":10800,"station_id":"ce4bhbh2rcd13ifvqepg","pricing_plan_id":"cebpf4jnsgd1na2vs0mg"},{"bike_id":"8b879672-99db-4fe0-b81e-8bf0239ab5e7","system_id":"levelo_inurba_marseille","lat":43.29276,"lon":5.36837,"is_reserved":false,"is_disabled":false,"rental_uris":{"android":"levelo://app?vid=8b879672-99db-4fe0-b81e-8bf0239ab5e7","ios":"levelo://app?vid=8b879672-99db-4fe0-b81e-8bf0239ab5e7"},"vehicle_type_id":"4","last_reported":1747328980,"current_range_meters":10800,"station_id":"ce4bhbp2rcd13ifvqesg","pricing_plan_id":"cebpf4jnsgd1na2vs0mg"},{"bike_id":"bee35244-ec95-4b3d-8fae-96abe913294a","system_id":"levelo_inurba_marseille","lat":43.2862,"lon":5.35097,"is_reserved":false,"is_disabled":false,"rental_uris":{"android":"levelo://app?vid=bee35244-ec95-4b3d-8fae-96abe913294a","ios":"levelo://app?vid=bee35244-ec95-4b3d-8fae-96abe913294a"},"vehicle_type_id":"4","last_reported":1747328980,"current_range_meters":10800,"station_id":"ce4bhch2rcd13ifvqeug","pricing_plan_id":"cebpf4jnsgd1na2vs0mg"},{"bike_id":"6394f874-224d-4022-a588-0331c5a6858d","system_id":"levelo_inurba_marseille","lat":43.28598,"lon":5.35112,"is_reserved":false,"is_disabled":false,"rental_uris":{"android":"levelo://app?vid=6394f874-224d-4022-a588-0331c5a6858d","ios":"levelo://app?vid=6394f874-224d-4022-a588-0331c5a6858d"},"vehicle_type_id":"4","last_reported":1747328980,"current_range_meters":10800,"station_id":"ce4bhch2rcd13ifvqeug","pricing_plan_id":"cebpf4jnsgd1na2vs0mg"},{"bike_id":"f768f02c-a770-46ed-b9fb-ed1e435a3c0f","system_id":"levelo_inurba_marseille","lat":43.32985,"lon":5.3898,"is_reserved":false,"is_disabled":false,"rental_uris":{"android":"levelo://app?vid=f768f02c-a770-46ed-b9fb-ed1e435a3c0f","ios":"levelo://app?vid=f768f02c-a770-46ed-b9fb-ed1e435a3c0f"},"vehicle_type_id":"4","last_reported":1747328980,"current_range_meters":11200,"station_id":"","pricing_plan_id":"cebpf4jnsgd1na2vs0mg"},{"bike_id":"2fe79e6f-0ef8-460a-99ca-d9153f1dc71d","system_id":"levelo_inurba_marseille","lat":43.24647,"lon":5.38889,"is_reserved":false,"is_disabled":false,"rental_uris":{"android":"levelo://app?vid=2fe79e6f-0ef8-460a-99ca-d9153f1dc71d","ios":"levelo://app?vid=2fe79e6f-0ef8-460a-99ca-d9153f1dc71d"},"vehicle_type_id":"4","last_reported":1747328980,"current_range_meters":11200,"station_id":"ce4bhg12rcd13ifvqf60","pricing_plan_id":"cebpf4jnsgd1na2vs0mg"},{"bike_id":"c90ef9cc-8544-466e-8809-d370f88fc9a1","system_id":"levelo_inurba_marseille","lat":43.23186,"lon":5.39985,"is_reserved":false,"is_disabled":false,"rental_uris":{"android":"levelo://app?vid=c90ef9cc-8544-466e-8809-d370f88fc9a1","ios":"levelo://app?vid=c90ef9cc-8544-466e-8809-d370f88fc9a1"},"vehicle_type_id":"4","last_reported":1747328980,"current_range_meters":11200,"station_id":"ce4bhn12rcd13ifvqgqg","pricing_plan_id":"cebpf4jnsgd1na2vs0mg"},{"bike_id":"dc1b5fc1-d5de-483b-8e61-0ae24119518c","system_id":"levelo_inurba_marseille","lat":43.24074,"lon":5.37758,"is_reserved":false,"is_disabled":false,"rental_uris":{"android":"levelo://app?vid=dc1b5fc1-d5de-483b-8e61-0ae24119518c","ios":"levelo://app?vid=dc1b5fc1-d5de-483b-8e61-0ae24119518c"},"vehicle_type_id":"4","last_reported":1747328980,"current_range_meters":11200,"station_id":"ce4bhnp2rcd13ifvqgvg","pricing_plan_id":"cebpf4jnsgd1na2vs0mg"},{"bike_id":"f19d70aa-4768-4d6c-bad8-48f1edf5252c","system_id":"levelo_inurba_marseille","lat":43.3172,"lon":5.42404,"is_reserved":false,"is_disabled":false,"rental_uris":{"android":"levelo://app?vid=f19d70aa-4768-4d6c-bad8-48f1edf5252c","ios":"levelo://app?vid=f19d70aa-4768-4d6c-bad8-48f1edf5252c"},"vehicle_type_id":"4","last_reported":1747328980,"current_range_meters":11200,"station_id":"ce4bhp92rcd13ifvqhbg","pricing_plan_id":"cebpf4jnsgd1na2vs0mg"},{"bike_id":"240a4c44-1ffe-407a-86e2-c6706b5e482e","system_id":"levelo_inurba_marseille","lat":43.29524,"lon":5.39044,"is_reserved":false,"is_disabled":false,"rental_uris":{"android":"levelo://app?vid=240a4c44-1ffe-407a-86e2-c6706b5e482e","ios":"levelo://app?vid=240a4c44-1ffe-407a-86e2-c6706b5e482e"},"vehicle_type_id":"4","last_reported":1747328980,"current_range_meters":11600,"station_id":"ce4bh3p2rcd13ifvqdp0","pricing_plan_id":"cebpf4jnsgd1na2vs0mg"},{"bike_id":"fe2aad1b-157b-4080-be3d-16d0aeaaacab","system_id":"levelo_inurba_marseille","lat":43.287,"lon":5.37378,"is_reserved":false,"is_disabled":false,"rental_uris":{"android":"levelo://app?vid=fe2aad1b-157b-4080-be3d-16d0aeaaacab","ios":"levelo://app?vid=fe2aad1b-157b-4080-be3d-16d0aeaaacab"},"vehicle_type_id":"4","last_reported":1747328980,"current_range_meters":11600,"station_id":"ce4bh3p2rcd13ifvqdq0","pricing_plan_id":"cebpf4jnsgd1na2vs0mg"},{"bike_id":"399ee206-f689-47a8-944e-6977fd91e322","system_id":"levelo_inurba_marseille","lat":43.28454,"lon":5.35887,"is_reserved":false,"is_disabled":false,"rental_uris":{"android":"levelo://app?vid=399ee206-f689-47a8-944e-6977fd91e322","ios":"levelo://app?vid=399ee206-f689-47a8-944e-6977fd91e322"},"vehicle_type_id":"4","last_reported":1747328980,"current_range_meters":11600,"station_id":"ce4bhah2rcd13ifvqei0","pricing_plan_id":"cebpf4jnsgd1na2vs0mg"},{"bike_id":"68596b18-f7f2-418a-acdb-132593d9d86c","system_id":"levelo_inurba_marseille","lat":43.2893,"lon":5.36644,"is_reserved":false,"is_disabled":false,"rental_uris":{"android":"levelo://app?vid=68596b18-f7f2-418a-acdb-132593d9d86c","ios":"levelo://app?vid=68596b18-f7f2-418a-acdb-132593d9d86c"},"vehicle_type_id":"4","last_reported":1747328980,"current_range_meters":11600,"station_id":"ce4bhap2rcd13ifvqek0","pricing_plan_id":"cebpf4jnsgd1na2vs0mg"},{"bike_id":"bced6cd2-86d8-40a3-9c33-072037d198a0","system_id":"levelo_inurba_marseille","lat":43.2816,"lon":5.42655,"is_reserved":false,"is_disabled":false,"rental_uris":{"android":"levelo://app?vid=bced6cd2-86d8-40a3-9c33-072037d198a0","ios":"levelo://app?vid=bced6cd2-86d8-40a3-9c33-072037d198a0"},"vehicle_type_id":"4","last_reported":1747328980,"current_range_meters":11600,"station_id":"ce4bhnh2rcd13ifvqgug","pricing_plan_id":"cebpf4jnsgd1na2vs0mg"},{"bike_id":"94425245-09df-4108-9a30-610dbcaf2585","system_id":"levelo_inurba_marseille","lat":43.317277,"lon":5.424046,"is_reserved":false,"is_disabled":false,"rental_uris":{"android":"levelo://app?vid=94425245-09df-4108-9a30-610dbcaf2585","ios":"levelo://app?vid=94425245-09df-4108-9a30-610dbcaf2585"},"vehicle_type_id":"4","last_reported":1747328980,"current_range_meters":11600,"station_id":"ce4bhp92rcd13ifvqhbg","pricing_plan_id":"cebpf4jnsgd1na2vs0mg"},{"bike_id":"f8708533-c882-424d-919c-8da02599e742","system_id":"levelo_inurba_marseille","lat":43.32378,"lon":5.38876,"is_reserved":false,"is_disabled":false,"rental_uris":{"android":"levelo://app?vid=f8708533-c882-424d-919c-8da02599e742","ios":"levelo://app?vid=f8708533-c882-424d-919c-8da02599e742"},"vehicle_type_id":"4","last_reported":1747328980,"current_range_meters":11600,"station_id":"ce4bhqp2rcd13ifvqhog","pricing_plan_id":"cebpf4jnsgd1na2vs0mg"},{"bike_id":"16d50bc3-7d26-4278-a00a-084722dd475d","system_id":"levelo_inurba_marseille","lat":43.29579,"lon":5.36743,"is_reserved":false,"is_disabled":false,"rental_uris":{"android":"levelo://app?vid=16d50bc3-7d26-4278-a00a-084722dd475d","ios":"levelo://app?vid=16d50bc3-7d26-4278-a00a-084722dd475d"},"vehicle_type_id":"4","last_reported":1747328980,"current_range_meters":12000,"station_id":"ce4bgph2rcd13ifvqc2g","pricing_plan_id":"cebpf4jnsgd1na2vs0mg"},{"bike_id":"21434797-fc80-4d04-8666-548fc4446d73","system_id":"levelo_inurba_marseille","lat":43.28116,"lon":5.37814,"is_reserved":false,"is_disabled":false,"rental_uris":{"android":"levelo://app?vid=21434797-fc80-4d04-8666-548fc4446d73","ios":"levelo://app?vid=21434797-fc80-4d04-8666-548fc4446d73"},"vehicle_type_id":"4","last_reported":1747328980,"current_range_meters":12000,"station_id":"ce4bha12rcd13ifvqee0","pricing_plan_id":"cebpf4jnsgd1na2vs0mg"},{"bike_id":"6c4fdbf3-c92a-44dd-b011-5a384a7ebf88","system_id":"levelo_inurba_marseille","lat":43.28661,"lon":5.36352,"is_reserved":false,"is_disabled":false,"rental_uris":{"android":"levelo://app?vid=6c4fdbf3-c92a-44dd-b011-5a384a7ebf88","ios":"levelo://app?vid=6c4fdbf3-c92a-44dd-b011-5a384a7ebf88"},"vehicle_type_id":"4","last_reported":1747328980,"current_range_meters":12000,"station_id":"ce4bhah2rcd13ifvqej0","pricing_plan_id":"cebpf4jnsgd1na2vs0mg"},{"bike_id":"51d3b89c-2d10-4160-9819-072de27b9894","system_id":"levelo_inurba_marseille","lat":43.28417,"lon":5.34986,"is_reserved":false,"is_disabled":false,"rental_uris":{"android":"levelo://app?vid=51d3b89c-2d10-4160-9819-072de27b9894","ios":"levelo://app?vid=51d3b89c-2d10-4160-9819-072de27b9894"},"vehicle_type_id":"4","last_reported":1747328980,"current_range_meters":12000,"station_id":"ce4bhbh2rcd13ifvqepg","pricing_plan_id":"cebpf4jnsgd1na2vs0mg"},{"bike_id":"1ca372b2-144c-48a2-ac1f-4e82f694691e","system_id":"levelo_inurba_marseille","lat":43.28615,"lon":5.35106,"is_reserved":false,"is_disabled":false,"rental_uris":{"android":"levelo://app?vid=1ca372b2-144c-48a2-ac1f-4e82f694691e","ios":"levelo://app?vid=1ca372b2-144c-48a2-ac1f-4e82f694691e"},"vehicle_type_id":"4","last_reported":1747328980,"current_range_meters":12000,"station_id":"ce4bhch2rcd13ifvqeug","pricing_plan_id":"cebpf4jnsgd1na2vs0mg"},{"bike_id":"57c6ce9e-d0ad-492f-b5f1-c92a1391417c","system_id":"levelo_inurba_marseille","lat":43.28607,"lon":5.35106,"is_reserved":false,"is_disabled":false,"rental_uris":{"android":"levelo://app?vid=57c6ce9e-d0ad-492f-b5f1-c92a1391417c","ios":"levelo://app?vid=57c6ce9e-d0ad-492f-b5f1-c92a1391417c"},"vehicle_type_id":"4","last_reported":1747328980,"current_range_meters":12000,"station_id":"ce4bhch2rcd13ifvqeug","pricing_plan_id":"cebpf4jnsgd1na2vs0mg"},{"bike_id":"1dd99651-ed66-4a9f-b278-4b6543e656b5","system_id":"levelo_inurba_marseille","lat":43.24808,"lon":5.37458,"is_reserved":false,"is_disabled":false,"rental_uris":{"android":"levelo://app?vid=1dd99651-ed66-4a9f-b278-4b6543e656b5","ios":"levelo://app?vid=1dd99651-ed66-4a9f-b278-4b6543e656b5"},"vehicle_type_id":"4","last_reported":1747328980,"current_range_meters":12000,"station_id":"ce4bhgh2rcd13ifvqfb0","pricing_plan_id":"cebpf4jnsgd1na2vs0mg"},{"bike_id":"30195902-790b-4883-87e4-19638a26e229","system_id":"levelo_inurba_marseille","lat":43.2316,"lon":5.39982,"is_reserved":false,"is_disabled":false,"rental_uris":{"android":"levelo://app?vid=30195902-790b-4883-87e4-19638a26e229","ios":"levelo://app?vid=30195902-790b-4883-87e4-19638a26e229"},"vehicle_type_id":"4","last_reported":1747328980,"current_range_meters":12000,"station_id":"ce4bhn12rcd13ifvqgqg","pricing_plan_id":"cebpf4jnsgd1na2vs0mg"},{"bike_id":"dd560cb9-5b98-46a6-bef5-75f8eb11f745","system_id":"levelo_inurba_marseille","lat":43.2953,"lon":5.38538,"is_reserved":false,"is_disabled":false,"rental_uris":{"android":"levelo://app?vid=dd560cb9-5b98-46a6-bef5-75f8eb11f745","ios":"levelo://app?vid=dd560cb9-5b98-46a6-bef5-75f8eb11f745"},"vehicle_type_id":"4","last_reported":1747328980,"current_range_meters":12400,"station_id":"ce4bgih2rcd13ifvqba0","pricing_plan_id":"cebpf4jnsgd1na2vs0mg"},{"bike_id":"e52494ed-992f-4886-99d5-0a13de980004","system_id":"levelo_inurba_marseille","lat":43.2841,"lon":5.34999,"is_reserved":false,"is_disabled":false,"rental_uris":{"android":"levelo://app?vid=e52494ed-992f-4886-99d5-0a13de980004","ios":"levelo://app?vid=e52494ed-992f-4886-99d5-0a13de980004"},"vehicle_type_id":"4","last_reported":1747328980,"current_range_meters":12400,"station_id":"ce4bhbh2rcd13ifvqepg","pricing_plan_id":"cebpf4jnsgd1na2vs0mg"},{"bike_id":"de90213d-3365-49d5-8a9a-e5ad576be90f","system_id":"levelo_inurba_marseille","lat":43.28945,"lon":5.36395,"is_reserved":false,"is_disabled":false,"rental_uris":{"android":"levelo://app?vid=de90213d-3365-49d5-8a9a-e5ad576be90f","ios":"levelo://app?vid=de90213d-3365-49d5-8a9a-e5ad576be90f"},"vehicle_type_id":"4","last_reported":1747328980,"current_range_meters":12400,"station_id":"ce4bhc92rcd13ifvqetg","pricing_plan_id":"cebpf4jnsgd1na2vs0mg"},{"bike_id":"dc643886-ab96-41da-96d1-bd674f19bfdb","system_id":"levelo_inurba_marseille","lat":43.28625,"lon":5.35109,"is_reserved":false,"is_disabled":false,"rental_uris":{"android":"levelo://app?vid=dc643886-ab96-41da-96d1-bd674f19bfdb","ios":"levelo://app?vid=dc643886-ab96-41da-96d1-bd674f19bfdb"},"vehicle_type_id":"4","last_reported":1747328980,"current_range_meters":12400,"station_id":"ce4bhch2rcd13ifvqeug","pricing_plan_id":"cebpf4jnsgd1na2vs0mg"},{"bike_id":"31bedb95-5fc4-4b24-91b1-10c9cd7506c0","system_id":"levelo_inurba_marseille","lat":43.25828,"lon":5.39433,"is_reserved":false,"is_disabled":false,"rental_uris":{"android":"levelo://app?vid=31bedb95-5fc4-4b24-91b1-10c9cd7506c0","ios":"levelo://app?vid=31bedb95-5fc4-4b24-91b1-10c9cd7506c0"},"vehicle_type_id":"4","last_reported":1747328980,"current_range_meters":12400,"station_id":"ce4bhip2rcd13ifvqft0","pricing_plan_id":"cebpf4jnsgd1na2vs0mg"},{"bike_id":"3eb03f26-c65c-4967-9710-5aabdbdcd3aa","system_id":"levelo_inurba_marseille","lat":43.23195,"lon":5.35565,"is_reserved":false,"is_disabled":false,"rental_uris":{"android":"levelo://app?vid=3eb03f26-c65c-4967-9710-5aabdbdcd3aa","ios":"levelo://app?vid=3eb03f26-c65c-4967-9710-5aabdbdcd3aa"},"vehicle_type_id":"4","last_reported":1747328980,"current_range_meters":12400,"station_id":"ce4bhu92rcd13ifvqi70","pricing_plan_id":"cebpf4jnsgd1na2vs0mg"},{"bike_id":"dd5422d6-53cb-49fb-8efb-b898f8501e90","system_id":"levelo_inurba_marseille","lat":43.27635,"lon":5.36119,"is_reserved":false,"is_disabled":false,"rental_uris":{"android":"levelo://app?vid=dd5422d6-53cb-49fb-8efb-b898f8501e90","ios":"levelo://app?vid=dd5422d6-53cb-49fb-8efb-b898f8501e90"},"vehicle_type_id":"4","last_reported":1747328980,"current_range_meters":12800,"station_id":"ce4bgj92rcd13ifvqbe0","pricing_plan_id":"cebpf4jnsgd1na2vs0mg"},{"bike_id":"0a1a1b3c-3481-4ca3-a842-8cf66bddd457","system_id":"levelo_inurba_marseille","lat":43.27374,"lon":5.36252,"is_reserved":false,"is_disabled":false,"rental_uris":{"android":"levelo://app?vid=0a1a1b3c-3481-4ca3-a842-8cf66bddd457","ios":"levelo://app?vid=0a1a1b3c-3481-4ca3-a842-8cf66bddd457"},"vehicle_type_id":"4","last_reported":1747328980,"current_range_meters":12800,"station_id":"ce4bhbh2rcd13ifvqeo0","pricing_plan_id":"cebpf4jnsgd1na2vs0mg"},{"bike_id":"59576e81-0f19-4514-a47d-f8c875761719","system_id":"levelo_inurba_marseille","lat":43.28615,"lon":5.35105,"is_reserved":false,"is_disabled":false,"rental_uris":{"android":"levelo://app?vid=59576e81-0f19-4514-a47d-f8c875761719","ios":"levelo://app?vid=59576e81-0f19-4514-a47d-f8c875761719"},"vehicle_type_id":"4","last_reported":1747328980,"current_range_meters":12800,"station_id":"ce4bhch2rcd13ifvqeug","pricing_plan_id":"cebpf4jnsgd1na2vs0mg"},{"bike_id":"f8e4732a-2ecf-431c-8f66-abc7aabb8aa1","system_id":"levelo_inurba_marseille","lat":43.32972,"lon":5.39003,"is_reserved":false,"is_disabled":false,"rental_uris":{"android":"levelo://app?vid=f8e4732a-2ecf-431c-8f66-abc7aabb8aa1","ios":"levelo://app?vid=f8e4732a-2ecf-431c-8f66-abc7aabb8aa1"},"vehicle_type_id":"4","last_reported":1747328980,"current_range_meters":13600,"station_id":"","pricing_plan_id":"cebpf4jnsgd1na2vs0mg"},{"bike_id":"a76d5f93-6ff4-49d9-953c-0a7fb7f7ab1d","system_id":"levelo_inurba_marseille","lat":43.28609,"lon":5.35102,"is_reserved":false,"is_disabled":false,"rental_uris":{"android":"levelo://app?vid=a76d5f93-6ff4-49d9-953c-0a7fb7f7ab1d","ios":"levelo://app?vid=a76d5f93-6ff4-49d9-953c-0a7fb7f7ab1d"},"vehicle_type_id":"4","last_reported":1747328980,"current_range_meters":13600,"station_id":"ce4bhch2rcd13ifvqeug","pricing_plan_id":"cebpf4jnsgd1na2vs0mg"},{"bike_id":"9fc27ec0-1ad0-4593-bd56-047f7aee13b2","system_id":"levelo_inurba_marseille","lat":43.24544,"lon":5.3952,"is_reserved":false,"is_disabled":false,"rental_uris":{"android":"levelo://app?vid=9fc27ec0-1ad0-4593-bd56-047f7aee13b2","ios":"levelo://app?vid=9fc27ec0-1ad0-4593-bd56-047f7aee13b2"},"vehicle_type_id":"4","last_reported":1747328980,"current_range_meters":13600,"station_id":"ce4bhlp2rcd13ifvqgjg","pricing_plan_id":"cebpf4jnsgd1na2vs0mg"},{"bike_id":"4098d248-8c39-4a56-93e7-4b2f6f5179f1","system_id":"levelo_inurba_marseille","lat":43.28446,"lon":5.39204,"is_reserved":false,"is_disabled":false,"rental_uris":{"android":"levelo://app?vid=4098d248-8c39-4a56-93e7-4b2f6f5179f1","ios":"levelo://app?vid=4098d248-8c39-4a56-93e7-4b2f6f5179f1"},"vehicle_type_id":"4","last_reported":1747328980,"current_range_meters":13600,"station_id":"ce4bhoh2rcd13ifvqh5g","pricing_plan_id":"cebpf4jnsgd1na2vs0mg"},{"bike_id":"b180ae3a-4cd4-4582-98d4-f975f477de06","system_id":"levelo_inurba_marseille","lat":43.32362,"lon":5.388829,"is_reserved":false,"is_disabled":false,"rental_uris":{"android":"levelo://app?vid=b180ae3a-4cd4-4582-98d4-f975f477de06","ios":"levelo://app?vid=b180ae3a-4cd4-4582-98d4-f975f477de06"},"vehicle_type_id":"4","last_reported":1747328980,"current_range_meters":13600,"station_id":"ce4bhqp2rcd13ifvqhog","pricing_plan_id":"cebpf4jnsgd1na2vs0mg"},{"bike_id":"db494616-55c4-45d2-8c88-051c0d50ce40","system_id":"levelo_inurba_marseille","lat":43.23195,"lon":5.35554,"is_reserved":false,"is_disabled":false,"rental_uris":{"android":"levelo://app?vid=db494616-55c4-45d2-8c88-051c0d50ce40","ios":"levelo://app?vid=db494616-55c4-45d2-8c88-051c0d50ce40"},"vehicle_type_id":"4","last_reported":1747328980,"current_range_meters":13600,"station_id":"ce4bhu92rcd13ifvqi70","pricing_plan_id":"cebpf4jnsgd1na2vs0mg"},{"bike_id":"027f72d8-88c3-409a-9f83-3afde0954f18","system_id":"levelo_inurba_marseille","lat":43.30271,"lon":5.3968,"is_reserved":false,"is_disabled":false,"rental_uris":{"android":"levelo://app?vid=027f72d8-88c3-409a-9f83-3afde0954f18","ios":"levelo://app?vid=027f72d8-88c3-409a-9f83-3afde0954f18"},"vehicle_type_id":"4","last_reported":1747328980,"current_range_meters":14000,"station_id":"","pricing_plan_id":"cebpf4jnsgd1na2vs0mg"},{"bike_id":"41ceddae-c318-4d44-9f74-e4cb6a6239ad","system_id":"levelo_inurba_marseille","lat":43.29958,"lon":5.41321,"is_reserved":false,"is_disabled":false,"rental_uris":{"android":"levelo://app?vid=41ceddae-c318-4d44-9f74-e4cb6a6239ad","ios":"levelo://app?vid=41ceddae-c318-4d44-9f74-e4cb6a6239ad"},"vehicle_type_id":"4","last_reported":1747328980,"current_range_meters":14000,"station_id":"ce4bhp12rcd13ifvqh9g","pricing_plan_id":"cebpf4jnsgd1na2vs0mg"},{"bike_id":"f86bff49-f428-42a7-96af-ace44757dd4a","system_id":"levelo_inurba_marseille","lat":43.28423,"lon":5.34978,"is_reserved":false,"is_disabled":false,"rental_uris":{"android":"levelo://app?vid=f86bff49-f428-42a7-96af-ace44757dd4a","ios":"levelo://app?vid=f86bff49-f428-42a7-96af-ace44757dd4a"},"vehicle_type_id":"4","last_reported":1747328980,"current_range_meters":14400,"station_id":"","pricing_plan_id":"cebpf4jnsgd1na2vs0mg"},{"bike_id":"ad69e3e7-9036-4c7d-a25e-2bc9301caf39","system_id":"levelo_inurba_marseille","lat":43.28927,"lon":5.36625,"is_reserved":false,"is_disabled":false,"rental_uris":{"android":"levelo://app?vid=ad69e3e7-9036-4c7d-a25e-2bc9301caf39","ios":"levelo://app?vid=ad69e3e7-9036-4c7d-a25e-2bc9301caf39"},"vehicle_type_id":"4","last_reported":1747328980,"current_range_meters":14400,"station_id":"ce4bhap2rcd13ifvqek0","pricing_plan_id":"cebpf4jnsgd1na2vs0mg"},{"bike_id":"388f3a71-54c7-4502-8d55-76d63e2f497c","system_id":"levelo_inurba_marseille","lat":43.27366,"lon":5.36257,"is_reserved":false,"is_disabled":false,"rental_uris":{"android":"levelo://app?vid=388f3a71-54c7-4502-8d55-76d63e2f497c","ios":"levelo://app?vid=388f3a71-54c7-4502-8d55-76d63e2f497c"},"vehicle_type_id":"4","last_reported":1747328980,"current_range_meters":14400,"station_id":"ce4bhbh2rcd13ifvqeo0","pricing_plan_id":"cebpf4jnsgd1na2vs0mg"},{"bike_id":"79184e32-b895-4405-b35a-3db46e4619c9","system_id":"levelo_inurba_marseille","lat":43.28419,"lon":5.34991,"is_reserved":false,"is_disabled":false,"rental_uris":{"android":"levelo://app?vid=79184e32-b895-4405-b35a-3db46e4619c9","ios":"levelo://app?vid=79184e32-b895-4405-b35a-3db46e4619c9"},"vehicle_type_id":"4","last_reported":1747328980,"current_range_meters":14400,"station_id":"ce4bhbh2rcd13ifvqepg","pricing_plan_id":"cebpf4jnsgd1na2vs0mg"},{"bike_id":"46a3e2c1-f297-4f25-9c99-f961a1accd8c","system_id":"levelo_inurba_marseille","lat":43.33148,"lon":5.39121,"is_reserved":false,"is_disabled":false,"rental_uris":{"android":"levelo://app?vid=46a3e2c1-f297-4f25-9c99-f961a1accd8c","ios":"levelo://app?vid=46a3e2c1-f297-4f25-9c99-f961a1accd8c"},"vehicle_type_id":"4","last_reported":1747328980,"current_range_meters":14800,"station_id":"","pricing_plan_id":"cebpf4jnsgd1na2vs0mg"},{"bike_id":"ac9a9856-1585-47e6-9447-94c11c36ce10","system_id":"levelo_inurba_marseille","lat":43.27362,"lon":5.36265,"is_reserved":false,"is_disabled":false,"rental_uris":{"android":"levelo://app?vid=ac9a9856-1585-47e6-9447-94c11c36ce10","ios":"levelo://app?vid=ac9a9856-1585-47e6-9447-94c11c36ce10"},"vehicle_type_id":"4","last_reported":1747328980,"current_range_meters":14800,"station_id":"ce4bhbh2rcd13ifvqeo0","pricing_plan_id":"cebpf4jnsgd1na2vs0mg"},{"bike_id":"ae8135dd-f488-41b6-be84-c9cffde46884","system_id":"levelo_inurba_marseille","lat":43.28424,"lon":5.34981,"is_reserved":false,"is_disabled":false,"rental_uris":{"android":"levelo://app?vid=ae8135dd-f488-41b6-be84-c9cffde46884","ios":"levelo://app?vid=ae8135dd-f488-41b6-be84-c9cffde46884"},"vehicle_type_id":"4","last_reported":1747328980,"current_range_meters":14800,"station_id":"ce4bhbh2rcd13ifvqepg","pricing_plan_id":"cebpf4jnsgd1na2vs0mg"},{"bike_id":"1be9bb61-9b6c-4a50-b6bb-32d8e11827c7","system_id":"levelo_inurba_marseille","lat":43.28152,"lon":5.4261,"is_reserved":false,"is_disabled":false,"rental_uris":{"android":"levelo://app?vid=1be9bb61-9b6c-4a50-b6bb-32d8e11827c7","ios":"levelo://app?vid=1be9bb61-9b6c-4a50-b6bb-32d8e11827c7"},"vehicle_type_id":"4","last_reported":1747328980,"current_range_meters":14800,"station_id":"ce4bhnh2rcd13ifvqgug","pricing_plan_id":"cebpf4jnsgd1na2vs0mg"},{"bike_id":"dd1adfd4-0b0c-469e-80e4-444590b7c396","system_id":"levelo_inurba_marseille","lat":43.29437,"lon":5.3975,"is_reserved":false,"is_disabled":false,"rental_uris":{"android":"levelo://app?vid=dd1adfd4-0b0c-469e-80e4-444590b7c396","ios":"levelo://app?vid=dd1adfd4-0b0c-469e-80e4-444590b7c396"},"vehicle_type_id":"4","last_reported":1747328980,"current_range_meters":15200,"station_id":"ce4bh3h2rcd13ifvqdo0","pricing_plan_id":"cebpf4jnsgd1na2vs0mg"},{"bike_id":"f3e3b57c-8b0f-4db9-a82d-2446bf1102d7","system_id":"levelo_inurba_marseille","lat":43.231897,"lon":5.355525,"is_reserved":false,"is_disabled":false,"rental_uris":{"android":"levelo://app?vid=f3e3b57c-8b0f-4db9-a82d-2446bf1102d7","ios":"levelo://app?vid=f3e3b57c-8b0f-4db9-a82d-2446bf1102d7"},"vehicle_type_id":"4","last_reported":1747328980,"current_range_meters":15200,"station_id":"ce4bhu92rcd13ifvqi70","pricing_plan_id":"cebpf4jnsgd1na2vs0mg"},{"bike_id":"f3ca7d21-4cb0-456d-9656-176633784a97","system_id":"levelo_inurba_marseille","lat":43.29531,"lon":5.38529,"is_reserved":false,"is_disabled":false,"rental_uris":{"android":"levelo://app?vid=f3ca7d21-4cb0-456d-9656-176633784a97","ios":"levelo://app?vid=f3ca7d21-4cb0-456d-9656-176633784a97"},"vehicle_type_id":"4","last_reported":1747328980,"current_range_meters":16000,"station_id":"ce4bgih2rcd13ifvqba0","pricing_plan_id":"cebpf4jnsgd1na2vs0mg"},{"bike_id":"7fb74ba0-6b8f-43e7-853f-8c87140c7a24","system_id":"levelo_inurba_marseille","lat":43.27622,"lon":5.36109,"is_reserved":false,"is_disabled":false,"rental_uris":{"android":"levelo://app?vid=7fb74ba0-6b8f-43e7-853f-8c87140c7a24","ios":"levelo://app?vid=7fb74ba0-6b8f-43e7-853f-8c87140c7a24"},"vehicle_type_id":"4","last_reported":1747328980,"current_range_meters":16000,"station_id":"ce4bgj92rcd13ifvqbe0","pricing_plan_id":"cebpf4jnsgd1na2vs0mg"},{"bike_id":"0da7103c-d0b8-414c-9c7e-3e054cbcb66c","system_id":"levelo_inurba_marseille","lat":43.29004,"lon":5.35607,"is_reserved":false,"is_disabled":false,"rental_uris":{"android":"levelo://app?vid=0da7103c-d0b8-414c-9c7e-3e054cbcb66c","ios":"levelo://app?vid=0da7103c-d0b8-414c-9c7e-3e054cbcb66c"},"vehicle_type_id":"4","last_reported":1747328980,"current_range_meters":16000,"station_id":"ce4bhb92rcd13ifvqen0","pricing_plan_id":"cebpf4jnsgd1na2vs0mg"},