{"last_updated":1727672984,"ttl":60,"version":"2.2","data":{"bikes":[{"bike_id":"fc63f147-84a5-415c-bb98-25ba16874896","system_id":"levelo_inurba_marseille","lat":43.23192,"lon":5.35559,"is_reserved":false,"is_disabled":false,"rental_uris":{"android":"levelo://app?vid=fc63f147-84a5-415c-bb98-25ba16874896","ios":"levelo://app?vid=fc63f147-84a5-415c-bb98-25ba16874896"},"vehicle_type_id":"4","last_reported":1727672984,"current_range_meters":38000,"station_id":"ce4bhu92rcd13ifvqi70","pricing_plan_id":"cebpf4jnsgd1na2vs0mg"},{"bike_id":"faf8f92a-8fe7-47fb-9a68-8a4307dc7586","system_id":"levelo_inurba_marseille","lat":43.3013,"lon":5.37423,"is_reserved":false,"is_disabled":false,"rental_uris":{"android":"levelo://app?vid=faf8f92a-8fe7-47fb-9a68-8a4307dc7586","ios":"levelo://app?vid=faf8f92a-8fe7-47fb-9a68-8a4307dc7586"},"vehicle_type_id":"4","last_reported":1727672984,"current_range_meters":37600,"station_id":"ce4bgs92rcd13ifvqcc0","pricing_plan_id":"cebpf4jnsgd1na2vs0mg"},{"bike_id":"a78ef135-8636-4c7f-8ea0-04e46d0f96bc","system_id":"levelo_inurba_marseille","lat":43.27547,"lon":5.38394,"is_reserved":false,"is_disabled":false,"rental_uris":{"android":"levelo://app?vid=a78ef135-8636-4c7f-8ea0-04e46d0f96bc","ios":"levelo://app?vid=a78ef135-8636-4c7f-8ea0-04e46d0f96bc"},"vehicle_type_id":"4","last_reported":1727672984,"current_range_meters":29600,"station_id":"ce4bhh92rcd13ifvqfi0","pricing_plan_id":"cebpf4jnsgd1na2vs0mg"},{"bike_id":"f811606a-b2c6-4ddd-ae20-d2e017211649","system_id":"levelo_inurba_marseille","lat":43.30412,"lon":5.41291,"is_reserved":false,"is_disabled":false,"rental_uris":{"android":"levelo://app?vid=f811606a-b2c6-4ddd-ae20-d2e017211649","ios":"levelo://app?vid=f811606a-b2c6-4ddd-ae20-d2e017211649"},"vehicle_type_id":"4","last_reported":1727672984,"current_range_meters":35600,"station_id":"ce4bhop2rcd13ifvqh8g","pricing_plan_id":"cebpf4jnsgd1na2vs0mg"},{"bike_id":"9f531035-0aa0-47b1-98a9-ca669f8d69ad","system_id":"levelo_inurba_marseille","lat":43.28339,"lon":5.3809,"is_reserved":false,"is_disabled":false,"rental_uris":{"android":"levelo://app?vid=9f531035-0aa0-47b1-98a9-ca669f8d69ad","ios":"levelo://app?vid=9f531035-0aa0-47b1-98a9-ca669f8d69ad"},"vehicle_type_id":"4","last_reported":1727672984,"current_range_meters":32000,"station_id":"ce4bh412rcd13ifvqdr0","pricing_plan_id":"cebpf4jnsgd1na2vs0mg"},{"bike_id":"87ff90c8-0484-40bf-ad1b-8a3b005ef37c","system_id":"levelo_inurba_marseille","lat":43.29075,"lon":5.4264,"is_reserved":false,"is_disabled":false,"rental_uris":{"android":"levelo://app?vid=87ff90c8-0484-40bf-ad1b-8a3b005ef37c","ios":"levelo://app?vid=87ff90c8-0484-40bf-ad1b-8a3b005ef37c"},"vehicle_type_id":"4","last_reported":1727672984,"current_range_meters":6400,"station_id":"","pricing_plan_id":"cebpf4jnsgd1na2vs0mg"},{"bike_id":"9083a365-5b13-496f-88c7-3d155c1c89ba","system_id":"levelo_inurba_marseille","lat":43.29882,"lon":5.39736,"is_reserved":false,"is_disabled":false,"rental_uris":{"android":"levelo://app?vid=9083a365-5b13-496f-88c7-3d155c1c89ba","ios":"levelo://app?vid=9083a365-5b13-496f-88c7-3d155c1c89ba"},"vehicle_type_id":"4","last_reported":1727672984,"current_range_meters":38000,"station_id":"ce4bh0h2rcd13ifvqd50","pricing_plan_id":"cebpf4jnsgd1na2vs0mg"},{"bike_id":"729c81ea-c6b3-4188-94c8-0ad8af47204d","system_id":"levelo_inurba_marseille","lat":43.28474,"lon":5.35881,"is_reserved":false,"is_disabled":false,"rental_uris":{"android":"levelo://app?vid=729c81ea-c6b3-4188-94c8-0ad8af47204d","ios":"levelo://app?vid=729c81ea-c6b3-4188-94c8-0ad8af47204d"},"vehicle_type_id":"4","last_reported":1727672984,"current_range_meters":38800,"station_id":"ce4bhah2rcd13ifvqei0","pricing_plan_id":"cebpf4jnsgd1na2vs0mg"},{"bike_id":"0ea9e4c4-cc08-41d9-862d-a80f7d54740c","system_id":"levelo_inurba_marseille","lat":43.3268,"lon":5.37494,"is_reserved":false,"is_disabled":false,"rental_uris":{"android":"levelo://app?vid=0ea9e4c4-cc08-41d9-862d-a80f7d54740c","ios":"levelo://app?vid=0ea9e4c4-cc08-41d9-862d-a80f7d54740c"},"vehicle_type_id":"4","last_reported":1727672984,"current_range_meters":34000,"station_id":"","pricing_plan_id":"cebpf4jnsgd1na2vs0mg"},{"bike_id":"4c916341-3683-414d-9c10-1d32039755c0","system_id":"levelo_inurba_marseille","lat":43.28428,"lon":5.39186,"is_reserved":false,"is_disabled":false,"rental_uris":{"android":"levelo://app?vid=4c916341-3683-414d-9c10-1d32039755c0","ios":"levelo://app?vid=4c916341-3683-414d-9c10-1d32039755c0"},"vehicle_type_id":"4","last_reported":1727672984,"current_range_meters":12800,"station_id":"ce4bhoh2rcd13ifvqh5g","pricing_plan_id":"cebpf4jnsgd1na2vs0mg"},{"bike_id":"66199279-4f65-44e6-9eaf-44a55c28ea16","system_id":"levelo_inurba_marseille","lat":43.28109,"lon":5.37848,"is_reserved":false,"is_disabled":false,"rental_uris":{"android":"levelo://app?vid=66199279-4f65-44e6-9eaf-44a55c28ea16","ios":"levelo://app?vid=66199279-4f65-44e6-9eaf-44a55c28ea16"},"vehicle_type_id":"4","last_reported":1727672984,"current_range_meters":34800,"station_id":"ce4bha12rcd13ifvqee0","pricing_plan_id":"cebpf4jnsgd1na2vs0mg"},{"bike_id":"431acd76-2fda-479a-af23-895917a7252a","system_id":"levelo_inurba_marseille","lat":43.3221,"lon":5.38739,"is_reserved":false,"is_disabled":false,"rental_uris":{"android":"levelo://app?vid=431acd76-2fda-479a-af23-895917a7252a","ios":"levelo://app?vid=431acd76-2fda-479a-af23-895917a7252a"},"vehicle_type_id":"4","last_reported":1727672984,"current_range_meters":22400,"station_id":"","pricing_plan_id":"cebpf4jnsgd1na2vs0mg"},{"bike_id":"5816cec8-8917-4734-9ca3-2441e17f7ba1","system_id":"levelo_inurba_marseille","lat":43.24171,"lon":5.36405,"is_reserved":false,"is_disabled":false,"rental_uris":{"android":"levelo://app?vid=5816cec8-8917-4734-9ca3-2441e17f7ba1","ios":"levelo://app?vid=5816cec8-8917-4734-9ca3-2441e17f7ba1"},"vehicle_type_id":"4","last_reported":1727672984,"current_range_meters":22800,"station_id":"cpo36qri1sfpv3e86is0","pricing_plan_id":"cebpf4jnsgd1na2vs0mg"},{"bike_id":"7b898a32-98a3-452a-9b58-26858dd025c5","system_id":"levelo_inurba_marseille","lat":43.27173,"lon":5.40989,"is_reserved":false,"is_disabled":false,"rental_uris":{"android":"levelo://app?vid=7b898a32-98a3-452a-9b58-26858dd025c5","ios":"levelo://app?vid=7b898a32-98a3-452a-9b58-26858dd025c5"},"vehicle_type_id":"4","last_reported":1727672984,"current_range_meters":26000,"station_id":"ce4bhl12rcd13ifvqgf0","pricing_plan_id":"cebpf4jnsgd1na2vs0mg"},{"bike_id":"d4c74265-2442-4454-aa29-65e3cce400cc","system_id":"levelo_inurba_marseille","lat":43.32297,"lon":5.38669,"is_reserved":false,"is_disabled":false,"rental_uris":{"android":"levelo://app?vid=d4c74265-2442-4454-aa29-65e3cce400cc","ios":"levelo://app?vid=d4c74265-2442-4454-aa29-65e3cce400cc"},"vehicle_type_id":"4","last_reported":1727672984,"current_range_meters":36800,"station_id":"","pricing_plan_id":"cebpf4jnsgd1na2vs0mg"},{"bike_id":"3701e278-db4f-496c-8858-723875cbdd20","system_id":"levelo_inurba_marseille","lat":43.28404,"lon":5.37512,"is_reserved":false,"is_disabled":false,"rental_uris":{"android":"levelo://app?vid=3701e278-db4f-496c-8858-723875cbdd20","ios":"levelo://app?vid=3701e278-db4f-496c-8858-723875cbdd20"},"vehicle_type_id":"4","last_reported":1727672984,"current_range_meters":32400,"station_id":"ce4bh412rcd13ifvqds0","pricing_plan_id":"cebpf4jnsgd1na2vs0mg"},{"bike_id":"af6ac25d-d36b-4e61-82a0-7e16798e6711","system_id":"levelo_inurba_marseille","lat":43.26561,"lon":5.39011,"is_reserved":false,"is_disabled":false,"rental_uris":{"android":"levelo://app?vid=af6ac25d-d36b-4e61-82a0-7e16798e6711","ios":"levelo://app?vid=af6ac25d-d36b-4e61-82a0-7e16798e6711"},"vehicle_type_id":"4","last_reported":1727672984,"current_range_meters":38400,"station_id":"ce4bhe12rcd13ifvqf30","pricing_plan_id":"cebpf4jnsgd1na2vs0mg"},{"bike_id":"9a47dcb1-61bb-411f-affb-55731480b4cc","system_id":"levelo_inurba_marseille","lat":43.23958,"lon":5.36643,"is_reserved":false,"is_disabled":false,"rental_uris":{"android":"levelo://app?vid=9a47dcb1-61bb-411f-affb-55731480b4cc","ios":"levelo://app?vid=9a47dcb1-61bb-411f-affb-55731480b4cc"},"vehicle_type_id":"4","last_reported":1727672984,"current_range_meters":34000,"station_id":"ce4bhi12rcd13ifvqfp0","pricing_plan_id":"cebpf4jnsgd1na2vs0mg"},{"bike_id":"eaad5887-be8f-44ad-901f-8e88f39a4594","system_id":"levelo_inurba_marseille","lat":43.27574,"lon":5.38423,"is_reserved":false,"is_disabled":false,"rental_uris":{"android":"levelo://app?vid=eaad5887-be8f-44ad-901f-8e88f39a4594","ios":"levelo://app?vid=eaad5887-be8f-44ad-901f-8e88f39a4594"},"vehicle_type_id":"4","last_reported":1727672984,"current_range_meters":37600,"station_id":"ce4bhh92rcd13ifvqfi0","pricing_plan_id":"cebpf4jnsgd1na2vs0mg"},{"bike_id":"ace3e40a-0db9-464b-934f-3d6ab66f439d","system_id":"levelo_inurba_marseille","lat":43.27069,"lon":5.42274,"is_reserved":false,"is_disabled":false,"rental_uris":{"android":"levelo://app?vid=ace3e40a-0db9-464b-934f-3d6ab66f439d","ios":"levelo://app?vid=ace3e40a-0db9-464b-934f-3d6ab66f439d"},"vehicle_type_id":"4","last_reported":1727672984,"current_range_meters":35600,"station_id":"ce4bhk92rcd13ifvqgb0","pricing_plan_id":"cebpf4jnsgd1na2vs0mg"},{"bike_id":"c74ce1f8-eba2-44ef-ba2a-4a0bf0f62595","system_id":"levelo_inurba_marseille","lat":43.30885,"lon":5.37183,"is_reserved":false,"is_disabled":false,"rental_uris":{"android":"levelo://app?vid=c74ce1f8-eba2-44ef-ba2a-4a0bf0f62595","ios":"levelo://app?vid=c74ce1f8-eba2-44ef-ba2a-4a0bf0f62595"},"vehicle_type_id":"4","last_reported":1727672984,"current_range_meters":39200,"station_id":"ce4bguh2rcd13ifvqckg","pricing_plan_id":"cebpf4jnsgd1na2vs0mg"},{"bike_id":"76e6ba9f-8f24-47d5-a6ef-9536a1d68289","system_id":"levelo_inurba_marseille","lat":43.28695,"lon":5.37372,"is_reserved":false,"is_disabled":false,"rental_uris":{"android":"levelo://app?vid=76e6ba9f-8f24-47d5-a6ef-9536a1d68289","ios":"levelo://app?vid=76e6ba9f-8f24-47d5-a6ef-9536a1d68289"},"vehicle_type_id":"4","last_reported":1727672984,"current_range_meters":37600,"station_id":"ce4bh3p2rcd13ifvqdq0","pricing_plan_id":"cebpf4jnsgd1na2vs0mg"},{"bike_id":"fc1335cc-dbe1-4769-bd3c-939e4d912230","system_id":"levelo_inurba_marseille","lat":43.29787,"lon":5.37092,"is_reserved":false,"is_disabled":false,"rental_uris":{"android":"levelo://app?vid=fc1335cc-dbe1-4769-bd3c-939e4d912230","ios":"levelo://app?vid=fc1335cc-dbe1-4769-bd3c-939e4d912230"},"vehicle_type_id":"4","last_reported":1727672984,"current_range_meters":38800,"station_id":"ce4bgop2rcd13ifvqc1g","pricing_plan_id":"cebpf4jnsgd1na2vs0mg"},{"bike_id":"0c83b881-2104-4096-b03b-bb90e8cfa37c","system_id":"levelo_inurba_marseille","lat":43.28414,"lon":5.37507,"is_reserved":false,"is_disabled":false,"rental_uris":{"android":"levelo://app?vid=0c83b881-2104-4096-b03b-bb90e8cfa37c","ios":"levelo://app?vid=0c83b881-2104-4096-b03b-bb90e8cfa37c"},"vehicle_type_id":"4","last_reported":1727672984,"current_range_meters":38400,"station_id":"ce4bh412rcd13ifvqds0","pricing_plan_id":"cebpf4jnsgd1na2vs0mg"},{"bike_id":"774fb271-ce7e-434d-a9d4-c38b1218490c","system_id":"levelo_inurba_marseille","lat":43.24653,"lon":5.38896,"is_reserved":false,"is_disabled":false,"rental_uris":{"android":"levelo://app?vid=774fb271-ce7e-434d-a9d4-c38b1218490c","ios":"levelo://app?vid=774fb271-ce7e-434d-a9d4-c38b1218490c"},"vehicle_type_id":"4","last_reported":1727672984,"current_range_meters":9200,"station_id":"ce4bhg12rcd13ifvqf60","pricing_plan_id":"cebpf4jnsgd1na2vs0mg"},{"bike_id":"ad39acce-a3c1-44d4-971b-ebc578fc76ab","system_id":"levelo_inurba_marseille","lat":43.28158,"lon":5.42638,"is_reserved":false,"is_disabled":false,"rental_uris":{"android":"levelo://app?vid=ad39acce-a3c1-44d4-971b-ebc578fc76ab","ios":"levelo://app?vid=ad39acce-a3c1-44d4-971b-ebc578fc76ab"},"vehicle_type_id":"4","last_reported":1727672984,"current_range_meters":30000,"station_id":"ce4bhnh2rcd13ifvqgug","pricing_plan_id":"cebpf4jnsgd1na2vs0mg"},{"bike_id":"4c4d2c5f-5f49-42be-9e75-2a37d1d48435","system_id":"levelo_inurba_marseille","lat":43.3118,"lon":5.38714,"is_reserved":false,"is_disabled":false,"rental_uris":{"android":"levelo://app?vid=4c4d2c5f-5f49-42be-9e75-2a37d1d48435","ios":"levelo://app?vid=4c4d2c5f-5f49-42be-9e75-2a37d1d48435"},"vehicle_type_id":"4","last_reported":1727672984,"current_range_meters":30800,"station_id":"ce4bgv12rcd13ifvqcp0","pricing_plan_id":"cebpf4jnsgd1na2vs0mg"},{"bike_id":"0234082f-c00c-45ec-a164-58c109919eae","system_id":"levelo_inurba_marseille","lat":43.25111,"lon":5.40324,"is_reserved":false,"is_disabled":false,"rental_uris":{"android":"levelo://app?vid=0234082f-c00c-45ec-a164-58c109919eae","ios":"levelo://app?vid=0234082f-c00c-45ec-a164-58c109919eae"},"vehicle_type_id":"4","last_reported":1727672984,"current_range_meters":38800,"station_id":"ce4bhlh2rcd13ifvqgig","pricing_plan_id":"cebpf4jnsgd1na2vs0mg"},{"bike_id":"a7f9067a-1b54-4cc7-955d-3bd52b65355a","system_id":"levelo_inurba_marseille","lat":43.30647,"lon":5.4007,"is_reserved":false,"is_disabled":false,"rental_uris":{"android":"levelo://app?vid=a7f9067a-1b54-4cc7-955d-3bd52b65355a","ios":"levelo://app?vid=a7f9067a-1b54-4cc7-955d-3bd52b65355a"},"vehicle_type_id":"4","last_reported":1727672984,"current_range_meters":6800,"station_id":"ce4bh112rcd13ifvqda0","pricing_plan_id":"cebpf4jnsgd1na2vs0mg"},{"bike_id":"0521cc37-3a0f-4bc8-964a-96f026706e98","system_id":"levelo_inurba_marseille","lat":43.28021,"lon":5.36091,"is_reserved":false,"is_disabled":false,"rental_uris":{"android":"levelo://app?vid=0521cc37-3a0f-4bc8-964a-96f026706e98","ios":"levelo://app?vid=0521cc37-3a0f-4bc8-964a-96f026706e98"},"vehicle_type_id":"4","last_reported":1727672984,"current_range_meters":20000,"station_id":"","pricing_plan_id":"cebpf4jnsgd1na2vs0mg"},{"bike_id":"b7e783cf-2e99-47af-aa70-59c0709d4797","system_id":"levelo_inurba_marseille","lat":43.31706,"lon":5.37748,"is_reserved":false,"is_disabled":false,"rental_uris":{"android":"levelo://app?vid=b7e783cf-2e99-47af-aa70-59c0709d4797","ios":"levelo://app?vid=b7e783cf-2e99-47af-aa70-59c0709d4797"},"vehicle_type_id":"4","last_reported":1727672984,"current_range_meters":38800,"station_id":"ce4bgth2rcd13ifvqch0","pricing_plan_id":"cebpf4jnsgd1na2vs0mg"},{"bike_id":"85e14133-988d-4b21-9098-bd3c14cace39","system_id":"levelo_inurba_marseille","lat":43.27499,"lon":5.42459,"is_reserved":false,"is_disabled":false,"rental_uris":{"android":"levelo://app?vid=85e14133-988d-4b21-9098-bd3c14cace39","ios":"levelo://app?vid=85e14133-988d-4b21-9098-bd3c14cace39"},"vehicle_type_id":"4","last_reported":1727672984,"current_range_meters":33600,"station_id":"ce4bhn92rcd13ifvqgrg","pricing_plan_id":"cebpf4jnsgd1na2vs0mg"},{"bike_id":"60fccbef-d6bb-4f7e-9d03-85945fa9ba46","system_id":"levelo_inurba_marseille","lat":43.30149,"lon":5.38051,"is_reserved":false,"is_disabled":false,"rental_uris":{"android":"levelo://app?vid=60fccbef-d6bb-4f7e-9d03-85945fa9ba46","ios":"levelo://app?vid=60fccbef-d6bb-4f7e-9d03-85945fa9ba46"},"vehicle_type_id":"4","last_reported":1727672984,"current_range_meters":26000,"station_id":"ce4bgjp2rcd13ifvqbh0","pricing_plan_id":"cebpf4jnsgd1na2vs0mg"},{"bike_id":"0040b39a-a047-4725-a4ce-a062b24cc79f","system_id":"levelo_inurba_marseille","lat":43.25819,"lon":5.39419,"is_reserved":false,"is_disabled":false,"rental_uris":{"android":"levelo://app?vid=0040b39a-a047-4725-a4ce-a062b24cc79f","ios":"levelo://app?vid=0040b39a-a047-4725-a4ce-a062b24cc79f"},"vehicle_type_id":"4","last_reported":1727672984,"current_range_meters":38800,"station_id":"ce4bhip2rcd13ifvqft0","pricing_plan_id":"cebpf4jnsgd1na2vs0mg"},{"bike_id":"00ec7c2f-d5eb-4b68-8325-159a97d856e6","system_id":"levelo_inurba_marseille","lat":43.25716,"lon":5.41109,"is_reserved":false,"is_disabled":false,"rental_uris":{"android":"levelo://app?vid=00ec7c2f-d5eb-4b68-8325-159a97d856e6","ios":"levelo://app?vid=00ec7c2f-d5eb-4b68-8325-159a97d856e6"},"vehicle_type_id":"4","last_reported":1727672984,"current_range_meters":36800,"station_id":"ce4bhkp2rcd13ifvqgd0","pricing_plan_id":"cebpf4jnsgd1na2vs0mg"},{"bike_id":"45273442-0258-4613-8edf-b25bf26f941c","system_id":"levelo_inurba_marseille","lat":43.29518,"lon":5.39038,"is_reserved":false,"is_disabled":false,"rental_uris":{"android":"levelo://app?vid=45273442-0258-4613-8edf-b25bf26f941c","ios":"levelo://app?vid=45273442-0258-4613-8edf-b25bf26f941c"},"vehicle_type_id":"4","last_reported":1727672984,"current_range_meters":38800,"station_id":"ce4bh3p2rcd13ifvqdp0","pricing_plan_id":"cebpf4jnsgd1na2vs0mg"},{"bike_id":"2ec78b01-d2c8-4577-ace2-fa6a643f8218","system_id":"levelo_inurba_marseille","lat":43.31361,"lon":5.38495,"is_reserved":false,"is_disabled":false,"rental_uris":{"android":"levelo://app?vid=2ec78b01-d2c8-4577-ace2-fa6a643f8218","ios":"levelo://app?vid=2ec78b01-d2c8-4577-ace2-fa6a643f8218"},"vehicle_type_id":"4","last_reported":1727672984,"current_range_meters":20000,"station_id":"ce4bgt92rcd13ifvqcf0","pricing_plan_id":"cebpf4jnsgd1na2vs0mg"},{"bike_id":"9897413b-73f0-4239-985c-48ee52d8143f","system_id":"levelo_inurba_marseille","lat":43.33609,"lon":5.41034,"is_reserved":false,"is_disabled":false,"rental_uris":{"android":"levelo://app?vid=9897413b-73f0-4239-985c-48ee52d8143f","ios":"levelo://app?vid=9897413b-73f0-4239-985c-48ee52d8143f"},"vehicle_type_id":"4","last_reported":1727672984,"current_range_meters":38800,"station_id":"ce4bhqh2rcd13ifvqhmg","pricing_plan_id":"cebpf4jnsgd1na2vs0mg"},{"bike_id":"1ce7c25b-6bd2-4b64-b4ae-543ea784fc5d","system_id":"levelo_inurba_marseille","lat":43.337444,"lon":5.374475,"is_reserved":false,"is_disabled":false,"rental_uris":{"android":"levelo://app?vid=1ce7c25b-6bd2-4b64-b4ae-543ea784fc5d","ios":"levelo://app?vid=1ce7c25b-6bd2-4b64-b4ae-543ea784fc5d"},"vehicle_type_id":"4","last_reported":1727672984,"current_range_meters":29600,"station_id":"","pricing_plan_id":"cebpf4jnsgd1na2vs0mg"},{"bike_id":"139731c7-ee91-44ee-aec2-8aa9932087b0","system_id":"levelo_inurba_marseille","lat":43.24172,"lon":5.39723,"is_reserved":false,"is_disabled":false,"rental_uris":{"android":"levelo://app?vid=139731c7-ee91-44ee-aec2-8aa9932087b0","ios":"levelo://app?vid=139731c7-ee91-44ee-aec2-8aa9932087b0"},"vehicle_type_id":"4","last_reported":1727672984,"current_range_meters":36800,"station_id":"ce4bhn12rcd13ifvqgpg","pricing_plan_id":"cebpf4jnsgd1na2vs0mg"},{"bike_id":"eeb4b54b-284a-4a51-af38-bfe005d55c3e","system_id":"levelo_inurba_marseille","lat":43.24811,"lon":5.37463,"is_reserved":false,"is_disabled":false,"rental_uris":{"android":"levelo://app?vid=eeb4b54b-284a-4a51-af38-bfe005d55c3e","ios":"levelo://app?vid=eeb4b54b-284a-4a51-af38-bfe005d55c3e"},"vehicle_type_id":"4","last_reported":1727672984,"current_range_meters":37600,"station_id":"ce4bhgh2rcd13ifvqfb0","pricing_plan_id":"cebpf4jnsgd1na2vs0mg"},{"bike_id":"10077ee4-0bcd-44f2-8cff-e3c46aed5ac8","system_id":"levelo_inurba_marseille","lat":43.30934,"lon":5.40147,"is_reserved":false,"is_disabled":false,"rental_uris":{"android":"levelo://app?vid=10077ee4-0bcd-44f2-8cff-e3c46aed5ac8","ios":"levelo://app?vid=10077ee4-0bcd-44f2-8cff-e3c46aed5ac8"},"vehicle_type_id":"4","last_reported":1727672984,"current_range_meters":38800,"station_id":"ce4bgvp2rcd13ifvqct0","pricing_plan_id":"cebpf4jnsgd1na2vs0mg"},{"bike_id":"9efd8ab2-b3e0-460d-b5d0-ae1d1b9503f4","system_id":"levelo_inurba_marseille","lat":43.28581,"lon":5.39488,"is_reserved":false,"is_disabled":false,"rental_uris":{"android":"levelo://app?vid=9efd8ab2-b3e0-460d-b5d0-ae1d1b9503f4","ios":"levelo://app?vid=9efd8ab2-b3e0-460d-b5d0-ae1d1b9503f4"},"vehicle_type_id":"4","last_reported":1727672984,"current_range_meters":28400,"station_id":"ce4bh292rcd13ifvqdg0","pricing_plan_id":"cebpf4jnsgd1na2vs0mg"},{"bike_id":"0c6a3edd-0259-43fd-a8d1-3d4bb6023605","system_id":"levelo_inurba_marseille","lat":43.2439,"lon":5.37053,"is_reserved":false,"is_disabled":false,"rental_uris":{"android":"levelo://app?vid=0c6a3edd-0259-43fd-a8d1-3d4bb6023605","ios":"levelo://app?vid=0c6a3edd-0259-43fd-a8d1-3d4bb6023605"},"vehicle_type_id":"4","last_reported":1727672984,"current_range_meters":38400,"station_id":"ce4bhhh2rcd13ifvqfk0","pricing_plan_id":"cebpf4jnsgd1na2vs0mg"},{"bike_id":"fac2a876-c1ca-45d8-9292-8e7874d4b8de","system_id":"levelo_inurba_marseille","lat":43.3118,"lon":5.38712,"is_reserved":false,"is_disabled":false,"rental_uris":{"android":"levelo://app?vid=fac2a876-c1ca-45d8-9292-8e7874d4b8de","ios":"levelo://app?vid=fac2a876-c1ca-45d8-9292-8e7874d4b8de"},"vehicle_type_id":"4","last_reported":1727672984,"current_range_meters":35200,"station_id":"ce4bgv12rcd13ifvqcp0","pricing_plan_id":"cebpf4jnsgd1na2vs0mg"},{"bike_id":"a52d80fa-df02-4016-ba63-eea77d56a608","system_id":"levelo_inurba_marseille","lat":43.28275,"lon":5.35061,"is_reserved":false,"is_disabled":false,"rental_uris":{"android":"levelo://app?vid=a52d80fa-df02-4016-ba63-eea77d56a608","ios":"levelo://app?vid=a52d80fa-df02-4016-ba63-eea77d56a608"},"vehicle_type_id":"4","last_reported":1727672984,"current_range_meters":37600,"station_id":"ce4bhbp2rcd13ifvqerg","pricing_plan_id":"cebpf4jnsgd1na2vs0mg"},{"bike_id":"2984e241-0d85-429f-b743-7e3cc710001b","system_id":"levelo_inurba_marseille","lat":43.24808,"lon":5.37456,"is_reserved":false,"is_disabled":false,"rental_uris":{"android":"levelo://app?vid=2984e241-0d85-429f-b743-7e3cc710001b","ios":"levelo://app?vid=2984e241-0d85-429f-b743-7e3cc710001b"},"vehicle_type_id":"4","last_reported":1727672984,"current_range_meters":19200,"station_id":"ce4bhgh2rcd13ifvqfb0","pricing_plan_id":"cebpf4jnsgd1na2vs0mg"},{"bike_id":"d2e1be36-7c5e-44b0-8899-49fb5f54f6ea","system_id":"levelo_inurba_marseille","lat":43.30883,"lon":5.37171,"is_reserved":false,"is_disabled":false,"rental_uris":{"android":"levelo://app?vid=d2e1be36-7c5e-44b0-8899-49fb5f54f6ea","ios":"levelo://app?vid=d2e1be36-7c5e-44b0-8899-49fb5f54f6ea"},"vehicle_type_id":"4","last_reported":1727672984,"current_range_meters":38800,"station_id":"ce4bguh2rcd13ifvqckg","pricing_plan_id":"cebpf4jnsgd1na2vs0mg"},{"bike_id":"fd58d139-3437-4b4b-a778-810576c4260e","system_id":"levelo_inurba_marseille","lat":43.29042,"lon":5.39957,"is_reserved":false,"is_disabled":false,"rental_uris":{"android":"levelo://app?vid=fd58d139-3437-4b4b-a778-810576c4260e","ios":"levelo://app?vid=fd58d139-3437-4b4b-a778-810576c4260e"},"vehicle_type_id":"4","last_reported":1727672984,"current_range_meters":24000,"station_id":"ce4bh392rcd13ifvqdm0","pricing_plan_id":"cebpf4jnsgd1na2vs0mg"},{"bike_id":"cf3d3117-7367-4299-a0d1-3e4137ac8fcb","system_id":"levelo_inurba_marseille","lat":43.30805,"lon":5.38149,"is_reserved":false,"is_disabled":false,"rental_uris":{"android":"levelo://app?vid=cf3d3117-7367-4299-a0d1-3e4137ac8fcb","ios":"levelo://app?vid=cf3d3117-7367-4299-a0d1-3e4137ac8fcb"},"vehicle_type_id":"4","last_reported":1727672984,"current_range_meters":38800,"station_id":"ce4bgt12rcd13ifvqce0","pricing_plan_id":"cebpf4jnsgd1na2vs0mg"},{"bike_id":"ce46a156-d0b3-42ea-a724-f29a983e40e7","system_id":"levelo_inurba_marseille","lat":43.28456,"lon":5.35882,"is_reserved":false,"is_disabled":false,"rental_uris":{"android":"levelo://app?vid=ce46a156-d0b3-42ea-a724-f29a983e40e7","ios":"levelo://app?vid=ce46a156-d0b3-42ea-a724-f29a983e40e7"},"vehicle_type_id":"4","last_reported":1727672984,"current_range_meters":38800,"station_id":"ce4bhah2rcd13ifvqei0","pricing_plan_id":"cebpf4jnsgd1na2vs0mg"},{"bike_id":"6a52f468-9bf5-46c2-819d-2c732c18128e","system_id":"levelo_inurba_marseille","lat":43.239644,"lon":5.366176,"is_reserved":false,"is_disabled":false,"rental_uris":{"android":"levelo://app?vid=6a52f468-9bf5-46c2-819d-2c732c18128e","ios":"levelo://app?vid=6a52f468-9bf5-46c2-819d-2c732c18128e"},"vehicle_type_id":"4","last_reported":1727672984,"current_range_meters":30800,"station_id":"ce4bhi12rcd13ifvqfp0","pricing_plan_id":"cebpf4jnsgd1na2vs0mg"},{"bike_id":"c2e4e91c-22c9-44ca-af85-4b0d4deb4a68","system_id":"levelo_inurba_marseille","lat":43.23192,"lon":5.39972,"is_reserved":false,"is_disabled":false,"rental_uris":{"android":"levelo://app?vid=c2e4e91c-22c9-44ca-af85-4b0d4deb4a68","ios":"levelo://app?vid=c2e4e91c-22c9-44ca-af85-4b0d4deb4a68"},"vehicle_type_id":"4","last_reported":1727672984,"current_range_meters":38400,"station_id":"ce4bhn12rcd13ifvqgqg","pricing_plan_id":"cebpf4jnsgd1na2vs0mg"},{"bike_id":"d9614a14-f95d-40a5-beaa-7cd0675a0b19","system_id":"levelo_inurba_marseille","lat":43.30639,"lon":5.40071,"is_reserved":false,"is_disabled":false,"rental_uris":{"android":"levelo://app?vid=d9614a14-f95d-40a5-beaa-7cd0675a0b19","ios":"levelo://app?vid=d9614a14-f95d-40a5-beaa-7cd0675a0b19"},"vehicle_type_id":"4","last_reported":1727672984,"current_range_meters":33200,"station_id":"ce4bh112rcd13ifvqda0","pricing_plan_id":"cebpf4jnsgd1na2vs0mg"},{"bike_id":"662377ca-a910-4716-ace2-86901b6a8e67","system_id":"levelo_inurba_marseille","lat":43.30155,"lon":5.38079,"is_reserved":false,"is_disabled":false,"rental_uris":{"android":"levelo://app?vid=662377ca-a910-4716-ace2-86901b6a8e67","ios":"levelo://app?vid=662377ca-a910-4716-ace2-86901b6a8e67"},"vehicle_type_id":"4","last_reported":1727672984,"current_range_meters":9200,"station_id":"ce4bgjp2rcd13ifvqbh0","pricing_plan_id":"cebpf4jnsgd1na2vs0mg"},{"bike_id":"02ff239a-a163-4944-a8bd-470b8c379b68","system_id":"levelo_inurba_marseille","lat":43.23962,"lon":5.36628,"is_reserved":false,"is_disabled":false,"rental_uris":{"android":"levelo://app?vid=02ff239a-a163-4944-a8bd-470b8c379b68","ios":"levelo://app?vid=02ff239a-a163-4944-a8bd-470b8c379b68"},"vehicle_type_id":"4","last_reported":1727672984,"current_range_meters":38000,"station_id":"ce4bhi12rcd13ifvqfp0","pricing_plan_id":"cebpf4jnsgd1na2vs0mg"},{"bike_id":"033c94d5-2b44-402c-96cc-56e2e658328d","system_id":"levelo_inurba_marseille","lat":43.31367,"lon":5.38499,"is_reserved":false,"is_disabled":false,"rental_uris":{"android":"levelo://app?vid=033c94d5-2b44-402c-96cc-56e2e658328d","ios":"levelo://app?vid=033c94d5-2b44-402c-96cc-56e2e658328d"},"vehicle_type_id":"4","last_reported":1727672984,"current_range_meters":26000,"station_id":"ce4bgt92rcd13ifvqcf0","pricing_plan_id":"cebpf4jnsgd1na2vs0mg"},{"bike_id":"9cab4b77-e73b-485b-9196-05681379298d","system_id":"levelo_inurba_marseille","lat":43.32319,"lon":5.38286,"is_reserved":false,"is_disabled":false,"rental_uris":{"android":"levelo://app?vid=9cab4b77-e73b-485b-9196-05681379298d","ios":"levelo://app?vid=9cab4b77-e73b-485b-9196-05681379298d"},"vehicle_type_id":"4","last_reported":1727672984,"current_range_meters":34800,"station_id":"ce4bhr12rcd13ifvqhqg","pricing_plan_id":"cebpf4jnsgd1na2vs0mg"},{"bike_id":"c3d7018f-6608-4235-9fbb-a48d5bfcd8d7","system_id":"levelo_inurba_marseille","lat":43.31688,"lon":5.40475,"is_reserved":false,"is_disabled":false,"rental_uris":{"android":"levelo://app?vid=c3d7018f-6608-4235-9fbb-a48d5bfcd8d7","ios":"levelo://app?vid=c3d7018f-6608-4235-9fbb-a48d5bfcd8d7"},"vehicle_type_id":"4","last_reported":1727672984,"current_range_meters":37600,"station_id":"ce4bh012rcd13ifvqd00","pricing_plan_id":"cebpf4jnsgd1na2vs0mg"},{"bike_id":"691cc2ed-9094-472f-8b35-466f1924ad13","system_id":"levelo_inurba_marseille","lat":43.31367,"lon":5.38501,"is_reserved":false,"is_disabled":false,"rental_uris":{"android":"levelo://app?vid=691cc2ed-9094-472f-8b35-466f1924ad13","ios":"levelo://app?vid=691cc2ed-9094-472f-8b35-466f1924ad13"},"vehicle_type_id":"4","last_reported":1727672984,"current_range_meters":24000,"station_id":"ce4bgt92rcd13ifvqcf0","pricing_plan_id":"cebpf4jnsgd1na2vs0mg"},{"bike_id":"7aa643f6-0083-4683-a928-61b0f5f1cc2f","system_id":"levelo_inurba_marseille","lat":43.307526,"lon":5.380076,"is_reserved":false,"is_disabled":false,"rental_uris":{"android":"levelo://app?vid=7aa643f6-0083-4683-a928-61b0f5f1cc2f","ios":"levelo://app?vid=7aa643f6-0083-4683-a928-61b0f5f1cc2f"},"vehicle_type_id":"4","last_reported":1727672984,"current_range_meters":24400,"station_id":"ce4bgup2rcd13ifvqcn0","pricing_plan_id":"cebpf4jnsgd1na2vs0mg"},{"bike_id":"b60dce8c-09c4-4c52-8770-95d209f08890","system_id":"levelo_inurba_marseille","lat":43.298736,"lon":5.397349,"is_reserved":false,"is_disabled":false,"rental_uris":{"android":"levelo://app?vid=b60dce8c-09c4-4c52-8770-95d209f08890","ios":"levelo://app?vid=b60dce8c-09c4-4c52-8770-95d209f08890"},"vehicle_type_id":"4","last_reported":1727672984,"current_range_meters":38800,"station_id":"ce4bh0h2rcd13ifvqd50","pricing_plan_id":"cebpf4jnsgd1na2vs0mg"},{"bike_id":"14b16226-72d1-4b1f-b853-d2b23cfd6f6e","system_id":"levelo_inurba_marseille","lat":43.30463,"lon":5.37901,"is_reserved":false,"is_disabled":false,"rental_uris":{"android":"levelo://app?vid=14b16226-72d1-4b1f-b853-d2b23cfd6f6e","ios":"levelo://app?vid=14b16226-72d1-4b1f-b853-d2b23cfd6f6e"},"vehicle_type_id":"4","last_reported":1727672984,"current_range_meters":22800,"station_id":"ce4bgup2rcd13ifvqcn0","pricing_plan_id":"cebpf4jnsgd1na2vs0mg"},{"bike_id":"5b4a633f-0b63-474b-abd4-9003a7b86eed","system_id":"levelo_inurba_marseille","lat":43.32346,"lon":5.40624,"is_reserved":false,"is_disabled":false,"rental_uris":{"android":"levelo://app?vid=5b4a633f-0b63-474b-abd4-9003a7b86eed","ios":"levelo://app?vid=5b4a633f-0b63-474b-abd4-9003a7b86eed"},"vehicle_type_id":"4","last_reported":1727672984,"current_range_meters":38800,"station_id":"ce4bhq92rcd13ifvqhjg","pricing_plan_id":"cebpf4jnsgd1na2vs0mg"},{"bike_id":"f317aa86-5363-4257-8ca7-06b8ea9f26bb","system_id":"levelo_inurba_marseille","lat":43.31536,"lon":5.38026,"is_reserved":false,"is_disabled":false,"rental_uris":{"android":"levelo://app?vid=f317aa86-5363-4257-8ca7-06b8ea9f26bb","ios":"levelo://app?vid=f317aa86-5363-4257-8ca7-06b8ea9f26bb"},"vehicle_type_id":"4","last_reported":1727672984,"current_range_meters":29600,"station_id":"ce4bhsp2rcd13ifvqi50","pricing_plan_id":"cebpf4jnsgd1na2vs0mg"},{"bike_id":"e12790d0-6819-4cab-952f-e550b0aba2b8","system_id":"levelo_inurba_marseille","lat":43.27207,"lon":5.39172,"is_reserved":false,"is_disabled":false,"rental_uris":{"android":"levelo://app?vid=e12790d0-6819-4cab-952f-e550b0aba2b8","ios":"levelo://app?vid=e12790d0-6819-4cab-952f-e550b0aba2b8"},"vehicle_type_id":"4","last_reported":1727672984,"current_range_meters":7200,"station_id":"ce4bhhp2rcd13ifvqfm0","pricing_plan_id":"cebpf4jnsgd1na2vs0mg"},{"bike_id":"e150718b-3b11-4746-aaf5-ed9fe54bd243","system_id":"levelo_inurba_marseille","lat":43.24077,"lon":5.37746,"is_reserved":false,"is_disabled":false,"rental_uris":{"android":"levelo://app?vid=e150718b-3b11-4746-aaf5-ed9fe54bd243","ios":"levelo://app?vid=e150718b-3b11-4746-aaf5-ed9fe54bd243"},"vehicle_type_id":"4","last_reported":1727672984,"current_range_meters":12800,"station_id":"ce4bhnp2rcd13ifvqgvg","pricing_plan_id":"cebpf4jnsgd1na2vs0mg"},{"bike_id":"5346e7a2-e1c2-46db-bb9f-77125f9b3250","system_id":"levelo_inurba_marseille","lat":43.28709,"lon":5.37933,"is_reserved":false,"is_disabled":false,"rental_uris":{"android":"levelo://app?vid=5346e7a2-e1c2-46db-bb9f-77125f9b3250","ios":"levelo://app?vid=5346e7a2-e1c2-46db-bb9f-77125f9b3250"},"vehicle_type_id":"4","last_reported":1727672984,"current_range_meters":28800,"station_id":"ce4bh9p2rcd13ifvqec0","pricing_plan_id":"cebpf4jnsgd1na2vs0mg"},{"bike_id":"73bc85b9-959b-4487-b86b-75e0a4fe28a2","system_id":"levelo_inurba_marseille","lat":43.27066,"lon":5.42281,"is_reserved":false,"is_disabled":false,"rental_uris":{"android":"levelo://app?vid=73bc85b9-959b-4487-b86b-75e0a4fe28a2","ios":"levelo://app?vid=73bc85b9-959b-4487-b86b-75e0a4fe28a2"},"vehicle_type_id":"4","last_reported":1727672984,"current_range_meters":18800,"station_id":"ce4bhk92rcd13ifvqgb0","pricing_plan_id":"cebpf4jnsgd1na2vs0mg"},{"bike_id":"883dbd06-c2fc-4488-9b5e-ef4f05339f9b","system_id":"levelo_inurba_marseille","lat":43.3022,"lon":5.36615,"is_reserved":false,"is_disabled":false,"rental_uris":{"android":"levelo://app?vid=883dbd06-c2fc-4488-9b5e-ef4f05339f9b","ios":"levelo://app?vid=883dbd06-c2fc-4488-9b5e-ef4f05339f9b"},"vehicle_type_id":"4","last_reported":1727672984,"current_range_meters":26800,"station_id":"ce4bgrh2rcd13ifvqc8g","pricing_plan_id":"cebpf4jnsgd1na2vs0mg"},{"bike_id":"6c8b138c-21e2-45bf-a989-ce45493ac988","system_id":"levelo_inurba_marseille","lat":43.232,"lon":5.35544,"is_reserved":false,"is_disabled":false,"rental_uris":{"android":"levelo://app?vid=6c8b138c-21e2-45bf-a989-ce45493ac988","ios":"levelo://app?vid=6c8b138c-21e2-45bf-a989-ce45493ac988"},"vehicle_type_id":"4","last_reported":1727672984,"current_range_meters":37600,"station_id":"ce4bhu92rcd13ifvqi70","pricing_plan_id":"cebpf4jnsgd1na2vs0mg"},{"bike_id":"61b80206-8211-4df0-b90b-eee6dba44a64","system_id":"levelo_inurba_marseille","lat":43.27566,"lon":5.38431,"is_reserved":false,"is_disabled":false,"rental_uris":{"android":"levelo://app?vid=61b80206-8211-4df0-b90b-eee6dba44a64","ios":"levelo://app?vid=61b80206-8211-4df0-b90b-eee6dba44a64"},"vehicle_type_id":"4","last_reported":1727672984,"current_range_meters":20400,"station_id":"ce4bhh92rcd13ifvqfi0","pricing_plan_id":"cebpf4jnsgd1na2vs0mg"},{"bike_id":"cf2a99f0-171d-46e2-b5f9-b8e518581e33","system_id":"levelo_inurba_marseille","lat":43.239655,"lon":5.366215,"is_reserved":false,"is_disabled":false,"rental_uris":{"android":"levelo://app?vid=cf2a99f0-171d-46e2-b5f9-b8e518581e33","ios":"levelo://app?vid=cf2a99f0-171d-46e2-b5f9-b8e518581e33"},"vehicle_type_id":"4","last_reported":1727672984,"current_range_meters":29600,"station_id":"ce4bhi12rcd13ifvqfp0","pricing_plan_id":"cebpf4jnsgd1na2vs0mg"},{"bike_id":"06b0b27b-bc9b-42ef-b165-9c5e2046e3e4","system_id":"levelo_inurba_marseille","lat":43.26805,"lon":5.40261,"is_reserved":false,"is_disabled":false,"rental_uris":{"android":"levelo://app?vid=06b0b27b-bc9b-42ef-b165-9c5e2046e3e4","ios":"levelo://app?vid=06b0b27b-bc9b-42ef-b165-9c5e2046e3e4"},"vehicle_type_id":"4","last_reported":1727672984,"current_range_meters":39200,"station_id":"ce501612rcd8frsf0b60","pricing_plan_id":"cebpf4jnsgd1na2vs0mg"},{"bike_id":"c24618c3-9808-4466-b5fe-1686a52e37f9","system_id":"levelo_inurba_marseille","lat":43.29419,"lon":5.38621,"is_reserved":false,"is_disabled":false,"rental_uris":{"android":"levelo://app?vid=c24618c3-9808-4466-b5fe-1686a52e37f9","ios":"levelo://app?vid=c24618c3-9808-4466-b5fe-1686a52e37f9"},"vehicle_type_id":"4","last_reported":1727672984,"current_range_meters":7200,"station_id":"ce4bh2h2rcd13ifvqdh0","pricing_plan_id":"cebpf4jnsgd1na2vs0mg"},{"bike_id":"6427a805-0f66-4346-96b4-4be0ebb43bb5","system_id":"levelo_inurba_marseille","lat":43.32369,"lon":5.38889,"is_reserved":false,"is_disabled":false,"rental_uris":{"android":"levelo://app?vid=6427a805-0f66-4346-96b4-4be0ebb43bb5","ios":"levelo://app?vid=6427a805-0f66-4346-96b4-4be0ebb43bb5"},"vehicle_type_id":"4","last_reported":1727672984,"current_range_meters":25200,"station_id":"ce4bhqp2rcd13ifvqhog","pricing_plan_id":"cebpf4jnsgd1na2vs0mg"},{"bike_id":"4c59b6a6-13a5-4f15-8ea7-e82f231118a7","system_id":"levelo_inurba_marseille","lat":43.29895,"lon":5.4366,"is_reserved":false,"is_disabled":false,"rental_uris":{"android":"levelo://app?vid=4c59b6a6-13a5-4f15-8ea7-e82f231118a7","ios":"levelo://app?vid=4c59b6a6-13a5-4f15-8ea7-e82f231118a7"},"vehicle_type_id":"4","last_reported":1727672984,"current_range_meters":37600,"station_id":"ce4bhpp2rcd13ifvqhfg","pricing_plan_id":"cebpf4jnsgd1na2vs0mg"},{"bike_id":"c7553275-606c-43b9-8caf-40c79a8585da","system_id":"levelo_inurba_marseille","lat":43.25718,"lon":5.4111,"is_reserved":false,"is_disabled":false,"rental_uris":{"android":"levelo://app?vid=c7553275-606c-43b9-8caf-40c79a8585da","ios":"levelo://app?vid=c7553275-606c-43b9-8caf-40c79a8585da"},"vehicle_type_id":"4","last_reported":1727672984,"current_range_meters":38800,"station_id":"ce4bhkp2rcd13ifvqgd0","pricing_plan_id":"cebpf4jnsgd1na2vs0mg"},{"bike_id":"0c9acc8e-34a5-4946-bbed-837f3f3ff81d","system_id":"levelo_inurba_marseille","lat":43.30888,"lon":5.39635,"is_reserved":false,"is_disabled":false,"rental_uris":{"android":"levelo://app?vid=0c9acc8e-34a5-4946-bbed-837f3f3ff81d","ios":"levelo://app?vid=0c9acc8e-34a5-4946-bbed-837f3f3ff81d"},"vehicle_type_id":"4","last_reported":1727672984,"current_range_meters":38400,"station_id":"ce4bh012rcd13ifvqcv0","pricing_plan_id":"cebpf4jnsgd1na2vs0mg"},{"bike_id":"52f17877-110a-422d-89ae-fdeda162e6f3","system_id":"levelo_inurba_marseille","lat":43.23956,"lon":5.36627,"is_reserved":false,"is_disabled":false,"rental_uris":{"android":"levelo://app?vid=52f17877-110a-422d-89ae-fdeda162e6f3","ios":"levelo://app?vid=52f17877-110a-422d-89ae-fdeda162e6f3"},"vehicle_type_id":"4","last_reported":1727672984,"current_range_meters":2800,"station_id":"ce4bhi12rcd13ifvqfp0","pricing_plan_id":"cebpf4jnsgd1na2vs0mg"},{"bike_id":"306b57b5-0aa3-40e2-a129-4df713bbc6fc","system_id":"levelo_inurba_marseille","lat":43.28711,"lon":5.39988,"is_reserved":false,"is_disabled":false,"rental_uris":{"android":"levelo://app?vid=306b57b5-0aa3-40e2-a129-4df713bbc6fc","ios":"levelo://app?vid=306b57b5-0aa3-40e2-a129-4df713bbc6fc"},"vehicle_type_id":"4","last_reported":1727672984,"current_range_meters":34000,"station_id":"ce4bho92rcd13ifvqh3g","pricing_plan_id":"cebpf4jnsgd1na2vs0mg"},{"bike_id":"b5d31c5b-ccdc-44c6-93f1-76c109218604","system_id":"levelo_inurba_marseille","lat":43.25726,"lon":5.41106,"is_reserved":false,"is_disabled":false,"rental_uris":{"android":"levelo://app?vid=b5d31c5b-ccdc-44c6-93f1-76c109218604","ios":"levelo://app?vid=b5d31c5b-ccdc-44c6-93f1-76c109218604"},"vehicle_type_id":"4","last_reported":1727672984,"current_range_meters":37600,"station_id":"ce4bhkp2rcd13ifvqgd0","pricing_plan_id":"cebpf4jnsgd1na2vs0mg"},{"bike_id":"1a00221f-aae4-4ab0-a6df-b37bd531256d","system_id":"levelo_inurba_marseille","lat":43.27495,"lon":5.4245,"is_reserved":false,"is_disabled":false,"rental_uris":{"android":"levelo://app?vid=1a00221f-aae4-4ab0-a6df-b37bd531256d","ios":"levelo://app?vid=1a00221f-aae4-4ab0-a6df-b37bd531256d"},"vehicle_type_id":"4","last_reported":1727672984,"current_range_meters":34000,"station_id":"ce4bhn92rcd13ifvqgrg","pricing_plan_id":"cebpf4jnsgd1na2vs0mg"},{"bike_id":"dbb337ea-df78-4139-8280-f87130f967aa","system_id":"levelo_inurba_marseille","lat":43.312836,"lon":5.375599,"is_reserved":false,"is_disabled":false,"rental_uris":{"android":"levelo://app?vid=dbb337ea-df78-4139-8280-f87130f967aa","ios":"levelo://app?vid=dbb337ea-df78-4139-8280-f87130f967aa"},"vehicle_type_id":"4","last_reported":1727672984,"current_range_meters":38000,"station_id":"ce4bgl92rcd13ifvqbq0","pricing_plan_id":"cebpf4jnsgd1na2vs0mg"},{"bike_id":"e9c9a824-77dd-4a8d-b5f7-16a11637475b","system_id":"levelo_inurba_marseille","lat":43.3255,"lon":5.41437,"is_reserved":false,"is_disabled":false,"rental_uris":{"android":"levelo://app?vid=e9c9a824-77dd-4a8d-b5f7-16a11637475b","ios":"levelo://app?vid=e9c9a824-77dd-4a8d-b5f7-16a11637475b"},"vehicle_type_id":"4","last_reported":1727672984,"current_range_meters":39200,"station_id":"ce4bhq12rcd13ifvqhhg","pricing_plan_id":"cebpf4jnsgd1na2vs0mg"},{"bike_id":"a2cebfe8-17a6-4c8a-9675-79b8388fe63f","system_id":"levelo_inurba_marseille","lat":43.30155,"lon":5.38081,"is_reserved":false,"is_disabled":false,"rental_uris":{"android":"levelo://app?vid=a2cebfe8-17a6-4c8a-9675-79b8388fe63f","ios":"levelo://app?vid=a2cebfe8-17a6-4c8a-9675-79b8388fe63f"},"vehicle_type_id":"4","last_reported":1727672984,"current_range_meters":38400,"station_id":"ce4bgjp2rcd13ifvqbh0","pricing_plan_id":"cebpf4jnsgd1na2vs0mg"},{"bike_id":"53922870-e7aa-4e36-a183-ae9cdb53ed16","system_id":"levelo_inurba_marseille","lat":43.28489,"lon":5.38564,"is_reserved":false,"is_disabled":false,"rental_uris":{"android":"levelo://app?vid=53922870-e7aa-4e36-a183-ae9cdb53ed16","ios":"levelo://app?vid=53922870-e7aa-4e36-a183-ae9cdb53ed16"},"vehicle_type_id":"4","last_reported":1727672984,"current_range_meters":38800,"station_id":"ce4bh8p2rcd13ifvqeb0","pricing_plan_id":"cebpf4jnsgd1na2vs0mg"},{"bike_id":"d87af6af-7ad4-4bce-96ae-080c876cc48c","system_id":"levelo_inurba_marseille","lat":43.24392,"lon":5.37061,"is_reserved":false,"is_disabled":false,"rental_uris":{"android":"levelo://app?vid=d87af6af-7ad4-4bce-96ae-080c876cc48c","ios":"levelo://app?vid=d87af6af-7ad4-4bce-96ae-080c876cc48c"},"vehicle_type_id":"4","last_reported":1727672984,"current_range_meters":38800,"station_id":"ce4bhhh2rcd13ifvqfk0","pricing_plan_id":"cebpf4jnsgd1na2vs0mg"},{"bike_id":"124cc49e-bc3f-4ee2-96b6-78f4c29aba27","system_id":"levelo_inurba_marseille","lat":43.25005,"lon":5.38918,"is_reserved":false,"is_disabled":false,"rental_uris":{"android":"levelo://app?vid=124cc49e-bc3f-4ee2-96b6-78f4c29aba27","ios":"levelo://app?vid=124cc49e-bc3f-4ee2-96b6-78f4c29aba27"},"vehicle_type_id":"4","last_reported":1727672984,"current_range_meters":19200,"station_id":"ce4bhgp2rcd13ifvqfd0","pricing_plan_id":"cebpf4jnsgd1na2vs0mg"},{"bike_id":"fd14ba81-3f44-4ac1-b066-8941269a20c6","system_id":"levelo_inurba_marseille","lat":43.29243,"lon":5.42675,"is_reserved":false,"is_disabled":false,"rental_uris":{"android":"levelo://app?vid=fd14ba81-3f44-4ac1-b066-8941269a20c6","ios":"levelo://app?vid=fd14ba81-3f44-4ac1-b066-8941269a20c6"},"vehicle_type_id":"4","last_reported":1727672984,"current_range_meters":14400,"station_id":"ce4bhnh2rcd13ifvqgug","pricing_plan_id":"cebpf4jnsgd1na2vs0mg"},{"bike_id":"d68626d3-b38e-4eab-bcdd-30642681f59d","system_id":"levelo_inurba_marseille","lat":43.30887,"lon":5.39629,"is_reserved":false,"is_disabled":false,"rental_uris":{"android":"levelo://app?vid=d68626d3-b38e-4eab-bcdd-30642681f59d","ios":"levelo://app?vid=d68626d3-b38e-4eab-bcdd-30642681f59d"},"vehicle_type_id":"4","last_reported":1727672984,"current_range_meters":38800,"station_id":"ce4bh012rcd13ifvqcv0","pricing_plan_id":"cebpf4jnsgd1na2vs0mg"},{"bike_id":"c580b631-93ca-4742-b04a-ae12d64c16c0","system_id":"levelo_inurba_marseille","lat":43.26684,"lon":5.38262,"is_reserved":false,"is_disabled":false,"rental_uris":{"android":"levelo://app?vid=c580b631-93ca-4742-b04a-ae12d64c16c0","ios":"levelo://app?vid=c580b631-93ca-4742-b04a-ae12d64c16c0"},"vehicle_type_id":"4","last_reported":1727672984,"current_range_meters":38400,"station_id":"ce4bhg92rcd13ifvqf90","pricing_plan_id":"cebpf4jnsgd1na2vs0mg"},{"bike_id":"bd361e97-30d0-4702-9649-73d68261767f","system_id":"levelo_inurba_marseille","lat":43.290372,"lon":5.399588,"is_reserved":false,"is_disabled":false,"rental_uris":{"android":"levelo://app?vid=bd361e97-30d0-4702-9649-73d68261767f","ios":"levelo://app?vid=bd361e97-30d0-4702-9649-73d68261767f"},"vehicle_type_id":"4","last_reported":1727672984,"current_range_meters":38800,"station_id":"ce4bh392rcd13ifvqdm0","pricing_plan_id":"cebpf4jnsgd1na2vs0mg"},{"bike_id":"e3657382-df98-4bdf-8071-5d1736cf3e44","system_id":"levelo_inurba_marseille","lat":43.28266,"lon":5.3507,"is_reserved":false,"is_disabled":false,"rental_uris":{"android":"levelo://app?vid=e3657382-df98-4bdf-8071-5d1736cf3e44","ios":"levelo://app?vid=e3657382-df98-4bdf-8071-5d1736cf3e44"},"vehicle_type_id":"4","last_reported":1727672984,"current_range_meters":38400,"station_id":"ce4bhbp2rcd13ifvqerg","pricing_plan_id":"cebpf4jnsgd1na2vs0mg"},{"bike_id":"ded7c34d-2345-47c9-835d-dc3c344079ef","system_id":"levelo_inurba_marseille","lat":43.29559,"lon":5.42283,"is_reserved":false,"is_disabled":false,"rental_uris":{"android":"levelo://app?vid=ded7c34d-2345-47c9-835d-dc3c344079ef","ios":"levelo://app?vid=ded7c34d-2345-47c9-835d-dc3c344079ef"},"vehicle_type_id":"4","last_reported":1727672984,"current_range_meters":37600,"station_id":"ce4bhph2rcd13ifvqhdg","pricing_plan_id":"cebpf4jnsgd1na2vs0mg"},{"bike_id":"8ae5c4e3-c9c7-4da9-890a-2b77c845bc1f","system_id":"levelo_inurba_marseille","lat":43.253357,"lon":5.402002,"is_reserved":false,"is_disabled":false,"rental_uris":{"android":"levelo://app?vid=8ae5c4e3-c9c7-4da9-890a-2b77c845bc1f","ios":"levelo://app?vid=8ae5c4e3-c9c7-4da9-890a-2b77c845bc1f"},"vehicle_type_id":"4","last_reported":1727672984,"current_range_meters":35200,"station_id":"ce4bhh12rcd13ifvqfg0","pricing_plan_id":"cebpf4jnsgd1na2vs0mg"},{"bike_id":"a19575a6-df26-4cef-9c23-66c2680d0499","system_id":"levelo_inurba_marseille","lat":43.29196,"lon":5.39326,"is_reserved":false,"is_disabled":false,"rental_uris":{"android":"levelo://app?vid=a19575a6-df26-4cef-9c23-66c2680d0499","ios":"levelo://app?vid=a19575a6-df26-4cef-9c23-66c2680d0499"},"vehicle_type_id":"4","last_reported":1727672984,"current_range_meters":33200,"station_id":"ce4bh192rcd13ifvqdd0","pricing_plan_id":"cebpf4jnsgd1na2vs0mg"},{"bike_id":"7783cbb7-0ab7-4f4c-9612-9e4f22942bc7","system_id":"levelo_inurba_marseille","lat":43.27054,"lon":5.40262,"is_reserved":false,"is_disabled":false,"rental_uris":{"android":"levelo://app?vid=7783cbb7-0ab7-4f4c-9612-9e4f22942bc7","ios":"levelo://app?vid=7783cbb7-0ab7-4f4c-9612-9e4f22942bc7"},"vehicle_type_id":"4","last_reported":1727672984,"current_range_meters":22800,"station_id":"ce4bhk92rcd13ifvqgc0","pricing_plan_id":"cebpf4jnsgd1na2vs0mg"},{"bike_id":"85a7ce6d-c78a-4356-8d69-4e768e529bde","system_id":"levelo_inurba_marseille","lat":43.32263,"lon":5.40649,"is_reserved":false,"is_disabled":false,"rental_uris":{"android":"levelo://app?vid=85a7ce6d-c78a-4356-8d69-4e768e529bde","ios":"levelo://app?vid=85a7ce6d-c78a-4356-8d69-4e768e529bde"},"vehicle_type_id":"4","last_reported":1727672984,"current_range_meters":27200,"station_id":"","pricing_plan_id":"cebpf4jnsgd1na2vs0mg"},{"bike_id":"18b188e6-aa6a-4bd7-ad05-6ca16854b93f","system_id":"levelo_inurba_marseille","lat":43.27066,"lon":5.42274,"is_reserved":false,"is_disabled":false,"rental_uris":{"android":"levelo://app?vid=18b188e6-aa6a-4bd7-ad05-6ca16854b93f","ios":"levelo://app?vid=18b188e6-aa6a-4bd7-ad05-6ca16854b93f"},"vehicle_type_id":"4","last_reported":1727672984,"current_range_meters":30800,"station_id":"ce4bhk92rcd13ifvqgb0","pricing_plan_id":"cebpf4jnsgd1na2vs0mg"},{"bike_id":"408d9401-5194-45b1-948e-a2c15040c41f","system_id":"levelo_inurba_marseille","lat":43.23199,"lon":5.35542,"is_reserved":false,"is_disabled":false,"rental_uris":{"android":"levelo://app?vid=408d9401-5194-45b1-948e-a2c15040c41f","ios":"levelo://app?vid=408d9401-5194-45b1-948e-a2c15040c41f"},"vehicle_type_id":"4","last_reported":1727672984,"current_range_meters":11600,"station_id":"ce4bhu92rcd13ifvqi70","pricing_plan_id":"cebpf4jnsgd1na2vs0mg"},{"bike_id":"94fdfe10-8c09-41e0-b800-38c859b3f321","system_id":"levelo_inurba_marseille","lat":43.32921,"lon":5.39067,"is_reserved":false,"is_disabled":false,"rental_uris":{"android":"levelo://app?vid=94fdfe10-8c09-41e0-b800-38c859b3f321","ios":"levelo://app?vid=94fdfe10-8c09-41e0-b800-38c859b3f321"},"vehicle_type_id":"4","last_reported":1727672984,"current_range_meters":34800,"station_id":"","pricing_plan_id":"cebpf4jnsgd1na2vs0mg"},{"bike_id":"b8f7edaf-ab4b-4656-a5a6-f73fabed2083","system_id":"levelo_inurba_marseille","lat":43.30952,"lon":5.39026,"is_reserved":false,"is_disabled":false,"rental_uris":{"android":"levelo://app?vid=b8f7edaf-ab4b-4656-a5a6-f73fabed2083","ios":"levelo://app?vid=b8f7edaf-ab4b-4656-a5a6-f73fabed2083"},"vehicle_type_id":"4","last_reported":1727672984,"current_range_meters":38800,"station_id":"ce4bgup2rcd13ifvqco0","pricing_plan_id":"cebpf4jnsgd1na2vs0mg"},{"bike_id":"408a7762-e992-4738-9665-4e6b4d5116b5","system_id":"levelo_inurba_marseille","lat":43.28691,"lon":5.3738,"is_reserved":false,"is_disabled":false,"rental_uris":{"android":"levelo://app?vid=408a7762-e992-4738-9665-4e6b4d5116b5","ios":"levelo://app?vid=408a7762-e992-4738-9665-4e6b4d5116b5"},"vehicle_type_id":"4","last_reported":1727672984,"current_range_meters":36400,"station_id":"ce4bh3p2rcd13ifvqdq0","pricing_plan_id":"cebpf4jnsgd1na2vs0mg"},{"bike_id":"24f66ba0-9728-4d6c-96ef-74d761c96131","system_id":"levelo_inurba_marseille","lat":43.30467,"lon":5.37899,"is_reserved":false,"is_disabled":false,"rental_uris":{"android":"levelo://app?vid=24f66ba0-9728-4d6c-96ef-74d761c96131","ios":"levelo://app?vid=24f66ba0-9728-4d6c-96ef-74d761c96131"},"vehicle_type_id":"4","last_reported":1727672984,"current_range_meters":27600,"station_id":"ce4bgup2rcd13ifvqcn0","pricing_plan_id":"cebpf4jnsgd1na2vs0mg"},{"bike_id":"6c1daff6-f54d-4648-b1a6-371a827d8209","system_id":"levelo_inurba_marseille","lat":43.33023,"lon":5.39041,"is_reserved":false,"is_disabled":false,"rental_uris":{"android":"levelo://app?vid=6c1daff6-f54d-4648-b1a6-371a827d8209","ios":"levelo://app?vid=6c1daff6-f54d-4648-b1a6-371a827d8209"},"vehicle_type_id":"4","last_reported":1727672984,"current_range_meters":38800,"station_id":"ce4bhr92rcd13ifvqhrg","pricing_plan_id":"cebpf4jnsgd1na2vs0mg"},{"bike_id":"40af7eb4-6cd7-462c-b9fb-34273e78aa71","system_id":"levelo_inurba_marseille","lat":43.2407,"lon":5.37755,"is_reserved":false,"is_disabled":false,"rental_uris":{"android":"levelo://app?vid=40af7eb4-6cd7-462c-b9fb-34273e78aa71","ios":"levelo://app?vid=40af7eb4-6cd7-462c-b9fb-34273e78aa71"},"vehicle_type_id":"4","last_reported":1727672984,"current_range_meters":8000,"station_id":"ce4bhnp2rcd13ifvqgvg","pricing_plan_id":"cebpf4jnsgd1na2vs0mg"},{"bike_id":"55b9e4b2-af8b-41a1-93e5-6004b819fac8","system_id":"levelo_inurba_marseille","lat":43.284661,"lon":5.358879,"is_reserved":false,"is_disabled":false,"rental_uris":{"android":"levelo://app?vid=55b9e4b2-af8b-41a1-93e5-6004b819fac8","ios":"levelo://app?vid=55b9e4b2-af8b-41a1-93e5-6004b819fac8"},"vehicle_type_id":"4","last_reported":1727672984,"current_range_meters":38000,"station_id":"ce4bhah2rcd13ifvqei0","pricing_plan_id":"cebpf4jnsgd1na2vs0mg"},{"bike_id":"a63d4449-4f5a-4f1c-9a3c-27c8d74bd2a3","system_id":"levelo_inurba_marseille","lat":43.24392,"lon":5.37061,"is_reserved":false,"is_disabled":false,"rental_uris":{"android":"levelo://app?vid=a63d4449-4f5a-4f1c-9a3c-27c8d74bd2a3","ios":"levelo://app?vid=a63d4449-4f5a-4f1c-9a3c-27c8d74bd2a3"},"vehicle_type_id":"4","last_reported":1727672984,"current_range_meters":7200,"station_id":"ce4bhhh2rcd13ifvqfk0","pricing_plan_id":"cebpf4jnsgd1na2vs0mg"},{"bike_id":"5fdc7006-20fd-49cc-8d31-e5c00de1f90d","system_id":"levelo_inurba_marseille","lat":43.29275,"lon":5.40126,"is_reserved":false,"is_disabled":false,"rental_uris":{"android":"levelo://app?vid=5fdc7006-20fd-49cc-8d31-e5c00de1f90d","ios":"levelo://app?vid=5fdc7006-20fd-49cc-8d31-e5c00de1f90d"},"vehicle_type_id":"4","last_reported":1727672984,"current_range_meters":38800,"station_id":"ce4bh312rcd13ifvqdk0","pricing_plan_id":"cebpf4jnsgd1na2vs0mg"},{"bike_id":"b187d656-363f-4d58-ae4c-249a3172d21b","system_id":"levelo_inurba_marseille","lat":43.27069,"lon":5.42278,"is_reserved":false,"is_disabled":false,"rental_uris":{"android":"levelo://app?vid=b187d656-363f-4d58-ae4c-249a3172d21b","ios":"levelo://app?vid=b187d656-363f-4d58-ae4c-249a3172d21b"},"vehicle_type_id":"4","last_reported":1727672984,"current_range_meters":33200,"station_id":"ce4bhk92rcd13ifvqgb0","pricing_plan_id":"cebpf4jnsgd1na2vs0mg"},{"bike_id":"f0d756a4-9211-4b22-83eb-7505e550378a","system_id":"levelo_inurba_marseille","lat":43.28427,"lon":5.34985,"is_reserved":false,"is_disabled":false,"rental_uris":{"android":"levelo://app?vid=f0d756a4-9211-4b22-83eb-7505e550378a","ios":"levelo://app?vid=f0d756a4-9211-4b22-83eb-7505e550378a"},"vehicle_type_id":"4","last_reported":1727672984,"current_range_meters":31200,"station_id":"ce4bhbh2rcd13ifvqepg","pricing_plan_id":"cebpf4jnsgd1na2vs0mg"},{"bike_id":"705dc837-5d43-43af-8ff9-e7e283136076","system_id":"levelo_inurba_marseille","lat":43.30881,"lon":5.39627,"is_reserved":false,"is_disabled":false,"rental_uris":{"android":"levelo://app?vid=705dc837-5d43-43af-8ff9-e7e283136076","ios":"levelo://app?vid=705dc837-5d43-43af-8ff9-e7e283136076"},"vehicle_type_id":"4","last_reported":1727672984,"current_range_meters":38400,"station_id":"ce4bh012rcd13ifvqcv0","pricing_plan_id":"cebpf4jnsgd1na2vs0mg"},{"bike_id":"029c5ad5-e943-4c73-a9a6-69f56245669d","system_id":"levelo_inurba_marseille","lat":43.23962,"lon":5.36628,"is_reserved":false,"is_disabled":false,"rental_uris":{"android":"levelo://app?vid=029c5ad5-e943-4c73-a9a6-69f56245669d","ios":"levelo://app?vid=029c5ad5-e943-4c73-a9a6-69f56245669d"},"vehicle_type_id":"4","last_reported":1727672984,"current_range_meters":38800,"station_id":"ce4bhi12rcd13ifvqfp0","pricing_plan_id":"cebpf4jnsgd1na2vs0mg"},{"bike_id":"7eda30fe-d024-4258-b0e3-cac7d23be01b","system_id":"levelo_inurba_marseille","lat":43.24809,"lon":5.37456,"is_reserved":false,"is_disabled":false,"rental_uris":{"android":"levelo://app?vid=7eda30fe-d024-4258-b0e3-cac7d23be01b","ios":"levelo://app?vid=7eda30fe-d024-4258-b0e3-cac7d23be01b"},"vehicle_type_id":"4","last_reported":1727672984,"current_range_meters":20000,"station_id":"ce4bhgh2rcd13ifvqfb0","pricing_plan_id":"cebpf4jnsgd1na2vs0mg"},{"bike_id":"4dcb809b-3292-4776-8893-7eaa35d8ecd3","system_id":"levelo_inurba_marseille","lat":43.29877,"lon":5.39734,"is_reserved":false,"is_disabled":false,"rental_uris":{"android":"levelo://app?vid=4dcb809b-3292-4776-8893-7eaa35d8ecd3","ios":"levelo://app?vid=4dcb809b-3292-4776-8893-7eaa35d8ecd3"},"vehicle_type_id":"4","last_reported":1727672984,"current_range_meters":18000,"station_id":"ce4bh0h2rcd13ifvqd50","pricing_plan_id":"cebpf4jnsgd1na2vs0mg"},{"bike_id":"9b5c8671-60f5-4270-a7f1-4b1f61657b16","system_id":"levelo_inurba_marseille","lat":43.25117,"lon":5.40319,"is_reserved":false,"is_disabled":false,"rental_uris":{"android":"levelo://app?vid=9b5c8671-60f5-4270-a7f1-4b1f61657b16","ios":"levelo://app?vid=9b5c8671-60f5-4270-a7f1-4b1f61657b16"},"vehicle_type_id":"4","last_reported":1727672984,"current_range_meters":38800,"station_id":"ce4bhlh2rcd13ifvqgig","pricing_plan_id":"cebpf4jnsgd1na2vs0mg"},{"bike_id":"b8b0ed43-3ad8-4d9c-a273-a462ab813568","system_id":"levelo_inurba_marseille","lat":43.29874,"lon":5.39733,"is_reserved":false,"is_disabled":false,"rental_uris":{"android":"levelo://app?vid=b8b0ed43-3ad8-4d9c-a273-a462ab813568","ios":"levelo://app?vid=b8b0ed43-3ad8-4d9c-a273-a462ab813568"},"vehicle_type_id":"4","last_reported":1727672984,"current_range_meters":13600,"station_id":"ce4bh0h2rcd13ifvqd50","pricing_plan_id":"cebpf4jnsgd1na2vs0mg"},{"bike_id":"8bd4d1bb-8d78-40d5-b4f7-984df59cf0ce","system_id":"levelo_inurba_marseille","lat":43.31079,"lon":5.38358,"is_reserved":false,"is_disabled":false,"rental_uris":{"android":"levelo://app?vid=8bd4d1bb-8d78-40d5-b4f7-984df59cf0ce","ios":"levelo://app?vid=8bd4d1bb-8d78-40d5-b4f7-984df59cf0ce"},"vehicle_type_id":"4","last_reported":1727672984,"current_range_meters":8800,"station_id":"ce4bgv92rcd13ifvqcr0","pricing_plan_id":"cebpf4jnsgd1na2vs0mg"},{"bike_id":"11fd99af-1ad0-4cd3-9609-5f9d6cd88aee","system_id":"levelo_inurba_marseille","lat":43.30962,"lon":5.39033,"is_reserved":false,"is_disabled":false,"rental_uris":{"android":"levelo://app?vid=11fd99af-1ad0-4cd3-9609-5f9d6cd88aee","ios":"levelo://app?vid=11fd99af-1ad0-4cd3-9609-5f9d6cd88aee"},"vehicle_type_id":"4","last_reported":1727672984,"current_range_meters":33200,"station_id":"ce4bgup2rcd13ifvqco0","pricing_plan_id":"cebpf4jnsgd1na2vs0mg"},{"bike_id":"007b7d32-944c-4503-914a-33cee824c269","system_id":"levelo_inurba_marseille","lat":43.306464,"lon":5.400866,"is_reserved":false,"is_disabled":false,"rental_uris":{"android":"levelo://app?vid=007b7d32-944c-4503-914a-33cee824c269","ios":"levelo://app?vid=007b7d32-944c-4503-914a-33cee824c269"},"vehicle_type_id":"4","last_reported":1727672984,"current_range_meters":38400,"station_id":"ce4bh112rcd13ifvqda0","pricing_plan_id":"cebpf4jnsgd1na2vs0mg"},{"bike_id":"2d2afea1-d874-4ff7-9bc4-e52245f98677","system_id":"levelo_inurba_marseille","lat":43.28703,"lon":5.37379,"is_reserved":false,"is_disabled":false,"rental_uris":{"android":"levelo://app?vid=2d2afea1-d874-4ff7-9bc4-e52245f98677","ios":"levelo://app?vid=2d2afea1-d874-4ff7-9bc4-e52245f98677"},"vehicle_type_id":"4","last_reported":1727672984,"current_range_meters":27600,"station_id":"ce4bh3p2rcd13ifvqdq0","pricing_plan_id":"cebpf4jnsgd1na2vs0mg"},{"bike_id":"fd81dd9e-41a0-48cb-80a2-481a81723d32","system_id":"levelo_inurba_marseille","lat":43.25109,"lon":5.40321,"is_reserved":false,"is_disabled":false,"rental_uris":{"android":"levelo://app?vid=fd81dd9e-41a0-48cb-80a2-481a81723d32","ios":"levelo://app?vid=fd81dd9e-41a0-48cb-80a2-481a81723d32"},"vehicle_type_id":"4","last_reported":1727672984,"current_range_meters":38000,"station_id":"ce4bhlh2rcd13ifvqgig","pricing_plan_id":"cebpf4jnsgd1na2vs0mg"},{"bike_id":"d56908f3-eaf5-4e90-8c94-794e25aaa96b","system_id":"levelo_inurba_marseille","lat":43.28413,"lon":5.3752,"is_reserved":false,"is_disabled":false,"rental_uris":{"android":"levelo://app?vid=d56908f3-eaf5-4e90-8c94-794e25aaa96b","ios":"levelo://app?vid=d56908f3-eaf5-4e90-8c94-794e25aaa96b"},"vehicle_type_id":"4","last_reported":1727672984,"current_range_meters":38400,"station_id":"ce4bh412rcd13ifvqds0","pricing_plan_id":"cebpf4jnsgd1na2vs0mg"},{"bike_id":"263086d4-fe32-42d3-9223-82a79c2f5238","system_id":"levelo_inurba_marseille","lat":43.30438,"lon":5.37902,"is_reserved":false,"is_disabled":false,"rental_uris":{"android":"levelo://app?vid=263086d4-fe32-42d3-9223-82a79c2f5238","ios":"levelo://app?vid=263086d4-fe32-42d3-9223-82a79c2f5238"},"vehicle_type_id":"4","last_reported":1727672984,"current_range_meters":17200,"station_id":"ce4bgup2rcd13ifvqcn0","pricing_plan_id":"cebpf4jnsgd1na2vs0mg"},{"bike_id":"31846e81-3a87-468c-8781-a080b27e3357","system_id":"levelo_inurba_marseille","lat":43.24672,"lon":5.38162,"is_reserved":false,"is_disabled":false,"rental_uris":{"android":"levelo://app?vid=31846e81-3a87-468c-8781-a080b27e3357","ios":"levelo://app?vid=31846e81-3a87-468c-8781-a080b27e3357"},"vehicle_type_id":"4","last_reported":1727672984,"current_range_meters":23200,"station_id":"ce4bhih2rcd13ifvqfr0","pricing_plan_id":"cebpf4jnsgd1na2vs0mg"},{"bike_id":"3415dafe-5aac-4a21-a437-c6ee6d4aa79c","system_id":"levelo_inurba_marseille","lat":43.34144,"lon":5.40896,"is_reserved":false,"is_disabled":false,"rental_uris":{"android":"levelo://app?vid=3415dafe-5aac-4a21-a437-c6ee6d4aa79c","ios":"levelo://app?vid=3415dafe-5aac-4a21-a437-c6ee6d4aa79c"},"vehicle_type_id":"4","last_reported":1727672984,"current_range_meters":32000,"station_id":"ce4bhqh2rcd13ifvqhlg","pricing_plan_id":"cebpf4jnsgd1na2vs0mg"},{"bike_id":"0cd47eef-ff06-4f7f-a905-0dee6fe6447c","system_id":"levelo_inurba_marseille","lat":43.24074,"lon":5.37757,"is_reserved":false,"is_disabled":false,"rental_uris":{"android":"levelo://app?vid=0cd47eef-ff06-4f7f-a905-0dee6fe6447c","ios":"levelo://app?vid=0cd47eef-ff06-4f7f-a905-0dee6fe6447c"},"vehicle_type_id":"4","last_reported":1727672984,"current_range_meters":30400,"station_id":"ce4bhnp2rcd13ifvqgvg","pricing_plan_id":"cebpf4jnsgd1na2vs0mg"},{"bike_id":"517bf19b-6722-45c0-bf8b-08925e1fbd62","system_id":"levelo_inurba_marseille","lat":43.28705,"lon":5.39982,"is_reserved":false,"is_disabled":false,"rental_uris":{"android":"levelo://app?vid=517bf19b-6722-45c0-bf8b-08925e1fbd62","ios":"levelo://app?vid=517bf19b-6722-45c0-bf8b-08925e1fbd62"},"vehicle_type_id":"4","last_reported":1727672984,"current_range_meters":36800,"station_id":"ce4bho92rcd13ifvqh3g","pricing_plan_id":"cebpf4jnsgd1na2vs0mg"},{"bike_id":"8889039f-2f28-4637-bf85-04b279f5ba24","system_id":"levelo_inurba_marseille","lat":43.27208,"lon":5.3918,"is_reserved":false,"is_disabled":false,"rental_uris":{"android":"levelo://app?vid=8889039f-2f28-4637-bf85-04b279f5ba24","ios":"levelo://app?vid=8889039f-2f28-4637-bf85-04b279f5ba24"},"vehicle_type_id":"4","last_reported":1727672984,"current_range_meters":33600,"station_id":"ce4bhhp2rcd13ifvqfm0","pricing_plan_id":"cebpf4jnsgd1na2vs0mg"},{"bike_id":"66ca816c-c4fd-4e9c-80f5-51bc6f105d0f","system_id":"levelo_inurba_marseille","lat":43.30638,"lon":5.40074,"is_reserved":false,"is_disabled":false,"rental_uris":{"android":"levelo://app?vid=66ca816c-c4fd-4e9c-80f5-51bc6f105d0f","ios":"levelo://app?vid=66ca816c-c4fd-4e9c-80f5-51bc6f105d0f"},"vehicle_type_id":"4","last_reported":1727672984,"current_range_meters":22800,"station_id":"ce4bh112rcd13ifvqda0","pricing_plan_id":"cebpf4jnsgd1na2vs0mg"},{"bike_id":"ebd94cba-8da0-47fb-874d-a3bfbeb5be79","system_id":"levelo_inurba_marseille","lat":43.26953,"lon":5.38641,"is_reserved":false,"is_disabled":false,"rental_uris":{"android":"levelo://app?vid=ebd94cba-8da0-47fb-874d-a3bfbeb5be79","ios":"levelo://app?vid=ebd94cba-8da0-47fb-874d-a3bfbeb5be79"},"vehicle_type_id":"4","last_reported":1727672984,"current_range_meters":38400,"station_id":"ce4bhh92rcd13ifvqfh0","pricing_plan_id":"cebpf4jnsgd1na2vs0mg"},{"bike_id":"29f38da5-2fff-4949-a290-5d4e17fc7555","system_id":"levelo_inurba_marseille","lat":43.24666,"lon":5.38169,"is_reserved":false,"is_disabled":false,"rental_uris":{"android":"levelo://app?vid=29f38da5-2fff-4949-a290-5d4e17fc7555","ios":"levelo://app?vid=29f38da5-2fff-4949-a290-5d4e17fc7555"},"vehicle_type_id":"4","last_reported":1727672984,"current_range_meters":26000,"station_id":"ce4bhih2rcd13ifvqfr0","pricing_plan_id":"cebpf4jnsgd1na2vs0mg"},{"bike_id":"7497ada0-4e52-442c-9aa1-86afe522b93f","system_id":"levelo_inurba_marseille","lat":43.29902,"lon":5.43665,"is_reserved":false,"is_disabled":false,"rental_uris":{"android":"levelo://app?vid=7497ada0-4e52-442c-9aa1-86afe522b93f","ios":"levelo://app?vid=7497ada0-4e52-442c-9aa1-86afe522b93f"},"vehicle_type_id":"4","last_reported":1727672984,"current_range_meters":20800,"station_id":"ce4bhpp2rcd13ifvqhfg","pricing_plan_id":"cebpf4jnsgd1na2vs0mg"},{"bike_id":"dcdba507-1fbe-4550-a646-30a859b9f66a","system_id":"levelo_inurba_marseille","lat":43.28372,"lon":5.38629,"is_reserved":false,"is_disabled":false,"rental_uris":{"android":"levelo://app?vid=dcdba507-1fbe-4550-a646-30a859b9f66a","ios":"levelo://app?vid=dcdba507-1fbe-4550-a646-30a859b9f66a"},"vehicle_type_id":"4","last_reported":1727672984,"current_range_meters":38800,"station_id":"ce4bh492rcd13ifvqdvg","pricing_plan_id":"cebpf4jnsgd1na2vs0mg"},{"bike_id":"d93a5d29-a09a-426c-a2f2-26f88912312a","system_id":"levelo_inurba_marseille","lat":43.31359,"lon":5.38503,"is_reserved":false,"is_disabled":false,"rental_uris":{"android":"levelo://app?vid=d93a5d29-a09a-426c-a2f2-26f88912312a","ios":"levelo://app?vid=d93a5d29-a09a-426c-a2f2-26f88912312a"},"vehicle_type_id":"4","last_reported":1727672984,"current_range_meters":16400,"station_id":"ce4bgt92rcd13ifvqcf0","pricing_plan_id":"cebpf4jnsgd1na2vs0mg"},{"bike_id":"cf536289-0b11-45bf-bd81-411c843c39f6","system_id":"levelo_inurba_marseille","lat":43.30125,"lon":5.39871,"is_reserved":false,"is_disabled":false,"rental_uris":{"android":"levelo://app?vid=cf536289-0b11-45bf-bd81-411c843c39f6","ios":"levelo://app?vid=cf536289-0b11-45bf-bd81-411c843c39f6"},"vehicle_type_id":"4","last_reported":1727672984,"current_range_meters":36000,"station_id":"ce4bh0h2rcd13ifvqd40","pricing_plan_id":"cebpf4jnsgd1na2vs0mg"},{"bike_id":"cb22e9b7-585c-4f42-9dd6-d94fa3677323","system_id":"levelo_inurba_marseille","lat":43.25824,"lon":5.39429,"is_reserved":false,"is_disabled":false,"rental_uris":{"android":"levelo://app?vid=cb22e9b7-585c-4f42-9dd6-d94fa3677323","ios":"levelo://app?vid=cb22e9b7-585c-4f42-9dd6-d94fa3677323"},"vehicle_type_id":"4","last_reported":1727672984,"current_range_meters":38800,"station_id":"ce4bhip2rcd13ifvqft0","pricing_plan_id":"cebpf4jnsgd1na2vs0mg"},{"bike_id":"b4cd39bb-e5c0-40c2-9a65-c5d608c19eb3","system_id":"levelo_inurba_marseille","lat":43.30148,"lon":5.37403,"is_reserved":false,"is_disabled":false,"rental_uris":{"android":"levelo://app?vid=b4cd39bb-e5c0-40c2-9a65-c5d608c19eb3","ios":"levelo://app?vid=b4cd39bb-e5c0-40c2-9a65-c5d608c19eb3"},"vehicle_type_id":"4","last_reported":1727672984,"current_range_meters":36800,"station_id":"ce4bgs92rcd13ifvqcc0","pricing_plan_id":"cebpf4jnsgd1na2vs0mg"},{"bike_id":"530ebee0-3821-4918-8f9b-3c2003125331","system_id":"levelo_inurba_marseille","lat":43.24082,"lon":5.37744,"is_reserved":false,"is_disabled":false,"rental_uris":{"android":"levelo://app?vid=530ebee0-3821-4918-8f9b-3c2003125331","ios":"levelo://app?vid=530ebee0-3821-4918-8f9b-3c2003125331"},"vehicle_type_id":"4","last_reported":1727672984,"current_range_meters":8800,"station_id":"ce4bhnp2rcd13ifvqgvg","pricing_plan_id":"cebpf4jnsgd1na2vs0mg"},{"bike_id":"7a51f335-7b51-4cda-99d6-a4f3d46e298a","system_id":"levelo_inurba_marseille","lat":43.30696,"lon":5.40402,"is_reserved":false,"is_disabled":false,"rental_uris":{"android":"levelo://app?vid=7a51f335-7b51-4cda-99d6-a4f3d46e298a","ios":"levelo://app?vid=7a51f335-7b51-4cda-99d6-a4f3d46e298a"},"vehicle_type_id":"4","last_reported":1727672984,"current_range_meters":20400,"station_id":"","pricing_plan_id":"cebpf4jnsgd1na2vs0mg"},{"bike_id":"4e25d64d-a1d1-48a2-8157-ea3e068196d4","system_id":"levelo_inurba_marseille","lat":43.28441,"lon":5.39173,"is_reserved":false,"is_disabled":false,"rental_uris":{"android":"levelo://app?vid=4e25d64d-a1d1-48a2-8157-ea3e068196d4","ios":"levelo://app?vid=4e25d64d-a1d1-48a2-8157-ea3e068196d4"},"vehicle_type_id":"4","last_reported":1727672984,"current_range_meters":31200,"station_id":"ce4bhoh2rcd13ifvqh5g","pricing_plan_id":"cebpf4jnsgd1na2vs0mg"},{"bike_id":"900bb84c-0c4a-43e7-93e4-7b917e9de5e5","system_id":"levelo_inurba_marseille","lat":43.23194,"lon":5.39982,"is_reserved":false,"is_disabled":false,"rental_uris":{"android":"levelo://app?vid=900bb84c-0c4a-43e7-93e4-7b917e9de5e5","ios":"levelo://app?vid=900bb84c-0c4a-43e7-93e4-7b917e9de5e5"},"vehicle_type_id":"4","last_reported":1727672984,"current_range_meters":20800,"station_id":"ce4bhn12rcd13ifvqgqg","pricing_plan_id":"cebpf4jnsgd1na2vs0mg"},{"bike_id":"9f05bc58-98dc-4d91-89c9-625701f10a87","system_id":"levelo_inurba_marseille","lat":43.25106,"lon":5.40327,"is_reserved":false,"is_disabled":false,"rental_uris":{"android":"levelo://app?vid=9f05bc58-98dc-4d91-89c9-625701f10a87","ios":"levelo://app?vid=9f05bc58-98dc-4d91-89c9-625701f10a87"},"vehicle_type_id":"4","last_reported":1727672984,"current_range_meters":23200,"station_id":"ce4bhlh2rcd13ifvqgig","pricing_plan_id":"cebpf4jnsgd1na2vs0mg"},{"bike_id":"2339f218-edd1-4dd1-a1a9-f89fa2d778c1","system_id":"levelo_inurba_marseille","lat":43.28698,"lon":5.37368,"is_reserved":false,"is_disabled":false,"rental_uris":{"android":"levelo://app?vid=2339f218-edd1-4dd1-a1a9-f89fa2d778c1","ios":"levelo://app?vid=2339f218-edd1-4dd1-a1a9-f89fa2d778c1"},"vehicle_type_id":"4","last_reported":1727672984,"current_range_meters":29600,"station_id":"ce4bh3p2rcd13ifvqdq0","pricing_plan_id":"cebpf4jnsgd1na2vs0mg"},{"bike_id":"487875d6-25b0-49e7-84cf-47e6797f6636","system_id":"levelo_inurba_marseille","lat":43.2657,"lon":5.39007,"is_reserved":false,"is_disabled":false,"rental_uris":{"android":"levelo://app?vid=487875d6-25b0-49e7-84cf-47e6797f6636","ios":"levelo://app?vid=487875d6-25b0-49e7-84cf-47e6797f6636"},"vehicle_type_id":"4","last_reported":1727672984,"current_range_meters":28800,"station_id":"ce4bhe12rcd13ifvqf30","pricing_plan_id":"cebpf4jnsgd1na2vs0mg"},{"bike_id":"be65cb47-d5bc-46c9-aa6a-406aa1aa300a","system_id":"levelo_inurba_marseille","lat":43.32486,"lon":5.3656,"is_reserved":false,"is_disabled":false,"rental_uris":{"android":"levelo://app?vid=be65cb47-d5bc-46c9-aa6a-406aa1aa300a","ios":"levelo://app?vid=be65cb47-d5bc-46c9-aa6a-406aa1aa300a"},"vehicle_type_id":"4","last_reported":1727672984,"current_range_meters":28800,"station_id":"ce4bhs12rcd13ifvqhvg","pricing_plan_id":"cebpf4jnsgd1na2vs0mg"},{"bike_id":"f8d04c40-7391-47e9-8e0c-77a507495114","system_id":"levelo_inurba_marseille","lat":43.30956,"lon":5.39041,"is_reserved":false,"is_disabled":false,"rental_uris":{"android":"levelo://app?vid=f8d04c40-7391-47e9-8e0c-77a507495114","ios":"levelo://app?vid=f8d04c40-7391-47e9-8e0c-77a507495114"},"vehicle_type_id":"4","last_reported":1727672984,"current_range_meters":11600,"station_id":"ce4bgup2rcd13ifvqco0","pricing_plan_id":"cebpf4jnsgd1na2vs0mg"},{"bike_id":"761dc708-10d9-48d8-bc89-36ec31d32056","system_id":"levelo_inurba_marseille","lat":43.272063,"lon":5.391792,"is_reserved":false,"is_disabled":false,"rental_uris":{"android":"levelo://app?vid=761dc708-10d9-48d8-bc89-36ec31d32056","ios":"levelo://app?vid=761dc708-10d9-48d8-bc89-36ec31d32056"},"vehicle_type_id":"4","last_reported":1727672984,"current_range_meters":4000,"station_id":"ce4bhhp2rcd13ifvqfm0","pricing_plan_id":"cebpf4jnsgd1na2vs0mg"},{"bike_id":"65b2f456-4440-45e9-b691-5d85d81e32a5","system_id":"levelo_inurba_marseille","lat":43.28078,"lon":5.39641,"is_reserved":false,"is_disabled":false,"rental_uris":{"android":"levelo://app?vid=65b2f456-4440-45e9-b691-5d85d81e32a5","ios":"levelo://app?vid=65b2f456-4440-45e9-b691-5d85d81e32a5"},"vehicle_type_id":"4","last_reported":1727672984,"current_range_meters":36000,"station_id":"ce4bho12rcd13ifvqh2g","pricing_plan_id":"cebpf4jnsgd1na2vs0mg"},{"bike_id":"7147f398-a27b-4902-9c1a-858003ffa469","system_id":"levelo_inurba_marseille","lat":43.28949,"lon":5.36395,"is_reserved":false,"is_disabled":false,"rental_uris":{"android":"levelo://app?vid=7147f398-a27b-4902-9c1a-858003ffa469","ios":"levelo://app?vid=7147f398-a27b-4902-9c1a-858003ffa469"},"vehicle_type_id":"4","last_reported":1727672984,"current_range_meters":38400,"station_id":"ce4bhc92rcd13ifvqetg","pricing_plan_id":"cebpf4jnsgd1na2vs0mg"},{"bike_id":"4bf17278-821c-44d9-9e1b-8440f028916f","system_id":"levelo_inurba_marseille","lat":43.24806,"lon":5.37457,"is_reserved":false,"is_disabled":false,"rental_uris":{"android":"levelo://app?vid=4bf17278-821c-44d9-9e1b-8440f028916f","ios":"levelo://app?vid=4bf17278-821c-44d9-9e1b-8440f028916f"},"vehicle_type_id":"4","last_reported":1727672984,"current_range_meters":8400,"station_id":"ce4bhgh2rcd13ifvqfb0","pricing_plan_id":"cebpf4jnsgd1na2vs0mg"},{"bike_id":"3c0bcc5b-8c96-466b-aa1a-717c68363936","system_id":"levelo_inurba_marseille","lat":43.31123,"lon":5.37768,"is_reserved":false,"is_disabled":false,"rental_uris":{"android":"levelo://app?vid=3c0bcc5b-8c96-466b-aa1a-717c68363936","ios":"levelo://app?vid=3c0bcc5b-8c96-466b-aa1a-717c68363936"},"vehicle_type_id":"4","last_reported":1727672984,"current_range_meters":38800,"station_id":"ce4bgt92rcd13ifvqcg0","pricing_plan_id":"cebpf4jnsgd1na2vs0mg"},{"bike_id":"fffa2861-250b-4f0b-b251-bc4a93e6a064","system_id":"levelo_inurba_marseille","lat":43.25858,"lon":5.39898,"is_reserved":false,"is_disabled":false,"rental_uris":{"android":"levelo://app?vid=fffa2861-250b-4f0b-b251-bc4a93e6a064","ios":"levelo://app?vid=fffa2861-250b-4f0b-b251-bc4a93e6a064"},"vehicle_type_id":"4","last_reported":1727672984,"current_range_meters":38400,"station_id":"ce4bhl92rcd13ifvqghg","pricing_plan_id":"cebpf4jnsgd1na2vs0mg"},{"bike_id":"80052677-a184-47b6-b7ba-4401badcd8a9","system_id":"levelo_inurba_marseille","lat":43.32293,"lon":5.38268,"is_reserved":false,"is_disabled":false,"rental_uris":{"android":"levelo://app?vid=80052677-a184-47b6-b7ba-4401badcd8a9","ios":"levelo://app?vid=80052677-a184-47b6-b7ba-4401badcd8a9"},"vehicle_type_id":"4","last_reported":1727672984,"current_range_meters":38800,"station_id":"ce4bhr12rcd13ifvqhqg","pricing_plan_id":"cebpf4jnsgd1na2vs0mg"},{"bike_id":"105e42e4-8068-41c8-85a4-c23266291b6f","system_id":"levelo_inurba_marseille","lat":43.30144,"lon":5.38081,"is_reserved":false,"is_disabled":false,"rental_uris":{"android":"levelo://app?vid=105e42e4-8068-41c8-85a4-c23266291b6f","ios":"levelo://app?vid=105e42e4-8068-41c8-85a4-c23266291b6f"},"vehicle_type_id":"4","last_reported":1727672984,"current_range_meters":28000,"station_id":"ce4bgjp2rcd13ifvqbh0","pricing_plan_id":"cebpf4jnsgd1na2vs0mg"},{"bike_id":"ff19015c-e653-44b6-b936-c27baa2ce771","system_id":"levelo_inurba_marseille","lat":43.30333,"lon":5.40433,"is_reserved":false,"is_disabled":false,"rental_uris":{"android":"levelo://app?vid=ff19015c-e653-44b6-b936-c27baa2ce771","ios":"levelo://app?vid=ff19015c-e653-44b6-b936-c27baa2ce771"},"vehicle_type_id":"4","last_reported":1727672984,"current_range_meters":9200,"station_id":"ce4bh012rcd13ifvqd10","pricing_plan_id":"cebpf4jnsgd1na2vs0mg"},{"bike_id":"b8d288be-6fe2-4dc7-8d5b-56533e2dc1b3","system_id":"levelo_inurba_marseille","lat":43.28154,"lon":5.42653,"is_reserved":false,"is_disabled":false,"rental_uris":{"android":"levelo://app?vid=b8d288be-6fe2-4dc7-8d5b-56533e2dc1b3","ios":"levelo://app?vid=b8d288be-6fe2-4dc7-8d5b-56533e2dc1b3"},"vehicle_type_id":"4","last_reported":1727672984,"current_range_meters":28400,"station_id":"ce4bhnh2rcd13ifvqgug","pricing_plan_id":"cebpf4jnsgd1na2vs0mg"},{"bike_id":"c429f741-e09b-4c0e-8c65-ff71e1baa928","system_id":"levelo_inurba_marseille","lat":43.30143,"lon":5.40458,"is_reserved":false,"is_disabled":false,"rental_uris":{"android":"levelo://app?vid=c429f741-e09b-4c0e-8c65-ff71e1baa928","ios":"levelo://app?vid=c429f741-e09b-4c0e-8c65-ff71e1baa928"},"vehicle_type_id":"4","last_reported":1727672984,"current_range_meters":16000,"station_id":"","pricing_plan_id":"cebpf4jnsgd1na2vs0mg"},{"bike_id":"8e6dbdaf-608a-485f-a568-2a504f965aa2","system_id":"levelo_inurba_marseille","lat":43.284616,"lon":5.358878,"is_reserved":false,"is_disabled":false,"rental_uris":{"android":"levelo://app?vid=8e6dbdaf-608a-485f-a568-2a504f965aa2","ios":"levelo://app?vid=8e6dbdaf-608a-485f-a568-2a504f965aa2"},"vehicle_type_id":"4","last_reported":1727672984,"current_range_meters":38800,"station_id":"ce4bhah2rcd13ifvqei0","pricing_plan_id":"cebpf4jnsgd1na2vs0mg"},{"bike_id":"a974d009-942e-477b-b4db-19f84bd48313","system_id":"levelo_inurba_marseille","lat":43.32111,"lon":5.38705,"is_reserved":false,"is_disabled":false,"rental_uris":{"android":"levelo://app?vid=a974d009-942e-477b-b4db-19f84bd48313","ios":"levelo://app?vid=a974d009-942e-477b-b4db-19f84bd48313"},"vehicle_type_id":"4","last_reported":1727672984,"current_range_meters":38400,"station_id":"","pricing_plan_id":"cebpf4jnsgd1na2vs0mg"},{"bike_id":"23b93797-c21d-4bac-861d-a6d90e60a301","system_id":"levelo_inurba_marseille","lat":43.2849,"lon":5.38556,"is_reserved":false,"is_disabled":false,"rental_uris":{"android":"levelo://app?vid=23b93797-c21d-4bac-861d-a6d90e60a301","ios":"levelo://app?vid=23b93797-c21d-4bac-861d-a6d90e60a301"},"vehicle_type_id":"4","last_reported":1727672984,"current_range_meters":14000,"station_id":"ce4bh8p2rcd13ifvqeb0","pricing_plan_id":"cebpf4jnsgd1na2vs0mg"},{"bike_id":"625d6a88-eabd-4781-bcf3-17f173c69536","system_id":"levelo_inurba_marseille","lat":43.28154,"lon":5.42643,"is_reserved":false,"is_disabled":false,"rental_uris":{"android":"levelo://app?vid=625d6a88-eabd-4781-bcf3-17f173c69536","ios":"levelo://app?vid=625d6a88-eabd-4781-bcf3-17f173c69536"},"vehicle_type_id":"4","last_reported":1727672984,"current_range_meters":30400,"station_id":"ce4bhnh2rcd13ifvqgug","pricing_plan_id":"cebpf4jnsgd1na2vs0mg"},{"bike_id":"8737a042-e0c1-41ca-b82a-c53655df8446","system_id":"levelo_inurba_marseille","lat":43.284795,"lon":5.384085,"is_reserved":false,"is_disabled":false,"rental_uris":{"android":"levelo://app?vid=8737a042-e0c1-41ca-b82a-c53655df8446","ios":"levelo://app?vid=8737a042-e0c1-41ca-b82a-c53655df8446"},"vehicle_type_id":"4","last_reported":1727672984,"current_range_meters":37600,"station_id":"ce4bh512rcd13ifvqe3g","pricing_plan_id":"cebpf4jnsgd1na2vs0mg"},{"bike_id":"8d0ad09d-941b-47c3-9c55-657fa073943b","system_id":"levelo_inurba_marseille","lat":43.27975,"lon":5.3873,"is_reserved":false,"is_disabled":false,"rental_uris":{"android":"levelo://app?vid=8d0ad09d-941b-47c3-9c55-657fa073943b","ios":"levelo://app?vid=8d0ad09d-941b-47c3-9c55-657fa073943b"},"vehicle_type_id":"4","last_reported":1727672984,"current_range_meters":13600,"station_id":"ce4bhg12rcd13ifvqf80","pricing_plan_id":"cebpf4jnsgd1na2vs0mg"},{"bike_id":"66fa91f4-c481-4eff-a9d6-cf208440a473","system_id":"levelo_inurba_marseille","lat":43.29253,"lon":5.40901,"is_reserved":false,"is_disabled":false,"rental_uris":{"android":"levelo://app?vid=66fa91f4-c481-4eff-a9d6-cf208440a473","ios":"levelo://app?vid=66fa91f4-c481-4eff-a9d6-cf208440a473"},"vehicle_type_id":"4","last_reported":1727672984,"current_range_meters":28000,"station_id":"ce4bh192rcd13ifvqdc0","pricing_plan_id":"cebpf4jnsgd1na2vs0mg"},{"bike_id":"3ae16357-9b43-46d1-bbc8-483fcc70804b","system_id":"levelo_inurba_marseille","lat":43.25729,"lon":5.41112,"is_reserved":false,"is_disabled":false,"rental_uris":{"android":"levelo://app?vid=3ae16357-9b43-46d1-bbc8-483fcc70804b","ios":"levelo://app?vid=3ae16357-9b43-46d1-bbc8-483fcc70804b"},"vehicle_type_id":"4","last_reported":1727672984,"current_range_meters":25600,"station_id":"ce4bhkp2rcd13ifvqgd0","pricing_plan_id":"cebpf4jnsgd1na2vs0mg"},{"bike_id":"6fa87e93-6693-4dbd-bd24-0bf4f166cbf9","system_id":"levelo_inurba_marseille","lat":43.29519,"lon":5.3904,"is_reserved":false,"is_disabled":false,"rental_uris":{"android":"levelo://app?vid=6fa87e93-6693-4dbd-bd24-0bf4f166cbf9","ios":"levelo://app?vid=6fa87e93-6693-4dbd-bd24-0bf4f166cbf9"},"vehicle_type_id":"4","last_reported":1727672984,"current_range_meters":37600,"station_id":"ce4bh3p2rcd13ifvqdp0","pricing_plan_id":"cebpf4jnsgd1na2vs0mg"},{"bike_id":"aa6a461a-00d2-4e9a-ab62-9c2b711e4da2","system_id":"levelo_inurba_marseille","lat":43.32482,"lon":5.3657,"is_reserved":false,"is_disabled":false,"rental_uris":{"android":"levelo://app?vid=aa6a461a-00d2-4e9a-ab62-9c2b711e4da2","ios":"levelo://app?vid=aa6a461a-00d2-4e9a-ab62-9c2b711e4da2"},"vehicle_type_id":"4","last_reported":1727672984,"current_range_meters":27600,"station_id":"ce4bhs12rcd13ifvqhvg","pricing_plan_id":"cebpf4jnsgd1na2vs0mg"},{"bike_id":"0701cf2a-674c-4c9d-af1e-6650acbaaf74","system_id":"levelo_inurba_marseille","lat":43.28377,"lon":5.37293,"is_reserved":false,"is_disabled":false,"rental_uris":{"android":"levelo://app?vid=0701cf2a-674c-4c9d-af1e-6650acbaaf74","ios":"levelo://app?vid=0701cf2a-674c-4c9d-af1e-6650acbaaf74"},"vehicle_type_id":"4","last_reported":1727672984,"current_range_meters":6800,"station_id":"","pricing_plan_id":"cebpf4jnsgd1na2vs0mg"},{"bike_id":"ca2820ea-9af8-4890-a9e2-9a2c711a4ed5","system_id":"levelo_inurba_marseille","lat":43.27567,"lon":5.38414,"is_reserved":false,"is_disabled":false,"rental_uris":{"android":"levelo://app?vid=ca2820ea-9af8-4890-a9e2-9a2c711a4ed5","ios":"levelo://app?vid=ca2820ea-9af8-4890-a9e2-9a2c711a4ed5"},"vehicle_type_id":"4","last_reported":1727672984,"current_range_meters":19200,"station_id":"ce4bhh92rcd13ifvqfi0","pricing_plan_id":"cebpf4jnsgd1na2vs0mg"},{"bike_id":"3a458830-390b-4adc-ab3a-1e6223b58346","system_id":"levelo_inurba_marseille","lat":43.31171,"lon":5.38712,"is_reserved":false,"is_disabled":false,"rental_uris":{"android":"levelo://app?vid=3a458830-390b-4adc-ab3a-1e6223b58346","ios":"levelo://app?vid=3a458830-390b-4adc-ab3a-1e6223b58346"},"vehicle_type_id":"4","last_reported":1727672984,"current_range_meters":35200,"station_id":"ce4bgv12rcd13ifvqcp0","pricing_plan_id":"cebpf4jnsgd1na2vs0mg"},{"bike_id":"6fed74f2-1353-48f3-9825-479d416e26f0","system_id":"levelo_inurba_marseille","lat":43.3047,"lon":5.379,"is_reserved":false,"is_disabled":false,"rental_uris":{"android":"levelo://app?vid=6fed74f2-1353-48f3-9825-479d416e26f0","ios":"levelo://app?vid=6fed74f2-1353-48f3-9825-479d416e26f0"},"vehicle_type_id":"4","last_reported":1727672984,"current_range_meters":32000,"station_id":"ce4bgup2rcd13ifvqcn0","pricing_plan_id":"cebpf4jnsgd1na2vs0mg"},{"bike_id":"3950c017-b208-4a2f-a021-50aca1cd5294","system_id":"levelo_inurba_marseille","lat":43.28437,"lon":5.39177,"is_reserved":false,"is_disabled":false,"rental_uris":{"android":"levelo://app?vid=3950c017-b208-4a2f-a021-50aca1cd5294","ios":"levelo://app?vid=3950c017-b208-4a2f-a021-50aca1cd5294"},"vehicle_type_id":"4","last_reported":1727672984,"current_range_meters":39200,"station_id":"ce4bhoh2rcd13ifvqh5g","pricing_plan_id":"cebpf4jnsgd1na2vs0mg"},{"bike_id":"80a479a7-6b52-4502-9fa1-1e3c9c081d64","system_id":"levelo_inurba_marseille","lat":43.284775,"lon":5.385338,"is_reserved":false,"is_disabled":false,"rental_uris":{"android":"levelo://app?vid=80a479a7-6b52-4502-9fa1-1e3c9c081d64","ios":"levelo://app?vid=80a479a7-6b52-4502-9fa1-1e3c9c081d64"},"vehicle_type_id":"4","last_reported":1727672984,"current_range_meters":15200,"station_id":"ce4bh8p2rcd13ifvqeb0","pricing_plan_id":"cebpf4jnsgd1na2vs0mg"},{"bike_id":"7199a17f-8505-4d54-b9b6-2ec943c49cf2","system_id":"levelo_inurba_marseille","lat":43.33026,"lon":5.3938,"is_reserved":false,"is_disabled":false,"rental_uris":{"android":"levelo://app?vid=7199a17f-8505-4d54-b9b6-2ec943c49cf2","ios":"levelo://app?vid=7199a17f-8505-4d54-b9b6-2ec943c49cf2"},"vehicle_type_id":"4","last_reported":1727672984,"current_range_meters":36800,"station_id":"","pricing_plan_id":"cebpf4jnsgd1na2vs0mg"},{"bike_id":"9f4b8806-0737-4c36-bde4-6bc8c0d0630a","system_id":"levelo_inurba_marseille","lat":43.23957,"lon":5.36621,"is_reserved":false,"is_disabled":false,"rental_uris":{"android":"levelo://app?vid=9f4b8806-0737-4c36-bde4-6bc8c0d0630a","ios":"levelo://app?vid=9f4b8806-0737-4c36-bde4-6bc8c0d0630a"},"vehicle_type_id":"4","last_reported":1727672984,"current_range_meters":38400,"station_id":"ce4bhi12rcd13ifvqfp0","pricing_plan_id":"cebpf4jnsgd1na2vs0mg"},{"bike_id":"4d706b30-b324-49e3-84d2-6545a9f5eedc","system_id":"levelo_inurba_marseille","lat":43.2905,"lon":5.39971,"is_reserved":false,"is_disabled":false,"rental_uris":{"android":"levelo://app?vid=4d706b30-b324-49e3-84d2-6545a9f5eedc","ios":"levelo://app?vid=4d706b30-b324-49e3-84d2-6545a9f5eedc"},"vehicle_type_id":"4","last_reported":1727672984,"current_range_meters":38800,"station_id":"ce4bh392rcd13ifvqdm0","pricing_plan_id":"cebpf4jnsgd1na2vs0mg"},{"bike_id":"cdb3e8f7-bfdd-49ef-8891-5d7de459d996","system_id":"levelo_inurba_marseille","lat":43.3088,"lon":5.39636,"is_reserved":false,"is_disabled":false,"rental_uris":{"android":"levelo://app?vid=cdb3e8f7-bfdd-49ef-8891-5d7de459d996","ios":"levelo://app?vid=cdb3e8f7-bfdd-49ef-8891-5d7de459d996"},"vehicle_type_id":"4","last_reported":1727672984,"current_range_meters":19600,"station_id":"ce4bh012rcd13ifvqcv0","pricing_plan_id":"cebpf4jnsgd1na2vs0mg"},{"bike_id":"24942973-7c0b-4deb-b224-1f3f2512ab35","system_id":"levelo_inurba_marseille","lat":43.2465,"lon":5.38169,"is_reserved":false,"is_disabled":false,"rental_uris":{"android":"levelo://app?vid=24942973-7c0b-4deb-b224-1f3f2512ab35","ios":"levelo://app?vid=24942973-7c0b-4deb-b224-1f3f2512ab35"},"vehicle_type_id":"4","last_reported":1727672984,"current_range_meters":35600,"station_id":"ce4bhih2rcd13ifvqfr0","pricing_plan_id":"cebpf4jnsgd1na2vs0mg"},{"bike_id":"78323160-a684-4351-8108-f7ebcc0842b2","system_id":"levelo_inurba_marseille","lat":43.23153,"lon":5.43711,"is_reserved":false,"is_disabled":false,"rental_uris":{"android":"levelo://app?vid=78323160-a684-4351-8108-f7ebcc0842b2","ios":"levelo://app?vid=78323160-a684-4351-8108-f7ebcc0842b2"},"vehicle_type_id":"4","last_reported":1727672984,"current_range_meters":16400,"station_id":"ce4bhmp2rcd13ifvqgog","pricing_plan_id":"cebpf4jnsgd1na2vs0mg"},{"bike_id":"9898c78e-6b7c-4c47-a425-00e7a1b1b6f0","system_id":"levelo_inurba_marseille","lat":43.293756,"lon":5.378532,"is_reserved":false,"is_disabled":false,"rental_uris":{"android":"levelo://app?vid=9898c78e-6b7c-4c47-a425-00e7a1b1b6f0","ios":"levelo://app?vid=9898c78e-6b7c-4c47-a425-00e7a1b1b6f0"},"vehicle_type_id":"4","last_reported":1727672984,"current_range_meters":38000,"station_id":"ce4bgjh2rcd13ifvqbf0","pricing_plan_id":"cebpf4jnsgd1na2vs0mg"},{"bike_id":"97e39dd4-777e-4357-a060-af60ca3e457f","system_id":"levelo_inurba_marseille","lat":43.303528,"lon":5.385689,"is_reserved":false,"is_disabled":false,"rental_uris":{"android":"levelo://app?vid=97e39dd4-777e-4357-a060-af60ca3e457f","ios":"levelo://app?vid=97e39dd4-777e-4357-a060-af60ca3e457f"},"vehicle_type_id":"4","last_reported":1727672984,"current_range_meters":20800,"station_id":"ce4bgg92rcd13ifvqb30","pricing_plan_id":"cebpf4jnsgd1na2vs0mg"},{"bike_id":"80c40c0b-c8c6-4e3d-a38c-d2ef4da13896","system_id":"levelo_inurba_marseille","lat":43.3095,"lon":5.39038,"is_reserved":false,"is_disabled":false,"rental_uris":{"android":"levelo://app?vid=80c40c0b-c8c6-4e3d-a38c-d2ef4da13896","ios":"levelo://app?vid=80c40c0b-c8c6-4e3d-a38c-d2ef4da13896"},"vehicle_type_id":"4","last_reported":1727672984,"current_range_meters":6800,"station_id":"ce4bgup2rcd13ifvqco0","pricing_plan_id":"cebpf4jnsgd1na2vs0mg"},{"bike_id":"87bcb155-2c64-48cf-a45a-91afda2f95f7","system_id":"levelo_inurba_marseille","lat":43.27994,"lon":5.40012,"is_reserved":false,"is_disabled":false,"rental_uris":{"android":"levelo://app?vid=87bcb155-2c64-48cf-a45a-91afda2f95f7","ios":"levelo://app?vid=87bcb155-2c64-48cf-a45a-91afda2f95f7"},"vehicle_type_id":"4","last_reported":1727672984,"current_range_meters":38800,"station_id":"ce4bho92rcd13ifvqh4g","pricing_plan_id":"cebpf4jnsgd1na2vs0mg"},{"bike_id":"40844c04-10a3-4b72-a8ef-7a099f37b384","system_id":"levelo_inurba_marseille","lat":43.27185,"lon":5.40996,"is_reserved":false,"is_disabled":false,"rental_uris":{"android":"levelo://app?vid=40844c04-10a3-4b72-a8ef-7a099f37b384","ios":"levelo://app?vid=40844c04-10a3-4b72-a8ef-7a099f37b384"},"vehicle_type_id":"4","last_reported":1727672984,"current_range_meters":35600,"station_id":"ce4bhl12rcd13ifvqgf0","pricing_plan_id":"cebpf4jnsgd1na2vs0mg"},{"bike_id":"9bc5accd-5ddd-4d20-b0de-78b23d24bb0d","system_id":"levelo_inurba_marseille","lat":43.31128,"lon":5.37766,"is_reserved":false,"is_disabled":false,"rental_uris":{"android":"levelo://app?vid=9bc5accd-5ddd-4d20-b0de-78b23d24bb0d","ios":"levelo://app?vid=9bc5accd-5ddd-4d20-b0de-78b23d24bb0d"},"vehicle_type_id":"4","last_reported":1727672984,"current_range_meters":38400,"station_id":"ce4bgt92rcd13ifvqcg0","pricing_plan_id":"cebpf4jnsgd1na2vs0mg"},{"bike_id":"d37af953-d682-43ed-9078-8dbbc62ce49a","system_id":"levelo_inurba_marseille","lat":43.24671,"lon":5.381555,"is_reserved":false,"is_disabled":false,"rental_uris":{"android":"levelo://app?vid=d37af953-d682-43ed-9078-8dbbc62ce49a","ios":"levelo://app?vid=d37af953-d682-43ed-9078-8dbbc62ce49a"},"vehicle_type_id":"4","last_reported":1727672984,"current_range_meters":37600,"station_id":"ce4bhih2rcd13ifvqfr0","pricing_plan_id":"cebpf4jnsgd1na2vs0mg"},{"bike_id":"6bbdf29d-e1b4-4eef-8609-f78d6cd6358e","system_id":"levelo_inurba_marseille","lat":43.31707,"lon":5.37764,"is_reserved":false,"is_disabled":false,"rental_uris":{"android":"levelo://app?vid=6bbdf29d-e1b4-4eef-8609-f78d6cd6358e","ios":"levelo://app?vid=6bbdf29d-e1b4-4eef-8609-f78d6cd6358e"},"vehicle_type_id":"4","last_reported":1727672984,"current_range_meters":28400,"station_id":"ce4bgth2rcd13ifvqch0","pricing_plan_id":"cebpf4jnsgd1na2vs0mg"},{"bike_id":"c7bd2519-2094-49e9-9d5a-56c00b1a2b1c","system_id":"levelo_inurba_marseille","lat":43.26562,"lon":5.38998,"is_reserved":false,"is_disabled":false,"rental_uris":{"android":"levelo://app?vid=c7bd2519-2094-49e9-9d5a-56c00b1a2b1c","ios":"levelo://app?vid=c7bd2519-2094-49e9-9d5a-56c00b1a2b1c"},"vehicle_type_id":"4","last_reported":1727672984,"current_range_meters":38800,"station_id":"ce4bhe12rcd13ifvqf30","pricing_plan_id":"cebpf4jnsgd1na2vs0mg"},{"bike_id":"387f39da-cccd-4c68-82b5-2559650c70a6","system_id":"levelo_inurba_marseille","lat":43.29246,"lon":5.40906,"is_reserved":false,"is_disabled":false,"rental_uris":{"android":"levelo://app?vid=387f39da-cccd-4c68-82b5-2559650c70a6","ios":"levelo://app?vid=387f39da-cccd-4c68-82b5-2559650c70a6"},"vehicle_type_id":"4","last_reported":1727672984,"current_range_meters":38400,"station_id":"ce4bh192rcd13ifvqdc0","pricing_plan_id":"cebpf4jnsgd1na2vs0mg"},{"bike_id":"4bedc093-723a-47c7-9b5d-3ab22888fbf1","system_id":"levelo_inurba_marseille","lat":43.28707,"lon":5.39988,"is_reserved":false,"is_disabled":false,"rental_uris":{"android":"levelo://app?vid=4bedc093-723a-47c7-9b5d-3ab22888fbf1","ios":"levelo://app?vid=4bedc093-723a-47c7-9b5d-3ab22888fbf1"},"vehicle_type_id":"4","last_reported":1727672984,"current_range_meters":22400,"station_id":"ce4bho92rcd13ifvqh3g","pricing_plan_id":"cebpf4jnsgd1na2vs0mg"},{"bike_id":"6a73a29b-a8cf-447a-b3c9-2b0e30545c36","system_id":"levelo_inurba_marseille","lat":43.23195,"lon":5.35552,"is_reserved":false,"is_disabled":false,"rental_uris":{"android":"levelo://app?vid=6a73a29b-a8cf-447a-b3c9-2b0e30545c36","ios":"levelo://app?vid=6a73a29b-a8cf-447a-b3c9-2b0e30545c36"},"vehicle_type_id":"4","last_reported":1727672984,"current_range_meters":17600,"station_id":"ce4bhu92rcd13ifvqi70","pricing_plan_id":"cebpf4jnsgd1na2vs0mg"},{"bike_id":"2ab05bf8-eca7-437d-b897-4c5c531ec1af","system_id":"levelo_inurba_marseille","lat":43.31689,"lon":5.37743,"is_reserved":false,"is_disabled":false,"rental_uris":{"android":"levelo://app?vid=2ab05bf8-eca7-437d-b897-4c5c531ec1af","ios":"levelo://app?vid=2ab05bf8-eca7-437d-b897-4c5c531ec1af"},"vehicle_type_id":"4","last_reported":1727672984,"current_range_meters":5600,"station_id":"ce4bgth2rcd13ifvqch0","pricing_plan_id":"cebpf4jnsgd1na2vs0mg"},{"bike_id":"15039f9e-35c1-4f59-b307-5d3123996238","system_id":"levelo_inurba_marseille","lat":43.30464,"lon":5.3791,"is_reserved":false,"is_disabled":false,"rental_uris":{"android":"levelo://app?vid=15039f9e-35c1-4f59-b307-5d3123996238","ios":"levelo://app?vid=15039f9e-35c1-4f59-b307-5d3123996238"},"vehicle_type_id":"4","last_reported":1727672984,"current_range_meters":35600,"station_id":"ce4bgup2rcd13ifvqcn0","pricing_plan_id":"cebpf4jnsgd1na2vs0mg"},{"bike_id":"ece9fc5e-e0ee-4ca0-8f59-27887a2142cd","system_id":"levelo_inurba_marseille","lat":43.30542,"lon":5.36529,"is_reserved":false,"is_disabled":false,"rental_uris":{"android":"levelo://app?vid=ece9fc5e-e0ee-4ca0-8f59-27887a2142cd","ios":"levelo://app?vid=ece9fc5e-e0ee-4ca0-8f59-27887a2142cd"},"vehicle_type_id":"4","last_reported":1727672984,"current_range_meters":38800,"station_id":"ce4bgs12rcd13ifvqcag","pricing_plan_id":"cebpf4jnsgd1na2vs0mg"},{"bike_id":"91e68b6b-0b6c-408b-ad07-f9a8fd24ef88","system_id":"levelo_inurba_marseille","lat":43.29274,"lon":5.36843,"is_reserved":false,"is_disabled":false,"rental_uris":{"android":"levelo://app?vid=91e68b6b-0b6c-408b-ad07-f9a8fd24ef88","ios":"levelo://app?vid=91e68b6b-0b6c-408b-ad07-f9a8fd24ef88"},"vehicle_type_id":"4","last_reported":1727672984,"current_range_meters":16400,"station_id":"ce4bhbp2rcd13ifvqesg","pricing_plan_id":"cebpf4jnsgd1na2vs0mg"},{"bike_id":"a2cfa1ca-e3d0-414c-9066-4ae48af4361b","system_id":"levelo_inurba_marseille","lat":43.32054,"lon":5.41587,"is_reserved":false,"is_disabled":false,"rental_uris":{"android":"levelo://app?vid=a2cfa1ca-e3d0-414c-9066-4ae48af4361b","ios":"levelo://app?vid=a2cfa1ca-e3d0-414c-9066-4ae48af4361b"},"vehicle_type_id":"4","last_reported":1727672984,"current_range_meters":28000,"station_id":"ce4bhq92rcd13ifvqhkg","pricing_plan_id":"cebpf4jnsgd1na2vs0mg"},{"bike_id":"33a4579d-a125-4efa-8233-ee31afbe59e0","system_id":"levelo_inurba_marseille","lat":43.27315,"lon":5.39095,"is_reserved":false,"is_disabled":false,"rental_uris":{"android":"levelo://app?vid=33a4579d-a125-4efa-8233-ee31afbe59e0","ios":"levelo://app?vid=33a4579d-a125-4efa-8233-ee31afbe59e0"},"vehicle_type_id":"4","last_reported":1727672984,"current_range_meters":38800,"station_id":"ce4bhgp2rcd13ifvqfe0","pricing_plan_id":"cebpf4jnsgd1na2vs0mg"},{"bike_id":"16aef7bc-6e34-4da1-be38-669be00420e2","system_id":"levelo_inurba_marseille","lat":43.299,"lon":5.43677,"is_reserved":false,"is_disabled":false,"rental_uris":{"android":"levelo://app?vid=16aef7bc-6e34-4da1-be38-669be00420e2","ios":"levelo://app?vid=16aef7bc-6e34-4da1-be38-669be00420e2"},"vehicle_type_id":"4","last_reported":1727672984,"current_range_meters":24800,"station_id":"ce4bhpp2rcd13ifvqhfg","pricing_plan_id":"cebpf4jnsgd1na2vs0mg"},{"bike_id":"a4a57129-960a-4063-956d-af7837f760de","system_id":"levelo_inurba_marseille","lat":43.30322,"lon":5.40441,"is_reserved":false,"is_disabled":false,"rental_uris":{"android":"levelo://app?vid=a4a57129-960a-4063-956d-af7837f760de","ios":"levelo://app?vid=a4a57129-960a-4063-956d-af7837f760de"},"vehicle_type_id":"4","last_reported":1727672984,"current_range_meters":30000,"station_id":"ce4bh012rcd13ifvqd10","pricing_plan_id":"cebpf4jnsgd1na2vs0mg"},{"bike_id":"0150df9f-7371-40ea-9f6d-30d5647fafbe","system_id":"levelo_inurba_marseille","lat":43.27989,"lon":5.40024,"is_reserved":false,"is_disabled":false,"rental_uris":{"android":"levelo://app?vid=0150df9f-7371-40ea-9f6d-30d5647fafbe","ios":"levelo://app?vid=0150df9f-7371-40ea-9f6d-30d5647fafbe"},"vehicle_type_id":"4","last_reported":1727672984,"current_range_meters":36800,"station_id":"ce4bhh92rcd13ifvqfj0","pricing_plan_id":"cebpf4jnsgd1na2vs0mg"},{"bike_id":"f3eb5318-be75-4013-92e8-342d3c54666e","system_id":"levelo_inurba_marseille","lat":43.32545,"lon":5.41432,"is_reserved":false,"is_disabled":false,"rental_uris":{"android":"levelo://app?vid=f3eb5318-be75-4013-92e8-342d3c54666e","ios":"levelo://app?vid=f3eb5318-be75-4013-92e8-342d3c54666e"},"vehicle_type_id":"4","last_reported":1727672984,"current_range_meters":39200,"station_id":"ce4bhq12rcd13ifvqhhg","pricing_plan_id":"cebpf4jnsgd1na2vs0mg"},{"bike_id":"275b0a25-1a9f-498c-9202-be550b06c3de","system_id":"levelo_inurba_marseille","lat":43.32295,"lon":5.38275,"is_reserved":false,"is_disabled":false,"rental_uris":{"android":"levelo://app?vid=275b0a25-1a9f-498c-9202-be550b06c3de","ios":"levelo://app?vid=275b0a25-1a9f-498c-9202-be550b06c3de"},"vehicle_type_id":"4","last_reported":1727672984,"current_range_meters":38800,"station_id":"ce4bhr12rcd13ifvqhqg","pricing_plan_id":"cebpf4jnsgd1na2vs0mg"},{"bike_id":"cace9a80-3018-4935-8380-842e8d7b8e89","system_id":"levelo_inurba_marseille","lat":43.28679,"lon":5.3866,"is_reserved":false,"is_disabled":false,"rental_uris":{"android":"levelo://app?vid=cace9a80-3018-4935-8380-842e8d7b8e89","ios":"levelo://app?vid=cace9a80-3018-4935-8380-842e8d7b8e89"},"vehicle_type_id":"4","last_reported":1727672984,"current_range_meters":38800,"station_id":"ce4bh492rcd13ifvqdug","pricing_plan_id":"cebpf4jnsgd1na2vs0mg"},{"bike_id":"08db7da2-8c02-411c-836a-43ba51a9ae6f","system_id":"levelo_inurba_marseille","lat":43.28437,"lon":5.39181,"is_reserved":false,"is_disabled":false,"rental_uris":{"android":"levelo://app?vid=08db7da2-8c02-411c-836a-43ba51a9ae6f","ios":"levelo://app?vid=08db7da2-8c02-411c-836a-43ba51a9ae6f"},"vehicle_type_id":"4","last_reported":1727672984,"current_range_meters":34000,"station_id":"ce4bhoh2rcd13ifvqh5g","pricing_plan_id":"cebpf4jnsgd1na2vs0mg"},{"bike_id":"c4ddfd87-4656-4a61-8c9f-7cdd725459d7","system_id":"levelo_inurba_marseille","lat":43.26933,"lon":5.38906,"is_reserved":false,"is_disabled":false,"rental_uris":{"android":"levelo://app?vid=c4ddfd87-4656-4a61-8c9f-7cdd725459d7","ios":"levelo://app?vid=c4ddfd87-4656-4a61-8c9f-7cdd725459d7"},"vehicle_type_id":"4","last_reported":1727672984,"current_range_meters":38000,"station_id":"ce4bhhh2rcd13ifvqfl0","pricing_plan_id":"cebpf4jnsgd1na2vs0mg"},{"bike_id":"cdce5ed8-1437-41e2-b4e5-ad6337242012","system_id":"levelo_inurba_marseille","lat":43.31121,"lon":5.37762,"is_reserved":false,"is_disabled":false,"rental_uris":{"android":"levelo://app?vid=cdce5ed8-1437-41e2-b4e5-ad6337242012","ios":"levelo://app?vid=cdce5ed8-1437-41e2-b4e5-ad6337242012"},"vehicle_type_id":"4","last_reported":1727672984,"current_range_meters":38800,"station_id":"ce4bgt92rcd13ifvqcg0","pricing_plan_id":"cebpf4jnsgd1na2vs0mg"},{"bike_id":"0c3f0369-7cdf-4cba-a0db-09435ab8c8da","system_id":"levelo_inurba_marseille","lat":43.23189,"lon":5.39993,"is_reserved":false,"is_disabled":false,"rental_uris":{"android":"levelo://app?vid=0c3f0369-7cdf-4cba-a0db-09435ab8c8da","ios":"levelo://app?vid=0c3f0369-7cdf-4cba-a0db-09435ab8c8da"},"vehicle_type_id":"4","last_reported":1727672984,"current_range_meters":22800,"station_id":"ce4bhn12rcd13ifvqgqg","pricing_plan_id":"cebpf4jnsgd1na2vs0mg"},{"bike_id":"9884cc31-b476-40cd-8167-3eb122f2d5db","system_id":"levelo_inurba_marseille","lat":43.28408,"lon":5.3752,"is_reserved":false,"is_disabled":false,"rental_uris":{"android":"levelo://app?vid=9884cc31-b476-40cd-8167-3eb122f2d5db","ios":"levelo://app?vid=9884cc31-b476-40cd-8167-3eb122f2d5db"},"vehicle_type_id":"4","last_reported":1727672984,"current_range_meters":38800,"station_id":"ce4bh412rcd13ifvqds0","pricing_plan_id":"cebpf4jnsgd1na2vs0mg"},{"bike_id":"23ef1aa6-2589-4a02-a24a-f5f3352e03cf","system_id":"levelo_inurba_marseille","lat":43.29268,"lon":5.40143,"is_reserved":false,"is_disabled":false,"rental_uris":{"android":"levelo://app?vid=23ef1aa6-2589-4a02-a24a-f5f3352e03cf","ios":"levelo://app?vid=23ef1aa6-2589-4a02-a24a-f5f3352e03cf"},"vehicle_type_id":"4","last_reported":1727672984,"current_range_meters":34800,"station_id":"ce4bh312rcd13ifvqdk0","pricing_plan_id":"cebpf4jnsgd1na2vs0mg"},{"bike_id":"4db49256-52da-4b24-bc91-56eb058f00e1","system_id":"levelo_inurba_marseille","lat":43.2572,"lon":5.41109,"is_reserved":false,"is_disabled":false,"rental_uris":{"android":"levelo://app?vid=4db49256-52da-4b24-bc91-56eb058f00e1","ios":"levelo://app?vid=4db49256-52da-4b24-bc91-56eb058f00e1"},"vehicle_type_id":"4","last_reported":1727672984,"current_range_meters":38800,"station_id":"ce4bhkp2rcd13ifvqgd0","pricing_plan_id":"cebpf4jnsgd1na2vs0mg"},{"bike_id":"eba852a4-747a-4587-beda-73a7707120c4","system_id":"levelo_inurba_marseille","lat":43.28444,"lon":5.39176,"is_reserved":false,"is_disabled":false,"rental_uris":{"android":"levelo://app?vid=eba852a4-747a-4587-beda-73a7707120c4","ios":"levelo://app?vid=eba852a4-747a-4587-beda-73a7707120c4"},"vehicle_type_id":"4","last_reported":1727672984,"current_range_meters":13600,"station_id":"ce4bhoh2rcd13ifvqh5g","pricing_plan_id":"cebpf4jnsgd1na2vs0mg"},{"bike_id":"859d1755-c959-4dff-af3d-04c4c7e283a1","system_id":"levelo_inurba_marseille","lat":43.25111,"lon":5.40328,"is_reserved":false,"is_disabled":false,"rental_uris":{"android":"levelo://app?vid=859d1755-c959-4dff-af3d-04c4c7e283a1","ios":"levelo://app?vid=859d1755-c959-4dff-af3d-04c4c7e283a1"},"vehicle_type_id":"4","last_reported":1727672984,"current_range_meters":38400,"station_id":"ce4bhlh2rcd13ifvqgig","pricing_plan_id":"cebpf4jnsgd1na2vs0mg"},{"bike_id":"7964b45b-3ebc-4f3c-ae66-bbcd94d8f929","system_id":"levelo_inurba_marseille","lat":43.30654,"lon":5.40076,"is_reserved":false,"is_disabled":false,"rental_uris":{"android":"levelo://app?vid=7964b45b-3ebc-4f3c-ae66-bbcd94d8f929","ios":"levelo://app?vid=7964b45b-3ebc-4f3c-ae66-bbcd94d8f929"},"vehicle_type_id":"4","last_reported":1727672984,"current_range_meters":38000,"station_id":"ce4bh112rcd13ifvqda0","pricing_plan_id":"cebpf4jnsgd1na2vs0mg"},{"bike_id":"e7de440b-45ed-46a8-99b6-cf20a42fade8","system_id":"levelo_inurba_marseille","lat":43.32294,"lon":5.38277,"is_reserved":false,"is_disabled":false,"rental_uris":{"android":"levelo://app?vid=e7de440b-45ed-46a8-99b6-cf20a42fade8","ios":"levelo://app?vid=e7de440b-45ed-46a8-99b6-cf20a42fade8"},"vehicle_type_id":"4","last_reported":1727672984,"current_range_meters":30800,"station_id":"ce4bhr12rcd13ifvqhqg","pricing_plan_id":"cebpf4jnsgd1na2vs0mg"},{"bike_id":"e4361fa2-90d9-45ff-9d8a-e7b112f4e011","system_id":"levelo_inurba_marseille","lat":43.28518,"lon":5.39129,"is_reserved":false,"is_disabled":false,"rental_uris":{"android":"levelo://app?vid=e4361fa2-90d9-45ff-9d8a-e7b112f4e011","ios":"levelo://app?vid=e4361fa2-90d9-45ff-9d8a-e7b112f4e011"},"vehicle_type_id":"4","last_reported":1727672984,"current_range_meters":24800,"station_id":"ce4bh3p2rcd13ifvqdp0","pricing_plan_id":"cebpf4jnsgd1na2vs0mg"},{"bike_id":"4cf48cb1-19c3-4b46-bcf4-dac941870c3b","system_id":"levelo_inurba_marseille","lat":43.30216,"lon":5.39469,"is_reserved":false,"is_disabled":false,"rental_uris":{"android":"levelo://app?vid=4cf48cb1-19c3-4b46-bcf4-dac941870c3b","ios":"levelo://app?vid=4cf48cb1-19c3-4b46-bcf4-dac941870c3b"},"vehicle_type_id":"4","last_reported":1727672984,"current_range_meters":37600,"station_id":"ce4bh0p2rcd13ifvqd70","pricing_plan_id":"cebpf4jnsgd1na2vs0mg"},{"bike_id":"85bad695-011a-45c3-a626-9ae7b432756c","system_id":"levelo_inurba_marseille","lat":43.29585,"lon":5.3674,"is_reserved":false,"is_disabled":false,"rental_uris":{"android":"levelo://app?vid=85bad695-011a-45c3-a626-9ae7b432756c","ios":"levelo://app?vid=85bad695-011a-45c3-a626-9ae7b432756c"},"vehicle_type_id":"4","last_reported":1727672984,"current_range_meters":39200,"station_id":"ce4bgph2rcd13ifvqc2g","pricing_plan_id":"cebpf4jnsgd1na2vs0mg"},