{"last_updated":1777579455,"ttl":60,"version":"2.2","data":{"bikes":[{"bike_id":"e5937de3-681e-4e21-a5f5-f9458f7bf0ab","system_id":"levelo_inurba_marseille","lat":43.28041,"lon":5.36937,"is_reserved":false,"is_disabled":false,"rental_uris":{"android":"levelo://app?vid=e5937de3-681e-4e21-a5f5-f9458f7bf0ab","ios":"levelo://app?vid=e5937de3-681e-4e21-a5f5-f9458f7bf0ab"},"vehicle_type_id":"4","last_reported":1777579455,"current_range_meters":2800,"station_id":"ce4bha12rcd13ifvqef0","pricing_plan_id":"cebpf4jnsgd1na2vs0mg"},{"bike_id":"cefbb474-553e-4985-a534-8b89b5df6fc8","system_id":"levelo_inurba_marseille","lat":43.27223,"lon":5.40968,"is_reserved":false,"is_disabled":true,"rental_uris":{"android":"levelo://app?vid=cefbb474-553e-4985-a534-8b89b5df6fc8","ios":"levelo://app?vid=cefbb474-553e-4985-a534-8b89b5df6fc8"},"vehicle_type_id":"4","last_reported":1777579455,"current_range_meters":2800,"station_id":"","pricing_plan_id":"cebpf4jnsgd1na2vs0mg"},{"bike_id":"e0f604e1-4930-4b8c-a73f-30a0efc774a8","system_id":"levelo_inurba_marseille","lat":43.26229,"lon":5.38765,"is_reserved":false,"is_disabled":false,"rental_uris":{"android":"levelo://app?vid=e0f604e1-4930-4b8c-a73f-30a0efc774a8","ios":"levelo://app?vid=e0f604e1-4930-4b8c-a73f-30a0efc774a8"},"vehicle_type_id":"4","last_reported":1777579455,"current_range_meters":2800,"station_id":"","pricing_plan_id":"cebpf4jnsgd1na2vs0mg"},{"bike_id":"b5592bc3-7c5d-4ba9-b1ae-b173928aef8c","system_id":"levelo_inurba_marseille","lat":43.28482,"lon":5.48393,"is_reserved":false,"is_disabled":false,"rental_uris":{"android":"levelo://app?vid=b5592bc3-7c5d-4ba9-b1ae-b173928aef8c","ios":"levelo://app?vid=b5592bc3-7c5d-4ba9-b1ae-b173928aef8c"},"vehicle_type_id":"4","last_reported":1777579455,"current_range_meters":3200,"station_id":"","pricing_plan_id":"cebpf4jnsgd1na2vs0mg"},{"bike_id":"d8de0a64-e3bb-4f89-8f07-313cae5af722","system_id":"levelo_inurba_marseille","lat":43.22552,"lon":5.41636,"is_reserved":false,"is_disabled":false,"rental_uris":{"android":"levelo://app?vid=d8de0a64-e3bb-4f89-8f07-313cae5af722","ios":"levelo://app?vid=d8de0a64-e3bb-4f89-8f07-313cae5af722"},"vehicle_type_id":"4","last_reported":1777579455,"current_range_meters":3200,"station_id":"st_d2o4gvlbi1j2169b742g","pricing_plan_id":"cebpf4jnsgd1na2vs0mg"},{"bike_id":"0438d68d-b4c6-4b23-a7e1-82657231ebe9","system_id":"levelo_inurba_marseille","lat":43.28474,"lon":5.48403,"is_reserved":false,"is_disabled":false,"rental_uris":{"android":"levelo://app?vid=0438d68d-b4c6-4b23-a7e1-82657231ebe9","ios":"levelo://app?vid=0438d68d-b4c6-4b23-a7e1-82657231ebe9"},"vehicle_type_id":"4","last_reported":1777579455,"current_range_meters":3200,"station_id":"","pricing_plan_id":"cebpf4jnsgd1na2vs0mg"},{"bike_id":"f24d14a0-8e86-4ca5-9cd0-760c7e2a2e89","system_id":"levelo_inurba_marseille","lat":43.28951,"lon":5.37864,"is_reserved":false,"is_disabled":true,"rental_uris":{"android":"levelo://app?vid=f24d14a0-8e86-4ca5-9cd0-760c7e2a2e89","ios":"levelo://app?vid=f24d14a0-8e86-4ca5-9cd0-760c7e2a2e89"},"vehicle_type_id":"4","last_reported":1777579455,"current_range_meters":3200,"station_id":"ce4bh9p2rcd13ifvqed0","pricing_plan_id":"cebpf4jnsgd1na2vs0mg"},{"bike_id":"4b04508f-dd7d-40f4-aa04-e897b83a481b","system_id":"levelo_inurba_marseille","lat":43.30177,"lon":5.36629,"is_reserved":false,"is_disabled":true,"rental_uris":{"android":"levelo://app?vid=4b04508f-dd7d-40f4-aa04-e897b83a481b","ios":"levelo://app?vid=4b04508f-dd7d-40f4-aa04-e897b83a481b"},"vehicle_type_id":"4","last_reported":1777579455,"current_range_meters":3200,"station_id":"ce4bgrh2rcd13ifvqc8g","pricing_plan_id":"cebpf4jnsgd1na2vs0mg"},{"bike_id":"b87dd9c9-076c-4492-a217-8b8dda274cdc","system_id":"levelo_inurba_marseille","lat":43.29783,"lon":5.39352,"is_reserved":false,"is_disabled":false,"rental_uris":{"android":"levelo://app?vid=b87dd9c9-076c-4492-a217-8b8dda274cdc","ios":"levelo://app?vid=b87dd9c9-076c-4492-a217-8b8dda274cdc"},"vehicle_type_id":"4","last_reported":1777579455,"current_range_meters":3200,"station_id":"chh1huq6cuj3fo74tm60","pricing_plan_id":"cebpf4jnsgd1na2vs0mg"},{"bike_id":"f126df62-0e32-4422-ad2d-794326ca816d","system_id":"levelo_inurba_marseille","lat":43.27663,"lon":5.38908,"is_reserved":false,"is_disabled":true,"rental_uris":{"android":"levelo://app?vid=f126df62-0e32-4422-ad2d-794326ca816d","ios":"levelo://app?vid=f126df62-0e32-4422-ad2d-794326ca816d"},"vehicle_type_id":"4","last_reported":1777579455,"current_range_meters":3200,"station_id":"ce4bhi12rcd13ifvqfo0","pricing_plan_id":"cebpf4jnsgd1na2vs0mg"},{"bike_id":"be8f74e7-682c-4be3-96ce-f0708b9f403c","system_id":"levelo_inurba_marseille","lat":43.29787,"lon":5.38107,"is_reserved":false,"is_disabled":true,"rental_uris":{"android":"levelo://app?vid=be8f74e7-682c-4be3-96ce-f0708b9f403c","ios":"levelo://app?vid=be8f74e7-682c-4be3-96ce-f0708b9f403c"},"vehicle_type_id":"4","last_reported":1777579455,"current_range_meters":3200,"station_id":"ce4bgip2rcd13ifvqbb0","pricing_plan_id":"cebpf4jnsgd1na2vs0mg"},{"bike_id":"b91f4f99-7987-40ea-afbb-1e1af65ec675","system_id":"levelo_inurba_marseille","lat":43.29443,"lon":5.40939,"is_reserved":false,"is_disabled":false,"rental_uris":{"android":"levelo://app?vid=b91f4f99-7987-40ea-afbb-1e1af65ec675","ios":"levelo://app?vid=b91f4f99-7987-40ea-afbb-1e1af65ec675"},"vehicle_type_id":"4","last_reported":1777579455,"current_range_meters":3200,"station_id":"","pricing_plan_id":"cebpf4jnsgd1na2vs0mg"},{"bike_id":"c4038235-4414-445b-9740-82412a3bc762","system_id":"levelo_inurba_marseille","lat":43.3057,"lon":5.4002,"is_reserved":false,"is_disabled":false,"rental_uris":{"android":"levelo://app?vid=c4038235-4414-445b-9740-82412a3bc762","ios":"levelo://app?vid=c4038235-4414-445b-9740-82412a3bc762"},"vehicle_type_id":"4","last_reported":1777579455,"current_range_meters":3600,"station_id":"","pricing_plan_id":"cebpf4jnsgd1na2vs0mg"},{"bike_id":"b5ba7bea-9179-4d43-bf28-3c6f762223a2","system_id":"levelo_inurba_marseille","lat":43.31356,"lon":5.38479,"is_reserved":false,"is_disabled":false,"rental_uris":{"android":"levelo://app?vid=b5ba7bea-9179-4d43-bf28-3c6f762223a2","ios":"levelo://app?vid=b5ba7bea-9179-4d43-bf28-3c6f762223a2"},"vehicle_type_id":"4","last_reported":1777579455,"current_range_meters":3600,"station_id":"ce4bgt92rcd13ifvqcf0","pricing_plan_id":"cebpf4jnsgd1na2vs0mg"},{"bike_id":"a0673cd0-8a35-4b9e-88ad-a85d19d89567","system_id":"levelo_inurba_marseille","lat":43.29528,"lon":5.38549,"is_reserved":false,"is_disabled":false,"rental_uris":{"android":"levelo://app?vid=a0673cd0-8a35-4b9e-88ad-a85d19d89567","ios":"levelo://app?vid=a0673cd0-8a35-4b9e-88ad-a85d19d89567"},"vehicle_type_id":"4","last_reported":1777579455,"current_range_meters":3600,"station_id":"ce4bgih2rcd13ifvqba0","pricing_plan_id":"cebpf4jnsgd1na2vs0mg"},{"bike_id":"867673f0-a41f-4ffc-876d-78cfd6ddc268","system_id":"levelo_inurba_marseille","lat":43.30958,"lon":5.3904,"is_reserved":false,"is_disabled":false,"rental_uris":{"android":"levelo://app?vid=867673f0-a41f-4ffc-876d-78cfd6ddc268","ios":"levelo://app?vid=867673f0-a41f-4ffc-876d-78cfd6ddc268"},"vehicle_type_id":"4","last_reported":1777579455,"current_range_meters":4000,"station_id":"ce4bgup2rcd13ifvqco0","pricing_plan_id":"cebpf4jnsgd1na2vs0mg"},{"bike_id":"8829f460-aa5f-4233-9846-cd6731fc4acd","system_id":"levelo_inurba_marseille","lat":43.26983,"lon":5.40434,"is_reserved":false,"is_disabled":false,"rental_uris":{"android":"levelo://app?vid=8829f460-aa5f-4233-9846-cd6731fc4acd","ios":"levelo://app?vid=8829f460-aa5f-4233-9846-cd6731fc4acd"},"vehicle_type_id":"4","last_reported":1777579455,"current_range_meters":4000,"station_id":"","pricing_plan_id":"cebpf4jnsgd1na2vs0mg"},{"bike_id":"7a4f9c5b-0770-4973-b065-ff441b4f0ec4","system_id":"levelo_inurba_marseille","lat":43.28871,"lon":5.42518,"is_reserved":false,"is_disabled":false,"rental_uris":{"android":"levelo://app?vid=7a4f9c5b-0770-4973-b065-ff441b4f0ec4","ios":"levelo://app?vid=7a4f9c5b-0770-4973-b065-ff441b4f0ec4"},"vehicle_type_id":"4","last_reported":1777579455,"current_range_meters":4000,"station_id":"st_d3b462108ojc7389ooeg","pricing_plan_id":"cebpf4jnsgd1na2vs0mg"},{"bike_id":"1b96c3be-1763-455e-8dfe-dce824d3cbc4","system_id":"levelo_inurba_marseille","lat":43.29518,"lon":5.39398,"is_reserved":false,"is_disabled":false,"rental_uris":{"android":"levelo://app?vid=1b96c3be-1763-455e-8dfe-dce824d3cbc4","ios":"levelo://app?vid=1b96c3be-1763-455e-8dfe-dce824d3cbc4"},"vehicle_type_id":"4","last_reported":1777579455,"current_range_meters":4000,"station_id":"ce4bh292rcd13ifvqdf0","pricing_plan_id":"cebpf4jnsgd1na2vs0mg"},{"bike_id":"f4df8548-5718-4467-b3c4-2b677f5b42a7","system_id":"levelo_inurba_marseille","lat":43.23149,"lon":5.43726,"is_reserved":false,"is_disabled":false,"rental_uris":{"android":"levelo://app?vid=f4df8548-5718-4467-b3c4-2b677f5b42a7","ios":"levelo://app?vid=f4df8548-5718-4467-b3c4-2b677f5b42a7"},"vehicle_type_id":"4","last_reported":1777579455,"current_range_meters":4000,"station_id":"ce4bhmp2rcd13ifvqgog","pricing_plan_id":"cebpf4jnsgd1na2vs0mg"},{"bike_id":"26335112-9b2a-4a27-9ec1-b93b9cc755ad","system_id":"levelo_inurba_marseille","lat":43.30865,"lon":5.41893,"is_reserved":false,"is_disabled":false,"rental_uris":{"android":"levelo://app?vid=26335112-9b2a-4a27-9ec1-b93b9cc755ad","ios":"levelo://app?vid=26335112-9b2a-4a27-9ec1-b93b9cc755ad"},"vehicle_type_id":"4","last_reported":1777579455,"current_range_meters":4000,"station_id":"","pricing_plan_id":"cebpf4jnsgd1na2vs0mg"},{"bike_id":"4c4fd5bf-edd1-4e64-bbba-8e4e3d30b47b","system_id":"levelo_inurba_marseille","lat":43.29188,"lon":5.44516,"is_reserved":false,"is_disabled":false,"rental_uris":{"android":"levelo://app?vid=4c4fd5bf-edd1-4e64-bbba-8e4e3d30b47b","ios":"levelo://app?vid=4c4fd5bf-edd1-4e64-bbba-8e4e3d30b47b"},"vehicle_type_id":"4","last_reported":1777579455,"current_range_meters":4000,"station_id":"","pricing_plan_id":"cebpf4jnsgd1na2vs0mg"},{"bike_id":"c2113cdb-7bc5-496b-ae16-d7d758fadeb5","system_id":"levelo_inurba_marseille","lat":43.33135,"lon":5.3793,"is_reserved":false,"is_disabled":false,"rental_uris":{"android":"levelo://app?vid=c2113cdb-7bc5-496b-ae16-d7d758fadeb5","ios":"levelo://app?vid=c2113cdb-7bc5-496b-ae16-d7d758fadeb5"},"vehicle_type_id":"4","last_reported":1777579455,"current_range_meters":4000,"station_id":"","pricing_plan_id":"cebpf4jnsgd1na2vs0mg"},{"bike_id":"66cda49d-869d-4b22-a4c6-1269f8d67df2","system_id":"levelo_inurba_marseille","lat":43.33136,"lon":5.37722,"is_reserved":false,"is_disabled":false,"rental_uris":{"android":"levelo://app?vid=66cda49d-869d-4b22-a4c6-1269f8d67df2","ios":"levelo://app?vid=66cda49d-869d-4b22-a4c6-1269f8d67df2"},"vehicle_type_id":"4","last_reported":1777579455,"current_range_meters":4000,"station_id":"st_d46cu089ee8s73dldbu0","pricing_plan_id":"cebpf4jnsgd1na2vs0mg"},{"bike_id":"60d77da4-6419-429b-9e7a-b2cf161a2f69","system_id":"levelo_inurba_marseille","lat":43.32642,"lon":5.39497,"is_reserved":false,"is_disabled":false,"rental_uris":{"android":"levelo://app?vid=60d77da4-6419-429b-9e7a-b2cf161a2f69","ios":"levelo://app?vid=60d77da4-6419-429b-9e7a-b2cf161a2f69"},"vehicle_type_id":"4","last_reported":1777579455,"current_range_meters":4000,"station_id":"","pricing_plan_id":"cebpf4jnsgd1na2vs0mg"},{"bike_id":"70dc7480-ac29-4295-89c0-615fe3a24ff8","system_id":"levelo_inurba_marseille","lat":43.28885,"lon":5.38418,"is_reserved":false,"is_disabled":false,"rental_uris":{"android":"levelo://app?vid=70dc7480-ac29-4295-89c0-615fe3a24ff8","ios":"levelo://app?vid=70dc7480-ac29-4295-89c0-615fe3a24ff8"},"vehicle_type_id":"4","last_reported":1777579455,"current_range_meters":4400,"station_id":"","pricing_plan_id":"cebpf4jnsgd1na2vs0mg"},{"bike_id":"61832b34-80b7-432b-a7c1-6d9df8f28546","system_id":"levelo_inurba_marseille","lat":43.29013,"lon":5.38644,"is_reserved":false,"is_disabled":true,"rental_uris":{"android":"levelo://app?vid=61832b34-80b7-432b-a7c1-6d9df8f28546","ios":"levelo://app?vid=61832b34-80b7-432b-a7c1-6d9df8f28546"},"vehicle_type_id":"4","last_reported":1777579455,"current_range_meters":4400,"station_id":"ce4bh4p2rcd13ifvqe0g","pricing_plan_id":"cebpf4jnsgd1na2vs0mg"},{"bike_id":"6eedc303-1a41-4a96-97c9-d66214ff44ed","system_id":"levelo_inurba_marseille","lat":43.305641,"lon":5.365622,"is_reserved":false,"is_disabled":false,"rental_uris":{"android":"levelo://app?vid=6eedc303-1a41-4a96-97c9-d66214ff44ed","ios":"levelo://app?vid=6eedc303-1a41-4a96-97c9-d66214ff44ed"},"vehicle_type_id":"4","last_reported":1777579455,"current_range_meters":4400,"station_id":"ce4bgs12rcd13ifvqcag","pricing_plan_id":"cebpf4jnsgd1na2vs0mg"},{"bike_id":"d97ed6ed-9254-4b2c-9752-a3aaf3378900","system_id":"levelo_inurba_marseille","lat":43.33551,"lon":5.37466,"is_reserved":false,"is_disabled":false,"rental_uris":{"android":"levelo://app?vid=d97ed6ed-9254-4b2c-9752-a3aaf3378900","ios":"levelo://app?vid=d97ed6ed-9254-4b2c-9752-a3aaf3378900"},"vehicle_type_id":"4","last_reported":1777579455,"current_range_meters":4400,"station_id":"st_d46tts09ee8s73dlu43g","pricing_plan_id":"cebpf4jnsgd1na2vs0mg"},{"bike_id":"3f9a2e37-18a3-4749-8d1f-07c835ea8752","system_id":"levelo_inurba_marseille","lat":43.29168,"lon":5.39321,"is_reserved":false,"is_disabled":false,"rental_uris":{"android":"levelo://app?vid=3f9a2e37-18a3-4749-8d1f-07c835ea8752","ios":"levelo://app?vid=3f9a2e37-18a3-4749-8d1f-07c835ea8752"},"vehicle_type_id":"4","last_reported":1777579455,"current_range_meters":4400,"station_id":"ce4bh192rcd13ifvqdd0","pricing_plan_id":"cebpf4jnsgd1na2vs0mg"},{"bike_id":"61fa7dc2-655e-485a-9de3-6c935349efed","system_id":"levelo_inurba_marseille","lat":43.21187,"lon":5.35072,"is_reserved":false,"is_disabled":false,"rental_uris":{"android":"levelo://app?vid=61fa7dc2-655e-485a-9de3-6c935349efed","ios":"levelo://app?vid=61fa7dc2-655e-485a-9de3-6c935349efed"},"vehicle_type_id":"4","last_reported":1777579455,"current_range_meters":4400,"station_id":"st_cvj6sg6p6f1abm77japg","pricing_plan_id":"cebpf4jnsgd1na2vs0mg"},{"bike_id":"c836b09f-a666-4145-8191-473bc44c6a36","system_id":"levelo_inurba_marseille","lat":43.255772,"lon":5.382272,"is_reserved":false,"is_disabled":true,"rental_uris":{"android":"levelo://app?vid=c836b09f-a666-4145-8191-473bc44c6a36","ios":"levelo://app?vid=c836b09f-a666-4145-8191-473bc44c6a36"},"vehicle_type_id":"4","last_reported":1777579455,"current_range_meters":4400,"station_id":"ce4bhih2rcd13ifvqfs0","pricing_plan_id":"cebpf4jnsgd1na2vs0mg"},{"bike_id":"58eec24b-b91c-4a32-8114-b8aafd96a884","system_id":"levelo_inurba_marseille","lat":43.29257,"lon":5.38433,"is_reserved":false,"is_disabled":true,"rental_uris":{"android":"levelo://app?vid=58eec24b-b91c-4a32-8114-b8aafd96a884","ios":"levelo://app?vid=58eec24b-b91c-4a32-8114-b8aafd96a884"},"vehicle_type_id":"4","last_reported":1777579455,"current_range_meters":4800,"station_id":"ce4bh692rcd13ifvqea0","pricing_plan_id":"cebpf4jnsgd1na2vs0mg"},{"bike_id":"cf2aff28-3d82-4be6-8baf-f43010333b6d","system_id":"levelo_inurba_marseille","lat":43.31531,"lon":5.38044,"is_reserved":false,"is_disabled":false,"rental_uris":{"android":"levelo://app?vid=cf2aff28-3d82-4be6-8baf-f43010333b6d","ios":"levelo://app?vid=cf2aff28-3d82-4be6-8baf-f43010333b6d"},"vehicle_type_id":"4","last_reported":1777579455,"current_range_meters":4800,"station_id":"ce4bhsp2rcd13ifvqi50","pricing_plan_id":"cebpf4jnsgd1na2vs0mg"},{"bike_id":"46523cb2-6b8e-455f-9277-3808cf80d4d2","system_id":"levelo_inurba_marseille","lat":43.337444,"lon":5.374475,"is_reserved":false,"is_disabled":true,"rental_uris":{"android":"levelo://app?vid=46523cb2-6b8e-455f-9277-3808cf80d4d2","ios":"levelo://app?vid=46523cb2-6b8e-455f-9277-3808cf80d4d2"},"vehicle_type_id":"4","last_reported":1777579455,"current_range_meters":4800,"station_id":"","pricing_plan_id":"cebpf4jnsgd1na2vs0mg"},{"bike_id":"bb287b7e-3cda-4157-83c0-37b53cff072b","system_id":"levelo_inurba_marseille","lat":43.28477,"lon":5.38421,"is_reserved":false,"is_disabled":false,"rental_uris":{"android":"levelo://app?vid=bb287b7e-3cda-4157-83c0-37b53cff072b","ios":"levelo://app?vid=bb287b7e-3cda-4157-83c0-37b53cff072b"},"vehicle_type_id":"4","last_reported":1777579455,"current_range_meters":4800,"station_id":"ce4bh512rcd13ifvqe3g","pricing_plan_id":"cebpf4jnsgd1na2vs0mg"},{"bike_id":"dcbc0d3b-c793-4982-b0e1-2878cedc77ea","system_id":"levelo_inurba_marseille","lat":43.29775,"lon":5.38369,"is_reserved":false,"is_disabled":false,"rental_uris":{"android":"levelo://app?vid=dcbc0d3b-c793-4982-b0e1-2878cedc77ea","ios":"levelo://app?vid=dcbc0d3b-c793-4982-b0e1-2878cedc77ea"},"vehicle_type_id":"4","last_reported":1777579455,"current_range_meters":4800,"station_id":"","pricing_plan_id":"cebpf4jnsgd1na2vs0mg"},{"bike_id":"e80cdd52-06cd-43e4-b53b-b72767428c38","system_id":"levelo_inurba_marseille","lat":43.27659,"lon":5.39775,"is_reserved":false,"is_disabled":false,"rental_uris":{"android":"levelo://app?vid=e80cdd52-06cd-43e4-b53b-b72767428c38","ios":"levelo://app?vid=e80cdd52-06cd-43e4-b53b-b72767428c38"},"vehicle_type_id":"4","last_reported":1777579455,"current_range_meters":4800,"station_id":"","pricing_plan_id":"cebpf4jnsgd1na2vs0mg"},{"bike_id":"c9e7965e-6a94-40fa-9eba-01f916063b62","system_id":"levelo_inurba_marseille","lat":43.27947,"lon":5.41042,"is_reserved":false,"is_disabled":false,"rental_uris":{"android":"levelo://app?vid=c9e7965e-6a94-40fa-9eba-01f916063b62","ios":"levelo://app?vid=c9e7965e-6a94-40fa-9eba-01f916063b62"},"vehicle_type_id":"4","last_reported":1777579455,"current_range_meters":4800,"station_id":"ce4bhnp2rcd13ifvqh0g","pricing_plan_id":"cebpf4jnsgd1na2vs0mg"},{"bike_id":"7733da90-0695-44b1-9b34-4b7c65a63698","system_id":"levelo_inurba_marseille","lat":43.29866,"lon":5.39735,"is_reserved":false,"is_disabled":false,"rental_uris":{"android":"levelo://app?vid=7733da90-0695-44b1-9b34-4b7c65a63698","ios":"levelo://app?vid=7733da90-0695-44b1-9b34-4b7c65a63698"},"vehicle_type_id":"4","last_reported":1777579455,"current_range_meters":4800,"station_id":"ce4bh0h2rcd13ifvqd50","pricing_plan_id":"cebpf4jnsgd1na2vs0mg"},{"bike_id":"dd649e74-ed5e-4ce6-b6fc-191746436a7b","system_id":"levelo_inurba_marseille","lat":43.25069,"lon":5.42503,"is_reserved":false,"is_disabled":false,"rental_uris":{"android":"levelo://app?vid=dd649e74-ed5e-4ce6-b6fc-191746436a7b","ios":"levelo://app?vid=dd649e74-ed5e-4ce6-b6fc-191746436a7b"},"vehicle_type_id":"4","last_reported":1777579455,"current_range_meters":4800,"station_id":"","pricing_plan_id":"cebpf4jnsgd1na2vs0mg"},{"bike_id":"f22a6c01-2eed-4292-a8e4-1cc41ad77b27","system_id":"levelo_inurba_marseille","lat":43.292686,"lon":5.384376,"is_reserved":false,"is_disabled":false,"rental_uris":{"android":"levelo://app?vid=f22a6c01-2eed-4292-a8e4-1cc41ad77b27","ios":"levelo://app?vid=f22a6c01-2eed-4292-a8e4-1cc41ad77b27"},"vehicle_type_id":"4","last_reported":1777579455,"current_range_meters":4800,"station_id":"ce4bh692rcd13ifvqea0","pricing_plan_id":"cebpf4jnsgd1na2vs0mg"},{"bike_id":"c7598b69-46bc-4064-adc9-6c3c478d70bb","system_id":"levelo_inurba_marseille","lat":43.30648,"lon":5.40101,"is_reserved":false,"is_disabled":false,"rental_uris":{"android":"levelo://app?vid=c7598b69-46bc-4064-adc9-6c3c478d70bb","ios":"levelo://app?vid=c7598b69-46bc-4064-adc9-6c3c478d70bb"},"vehicle_type_id":"4","last_reported":1777579455,"current_range_meters":4800,"station_id":"ce4bh112rcd13ifvqda0","pricing_plan_id":"cebpf4jnsgd1na2vs0mg"},{"bike_id":"c10e9ddb-36f4-40a9-a01e-246729b8793e","system_id":"levelo_inurba_marseille","lat":43.23378,"lon":5.41237,"is_reserved":false,"is_disabled":false,"rental_uris":{"android":"levelo://app?vid=c10e9ddb-36f4-40a9-a01e-246729b8793e","ios":"levelo://app?vid=c10e9ddb-36f4-40a9-a01e-246729b8793e"},"vehicle_type_id":"4","last_reported":1777579455,"current_range_meters":5600,"station_id":"st_d75pvndhf9lc73cqq3eg","pricing_plan_id":"cebpf4jnsgd1na2vs0mg"},{"bike_id":"6a36338d-fe10-4ea2-a607-e4c00c42a874","system_id":"levelo_inurba_marseille","lat":43.25494,"lon":5.37649,"is_reserved":false,"is_disabled":false,"rental_uris":{"android":"levelo://app?vid=6a36338d-fe10-4ea2-a607-e4c00c42a874","ios":"levelo://app?vid=6a36338d-fe10-4ea2-a607-e4c00c42a874"},"vehicle_type_id":"4","last_reported":1777579455,"current_range_meters":5600,"station_id":"ce4bhh12rcd13ifvqff0","pricing_plan_id":"cebpf4jnsgd1na2vs0mg"},{"bike_id":"1779c4c0-f603-47b9-af0e-89fb3b794de1","system_id":"levelo_inurba_marseille","lat":43.23183,"lon":5.39999,"is_reserved":false,"is_disabled":false,"rental_uris":{"android":"levelo://app?vid=1779c4c0-f603-47b9-af0e-89fb3b794de1","ios":"levelo://app?vid=1779c4c0-f603-47b9-af0e-89fb3b794de1"},"vehicle_type_id":"4","last_reported":1777579455,"current_range_meters":5600,"station_id":"ce4bhn12rcd13ifvqgqg","pricing_plan_id":"cebpf4jnsgd1na2vs0mg"},{"bike_id":"a8984c0e-d9bd-4017-b517-d44d2e790ca4","system_id":"levelo_inurba_marseille","lat":43.29261,"lon":5.38455,"is_reserved":false,"is_disabled":false,"rental_uris":{"android":"levelo://app?vid=a8984c0e-d9bd-4017-b517-d44d2e790ca4","ios":"levelo://app?vid=a8984c0e-d9bd-4017-b517-d44d2e790ca4"},"vehicle_type_id":"4","last_reported":1777579455,"current_range_meters":5600,"station_id":"ce4bh692rcd13ifvqea0","pricing_plan_id":"cebpf4jnsgd1na2vs0mg"},{"bike_id":"548fdd17-60a3-461c-85b6-1f80e7bb6f07","system_id":"levelo_inurba_marseille","lat":43.29607,"lon":5.39436,"is_reserved":false,"is_disabled":false,"rental_uris":{"android":"levelo://app?vid=548fdd17-60a3-461c-85b6-1f80e7bb6f07","ios":"levelo://app?vid=548fdd17-60a3-461c-85b6-1f80e7bb6f07"},"vehicle_type_id":"4","last_reported":1777579455,"current_range_meters":5600,"station_id":"","pricing_plan_id":"cebpf4jnsgd1na2vs0mg"},{"bike_id":"f8802ab6-eedd-4134-a7cd-4e256e9992b5","system_id":"levelo_inurba_marseille","lat":43.25476,"lon":5.37645,"is_reserved":false,"is_disabled":false,"rental_uris":{"android":"levelo://app?vid=f8802ab6-eedd-4134-a7cd-4e256e9992b5","ios":"levelo://app?vid=f8802ab6-eedd-4134-a7cd-4e256e9992b5"},"vehicle_type_id":"4","last_reported":1777579455,"current_range_meters":5600,"station_id":"ce4bhh12rcd13ifvqff0","pricing_plan_id":"cebpf4jnsgd1na2vs0mg"},{"bike_id":"f2020652-d0ea-458b-b5e5-7d9c7a4946f9","system_id":"levelo_inurba_marseille","lat":43.30466,"lon":5.37904,"is_reserved":false,"is_disabled":false,"rental_uris":{"android":"levelo://app?vid=f2020652-d0ea-458b-b5e5-7d9c7a4946f9","ios":"levelo://app?vid=f2020652-d0ea-458b-b5e5-7d9c7a4946f9"},"vehicle_type_id":"4","last_reported":1777579455,"current_range_meters":5600,"station_id":"ce4bgup2rcd13ifvqcn0","pricing_plan_id":"cebpf4jnsgd1na2vs0mg"},{"bike_id":"63eb7bfa-6172-4d06-a84d-a1e922ce7725","system_id":"levelo_inurba_marseille","lat":43.29256,"lon":5.38436,"is_reserved":false,"is_disabled":false,"rental_uris":{"android":"levelo://app?vid=63eb7bfa-6172-4d06-a84d-a1e922ce7725","ios":"levelo://app?vid=63eb7bfa-6172-4d06-a84d-a1e922ce7725"},"vehicle_type_id":"4","last_reported":1777579455,"current_range_meters":5600,"station_id":"ce4bgm92rcd13ifvqbr0","pricing_plan_id":"cebpf4jnsgd1na2vs0mg"},{"bike_id":"76b76a5a-e9c0-44f3-94af-8de1a567c89d","system_id":"levelo_inurba_marseille","lat":43.22535,"lon":5.34839,"is_reserved":false,"is_disabled":false,"rental_uris":{"android":"levelo://app?vid=76b76a5a-e9c0-44f3-94af-8de1a567c89d","ios":"levelo://app?vid=76b76a5a-e9c0-44f3-94af-8de1a567c89d"},"vehicle_type_id":"4","last_reported":1777579455,"current_range_meters":5600,"station_id":"st_cvj5dfep6f1abm77gieg","pricing_plan_id":"cebpf4jnsgd1na2vs0mg"},{"bike_id":"bb61bce6-a905-4678-8a18-289c412e775a","system_id":"levelo_inurba_marseille","lat":43.3138,"lon":5.38488,"is_reserved":false,"is_disabled":false,"rental_uris":{"android":"levelo://app?vid=bb61bce6-a905-4678-8a18-289c412e775a","ios":"levelo://app?vid=bb61bce6-a905-4678-8a18-289c412e775a"},"vehicle_type_id":"4","last_reported":1777579455,"current_range_meters":6000,"station_id":"ce4bgt92rcd13ifvqcf0","pricing_plan_id":"cebpf4jnsgd1na2vs0mg"},{"bike_id":"be95dd62-0379-432c-a1ac-b771d7c72d13","system_id":"levelo_inurba_marseille","lat":43.26571,"lon":5.38999,"is_reserved":false,"is_disabled":false,"rental_uris":{"android":"levelo://app?vid=be95dd62-0379-432c-a1ac-b771d7c72d13","ios":"levelo://app?vid=be95dd62-0379-432c-a1ac-b771d7c72d13"},"vehicle_type_id":"4","last_reported":1777579455,"current_range_meters":6000,"station_id":"ce4bhe12rcd13ifvqf30","pricing_plan_id":"cebpf4jnsgd1na2vs0mg"},{"bike_id":"71f9e40f-5f91-45ed-94c8-b7a92e020f69","system_id":"levelo_inurba_marseille","lat":43.29257,"lon":5.38461,"is_reserved":false,"is_disabled":false,"rental_uris":{"android":"levelo://app?vid=71f9e40f-5f91-45ed-94c8-b7a92e020f69","ios":"levelo://app?vid=71f9e40f-5f91-45ed-94c8-b7a92e020f69"},"vehicle_type_id":"4","last_reported":1777579455,"current_range_meters":6000,"station_id":"ce4bh692rcd13ifvqea0","pricing_plan_id":"cebpf4jnsgd1na2vs0mg"},{"bike_id":"aa1066a2-52ee-4b5e-9ea8-f5bfb38bf0a4","system_id":"levelo_inurba_marseille","lat":43.32366,"lon":5.36741,"is_reserved":false,"is_disabled":false,"rental_uris":{"android":"levelo://app?vid=aa1066a2-52ee-4b5e-9ea8-f5bfb38bf0a4","ios":"levelo://app?vid=aa1066a2-52ee-4b5e-9ea8-f5bfb38bf0a4"},"vehicle_type_id":"4","last_reported":1777579455,"current_range_meters":6000,"station_id":"ce4bhsh2rcd13ifvqi2g","pricing_plan_id":"cebpf4jnsgd1na2vs0mg"},{"bike_id":"b99d6fe4-b8e7-4ae2-a227-dc144b9f45f9","system_id":"levelo_inurba_marseille","lat":43.29184,"lon":5.38611,"is_reserved":false,"is_disabled":false,"rental_uris":{"android":"levelo://app?vid=b99d6fe4-b8e7-4ae2-a227-dc144b9f45f9","ios":"levelo://app?vid=b99d6fe4-b8e7-4ae2-a227-dc144b9f45f9"},"vehicle_type_id":"4","last_reported":1777579455,"current_range_meters":6000,"station_id":"","pricing_plan_id":"cebpf4jnsgd1na2vs0mg"},{"bike_id":"26d53b69-750d-4ba2-830f-90716a418b2c","system_id":"levelo_inurba_marseille","lat":43.28926,"lon":5.36616,"is_reserved":false,"is_disabled":false,"rental_uris":{"android":"levelo://app?vid=26d53b69-750d-4ba2-830f-90716a418b2c","ios":"levelo://app?vid=26d53b69-750d-4ba2-830f-90716a418b2c"},"vehicle_type_id":"4","last_reported":1777579455,"current_range_meters":6000,"station_id":"ce4bhap2rcd13ifvqek0","pricing_plan_id":"cebpf4jnsgd1na2vs0mg"},{"bike_id":"5065d36b-0d55-4ad4-838e-c9c37921d4ce","system_id":"levelo_inurba_marseille","lat":43.28643,"lon":5.36371,"is_reserved":false,"is_disabled":false,"rental_uris":{"android":"levelo://app?vid=5065d36b-0d55-4ad4-838e-c9c37921d4ce","ios":"levelo://app?vid=5065d36b-0d55-4ad4-838e-c9c37921d4ce"},"vehicle_type_id":"4","last_reported":1777579455,"current_range_meters":6000,"station_id":"ce4bhah2rcd13ifvqej0","pricing_plan_id":"cebpf4jnsgd1na2vs0mg"},{"bike_id":"6002189b-17d9-496e-9468-3e28ba4c5775","system_id":"levelo_inurba_marseille","lat":43.29532,"lon":5.37507,"is_reserved":false,"is_disabled":true,"rental_uris":{"android":"levelo://app?vid=6002189b-17d9-496e-9468-3e28ba4c5775","ios":"levelo://app?vid=6002189b-17d9-496e-9468-3e28ba4c5775"},"vehicle_type_id":"4","last_reported":1777579455,"current_range_meters":6000,"station_id":"ce4bgkp2rcd13ifvqbmg","pricing_plan_id":"cebpf4jnsgd1na2vs0mg"},{"bike_id":"c2d3c152-eef5-44bd-9f72-ff670f052999","system_id":"levelo_inurba_marseille","lat":43.25572,"lon":5.38239,"is_reserved":false,"is_disabled":false,"rental_uris":{"android":"levelo://app?vid=c2d3c152-eef5-44bd-9f72-ff670f052999","ios":"levelo://app?vid=c2d3c152-eef5-44bd-9f72-ff670f052999"},"vehicle_type_id":"4","last_reported":1777579455,"current_range_meters":6000,"station_id":"ce4bhih2rcd13ifvqfs0","pricing_plan_id":"cebpf4jnsgd1na2vs0mg"},{"bike_id":"6346a409-deea-4045-b3d5-6e1cf42f1b96","system_id":"levelo_inurba_marseille","lat":43.31171,"lon":5.38706,"is_reserved":false,"is_disabled":false,"rental_uris":{"android":"levelo://app?vid=6346a409-deea-4045-b3d5-6e1cf42f1b96","ios":"levelo://app?vid=6346a409-deea-4045-b3d5-6e1cf42f1b96"},"vehicle_type_id":"4","last_reported":1777579455,"current_range_meters":6000,"station_id":"ce4bgv12rcd13ifvqcp0","pricing_plan_id":"cebpf4jnsgd1na2vs0mg"},{"bike_id":"286e6736-bb1b-43f2-8424-d6d8030c62f3","system_id":"levelo_inurba_marseille","lat":43.26935,"lon":5.367,"is_reserved":false,"is_disabled":false,"rental_uris":{"android":"levelo://app?vid=286e6736-bb1b-43f2-8424-d6d8030c62f3","ios":"levelo://app?vid=286e6736-bb1b-43f2-8424-d6d8030c62f3"},"vehicle_type_id":"4","last_reported":1777579455,"current_range_meters":6000,"station_id":"","pricing_plan_id":"cebpf4jnsgd1na2vs0mg"},{"bike_id":"6bc239b6-284b-42c5-9efd-260633d07447","system_id":"levelo_inurba_marseille","lat":43.31492,"lon":5.37295,"is_reserved":false,"is_disabled":false,"rental_uris":{"android":"levelo://app?vid=6bc239b6-284b-42c5-9efd-260633d07447","ios":"levelo://app?vid=6bc239b6-284b-42c5-9efd-260633d07447"},"vehicle_type_id":"4","last_reported":1777579455,"current_range_meters":6400,"station_id":"ce4bgt12rcd13ifvqcd0","pricing_plan_id":"cebpf4jnsgd1na2vs0mg"},{"bike_id":"185f2fcd-7bad-48bf-8730-efc2b2fc849a","system_id":"levelo_inurba_marseille","lat":43.26247,"lon":5.40479,"is_reserved":false,"is_disabled":false,"rental_uris":{"android":"levelo://app?vid=185f2fcd-7bad-48bf-8730-efc2b2fc849a","ios":"levelo://app?vid=185f2fcd-7bad-48bf-8730-efc2b2fc849a"},"vehicle_type_id":"4","last_reported":1777579455,"current_range_meters":6400,"station_id":"ce4bhmh2rcd13ifvqgmg","pricing_plan_id":"cebpf4jnsgd1na2vs0mg"},{"bike_id":"bab41f5b-96e3-44ab-8a8f-4abf3973b93d","system_id":"levelo_inurba_marseille","lat":43.24081,"lon":5.37753,"is_reserved":false,"is_disabled":false,"rental_uris":{"android":"levelo://app?vid=bab41f5b-96e3-44ab-8a8f-4abf3973b93d","ios":"levelo://app?vid=bab41f5b-96e3-44ab-8a8f-4abf3973b93d"},"vehicle_type_id":"4","last_reported":1777579455,"current_range_meters":6400,"station_id":"ce4bhnp2rcd13ifvqgvg","pricing_plan_id":"cebpf4jnsgd1na2vs0mg"},{"bike_id":"0213ebcc-40f9-44ce-97f5-7a9f9242c0d6","system_id":"levelo_inurba_marseille","lat":43.25112,"lon":5.40321,"is_reserved":false,"is_disabled":false,"rental_uris":{"android":"levelo://app?vid=0213ebcc-40f9-44ce-97f5-7a9f9242c0d6","ios":"levelo://app?vid=0213ebcc-40f9-44ce-97f5-7a9f9242c0d6"},"vehicle_type_id":"4","last_reported":1777579455,"current_range_meters":6400,"station_id":"ce4bhlh2rcd13ifvqgig","pricing_plan_id":"cebpf4jnsgd1na2vs0mg"},{"bike_id":"c76a4b5d-7caf-4e63-804a-3df554f9e335","system_id":"levelo_inurba_marseille","lat":43.30127,"lon":5.39891,"is_reserved":false,"is_disabled":true,"rental_uris":{"android":"levelo://app?vid=c76a4b5d-7caf-4e63-804a-3df554f9e335","ios":"levelo://app?vid=c76a4b5d-7caf-4e63-804a-3df554f9e335"},"vehicle_type_id":"4","last_reported":1777579455,"current_range_meters":6400,"station_id":"ce4bh0h2rcd13ifvqd40","pricing_plan_id":"cebpf4jnsgd1na2vs0mg"},{"bike_id":"ad85ad3a-e423-4b5e-82a5-e118f1f33240","system_id":"levelo_inurba_marseille","lat":43.31887,"lon":5.40742,"is_reserved":false,"is_disabled":false,"rental_uris":{"android":"levelo://app?vid=ad85ad3a-e423-4b5e-82a5-e118f1f33240","ios":"levelo://app?vid=ad85ad3a-e423-4b5e-82a5-e118f1f33240"},"vehicle_type_id":"4","last_reported":1777579455,"current_range_meters":6400,"station_id":"ce4bhq12rcd13ifvqhig","pricing_plan_id":"cebpf4jnsgd1na2vs0mg"},{"bike_id":"2d790aed-5aeb-42ef-8777-23ff1d1e60e1","system_id":"levelo_inurba_marseille","lat":43.29533,"lon":5.38542,"is_reserved":false,"is_disabled":false,"rental_uris":{"android":"levelo://app?vid=2d790aed-5aeb-42ef-8777-23ff1d1e60e1","ios":"levelo://app?vid=2d790aed-5aeb-42ef-8777-23ff1d1e60e1"},"vehicle_type_id":"4","last_reported":1777579455,"current_range_meters":6400,"station_id":"ce4bgih2rcd13ifvqba0","pricing_plan_id":"cebpf4jnsgd1na2vs0mg"},{"bike_id":"b04a4ab1-ad02-4ba9-8c98-bd93ea2b5a7b","system_id":"levelo_inurba_marseille","lat":43.32073,"lon":5.43347,"is_reserved":false,"is_disabled":false,"rental_uris":{"android":"levelo://app?vid=b04a4ab1-ad02-4ba9-8c98-bd93ea2b5a7b","ios":"levelo://app?vid=b04a4ab1-ad02-4ba9-8c98-bd93ea2b5a7b"},"vehicle_type_id":"4","last_reported":1777579455,"current_range_meters":6400,"station_id":"","pricing_plan_id":"cebpf4jnsgd1na2vs0mg"},{"bike_id":"31bc5506-761d-4d3a-92b6-0aca0502188c","system_id":"levelo_inurba_marseille","lat":43.29593,"lon":5.38461,"is_reserved":false,"is_disabled":false,"rental_uris":{"android":"levelo://app?vid=31bc5506-761d-4d3a-92b6-0aca0502188c","ios":"levelo://app?vid=31bc5506-761d-4d3a-92b6-0aca0502188c"},"vehicle_type_id":"4","last_reported":1777579455,"current_range_meters":6400,"station_id":"","pricing_plan_id":"cebpf4jnsgd1na2vs0mg"},{"bike_id":"6fe9d197-4f20-444b-b83b-28ad9b3ffce4","system_id":"levelo_inurba_marseille","lat":43.31399,"lon":5.45214,"is_reserved":false,"is_disabled":false,"rental_uris":{"android":"levelo://app?vid=6fe9d197-4f20-444b-b83b-28ad9b3ffce4","ios":"levelo://app?vid=6fe9d197-4f20-444b-b83b-28ad9b3ffce4"},"vehicle_type_id":"4","last_reported":1777579455,"current_range_meters":6400,"station_id":"","pricing_plan_id":"cebpf4jnsgd1na2vs0mg"},{"bike_id":"a2a694ab-bd57-45a8-a651-048e4cefae01","system_id":"levelo_inurba_marseille","lat":43.28679,"lon":5.46686,"is_reserved":false,"is_disabled":false,"rental_uris":{"android":"levelo://app?vid=a2a694ab-bd57-45a8-a651-048e4cefae01","ios":"levelo://app?vid=a2a694ab-bd57-45a8-a651-048e4cefae01"},"vehicle_type_id":"4","last_reported":1777579455,"current_range_meters":6400,"station_id":"st_d6tc3vkotcvc738tfjhg","pricing_plan_id":"cebpf4jnsgd1na2vs0mg"},{"bike_id":"021651d2-4c60-4088-a359-b9197bac101e","system_id":"levelo_inurba_marseille","lat":43.29755,"lon":5.37941,"is_reserved":false,"is_disabled":false,"rental_uris":{"android":"levelo://app?vid=021651d2-4c60-4088-a359-b9197bac101e","ios":"levelo://app?vid=021651d2-4c60-4088-a359-b9197bac101e"},"vehicle_type_id":"4","last_reported":1777579455,"current_range_meters":6400,"station_id":"","pricing_plan_id":"cebpf4jnsgd1na2vs0mg"},{"bike_id":"3fe9fbc8-5509-4496-b227-aabfde63faec","system_id":"levelo_inurba_marseille","lat":43.29533,"lon":5.38556,"is_reserved":false,"is_disabled":false,"rental_uris":{"android":"levelo://app?vid=3fe9fbc8-5509-4496-b227-aabfde63faec","ios":"levelo://app?vid=3fe9fbc8-5509-4496-b227-aabfde63faec"},"vehicle_type_id":"4","last_reported":1777579455,"current_range_meters":6400,"station_id":"ce4bgih2rcd13ifvqba0","pricing_plan_id":"cebpf4jnsgd1na2vs0mg"},{"bike_id":"bdfa4f55-6222-496b-9737-ac32d51593ad","system_id":"levelo_inurba_marseille","lat":43.28478,"lon":5.3587,"is_reserved":false,"is_disabled":false,"rental_uris":{"android":"levelo://app?vid=bdfa4f55-6222-496b-9737-ac32d51593ad","ios":"levelo://app?vid=bdfa4f55-6222-496b-9737-ac32d51593ad"},"vehicle_type_id":"4","last_reported":1777579455,"current_range_meters":6400,"station_id":"ce4bhah2rcd13ifvqei0","pricing_plan_id":"cebpf4jnsgd1na2vs0mg"},{"bike_id":"6b64c6db-16ef-425a-a9d7-5131bf25bfab","system_id":"levelo_inurba_marseille","lat":43.2745,"lon":5.3941,"is_reserved":false,"is_disabled":false,"rental_uris":{"android":"levelo://app?vid=6b64c6db-16ef-425a-a9d7-5131bf25bfab","ios":"levelo://app?vid=6b64c6db-16ef-425a-a9d7-5131bf25bfab"},"vehicle_type_id":"4","last_reported":1777579455,"current_range_meters":6400,"station_id":"ce4bhdp2rcd13ifvqf20","pricing_plan_id":"cebpf4jnsgd1na2vs0mg"},{"bike_id":"91304ee5-19f4-46fe-b2fc-5b0de86079be","system_id":"levelo_inurba_marseille","lat":43.31506,"lon":5.37251,"is_reserved":false,"is_disabled":false,"rental_uris":{"android":"levelo://app?vid=91304ee5-19f4-46fe-b2fc-5b0de86079be","ios":"levelo://app?vid=91304ee5-19f4-46fe-b2fc-5b0de86079be"},"vehicle_type_id":"4","last_reported":1777579455,"current_range_meters":6400,"station_id":"ce4bgt12rcd13ifvqcd0","pricing_plan_id":"cebpf4jnsgd1na2vs0mg"},{"bike_id":"40426558-90bc-4d8e-b96b-9bad01a26b74","system_id":"levelo_inurba_marseille","lat":43.3117,"lon":5.38717,"is_reserved":false,"is_disabled":false,"rental_uris":{"android":"levelo://app?vid=40426558-90bc-4d8e-b96b-9bad01a26b74","ios":"levelo://app?vid=40426558-90bc-4d8e-b96b-9bad01a26b74"},"vehicle_type_id":"4","last_reported":1777579455,"current_range_meters":6400,"station_id":"ce4bgv12rcd13ifvqcp0","pricing_plan_id":"cebpf4jnsgd1na2vs0mg"},{"bike_id":"e0d69c5b-e1f4-4901-ad2a-3010f64206ab","system_id":"levelo_inurba_marseille","lat":43.28709,"lon":5.37393,"is_reserved":false,"is_disabled":false,"rental_uris":{"android":"levelo://app?vid=e0d69c5b-e1f4-4901-ad2a-3010f64206ab","ios":"levelo://app?vid=e0d69c5b-e1f4-4901-ad2a-3010f64206ab"},"vehicle_type_id":"4","last_reported":1777579455,"current_range_meters":6800,"station_id":"ce4bh3p2rcd13ifvqdq0","pricing_plan_id":"cebpf4jnsgd1na2vs0mg"},{"bike_id":"2db651d7-7b81-464a-bb48-581bf1e0c30d","system_id":"levelo_inurba_marseille","lat":43.24059,"lon":5.37791,"is_reserved":false,"is_disabled":false,"rental_uris":{"android":"levelo://app?vid=2db651d7-7b81-464a-bb48-581bf1e0c30d","ios":"levelo://app?vid=2db651d7-7b81-464a-bb48-581bf1e0c30d"},"vehicle_type_id":"4","last_reported":1777579455,"current_range_meters":6800,"station_id":"ce4bhnp2rcd13ifvqgvg","pricing_plan_id":"cebpf4jnsgd1na2vs0mg"},{"bike_id":"95f47514-1d7f-4013-95fe-a0916f7cc45a","system_id":"levelo_inurba_marseille","lat":43.33548,"lon":5.37471,"is_reserved":false,"is_disabled":false,"rental_uris":{"android":"levelo://app?vid=95f47514-1d7f-4013-95fe-a0916f7cc45a","ios":"levelo://app?vid=95f47514-1d7f-4013-95fe-a0916f7cc45a"},"vehicle_type_id":"4","last_reported":1777579455,"current_range_meters":6800,"station_id":"st_d46tts09ee8s73dlu43g","pricing_plan_id":"cebpf4jnsgd1na2vs0mg"},{"bike_id":"2ee1db26-54a9-4a38-974b-0eb0bbac894f","system_id":"levelo_inurba_marseille","lat":43.29606,"lon":5.38098,"is_reserved":false,"is_disabled":true,"rental_uris":{"android":"levelo://app?vid=2ee1db26-54a9-4a38-974b-0eb0bbac894f","ios":"levelo://app?vid=2ee1db26-54a9-4a38-974b-0eb0bbac894f"},"vehicle_type_id":"4","last_reported":1777579455,"current_range_meters":6800,"station_id":"ce4bgl12rcd13ifvqbo0","pricing_plan_id":"cebpf4jnsgd1na2vs0mg"},{"bike_id":"0195b3a7-f19f-4649-864a-4c54bdc7ef80","system_id":"levelo_inurba_marseille","lat":43.337444,"lon":5.374475,"is_reserved":false,"is_disabled":false,"rental_uris":{"android":"levelo://app?vid=0195b3a7-f19f-4649-864a-4c54bdc7ef80","ios":"levelo://app?vid=0195b3a7-f19f-4649-864a-4c54bdc7ef80"},"vehicle_type_id":"4","last_reported":1777579455,"current_range_meters":6800,"station_id":"","pricing_plan_id":"cebpf4jnsgd1na2vs0mg"},{"bike_id":"f5a26c22-fbb7-4e89-8400-6fe45231c08c","system_id":"levelo_inurba_marseille","lat":43.31167,"lon":5.38717,"is_reserved":false,"is_disabled":false,"rental_uris":{"android":"levelo://app?vid=f5a26c22-fbb7-4e89-8400-6fe45231c08c","ios":"levelo://app?vid=f5a26c22-fbb7-4e89-8400-6fe45231c08c"},"vehicle_type_id":"4","last_reported":1777579455,"current_range_meters":6800,"station_id":"ce4bgv12rcd13ifvqcp0","pricing_plan_id":"cebpf4jnsgd1na2vs0mg"},{"bike_id":"e27a2392-b295-478e-858d-ee5cf73e601b","system_id":"levelo_inurba_marseille","lat":43.30962,"lon":5.39031,"is_reserved":false,"is_disabled":false,"rental_uris":{"android":"levelo://app?vid=e27a2392-b295-478e-858d-ee5cf73e601b","ios":"levelo://app?vid=e27a2392-b295-478e-858d-ee5cf73e601b"},"vehicle_type_id":"4","last_reported":1777579455,"current_range_meters":6800,"station_id":"ce4bgup2rcd13ifvqco0","pricing_plan_id":"cebpf4jnsgd1na2vs0mg"},{"bike_id":"d2d2e7f5-75cd-42b3-8b6f-6203421c9e06","system_id":"levelo_inurba_marseille","lat":43.2919,"lon":5.36047,"is_reserved":false,"is_disabled":true,"rental_uris":{"android":"levelo://app?vid=d2d2e7f5-75cd-42b3-8b6f-6203421c9e06","ios":"levelo://app?vid=d2d2e7f5-75cd-42b3-8b6f-6203421c9e06"},"vehicle_type_id":"4","last_reported":1777579455,"current_range_meters":6800,"station_id":"ce4bhbh2rcd13ifvqeqg","pricing_plan_id":"cebpf4jnsgd1na2vs0mg"},{"bike_id":"adbdca2f-adb3-4058-b886-728f583ed072","system_id":"levelo_inurba_marseille","lat":43.29276,"lon":5.36846,"is_reserved":false,"is_disabled":false,"rental_uris":{"android":"levelo://app?vid=adbdca2f-adb3-4058-b886-728f583ed072","ios":"levelo://app?vid=adbdca2f-adb3-4058-b886-728f583ed072"},"vehicle_type_id":"4","last_reported":1777579455,"current_range_meters":6800,"station_id":"ce4bhbp2rcd13ifvqesg","pricing_plan_id":"cebpf4jnsgd1na2vs0mg"},{"bike_id":"50cc6683-a4a6-490d-87fd-8c2be5eaa529","system_id":"levelo_inurba_marseille","lat":43.27805,"lon":5.41525,"is_reserved":false,"is_disabled":false,"rental_uris":{"android":"levelo://app?vid=50cc6683-a4a6-490d-87fd-8c2be5eaa529","ios":"levelo://app?vid=50cc6683-a4a6-490d-87fd-8c2be5eaa529"},"vehicle_type_id":"4","last_reported":1777579455,"current_range_meters":6800,"station_id":"","pricing_plan_id":"cebpf4jnsgd1na2vs0mg"},{"bike_id":"980c7807-7a59-4ca7-8c18-023963da6547","system_id":"levelo_inurba_marseille","lat":43.29022,"lon":5.38125,"is_reserved":false,"is_disabled":false,"rental_uris":{"android":"levelo://app?vid=980c7807-7a59-4ca7-8c18-023963da6547","ios":"levelo://app?vid=980c7807-7a59-4ca7-8c18-023963da6547"},"vehicle_type_id":"4","last_reported":1777579455,"current_range_meters":6800,"station_id":"ce4bh4p2rcd13ifvqe1g","pricing_plan_id":"cebpf4jnsgd1na2vs0mg"},{"bike_id":"368d5396-dafa-493e-b98d-6e2ef22688af","system_id":"levelo_inurba_marseille","lat":43.29266,"lon":5.38438,"is_reserved":false,"is_disabled":false,"rental_uris":{"android":"levelo://app?vid=368d5396-dafa-493e-b98d-6e2ef22688af","ios":"levelo://app?vid=368d5396-dafa-493e-b98d-6e2ef22688af"},"vehicle_type_id":"4","last_reported":1777579455,"current_range_meters":6800,"station_id":"ce4bh692rcd13ifvqea0","pricing_plan_id":"cebpf4jnsgd1na2vs0mg"},{"bike_id":"42c0ac5b-2dd1-4ffb-bf7b-de13c9dfe12e","system_id":"levelo_inurba_marseille","lat":43.31209,"lon":5.387,"is_reserved":false,"is_disabled":false,"rental_uris":{"android":"levelo://app?vid=42c0ac5b-2dd1-4ffb-bf7b-de13c9dfe12e","ios":"levelo://app?vid=42c0ac5b-2dd1-4ffb-bf7b-de13c9dfe12e"},"vehicle_type_id":"4","last_reported":1777579455,"current_range_meters":6800,"station_id":"ce4bgv12rcd13ifvqcp0","pricing_plan_id":"cebpf4jnsgd1na2vs0mg"},{"bike_id":"d24a995b-882f-4ba9-9750-69158d7e687f","system_id":"levelo_inurba_marseille","lat":43.24404,"lon":5.37056,"is_reserved":false,"is_disabled":false,"rental_uris":{"android":"levelo://app?vid=d24a995b-882f-4ba9-9750-69158d7e687f","ios":"levelo://app?vid=d24a995b-882f-4ba9-9750-69158d7e687f"},"vehicle_type_id":"4","last_reported":1777579455,"current_range_meters":7200,"station_id":"ce4bhhh2rcd13ifvqfk0","pricing_plan_id":"cebpf4jnsgd1na2vs0mg"},{"bike_id":"9d1ee62b-44d4-491e-9211-88f9b0636005","system_id":"levelo_inurba_marseille","lat":43.2892,"lon":5.366451,"is_reserved":false,"is_disabled":false,"rental_uris":{"android":"levelo://app?vid=9d1ee62b-44d4-491e-9211-88f9b0636005","ios":"levelo://app?vid=9d1ee62b-44d4-491e-9211-88f9b0636005"},"vehicle_type_id":"4","last_reported":1777579455,"current_range_meters":7200,"station_id":"ce4bhap2rcd13ifvqek0","pricing_plan_id":"cebpf4jnsgd1na2vs0mg"},{"bike_id":"98eeb695-5c6f-4617-bc52-84eb6315ca9e","system_id":"levelo_inurba_marseille","lat":43.24787,"lon":5.37472,"is_reserved":false,"is_disabled":false,"rental_uris":{"android":"levelo://app?vid=98eeb695-5c6f-4617-bc52-84eb6315ca9e","ios":"levelo://app?vid=98eeb695-5c6f-4617-bc52-84eb6315ca9e"},"vehicle_type_id":"4","last_reported":1777579455,"current_range_meters":7200,"station_id":"ce4bhgh2rcd13ifvqfb0","pricing_plan_id":"cebpf4jnsgd1na2vs0mg"},{"bike_id":"e36de38e-9edc-4037-a098-e551d6194be3","system_id":"levelo_inurba_marseille","lat":43.26572,"lon":5.38983,"is_reserved":false,"is_disabled":false,"rental_uris":{"android":"levelo://app?vid=e36de38e-9edc-4037-a098-e551d6194be3","ios":"levelo://app?vid=e36de38e-9edc-4037-a098-e551d6194be3"},"vehicle_type_id":"4","last_reported":1777579455,"current_range_meters":7200,"station_id":"ce4bhe12rcd13ifvqf30","pricing_plan_id":"cebpf4jnsgd1na2vs0mg"},{"bike_id":"3cd3cdfc-c536-4b02-97ce-284cd9f61a9c","system_id":"levelo_inurba_marseille","lat":43.29263,"lon":5.36844,"is_reserved":false,"is_disabled":false,"rental_uris":{"android":"levelo://app?vid=3cd3cdfc-c536-4b02-97ce-284cd9f61a9c","ios":"levelo://app?vid=3cd3cdfc-c536-4b02-97ce-284cd9f61a9c"},"vehicle_type_id":"4","last_reported":1777579455,"current_range_meters":7200,"station_id":"ce4bhbp2rcd13ifvqesg","pricing_plan_id":"cebpf4jnsgd1na2vs0mg"},{"bike_id":"058e8ea5-7d1d-45d4-b2fe-1d55ff64391c","system_id":"levelo_inurba_marseille","lat":43.31488,"lon":5.373063,"is_reserved":false,"is_disabled":false,"rental_uris":{"android":"levelo://app?vid=058e8ea5-7d1d-45d4-b2fe-1d55ff64391c","ios":"levelo://app?vid=058e8ea5-7d1d-45d4-b2fe-1d55ff64391c"},"vehicle_type_id":"4","last_reported":1777579455,"current_range_meters":7200,"station_id":"ce4bgt12rcd13ifvqcd0","pricing_plan_id":"cebpf4jnsgd1na2vs0mg"},{"bike_id":"9c85ea94-e0db-4d3e-baca-fa152ee440d3","system_id":"levelo_inurba_marseille","lat":43.25544,"lon":5.38298,"is_reserved":false,"is_disabled":false,"rental_uris":{"android":"levelo://app?vid=9c85ea94-e0db-4d3e-baca-fa152ee440d3","ios":"levelo://app?vid=9c85ea94-e0db-4d3e-baca-fa152ee440d3"},"vehicle_type_id":"4","last_reported":1777579455,"current_range_meters":7200,"station_id":"","pricing_plan_id":"cebpf4jnsgd1na2vs0mg"},{"bike_id":"60820c8a-2f21-4e2c-bc67-5d131d94b61c","system_id":"levelo_inurba_marseille","lat":43.25581,"lon":5.38239,"is_reserved":false,"is_disabled":false,"rental_uris":{"android":"levelo://app?vid=60820c8a-2f21-4e2c-bc67-5d131d94b61c","ios":"levelo://app?vid=60820c8a-2f21-4e2c-bc67-5d131d94b61c"},"vehicle_type_id":"4","last_reported":1777579455,"current_range_meters":7200,"station_id":"ce4bhih2rcd13ifvqfs0","pricing_plan_id":"cebpf4jnsgd1na2vs0mg"},{"bike_id":"ae9e3e67-22fc-49aa-bc9d-3b6a26ab932f","system_id":"levelo_inurba_marseille","lat":43.24644,"lon":5.38895,"is_reserved":false,"is_disabled":false,"rental_uris":{"android":"levelo://app?vid=ae9e3e67-22fc-49aa-bc9d-3b6a26ab932f","ios":"levelo://app?vid=ae9e3e67-22fc-49aa-bc9d-3b6a26ab932f"},"vehicle_type_id":"4","last_reported":1777579455,"current_range_meters":7200,"station_id":"ce4bhg12rcd13ifvqf60","pricing_plan_id":"cebpf4jnsgd1na2vs0mg"},{"bike_id":"354f2656-ca51-4301-84c3-02c148a321d8","system_id":"levelo_inurba_marseille","lat":43.28942,"lon":5.36626,"is_reserved":false,"is_disabled":false,"rental_uris":{"android":"levelo://app?vid=354f2656-ca51-4301-84c3-02c148a321d8","ios":"levelo://app?vid=354f2656-ca51-4301-84c3-02c148a321d8"},"vehicle_type_id":"4","last_reported":1777579455,"current_range_meters":7200,"station_id":"ce4bhap2rcd13ifvqek0","pricing_plan_id":"cebpf4jnsgd1na2vs0mg"},{"bike_id":"ccb0fa9e-8c4c-436b-b769-0e653b7edfd3","system_id":"levelo_inurba_marseille","lat":43.28621,"lon":5.35104,"is_reserved":false,"is_disabled":false,"rental_uris":{"android":"levelo://app?vid=ccb0fa9e-8c4c-436b-b769-0e653b7edfd3","ios":"levelo://app?vid=ccb0fa9e-8c4c-436b-b769-0e653b7edfd3"},"vehicle_type_id":"4","last_reported":1777579455,"current_range_meters":7200,"station_id":"ce4bhch2rcd13ifvqeug","pricing_plan_id":"cebpf4jnsgd1na2vs0mg"},{"bike_id":"75f51671-5a6a-45b5-9562-ab4706cc155b","system_id":"levelo_inurba_marseille","lat":43.29795,"lon":5.38091,"is_reserved":false,"is_disabled":false,"rental_uris":{"android":"levelo://app?vid=75f51671-5a6a-45b5-9562-ab4706cc155b","ios":"levelo://app?vid=75f51671-5a6a-45b5-9562-ab4706cc155b"},"vehicle_type_id":"4","last_reported":1777579455,"current_range_meters":7200,"station_id":"ce4bgip2rcd13ifvqbb0","pricing_plan_id":"cebpf4jnsgd1na2vs0mg"},{"bike_id":"9beb4cee-575d-4c18-9279-d3b9084c32a6","system_id":"levelo_inurba_marseille","lat":43.24671,"lon":5.38153,"is_reserved":false,"is_disabled":false,"rental_uris":{"android":"levelo://app?vid=9beb4cee-575d-4c18-9279-d3b9084c32a6","ios":"levelo://app?vid=9beb4cee-575d-4c18-9279-d3b9084c32a6"},"vehicle_type_id":"4","last_reported":1777579455,"current_range_meters":7200,"station_id":"ce4bhih2rcd13ifvqfr0","pricing_plan_id":"cebpf4jnsgd1na2vs0mg"},{"bike_id":"d1584ede-a0c5-4d4a-8c93-70cd49597935","system_id":"levelo_inurba_marseille","lat":43.29255,"lon":5.40903,"is_reserved":false,"is_disabled":false,"rental_uris":{"android":"levelo://app?vid=d1584ede-a0c5-4d4a-8c93-70cd49597935","ios":"levelo://app?vid=d1584ede-a0c5-4d4a-8c93-70cd49597935"},"vehicle_type_id":"4","last_reported":1777579455,"current_range_meters":7200,"station_id":"ce4bh192rcd13ifvqdc0","pricing_plan_id":"cebpf4jnsgd1na2vs0mg"},{"bike_id":"89c1540c-9961-4225-b7dc-7e049261df85","system_id":"levelo_inurba_marseille","lat":43.251114,"lon":5.403281,"is_reserved":false,"is_disabled":false,"rental_uris":{"android":"levelo://app?vid=89c1540c-9961-4225-b7dc-7e049261df85","ios":"levelo://app?vid=89c1540c-9961-4225-b7dc-7e049261df85"},"vehicle_type_id":"4","last_reported":1777579455,"current_range_meters":7200,"station_id":"ce4bhlh2rcd13ifvqgig","pricing_plan_id":"cebpf4jnsgd1na2vs0mg"},{"bike_id":"852a508d-b822-4ac9-a52c-de6248293351","system_id":"levelo_inurba_marseille","lat":43.27999,"lon":5.40009,"is_reserved":false,"is_disabled":false,"rental_uris":{"android":"levelo://app?vid=852a508d-b822-4ac9-a52c-de6248293351","ios":"levelo://app?vid=852a508d-b822-4ac9-a52c-de6248293351"},"vehicle_type_id":"4","last_reported":1777579455,"current_range_meters":7200,"station_id":"ce4bho92rcd13ifvqh4g","pricing_plan_id":"cebpf4jnsgd1na2vs0mg"},{"bike_id":"2611cf8a-38d4-4135-9919-b3d460e6d2d7","system_id":"levelo_inurba_marseille","lat":43.29002,"lon":5.35611,"is_reserved":false,"is_disabled":false,"rental_uris":{"android":"levelo://app?vid=2611cf8a-38d4-4135-9919-b3d460e6d2d7","ios":"levelo://app?vid=2611cf8a-38d4-4135-9919-b3d460e6d2d7"},"vehicle_type_id":"4","last_reported":1777579455,"current_range_meters":7200,"station_id":"ce4bhb92rcd13ifvqen0","pricing_plan_id":"cebpf4jnsgd1na2vs0mg"},{"bike_id":"15ccd033-9a9c-47d6-a972-ff6689c29eee","system_id":"levelo_inurba_marseille","lat":43.32412,"lon":5.3672,"is_reserved":false,"is_disabled":false,"rental_uris":{"android":"levelo://app?vid=15ccd033-9a9c-47d6-a972-ff6689c29eee","ios":"levelo://app?vid=15ccd033-9a9c-47d6-a972-ff6689c29eee"},"vehicle_type_id":"4","last_reported":1777579455,"current_range_meters":7200,"station_id":"","pricing_plan_id":"cebpf4jnsgd1na2vs0mg"},{"bike_id":"a6aa45c2-93ee-4378-aa47-618caeaff5e2","system_id":"levelo_inurba_marseille","lat":43.28409,"lon":5.3751,"is_reserved":false,"is_disabled":false,"rental_uris":{"android":"levelo://app?vid=a6aa45c2-93ee-4378-aa47-618caeaff5e2","ios":"levelo://app?vid=a6aa45c2-93ee-4378-aa47-618caeaff5e2"},"vehicle_type_id":"4","last_reported":1777579455,"current_range_meters":7200,"station_id":"ce4bh412rcd13ifvqds0","pricing_plan_id":"cebpf4jnsgd1na2vs0mg"},{"bike_id":"4aaec358-0454-4eb1-a17f-214fb54ba996","system_id":"levelo_inurba_marseille","lat":43.23963,"lon":5.36629,"is_reserved":false,"is_disabled":false,"rental_uris":{"android":"levelo://app?vid=4aaec358-0454-4eb1-a17f-214fb54ba996","ios":"levelo://app?vid=4aaec358-0454-4eb1-a17f-214fb54ba996"},"vehicle_type_id":"4","last_reported":1777579455,"current_range_meters":7200,"station_id":"ce4bhi12rcd13ifvqfp0","pricing_plan_id":"cebpf4jnsgd1na2vs0mg"},{"bike_id":"b2b5924c-ae57-4d04-8872-ff1b2babdda2","system_id":"levelo_inurba_marseille","lat":43.29791,"lon":5.38067,"is_reserved":false,"is_disabled":false,"rental_uris":{"android":"levelo://app?vid=b2b5924c-ae57-4d04-8872-ff1b2babdda2","ios":"levelo://app?vid=b2b5924c-ae57-4d04-8872-ff1b2babdda2"},"vehicle_type_id":"4","last_reported":1777579455,"current_range_meters":7200,"station_id":"ce4bgip2rcd13ifvqbb0","pricing_plan_id":"cebpf4jnsgd1na2vs0mg"},{"bike_id":"2d0286f5-1899-4904-92dd-2dccbe9e6bf7","system_id":"levelo_inurba_marseille","lat":43.28846,"lon":5.39322,"is_reserved":false,"is_disabled":false,"rental_uris":{"android":"levelo://app?vid=2d0286f5-1899-4904-92dd-2dccbe9e6bf7","ios":"levelo://app?vid=2d0286f5-1899-4904-92dd-2dccbe9e6bf7"},"vehicle_type_id":"4","last_reported":1777579455,"current_range_meters":7200,"station_id":"ce4bh2p2rcd13ifvqdi0","pricing_plan_id":"cebpf4jnsgd1na2vs0mg"},{"bike_id":"c804b64d-f4af-4904-abdd-0fc092e5818e","system_id":"levelo_inurba_marseille","lat":43.2872,"lon":5.36092,"is_reserved":false,"is_disabled":false,"rental_uris":{"android":"levelo://app?vid=c804b64d-f4af-4904-abdd-0fc092e5818e","ios":"levelo://app?vid=c804b64d-f4af-4904-abdd-0fc092e5818e"},"vehicle_type_id":"4","last_reported":1777579455,"current_range_meters":7200,"station_id":"cki0cbj6b192h4jlfktg","pricing_plan_id":"cebpf4jnsgd1na2vs0mg"},{"bike_id":"a0c2adac-138c-4cde-8298-2aba24d1cc76","system_id":"levelo_inurba_marseille","lat":43.28,"lon":5.41663,"is_reserved":false,"is_disabled":false,"rental_uris":{"android":"levelo://app?vid=a0c2adac-138c-4cde-8298-2aba24d1cc76","ios":"levelo://app?vid=a0c2adac-138c-4cde-8298-2aba24d1cc76"},"vehicle_type_id":"4","last_reported":1777579455,"current_range_meters":7200,"station_id":"ce4bho12rcd13ifvqh1g","pricing_plan_id":"cebpf4jnsgd1na2vs0mg"},{"bike_id":"d41aaf20-f116-4528-9830-9b2f9c881297","system_id":"levelo_inurba_marseille","lat":43.28942,"lon":5.36637,"is_reserved":false,"is_disabled":false,"rental_uris":{"android":"levelo://app?vid=d41aaf20-f116-4528-9830-9b2f9c881297","ios":"levelo://app?vid=d41aaf20-f116-4528-9830-9b2f9c881297"},"vehicle_type_id":"4","last_reported":1777579455,"current_range_meters":7200,"station_id":"ce4bhap2rcd13ifvqek0","pricing_plan_id":"cebpf4jnsgd1na2vs0mg"},{"bike_id":"0271fa35-161b-4934-b8aa-4bf7d2683c3e","system_id":"levelo_inurba_marseille","lat":43.29273,"lon":5.38448,"is_reserved":false,"is_disabled":false,"rental_uris":{"android":"levelo://app?vid=0271fa35-161b-4934-b8aa-4bf7d2683c3e","ios":"levelo://app?vid=0271fa35-161b-4934-b8aa-4bf7d2683c3e"},"vehicle_type_id":"4","last_reported":1777579455,"current_range_meters":7200,"station_id":"ce4bh692rcd13ifvqea0","pricing_plan_id":"cebpf4jnsgd1na2vs0mg"},{"bike_id":"e60314e7-783a-492e-9bf4-f9e1324c8863","system_id":"levelo_inurba_marseille","lat":43.31348,"lon":5.39708,"is_reserved":false,"is_disabled":false,"rental_uris":{"android":"levelo://app?vid=e60314e7-783a-492e-9bf4-f9e1324c8863","ios":"levelo://app?vid=e60314e7-783a-492e-9bf4-f9e1324c8863"},"vehicle_type_id":"4","last_reported":1777579455,"current_range_meters":7200,"station_id":"ce4bgvp2rcd13ifvqcu0","pricing_plan_id":"cebpf4jnsgd1na2vs0mg"},{"bike_id":"04dde9e6-ff3a-4c8a-af26-9bf536e5d19c","system_id":"levelo_inurba_marseille","lat":43.28407,"lon":5.37535,"is_reserved":false,"is_disabled":false,"rental_uris":{"android":"levelo://app?vid=04dde9e6-ff3a-4c8a-af26-9bf536e5d19c","ios":"levelo://app?vid=04dde9e6-ff3a-4c8a-af26-9bf536e5d19c"},"vehicle_type_id":"4","last_reported":1777579455,"current_range_meters":8000,"station_id":"ce4bh412rcd13ifvqds0","pricing_plan_id":"cebpf4jnsgd1na2vs0mg"},{"bike_id":"c4f81d0a-c3b4-4dd5-9c9b-dbb1e7f26ba2","system_id":"levelo_inurba_marseille","lat":43.23967,"lon":5.36634,"is_reserved":false,"is_disabled":false,"rental_uris":{"android":"levelo://app?vid=c4f81d0a-c3b4-4dd5-9c9b-dbb1e7f26ba2","ios":"levelo://app?vid=c4f81d0a-c3b4-4dd5-9c9b-dbb1e7f26ba2"},"vehicle_type_id":"4","last_reported":1777579455,"current_range_meters":8000,"station_id":"ce4bhi12rcd13ifvqfp0","pricing_plan_id":"cebpf4jnsgd1na2vs0mg"},{"bike_id":"335fc8dc-ad2f-4253-b0e2-b10d3d2d0173","system_id":"levelo_inurba_marseille","lat":43.28473,"lon":5.3856,"is_reserved":false,"is_disabled":true,"rental_uris":{"android":"levelo://app?vid=335fc8dc-ad2f-4253-b0e2-b10d3d2d0173","ios":"levelo://app?vid=335fc8dc-ad2f-4253-b0e2-b10d3d2d0173"},"vehicle_type_id":"4","last_reported":1777579455,"current_range_meters":8000,"station_id":"ce4bh8p2rcd13ifvqeb0","pricing_plan_id":"cebpf4jnsgd1na2vs0mg"},{"bike_id":"37728412-9808-4848-87a6-e43dab59174b","system_id":"levelo_inurba_marseille","lat":43.27166,"lon":5.40998,"is_reserved":false,"is_disabled":false,"rental_uris":{"android":"levelo://app?vid=37728412-9808-4848-87a6-e43dab59174b","ios":"levelo://app?vid=37728412-9808-4848-87a6-e43dab59174b"},"vehicle_type_id":"4","last_reported":1777579455,"current_range_meters":8000,"station_id":"ce4bhl12rcd13ifvqgf0","pricing_plan_id":"cebpf4jnsgd1na2vs0mg"},{"bike_id":"483dbc4a-ca66-407e-b4dc-4e4e6e28fa15","system_id":"levelo_inurba_marseille","lat":43.24793,"lon":5.37462,"is_reserved":false,"is_disabled":false,"rental_uris":{"android":"levelo://app?vid=483dbc4a-ca66-407e-b4dc-4e4e6e28fa15","ios":"levelo://app?vid=483dbc4a-ca66-407e-b4dc-4e4e6e28fa15"},"vehicle_type_id":"4","last_reported":1777579455,"current_range_meters":8000,"station_id":"ce4bhgh2rcd13ifvqfb0","pricing_plan_id":"cebpf4jnsgd1na2vs0mg"},{"bike_id":"b6a2e62f-25be-4aeb-9771-edcbcb40c2e8","system_id":"levelo_inurba_marseille","lat":43.292768,"lon":5.401371,"is_reserved":false,"is_disabled":false,"rental_uris":{"android":"levelo://app?vid=b6a2e62f-25be-4aeb-9771-edcbcb40c2e8","ios":"levelo://app?vid=b6a2e62f-25be-4aeb-9771-edcbcb40c2e8"},"vehicle_type_id":"4","last_reported":1777579455,"current_range_meters":8000,"station_id":"ce4bh312rcd13ifvqdk0","pricing_plan_id":"cebpf4jnsgd1na2vs0mg"},{"bike_id":"6f3f065c-412e-4c2a-a678-8ae4a563de71","system_id":"levelo_inurba_marseille","lat":43.27498,"lon":5.42452,"is_reserved":false,"is_disabled":false,"rental_uris":{"android":"levelo://app?vid=6f3f065c-412e-4c2a-a678-8ae4a563de71","ios":"levelo://app?vid=6f3f065c-412e-4c2a-a678-8ae4a563de71"},"vehicle_type_id":"4","last_reported":1777579455,"current_range_meters":8000,"station_id":"ce4bhn92rcd13ifvqgrg","pricing_plan_id":"cebpf4jnsgd1na2vs0mg"},{"bike_id":"275f0e36-65c4-489f-bd62-ec5e03923f09","system_id":"levelo_inurba_marseille","lat":43.22557,"lon":5.41635,"is_reserved":false,"is_disabled":false,"rental_uris":{"android":"levelo://app?vid=275f0e36-65c4-489f-bd62-ec5e03923f09","ios":"levelo://app?vid=275f0e36-65c4-489f-bd62-ec5e03923f09"},"vehicle_type_id":"4","last_reported":1777579455,"current_range_meters":8000,"station_id":"st_d2o4gvlbi1j2169b742g","pricing_plan_id":"cebpf4jnsgd1na2vs0mg"},{"bike_id":"bc44165e-6384-4e72-a544-95de54ce72ab","system_id":"levelo_inurba_marseille","lat":43.28226,"lon":5.39073,"is_reserved":false,"is_disabled":false,"rental_uris":{"android":"levelo://app?vid=bc44165e-6384-4e72-a544-95de54ce72ab","ios":"levelo://app?vid=bc44165e-6384-4e72-a544-95de54ce72ab"},"vehicle_type_id":"4","last_reported":1777579455,"current_range_meters":8000,"station_id":"ce4bhn92rcd13ifvqgsg","pricing_plan_id":"cebpf4jnsgd1na2vs0mg"},{"bike_id":"37224994-0bd4-4ed8-8c56-3d7f6ae50e29","system_id":"levelo_inurba_marseille","lat":43.2791,"lon":5.39588,"is_reserved":false,"is_disabled":true,"rental_uris":{"android":"levelo://app?vid=37224994-0bd4-4ed8-8c56-3d7f6ae50e29","ios":"levelo://app?vid=37224994-0bd4-4ed8-8c56-3d7f6ae50e29"},"vehicle_type_id":"4","last_reported":1777579455,"current_range_meters":8000,"station_id":"ce4bhf92rcd13ifvqf40","pricing_plan_id":"cebpf4jnsgd1na2vs0mg"},{"bike_id":"c7217e04-22e1-453c-a8e6-b3e617503565","system_id":"levelo_inurba_marseille","lat":43.30916,"lon":5.41641,"is_reserved":false,"is_disabled":false,"rental_uris":{"android":"levelo://app?vid=c7217e04-22e1-453c-a8e6-b3e617503565","ios":"levelo://app?vid=c7217e04-22e1-453c-a8e6-b3e617503565"},"vehicle_type_id":"4","last_reported":1777579455,"current_range_meters":8000,"station_id":"","pricing_plan_id":"cebpf4jnsgd1na2vs0mg"},{"bike_id":"d5555d2c-756d-4594-84c9-7a47e33dbe78","system_id":"levelo_inurba_marseille","lat":43.27604,"lon":5.36132,"is_reserved":false,"is_disabled":false,"rental_uris":{"android":"levelo://app?vid=d5555d2c-756d-4594-84c9-7a47e33dbe78","ios":"levelo://app?vid=d5555d2c-756d-4594-84c9-7a47e33dbe78"},"vehicle_type_id":"4","last_reported":1777579455,"current_range_meters":8000,"station_id":"ce4bgj92rcd13ifvqbe0","pricing_plan_id":"cebpf4jnsgd1na2vs0mg"},{"bike_id":"212352c0-bb9d-4210-afe5-babc30a4c791","system_id":"levelo_inurba_marseille","lat":43.30327,"lon":5.40443,"is_reserved":false,"is_disabled":false,"rental_uris":{"android":"levelo://app?vid=212352c0-bb9d-4210-afe5-babc30a4c791","ios":"levelo://app?vid=212352c0-bb9d-4210-afe5-babc30a4c791"},"vehicle_type_id":"4","last_reported":1777579455,"current_range_meters":8000,"station_id":"ce4bh012rcd13ifvqd10","pricing_plan_id":"cebpf4jnsgd1na2vs0mg"},{"bike_id":"dd737970-b091-492d-abca-b950bb4c8b37","system_id":"levelo_inurba_marseille","lat":43.29267,"lon":5.38438,"is_reserved":false,"is_disabled":false,"rental_uris":{"android":"levelo://app?vid=dd737970-b091-492d-abca-b950bb4c8b37","ios":"levelo://app?vid=dd737970-b091-492d-abca-b950bb4c8b37"},"vehicle_type_id":"4","last_reported":1777579455,"current_range_meters":8000,"station_id":"ce4bh692rcd13ifvqea0","pricing_plan_id":"cebpf4jnsgd1na2vs0mg"},{"bike_id":"b9188755-5f3c-4cb6-ab00-2c9671e11e5c","system_id":"levelo_inurba_marseille","lat":43.26917,"lon":5.40269,"is_reserved":false,"is_disabled":false,"rental_uris":{"android":"levelo://app?vid=b9188755-5f3c-4cb6-ab00-2c9671e11e5c","ios":"levelo://app?vid=b9188755-5f3c-4cb6-ab00-2c9671e11e5c"},"vehicle_type_id":"4","last_reported":1777579455,"current_range_meters":8400,"station_id":"cjm6bp8fraef2m0cb0m0","pricing_plan_id":"cebpf4jnsgd1na2vs0mg"},{"bike_id":"e3d0e9d9-cbeb-4e7b-aa61-dfc4941f4180","system_id":"levelo_inurba_marseille","lat":43.32106,"lon":5.36775,"is_reserved":false,"is_disabled":false,"rental_uris":{"android":"levelo://app?vid=e3d0e9d9-cbeb-4e7b-aa61-dfc4941f4180","ios":"levelo://app?vid=e3d0e9d9-cbeb-4e7b-aa61-dfc4941f4180"},"vehicle_type_id":"4","last_reported":1777579455,"current_range_meters":8400,"station_id":"ce4bhrh2rcd13ifvqhug","pricing_plan_id":"cebpf4jnsgd1na2vs0mg"},{"bike_id":"30c633fe-9e06-4e80-9144-36e5a1badb75","system_id":"levelo_inurba_marseille","lat":43.2737,"lon":5.36258,"is_reserved":false,"is_disabled":false,"rental_uris":{"android":"levelo://app?vid=30c633fe-9e06-4e80-9144-36e5a1badb75","ios":"levelo://app?vid=30c633fe-9e06-4e80-9144-36e5a1badb75"},"vehicle_type_id":"4","last_reported":1777579455,"current_range_meters":8400,"station_id":"ce4bhbh2rcd13ifvqeo0","pricing_plan_id":"cebpf4jnsgd1na2vs0mg"},{"bike_id":"6e957f4e-bcbb-43f1-bdca-c795f559bd14","system_id":"levelo_inurba_marseille","lat":43.29307,"lon":5.384,"is_reserved":false,"is_disabled":false,"rental_uris":{"android":"levelo://app?vid=6e957f4e-bcbb-43f1-bdca-c795f559bd14","ios":"levelo://app?vid=6e957f4e-bcbb-43f1-bdca-c795f559bd14"},"vehicle_type_id":"4","last_reported":1777579455,"current_range_meters":8400,"station_id":"","pricing_plan_id":"cebpf4jnsgd1na2vs0mg"},{"bike_id":"df881d37-3278-44c6-a80c-fa9ac5176684","system_id":"levelo_inurba_marseille","lat":43.28631,"lon":5.35094,"is_reserved":false,"is_disabled":false,"rental_uris":{"android":"levelo://app?vid=df881d37-3278-44c6-a80c-fa9ac5176684","ios":"levelo://app?vid=df881d37-3278-44c6-a80c-fa9ac5176684"},"vehicle_type_id":"4","last_reported":1777579455,"current_range_meters":8400,"station_id":"ce4bhch2rcd13ifvqeug","pricing_plan_id":"cebpf4jnsgd1na2vs0mg"},{"bike_id":"dd60da3b-57e1-43ad-a71a-e3fd2bc7a834","system_id":"levelo_inurba_marseille","lat":43.27369,"lon":5.36259,"is_reserved":false,"is_disabled":false,"rental_uris":{"android":"levelo://app?vid=dd60da3b-57e1-43ad-a71a-e3fd2bc7a834","ios":"levelo://app?vid=dd60da3b-57e1-43ad-a71a-e3fd2bc7a834"},"vehicle_type_id":"4","last_reported":1777579455,"current_range_meters":8400,"station_id":"ce4bhbh2rcd13ifvqeo0","pricing_plan_id":"cebpf4jnsgd1na2vs0mg"},{"bike_id":"a5e387fa-49b5-4a17-a925-09d5f690af8f","system_id":"levelo_inurba_marseille","lat":43.32106,"lon":5.36771,"is_reserved":false,"is_disabled":false,"rental_uris":{"android":"levelo://app?vid=a5e387fa-49b5-4a17-a925-09d5f690af8f","ios":"levelo://app?vid=a5e387fa-49b5-4a17-a925-09d5f690af8f"},"vehicle_type_id":"4","last_reported":1777579455,"current_range_meters":8400,"station_id":"ce4bhrh2rcd13ifvqhug","pricing_plan_id":"cebpf4jnsgd1na2vs0mg"},{"bike_id":"17906826-71c6-473f-815a-77c5ae3c5d34","system_id":"levelo_inurba_marseille","lat":43.29533,"lon":5.38528,"is_reserved":false,"is_disabled":false,"rental_uris":{"android":"levelo://app?vid=17906826-71c6-473f-815a-77c5ae3c5d34","ios":"levelo://app?vid=17906826-71c6-473f-815a-77c5ae3c5d34"},"vehicle_type_id":"4","last_reported":1777579455,"current_range_meters":8400,"station_id":"ce4bgih2rcd13ifvqba0","pricing_plan_id":"cebpf4jnsgd1na2vs0mg"},{"bike_id":"46611baa-2233-47d3-a307-4123f065b079","system_id":"levelo_inurba_marseille","lat":43.28485,"lon":5.48392,"is_reserved":false,"is_disabled":false,"rental_uris":{"android":"levelo://app?vid=46611baa-2233-47d3-a307-4123f065b079","ios":"levelo://app?vid=46611baa-2233-47d3-a307-4123f065b079"},"vehicle_type_id":"4","last_reported":1777579455,"current_range_meters":8400,"station_id":"","pricing_plan_id":"cebpf4jnsgd1na2vs0mg"},{"bike_id":"d095826d-fc20-45e8-b786-705a2207af9c","system_id":"levelo_inurba_marseille","lat":43.30943,"lon":5.39045,"is_reserved":false,"is_disabled":false,"rental_uris":{"android":"levelo://app?vid=d095826d-fc20-45e8-b786-705a2207af9c","ios":"levelo://app?vid=d095826d-fc20-45e8-b786-705a2207af9c"},"vehicle_type_id":"4","last_reported":1777579455,"current_range_meters":8400,"station_id":"ce4bgup2rcd13ifvqco0","pricing_plan_id":"cebpf4jnsgd1na2vs0mg"},{"bike_id":"e018f895-5771-4f44-b64f-db1b733c0c56","system_id":"levelo_inurba_marseille","lat":43.23748,"lon":5.43044,"is_reserved":false,"is_disabled":false,"rental_uris":{"android":"levelo://app?vid=e018f895-5771-4f44-b64f-db1b733c0c56","ios":"levelo://app?vid=e018f895-5771-4f44-b64f-db1b733c0c56"},"vehicle_type_id":"4","last_reported":1777579455,"current_range_meters":8400,"station_id":"","pricing_plan_id":"cebpf4jnsgd1na2vs0mg"},{"bike_id":"d193cfeb-a038-436f-91b9-4221c91e3d89","system_id":"levelo_inurba_marseille","lat":43.27512,"lon":5.41587,"is_reserved":false,"is_disabled":true,"rental_uris":{"android":"levelo://app?vid=d193cfeb-a038-436f-91b9-4221c91e3d89","ios":"levelo://app?vid=d193cfeb-a038-436f-91b9-4221c91e3d89"},"vehicle_type_id":"4","last_reported":1777579455,"current_range_meters":8400,"station_id":"st_d6im8g6chgec73a5pndg","pricing_plan_id":"cebpf4jnsgd1na2vs0mg"},{"bike_id":"cfbf3059-fd7e-4626-bbb7-f76607be3dd8","system_id":"levelo_inurba_marseille","lat":43.30543,"lon":5.36726,"is_reserved":false,"is_disabled":true,"rental_uris":{"android":"levelo://app?vid=cfbf3059-fd7e-4626-bbb7-f76607be3dd8","ios":"levelo://app?vid=cfbf3059-fd7e-4626-bbb7-f76607be3dd8"},"vehicle_type_id":"4","last_reported":1777579455,"current_range_meters":8400,"station_id":"ce4bgrp2rcd13ifvqc9g","pricing_plan_id":"cebpf4jnsgd1na2vs0mg"},{"bike_id":"41caa364-25fc-475f-9c53-97a6cb892a35","system_id":"levelo_inurba_marseille","lat":43.31008,"lon":5.38441,"is_reserved":false,"is_disabled":true,"rental_uris":{"android":"levelo://app?vid=41caa364-25fc-475f-9c53-97a6cb892a35","ios":"levelo://app?vid=41caa364-25fc-475f-9c53-97a6cb892a35"},"vehicle_type_id":"4","last_reported":1777579455,"current_range_meters":8400,"station_id":"","pricing_plan_id":"cebpf4jnsgd1na2vs0mg"},{"bike_id":"8470c2da-f571-414a-b47a-32dacee6dddc","system_id":"levelo_inurba_marseille","lat":43.31167,"lon":5.38723,"is_reserved":false,"is_disabled":false,"rental_uris":{"android":"levelo://app?vid=8470c2da-f571-414a-b47a-32dacee6dddc","ios":"levelo://app?vid=8470c2da-f571-414a-b47a-32dacee6dddc"},"vehicle_type_id":"4","last_reported":1777579455,"current_range_meters":8400,"station_id":"ce4bgv12rcd13ifvqcp0","pricing_plan_id":"cebpf4jnsgd1na2vs0mg"},{"bike_id":"66ae36d3-bfad-48f8-bec2-a999b43a9324","system_id":"levelo_inurba_marseille","lat":43.28341,"lon":5.3811,"is_reserved":false,"is_disabled":false,"rental_uris":{"android":"levelo://app?vid=66ae36d3-bfad-48f8-bec2-a999b43a9324","ios":"levelo://app?vid=66ae36d3-bfad-48f8-bec2-a999b43a9324"},"vehicle_type_id":"4","last_reported":1777579455,"current_range_meters":8400,"station_id":"ce4bh412rcd13ifvqdr0","pricing_plan_id":"cebpf4jnsgd1na2vs0mg"},{"bike_id":"b90c1d01-6a44-4d47-adc9-f51f5ae2109b","system_id":"levelo_inurba_marseille","lat":43.2255,"lon":5.41632,"is_reserved":false,"is_disabled":false,"rental_uris":{"android":"levelo://app?vid=b90c1d01-6a44-4d47-adc9-f51f5ae2109b","ios":"levelo://app?vid=b90c1d01-6a44-4d47-adc9-f51f5ae2109b"},"vehicle_type_id":"4","last_reported":1777579455,"current_range_meters":8400,"station_id":"st_d2o4gvlbi1j2169b742g","pricing_plan_id":"cebpf4jnsgd1na2vs0mg"},{"bike_id":"3d3a599f-f0bd-4bea-9d63-bc97e2770ebc","system_id":"levelo_inurba_marseille","lat":43.29539,"lon":5.38533,"is_reserved":false,"is_disabled":false,"rental_uris":{"android":"levelo://app?vid=3d3a599f-f0bd-4bea-9d63-bc97e2770ebc","ios":"levelo://app?vid=3d3a599f-f0bd-4bea-9d63-bc97e2770ebc"},"vehicle_type_id":"4","last_reported":1777579455,"current_range_meters":8400,"station_id":"ce4bgih2rcd13ifvqba0","pricing_plan_id":"cebpf4jnsgd1na2vs0mg"},{"bike_id":"777b5b2a-7d7d-4308-8581-4b69e8a2d556","system_id":"levelo_inurba_marseille","lat":43.32346,"lon":5.3675,"is_reserved":false,"is_disabled":false,"rental_uris":{"android":"levelo://app?vid=777b5b2a-7d7d-4308-8581-4b69e8a2d556","ios":"levelo://app?vid=777b5b2a-7d7d-4308-8581-4b69e8a2d556"},"vehicle_type_id":"4","last_reported":1777579455,"current_range_meters":8800,"station_id":"ce4bhsh2rcd13ifvqi2g","pricing_plan_id":"cebpf4jnsgd1na2vs0mg"},{"bike_id":"3ae19c8d-7993-4bce-8a56-bc8493cb10a6","system_id":"levelo_inurba_marseille","lat":43.2256,"lon":5.41628,"is_reserved":false,"is_disabled":false,"rental_uris":{"android":"levelo://app?vid=3ae19c8d-7993-4bce-8a56-bc8493cb10a6","ios":"levelo://app?vid=3ae19c8d-7993-4bce-8a56-bc8493cb10a6"},"vehicle_type_id":"4","last_reported":1777579455,"current_range_meters":8800,"station_id":"st_d2o4gvlbi1j2169b742g","pricing_plan_id":"cebpf4jnsgd1na2vs0mg"},{"bike_id":"f9b52c2e-eac8-43b2-acc5-5fc3d2981121","system_id":"levelo_inurba_marseille","lat":43.29575,"lon":5.37499,"is_reserved":false,"is_disabled":false,"rental_uris":{"android":"levelo://app?vid=f9b52c2e-eac8-43b2-acc5-5fc3d2981121","ios":"levelo://app?vid=f9b52c2e-eac8-43b2-acc5-5fc3d2981121"},"vehicle_type_id":"4","last_reported":1777579455,"current_range_meters":8800,"station_id":"ce4bgh92rcd13ifvqb50","pricing_plan_id":"cebpf4jnsgd1na2vs0mg"},{"bike_id":"9d33ffb3-9f23-4695-ab55-ac963466aa9b","system_id":"levelo_inurba_marseille","lat":43.24648,"lon":5.38892,"is_reserved":false,"is_disabled":false,"rental_uris":{"android":"levelo://app?vid=9d33ffb3-9f23-4695-ab55-ac963466aa9b","ios":"levelo://app?vid=9d33ffb3-9f23-4695-ab55-ac963466aa9b"},"vehicle_type_id":"4","last_reported":1777579455,"current_range_meters":8800,"station_id":"ce4bhg12rcd13ifvqf60","pricing_plan_id":"cebpf4jnsgd1na2vs0mg"},{"bike_id":"662d3ade-7838-42e9-9b62-a1e5749bd144","system_id":"levelo_inurba_marseille","lat":43.28715,"lon":5.46683,"is_reserved":false,"is_disabled":false,"rental_uris":{"android":"levelo://app?vid=662d3ade-7838-42e9-9b62-a1e5749bd144","ios":"levelo://app?vid=662d3ade-7838-42e9-9b62-a1e5749bd144"},"vehicle_type_id":"4","last_reported":1777579455,"current_range_meters":8800,"station_id":"st_d6tc3vkotcvc738tfjhg","pricing_plan_id":"cebpf4jnsgd1na2vs0mg"},{"bike_id":"3e37a766-0224-460c-ab40-46eb5e15117f","system_id":"levelo_inurba_marseille","lat":43.25581,"lon":5.38223,"is_reserved":false,"is_disabled":false,"rental_uris":{"android":"levelo://app?vid=3e37a766-0224-460c-ab40-46eb5e15117f","ios":"levelo://app?vid=3e37a766-0224-460c-ab40-46eb5e15117f"},"vehicle_type_id":"4","last_reported":1777579455,"current_range_meters":8800,"station_id":"ce4bhih2rcd13ifvqfs0","pricing_plan_id":"cebpf4jnsgd1na2vs0mg"},{"bike_id":"ca69a990-d1fc-43cd-a0d1-91eb9a1d6678","system_id":"levelo_inurba_marseille","lat":43.27808,"lon":5.40721,"is_reserved":false,"is_disabled":false,"rental_uris":{"android":"levelo://app?vid=ca69a990-d1fc-43cd-a0d1-91eb9a1d6678","ios":"levelo://app?vid=ca69a990-d1fc-43cd-a0d1-91eb9a1d6678"},"vehicle_type_id":"4","last_reported":1777579455,"current_range_meters":8800,"station_id":"ce4bhnh2rcd13ifvqgtg","pricing_plan_id":"cebpf4jnsgd1na2vs0mg"},{"bike_id":"d9bfddb2-0b5a-43e3-b319-aa780d93faa9","system_id":"levelo_inurba_marseille","lat":43.30314,"lon":5.36877,"is_reserved":false,"is_disabled":false,"rental_uris":{"android":"levelo://app?vid=d9bfddb2-0b5a-43e3-b319-aa780d93faa9","ios":"levelo://app?vid=d9bfddb2-0b5a-43e3-b319-aa780d93faa9"},"vehicle_type_id":"4","last_reported":1777579455,"current_range_meters":8800,"station_id":"ce4bgqh2rcd13ifvqc5g","pricing_plan_id":"cebpf4jnsgd1na2vs0mg"},{"bike_id":"c7969dbe-1082-4f6f-bca8-de46a1b07950","system_id":"levelo_inurba_marseille","lat":43.3138,"lon":5.36705,"is_reserved":false,"is_disabled":false,"rental_uris":{"android":"levelo://app?vid=c7969dbe-1082-4f6f-bca8-de46a1b07950","ios":"levelo://app?vid=c7969dbe-1082-4f6f-bca8-de46a1b07950"},"vehicle_type_id":"4","last_reported":1777579455,"current_range_meters":8800,"station_id":"ce4bgr92rcd13ifvqc6g","pricing_plan_id":"cebpf4jnsgd1na2vs0mg"},{"bike_id":"9a8a1638-ad78-4684-a893-bdb0bdd656b1","system_id":"levelo_inurba_marseille","lat":43.27951,"lon":5.41048,"is_reserved":false,"is_disabled":false,"rental_uris":{"android":"levelo://app?vid=9a8a1638-ad78-4684-a893-bdb0bdd656b1","ios":"levelo://app?vid=9a8a1638-ad78-4684-a893-bdb0bdd656b1"},"vehicle_type_id":"4","last_reported":1777579455,"current_range_meters":8800,"station_id":"ce4bhnp2rcd13ifvqh0g","pricing_plan_id":"cebpf4jnsgd1na2vs0mg"},{"bike_id":"e0de01f3-5d48-4f63-a7b0-1748207d434a","system_id":"levelo_inurba_marseille","lat":43.29607,"lon":5.381,"is_reserved":false,"is_disabled":false,"rental_uris":{"android":"levelo://app?vid=e0de01f3-5d48-4f63-a7b0-1748207d434a","ios":"levelo://app?vid=e0de01f3-5d48-4f63-a7b0-1748207d434a"},"vehicle_type_id":"4","last_reported":1777579455,"current_range_meters":8800,"station_id":"ce4bgl12rcd13ifvqbo0","pricing_plan_id":"cebpf4jnsgd1na2vs0mg"},{"bike_id":"8e1429a9-b173-494e-b6ba-0c5822d44e47","system_id":"levelo_inurba_marseille","lat":43.30269,"lon":5.40108,"is_reserved":false,"is_disabled":false,"rental_uris":{"android":"levelo://app?vid=8e1429a9-b173-494e-b6ba-0c5822d44e47","ios":"levelo://app?vid=8e1429a9-b173-494e-b6ba-0c5822d44e47"},"vehicle_type_id":"4","last_reported":1777579455,"current_range_meters":8800,"station_id":"ce4bgvh2rcd13ifvqcs0","pricing_plan_id":"cebpf4jnsgd1na2vs0mg"},{"bike_id":"743fad6f-981f-4f96-96fb-6687216d4fe4","system_id":"levelo_inurba_marseille","lat":43.28619,"lon":5.35097,"is_reserved":false,"is_disabled":false,"rental_uris":{"android":"levelo://app?vid=743fad6f-981f-4f96-96fb-6687216d4fe4","ios":"levelo://app?vid=743fad6f-981f-4f96-96fb-6687216d4fe4"},"vehicle_type_id":"4","last_reported":1777579455,"current_range_meters":8800,"station_id":"ce4bhch2rcd13ifvqeug","pricing_plan_id":"cebpf4jnsgd1na2vs0mg"},{"bike_id":"cf76fe1f-e6bd-42ea-adf1-53856635c40f","system_id":"levelo_inurba_marseille","lat":43.30545,"lon":5.36554,"is_reserved":false,"is_disabled":false,"rental_uris":{"android":"levelo://app?vid=cf76fe1f-e6bd-42ea-adf1-53856635c40f","ios":"levelo://app?vid=cf76fe1f-e6bd-42ea-adf1-53856635c40f"},"vehicle_type_id":"4","last_reported":1777579455,"current_range_meters":8800,"station_id":"ce4bgs12rcd13ifvqcag","pricing_plan_id":"cebpf4jnsgd1na2vs0mg"},{"bike_id":"23b4ee1c-d1dd-4f28-8980-c20ec17d324b","system_id":"levelo_inurba_marseille","lat":43.29534,"lon":5.38535,"is_reserved":false,"is_disabled":false,"rental_uris":{"android":"levelo://app?vid=23b4ee1c-d1dd-4f28-8980-c20ec17d324b","ios":"levelo://app?vid=23b4ee1c-d1dd-4f28-8980-c20ec17d324b"},"vehicle_type_id":"4","last_reported":1777579455,"current_range_meters":8800,"station_id":"ce4bgih2rcd13ifvqba0","pricing_plan_id":"cebpf4jnsgd1na2vs0mg"},{"bike_id":"24eabd38-01f1-49e3-9b96-d24bb03f2e53","system_id":"levelo_inurba_marseille","lat":43.24809,"lon":5.37456,"is_reserved":false,"is_disabled":false,"rental_uris":{"android":"levelo://app?vid=24eabd38-01f1-49e3-9b96-d24bb03f2e53","ios":"levelo://app?vid=24eabd38-01f1-49e3-9b96-d24bb03f2e53"},"vehicle_type_id":"4","last_reported":1777579455,"current_range_meters":8800,"station_id":"ce4bhgh2rcd13ifvqfb0","pricing_plan_id":"cebpf4jnsgd1na2vs0mg"},{"bike_id":"3bab5da5-8f04-429e-a8cc-b94afa4e8e70","system_id":"levelo_inurba_marseille","lat":43.22557,"lon":5.41634,"is_reserved":false,"is_disabled":false,"rental_uris":{"android":"levelo://app?vid=3bab5da5-8f04-429e-a8cc-b94afa4e8e70","ios":"levelo://app?vid=3bab5da5-8f04-429e-a8cc-b94afa4e8e70"},"vehicle_type_id":"4","last_reported":1777579455,"current_range_meters":8800,"station_id":"st_d2o4gvlbi1j2169b742g","pricing_plan_id":"cebpf4jnsgd1na2vs0mg"},{"bike_id":"6c33eaec-7524-4765-a3b4-3421cf14e6ae","system_id":"levelo_inurba_marseille","lat":43.28486,"lon":5.48395,"is_reserved":false,"is_disabled":false,"rental_uris":{"android":"levelo://app?vid=6c33eaec-7524-4765-a3b4-3421cf14e6ae","ios":"levelo://app?vid=6c33eaec-7524-4765-a3b4-3421cf14e6ae"},"vehicle_type_id":"4","last_reported":1777579455,"current_range_meters":8800,"station_id":"","pricing_plan_id":"cebpf4jnsgd1na2vs0mg"},{"bike_id":"33b102e2-ff43-4e99-aab2-02b1a48ed212","system_id":"levelo_inurba_marseille","lat":43.24993,"lon":5.38936,"is_reserved":false,"is_disabled":false,"rental_uris":{"android":"levelo://app?vid=33b102e2-ff43-4e99-aab2-02b1a48ed212","ios":"levelo://app?vid=33b102e2-ff43-4e99-aab2-02b1a48ed212"},"vehicle_type_id":"4","last_reported":1777579455,"current_range_meters":8800,"station_id":"ce4bhgp2rcd13ifvqfd0","pricing_plan_id":"cebpf4jnsgd1na2vs0mg"},{"bike_id":"e0a6328f-194b-4f74-8304-d60bd9a8effc","system_id":"levelo_inurba_marseille","lat":43.24662,"lon":5.38152,"is_reserved":false,"is_disabled":false,"rental_uris":{"android":"levelo://app?vid=e0a6328f-194b-4f74-8304-d60bd9a8effc","ios":"levelo://app?vid=e0a6328f-194b-4f74-8304-d60bd9a8effc"},"vehicle_type_id":"4","last_reported":1777579455,"current_range_meters":8800,"station_id":"ce4bhih2rcd13ifvqfr0","pricing_plan_id":"cebpf4jnsgd1na2vs0mg"},{"bike_id":"5917f89c-6639-4302-b633-631d26a8870a","system_id":"levelo_inurba_marseille","lat":43.29806,"lon":5.37614,"is_reserved":false,"is_disabled":false,"rental_uris":{"android":"levelo://app?vid=5917f89c-6639-4302-b633-631d26a8870a","ios":"levelo://app?vid=5917f89c-6639-4302-b633-631d26a8870a"},"vehicle_type_id":"4","last_reported":1777579455,"current_range_meters":8800,"station_id":"ce4bgkh2rcd13ifvqbl0","pricing_plan_id":"cebpf4jnsgd1na2vs0mg"},{"bike_id":"0114097f-635c-4b35-a17e-1cca641282e0","system_id":"levelo_inurba_marseille","lat":43.23191,"lon":5.35555,"is_reserved":false,"is_disabled":false,"rental_uris":{"android":"levelo://app?vid=0114097f-635c-4b35-a17e-1cca641282e0","ios":"levelo://app?vid=0114097f-635c-4b35-a17e-1cca641282e0"},"vehicle_type_id":"4","last_reported":1777579455,"current_range_meters":8800,"station_id":"ce4bhu92rcd13ifvqi70","pricing_plan_id":"cebpf4jnsgd1na2vs0mg"},{"bike_id":"f375d027-2602-47f4-a4d0-cea0f9b580ff","system_id":"levelo_inurba_marseille","lat":43.29538,"lon":5.39025,"is_reserved":false,"is_disabled":false,"rental_uris":{"android":"levelo://app?vid=f375d027-2602-47f4-a4d0-cea0f9b580ff","ios":"levelo://app?vid=f375d027-2602-47f4-a4d0-cea0f9b580ff"},"vehicle_type_id":"4","last_reported":1777579455,"current_range_meters":8800,"station_id":"ce4bh3p2rcd13ifvqdp0","pricing_plan_id":"cebpf4jnsgd1na2vs0mg"},{"bike_id":"cb354536-195f-4028-a436-09dda55166b0","system_id":"levelo_inurba_marseille","lat":43.26563,"lon":5.39029,"is_reserved":false,"is_disabled":false,"rental_uris":{"android":"levelo://app?vid=cb354536-195f-4028-a436-09dda55166b0","ios":"levelo://app?vid=cb354536-195f-4028-a436-09dda55166b0"},"vehicle_type_id":"4","last_reported":1777579455,"current_range_meters":8800,"station_id":"ce4bhe12rcd13ifvqf30","pricing_plan_id":"cebpf4jnsgd1na2vs0mg"},{"bike_id":"80606ad2-4ad4-440d-8a66-11c0ead016e3","system_id":"levelo_inurba_marseille","lat":43.2962,"lon":5.37715,"is_reserved":false,"is_disabled":true,"rental_uris":{"android":"levelo://app?vid=80606ad2-4ad4-440d-8a66-11c0ead016e3","ios":"levelo://app?vid=80606ad2-4ad4-440d-8a66-11c0ead016e3"},"vehicle_type_id":"4","last_reported":1777579455,"current_range_meters":8800,"station_id":"ce4bgi92rcd13ifvqb90","pricing_plan_id":"cebpf4jnsgd1na2vs0mg"},{"bike_id":"1598c480-f34d-4ee1-b851-b1db228f3951","system_id":"levelo_inurba_marseille","lat":43.25494,"lon":5.37664,"is_reserved":false,"is_disabled":false,"rental_uris":{"android":"levelo://app?vid=1598c480-f34d-4ee1-b851-b1db228f3951","ios":"levelo://app?vid=1598c480-f34d-4ee1-b851-b1db228f3951"},"vehicle_type_id":"4","last_reported":1777579455,"current_range_meters":8800,"station_id":"ce4bhh12rcd13ifvqff0","pricing_plan_id":"cebpf4jnsgd1na2vs0mg"},{"bike_id":"9af80983-7303-4488-a030-6e14bff4a386","system_id":"levelo_inurba_marseille","lat":43.27589,"lon":5.38325,"is_reserved":false,"is_disabled":false,"rental_uris":{"android":"levelo://app?vid=9af80983-7303-4488-a030-6e14bff4a386","ios":"levelo://app?vid=9af80983-7303-4488-a030-6e14bff4a386"},"vehicle_type_id":"4","last_reported":1777579455,"current_range_meters":8800,"station_id":"","pricing_plan_id":"cebpf4jnsgd1na2vs0mg"},{"bike_id":"12db932e-a058-4af8-b0da-d76c0831a431","system_id":"levelo_inurba_marseille","lat":43.31267,"lon":5.36859,"is_reserved":false,"is_disabled":false,"rental_uris":{"android":"levelo://app?vid=12db932e-a058-4af8-b0da-d76c0831a431","ios":"levelo://app?vid=12db932e-a058-4af8-b0da-d76c0831a431"},"vehicle_type_id":"4","last_reported":1777579455,"current_range_meters":8800,"station_id":"ce4bgl92rcd13ifvqbq0","pricing_plan_id":"cebpf4jnsgd1na2vs0mg"},{"bike_id":"b523adde-c1af-44da-98e3-23f5e04a208c","system_id":"levelo_inurba_marseille","lat":43.32134,"lon":5.36722,"is_reserved":false,"is_disabled":false,"rental_uris":{"android":"levelo://app?vid=b523adde-c1af-44da-98e3-23f5e04a208c","ios":"levelo://app?vid=b523adde-c1af-44da-98e3-23f5e04a208c"},"vehicle_type_id":"4","last_reported":1777579455,"current_range_meters":8800,"station_id":"","pricing_plan_id":"cebpf4jnsgd1na2vs0mg"},{"bike_id":"7d7cb943-c3b3-4aa6-8e39-6eb37a53f658","system_id":"levelo_inurba_marseille","lat":43.29269,"lon":5.38447,"is_reserved":false,"is_disabled":false,"rental_uris":{"android":"levelo://app?vid=7d7cb943-c3b3-4aa6-8e39-6eb37a53f658","ios":"levelo://app?vid=7d7cb943-c3b3-4aa6-8e39-6eb37a53f658"},"vehicle_type_id":"4","last_reported":1777579455,"current_range_meters":8800,"station_id":"ce4bh692rcd13ifvqea0","pricing_plan_id":"cebpf4jnsgd1na2vs0mg"},{"bike_id":"c8f23241-d31d-44b4-9cdf-bfa43b411b0f","system_id":"levelo_inurba_marseille","lat":43.30953,"lon":5.39048,"is_reserved":false,"is_disabled":false,"rental_uris":{"android":"levelo://app?vid=c8f23241-d31d-44b4-9cdf-bfa43b411b0f","ios":"levelo://app?vid=c8f23241-d31d-44b4-9cdf-bfa43b411b0f"},"vehicle_type_id":"4","last_reported":1777579455,"current_range_meters":8800,"station_id":"ce4bgup2rcd13ifvqco0","pricing_plan_id":"cebpf4jnsgd1na2vs0mg"},{"bike_id":"54f05648-cb63-478a-b40f-590f12d8cfea","system_id":"levelo_inurba_marseille","lat":43.24823,"lon":5.37475,"is_reserved":false,"is_disabled":false,"rental_uris":{"android":"levelo://app?vid=54f05648-cb63-478a-b40f-590f12d8cfea","ios":"levelo://app?vid=54f05648-cb63-478a-b40f-590f12d8cfea"},"vehicle_type_id":"4","last_reported":1777579455,"current_range_meters":8800,"station_id":"ce4bhgh2rcd13ifvqfb0","pricing_plan_id":"cebpf4jnsgd1na2vs0mg"},{"bike_id":"f91881d4-bc58-459c-960b-960cce52dc8e","system_id":"levelo_inurba_marseille","lat":43.26059,"lon":5.39399,"is_reserved":false,"is_disabled":false,"rental_uris":{"android":"levelo://app?vid=f91881d4-bc58-459c-960b-960cce52dc8e","ios":"levelo://app?vid=f91881d4-bc58-459c-960b-960cce52dc8e"},"vehicle_type_id":"4","last_reported":1777579455,"current_range_meters":8800,"station_id":"ce4bhh92rcd13ifvqfj0","pricing_plan_id":"cebpf4jnsgd1na2vs0mg"},{"bike_id":"cdb0d556-8793-4219-882c-6502cd7a9903","system_id":"levelo_inurba_marseille","lat":43.29545,"lon":5.39036,"is_reserved":false,"is_disabled":false,"rental_uris":{"android":"levelo://app?vid=cdb0d556-8793-4219-882c-6502cd7a9903","ios":"levelo://app?vid=cdb0d556-8793-4219-882c-6502cd7a9903"},"vehicle_type_id":"4","last_reported":1777579455,"current_range_meters":8800,"station_id":"ce4bh3p2rcd13ifvqdp0","pricing_plan_id":"cebpf4jnsgd1na2vs0mg"},{"bike_id":"cf756aed-771f-48de-b6e4-695766cf71a3","system_id":"levelo_inurba_marseille","lat":43.30961,"lon":5.39686,"is_reserved":false,"is_disabled":false,"rental_uris":{"android":"levelo://app?vid=cf756aed-771f-48de-b6e4-695766cf71a3","ios":"levelo://app?vid=cf756aed-771f-48de-b6e4-695766cf71a3"},"vehicle_type_id":"4","last_reported":1777579455,"current_range_meters":8800,"station_id":"","pricing_plan_id":"cebpf4jnsgd1na2vs0mg"},{"bike_id":"c702bd5e-87e7-45dc-81b5-809f687c6420","system_id":"levelo_inurba_marseille","lat":43.29013,"lon":5.38127,"is_reserved":false,"is_disabled":false,"rental_uris":{"android":"levelo://app?vid=c702bd5e-87e7-45dc-81b5-809f687c6420","ios":"levelo://app?vid=c702bd5e-87e7-45dc-81b5-809f687c6420"},"vehicle_type_id":"4","last_reported":1777579455,"current_range_meters":8800,"station_id":"ce4bh4p2rcd13ifvqe1g","pricing_plan_id":"cebpf4jnsgd1na2vs0mg"},{"bike_id":"95c9a58d-bc97-42fe-8892-229bb09adddd","system_id":"levelo_inurba_marseille","lat":43.29611,"lon":5.38527,"is_reserved":false,"is_disabled":false,"rental_uris":{"android":"levelo://app?vid=95c9a58d-bc97-42fe-8892-229bb09adddd","ios":"levelo://app?vid=95c9a58d-bc97-42fe-8892-229bb09adddd"},"vehicle_type_id":"4","last_reported":1777579455,"current_range_meters":9200,"station_id":"","pricing_plan_id":"cebpf4jnsgd1na2vs0mg"},{"bike_id":"b41353e0-ddd2-4461-be04-0f5e9b40ab92","system_id":"levelo_inurba_marseille","lat":43.2847,"lon":5.48393,"is_reserved":false,"is_disabled":false,"rental_uris":{"android":"levelo://app?vid=b41353e0-ddd2-4461-be04-0f5e9b40ab92","ios":"levelo://app?vid=b41353e0-ddd2-4461-be04-0f5e9b40ab92"},"vehicle_type_id":"4","last_reported":1777579455,"current_range_meters":9200,"station_id":"st_d3svhcjqgbts73a3dn0g","pricing_plan_id":"cebpf4jnsgd1na2vs0mg"},{"bike_id":"a28d745a-9072-4ffe-a65e-1fbebcaf730f","system_id":"levelo_inurba_marseille","lat":43.24136,"lon":5.36393,"is_reserved":false,"is_disabled":false,"rental_uris":{"android":"levelo://app?vid=a28d745a-9072-4ffe-a65e-1fbebcaf730f","ios":"levelo://app?vid=a28d745a-9072-4ffe-a65e-1fbebcaf730f"},"vehicle_type_id":"4","last_reported":1777579455,"current_range_meters":9200,"station_id":"cpo36qri1sfpv3e86is0","pricing_plan_id":"cebpf4jnsgd1na2vs0mg"},{"bike_id":"395aaf3f-de90-4df0-8220-40f14556b207","system_id":"levelo_inurba_marseille","lat":43.29926,"lon":5.37459,"is_reserved":false,"is_disabled":true,"rental_uris":{"android":"levelo://app?vid=395aaf3f-de90-4df0-8220-40f14556b207","ios":"levelo://app?vid=395aaf3f-de90-4df0-8220-40f14556b207"},"vehicle_type_id":"4","last_reported":1777579455,"current_range_meters":9200,"station_id":"ce4bgjh2rcd13ifvqbg0","pricing_plan_id":"cebpf4jnsgd1na2vs0mg"},{"bike_id":"037ddcd2-eb34-4581-b244-00788ad7a07c","system_id":"levelo_inurba_marseille","lat":43.27962,"lon":5.3873,"is_reserved":false,"is_disabled":true,"rental_uris":{"android":"levelo://app?vid=037ddcd2-eb34-4581-b244-00788ad7a07c","ios":"levelo://app?vid=037ddcd2-eb34-4581-b244-00788ad7a07c"},"vehicle_type_id":"4","last_reported":1777579455,"current_range_meters":9200,"station_id":"ce4bhg12rcd13ifvqf80","pricing_plan_id":"cebpf4jnsgd1na2vs0mg"},{"bike_id":"396e5093-3e9d-4b50-8bf6-9cb22084d93b","system_id":"levelo_inurba_marseille","lat":43.29451,"lon":5.38251,"is_reserved":false,"is_disabled":false,"rental_uris":{"android":"levelo://app?vid=396e5093-3e9d-4b50-8bf6-9cb22084d93b","ios":"levelo://app?vid=396e5093-3e9d-4b50-8bf6-9cb22084d93b"},"vehicle_type_id":"4","last_reported":1777579455,"current_range_meters":9200,"station_id":"","pricing_plan_id":"cebpf4jnsgd1na2vs0mg"},{"bike_id":"596c1624-6d17-427b-9ced-1735457cd0bd","system_id":"levelo_inurba_marseille","lat":43.30146,"lon":5.38076,"is_reserved":false,"is_disabled":false,"rental_uris":{"android":"levelo://app?vid=596c1624-6d17-427b-9ced-1735457cd0bd","ios":"levelo://app?vid=596c1624-6d17-427b-9ced-1735457cd0bd"},"vehicle_type_id":"4","last_reported":1777579455,"current_range_meters":9200,"station_id":"ce4bgjp2rcd13ifvqbh0","pricing_plan_id":"cebpf4jnsgd1na2vs0mg"},{"bike_id":"883ca855-ba2e-4520-80a9-17429f3321a3","system_id":"levelo_inurba_marseille","lat":43.29319,"lon":5.37445,"is_reserved":false,"is_disabled":false,"rental_uris":{"android":"levelo://app?vid=883ca855-ba2e-4520-80a9-17429f3321a3","ios":"levelo://app?vid=883ca855-ba2e-4520-80a9-17429f3321a3"},"vehicle_type_id":"4","last_reported":1777579455,"current_range_meters":9200,"station_id":"ce4bgi12rcd13ifvqb70","pricing_plan_id":"cebpf4jnsgd1na2vs0mg"},{"bike_id":"158111d2-748c-4194-ac59-e2f15fa170c4","system_id":"levelo_inurba_marseille","lat":43.31365,"lon":5.39423,"is_reserved":false,"is_disabled":false,"rental_uris":{"android":"levelo://app?vid=158111d2-748c-4194-ac59-e2f15fa170c4","ios":"levelo://app?vid=158111d2-748c-4194-ac59-e2f15fa170c4"},"vehicle_type_id":"4","last_reported":1777579455,"current_range_meters":9200,"station_id":"","pricing_plan_id":"cebpf4jnsgd1na2vs0mg"},{"bike_id":"07531c22-cb0a-4440-a054-852fccef1f69","system_id":"levelo_inurba_marseille","lat":43.31345,"lon":5.36721,"is_reserved":false,"is_disabled":false,"rental_uris":{"android":"levelo://app?vid=07531c22-cb0a-4440-a054-852fccef1f69","ios":"levelo://app?vid=07531c22-cb0a-4440-a054-852fccef1f69"},"vehicle_type_id":"4","last_reported":1777579455,"current_range_meters":9200,"station_id":"ce4bgr92rcd13ifvqc6g","pricing_plan_id":"cebpf4jnsgd1na2vs0mg"},{"bike_id":"f24f47ae-859d-4fb9-85fe-22e8e0591414","system_id":"levelo_inurba_marseille","lat":43.25181,"lon":5.42141,"is_reserved":false,"is_disabled":false,"rental_uris":{"android":"levelo://app?vid=f24f47ae-859d-4fb9-85fe-22e8e0591414","ios":"levelo://app?vid=f24f47ae-859d-4fb9-85fe-22e8e0591414"},"vehicle_type_id":"4","last_reported":1777579455,"current_range_meters":9200,"station_id":"","pricing_plan_id":"cebpf4jnsgd1na2vs0mg"},{"bike_id":"d8d9220f-a3dc-4db0-8407-3badb9585aea","system_id":"levelo_inurba_marseille","lat":43.255,"lon":5.41629,"is_reserved":false,"is_disabled":false,"rental_uris":{"android":"levelo://app?vid=d8d9220f-a3dc-4db0-8407-3badb9585aea","ios":"levelo://app?vid=d8d9220f-a3dc-4db0-8407-3badb9585aea"},"vehicle_type_id":"4","last_reported":1777579455,"current_range_meters":9200,"station_id":"","pricing_plan_id":"cebpf4jnsgd1na2vs0mg"},{"bike_id":"18bb5941-6a91-437d-bec7-ec16d2164549","system_id":"levelo_inurba_marseille","lat":43.31365,"lon":5.38476,"is_reserved":false,"is_disabled":true,"rental_uris":{"android":"levelo://app?vid=18bb5941-6a91-437d-bec7-ec16d2164549","ios":"levelo://app?vid=18bb5941-6a91-437d-bec7-ec16d2164549"},"vehicle_type_id":"4","last_reported":1777579455,"current_range_meters":9200,"station_id":"ce4bgt92rcd13ifvqcf0","pricing_plan_id":"cebpf4jnsgd1na2vs0mg"},{"bike_id":"63cf4435-6895-46c9-96b0-447e33f9e9f9","system_id":"levelo_inurba_marseille","lat":43.31671,"lon":5.37753,"is_reserved":false,"is_disabled":false,"rental_uris":{"android":"levelo://app?vid=63cf4435-6895-46c9-96b0-447e33f9e9f9","ios":"levelo://app?vid=63cf4435-6895-46c9-96b0-447e33f9e9f9"},"vehicle_type_id":"4","last_reported":1777579455,"current_range_meters":9200,"station_id":"ce4bgth2rcd13ifvqch0","pricing_plan_id":"cebpf4jnsgd1na2vs0mg"},{"bike_id":"97e4a574-6430-44c9-a72d-519157e16f57","system_id":"levelo_inurba_marseille","lat":43.29536,"lon":5.38543,"is_reserved":false,"is_disabled":false,"rental_uris":{"android":"levelo://app?vid=97e4a574-6430-44c9-a72d-519157e16f57","ios":"levelo://app?vid=97e4a574-6430-44c9-a72d-519157e16f57"},"vehicle_type_id":"4","last_reported":1777579455,"current_range_meters":9200,"station_id":"ce4bgih2rcd13ifvqba0","pricing_plan_id":"cebpf4jnsgd1na2vs0mg"},{"bike_id":"269e547c-707c-4f34-9586-bd4dcbeed6ee","system_id":"levelo_inurba_marseille","lat":43.28132,"lon":5.38204,"is_reserved":false,"is_disabled":false,"rental_uris":{"android":"levelo://app?vid=269e547c-707c-4f34-9586-bd4dcbeed6ee","ios":"levelo://app?vid=269e547c-707c-4f34-9586-bd4dcbeed6ee"},"vehicle_type_id":"4","last_reported":1777579455,"current_range_meters":9200,"station_id":"","pricing_plan_id":"cebpf4jnsgd1na2vs0mg"},{"bike_id":"dac3437d-d4f7-491f-b722-b2d3815517d7","system_id":"levelo_inurba_marseille","lat":43.296,"lon":5.38119,"is_reserved":false,"is_disabled":false,"rental_uris":{"android":"levelo://app?vid=dac3437d-d4f7-491f-b722-b2d3815517d7","ios":"levelo://app?vid=dac3437d-d4f7-491f-b722-b2d3815517d7"},"vehicle_type_id":"4","last_reported":1777579455,"current_range_meters":9200,"station_id":"ce4bgl12rcd13ifvqbo0","pricing_plan_id":"cebpf4jnsgd1na2vs0mg"},{"bike_id":"f7d364a3-2ce5-445d-a36e-9f56c330997b","system_id":"levelo_inurba_marseille","lat":43.24651,"lon":5.38915,"is_reserved":false,"is_disabled":false,"rental_uris":{"android":"levelo://app?vid=f7d364a3-2ce5-445d-a36e-9f56c330997b","ios":"levelo://app?vid=f7d364a3-2ce5-445d-a36e-9f56c330997b"},"vehicle_type_id":"4","last_reported":1777579455,"current_range_meters":9200,"station_id":"ce4bhg12rcd13ifvqf60","pricing_plan_id":"cebpf4jnsgd1na2vs0mg"},{"bike_id":"1975b9f9-37c8-4c55-b3d2-4f1a0d162ed9","system_id":"levelo_inurba_marseille","lat":43.2447,"lon":5.42543,"is_reserved":false,"is_disabled":false,"rental_uris":{"android":"levelo://app?vid=1975b9f9-37c8-4c55-b3d2-4f1a0d162ed9","ios":"levelo://app?vid=1975b9f9-37c8-4c55-b3d2-4f1a0d162ed9"},"vehicle_type_id":"4","last_reported":1777579455,"current_range_meters":9200,"station_id":"st_d4a3vfp97mjs738cd8kg","pricing_plan_id":"cebpf4jnsgd1na2vs0mg"},{"bike_id":"423ab3b0-348f-4934-a61e-0af0a38bab68","system_id":"levelo_inurba_marseille","lat":43.3081,"lon":5.38138,"is_reserved":false,"is_disabled":false,"rental_uris":{"android":"levelo://app?vid=423ab3b0-348f-4934-a61e-0af0a38bab68","ios":"levelo://app?vid=423ab3b0-348f-4934-a61e-0af0a38bab68"},"vehicle_type_id":"4","last_reported":1777579455,"current_range_meters":9200,"station_id":"ce4bgt12rcd13ifvqce0","pricing_plan_id":"cebpf4jnsgd1na2vs0mg"},{"bike_id":"f31c82ad-54b9-411b-8f00-42a80df382c6","system_id":"levelo_inurba_marseille","lat":43.30349,"lon":5.41894,"is_reserved":false,"is_disabled":true,"rental_uris":{"android":"levelo://app?vid=f31c82ad-54b9-411b-8f00-42a80df382c6","ios":"levelo://app?vid=f31c82ad-54b9-411b-8f00-42a80df382c6"},"vehicle_type_id":"4","last_reported":1777579455,"current_range_meters":9200,"station_id":"ce4bhop2rcd13ifvqh7g","pricing_plan_id":"cebpf4jnsgd1na2vs0mg"},{"bike_id":"fdfe4582-d4e9-435b-a504-60aa6d6ba3e2","system_id":"levelo_inurba_marseille","lat":43.27397,"lon":5.3628,"is_reserved":false,"is_disabled":false,"rental_uris":{"android":"levelo://app?vid=fdfe4582-d4e9-435b-a504-60aa6d6ba3e2","ios":"levelo://app?vid=fdfe4582-d4e9-435b-a504-60aa6d6ba3e2"},"vehicle_type_id":"4","last_reported":1777579455,"current_range_meters":9200,"station_id":"ce4bhbh2rcd13ifvqeo0","pricing_plan_id":"cebpf4jnsgd1na2vs0mg"},{"bike_id":"c12385b6-d673-4982-bd4f-f7be2413ea34","system_id":"levelo_inurba_marseille","lat":43.29019,"lon":5.35662,"is_reserved":false,"is_disabled":false,"rental_uris":{"android":"levelo://app?vid=c12385b6-d673-4982-bd4f-f7be2413ea34","ios":"levelo://app?vid=c12385b6-d673-4982-bd4f-f7be2413ea34"},"vehicle_type_id":"4","last_reported":1777579455,"current_range_meters":9200,"station_id":"ce4bhb92rcd13ifvqen0","pricing_plan_id":"cebpf4jnsgd1na2vs0mg"},{"bike_id":"a844376f-c1df-4fda-85d7-08848a70bf3c","system_id":"levelo_inurba_marseille","lat":43.33529,"lon":5.3748,"is_reserved":false,"is_disabled":false,"rental_uris":{"android":"levelo://app?vid=a844376f-c1df-4fda-85d7-08848a70bf3c","ios":"levelo://app?vid=a844376f-c1df-4fda-85d7-08848a70bf3c"},"vehicle_type_id":"4","last_reported":1777579455,"current_range_meters":9200,"station_id":"st_d46tts09ee8s73dlu43g","pricing_plan_id":"cebpf4jnsgd1na2vs0mg"},{"bike_id":"9810c688-dd4d-4380-adc9-9557450d055b","system_id":"levelo_inurba_marseille","lat":43.28475,"lon":5.484,"is_reserved":false,"is_disabled":false,"rental_uris":{"android":"levelo://app?vid=9810c688-dd4d-4380-adc9-9557450d055b","ios":"levelo://app?vid=9810c688-dd4d-4380-adc9-9557450d055b"},"vehicle_type_id":"4","last_reported":1777579455,"current_range_meters":9200,"station_id":"st_d3svhcjqgbts73a3dn0g","pricing_plan_id":"cebpf4jnsgd1na2vs0mg"},{"bike_id":"a3350b30-0aaa-4f79-8d45-f8966b80ca0a","system_id":"levelo_inurba_marseille","lat":43.30945,"lon":5.39035,"is_reserved":false,"is_disabled":false,"rental_uris":{"android":"levelo://app?vid=a3350b30-0aaa-4f79-8d45-f8966b80ca0a","ios":"levelo://app?vid=a3350b30-0aaa-4f79-8d45-f8966b80ca0a"},"vehicle_type_id":"4","last_reported":1777579455,"current_range_meters":9200,"station_id":"ce4bgup2rcd13ifvqco0","pricing_plan_id":"cebpf4jnsgd1na2vs0mg"},{"bike_id":"e6c8a65e-5ae3-419a-be6f-e51d08baa253","system_id":"levelo_inurba_marseille","lat":43.29553,"lon":5.3854,"is_reserved":false,"is_disabled":false,"rental_uris":{"android":"levelo://app?vid=e6c8a65e-5ae3-419a-be6f-e51d08baa253","ios":"levelo://app?vid=e6c8a65e-5ae3-419a-be6f-e51d08baa253"},"vehicle_type_id":"4","last_reported":1777579455,"current_range_meters":9200,"station_id":"ce4bgih2rcd13ifvqba0","pricing_plan_id":"cebpf4jnsgd1na2vs0mg"},{"bike_id":"fb6ba805-0c74-4266-bd8c-7b3eb191bce0","system_id":"levelo_inurba_marseille","lat":43.30954,"lon":5.39035,"is_reserved":false,"is_disabled":false,"rental_uris":{"android":"levelo://app?vid=fb6ba805-0c74-4266-bd8c-7b3eb191bce0","ios":"levelo://app?vid=fb6ba805-0c74-4266-bd8c-7b3eb191bce0"},"vehicle_type_id":"4","last_reported":1777579455,"current_range_meters":9200,"station_id":"ce4bgup2rcd13ifvqco0","pricing_plan_id":"cebpf4jnsgd1na2vs0mg"},{"bike_id":"e3cd2e32-5489-48dd-ab2c-60c8d20fe2a7","system_id":"levelo_inurba_marseille","lat":43.2558,"lon":5.38219,"is_reserved":false,"is_disabled":false,"rental_uris":{"android":"levelo://app?vid=e3cd2e32-5489-48dd-ab2c-60c8d20fe2a7","ios":"levelo://app?vid=e3cd2e32-5489-48dd-ab2c-60c8d20fe2a7"},"vehicle_type_id":"4","last_reported":1777579455,"current_range_meters":9600,"station_id":"ce4bhih2rcd13ifvqfs0","pricing_plan_id":"cebpf4jnsgd1na2vs0mg"},{"bike_id":"565b42f6-6383-487b-a6c9-839839d7b504","system_id":"levelo_inurba_marseille","lat":43.22533,"lon":5.34827,"is_reserved":false,"is_disabled":false,"rental_uris":{"android":"levelo://app?vid=565b42f6-6383-487b-a6c9-839839d7b504","ios":"levelo://app?vid=565b42f6-6383-487b-a6c9-839839d7b504"},"vehicle_type_id":"4","last_reported":1777579455,"current_range_meters":9600,"station_id":"st_cvj5dfep6f1abm77gieg","pricing_plan_id":"cebpf4jnsgd1na2vs0mg"},{"bike_id":"a784a086-3324-46c8-be7b-7913abd8c54d","system_id":"levelo_inurba_marseille","lat":43.29334,"lon":5.37131,"is_reserved":false,"is_disabled":false,"rental_uris":{"android":"levelo://app?vid=a784a086-3324-46c8-be7b-7913abd8c54d","ios":"levelo://app?vid=a784a086-3324-46c8-be7b-7913abd8c54d"},"vehicle_type_id":"4","last_reported":1777579455,"current_range_meters":9600,"station_id":"ce4bgh92rcd13ifvqb40","pricing_plan_id":"cebpf4jnsgd1na2vs0mg"},{"bike_id":"91c09f87-2437-4b42-82ce-2d1bb0b30df0","system_id":"levelo_inurba_marseille","lat":43.21744,"lon":5.34612,"is_reserved":false,"is_disabled":false,"rental_uris":{"android":"levelo://app?vid=91c09f87-2437-4b42-82ce-2d1bb0b30df0","ios":"levelo://app?vid=91c09f87-2437-4b42-82ce-2d1bb0b30df0"},"vehicle_type_id":"4","last_reported":1777579455,"current_range_meters":9600,"station_id":"st_cvj6r9ubvosntc0bgbag","pricing_plan_id":"cebpf4jnsgd1na2vs0mg"},{"bike_id":"2447f289-f31f-42ac-960c-0df77fa0f0e7","system_id":"levelo_inurba_marseille","lat":43.27424,"lon":5.41152,"is_reserved":false,"is_disabled":false,"rental_uris":{"android":"levelo://app?vid=2447f289-f31f-42ac-960c-0df77fa0f0e7","ios":"levelo://app?vid=2447f289-f31f-42ac-960c-0df77fa0f0e7"},"vehicle_type_id":"4","last_reported":1777579455,"current_range_meters":9600,"station_id":"","pricing_plan_id":"cebpf4jnsgd1na2vs0mg"},