{"last_updated":1740240559,"ttl":60,"version":"2.2","data":{"bikes":[{"bike_id":"2d203d3b-b9be-4543-95f1-da2e41576b3b","system_id":"levelo_inurba_marseille","lat":43.29531,"lon":5.37511,"is_reserved":false,"is_disabled":false,"rental_uris":{"android":"levelo://app?vid=2d203d3b-b9be-4543-95f1-da2e41576b3b","ios":"levelo://app?vid=2d203d3b-b9be-4543-95f1-da2e41576b3b"},"vehicle_type_id":"4","last_reported":1740240559,"current_range_meters":2800,"station_id":"ce4bgkp2rcd13ifvqbmg","pricing_plan_id":"cebpf4jnsgd1na2vs0mg"},{"bike_id":"20a65c62-e969-474b-a8ec-b1054e5420cf","system_id":"levelo_inurba_marseille","lat":43.27372,"lon":5.36255,"is_reserved":false,"is_disabled":true,"rental_uris":{"android":"levelo://app?vid=20a65c62-e969-474b-a8ec-b1054e5420cf","ios":"levelo://app?vid=20a65c62-e969-474b-a8ec-b1054e5420cf"},"vehicle_type_id":"4","last_reported":1740240559,"current_range_meters":2800,"station_id":"ce4bhbh2rcd13ifvqeo0","pricing_plan_id":"cebpf4jnsgd1na2vs0mg"},{"bike_id":"26cb49ca-b598-4306-984b-7d892e21bd63","system_id":"levelo_inurba_marseille","lat":43.24811,"lon":5.37468,"is_reserved":false,"is_disabled":false,"rental_uris":{"android":"levelo://app?vid=26cb49ca-b598-4306-984b-7d892e21bd63","ios":"levelo://app?vid=26cb49ca-b598-4306-984b-7d892e21bd63"},"vehicle_type_id":"4","last_reported":1740240559,"current_range_meters":3200,"station_id":"ce4bhgh2rcd13ifvqfb0","pricing_plan_id":"cebpf4jnsgd1na2vs0mg"},{"bike_id":"df046cfd-92c0-47c7-a278-e10d26f45f35","system_id":"levelo_inurba_marseille","lat":43.24816,"lon":5.37455,"is_reserved":false,"is_disabled":false,"rental_uris":{"android":"levelo://app?vid=df046cfd-92c0-47c7-a278-e10d26f45f35","ios":"levelo://app?vid=df046cfd-92c0-47c7-a278-e10d26f45f35"},"vehicle_type_id":"4","last_reported":1740240559,"current_range_meters":3200,"station_id":"ce4bhgh2rcd13ifvqfb0","pricing_plan_id":"cebpf4jnsgd1na2vs0mg"},{"bike_id":"638dd975-5266-451d-b7e5-6ebd9b2adbd3","system_id":"levelo_inurba_marseille","lat":43.24684,"lon":5.38155,"is_reserved":false,"is_disabled":false,"rental_uris":{"android":"levelo://app?vid=638dd975-5266-451d-b7e5-6ebd9b2adbd3","ios":"levelo://app?vid=638dd975-5266-451d-b7e5-6ebd9b2adbd3"},"vehicle_type_id":"4","last_reported":1740240559,"current_range_meters":3600,"station_id":"ce4bhih2rcd13ifvqfr0","pricing_plan_id":"cebpf4jnsgd1na2vs0mg"},{"bike_id":"c6a33ac1-a62f-47f6-86dd-f4b18bfd1b02","system_id":"levelo_inurba_marseille","lat":43.30421,"lon":5.41281,"is_reserved":false,"is_disabled":false,"rental_uris":{"android":"levelo://app?vid=c6a33ac1-a62f-47f6-86dd-f4b18bfd1b02","ios":"levelo://app?vid=c6a33ac1-a62f-47f6-86dd-f4b18bfd1b02"},"vehicle_type_id":"4","last_reported":1740240559,"current_range_meters":4000,"station_id":"ce4bhop2rcd13ifvqh8g","pricing_plan_id":"cebpf4jnsgd1na2vs0mg"},{"bike_id":"7c8f3d05-5401-4545-847e-9fcee9ea83d5","system_id":"levelo_inurba_marseille","lat":43.26571,"lon":5.39876,"is_reserved":false,"is_disabled":false,"rental_uris":{"android":"levelo://app?vid=7c8f3d05-5401-4545-847e-9fcee9ea83d5","ios":"levelo://app?vid=7c8f3d05-5401-4545-847e-9fcee9ea83d5"},"vehicle_type_id":"4","last_reported":1740240559,"current_range_meters":4000,"station_id":"","pricing_plan_id":"cebpf4jnsgd1na2vs0mg"},{"bike_id":"9d8fad78-cc67-434a-95cb-d67883a27ec7","system_id":"levelo_inurba_marseille","lat":43.26792,"lon":5.39415,"is_reserved":false,"is_disabled":false,"rental_uris":{"android":"levelo://app?vid=9d8fad78-cc67-434a-95cb-d67883a27ec7","ios":"levelo://app?vid=9d8fad78-cc67-434a-95cb-d67883a27ec7"},"vehicle_type_id":"4","last_reported":1740240559,"current_range_meters":4000,"station_id":"ce4bhh12rcd13ifvqfg0","pricing_plan_id":"cebpf4jnsgd1na2vs0mg"},{"bike_id":"d0386847-89a5-48f6-8c65-4f1d9fc4d37c","system_id":"levelo_inurba_marseille","lat":43.26788,"lon":5.39417,"is_reserved":false,"is_disabled":false,"rental_uris":{"android":"levelo://app?vid=d0386847-89a5-48f6-8c65-4f1d9fc4d37c","ios":"levelo://app?vid=d0386847-89a5-48f6-8c65-4f1d9fc4d37c"},"vehicle_type_id":"4","last_reported":1740240559,"current_range_meters":4000,"station_id":"ce4bhh12rcd13ifvqfg0","pricing_plan_id":"cebpf4jnsgd1na2vs0mg"},{"bike_id":"95b2d066-cb0b-463f-b7c4-3c12bdd74d4d","system_id":"levelo_inurba_marseille","lat":43.239664,"lon":5.3663,"is_reserved":false,"is_disabled":false,"rental_uris":{"android":"levelo://app?vid=95b2d066-cb0b-463f-b7c4-3c12bdd74d4d","ios":"levelo://app?vid=95b2d066-cb0b-463f-b7c4-3c12bdd74d4d"},"vehicle_type_id":"4","last_reported":1740240559,"current_range_meters":4400,"station_id":"ce4bhi12rcd13ifvqfp0","pricing_plan_id":"cebpf4jnsgd1na2vs0mg"},{"bike_id":"f752fd23-988d-4935-90ea-b22ccec8efdb","system_id":"levelo_inurba_marseille","lat":43.29682,"lon":5.37302,"is_reserved":false,"is_disabled":false,"rental_uris":{"android":"levelo://app?vid=f752fd23-988d-4935-90ea-b22ccec8efdb","ios":"levelo://app?vid=f752fd23-988d-4935-90ea-b22ccec8efdb"},"vehicle_type_id":"4","last_reported":1740240559,"current_range_meters":4400,"station_id":"ce4bgk12rcd13ifvqbj0","pricing_plan_id":"cebpf4jnsgd1na2vs0mg"},{"bike_id":"18f267ca-7ba1-4130-8f18-573517aa0006","system_id":"levelo_inurba_marseille","lat":43.30929,"lon":5.40148,"is_reserved":false,"is_disabled":false,"rental_uris":{"android":"levelo://app?vid=18f267ca-7ba1-4130-8f18-573517aa0006","ios":"levelo://app?vid=18f267ca-7ba1-4130-8f18-573517aa0006"},"vehicle_type_id":"4","last_reported":1740240559,"current_range_meters":4400,"station_id":"ce4bgvp2rcd13ifvqct0","pricing_plan_id":"cebpf4jnsgd1na2vs0mg"},{"bike_id":"4e83f67f-2d8e-40ee-921e-52b24287925f","system_id":"levelo_inurba_marseille","lat":43.31121,"lon":5.37772,"is_reserved":false,"is_disabled":false,"rental_uris":{"android":"levelo://app?vid=4e83f67f-2d8e-40ee-921e-52b24287925f","ios":"levelo://app?vid=4e83f67f-2d8e-40ee-921e-52b24287925f"},"vehicle_type_id":"4","last_reported":1740240559,"current_range_meters":4800,"station_id":"ce4bgt92rcd13ifvqcg0","pricing_plan_id":"cebpf4jnsgd1na2vs0mg"},{"bike_id":"c428a377-df4a-4d69-8d27-1884b3e34b58","system_id":"levelo_inurba_marseille","lat":43.23153,"lon":5.43705,"is_reserved":false,"is_disabled":false,"rental_uris":{"android":"levelo://app?vid=c428a377-df4a-4d69-8d27-1884b3e34b58","ios":"levelo://app?vid=c428a377-df4a-4d69-8d27-1884b3e34b58"},"vehicle_type_id":"4","last_reported":1740240559,"current_range_meters":5600,"station_id":"ce4bhmp2rcd13ifvqgog","pricing_plan_id":"cebpf4jnsgd1na2vs0mg"},{"bike_id":"88ee9b70-2b45-48e1-ac4f-b1b43153d2b0","system_id":"levelo_inurba_marseille","lat":43.22926,"lon":5.35366,"is_reserved":false,"is_disabled":false,"rental_uris":{"android":"levelo://app?vid=88ee9b70-2b45-48e1-ac4f-b1b43153d2b0","ios":"levelo://app?vid=88ee9b70-2b45-48e1-ac4f-b1b43153d2b0"},"vehicle_type_id":"4","last_reported":1740240559,"current_range_meters":5600,"station_id":"cpo3532slgdg3j2ikp40","pricing_plan_id":"cebpf4jnsgd1na2vs0mg"},{"bike_id":"9b1307b4-b631-4e5f-9bdc-6bcfa2f7b993","system_id":"levelo_inurba_marseille","lat":43.29268,"lon":5.36844,"is_reserved":false,"is_disabled":false,"rental_uris":{"android":"levelo://app?vid=9b1307b4-b631-4e5f-9bdc-6bcfa2f7b993","ios":"levelo://app?vid=9b1307b4-b631-4e5f-9bdc-6bcfa2f7b993"},"vehicle_type_id":"4","last_reported":1740240559,"current_range_meters":6400,"station_id":"ce4bhbp2rcd13ifvqesg","pricing_plan_id":"cebpf4jnsgd1na2vs0mg"},{"bike_id":"11fe4f0e-367d-41de-a224-0720a774a770","system_id":"levelo_inurba_marseille","lat":43.23059,"lon":5.35493,"is_reserved":false,"is_disabled":false,"rental_uris":{"android":"levelo://app?vid=11fe4f0e-367d-41de-a224-0720a774a770","ios":"levelo://app?vid=11fe4f0e-367d-41de-a224-0720a774a770"},"vehicle_type_id":"4","last_reported":1740240559,"current_range_meters":6400,"station_id":"cpo3342slgdg3j2ifvpg","pricing_plan_id":"cebpf4jnsgd1na2vs0mg"},{"bike_id":"d86d682c-273f-4d89-81ff-af6ea1dd0f03","system_id":"levelo_inurba_marseille","lat":43.29554,"lon":5.42301,"is_reserved":false,"is_disabled":false,"rental_uris":{"android":"levelo://app?vid=d86d682c-273f-4d89-81ff-af6ea1dd0f03","ios":"levelo://app?vid=d86d682c-273f-4d89-81ff-af6ea1dd0f03"},"vehicle_type_id":"4","last_reported":1740240559,"current_range_meters":6400,"station_id":"ce4bhph2rcd13ifvqhdg","pricing_plan_id":"cebpf4jnsgd1na2vs0mg"},{"bike_id":"f3feea2e-5bf7-41f6-a6d2-c494ec11d6a2","system_id":"levelo_inurba_marseille","lat":43.230658,"lon":5.354909,"is_reserved":false,"is_disabled":false,"rental_uris":{"android":"levelo://app?vid=f3feea2e-5bf7-41f6-a6d2-c494ec11d6a2","ios":"levelo://app?vid=f3feea2e-5bf7-41f6-a6d2-c494ec11d6a2"},"vehicle_type_id":"4","last_reported":1740240559,"current_range_meters":6400,"station_id":"cpo3342slgdg3j2ifvpg","pricing_plan_id":"cebpf4jnsgd1na2vs0mg"},{"bike_id":"6a59736f-af99-4a37-9432-a7544eac55c7","system_id":"levelo_inurba_marseille","lat":43.297199,"lon":5.376897,"is_reserved":false,"is_disabled":false,"rental_uris":{"android":"levelo://app?vid=6a59736f-af99-4a37-9432-a7544eac55c7","ios":"levelo://app?vid=6a59736f-af99-4a37-9432-a7544eac55c7"},"vehicle_type_id":"4","last_reported":1740240559,"current_range_meters":6400,"station_id":"ce4bgkh2rcd13ifvqbl0","pricing_plan_id":"cebpf4jnsgd1na2vs0mg"},{"bike_id":"f1a7f56e-d8e7-4807-80bc-2f4b45225a32","system_id":"levelo_inurba_marseille","lat":43.30142,"lon":5.38072,"is_reserved":false,"is_disabled":false,"rental_uris":{"android":"levelo://app?vid=f1a7f56e-d8e7-4807-80bc-2f4b45225a32","ios":"levelo://app?vid=f1a7f56e-d8e7-4807-80bc-2f4b45225a32"},"vehicle_type_id":"4","last_reported":1740240559,"current_range_meters":6800,"station_id":"ce4bgjp2rcd13ifvqbh0","pricing_plan_id":"cebpf4jnsgd1na2vs0mg"},{"bike_id":"646b5cae-2afa-416c-8287-2abe42f0a681","system_id":"levelo_inurba_marseille","lat":43.30413,"lon":5.41292,"is_reserved":false,"is_disabled":false,"rental_uris":{"android":"levelo://app?vid=646b5cae-2afa-416c-8287-2abe42f0a681","ios":"levelo://app?vid=646b5cae-2afa-416c-8287-2abe42f0a681"},"vehicle_type_id":"4","last_reported":1740240559,"current_range_meters":6800,"station_id":"ce4bhop2rcd13ifvqh8g","pricing_plan_id":"cebpf4jnsgd1na2vs0mg"},{"bike_id":"aff4453c-fc21-4915-8c0d-85217dda8376","system_id":"levelo_inurba_marseille","lat":43.29622,"lon":5.40554,"is_reserved":false,"is_disabled":false,"rental_uris":{"android":"levelo://app?vid=aff4453c-fc21-4915-8c0d-85217dda8376","ios":"levelo://app?vid=aff4453c-fc21-4915-8c0d-85217dda8376"},"vehicle_type_id":"4","last_reported":1740240559,"current_range_meters":6800,"station_id":"ce4bhpp2rcd13ifvqhfg","pricing_plan_id":"cebpf4jnsgd1na2vs0mg"},{"bike_id":"11e0d7fc-9772-4bcd-a867-ea834dbebdc0","system_id":"levelo_inurba_marseille","lat":43.29263,"lon":5.38433,"is_reserved":false,"is_disabled":false,"rental_uris":{"android":"levelo://app?vid=11e0d7fc-9772-4bcd-a867-ea834dbebdc0","ios":"levelo://app?vid=11e0d7fc-9772-4bcd-a867-ea834dbebdc0"},"vehicle_type_id":"4","last_reported":1740240559,"current_range_meters":6800,"station_id":"ce4bh692rcd13ifvqea0","pricing_plan_id":"cebpf4jnsgd1na2vs0mg"},{"bike_id":"edd8c9ee-a9d8-455e-b437-190be10f5489","system_id":"levelo_inurba_marseille","lat":43.29223,"lon":5.36083,"is_reserved":false,"is_disabled":false,"rental_uris":{"android":"levelo://app?vid=edd8c9ee-a9d8-455e-b437-190be10f5489","ios":"levelo://app?vid=edd8c9ee-a9d8-455e-b437-190be10f5489"},"vehicle_type_id":"4","last_reported":1740240559,"current_range_meters":6800,"station_id":"ce4bhbh2rcd13ifvqeqg","pricing_plan_id":"cebpf4jnsgd1na2vs0mg"},{"bike_id":"fbe67b56-53a3-4dc1-b4de-889b04f1a221","system_id":"levelo_inurba_marseille","lat":43.2737,"lon":5.36251,"is_reserved":false,"is_disabled":false,"rental_uris":{"android":"levelo://app?vid=fbe67b56-53a3-4dc1-b4de-889b04f1a221","ios":"levelo://app?vid=fbe67b56-53a3-4dc1-b4de-889b04f1a221"},"vehicle_type_id":"4","last_reported":1740240559,"current_range_meters":6800,"station_id":"ce4bhbh2rcd13ifvqeo0","pricing_plan_id":"cebpf4jnsgd1na2vs0mg"},{"bike_id":"def726d5-4740-459b-8a4d-4b3858095065","system_id":"levelo_inurba_marseille","lat":43.24815,"lon":5.37452,"is_reserved":false,"is_disabled":false,"rental_uris":{"android":"levelo://app?vid=def726d5-4740-459b-8a4d-4b3858095065","ios":"levelo://app?vid=def726d5-4740-459b-8a4d-4b3858095065"},"vehicle_type_id":"4","last_reported":1740240559,"current_range_meters":6800,"station_id":"ce4bhgh2rcd13ifvqfb0","pricing_plan_id":"cebpf4jnsgd1na2vs0mg"},{"bike_id":"a796ac80-1911-4214-a458-24bc9f421151","system_id":"levelo_inurba_marseille","lat":43.31312,"lon":5.37347,"is_reserved":false,"is_disabled":false,"rental_uris":{"android":"levelo://app?vid=a796ac80-1911-4214-a458-24bc9f421151","ios":"levelo://app?vid=a796ac80-1911-4214-a458-24bc9f421151"},"vehicle_type_id":"4","last_reported":1740240559,"current_range_meters":6800,"station_id":"","pricing_plan_id":"cebpf4jnsgd1na2vs0mg"},{"bike_id":"3ce46cd5-a627-4100-9045-03f31187d742","system_id":"levelo_inurba_marseille","lat":43.3133,"lon":5.39682,"is_reserved":false,"is_disabled":false,"rental_uris":{"android":"levelo://app?vid=3ce46cd5-a627-4100-9045-03f31187d742","ios":"levelo://app?vid=3ce46cd5-a627-4100-9045-03f31187d742"},"vehicle_type_id":"4","last_reported":1740240559,"current_range_meters":6800,"station_id":"ce4bgvp2rcd13ifvqcu0","pricing_plan_id":"cebpf4jnsgd1na2vs0mg"},{"bike_id":"54392dcf-9098-4ade-a5f9-07d42853ec29","system_id":"levelo_inurba_marseille","lat":43.23959,"lon":5.36639,"is_reserved":false,"is_disabled":false,"rental_uris":{"android":"levelo://app?vid=54392dcf-9098-4ade-a5f9-07d42853ec29","ios":"levelo://app?vid=54392dcf-9098-4ade-a5f9-07d42853ec29"},"vehicle_type_id":"4","last_reported":1740240559,"current_range_meters":6800,"station_id":"ce4bhi12rcd13ifvqfp0","pricing_plan_id":"cebpf4jnsgd1na2vs0mg"},{"bike_id":"2b8d73ad-5137-4320-bf7a-9fcaea6cd84f","system_id":"levelo_inurba_marseille","lat":43.27991,"lon":5.40013,"is_reserved":false,"is_disabled":false,"rental_uris":{"android":"levelo://app?vid=2b8d73ad-5137-4320-bf7a-9fcaea6cd84f","ios":"levelo://app?vid=2b8d73ad-5137-4320-bf7a-9fcaea6cd84f"},"vehicle_type_id":"4","last_reported":1740240559,"current_range_meters":7200,"station_id":"ce4bho92rcd13ifvqh4g","pricing_plan_id":"cebpf4jnsgd1na2vs0mg"},{"bike_id":"2c5430a7-3583-4ae1-abd7-31976bb7717c","system_id":"levelo_inurba_marseille","lat":43.30366,"lon":5.41887,"is_reserved":false,"is_disabled":false,"rental_uris":{"android":"levelo://app?vid=2c5430a7-3583-4ae1-abd7-31976bb7717c","ios":"levelo://app?vid=2c5430a7-3583-4ae1-abd7-31976bb7717c"},"vehicle_type_id":"4","last_reported":1740240559,"current_range_meters":7200,"station_id":"ce4bhop2rcd13ifvqh7g","pricing_plan_id":"cebpf4jnsgd1na2vs0mg"},{"bike_id":"1aeecf07-7b84-480a-ab47-d115946bd5cb","system_id":"levelo_inurba_marseille","lat":43.25004,"lon":5.38925,"is_reserved":false,"is_disabled":false,"rental_uris":{"android":"levelo://app?vid=1aeecf07-7b84-480a-ab47-d115946bd5cb","ios":"levelo://app?vid=1aeecf07-7b84-480a-ab47-d115946bd5cb"},"vehicle_type_id":"4","last_reported":1740240559,"current_range_meters":8000,"station_id":"ce4bhgp2rcd13ifvqfd0","pricing_plan_id":"cebpf4jnsgd1na2vs0mg"},{"bike_id":"b40a0d83-dd70-46fb-ab73-042dd5d14474","system_id":"levelo_inurba_marseille","lat":43.28614,"lon":5.370513,"is_reserved":false,"is_disabled":false,"rental_uris":{"android":"levelo://app?vid=b40a0d83-dd70-46fb-ab73-042dd5d14474","ios":"levelo://app?vid=b40a0d83-dd70-46fb-ab73-042dd5d14474"},"vehicle_type_id":"4","last_reported":1740240559,"current_range_meters":8000,"station_id":"ce4bht12rcd13ifvqi60","pricing_plan_id":"cebpf4jnsgd1na2vs0mg"},{"bike_id":"6aafab1c-b1fd-4bbd-a318-89366250d32c","system_id":"levelo_inurba_marseille","lat":43.30357,"lon":5.41887,"is_reserved":false,"is_disabled":false,"rental_uris":{"android":"levelo://app?vid=6aafab1c-b1fd-4bbd-a318-89366250d32c","ios":"levelo://app?vid=6aafab1c-b1fd-4bbd-a318-89366250d32c"},"vehicle_type_id":"4","last_reported":1740240559,"current_range_meters":8000,"station_id":"ce4bhop2rcd13ifvqh7g","pricing_plan_id":"cebpf4jnsgd1na2vs0mg"},{"bike_id":"15a4faa1-90bd-4f92-9144-3453b6ec35c5","system_id":"levelo_inurba_marseille","lat":43.23056,"lon":5.355,"is_reserved":false,"is_disabled":false,"rental_uris":{"android":"levelo://app?vid=15a4faa1-90bd-4f92-9144-3453b6ec35c5","ios":"levelo://app?vid=15a4faa1-90bd-4f92-9144-3453b6ec35c5"},"vehicle_type_id":"4","last_reported":1740240559,"current_range_meters":8000,"station_id":"cpo3342slgdg3j2ifvpg","pricing_plan_id":"cebpf4jnsgd1na2vs0mg"},{"bike_id":"a47e4dba-f706-4b1f-9179-082fd77b9418","system_id":"levelo_inurba_marseille","lat":43.27221,"lon":5.39186,"is_reserved":false,"is_disabled":false,"rental_uris":{"android":"levelo://app?vid=a47e4dba-f706-4b1f-9179-082fd77b9418","ios":"levelo://app?vid=a47e4dba-f706-4b1f-9179-082fd77b9418"},"vehicle_type_id":"4","last_reported":1740240559,"current_range_meters":8000,"station_id":"ce4bhhp2rcd13ifvqfm0","pricing_plan_id":"cebpf4jnsgd1na2vs0mg"},{"bike_id":"97e60459-cc06-4bc4-9745-231d5e38914b","system_id":"levelo_inurba_marseille","lat":43.2794,"lon":5.41049,"is_reserved":false,"is_disabled":false,"rental_uris":{"android":"levelo://app?vid=97e60459-cc06-4bc4-9745-231d5e38914b","ios":"levelo://app?vid=97e60459-cc06-4bc4-9745-231d5e38914b"},"vehicle_type_id":"4","last_reported":1740240559,"current_range_meters":8000,"station_id":"ce4bhnp2rcd13ifvqh0g","pricing_plan_id":"cebpf4jnsgd1na2vs0mg"},{"bike_id":"943382b3-3ac2-40b7-baae-7ca1aec3b930","system_id":"levelo_inurba_marseille","lat":43.28155,"lon":5.42658,"is_reserved":false,"is_disabled":false,"rental_uris":{"android":"levelo://app?vid=943382b3-3ac2-40b7-baae-7ca1aec3b930","ios":"levelo://app?vid=943382b3-3ac2-40b7-baae-7ca1aec3b930"},"vehicle_type_id":"4","last_reported":1740240559,"current_range_meters":8000,"station_id":"ce4bhnh2rcd13ifvqgug","pricing_plan_id":"cebpf4jnsgd1na2vs0mg"},{"bike_id":"3945878b-e16c-449c-89cd-e0212d50eeeb","system_id":"levelo_inurba_marseille","lat":43.23155,"lon":5.43722,"is_reserved":false,"is_disabled":false,"rental_uris":{"android":"levelo://app?vid=3945878b-e16c-449c-89cd-e0212d50eeeb","ios":"levelo://app?vid=3945878b-e16c-449c-89cd-e0212d50eeeb"},"vehicle_type_id":"4","last_reported":1740240559,"current_range_meters":8000,"station_id":"ce4bhmp2rcd13ifvqgog","pricing_plan_id":"cebpf4jnsgd1na2vs0mg"},{"bike_id":"827ec7e5-1ae5-45b8-890e-b6822ea9bc11","system_id":"levelo_inurba_marseille","lat":43.23964,"lon":5.36639,"is_reserved":false,"is_disabled":false,"rental_uris":{"android":"levelo://app?vid=827ec7e5-1ae5-45b8-890e-b6822ea9bc11","ios":"levelo://app?vid=827ec7e5-1ae5-45b8-890e-b6822ea9bc11"},"vehicle_type_id":"4","last_reported":1740240559,"current_range_meters":8000,"station_id":"ce4bhi12rcd13ifvqfp0","pricing_plan_id":"cebpf4jnsgd1na2vs0mg"},{"bike_id":"035a3f1c-5e0a-4d1b-ac5f-5a4f3b3c7947","system_id":"levelo_inurba_marseille","lat":43.28954,"lon":5.36393,"is_reserved":false,"is_disabled":false,"rental_uris":{"android":"levelo://app?vid=035a3f1c-5e0a-4d1b-ac5f-5a4f3b3c7947","ios":"levelo://app?vid=035a3f1c-5e0a-4d1b-ac5f-5a4f3b3c7947"},"vehicle_type_id":"4","last_reported":1740240559,"current_range_meters":8400,"station_id":"ce4bhc92rcd13ifvqetg","pricing_plan_id":"cebpf4jnsgd1na2vs0mg"},{"bike_id":"3ca90cc6-1089-41ae-8861-2690e24b89b4","system_id":"levelo_inurba_marseille","lat":43.28429,"lon":5.35006,"is_reserved":false,"is_disabled":false,"rental_uris":{"android":"levelo://app?vid=3ca90cc6-1089-41ae-8861-2690e24b89b4","ios":"levelo://app?vid=3ca90cc6-1089-41ae-8861-2690e24b89b4"},"vehicle_type_id":"4","last_reported":1740240559,"current_range_meters":8400,"station_id":"ce4bhbh2rcd13ifvqepg","pricing_plan_id":"cebpf4jnsgd1na2vs0mg"},{"bike_id":"ce0042bc-0158-45a5-b488-6d8e95acbba9","system_id":"levelo_inurba_marseille","lat":43.26228,"lon":5.40453,"is_reserved":false,"is_disabled":false,"rental_uris":{"android":"levelo://app?vid=ce0042bc-0158-45a5-b488-6d8e95acbba9","ios":"levelo://app?vid=ce0042bc-0158-45a5-b488-6d8e95acbba9"},"vehicle_type_id":"4","last_reported":1740240559,"current_range_meters":8400,"station_id":"ce4bhmh2rcd13ifvqgmg","pricing_plan_id":"cebpf4jnsgd1na2vs0mg"},{"bike_id":"6fbaa414-92a0-4187-9152-76572f133d1e","system_id":"levelo_inurba_marseille","lat":43.29608,"lon":5.3774,"is_reserved":false,"is_disabled":false,"rental_uris":{"android":"levelo://app?vid=6fbaa414-92a0-4187-9152-76572f133d1e","ios":"levelo://app?vid=6fbaa414-92a0-4187-9152-76572f133d1e"},"vehicle_type_id":"4","last_reported":1740240559,"current_range_meters":8400,"station_id":"ce4bgi92rcd13ifvqb90","pricing_plan_id":"cebpf4jnsgd1na2vs0mg"},{"bike_id":"70a9f6cd-6f8f-45e9-b247-00a9aec8526a","system_id":"levelo_inurba_marseille","lat":43.26775,"lon":5.39425,"is_reserved":false,"is_disabled":false,"rental_uris":{"android":"levelo://app?vid=70a9f6cd-6f8f-45e9-b247-00a9aec8526a","ios":"levelo://app?vid=70a9f6cd-6f8f-45e9-b247-00a9aec8526a"},"vehicle_type_id":"4","last_reported":1740240559,"current_range_meters":8400,"station_id":"ce4bhh12rcd13ifvqfg0","pricing_plan_id":"cebpf4jnsgd1na2vs0mg"},{"bike_id":"e476bd43-af33-41e1-9538-aafb8788c66c","system_id":"levelo_inurba_marseille","lat":43.27206,"lon":5.3916,"is_reserved":false,"is_disabled":false,"rental_uris":{"android":"levelo://app?vid=e476bd43-af33-41e1-9538-aafb8788c66c","ios":"levelo://app?vid=e476bd43-af33-41e1-9538-aafb8788c66c"},"vehicle_type_id":"4","last_reported":1740240559,"current_range_meters":8400,"station_id":"ce4bhhp2rcd13ifvqfm0","pricing_plan_id":"cebpf4jnsgd1na2vs0mg"},{"bike_id":"ab46b189-6bae-4129-a7fd-10b3ccd5a48e","system_id":"levelo_inurba_marseille","lat":43.27202,"lon":5.39999,"is_reserved":false,"is_disabled":false,"rental_uris":{"android":"levelo://app?vid=ab46b189-6bae-4129-a7fd-10b3ccd5a48e","ios":"levelo://app?vid=ab46b189-6bae-4129-a7fd-10b3ccd5a48e"},"vehicle_type_id":"4","last_reported":1740240559,"current_range_meters":8400,"station_id":"","pricing_plan_id":"cebpf4jnsgd1na2vs0mg"},{"bike_id":"0d597034-3c33-4b3c-bc89-2896c9ee3326","system_id":"levelo_inurba_marseille","lat":43.30215,"lon":5.3946,"is_reserved":false,"is_disabled":false,"rental_uris":{"android":"levelo://app?vid=0d597034-3c33-4b3c-bc89-2896c9ee3326","ios":"levelo://app?vid=0d597034-3c33-4b3c-bc89-2896c9ee3326"},"vehicle_type_id":"4","last_reported":1740240559,"current_range_meters":8400,"station_id":"ce4bh0p2rcd13ifvqd70","pricing_plan_id":"cebpf4jnsgd1na2vs0mg"},{"bike_id":"32cb548e-3f9c-45c3-8ca4-71e2dff11160","system_id":"levelo_inurba_marseille","lat":43.26574,"lon":5.39017,"is_reserved":false,"is_disabled":false,"rental_uris":{"android":"levelo://app?vid=32cb548e-3f9c-45c3-8ca4-71e2dff11160","ios":"levelo://app?vid=32cb548e-3f9c-45c3-8ca4-71e2dff11160"},"vehicle_type_id":"4","last_reported":1740240559,"current_range_meters":8400,"station_id":"ce4bhe12rcd13ifvqf30","pricing_plan_id":"cebpf4jnsgd1na2vs0mg"},{"bike_id":"78b97302-9c59-42d1-a13f-5e8c85841d45","system_id":"levelo_inurba_marseille","lat":43.2656,"lon":5.39028,"is_reserved":false,"is_disabled":false,"rental_uris":{"android":"levelo://app?vid=78b97302-9c59-42d1-a13f-5e8c85841d45","ios":"levelo://app?vid=78b97302-9c59-42d1-a13f-5e8c85841d45"},"vehicle_type_id":"4","last_reported":1740240559,"current_range_meters":8400,"station_id":"ce4bhe12rcd13ifvqf30","pricing_plan_id":"cebpf4jnsgd1na2vs0mg"},{"bike_id":"f32fe46d-1120-4c2c-97c5-cdbf2de4ccec","system_id":"levelo_inurba_marseille","lat":43.259354,"lon":5.408981,"is_reserved":false,"is_disabled":false,"rental_uris":{"android":"levelo://app?vid=f32fe46d-1120-4c2c-97c5-cdbf2de4ccec","ios":"levelo://app?vid=f32fe46d-1120-4c2c-97c5-cdbf2de4ccec"},"vehicle_type_id":"4","last_reported":1740240559,"current_range_meters":8800,"station_id":"ce4bhm92rcd13ifvqglg","pricing_plan_id":"cebpf4jnsgd1na2vs0mg"},{"bike_id":"8ccbc7f6-b927-4209-b4ce-02456ba46034","system_id":"levelo_inurba_marseille","lat":43.23057,"lon":5.35497,"is_reserved":false,"is_disabled":false,"rental_uris":{"android":"levelo://app?vid=8ccbc7f6-b927-4209-b4ce-02456ba46034","ios":"levelo://app?vid=8ccbc7f6-b927-4209-b4ce-02456ba46034"},"vehicle_type_id":"4","last_reported":1740240559,"current_range_meters":8800,"station_id":"cpo3342slgdg3j2ifvpg","pricing_plan_id":"cebpf4jnsgd1na2vs0mg"},{"bike_id":"91cd9c50-a708-4ca7-8c38-9684716b8855","system_id":"levelo_inurba_marseille","lat":43.33783,"lon":5.37424,"is_reserved":false,"is_disabled":false,"rental_uris":{"android":"levelo://app?vid=91cd9c50-a708-4ca7-8c38-9684716b8855","ios":"levelo://app?vid=91cd9c50-a708-4ca7-8c38-9684716b8855"},"vehicle_type_id":"4","last_reported":1740240559,"current_range_meters":8800,"station_id":"","pricing_plan_id":"cebpf4jnsgd1na2vs0mg"},{"bike_id":"a404738f-d592-4923-bb7f-8cad6bf8fec4","system_id":"levelo_inurba_marseille","lat":43.27968,"lon":5.38518,"is_reserved":false,"is_disabled":false,"rental_uris":{"android":"levelo://app?vid=a404738f-d592-4923-bb7f-8cad6bf8fec4","ios":"levelo://app?vid=a404738f-d592-4923-bb7f-8cad6bf8fec4"},"vehicle_type_id":"4","last_reported":1740240559,"current_range_meters":8800,"station_id":"","pricing_plan_id":"cebpf4jnsgd1na2vs0mg"},{"bike_id":"af1107fa-d68e-4f88-b9a9-b5e22ec9744f","system_id":"levelo_inurba_marseille","lat":43.23035,"lon":5.35572,"is_reserved":false,"is_disabled":false,"rental_uris":{"android":"levelo://app?vid=af1107fa-d68e-4f88-b9a9-b5e22ec9744f","ios":"levelo://app?vid=af1107fa-d68e-4f88-b9a9-b5e22ec9744f"},"vehicle_type_id":"4","last_reported":1740240559,"current_range_meters":8800,"station_id":"cpo3342slgdg3j2ifvpg","pricing_plan_id":"cebpf4jnsgd1na2vs0mg"},{"bike_id":"0db9d6b8-2473-4861-8639-e8631268fa84","system_id":"levelo_inurba_marseille","lat":43.2408,"lon":5.3776,"is_reserved":false,"is_disabled":false,"rental_uris":{"android":"levelo://app?vid=0db9d6b8-2473-4861-8639-e8631268fa84","ios":"levelo://app?vid=0db9d6b8-2473-4861-8639-e8631268fa84"},"vehicle_type_id":"4","last_reported":1740240559,"current_range_meters":8400,"station_id":"ce4bhnp2rcd13ifvqgvg","pricing_plan_id":"cebpf4jnsgd1na2vs0mg"},{"bike_id":"d1ac892b-cc7a-4233-8e8f-f3ed24be7e08","system_id":"levelo_inurba_marseille","lat":43.3059,"lon":5.39354,"is_reserved":false,"is_disabled":false,"rental_uris":{"android":"levelo://app?vid=d1ac892b-cc7a-4233-8e8f-f3ed24be7e08","ios":"levelo://app?vid=d1ac892b-cc7a-4233-8e8f-f3ed24be7e08"},"vehicle_type_id":"4","last_reported":1740240559,"current_range_meters":9200,"station_id":"ce4bh0p2rcd13ifvqd80","pricing_plan_id":"cebpf4jnsgd1na2vs0mg"},{"bike_id":"77943846-ec8c-42e0-b226-4fea79f63af0","system_id":"levelo_inurba_marseille","lat":43.29268,"lon":5.40898,"is_reserved":false,"is_disabled":false,"rental_uris":{"android":"levelo://app?vid=77943846-ec8c-42e0-b226-4fea79f63af0","ios":"levelo://app?vid=77943846-ec8c-42e0-b226-4fea79f63af0"},"vehicle_type_id":"4","last_reported":1740240559,"current_range_meters":9200,"station_id":"ce4bh192rcd13ifvqdc0","pricing_plan_id":"cebpf4jnsgd1na2vs0mg"},{"bike_id":"30f5b2fc-9389-446a-b012-574d4d139b4e","system_id":"levelo_inurba_marseille","lat":43.231506,"lon":5.437153,"is_reserved":false,"is_disabled":false,"rental_uris":{"android":"levelo://app?vid=30f5b2fc-9389-446a-b012-574d4d139b4e","ios":"levelo://app?vid=30f5b2fc-9389-446a-b012-574d4d139b4e"},"vehicle_type_id":"4","last_reported":1740240559,"current_range_meters":9200,"station_id":"ce4bhmp2rcd13ifvqgog","pricing_plan_id":"cebpf4jnsgd1na2vs0mg"},{"bike_id":"6a4cd183-067e-4d15-b1a0-84810908b56c","system_id":"levelo_inurba_marseille","lat":43.24807,"lon":5.37462,"is_reserved":false,"is_disabled":false,"rental_uris":{"android":"levelo://app?vid=6a4cd183-067e-4d15-b1a0-84810908b56c","ios":"levelo://app?vid=6a4cd183-067e-4d15-b1a0-84810908b56c"},"vehicle_type_id":"4","last_reported":1740240559,"current_range_meters":9200,"station_id":"ce4bhgh2rcd13ifvqfb0","pricing_plan_id":"cebpf4jnsgd1na2vs0mg"},{"bike_id":"88accd73-9a05-47aa-b910-f8941d11d43a","system_id":"levelo_inurba_marseille","lat":43.2973,"lon":5.37699,"is_reserved":false,"is_disabled":false,"rental_uris":{"android":"levelo://app?vid=88accd73-9a05-47aa-b910-f8941d11d43a","ios":"levelo://app?vid=88accd73-9a05-47aa-b910-f8941d11d43a"},"vehicle_type_id":"4","last_reported":1740240559,"current_range_meters":9200,"station_id":"ce4bgkh2rcd13ifvqbl0","pricing_plan_id":"cebpf4jnsgd1na2vs0mg"},{"bike_id":"6d48938c-9b80-49b7-89e5-950ba7a6ce63","system_id":"levelo_inurba_marseille","lat":43.2593,"lon":5.40908,"is_reserved":false,"is_disabled":false,"rental_uris":{"android":"levelo://app?vid=6d48938c-9b80-49b7-89e5-950ba7a6ce63","ios":"levelo://app?vid=6d48938c-9b80-49b7-89e5-950ba7a6ce63"},"vehicle_type_id":"4","last_reported":1740240559,"current_range_meters":9200,"station_id":"ce4bhm92rcd13ifvqglg","pricing_plan_id":"cebpf4jnsgd1na2vs0mg"},{"bike_id":"9419ac1a-345f-43dc-8e42-566bb080c7d5","system_id":"levelo_inurba_marseille","lat":43.30129,"lon":5.38786,"is_reserved":false,"is_disabled":false,"rental_uris":{"android":"levelo://app?vid=9419ac1a-345f-43dc-8e42-566bb080c7d5","ios":"levelo://app?vid=9419ac1a-345f-43dc-8e42-566bb080c7d5"},"vehicle_type_id":"4","last_reported":1740240559,"current_range_meters":9200,"station_id":"ce4bghh2rcd13ifvqb60","pricing_plan_id":"cebpf4jnsgd1na2vs0mg"},{"bike_id":"e0a27bbe-1017-4673-a93c-ffab63167e8c","system_id":"levelo_inurba_marseille","lat":43.24551,"lon":5.39539,"is_reserved":false,"is_disabled":false,"rental_uris":{"android":"levelo://app?vid=e0a27bbe-1017-4673-a93c-ffab63167e8c","ios":"levelo://app?vid=e0a27bbe-1017-4673-a93c-ffab63167e8c"},"vehicle_type_id":"4","last_reported":1740240559,"current_range_meters":9200,"station_id":"ce4bhlp2rcd13ifvqgjg","pricing_plan_id":"cebpf4jnsgd1na2vs0mg"},{"bike_id":"35331f57-b06c-41f1-8224-4eb3668702eb","system_id":"levelo_inurba_marseille","lat":43.23052,"lon":5.35483,"is_reserved":false,"is_disabled":false,"rental_uris":{"android":"levelo://app?vid=35331f57-b06c-41f1-8224-4eb3668702eb","ios":"levelo://app?vid=35331f57-b06c-41f1-8224-4eb3668702eb"},"vehicle_type_id":"4","last_reported":1740240559,"current_range_meters":9200,"station_id":"cpo3342slgdg3j2ifvpg","pricing_plan_id":"cebpf4jnsgd1na2vs0mg"},{"bike_id":"36405e8a-bb99-4498-a8c2-5cfa31059438","system_id":"levelo_inurba_marseille","lat":43.23075,"lon":5.35485,"is_reserved":false,"is_disabled":false,"rental_uris":{"android":"levelo://app?vid=36405e8a-bb99-4498-a8c2-5cfa31059438","ios":"levelo://app?vid=36405e8a-bb99-4498-a8c2-5cfa31059438"},"vehicle_type_id":"4","last_reported":1740240559,"current_range_meters":9200,"station_id":"cpo3342slgdg3j2ifvpg","pricing_plan_id":"cebpf4jnsgd1na2vs0mg"},{"bike_id":"92e9f651-b5fd-4457-9b3c-4f21d0f64c5a","system_id":"levelo_inurba_marseille","lat":43.28848,"lon":5.39325,"is_reserved":false,"is_disabled":false,"rental_uris":{"android":"levelo://app?vid=92e9f651-b5fd-4457-9b3c-4f21d0f64c5a","ios":"levelo://app?vid=92e9f651-b5fd-4457-9b3c-4f21d0f64c5a"},"vehicle_type_id":"4","last_reported":1740240559,"current_range_meters":9600,"station_id":"ce4bh2p2rcd13ifvqdi0","pricing_plan_id":"cebpf4jnsgd1na2vs0mg"},{"bike_id":"94262292-2113-4325-b526-23a51b3c5546","system_id":"levelo_inurba_marseille","lat":43.23148,"lon":5.43724,"is_reserved":false,"is_disabled":false,"rental_uris":{"android":"levelo://app?vid=94262292-2113-4325-b526-23a51b3c5546","ios":"levelo://app?vid=94262292-2113-4325-b526-23a51b3c5546"},"vehicle_type_id":"4","last_reported":1740240559,"current_range_meters":9600,"station_id":"ce4bhmp2rcd13ifvqgog","pricing_plan_id":"cebpf4jnsgd1na2vs0mg"},{"bike_id":"78ccc1b5-e05d-4c30-bc5b-473f9d97e2cd","system_id":"levelo_inurba_marseille","lat":43.30117,"lon":5.37816,"is_reserved":false,"is_disabled":false,"rental_uris":{"android":"levelo://app?vid=78ccc1b5-e05d-4c30-bc5b-473f9d97e2cd","ios":"levelo://app?vid=78ccc1b5-e05d-4c30-bc5b-473f9d97e2cd"},"vehicle_type_id":"4","last_reported":1740240559,"current_range_meters":9600,"station_id":"","pricing_plan_id":"cebpf4jnsgd1na2vs0mg"},{"bike_id":"098e0578-98c1-4c01-99af-ee5ca3274484","system_id":"levelo_inurba_marseille","lat":43.231804,"lon":5.399885,"is_reserved":false,"is_disabled":false,"rental_uris":{"android":"levelo://app?vid=098e0578-98c1-4c01-99af-ee5ca3274484","ios":"levelo://app?vid=098e0578-98c1-4c01-99af-ee5ca3274484"},"vehicle_type_id":"4","last_reported":1740240559,"current_range_meters":9600,"station_id":"ce4bhn12rcd13ifvqgqg","pricing_plan_id":"cebpf4jnsgd1na2vs0mg"},{"bike_id":"4bc553f5-e4ba-4501-bbb4-5ae52308ccc4","system_id":"levelo_inurba_marseille","lat":43.23196,"lon":5.35553,"is_reserved":false,"is_disabled":false,"rental_uris":{"android":"levelo://app?vid=4bc553f5-e4ba-4501-bbb4-5ae52308ccc4","ios":"levelo://app?vid=4bc553f5-e4ba-4501-bbb4-5ae52308ccc4"},"vehicle_type_id":"4","last_reported":1740240559,"current_range_meters":9600,"station_id":"ce4bhu92rcd13ifvqi70","pricing_plan_id":"cebpf4jnsgd1na2vs0mg"},{"bike_id":"92fe0940-77ac-40fe-832a-c8afa1258e9b","system_id":"levelo_inurba_marseille","lat":43.2481,"lon":5.37459,"is_reserved":false,"is_disabled":false,"rental_uris":{"android":"levelo://app?vid=92fe0940-77ac-40fe-832a-c8afa1258e9b","ios":"levelo://app?vid=92fe0940-77ac-40fe-832a-c8afa1258e9b"},"vehicle_type_id":"4","last_reported":1740240559,"current_range_meters":9600,"station_id":"ce4bhgh2rcd13ifvqfb0","pricing_plan_id":"cebpf4jnsgd1na2vs0mg"},{"bike_id":"99a48ba7-9b0a-435c-acd7-f8b93bf4e266","system_id":"levelo_inurba_marseille","lat":43.23196,"lon":5.35552,"is_reserved":false,"is_disabled":false,"rental_uris":{"android":"levelo://app?vid=99a48ba7-9b0a-435c-acd7-f8b93bf4e266","ios":"levelo://app?vid=99a48ba7-9b0a-435c-acd7-f8b93bf4e266"},"vehicle_type_id":"4","last_reported":1740240559,"current_range_meters":9600,"station_id":"ce4bhu92rcd13ifvqi70","pricing_plan_id":"cebpf4jnsgd1na2vs0mg"},{"bike_id":"1db365c4-4028-4aa4-9d61-383c4b845103","system_id":"levelo_inurba_marseille","lat":43.3087,"lon":5.37194,"is_reserved":false,"is_disabled":false,"rental_uris":{"android":"levelo://app?vid=1db365c4-4028-4aa4-9d61-383c4b845103","ios":"levelo://app?vid=1db365c4-4028-4aa4-9d61-383c4b845103"},"vehicle_type_id":"4","last_reported":1740240559,"current_range_meters":9600,"station_id":"ce4bguh2rcd13ifvqckg","pricing_plan_id":"cebpf4jnsgd1na2vs0mg"},{"bike_id":"b985ad1f-1942-453b-b5eb-7462cafd1e31","system_id":"levelo_inurba_marseille","lat":43.23191,"lon":5.35564,"is_reserved":false,"is_disabled":false,"rental_uris":{"android":"levelo://app?vid=b985ad1f-1942-453b-b5eb-7462cafd1e31","ios":"levelo://app?vid=b985ad1f-1942-453b-b5eb-7462cafd1e31"},"vehicle_type_id":"4","last_reported":1740240559,"current_range_meters":9600,"station_id":"ce4bhu92rcd13ifvqi70","pricing_plan_id":"cebpf4jnsgd1na2vs0mg"},{"bike_id":"5d2d1a8c-deab-4dc2-9082-406187fb677f","system_id":"levelo_inurba_marseille","lat":43.27899,"lon":5.38015,"is_reserved":false,"is_disabled":false,"rental_uris":{"android":"levelo://app?vid=5d2d1a8c-deab-4dc2-9082-406187fb677f","ios":"levelo://app?vid=5d2d1a8c-deab-4dc2-9082-406187fb677f"},"vehicle_type_id":"4","last_reported":1740240559,"current_range_meters":10000,"station_id":"ce4bhf92rcd13ifvqf50","pricing_plan_id":"cebpf4jnsgd1na2vs0mg"},{"bike_id":"2bb354aa-280e-4c96-99d8-037e14d5a438","system_id":"levelo_inurba_marseille","lat":43.33019,"lon":5.39043,"is_reserved":false,"is_disabled":false,"rental_uris":{"android":"levelo://app?vid=2bb354aa-280e-4c96-99d8-037e14d5a438","ios":"levelo://app?vid=2bb354aa-280e-4c96-99d8-037e14d5a438"},"vehicle_type_id":"4","last_reported":1740240559,"current_range_meters":10000,"station_id":"ce4bhr92rcd13ifvqhrg","pricing_plan_id":"cebpf4jnsgd1na2vs0mg"},{"bike_id":"1a3ceab6-ed06-46e5-8f3c-bc79a5dfc649","system_id":"levelo_inurba_marseille","lat":43.26058,"lon":5.39397,"is_reserved":false,"is_disabled":false,"rental_uris":{"android":"levelo://app?vid=1a3ceab6-ed06-46e5-8f3c-bc79a5dfc649","ios":"levelo://app?vid=1a3ceab6-ed06-46e5-8f3c-bc79a5dfc649"},"vehicle_type_id":"4","last_reported":1740240559,"current_range_meters":10000,"station_id":"ce4bhh92rcd13ifvqfj0","pricing_plan_id":"cebpf4jnsgd1na2vs0mg"},{"bike_id":"bfb7b44c-21e9-4f81-ac9a-3fed0362c282","system_id":"levelo_inurba_marseille","lat":43.29533,"lon":5.38541,"is_reserved":false,"is_disabled":false,"rental_uris":{"android":"levelo://app?vid=bfb7b44c-21e9-4f81-ac9a-3fed0362c282","ios":"levelo://app?vid=bfb7b44c-21e9-4f81-ac9a-3fed0362c282"},"vehicle_type_id":"4","last_reported":1740240559,"current_range_meters":10000,"station_id":"ce4bgih2rcd13ifvqba0","pricing_plan_id":"cebpf4jnsgd1na2vs0mg"},{"bike_id":"3c232bab-88ac-4592-9031-c21395fd8a78","system_id":"levelo_inurba_marseille","lat":43.32363,"lon":5.3677,"is_reserved":false,"is_disabled":false,"rental_uris":{"android":"levelo://app?vid=3c232bab-88ac-4592-9031-c21395fd8a78","ios":"levelo://app?vid=3c232bab-88ac-4592-9031-c21395fd8a78"},"vehicle_type_id":"4","last_reported":1740240559,"current_range_meters":10800,"station_id":"ce4bhsh2rcd13ifvqi2g","pricing_plan_id":"cebpf4jnsgd1na2vs0mg"},{"bike_id":"9e34ff94-4206-4d85-a9da-dab3dd759910","system_id":"levelo_inurba_marseille","lat":43.30417,"lon":5.4127,"is_reserved":false,"is_disabled":false,"rental_uris":{"android":"levelo://app?vid=9e34ff94-4206-4d85-a9da-dab3dd759910","ios":"levelo://app?vid=9e34ff94-4206-4d85-a9da-dab3dd759910"},"vehicle_type_id":"4","last_reported":1740240559,"current_range_meters":10800,"station_id":"ce4bhop2rcd13ifvqh8g","pricing_plan_id":"cebpf4jnsgd1na2vs0mg"},{"bike_id":"4f542e78-da3d-4f99-b268-bd72b36f5f31","system_id":"levelo_inurba_marseille","lat":43.29574,"lon":5.39994,"is_reserved":false,"is_disabled":true,"rental_uris":{"android":"levelo://app?vid=4f542e78-da3d-4f99-b268-bd72b36f5f31","ios":"levelo://app?vid=4f542e78-da3d-4f99-b268-bd72b36f5f31"},"vehicle_type_id":"4","last_reported":1740240559,"current_range_meters":10800,"station_id":"ce4bh312rcd13ifvqdj0","pricing_plan_id":"cebpf4jnsgd1na2vs0mg"},{"bike_id":"ba113183-374c-4d98-80f0-8303ec95b01f","system_id":"levelo_inurba_marseille","lat":43.26064,"lon":5.39364,"is_reserved":false,"is_disabled":false,"rental_uris":{"android":"levelo://app?vid=ba113183-374c-4d98-80f0-8303ec95b01f","ios":"levelo://app?vid=ba113183-374c-4d98-80f0-8303ec95b01f"},"vehicle_type_id":"4","last_reported":1740240559,"current_range_meters":11200,"station_id":"ce4bhh92rcd13ifvqfj0","pricing_plan_id":"cebpf4jnsgd1na2vs0mg"},{"bike_id":"53f8fa6b-4cf3-4d67-9f03-2dd3ad24df5d","system_id":"levelo_inurba_marseille","lat":43.22927,"lon":5.35378,"is_reserved":false,"is_disabled":false,"rental_uris":{"android":"levelo://app?vid=53f8fa6b-4cf3-4d67-9f03-2dd3ad24df5d","ios":"levelo://app?vid=53f8fa6b-4cf3-4d67-9f03-2dd3ad24df5d"},"vehicle_type_id":"4","last_reported":1740240559,"current_range_meters":11200,"station_id":"cpo3532slgdg3j2ikp40","pricing_plan_id":"cebpf4jnsgd1na2vs0mg"},{"bike_id":"fcd48428-2720-4891-ae66-28206fe09cba","system_id":"levelo_inurba_marseille","lat":43.31078,"lon":5.3836,"is_reserved":false,"is_disabled":false,"rental_uris":{"android":"levelo://app?vid=fcd48428-2720-4891-ae66-28206fe09cba","ios":"levelo://app?vid=fcd48428-2720-4891-ae66-28206fe09cba"},"vehicle_type_id":"4","last_reported":1740240559,"current_range_meters":11200,"station_id":"ce4bgv92rcd13ifvqcr0","pricing_plan_id":"cebpf4jnsgd1na2vs0mg"},{"bike_id":"a17438de-55cd-44c9-ad2d-09d6549af919","system_id":"levelo_inurba_marseille","lat":43.27624,"lon":5.36109,"is_reserved":false,"is_disabled":false,"rental_uris":{"android":"levelo://app?vid=a17438de-55cd-44c9-ad2d-09d6549af919","ios":"levelo://app?vid=a17438de-55cd-44c9-ad2d-09d6549af919"},"vehicle_type_id":"4","last_reported":1740240559,"current_range_meters":11200,"station_id":"ce4bgj92rcd13ifvqbe0","pricing_plan_id":"cebpf4jnsgd1na2vs0mg"},{"bike_id":"9c4f6937-2b4d-4605-9b98-27232e029050","system_id":"levelo_inurba_marseille","lat":43.32365,"lon":5.38893,"is_reserved":false,"is_disabled":false,"rental_uris":{"android":"levelo://app?vid=9c4f6937-2b4d-4605-9b98-27232e029050","ios":"levelo://app?vid=9c4f6937-2b4d-4605-9b98-27232e029050"},"vehicle_type_id":"4","last_reported":1740240559,"current_range_meters":11600,"station_id":"ce4bhqp2rcd13ifvqhog","pricing_plan_id":"cebpf4jnsgd1na2vs0mg"},{"bike_id":"1d0ddcc5-bdca-48c0-a7ae-2f56a55c2f8f","system_id":"levelo_inurba_marseille","lat":43.30406,"lon":5.41288,"is_reserved":false,"is_disabled":false,"rental_uris":{"android":"levelo://app?vid=1d0ddcc5-bdca-48c0-a7ae-2f56a55c2f8f","ios":"levelo://app?vid=1d0ddcc5-bdca-48c0-a7ae-2f56a55c2f8f"},"vehicle_type_id":"4","last_reported":1740240559,"current_range_meters":11600,"station_id":"ce4bhop2rcd13ifvqh8g","pricing_plan_id":"cebpf4jnsgd1na2vs0mg"},{"bike_id":"fb8ca528-5f93-4a4b-bada-5a776fa48deb","system_id":"levelo_inurba_marseille","lat":43.28933,"lon":5.36641,"is_reserved":false,"is_disabled":false,"rental_uris":{"android":"levelo://app?vid=fb8ca528-5f93-4a4b-bada-5a776fa48deb","ios":"levelo://app?vid=fb8ca528-5f93-4a4b-bada-5a776fa48deb"},"vehicle_type_id":"4","last_reported":1740240559,"current_range_meters":11600,"station_id":"ce4bhap2rcd13ifvqek0","pricing_plan_id":"cebpf4jnsgd1na2vs0mg"},{"bike_id":"42053fc4-36ef-47fc-9435-719ca9c9aa9b","system_id":"levelo_inurba_marseille","lat":43.28144,"lon":5.42661,"is_reserved":false,"is_disabled":false,"rental_uris":{"android":"levelo://app?vid=42053fc4-36ef-47fc-9435-719ca9c9aa9b","ios":"levelo://app?vid=42053fc4-36ef-47fc-9435-719ca9c9aa9b"},"vehicle_type_id":"4","last_reported":1740240559,"current_range_meters":11600,"station_id":"ce4bhnh2rcd13ifvqgug","pricing_plan_id":"cebpf4jnsgd1na2vs0mg"},{"bike_id":"263533b4-f9d0-4299-b372-e7ccccdaa855","system_id":"levelo_inurba_marseille","lat":43.23155,"lon":5.43709,"is_reserved":false,"is_disabled":false,"rental_uris":{"android":"levelo://app?vid=263533b4-f9d0-4299-b372-e7ccccdaa855","ios":"levelo://app?vid=263533b4-f9d0-4299-b372-e7ccccdaa855"},"vehicle_type_id":"4","last_reported":1740240559,"current_range_meters":11600,"station_id":"ce4bhmp2rcd13ifvqgog","pricing_plan_id":"cebpf4jnsgd1na2vs0mg"},{"bike_id":"b5a09a64-6944-4618-b5cf-0b1ffd9fce9d","system_id":"levelo_inurba_marseille","lat":43.27371,"lon":5.36249,"is_reserved":false,"is_disabled":false,"rental_uris":{"android":"levelo://app?vid=b5a09a64-6944-4618-b5cf-0b1ffd9fce9d","ios":"levelo://app?vid=b5a09a64-6944-4618-b5cf-0b1ffd9fce9d"},"vehicle_type_id":"4","last_reported":1740240559,"current_range_meters":11600,"station_id":"ce4bhbh2rcd13ifvqeo0","pricing_plan_id":"cebpf4jnsgd1na2vs0mg"},{"bike_id":"519c0d90-c598-4074-9c80-d5e1565ff705","system_id":"levelo_inurba_marseille","lat":43.23069,"lon":5.35477,"is_reserved":false,"is_disabled":false,"rental_uris":{"android":"levelo://app?vid=519c0d90-c598-4074-9c80-d5e1565ff705","ios":"levelo://app?vid=519c0d90-c598-4074-9c80-d5e1565ff705"},"vehicle_type_id":"4","last_reported":1740240559,"current_range_meters":12000,"station_id":"cpo3342slgdg3j2ifvpg","pricing_plan_id":"cebpf4jnsgd1na2vs0mg"},{"bike_id":"ec2064f4-20d5-4721-8608-65bea8584594","system_id":"levelo_inurba_marseille","lat":43.29617,"lon":5.37724,"is_reserved":false,"is_disabled":false,"rental_uris":{"android":"levelo://app?vid=ec2064f4-20d5-4721-8608-65bea8584594","ios":"levelo://app?vid=ec2064f4-20d5-4721-8608-65bea8584594"},"vehicle_type_id":"4","last_reported":1740240559,"current_range_meters":12000,"station_id":"ce4bgi92rcd13ifvqb90","pricing_plan_id":"cebpf4jnsgd1na2vs0mg"},{"bike_id":"d8d2125f-b4a3-4392-8c5b-4107e1f6199f","system_id":"levelo_inurba_marseille","lat":43.3112,"lon":5.37766,"is_reserved":false,"is_disabled":false,"rental_uris":{"android":"levelo://app?vid=d8d2125f-b4a3-4392-8c5b-4107e1f6199f","ios":"levelo://app?vid=d8d2125f-b4a3-4392-8c5b-4107e1f6199f"},"vehicle_type_id":"4","last_reported":1740240559,"current_range_meters":12000,"station_id":"ce4bgt92rcd13ifvqcg0","pricing_plan_id":"cebpf4jnsgd1na2vs0mg"},{"bike_id":"fc719a48-4f02-4ff0-a0b0-5867ff99caf1","system_id":"levelo_inurba_marseille","lat":43.30417,"lon":5.41284,"is_reserved":false,"is_disabled":false,"rental_uris":{"android":"levelo://app?vid=fc719a48-4f02-4ff0-a0b0-5867ff99caf1","ios":"levelo://app?vid=fc719a48-4f02-4ff0-a0b0-5867ff99caf1"},"vehicle_type_id":"4","last_reported":1740240559,"current_range_meters":12000,"station_id":"ce4bhop2rcd13ifvqh8g","pricing_plan_id":"cebpf4jnsgd1na2vs0mg"},{"bike_id":"7222785a-1063-4c4b-9111-2d055c721a99","system_id":"levelo_inurba_marseille","lat":43.28269,"lon":5.35087,"is_reserved":false,"is_disabled":false,"rental_uris":{"android":"levelo://app?vid=7222785a-1063-4c4b-9111-2d055c721a99","ios":"levelo://app?vid=7222785a-1063-4c4b-9111-2d055c721a99"},"vehicle_type_id":"4","last_reported":1740240559,"current_range_meters":12000,"station_id":"ce4bhbp2rcd13ifvqerg","pricing_plan_id":"cebpf4jnsgd1na2vs0mg"},{"bike_id":"c12c7329-4bc0-4a0d-ae5b-521f86813584","system_id":"levelo_inurba_marseille","lat":43.24804,"lon":5.37456,"is_reserved":false,"is_disabled":false,"rental_uris":{"android":"levelo://app?vid=c12c7329-4bc0-4a0d-ae5b-521f86813584","ios":"levelo://app?vid=c12c7329-4bc0-4a0d-ae5b-521f86813584"},"vehicle_type_id":"4","last_reported":1740240559,"current_range_meters":12400,"station_id":"ce4bhgh2rcd13ifvqfb0","pricing_plan_id":"cebpf4jnsgd1na2vs0mg"},{"bike_id":"0b35ef10-1d1d-4e8a-949e-c3122c5e3874","system_id":"levelo_inurba_marseille","lat":43.23956,"lon":5.36635,"is_reserved":false,"is_disabled":false,"rental_uris":{"android":"levelo://app?vid=0b35ef10-1d1d-4e8a-949e-c3122c5e3874","ios":"levelo://app?vid=0b35ef10-1d1d-4e8a-949e-c3122c5e3874"},"vehicle_type_id":"4","last_reported":1740240559,"current_range_meters":12400,"station_id":"ce4bhi12rcd13ifvqfp0","pricing_plan_id":"cebpf4jnsgd1na2vs0mg"},{"bike_id":"0e20c4e9-5d69-41d2-aebf-e36a0974ea4d","system_id":"levelo_inurba_marseille","lat":43.26564,"lon":5.39015,"is_reserved":false,"is_disabled":false,"rental_uris":{"android":"levelo://app?vid=0e20c4e9-5d69-41d2-aebf-e36a0974ea4d","ios":"levelo://app?vid=0e20c4e9-5d69-41d2-aebf-e36a0974ea4d"},"vehicle_type_id":"4","last_reported":1740240559,"current_range_meters":12400,"station_id":"ce4bhe12rcd13ifvqf30","pricing_plan_id":"cebpf4jnsgd1na2vs0mg"},{"bike_id":"029c43fb-5a0b-4436-875e-3b4e61865689","system_id":"levelo_inurba_marseille","lat":43.287,"lon":5.39997,"is_reserved":false,"is_disabled":false,"rental_uris":{"android":"levelo://app?vid=029c43fb-5a0b-4436-875e-3b4e61865689","ios":"levelo://app?vid=029c43fb-5a0b-4436-875e-3b4e61865689"},"vehicle_type_id":"4","last_reported":1740240559,"current_range_meters":12400,"station_id":"ce4bho92rcd13ifvqh3g","pricing_plan_id":"cebpf4jnsgd1na2vs0mg"},{"bike_id":"ddb48cd1-bcb3-4cac-8164-1ae412ca1019","system_id":"levelo_inurba_marseille","lat":43.29334,"lon":5.37251,"is_reserved":false,"is_disabled":false,"rental_uris":{"android":"levelo://app?vid=ddb48cd1-bcb3-4cac-8164-1ae412ca1019","ios":"levelo://app?vid=ddb48cd1-bcb3-4cac-8164-1ae412ca1019"},"vehicle_type_id":"4","last_reported":1740240559,"current_range_meters":12400,"station_id":"","pricing_plan_id":"cebpf4jnsgd1na2vs0mg"},{"bike_id":"f3e53501-98a3-41eb-aebf-eea5d54d149b","system_id":"levelo_inurba_marseille","lat":43.30959,"lon":5.37972,"is_reserved":false,"is_disabled":false,"rental_uris":{"android":"levelo://app?vid=f3e53501-98a3-41eb-aebf-eea5d54d149b","ios":"levelo://app?vid=f3e53501-98a3-41eb-aebf-eea5d54d149b"},"vehicle_type_id":"4","last_reported":1740240559,"current_range_meters":12400,"station_id":"","pricing_plan_id":"cebpf4jnsgd1na2vs0mg"},{"bike_id":"60bf1458-d774-41db-b999-e4e082667706","system_id":"levelo_inurba_marseille","lat":43.30315,"lon":5.36898,"is_reserved":false,"is_disabled":false,"rental_uris":{"android":"levelo://app?vid=60bf1458-d774-41db-b999-e4e082667706","ios":"levelo://app?vid=60bf1458-d774-41db-b999-e4e082667706"},"vehicle_type_id":"4","last_reported":1740240559,"current_range_meters":12800,"station_id":"ce4bgqh2rcd13ifvqc5g","pricing_plan_id":"cebpf4jnsgd1na2vs0mg"},{"bike_id":"1b5b87c8-f96f-4740-8b60-bcc62c6e3f59","system_id":"levelo_inurba_marseille","lat":43.31396,"lon":5.38472,"is_reserved":false,"is_disabled":false,"rental_uris":{"android":"levelo://app?vid=1b5b87c8-f96f-4740-8b60-bcc62c6e3f59","ios":"levelo://app?vid=1b5b87c8-f96f-4740-8b60-bcc62c6e3f59"},"vehicle_type_id":"4","last_reported":1740240559,"current_range_meters":12800,"station_id":"ce4bgt92rcd13ifvqcf0","pricing_plan_id":"cebpf4jnsgd1na2vs0mg"},{"bike_id":"7c7b4211-79f9-4cd8-9e44-7fedb52099b8","system_id":"levelo_inurba_marseille","lat":43.258293,"lon":5.394361,"is_reserved":false,"is_disabled":false,"rental_uris":{"android":"levelo://app?vid=7c7b4211-79f9-4cd8-9e44-7fedb52099b8","ios":"levelo://app?vid=7c7b4211-79f9-4cd8-9e44-7fedb52099b8"},"vehicle_type_id":"4","last_reported":1740240559,"current_range_meters":12800,"station_id":"ce4bhip2rcd13ifvqft0","pricing_plan_id":"cebpf4jnsgd1na2vs0mg"},{"bike_id":"657a9bbc-45bc-439a-bd6c-d1d58b3d913f","system_id":"levelo_inurba_marseille","lat":43.30531,"lon":5.36725,"is_reserved":false,"is_disabled":false,"rental_uris":{"android":"levelo://app?vid=657a9bbc-45bc-439a-bd6c-d1d58b3d913f","ios":"levelo://app?vid=657a9bbc-45bc-439a-bd6c-d1d58b3d913f"},"vehicle_type_id":"4","last_reported":1740240559,"current_range_meters":12800,"station_id":"ce4bgrp2rcd13ifvqc9g","pricing_plan_id":"cebpf4jnsgd1na2vs0mg"},{"bike_id":"89816e7a-338d-4126-8ef0-cbb09f34aa62","system_id":"levelo_inurba_marseille","lat":43.26195,"lon":5.37449,"is_reserved":false,"is_disabled":false,"rental_uris":{"android":"levelo://app?vid=89816e7a-338d-4126-8ef0-cbb09f34aa62","ios":"levelo://app?vid=89816e7a-338d-4126-8ef0-cbb09f34aa62"},"vehicle_type_id":"4","last_reported":1740240559,"current_range_meters":12800,"station_id":"ce4bhgp2rcd13ifvqfc0","pricing_plan_id":"cebpf4jnsgd1na2vs0mg"},{"bike_id":"1b0d6542-f74d-4dd5-b78b-1cd1115ff80b","system_id":"levelo_inurba_marseille","lat":43.30615,"lon":5.37386,"is_reserved":false,"is_disabled":false,"rental_uris":{"android":"levelo://app?vid=1b0d6542-f74d-4dd5-b78b-1cd1115ff80b","ios":"levelo://app?vid=1b0d6542-f74d-4dd5-b78b-1cd1115ff80b"},"vehicle_type_id":"4","last_reported":1740240559,"current_range_meters":13600,"station_id":"","pricing_plan_id":"cebpf4jnsgd1na2vs0mg"},{"bike_id":"382dd3e6-8e8c-4d7b-9f4e-dce1f8d8cb19","system_id":"levelo_inurba_marseille","lat":43.26943,"lon":5.40254,"is_reserved":false,"is_disabled":false,"rental_uris":{"android":"levelo://app?vid=382dd3e6-8e8c-4d7b-9f4e-dce1f8d8cb19","ios":"levelo://app?vid=382dd3e6-8e8c-4d7b-9f4e-dce1f8d8cb19"},"vehicle_type_id":"4","last_reported":1740240559,"current_range_meters":13600,"station_id":"cjm6bp8fraef2m0cb0m0","pricing_plan_id":"cebpf4jnsgd1na2vs0mg"},{"bike_id":"d88699b9-7a50-415c-9cdb-a35fdc00ed80","system_id":"levelo_inurba_marseille","lat":43.29934,"lon":5.37193,"is_reserved":false,"is_disabled":false,"rental_uris":{"android":"levelo://app?vid=d88699b9-7a50-415c-9cdb-a35fdc00ed80","ios":"levelo://app?vid=d88699b9-7a50-415c-9cdb-a35fdc00ed80"},"vehicle_type_id":"4","last_reported":1740240559,"current_range_meters":13600,"station_id":"","pricing_plan_id":"cebpf4jnsgd1na2vs0mg"},{"bike_id":"4f864959-2f79-4a57-8afb-d5cb0ea31626","system_id":"levelo_inurba_marseille","lat":43.30429,"lon":5.38894,"is_reserved":false,"is_disabled":false,"rental_uris":{"android":"levelo://app?vid=4f864959-2f79-4a57-8afb-d5cb0ea31626","ios":"levelo://app?vid=4f864959-2f79-4a57-8afb-d5cb0ea31626"},"vehicle_type_id":"4","last_reported":1740240559,"current_range_meters":13600,"station_id":"ce4bgk12rcd13ifvqbi0","pricing_plan_id":"cebpf4jnsgd1na2vs0mg"},{"bike_id":"ab8e4fa1-a748-4b68-9f46-2fdc2afb052f","system_id":"levelo_inurba_marseille","lat":43.258349,"lon":5.394255,"is_reserved":false,"is_disabled":false,"rental_uris":{"android":"levelo://app?vid=ab8e4fa1-a748-4b68-9f46-2fdc2afb052f","ios":"levelo://app?vid=ab8e4fa1-a748-4b68-9f46-2fdc2afb052f"},"vehicle_type_id":"4","last_reported":1740240559,"current_range_meters":14000,"station_id":"ce4bhip2rcd13ifvqft0","pricing_plan_id":"cebpf4jnsgd1na2vs0mg"},{"bike_id":"ecb792ba-e590-4d62-97cc-1e9b429064df","system_id":"levelo_inurba_marseille","lat":43.25014,"lon":5.38925,"is_reserved":false,"is_disabled":false,"rental_uris":{"android":"levelo://app?vid=ecb792ba-e590-4d62-97cc-1e9b429064df","ios":"levelo://app?vid=ecb792ba-e590-4d62-97cc-1e9b429064df"},"vehicle_type_id":"4","last_reported":1740240559,"current_range_meters":14000,"station_id":"ce4bhgp2rcd13ifvqfd0","pricing_plan_id":"cebpf4jnsgd1na2vs0mg"},{"bike_id":"29c9e1ee-b1e9-4f70-a5a6-dc4651f0ddfb","system_id":"levelo_inurba_marseille","lat":43.30308,"lon":5.3921,"is_reserved":false,"is_disabled":false,"rental_uris":{"android":"levelo://app?vid=29c9e1ee-b1e9-4f70-a5a6-dc4651f0ddfb","ios":"levelo://app?vid=29c9e1ee-b1e9-4f70-a5a6-dc4651f0ddfb"},"vehicle_type_id":"4","last_reported":1740240559,"current_range_meters":14000,"station_id":"ce4bgkh2rcd13ifvqbk0","pricing_plan_id":"cebpf4jnsgd1na2vs0mg"},{"bike_id":"a0008216-0ff5-4943-927d-06ed13f73956","system_id":"levelo_inurba_marseille","lat":43.30307,"lon":5.368763,"is_reserved":false,"is_disabled":false,"rental_uris":{"android":"levelo://app?vid=a0008216-0ff5-4943-927d-06ed13f73956","ios":"levelo://app?vid=a0008216-0ff5-4943-927d-06ed13f73956"},"vehicle_type_id":"4","last_reported":1740240559,"current_range_meters":14000,"station_id":"ce4bhap2rcd13ifvqek0","pricing_plan_id":"cebpf4jnsgd1na2vs0mg"},{"bike_id":"0dc10df1-2422-4347-8406-45044f046857","system_id":"levelo_inurba_marseille","lat":43.27377,"lon":5.36259,"is_reserved":false,"is_disabled":false,"rental_uris":{"android":"levelo://app?vid=0dc10df1-2422-4347-8406-45044f046857","ios":"levelo://app?vid=0dc10df1-2422-4347-8406-45044f046857"},"vehicle_type_id":"4","last_reported":1740240559,"current_range_meters":14000,"station_id":"ce4bhbh2rcd13ifvqeo0","pricing_plan_id":"cebpf4jnsgd1na2vs0mg"},{"bike_id":"5cac0311-be5c-4d3f-afef-3e4ca9e4eb3e","system_id":"levelo_inurba_marseille","lat":43.28079,"lon":5.42801,"is_reserved":false,"is_disabled":false,"rental_uris":{"android":"levelo://app?vid=5cac0311-be5c-4d3f-afef-3e4ca9e4eb3e","ios":"levelo://app?vid=5cac0311-be5c-4d3f-afef-3e4ca9e4eb3e"},"vehicle_type_id":"4","last_reported":1740240559,"current_range_meters":14000,"station_id":"ce4bhnh2rcd13ifvqgug","pricing_plan_id":"cebpf4jnsgd1na2vs0mg"},{"bike_id":"e06a5e51-884b-4021-a6aa-38076e5c4adf","system_id":"levelo_inurba_marseille","lat":43.29641,"lon":5.37781,"is_reserved":false,"is_disabled":false,"rental_uris":{"android":"levelo://app?vid=e06a5e51-884b-4021-a6aa-38076e5c4adf","ios":"levelo://app?vid=e06a5e51-884b-4021-a6aa-38076e5c4adf"},"vehicle_type_id":"4","last_reported":1740240559,"current_range_meters":14000,"station_id":"","pricing_plan_id":"cebpf4jnsgd1na2vs0mg"},{"bike_id":"1f7411cd-9379-4bab-a8bc-411b928d8602","system_id":"levelo_inurba_marseille","lat":43.27487,"lon":5.42494,"is_reserved":false,"is_disabled":false,"rental_uris":{"android":"levelo://app?vid=1f7411cd-9379-4bab-a8bc-411b928d8602","ios":"levelo://app?vid=1f7411cd-9379-4bab-a8bc-411b928d8602"},"vehicle_type_id":"4","last_reported":1740240559,"current_range_meters":14400,"station_id":"ce4bhn92rcd13ifvqgrg","pricing_plan_id":"cebpf4jnsgd1na2vs0mg"},{"bike_id":"96d6269e-df53-445b-b7fe-76b1076b0b10","system_id":"levelo_inurba_marseille","lat":43.23965,"lon":5.36643,"is_reserved":false,"is_disabled":false,"rental_uris":{"android":"levelo://app?vid=96d6269e-df53-445b-b7fe-76b1076b0b10","ios":"levelo://app?vid=96d6269e-df53-445b-b7fe-76b1076b0b10"},"vehicle_type_id":"4","last_reported":1740240559,"current_range_meters":14400,"station_id":"ce4bhi12rcd13ifvqfp0","pricing_plan_id":"cebpf4jnsgd1na2vs0mg"},{"bike_id":"58ebf1d7-57d7-46af-9489-05d2cd881db9","system_id":"levelo_inurba_marseille","lat":43.30417,"lon":5.41291,"is_reserved":false,"is_disabled":false,"rental_uris":{"android":"levelo://app?vid=58ebf1d7-57d7-46af-9489-05d2cd881db9","ios":"levelo://app?vid=58ebf1d7-57d7-46af-9489-05d2cd881db9"},"vehicle_type_id":"4","last_reported":1740240559,"current_range_meters":14400,"station_id":"ce4bhop2rcd13ifvqh8g","pricing_plan_id":"cebpf4jnsgd1na2vs0mg"},{"bike_id":"efedddb5-b9d1-4400-992c-c394f45f9ecd","system_id":"levelo_inurba_marseille","lat":43.29899,"lon":5.43673,"is_reserved":false,"is_disabled":false,"rental_uris":{"android":"levelo://app?vid=efedddb5-b9d1-4400-992c-c394f45f9ecd","ios":"levelo://app?vid=efedddb5-b9d1-4400-992c-c394f45f9ecd"},"vehicle_type_id":"4","last_reported":1740240559,"current_range_meters":14400,"station_id":"ce4bhpp2rcd13ifvqhfg","pricing_plan_id":"cebpf4jnsgd1na2vs0mg"},{"bike_id":"35a5a624-8543-4e1e-9af9-e16670d9bea4","system_id":"levelo_inurba_marseille","lat":43.29225,"lon":5.36054,"is_reserved":false,"is_disabled":false,"rental_uris":{"android":"levelo://app?vid=35a5a624-8543-4e1e-9af9-e16670d9bea4","ios":"levelo://app?vid=35a5a624-8543-4e1e-9af9-e16670d9bea4"},"vehicle_type_id":"4","last_reported":1740240559,"current_range_meters":14400,"station_id":"ce4bhbh2rcd13ifvqeqg","pricing_plan_id":"cebpf4jnsgd1na2vs0mg"},{"bike_id":"ae5eb557-21ba-455f-a8a6-0aac932fbbcc","system_id":"levelo_inurba_marseille","lat":43.26686,"lon":5.38281,"is_reserved":false,"is_disabled":false,"rental_uris":{"android":"levelo://app?vid=ae5eb557-21ba-455f-a8a6-0aac932fbbcc","ios":"levelo://app?vid=ae5eb557-21ba-455f-a8a6-0aac932fbbcc"},"vehicle_type_id":"4","last_reported":1740240559,"current_range_meters":14400,"station_id":"ce4bhg92rcd13ifvqf90","pricing_plan_id":"cebpf4jnsgd1na2vs0mg"},{"bike_id":"43674aa9-e1da-47ca-9ed0-1a05531b0e4a","system_id":"levelo_inurba_marseille","lat":43.306,"lon":5.37226,"is_reserved":false,"is_disabled":false,"rental_uris":{"android":"levelo://app?vid=43674aa9-e1da-47ca-9ed0-1a05531b0e4a","ios":"levelo://app?vid=43674aa9-e1da-47ca-9ed0-1a05531b0e4a"},"vehicle_type_id":"4","last_reported":1740240559,"current_range_meters":14400,"station_id":"ce4bgqh2rcd13ifvqc4g","pricing_plan_id":"cebpf4jnsgd1na2vs0mg"},{"bike_id":"029edfd1-00eb-4ff7-8e59-974c8fe45f33","system_id":"levelo_inurba_marseille","lat":43.26595,"lon":5.39036,"is_reserved":false,"is_disabled":false,"rental_uris":{"android":"levelo://app?vid=029edfd1-00eb-4ff7-8e59-974c8fe45f33","ios":"levelo://app?vid=029edfd1-00eb-4ff7-8e59-974c8fe45f33"},"vehicle_type_id":"4","last_reported":1740240559,"current_range_meters":14400,"station_id":"ce4bhe12rcd13ifvqf30","pricing_plan_id":"cebpf4jnsgd1na2vs0mg"},{"bike_id":"f75b7c43-b1e9-419b-9e88-97af31d30220","system_id":"levelo_inurba_marseille","lat":43.23954,"lon":5.3665,"is_reserved":false,"is_disabled":false,"rental_uris":{"android":"levelo://app?vid=f75b7c43-b1e9-419b-9e88-97af31d30220","ios":"levelo://app?vid=f75b7c43-b1e9-419b-9e88-97af31d30220"},"vehicle_type_id":"4","last_reported":1740240559,"current_range_meters":14800,"station_id":"ce4bhi12rcd13ifvqfp0","pricing_plan_id":"cebpf4jnsgd1na2vs0mg"},{"bike_id":"77b0bf01-4bb6-459e-9132-45193bd44dee","system_id":"levelo_inurba_marseille","lat":43.31053,"lon":5.39738,"is_reserved":false,"is_disabled":false,"rental_uris":{"android":"levelo://app?vid=77b0bf01-4bb6-459e-9132-45193bd44dee","ios":"levelo://app?vid=77b0bf01-4bb6-459e-9132-45193bd44dee"},"vehicle_type_id":"4","last_reported":1740240559,"current_range_meters":14800,"station_id":"ce4bgk12rcd13ifvqbi0","pricing_plan_id":"cebpf4jnsgd1na2vs0mg"},{"bike_id":"ad5d970e-426b-4f89-94bd-e7196f45d370","system_id":"levelo_inurba_marseille","lat":43.32127,"lon":5.36778,"is_reserved":false,"is_disabled":false,"rental_uris":{"android":"levelo://app?vid=ad5d970e-426b-4f89-94bd-e7196f45d370","ios":"levelo://app?vid=ad5d970e-426b-4f89-94bd-e7196f45d370"},"vehicle_type_id":"4","last_reported":1740240559,"current_range_meters":14800,"station_id":"ce4bhrh2rcd13ifvqhug","pricing_plan_id":"cebpf4jnsgd1na2vs0mg"},{"bike_id":"3fd2a98c-7939-498c-8625-9658300a849b","system_id":"levelo_inurba_marseille","lat":43.25943,"lon":5.40912,"is_reserved":false,"is_disabled":false,"rental_uris":{"android":"levelo://app?vid=3fd2a98c-7939-498c-8625-9658300a849b","ios":"levelo://app?vid=3fd2a98c-7939-498c-8625-9658300a849b"},"vehicle_type_id":"4","last_reported":1740240559,"current_range_meters":15200,"station_id":"ce4bhm92rcd13ifvqglg","pricing_plan_id":"cebpf4jnsgd1na2vs0mg"},{"bike_id":"18f2c141-4cec-4e51-a461-784d8c0f37b9","system_id":"levelo_inurba_marseille","lat":43.27319,"lon":5.39082,"is_reserved":false,"is_disabled":false,"rental_uris":{"android":"levelo://app?vid=18f2c141-4cec-4e51-a461-784d8c0f37b9","ios":"levelo://app?vid=18f2c141-4cec-4e51-a461-784d8c0f37b9"},"vehicle_type_id":"4","last_reported":1740240559,"current_range_meters":15200,"station_id":"ce4bhf92rcd13ifvqf50","pricing_plan_id":"cebpf4jnsgd1na2vs0mg"},{"bike_id":"8e403f8a-b998-4fb1-bb90-54bf70e024a5","system_id":"levelo_inurba_marseille","lat":43.26935,"lon":5.389166,"is_reserved":false,"is_disabled":false,"rental_uris":{"android":"levelo://app?vid=8e403f8a-b998-4fb1-bb90-54bf70e024a5","ios":"levelo://app?vid=8e403f8a-b998-4fb1-bb90-54bf70e024a5"},"vehicle_type_id":"4","last_reported":1740240559,"current_range_meters":15200,"station_id":"ce4bhhh2rcd13ifvqfl0","pricing_plan_id":"cebpf4jnsgd1na2vs0mg"},{"bike_id":"293698b3-eb6f-4db3-8057-6ea1f9ad6341","system_id":"levelo_inurba_marseille","lat":43.262124,"lon":5.374335,"is_reserved":false,"is_disabled":false,"rental_uris":{"android":"levelo://app?vid=293698b3-eb6f-4db3-8057-6ea1f9ad6341","ios":"levelo://app?vid=293698b3-eb6f-4db3-8057-6ea1f9ad6341"},"vehicle_type_id":"4","last_reported":1740240559,"current_range_meters":15200,"station_id":"","pricing_plan_id":"cebpf4jnsgd1na2vs0mg"},{"bike_id":"7d4ec928-f7ee-4d75-8966-0e7eeda02636","system_id":"levelo_inurba_marseille","lat":43.28487,"lon":5.38566,"is_reserved":false,"is_disabled":false,"rental_uris":{"android":"levelo://app?vid=7d4ec928-f7ee-4d75-8966-0e7eeda02636","ios":"levelo://app?vid=7d4ec928-f7ee-4d75-8966-0e7eeda02636"},"vehicle_type_id":"4","last_reported":1740240559,"current_range_meters":16000,"station_id":"ce4bh8p2rcd13ifvqeb0","pricing_plan_id":"cebpf4jnsgd1na2vs0mg"},{"bike_id":"6bb44f71-e2a4-4da1-9a53-fbfa8fde2d17","system_id":"levelo_inurba_marseille","lat":43.28362,"lon":5.3863,"is_reserved":false,"is_disabled":false,"rental_uris":{"android":"levelo://app?vid=6bb44f71-e2a4-4da1-9a53-fbfa8fde2d17","ios":"levelo://app?vid=6bb44f71-e2a4-4da1-9a53-fbfa8fde2d17"},"vehicle_type_id":"4","last_reported":1740240559,"current_range_meters":16000,"station_id":"ce4bh492rcd13ifvqdvg","pricing_plan_id":"cebpf4jnsgd1na2vs0mg"},{"bike_id":"e2deb74d-8184-40e1-aa30-378496c07821","system_id":"levelo_inurba_marseille","lat":43.23183,"lon":5.39981,"is_reserved":false,"is_disabled":false,"rental_uris":{"android":"levelo://app?vid=e2deb74d-8184-40e1-aa30-378496c07821","ios":"levelo://app?vid=e2deb74d-8184-40e1-aa30-378496c07821"},"vehicle_type_id":"4","last_reported":1740240559,"current_range_meters":16000,"station_id":"ce4bhn12rcd13ifvqgqg","pricing_plan_id":"cebpf4jnsgd1na2vs0mg"},{"bike_id":"2e193ad2-1d43-4cac-8342-bcef9743f59a","system_id":"levelo_inurba_marseille","lat":43.231905,"lon":5.355548,"is_reserved":false,"is_disabled":false,"rental_uris":{"android":"levelo://app?vid=2e193ad2-1d43-4cac-8342-bcef9743f59a","ios":"levelo://app?vid=2e193ad2-1d43-4cac-8342-bcef9743f59a"},"vehicle_type_id":"4","last_reported":1740240559,"current_range_meters":16000,"station_id":"ce4bhu92rcd13ifvqi70","pricing_plan_id":"cebpf4jnsgd1na2vs0mg"},{"bike_id":"a67b71f2-b9ae-4e64-8613-0c7bcda650b9","system_id":"levelo_inurba_marseille","lat":43.30897,"lon":5.37205,"is_reserved":false,"is_disabled":false,"rental_uris":{"android":"levelo://app?vid=a67b71f2-b9ae-4e64-8613-0c7bcda650b9","ios":"levelo://app?vid=a67b71f2-b9ae-4e64-8613-0c7bcda650b9"},"vehicle_type_id":"4","last_reported":1740240559,"current_range_meters":16000,"station_id":"ce4bguh2rcd13ifvqckg","pricing_plan_id":"cebpf4jnsgd1na2vs0mg"},{"bike_id":"7f8328af-f9ce-4d8f-a250-03ff8413e2fb","system_id":"levelo_inurba_marseille","lat":43.30301,"lon":5.39209,"is_reserved":false,"is_disabled":false,"rental_uris":{"android":"levelo://app?vid=7f8328af-f9ce-4d8f-a250-03ff8413e2fb","ios":"levelo://app?vid=7f8328af-f9ce-4d8f-a250-03ff8413e2fb"},"vehicle_type_id":"4","last_reported":1740240559,"current_range_meters":16000,"station_id":"ce4bgkh2rcd13ifvqbk0","pricing_plan_id":"cebpf4jnsgd1na2vs0mg"},{"bike_id":"ccdefed6-13d5-4f99-a8e0-201599b40ebb","system_id":"levelo_inurba_marseille","lat":43.22928,"lon":5.35383,"is_reserved":false,"is_disabled":false,"rental_uris":{"android":"levelo://app?vid=ccdefed6-13d5-4f99-a8e0-201599b40ebb","ios":"levelo://app?vid=ccdefed6-13d5-4f99-a8e0-201599b40ebb"},"vehicle_type_id":"4","last_reported":1740240559,"current_range_meters":16000,"station_id":"cpo3532slgdg3j2ikp40","pricing_plan_id":"cebpf4jnsgd1na2vs0mg"},{"bike_id":"9f7b225c-eca1-4052-880f-f195aa515021","system_id":"levelo_inurba_marseille","lat":43.30929,"lon":5.40146,"is_reserved":false,"is_disabled":false,"rental_uris":{"android":"levelo://app?vid=9f7b225c-eca1-4052-880f-f195aa515021","ios":"levelo://app?vid=9f7b225c-eca1-4052-880f-f195aa515021"},"vehicle_type_id":"4","last_reported":1740240559,"current_range_meters":16000,"station_id":"ce4bgvp2rcd13ifvqct0","pricing_plan_id":"cebpf4jnsgd1na2vs0mg"},{"bike_id":"1ed8a47e-bea8-4d0a-ae5e-fa39eb21d57f","system_id":"levelo_inurba_marseille","lat":43.27919,"lon":5.39582,"is_reserved":false,"is_disabled":false,"rental_uris":{"android":"levelo://app?vid=1ed8a47e-bea8-4d0a-ae5e-fa39eb21d57f","ios":"levelo://app?vid=1ed8a47e-bea8-4d0a-ae5e-fa39eb21d57f"},"vehicle_type_id":"4","last_reported":1740240559,"current_range_meters":16000,"station_id":"ce4bhf92rcd13ifvqf40","pricing_plan_id":"cebpf4jnsgd1na2vs0mg"},{"bike_id":"bb9bf5f6-234a-430e-bebe-e182ad2e7a94","system_id":"levelo_inurba_marseille","lat":43.30647,"lon":5.4012,"is_reserved":false,"is_disabled":false,"rental_uris":{"android":"levelo://app?vid=bb9bf5f6-234a-430e-bebe-e182ad2e7a94","ios":"levelo://app?vid=bb9bf5f6-234a-430e-bebe-e182ad2e7a94"},"vehicle_type_id":"4","last_reported":1740240559,"current_range_meters":16000,"station_id":"ce4bh112rcd13ifvqda0","pricing_plan_id":"cebpf4jnsgd1na2vs0mg"},{"bike_id":"19d1a5ab-670e-4386-875b-41b8b46ee488","system_id":"levelo_inurba_marseille","lat":43.23963,"lon":5.36639,"is_reserved":false,"is_disabled":false,"rental_uris":{"android":"levelo://app?vid=19d1a5ab-670e-4386-875b-41b8b46ee488","ios":"levelo://app?vid=19d1a5ab-670e-4386-875b-41b8b46ee488"},"vehicle_type_id":"4","last_reported":1740240559,"current_range_meters":16000,"station_id":"ce4bhi12rcd13ifvqfp0","pricing_plan_id":"cebpf4jnsgd1na2vs0mg"},{"bike_id":"825d5e35-54ba-4c25-9cfc-c2e0ce07f1c7","system_id":"levelo_inurba_marseille","lat":43.28611,"lon":5.37058,"is_reserved":false,"is_disabled":false,"rental_uris":{"android":"levelo://app?vid=825d5e35-54ba-4c25-9cfc-c2e0ce07f1c7","ios":"levelo://app?vid=825d5e35-54ba-4c25-9cfc-c2e0ce07f1c7"},"vehicle_type_id":"4","last_reported":1740240559,"current_range_meters":16000,"station_id":"ce4bht12rcd13ifvqi60","pricing_plan_id":"cebpf4jnsgd1na2vs0mg"},{"bike_id":"a33a3a8d-7f1b-4536-8a70-adbd01610fc6","system_id":"levelo_inurba_marseille","lat":43.298743,"lon":5.396928,"is_reserved":false,"is_disabled":false,"rental_uris":{"android":"levelo://app?vid=a33a3a8d-7f1b-4536-8a70-adbd01610fc6","ios":"levelo://app?vid=a33a3a8d-7f1b-4536-8a70-adbd01610fc6"},"vehicle_type_id":"4","last_reported":1740240559,"current_range_meters":16000,"station_id":"ce4bh0h2rcd13ifvqd50","pricing_plan_id":"cebpf4jnsgd1na2vs0mg"},{"bike_id":"89d8533a-014f-41bd-8a3f-3fbcfdb02844","system_id":"levelo_inurba_marseille","lat":43.29678,"lon":5.36627,"is_reserved":false,"is_disabled":false,"rental_uris":{"android":"levelo://app?vid=89d8533a-014f-41bd-8a3f-3fbcfdb02844","ios":"levelo://app?vid=89d8533a-014f-41bd-8a3f-3fbcfdb02844"},"vehicle_type_id":"4","last_reported":1740240559,"current_range_meters":16000,"station_id":"ce4bgn12rcd13ifvqbt0","pricing_plan_id":"cebpf4jnsgd1na2vs0mg"},{"bike_id":"513f78a3-4ee7-428d-808a-f642ca1307d9","system_id":"levelo_inurba_marseille","lat":43.27207,"lon":5.3919,"is_reserved":false,"is_disabled":false,"rental_uris":{"android":"levelo://app?vid=513f78a3-4ee7-428d-808a-f642ca1307d9","ios":"levelo://app?vid=513f78a3-4ee7-428d-808a-f642ca1307d9"},"vehicle_type_id":"4","last_reported":1740240559,"current_range_meters":16000,"station_id":"ce4bhhp2rcd13ifvqfm0","pricing_plan_id":"cebpf4jnsgd1na2vs0mg"},{"bike_id":"025e813a-671a-4ec8-9fc4-a9ae492304f7","system_id":"levelo_inurba_marseille","lat":43.31991,"lon":5.38148,"is_reserved":false,"is_disabled":false,"rental_uris":{"android":"levelo://app?vid=025e813a-671a-4ec8-9fc4-a9ae492304f7","ios":"levelo://app?vid=025e813a-671a-4ec8-9fc4-a9ae492304f7"},"vehicle_type_id":"4","last_reported":1740240559,"current_range_meters":16400,"station_id":"ce4bhr12rcd13ifvqhpg","pricing_plan_id":"cebpf4jnsgd1na2vs0mg"},{"bike_id":"6bc72616-47a9-4236-9ef2-b05b7fb108e7","system_id":"levelo_inurba_marseille","lat":43.25106,"lon":5.40319,"is_reserved":false,"is_disabled":false,"rental_uris":{"android":"levelo://app?vid=6bc72616-47a9-4236-9ef2-b05b7fb108e7","ios":"levelo://app?vid=6bc72616-47a9-4236-9ef2-b05b7fb108e7"},"vehicle_type_id":"4","last_reported":1740240559,"current_range_meters":16400,"station_id":"ce4bhlh2rcd13ifvqgig","pricing_plan_id":"cebpf4jnsgd1na2vs0mg"},{"bike_id":"6cee15f5-f5b0-4f78-80d2-62dd5deb5a0a","system_id":"levelo_inurba_marseille","lat":43.26567,"lon":5.39016,"is_reserved":false,"is_disabled":false,"rental_uris":{"android":"levelo://app?vid=6cee15f5-f5b0-4f78-80d2-62dd5deb5a0a","ios":"levelo://app?vid=6cee15f5-f5b0-4f78-80d2-62dd5deb5a0a"},"vehicle_type_id":"4","last_reported":1740240559,"current_range_meters":16400,"station_id":"ce4bhe12rcd13ifvqf30","pricing_plan_id":"cebpf4jnsgd1na2vs0mg"},{"bike_id":"4e61383c-db28-43d3-8d2f-2b5e922d7f9b","system_id":"levelo_inurba_marseille","lat":43.29271,"lon":5.36845,"is_reserved":false,"is_disabled":false,"rental_uris":{"android":"levelo://app?vid=4e61383c-db28-43d3-8d2f-2b5e922d7f9b","ios":"levelo://app?vid=4e61383c-db28-43d3-8d2f-2b5e922d7f9b"},"vehicle_type_id":"4","last_reported":1740240559,"current_range_meters":16400,"station_id":"ce4bhbp2rcd13ifvqesg","pricing_plan_id":"cebpf4jnsgd1na2vs0mg"},{"bike_id":"7d01ed45-064b-418b-a80f-60a44c6d11ba","system_id":"levelo_inurba_marseille","lat":43.23071,"lon":5.35484,"is_reserved":false,"is_disabled":false,"rental_uris":{"android":"levelo://app?vid=7d01ed45-064b-418b-a80f-60a44c6d11ba","ios":"levelo://app?vid=7d01ed45-064b-418b-a80f-60a44c6d11ba"},"vehicle_type_id":"4","last_reported":1740240559,"current_range_meters":16400,"station_id":"cpo3342slgdg3j2ifvpg","pricing_plan_id":"cebpf4jnsgd1na2vs0mg"},{"bike_id":"572fc808-08cc-41c5-8972-d2365310925e","system_id":"levelo_inurba_marseille","lat":43.28037,"lon":5.36946,"is_reserved":false,"is_disabled":false,"rental_uris":{"android":"levelo://app?vid=572fc808-08cc-41c5-8972-d2365310925e","ios":"levelo://app?vid=572fc808-08cc-41c5-8972-d2365310925e"},"vehicle_type_id":"4","last_reported":1740240559,"current_range_meters":16400,"station_id":"ce4bha12rcd13ifvqef0","pricing_plan_id":"cebpf4jnsgd1na2vs0mg"},{"bike_id":"4262437a-7f00-4b16-8724-a70cfff4e6b1","system_id":"levelo_inurba_marseille","lat":43.29607,"lon":5.37723,"is_reserved":false,"is_disabled":false,"rental_uris":{"android":"levelo://app?vid=4262437a-7f00-4b16-8724-a70cfff4e6b1","ios":"levelo://app?vid=4262437a-7f00-4b16-8724-a70cfff4e6b1"},"vehicle_type_id":"4","last_reported":1740240559,"current_range_meters":16400,"station_id":"ce4bgi92rcd13ifvqb90","pricing_plan_id":"cebpf4jnsgd1na2vs0mg"},{"bike_id":"27fbdb13-6250-4da6-a292-878b65e631be","system_id":"levelo_inurba_marseille","lat":43.26776,"lon":5.39425,"is_reserved":false,"is_disabled":false,"rental_uris":{"android":"levelo://app?vid=27fbdb13-6250-4da6-a292-878b65e631be","ios":"levelo://app?vid=27fbdb13-6250-4da6-a292-878b65e631be"},"vehicle_type_id":"4","last_reported":1740240559,"current_range_meters":16400,"station_id":"ce4bhh12rcd13ifvqfg0","pricing_plan_id":"cebpf4jnsgd1na2vs0mg"},{"bike_id":"10347b17-752e-4913-b715-7e683fec991f","system_id":"levelo_inurba_marseille","lat":43.28367,"lon":5.38633,"is_reserved":false,"is_disabled":false,"rental_uris":{"android":"levelo://app?vid=10347b17-752e-4913-b715-7e683fec991f","ios":"levelo://app?vid=10347b17-752e-4913-b715-7e683fec991f"},"vehicle_type_id":"4","last_reported":1740240559,"current_range_meters":16400,"station_id":"ce4bh492rcd13ifvqdvg","pricing_plan_id":"cebpf4jnsgd1na2vs0mg"},{"bike_id":"d0bb6e41-80c1-4c43-b652-1b70203c66ac","system_id":"levelo_inurba_marseille","lat":43.29914,"lon":5.43651,"is_reserved":false,"is_disabled":false,"rental_uris":{"android":"levelo://app?vid=d0bb6e41-80c1-4c43-b652-1b70203c66ac","ios":"levelo://app?vid=d0bb6e41-80c1-4c43-b652-1b70203c66ac"},"vehicle_type_id":"4","last_reported":1740240559,"current_range_meters":16400,"station_id":"ce4bhpp2rcd13ifvqhfg","pricing_plan_id":"cebpf4jnsgd1na2vs0mg"},{"bike_id":"68016794-0047-4a66-9cc5-94c4375b7d8a","system_id":"levelo_inurba_marseille","lat":43.30788,"lon":5.37645,"is_reserved":false,"is_disabled":false,"rental_uris":{"android":"levelo://app?vid=68016794-0047-4a66-9cc5-94c4375b7d8a","ios":"levelo://app?vid=68016794-0047-4a66-9cc5-94c4375b7d8a"},"vehicle_type_id":"4","last_reported":1740240559,"current_range_meters":16400,"station_id":"ce4bgv92rcd13ifvqcq0","pricing_plan_id":"cebpf4jnsgd1na2vs0mg"},{"bike_id":"9de7bc96-f5c6-48ae-86b6-887443faf6de","system_id":"levelo_inurba_marseille","lat":43.27318,"lon":5.39101,"is_reserved":false,"is_disabled":false,"rental_uris":{"android":"levelo://app?vid=9de7bc96-f5c6-48ae-86b6-887443faf6de","ios":"levelo://app?vid=9de7bc96-f5c6-48ae-86b6-887443faf6de"},"vehicle_type_id":"4","last_reported":1740240559,"current_range_meters":16400,"station_id":"ce4bhgp2rcd13ifvqfe0","pricing_plan_id":"cebpf4jnsgd1na2vs0mg"},{"bike_id":"79669527-8374-4a68-afc4-50139293fd4f","system_id":"levelo_inurba_marseille","lat":43.2606,"lon":5.39402,"is_reserved":false,"is_disabled":false,"rental_uris":{"android":"levelo://app?vid=79669527-8374-4a68-afc4-50139293fd4f","ios":"levelo://app?vid=79669527-8374-4a68-afc4-50139293fd4f"},"vehicle_type_id":"4","last_reported":1740240559,"current_range_meters":16400,"station_id":"ce4bhh92rcd13ifvqfj0","pricing_plan_id":"cebpf4jnsgd1na2vs0mg"},{"bike_id":"cd1c00f0-c8b9-4e04-b4b5-658ee63fda16","system_id":"levelo_inurba_marseille","lat":43.29253,"lon":5.37628,"is_reserved":false,"is_disabled":false,"rental_uris":{"android":"levelo://app?vid=cd1c00f0-c8b9-4e04-b4b5-658ee63fda16","ios":"levelo://app?vid=cd1c00f0-c8b9-4e04-b4b5-658ee63fda16"},"vehicle_type_id":"4","last_reported":1740240559,"current_range_meters":16400,"station_id":"ce4bgi12rcd13ifvqb80","pricing_plan_id":"cebpf4jnsgd1na2vs0mg"},{"bike_id":"627c5add-4147-48b0-b7cb-f0b199e341ef","system_id":"levelo_inurba_marseille","lat":43.28421,"lon":5.34984,"is_reserved":false,"is_disabled":false,"rental_uris":{"android":"levelo://app?vid=627c5add-4147-48b0-b7cb-f0b199e341ef","ios":"levelo://app?vid=627c5add-4147-48b0-b7cb-f0b199e341ef"},"vehicle_type_id":"4","last_reported":1740240559,"current_range_meters":16800,"station_id":"ce4bhbh2rcd13ifvqepg","pricing_plan_id":"cebpf4jnsgd1na2vs0mg"},{"bike_id":"062e398f-e6a7-4740-8892-8eee8a2824bd","system_id":"levelo_inurba_marseille","lat":43.26933,"lon":5.38922,"is_reserved":false,"is_disabled":false,"rental_uris":{"android":"levelo://app?vid=062e398f-e6a7-4740-8892-8eee8a2824bd","ios":"levelo://app?vid=062e398f-e6a7-4740-8892-8eee8a2824bd"},"vehicle_type_id":"4","last_reported":1740240559,"current_range_meters":16800,"station_id":"ce4bhhh2rcd13ifvqfl0","pricing_plan_id":"cebpf4jnsgd1na2vs0mg"},{"bike_id":"d5ca0da4-96b6-4faa-b7e5-62f1a540ec9d","system_id":"levelo_inurba_marseille","lat":43.24802,"lon":5.37459,"is_reserved":false,"is_disabled":false,"rental_uris":{"android":"levelo://app?vid=d5ca0da4-96b6-4faa-b7e5-62f1a540ec9d","ios":"levelo://app?vid=d5ca0da4-96b6-4faa-b7e5-62f1a540ec9d"},"vehicle_type_id":"4","last_reported":1740240559,"current_range_meters":16800,"station_id":"ce4bhgh2rcd13ifvqfb0","pricing_plan_id":"cebpf4jnsgd1na2vs0mg"},{"bike_id":"33cc0fcb-f6e1-44bc-9328-d3f75a5791c5","system_id":"levelo_inurba_marseille","lat":43.23196,"lon":5.3556,"is_reserved":false,"is_disabled":false,"rental_uris":{"android":"levelo://app?vid=33cc0fcb-f6e1-44bc-9328-d3f75a5791c5","ios":"levelo://app?vid=33cc0fcb-f6e1-44bc-9328-d3f75a5791c5"},"vehicle_type_id":"4","last_reported":1740240559,"current_range_meters":16800,"station_id":"ce4bhu92rcd13ifvqi70","pricing_plan_id":"cebpf4jnsgd1na2vs0mg"},{"bike_id":"e501be99-a171-4e91-9e5b-ac547e4c06f2","system_id":"levelo_inurba_marseille","lat":43.23195,"lon":5.35554,"is_reserved":false,"is_disabled":false,"rental_uris":{"android":"levelo://app?vid=e501be99-a171-4e91-9e5b-ac547e4c06f2","ios":"levelo://app?vid=e501be99-a171-4e91-9e5b-ac547e4c06f2"},"vehicle_type_id":"4","last_reported":1740240559,"current_range_meters":16800,"station_id":"ce4bhu92rcd13ifvqi70","pricing_plan_id":"cebpf4jnsgd1na2vs0mg"},{"bike_id":"299ff637-8f42-4bc6-8403-f99119dc6441","system_id":"levelo_inurba_marseille","lat":43.27387,"lon":5.36238,"is_reserved":false,"is_disabled":false,"rental_uris":{"android":"levelo://app?vid=299ff637-8f42-4bc6-8403-f99119dc6441","ios":"levelo://app?vid=299ff637-8f42-4bc6-8403-f99119dc6441"},"vehicle_type_id":"4","last_reported":1740240559,"current_range_meters":16800,"station_id":"ce4bhbh2rcd13ifvqeo0","pricing_plan_id":"cebpf4jnsgd1na2vs0mg"},{"bike_id":"e4465a00-8376-4498-a0e6-8bb5789368eb","system_id":"levelo_inurba_marseille","lat":43.30309,"lon":5.39212,"is_reserved":false,"is_disabled":false,"rental_uris":{"android":"levelo://app?vid=e4465a00-8376-4498-a0e6-8bb5789368eb","ios":"levelo://app?vid=e4465a00-8376-4498-a0e6-8bb5789368eb"},"vehicle_type_id":"4","last_reported":1740240559,"current_range_meters":17200,"station_id":"ce4bgkh2rcd13ifvqbk0","pricing_plan_id":"cebpf4jnsgd1na2vs0mg"},{"bike_id":"e9881abb-8c73-43fb-958c-c9a14669644d","system_id":"levelo_inurba_marseille","lat":43.26945,"lon":5.40251,"is_reserved":false,"is_disabled":false,"rental_uris":{"android":"levelo://app?vid=e9881abb-8c73-43fb-958c-c9a14669644d","ios":"levelo://app?vid=e9881abb-8c73-43fb-958c-c9a14669644d"},"vehicle_type_id":"4","last_reported":1740240559,"current_range_meters":17200,"station_id":"cjm6bp8fraef2m0cb0m0","pricing_plan_id":"cebpf4jnsgd1na2vs0mg"},{"bike_id":"a730d1f4-90aa-4115-be16-9d572f12016a","system_id":"levelo_inurba_marseille","lat":43.29298,"lon":5.37433,"is_reserved":false,"is_disabled":false,"rental_uris":{"android":"levelo://app?vid=a730d1f4-90aa-4115-be16-9d572f12016a","ios":"levelo://app?vid=a730d1f4-90aa-4115-be16-9d572f12016a"},"vehicle_type_id":"4","last_reported":1740240559,"current_range_meters":17200,"station_id":"ce4bgi12rcd13ifvqb70","pricing_plan_id":"cebpf4jnsgd1na2vs0mg"},{"bike_id":"b51db465-74c2-41be-8426-f95d2a288791","system_id":"levelo_inurba_marseille","lat":43.29709,"lon":5.36606,"is_reserved":false,"is_disabled":false,"rental_uris":{"android":"levelo://app?vid=b51db465-74c2-41be-8426-f95d2a288791","ios":"levelo://app?vid=b51db465-74c2-41be-8426-f95d2a288791"},"vehicle_type_id":"4","last_reported":1740240559,"current_range_meters":17200,"station_id":"ce4bgn12rcd13ifvqbt0","pricing_plan_id":"cebpf4jnsgd1na2vs0mg"},{"bike_id":"a3610751-bbe4-4d3e-a717-1a0eebd2fb2a","system_id":"levelo_inurba_marseille","lat":43.30751,"lon":5.37453,"is_reserved":false,"is_disabled":false,"rental_uris":{"android":"levelo://app?vid=a3610751-bbe4-4d3e-a717-1a0eebd2fb2a","ios":"levelo://app?vid=a3610751-bbe4-4d3e-a717-1a0eebd2fb2a"},"vehicle_type_id":"4","last_reported":1740240559,"current_range_meters":17200,"station_id":"","pricing_plan_id":"cebpf4jnsgd1na2vs0mg"},{"bike_id":"18ed3344-422b-42f3-aa63-07ae4410c86a","system_id":"levelo_inurba_marseille","lat":43.292946,"lon":5.371585,"is_reserved":false,"is_disabled":false,"rental_uris":{"android":"levelo://app?vid=18ed3344-422b-42f3-aa63-07ae4410c86a","ios":"levelo://app?vid=18ed3344-422b-42f3-aa63-07ae4410c86a"},"vehicle_type_id":"4","last_reported":1740240559,"current_range_meters":17600,"station_id":"ce4bgs92rcd13ifvqcc0","pricing_plan_id":"cebpf4jnsgd1na2vs0mg"},{"bike_id":"9d553981-b22f-4e6c-bba5-6626932ac931","system_id":"levelo_inurba_marseille","lat":43.29914,"lon":5.37482,"is_reserved":false,"is_disabled":false,"rental_uris":{"android":"levelo://app?vid=9d553981-b22f-4e6c-bba5-6626932ac931","ios":"levelo://app?vid=9d553981-b22f-4e6c-bba5-6626932ac931"},"vehicle_type_id":"4","last_reported":1740240559,"current_range_meters":17200,"station_id":"ce4bgjh2rcd13ifvqbg0","pricing_plan_id":"cebpf4jnsgd1na2vs0mg"},{"bike_id":"1ef41376-cd3a-40a3-ae4a-f23a2a34fc30","system_id":"levelo_inurba_marseille","lat":43.27694,"lon":5.38891,"is_reserved":false,"is_disabled":true,"rental_uris":{"android":"levelo://app?vid=1ef41376-cd3a-40a3-ae4a-f23a2a34fc30","ios":"levelo://app?vid=1ef41376-cd3a-40a3-ae4a-f23a2a34fc30"},"vehicle_type_id":"4","last_reported":1740240559,"current_range_meters":17600,"station_id":"ce4bhi12rcd13ifvqfo0","pricing_plan_id":"cebpf4jnsgd1na2vs0mg"},{"bike_id":"2b5bd5b0-9c76-44c4-b7c6-e5a46b44435a","system_id":"levelo_inurba_marseille","lat":43.24371,"lon":5.3707,"is_reserved":false,"is_disabled":false,"rental_uris":{"android":"levelo://app?vid=2b5bd5b0-9c76-44c4-b7c6-e5a46b44435a","ios":"levelo://app?vid=2b5bd5b0-9c76-44c4-b7c6-e5a46b44435a"},"vehicle_type_id":"4","last_reported":1740240559,"current_range_meters":17600,"station_id":"ce4bhhh2rcd13ifvqfk0","pricing_plan_id":"cebpf4jnsgd1na2vs0mg"},{"bike_id":"e636832d-d31d-492b-9bcd-b899a106503d","system_id":"levelo_inurba_marseille","lat":43.2417,"lon":5.3639,"is_reserved":false,"is_disabled":false,"rental_uris":{"android":"levelo://app?vid=e636832d-d31d-492b-9bcd-b899a106503d","ios":"levelo://app?vid=e636832d-d31d-492b-9bcd-b899a106503d"},"vehicle_type_id":"4","last_reported":1740240559,"current_range_meters":17600,"station_id":"cpo36qri1sfpv3e86is0","pricing_plan_id":"cebpf4jnsgd1na2vs0mg"},{"bike_id":"24c85528-2e94-42c8-810a-70b04018934c","system_id":"levelo_inurba_marseille","lat":43.29254,"lon":5.40905,"is_reserved":false,"is_disabled":false,"rental_uris":{"android":"levelo://app?vid=24c85528-2e94-42c8-810a-70b04018934c","ios":"levelo://app?vid=24c85528-2e94-42c8-810a-70b04018934c"},"vehicle_type_id":"4","last_reported":1740240559,"current_range_meters":17600,"station_id":"ce4bh192rcd13ifvqdc0","pricing_plan_id":"cebpf4jnsgd1na2vs0mg"},{"bike_id":"e243c140-38e1-4c4b-a394-dbd7c6b48026","system_id":"levelo_inurba_marseille","lat":43.29255,"lon":5.37627,"is_reserved":false,"is_disabled":false,"rental_uris":{"android":"levelo://app?vid=e243c140-38e1-4c4b-a394-dbd7c6b48026","ios":"levelo://app?vid=e243c140-38e1-4c4b-a394-dbd7c6b48026"},"vehicle_type_id":"4","last_reported":1740240559,"current_range_meters":17600,"station_id":"ce4bgi12rcd13ifvqb80","pricing_plan_id":"cebpf4jnsgd1na2vs0mg"},{"bike_id":"7d4b257a-c60d-48e8-85d7-7dc3f985241e","system_id":"levelo_inurba_marseille","lat":43.29629,"lon":5.38562,"is_reserved":false,"is_disabled":false,"rental_uris":{"android":"levelo://app?vid=7d4b257a-c60d-48e8-85d7-7dc3f985241e","ios":"levelo://app?vid=7d4b257a-c60d-48e8-85d7-7dc3f985241e"},"vehicle_type_id":"4","last_reported":1740240559,"current_range_meters":17600,"station_id":"","pricing_plan_id":"cebpf4jnsgd1na2vs0mg"},{"bike_id":"e3815368-b7c1-4740-acd2-4c6f0e13f12d","system_id":"levelo_inurba_marseille","lat":43.29985,"lon":5.38506,"is_reserved":false,"is_disabled":false,"rental_uris":{"android":"levelo://app?vid=e3815368-b7c1-4740-acd2-4c6f0e13f12d","ios":"levelo://app?vid=e3815368-b7c1-4740-acd2-4c6f0e13f12d"},"vehicle_type_id":"4","last_reported":1740240559,"current_range_meters":17600,"station_id":"ce4bgj92rcd13ifvqbd0","pricing_plan_id":"cebpf4jnsgd1na2vs0mg"},{"bike_id":"45e7a147-ed38-4ec3-b217-294172325861","system_id":"levelo_inurba_marseille","lat":43.27995,"lon":5.41663,"is_reserved":false,"is_disabled":false,"rental_uris":{"android":"levelo://app?vid=45e7a147-ed38-4ec3-b217-294172325861","ios":"levelo://app?vid=45e7a147-ed38-4ec3-b217-294172325861"},"vehicle_type_id":"4","last_reported":1740240559,"current_range_meters":17600,"station_id":"ce4bho12rcd13ifvqh1g","pricing_plan_id":"cebpf4jnsgd1na2vs0mg"},{"bike_id":"961d7dde-da23-44a5-a74e-03bf5919f5a2","system_id":"levelo_inurba_marseille","lat":43.29632,"lon":5.40611,"is_reserved":false,"is_disabled":true,"rental_uris":{"android":"levelo://app?vid=961d7dde-da23-44a5-a74e-03bf5919f5a2","ios":"levelo://app?vid=961d7dde-da23-44a5-a74e-03bf5919f5a2"},"vehicle_type_id":"4","last_reported":1740240559,"current_range_meters":17600,"station_id":"ce4bh0h2rcd13ifvqd60","pricing_plan_id":"cebpf4jnsgd1na2vs0mg"},{"bike_id":"a3a100c3-edcc-4c48-a354-62bea5bdbf4e","system_id":"levelo_inurba_marseille","lat":43.29625,"lon":5.37731,"is_reserved":false,"is_disabled":false,"rental_uris":{"android":"levelo://app?vid=a3a100c3-edcc-4c48-a354-62bea5bdbf4e","ios":"levelo://app?vid=a3a100c3-edcc-4c48-a354-62bea5bdbf4e"},"vehicle_type_id":"4","last_reported":1740240559,"current_range_meters":18000,"station_id":"ce4bgi92rcd13ifvqb90","pricing_plan_id":"cebpf4jnsgd1na2vs0mg"},{"bike_id":"28461393-61f9-4035-a3a1-f2dc97d1f71d","system_id":"levelo_inurba_marseille","lat":43.32041,"lon":5.41552,"is_reserved":false,"is_disabled":false,"rental_uris":{"android":"levelo://app?vid=28461393-61f9-4035-a3a1-f2dc97d1f71d","ios":"levelo://app?vid=28461393-61f9-4035-a3a1-f2dc97d1f71d"},"vehicle_type_id":"4","last_reported":1740240559,"current_range_meters":18000,"station_id":"ce4bhq92rcd13ifvqhkg","pricing_plan_id":"cebpf4jnsgd1na2vs0mg"},{"bike_id":"3ac24c29-daf6-4dc2-9635-6d23fdd4373f","system_id":"levelo_inurba_marseille","lat":43.29262,"lon":5.37617,"is_reserved":false,"is_disabled":false,"rental_uris":{"android":"levelo://app?vid=3ac24c29-daf6-4dc2-9635-6d23fdd4373f","ios":"levelo://app?vid=3ac24c29-daf6-4dc2-9635-6d23fdd4373f"},"vehicle_type_id":"4","last_reported":1740240559,"current_range_meters":18000,"station_id":"ce4bgi12rcd13ifvqb80","pricing_plan_id":"cebpf4jnsgd1na2vs0mg"},{"bike_id":"4caf490d-10e5-4073-8dae-a68a285775aa","system_id":"levelo_inurba_marseille","lat":43.24393,"lon":5.37062,"is_reserved":false,"is_disabled":false,"rental_uris":{"android":"levelo://app?vid=4caf490d-10e5-4073-8dae-a68a285775aa","ios":"levelo://app?vid=4caf490d-10e5-4073-8dae-a68a285775aa"},"vehicle_type_id":"4","last_reported":1740240559,"current_range_meters":18000,"station_id":"ce4bhhh2rcd13ifvqfk0","pricing_plan_id":"cebpf4jnsgd1na2vs0mg"},{"bike_id":"7e59dcec-6e1c-4756-933c-5beab929ad03","system_id":"levelo_inurba_marseille","lat":43.30593,"lon":5.37218,"is_reserved":false,"is_disabled":false,"rental_uris":{"android":"levelo://app?vid=7e59dcec-6e1c-4756-933c-5beab929ad03","ios":"levelo://app?vid=7e59dcec-6e1c-4756-933c-5beab929ad03"},"vehicle_type_id":"4","last_reported":1740240559,"current_range_meters":18000,"station_id":"ce4bgqh2rcd13ifvqc4g","pricing_plan_id":"cebpf4jnsgd1na2vs0mg"},{"bike_id":"c4a3f5dd-b8d8-4d73-8a8f-ea8b0e26e290","system_id":"levelo_inurba_marseille","lat":43.29976,"lon":5.41317,"is_reserved":false,"is_disabled":false,"rental_uris":{"android":"levelo://app?vid=c4a3f5dd-b8d8-4d73-8a8f-ea8b0e26e290","ios":"levelo://app?vid=c4a3f5dd-b8d8-4d73-8a8f-ea8b0e26e290"},"vehicle_type_id":"4","last_reported":1740240559,"current_range_meters":18000,"station_id":"ce4bhp12rcd13ifvqh9g","pricing_plan_id":"cebpf4jnsgd1na2vs0mg"},{"bike_id":"79309bab-0a45-4f63-8de8-8a96415815fd","system_id":"levelo_inurba_marseille","lat":43.28424,"lon":5.34988,"is_reserved":false,"is_disabled":false,"rental_uris":{"android":"levelo://app?vid=79309bab-0a45-4f63-8de8-8a96415815fd","ios":"levelo://app?vid=79309bab-0a45-4f63-8de8-8a96415815fd"},"vehicle_type_id":"4","last_reported":1740240559,"current_range_meters":18000,"station_id":"ce4bhbh2rcd13ifvqepg","pricing_plan_id":"cebpf4jnsgd1na2vs0mg"},{"bike_id":"ab241ceb-dc60-45de-b75e-f84473b5cb42","system_id":"levelo_inurba_marseille","lat":43.30139,"lon":5.38798,"is_reserved":false,"is_disabled":false,"rental_uris":{"android":"levelo://app?vid=ab241ceb-dc60-45de-b75e-f84473b5cb42","ios":"levelo://app?vid=ab241ceb-dc60-45de-b75e-f84473b5cb42"},"vehicle_type_id":"4","last_reported":1740240559,"current_range_meters":18000,"station_id":"ce4bghh2rcd13ifvqb60","pricing_plan_id":"cebpf4jnsgd1na2vs0mg"},{"bike_id":"7edad6f1-bb02-4747-8467-5494540e990b","system_id":"levelo_inurba_marseille","lat":43.25014,"lon":5.38918,"is_reserved":false,"is_disabled":false,"rental_uris":{"android":"levelo://app?vid=7edad6f1-bb02-4747-8467-5494540e990b","ios":"levelo://app?vid=7edad6f1-bb02-4747-8467-5494540e990b"},"vehicle_type_id":"4","last_reported":1740240559,"current_range_meters":18000,"station_id":"ce4bhgp2rcd13ifvqfd0","pricing_plan_id":"cebpf4jnsgd1na2vs0mg"},{"bike_id":"2d48a8bd-17d9-4555-911e-74366fcea1d7","system_id":"levelo_inurba_marseille","lat":43.272076,"lon":5.391759,"is_reserved":false,"is_disabled":false,"rental_uris":{"android":"levelo://app?vid=2d48a8bd-17d9-4555-911e-74366fcea1d7","ios":"levelo://app?vid=2d48a8bd-17d9-4555-911e-74366fcea1d7"},"vehicle_type_id":"4","last_reported":1740240559,"current_range_meters":18000,"station_id":"ce4bhhp2rcd13ifvqfm0","pricing_plan_id":"cebpf4jnsgd1na2vs0mg"},{"bike_id":"7642857f-6c07-4f45-be58-0739c2392ff4","system_id":"levelo_inurba_marseille","lat":43.29855,"lon":5.376558,"is_reserved":false,"is_disabled":false,"rental_uris":{"android":"levelo://app?vid=7642857f-6c07-4f45-be58-0739c2392ff4","ios":"levelo://app?vid=7642857f-6c07-4f45-be58-0739c2392ff4"},"vehicle_type_id":"4","last_reported":1740240559,"current_range_meters":18000,"station_id":"ce4bgs92rcd13ifvqcc0","pricing_plan_id":"cebpf4jnsgd1na2vs0mg"},{"bike_id":"d0d2b2a7-ca60-4a01-8b81-ceb9fb418507","system_id":"levelo_inurba_marseille","lat":43.285768,"lon":5.394979,"is_reserved":false,"is_disabled":false,"rental_uris":{"android":"levelo://app?vid=d0d2b2a7-ca60-4a01-8b81-ceb9fb418507","ios":"levelo://app?vid=d0d2b2a7-ca60-4a01-8b81-ceb9fb418507"},"vehicle_type_id":"4","last_reported":1740240559,"current_range_meters":18000,"station_id":"ce4bh292rcd13ifvqdg0","pricing_plan_id":"cebpf4jnsgd1na2vs0mg"},{"bike_id":"80e30e07-59ff-4807-b06b-c6dc1a9e08e2","system_id":"levelo_inurba_marseille","lat":43.33623,"lon":5.40991,"is_reserved":false,"is_disabled":true,"rental_uris":{"android":"levelo://app?vid=80e30e07-59ff-4807-b06b-c6dc1a9e08e2","ios":"levelo://app?vid=80e30e07-59ff-4807-b06b-c6dc1a9e08e2"},"vehicle_type_id":"4","last_reported":1740240559,"current_range_meters":18800,"station_id":"ce4bhqh2rcd13ifvqhmg","pricing_plan_id":"cebpf4jnsgd1na2vs0mg"},{"bike_id":"afeaab14-9ed8-47e0-8466-7bcb9bfaecb0","system_id":"levelo_inurba_marseille","lat":43.30791,"lon":5.37656,"is_reserved":false,"is_disabled":false,"rental_uris":{"android":"levelo://app?vid=afeaab14-9ed8-47e0-8466-7bcb9bfaecb0","ios":"levelo://app?vid=afeaab14-9ed8-47e0-8466-7bcb9bfaecb0"},"vehicle_type_id":"4","last_reported":1740240559,"current_range_meters":18800,"station_id":"ce4bgv92rcd13ifvqcq0","pricing_plan_id":"cebpf4jnsgd1na2vs0mg"},{"bike_id":"94d81672-f077-455d-ad5d-d4332136c2a8","system_id":"levelo_inurba_marseille","lat":43.22934,"lon":5.35385,"is_reserved":false,"is_disabled":false,"rental_uris":{"android":"levelo://app?vid=94d81672-f077-455d-ad5d-d4332136c2a8","ios":"levelo://app?vid=94d81672-f077-455d-ad5d-d4332136c2a8"},"vehicle_type_id":"4","last_reported":1740240559,"current_range_meters":18800,"station_id":"cpo3532slgdg3j2ikp40","pricing_plan_id":"cebpf4jnsgd1na2vs0mg"},{"bike_id":"b9a98602-36d6-4268-a5fa-484252ff1060","system_id":"levelo_inurba_marseille","lat":43.29713,"lon":5.36611,"is_reserved":false,"is_disabled":false,"rental_uris":{"android":"levelo://app?vid=b9a98602-36d6-4268-a5fa-484252ff1060","ios":"levelo://app?vid=b9a98602-36d6-4268-a5fa-484252ff1060"},"vehicle_type_id":"4","last_reported":1740240559,"current_range_meters":18800,"station_id":"ce4bgn12rcd13ifvqbt0","pricing_plan_id":"cebpf4jnsgd1na2vs0mg"},{"bike_id":"cffd3f51-0d89-4bb2-a95a-1be3aa1d0fd0","system_id":"levelo_inurba_marseille","lat":43.28152,"lon":5.42641,"is_reserved":false,"is_disabled":false,"rental_uris":{"android":"levelo://app?vid=cffd3f51-0d89-4bb2-a95a-1be3aa1d0fd0","ios":"levelo://app?vid=cffd3f51-0d89-4bb2-a95a-1be3aa1d0fd0"},"vehicle_type_id":"4","last_reported":1740240559,"current_range_meters":18800,"station_id":"ce4bhnh2rcd13ifvqgug","pricing_plan_id":"cebpf4jnsgd1na2vs0mg"},{"bike_id":"b53a4f3e-43fd-4846-bdc9-a055fea68d1a","system_id":"levelo_inurba_marseille","lat":43.28478,"lon":5.38534,"is_reserved":false,"is_disabled":false,"rental_uris":{"android":"levelo://app?vid=b53a4f3e-43fd-4846-bdc9-a055fea68d1a","ios":"levelo://app?vid=b53a4f3e-43fd-4846-bdc9-a055fea68d1a"},"vehicle_type_id":"4","last_reported":1740240559,"current_range_meters":18800,"station_id":"ce4bh8p2rcd13ifvqeb0","pricing_plan_id":"cebpf4jnsgd1na2vs0mg"},{"bike_id":"b5290351-b7f6-496c-8d19-e2a5f9e67dd3","system_id":"levelo_inurba_marseille","lat":43.29624,"lon":5.37714,"is_reserved":false,"is_disabled":false,"rental_uris":{"android":"levelo://app?vid=b5290351-b7f6-496c-8d19-e2a5f9e67dd3","ios":"levelo://app?vid=b5290351-b7f6-496c-8d19-e2a5f9e67dd3"},"vehicle_type_id":"4","last_reported":1740240559,"current_range_meters":18800,"station_id":"ce4bgi92rcd13ifvqb90","pricing_plan_id":"cebpf4jnsgd1na2vs0mg"},{"bike_id":"53568275-4639-4c0e-9029-d01daf3c4cac","system_id":"levelo_inurba_marseille","lat":43.29576,"lon":5.39988,"is_reserved":false,"is_disabled":false,"rental_uris":{"android":"levelo://app?vid=53568275-4639-4c0e-9029-d01daf3c4cac","ios":"levelo://app?vid=53568275-4639-4c0e-9029-d01daf3c4cac"},"vehicle_type_id":"4","last_reported":1740240559,"current_range_meters":18800,"station_id":"ce4bh312rcd13ifvqdj0","pricing_plan_id":"cebpf4jnsgd1na2vs0mg"},{"bike_id":"47c58b1f-0f04-4a95-ba73-4d794abee5f2","system_id":"levelo_inurba_marseille","lat":43.30462,"lon":5.38898,"is_reserved":false,"is_disabled":true,"rental_uris":{"android":"levelo://app?vid=47c58b1f-0f04-4a95-ba73-4d794abee5f2","ios":"levelo://app?vid=47c58b1f-0f04-4a95-ba73-4d794abee5f2"},"vehicle_type_id":"4","last_reported":1740240559,"current_range_meters":19200,"station_id":"ce4bgk12rcd13ifvqbi0","pricing_plan_id":"cebpf4jnsgd1na2vs0mg"},{"bike_id":"de81591b-6e66-45cd-ac7e-e72f16bc7a0f","system_id":"levelo_inurba_marseille","lat":43.29603,"lon":5.37709,"is_reserved":false,"is_disabled":false,"rental_uris":{"android":"levelo://app?vid=de81591b-6e66-45cd-ac7e-e72f16bc7a0f","ios":"levelo://app?vid=de81591b-6e66-45cd-ac7e-e72f16bc7a0f"},"vehicle_type_id":"4","last_reported":1740240559,"current_range_meters":19200,"station_id":"ce4bgi92rcd13ifvqb90","pricing_plan_id":"cebpf4jnsgd1na2vs0mg"},{"bike_id":"106c4968-9d80-4f8c-861b-e55c9ad8ae95","system_id":"levelo_inurba_marseille","lat":43.23964,"lon":5.36631,"is_reserved":false,"is_disabled":false,"rental_uris":{"android":"levelo://app?vid=106c4968-9d80-4f8c-861b-e55c9ad8ae95","ios":"levelo://app?vid=106c4968-9d80-4f8c-861b-e55c9ad8ae95"},"vehicle_type_id":"4","last_reported":1740240559,"current_range_meters":19200,"station_id":"ce4bhi12rcd13ifvqfp0","pricing_plan_id":"cebpf4jnsgd1na2vs0mg"},{"bike_id":"d3489347-aa10-4e51-88d8-3ed1a9fb80eb","system_id":"levelo_inurba_marseille","lat":43.23196,"lon":5.35558,"is_reserved":false,"is_disabled":false,"rental_uris":{"android":"levelo://app?vid=d3489347-aa10-4e51-88d8-3ed1a9fb80eb","ios":"levelo://app?vid=d3489347-aa10-4e51-88d8-3ed1a9fb80eb"},"vehicle_type_id":"4","last_reported":1740240559,"current_range_meters":19200,"station_id":"ce4bhu92rcd13ifvqi70","pricing_plan_id":"cebpf4jnsgd1na2vs0mg"},{"bike_id":"9faf844a-413f-419f-bdea-64830f7f2bfb","system_id":"levelo_inurba_marseille","lat":43.29891,"lon":5.3789,"is_reserved":false,"is_disabled":false,"rental_uris":{"android":"levelo://app?vid=9faf844a-413f-419f-bdea-64830f7f2bfb","ios":"levelo://app?vid=9faf844a-413f-419f-bdea-64830f7f2bfb"},"vehicle_type_id":"4","last_reported":1740240559,"current_range_meters":19200,"station_id":"","pricing_plan_id":"cebpf4jnsgd1na2vs0mg"},{"bike_id":"70df238e-2623-41c1-ab9f-8a5cc0883a82","system_id":"levelo_inurba_marseille","lat":43.24389,"lon":5.37056,"is_reserved":false,"is_disabled":false,"rental_uris":{"android":"levelo://app?vid=70df238e-2623-41c1-ab9f-8a5cc0883a82","ios":"levelo://app?vid=70df238e-2623-41c1-ab9f-8a5cc0883a82"},"vehicle_type_id":"4","last_reported":1740240559,"current_range_meters":19200,"station_id":"ce4bhhh2rcd13ifvqfk0","pricing_plan_id":"cebpf4jnsgd1na2vs0mg"},{"bike_id":"ceadee61-f043-4a2d-8be0-14c8d26fe957","system_id":"levelo_inurba_marseille","lat":43.2737,"lon":5.36256,"is_reserved":false,"is_disabled":false,"rental_uris":{"android":"levelo://app?vid=ceadee61-f043-4a2d-8be0-14c8d26fe957","ios":"levelo://app?vid=ceadee61-f043-4a2d-8be0-14c8d26fe957"},"vehicle_type_id":"4","last_reported":1740240559,"current_range_meters":19200,"station_id":"ce4bhbh2rcd13ifvqeo0","pricing_plan_id":"cebpf4jnsgd1na2vs0mg"},{"bike_id":"c4db360b-81fb-47b5-9502-fe51f33ee24b","system_id":"levelo_inurba_marseille","lat":43.30145,"lon":5.38081,"is_reserved":false,"is_disabled":false,"rental_uris":{"android":"levelo://app?vid=c4db360b-81fb-47b5-9502-fe51f33ee24b","ios":"levelo://app?vid=c4db360b-81fb-47b5-9502-fe51f33ee24b"},"vehicle_type_id":"4","last_reported":1740240559,"current_range_meters":19200,"station_id":"ce4bgjp2rcd13ifvqbh0","pricing_plan_id":"cebpf4jnsgd1na2vs0mg"},{"bike_id":"0900b9d7-fcd7-4d9d-9f28-ba583a56952e","system_id":"levelo_inurba_marseille","lat":43.23157,"lon":5.43713,"is_reserved":false,"is_disabled":false,"rental_uris":{"android":"levelo://app?vid=0900b9d7-fcd7-4d9d-9f28-ba583a56952e","ios":"levelo://app?vid=0900b9d7-fcd7-4d9d-9f28-ba583a56952e"},"vehicle_type_id":"4","last_reported":1740240559,"current_range_meters":19200,"station_id":"ce4bhmp2rcd13ifvqgog","pricing_plan_id":"cebpf4jnsgd1na2vs0mg"},{"bike_id":"8814187a-467f-4d17-9736-fc6d62a15fc6","system_id":"levelo_inurba_marseille","lat":43.29186,"lon":5.39304,"is_reserved":false,"is_disabled":false,"rental_uris":{"android":"levelo://app?vid=8814187a-467f-4d17-9736-fc6d62a15fc6","ios":"levelo://app?vid=8814187a-467f-4d17-9736-fc6d62a15fc6"},"vehicle_type_id":"4","last_reported":1740240559,"current_range_meters":19600,"station_id":"ce4bh192rcd13ifvqdd0","pricing_plan_id":"cebpf4jnsgd1na2vs0mg"},{"bike_id":"0df64bda-9fb4-463c-b4bf-4cd2fc7202f1","system_id":"levelo_inurba_marseille","lat":43.29273,"lon":5.36851,"is_reserved":false,"is_disabled":false,"rental_uris":{"android":"levelo://app?vid=0df64bda-9fb4-463c-b4bf-4cd2fc7202f1","ios":"levelo://app?vid=0df64bda-9fb4-463c-b4bf-4cd2fc7202f1"},"vehicle_type_id":"4","last_reported":1740240559,"current_range_meters":19600,"station_id":"ce4bhbp2rcd13ifvqesg","pricing_plan_id":"cebpf4jnsgd1na2vs0mg"},{"bike_id":"5bc71f29-f522-4a86-9b57-bc6aa6ca09fc","system_id":"levelo_inurba_marseille","lat":43.265656,"lon":5.372918,"is_reserved":false,"is_disabled":false,"rental_uris":{"android":"levelo://app?vid=5bc71f29-f522-4a86-9b57-bc6aa6ca09fc","ios":"levelo://app?vid=5bc71f29-f522-4a86-9b57-bc6aa6ca09fc"},"vehicle_type_id":"4","last_reported":1740240559,"current_range_meters":19600,"station_id":"","pricing_plan_id":"cebpf4jnsgd1na2vs0mg"},{"bike_id":"21728fd2-eb5a-423f-88b6-2b8e16ee823e","system_id":"levelo_inurba_marseille","lat":43.23956,"lon":5.36667,"is_reserved":false,"is_disabled":false,"rental_uris":{"android":"levelo://app?vid=21728fd2-eb5a-423f-88b6-2b8e16ee823e","ios":"levelo://app?vid=21728fd2-eb5a-423f-88b6-2b8e16ee823e"},"vehicle_type_id":"4","last_reported":1740240559,"current_range_meters":19600,"station_id":"ce4bhi12rcd13ifvqfp0","pricing_plan_id":"cebpf4jnsgd1na2vs0mg"},