{"last_updated":1753348548,"ttl":60,"version":"2.2","data":{"bikes":[{"bike_id":"821cb3e6-1fa9-4f8b-bf57-a1dd109520dd","system_id":"levelo_inurba_marseille","lat":43.30379,"lon":5.42485,"is_reserved":false,"is_disabled":false,"rental_uris":{"android":"levelo://app?vid=821cb3e6-1fa9-4f8b-bf57-a1dd109520dd","ios":"levelo://app?vid=821cb3e6-1fa9-4f8b-bf57-a1dd109520dd"},"vehicle_type_id":"4","last_reported":1753348548,"current_range_meters":3200,"station_id":"ce4bhoh2rcd13ifvqh6g","pricing_plan_id":"cebpf4jnsgd1na2vs0mg"},{"bike_id":"e5d98079-9cb4-400a-af23-e52c4ed7f26e","system_id":"levelo_inurba_marseille","lat":43.25116,"lon":5.40352,"is_reserved":false,"is_disabled":false,"rental_uris":{"android":"levelo://app?vid=e5d98079-9cb4-400a-af23-e52c4ed7f26e","ios":"levelo://app?vid=e5d98079-9cb4-400a-af23-e52c4ed7f26e"},"vehicle_type_id":"4","last_reported":1753348548,"current_range_meters":4400,"station_id":"ce4bhlh2rcd13ifvqgig","pricing_plan_id":"cebpf4jnsgd1na2vs0mg"},{"bike_id":"d07f0755-aca6-4050-807e-9c5aaf0dd619","system_id":"levelo_inurba_marseille","lat":43.296823,"lon":5.372723,"is_reserved":false,"is_disabled":false,"rental_uris":{"android":"levelo://app?vid=d07f0755-aca6-4050-807e-9c5aaf0dd619","ios":"levelo://app?vid=d07f0755-aca6-4050-807e-9c5aaf0dd619"},"vehicle_type_id":"4","last_reported":1753348548,"current_range_meters":4800,"station_id":"ce4bgk12rcd13ifvqbj0","pricing_plan_id":"cebpf4jnsgd1na2vs0mg"},{"bike_id":"9ae7d50c-a3ea-4136-8080-315c191e000a","system_id":"levelo_inurba_marseille","lat":43.287609,"lon":5.384133,"is_reserved":false,"is_disabled":false,"rental_uris":{"android":"levelo://app?vid=9ae7d50c-a3ea-4136-8080-315c191e000a","ios":"levelo://app?vid=9ae7d50c-a3ea-4136-8080-315c191e000a"},"vehicle_type_id":"4","last_reported":1753348548,"current_range_meters":4800,"station_id":"","pricing_plan_id":"cebpf4jnsgd1na2vs0mg"},{"bike_id":"3f4d8445-a2c5-45e4-800c-019d64fbb997","system_id":"levelo_inurba_marseille","lat":43.32516,"lon":5.36556,"is_reserved":false,"is_disabled":false,"rental_uris":{"android":"levelo://app?vid=3f4d8445-a2c5-45e4-800c-019d64fbb997","ios":"levelo://app?vid=3f4d8445-a2c5-45e4-800c-019d64fbb997"},"vehicle_type_id":"4","last_reported":1753348548,"current_range_meters":4800,"station_id":"ce4bhs12rcd13ifvqhvg","pricing_plan_id":"cebpf4jnsgd1na2vs0mg"},{"bike_id":"c8cbe188-8c80-4aac-881d-65feb870e521","system_id":"levelo_inurba_marseille","lat":43.33019,"lon":5.38044,"is_reserved":false,"is_disabled":false,"rental_uris":{"android":"levelo://app?vid=c8cbe188-8c80-4aac-881d-65feb870e521","ios":"levelo://app?vid=c8cbe188-8c80-4aac-881d-65feb870e521"},"vehicle_type_id":"4","last_reported":1753348548,"current_range_meters":5600,"station_id":"","pricing_plan_id":"cebpf4jnsgd1na2vs0mg"},{"bike_id":"4986c658-5682-4f57-b59a-6cf423aee7a3","system_id":"levelo_inurba_marseille","lat":43.2293,"lon":5.35378,"is_reserved":false,"is_disabled":true,"rental_uris":{"android":"levelo://app?vid=4986c658-5682-4f57-b59a-6cf423aee7a3","ios":"levelo://app?vid=4986c658-5682-4f57-b59a-6cf423aee7a3"},"vehicle_type_id":"4","last_reported":1753348548,"current_range_meters":5600,"station_id":"cpo3532slgdg3j2ikp40","pricing_plan_id":"cebpf4jnsgd1na2vs0mg"},{"bike_id":"5f369c58-d967-401d-a6a1-0c44c0e380ad","system_id":"levelo_inurba_marseille","lat":43.29031,"lon":5.38643,"is_reserved":false,"is_disabled":false,"rental_uris":{"android":"levelo://app?vid=5f369c58-d967-401d-a6a1-0c44c0e380ad","ios":"levelo://app?vid=5f369c58-d967-401d-a6a1-0c44c0e380ad"},"vehicle_type_id":"4","last_reported":1753348548,"current_range_meters":5600,"station_id":"ce4bh4p2rcd13ifvqe0g","pricing_plan_id":"cebpf4jnsgd1na2vs0mg"},{"bike_id":"cec54183-4175-4e4a-8f8a-f4fafb6e7dc0","system_id":"levelo_inurba_marseille","lat":43.27997,"lon":5.38991,"is_reserved":false,"is_disabled":false,"rental_uris":{"android":"levelo://app?vid=cec54183-4175-4e4a-8f8a-f4fafb6e7dc0","ios":"levelo://app?vid=cec54183-4175-4e4a-8f8a-f4fafb6e7dc0"},"vehicle_type_id":"4","last_reported":1753348548,"current_range_meters":6000,"station_id":"","pricing_plan_id":"cebpf4jnsgd1na2vs0mg"},{"bike_id":"10a786b1-ffb4-4f65-bf51-fa0439872b10","system_id":"levelo_inurba_marseille","lat":43.29569,"lon":5.37532,"is_reserved":false,"is_disabled":false,"rental_uris":{"android":"levelo://app?vid=10a786b1-ffb4-4f65-bf51-fa0439872b10","ios":"levelo://app?vid=10a786b1-ffb4-4f65-bf51-fa0439872b10"},"vehicle_type_id":"4","last_reported":1753348548,"current_range_meters":6400,"station_id":"ce4bgh92rcd13ifvqb50","pricing_plan_id":"cebpf4jnsgd1na2vs0mg"},{"bike_id":"ce515b35-9564-429b-a4fa-87a1d317e3cb","system_id":"levelo_inurba_marseille","lat":43.26947,"lon":5.38642,"is_reserved":false,"is_disabled":true,"rental_uris":{"android":"levelo://app?vid=ce515b35-9564-429b-a4fa-87a1d317e3cb","ios":"levelo://app?vid=ce515b35-9564-429b-a4fa-87a1d317e3cb"},"vehicle_type_id":"4","last_reported":1753348548,"current_range_meters":6400,"station_id":"ce4bhh92rcd13ifvqfh0","pricing_plan_id":"cebpf4jnsgd1na2vs0mg"},{"bike_id":"f4a429e1-0201-4a34-8cbe-95a5d754bab0","system_id":"levelo_inurba_marseille","lat":43.308893,"lon":5.371957,"is_reserved":false,"is_disabled":false,"rental_uris":{"android":"levelo://app?vid=f4a429e1-0201-4a34-8cbe-95a5d754bab0","ios":"levelo://app?vid=f4a429e1-0201-4a34-8cbe-95a5d754bab0"},"vehicle_type_id":"4","last_reported":1753348548,"current_range_meters":6800,"station_id":"ce4bguh2rcd13ifvqckg","pricing_plan_id":"cebpf4jnsgd1na2vs0mg"},{"bike_id":"c9dbd36b-479c-4a5c-b200-3aa7673340d9","system_id":"levelo_inurba_marseille","lat":43.241448,"lon":5.363743,"is_reserved":false,"is_disabled":false,"rental_uris":{"android":"levelo://app?vid=c9dbd36b-479c-4a5c-b200-3aa7673340d9","ios":"levelo://app?vid=c9dbd36b-479c-4a5c-b200-3aa7673340d9"},"vehicle_type_id":"4","last_reported":1753348548,"current_range_meters":6800,"station_id":"","pricing_plan_id":"cebpf4jnsgd1na2vs0mg"},{"bike_id":"58eef4ae-5a6f-4653-9de7-0d08a322bee4","system_id":"levelo_inurba_marseille","lat":43.26681,"lon":5.38266,"is_reserved":false,"is_disabled":false,"rental_uris":{"android":"levelo://app?vid=58eef4ae-5a6f-4653-9de7-0d08a322bee4","ios":"levelo://app?vid=58eef4ae-5a6f-4653-9de7-0d08a322bee4"},"vehicle_type_id":"4","last_reported":1753348548,"current_range_meters":6800,"station_id":"ce4bhg92rcd13ifvqf90","pricing_plan_id":"cebpf4jnsgd1na2vs0mg"},{"bike_id":"60e79c8f-bceb-4693-9e1b-f5875ae288f7","system_id":"levelo_inurba_marseille","lat":43.29258,"lon":5.37615,"is_reserved":false,"is_disabled":false,"rental_uris":{"android":"levelo://app?vid=60e79c8f-bceb-4693-9e1b-f5875ae288f7","ios":"levelo://app?vid=60e79c8f-bceb-4693-9e1b-f5875ae288f7"},"vehicle_type_id":"4","last_reported":1753348548,"current_range_meters":7200,"station_id":"ce4bgi12rcd13ifvqb80","pricing_plan_id":"cebpf4jnsgd1na2vs0mg"},{"bike_id":"be572536-0f3f-4d3e-97ff-16111e9e8281","system_id":"levelo_inurba_marseille","lat":43.28494,"lon":5.38549,"is_reserved":false,"is_disabled":false,"rental_uris":{"android":"levelo://app?vid=be572536-0f3f-4d3e-97ff-16111e9e8281","ios":"levelo://app?vid=be572536-0f3f-4d3e-97ff-16111e9e8281"},"vehicle_type_id":"4","last_reported":1753348548,"current_range_meters":7200,"station_id":"ce4bh8p2rcd13ifvqeb0","pricing_plan_id":"cebpf4jnsgd1na2vs0mg"},{"bike_id":"e2147a94-829f-4cdc-b1e4-a651d14cbbf8","system_id":"levelo_inurba_marseille","lat":43.29516,"lon":5.38546,"is_reserved":false,"is_disabled":false,"rental_uris":{"android":"levelo://app?vid=e2147a94-829f-4cdc-b1e4-a651d14cbbf8","ios":"levelo://app?vid=e2147a94-829f-4cdc-b1e4-a651d14cbbf8"},"vehicle_type_id":"4","last_reported":1753348548,"current_range_meters":7200,"station_id":"ce4bgih2rcd13ifvqba0","pricing_plan_id":"cebpf4jnsgd1na2vs0mg"},{"bike_id":"aa5097b6-6968-4aec-b711-e7780938924b","system_id":"levelo_inurba_marseille","lat":43.32955,"lon":5.35892,"is_reserved":false,"is_disabled":false,"rental_uris":{"android":"levelo://app?vid=aa5097b6-6968-4aec-b711-e7780938924b","ios":"levelo://app?vid=aa5097b6-6968-4aec-b711-e7780938924b"},"vehicle_type_id":"4","last_reported":1753348548,"current_range_meters":7200,"station_id":"","pricing_plan_id":"cebpf4jnsgd1na2vs0mg"},{"bike_id":"49817bfa-2976-4626-b9b0-d6e3f4481d9b","system_id":"levelo_inurba_marseille","lat":43.303741,"lon":5.424851,"is_reserved":false,"is_disabled":false,"rental_uris":{"android":"levelo://app?vid=49817bfa-2976-4626-b9b0-d6e3f4481d9b","ios":"levelo://app?vid=49817bfa-2976-4626-b9b0-d6e3f4481d9b"},"vehicle_type_id":"4","last_reported":1753348548,"current_range_meters":8000,"station_id":"","pricing_plan_id":"cebpf4jnsgd1na2vs0mg"},{"bike_id":"d65707c3-7f5e-4aa5-9da8-93a83fae045c","system_id":"levelo_inurba_marseille","lat":43.3042,"lon":5.41275,"is_reserved":false,"is_disabled":false,"rental_uris":{"android":"levelo://app?vid=d65707c3-7f5e-4aa5-9da8-93a83fae045c","ios":"levelo://app?vid=d65707c3-7f5e-4aa5-9da8-93a83fae045c"},"vehicle_type_id":"4","last_reported":1753348548,"current_range_meters":8000,"station_id":"ce4bhop2rcd13ifvqh8g","pricing_plan_id":"cebpf4jnsgd1na2vs0mg"},{"bike_id":"1a656c69-ccae-495a-9c51-9447bd9fc465","system_id":"levelo_inurba_marseille","lat":43.283463,"lon":5.381189,"is_reserved":false,"is_disabled":true,"rental_uris":{"android":"levelo://app?vid=1a656c69-ccae-495a-9c51-9447bd9fc465","ios":"levelo://app?vid=1a656c69-ccae-495a-9c51-9447bd9fc465"},"vehicle_type_id":"4","last_reported":1753348548,"current_range_meters":8000,"station_id":"ce4bh412rcd13ifvqdr0","pricing_plan_id":"cebpf4jnsgd1na2vs0mg"},{"bike_id":"023f4996-d01b-4602-bab6-cfc524f78a45","system_id":"levelo_inurba_marseille","lat":43.26222,"lon":5.40462,"is_reserved":false,"is_disabled":false,"rental_uris":{"android":"levelo://app?vid=023f4996-d01b-4602-bab6-cfc524f78a45","ios":"levelo://app?vid=023f4996-d01b-4602-bab6-cfc524f78a45"},"vehicle_type_id":"4","last_reported":1753348548,"current_range_meters":8000,"station_id":"ce4bhmh2rcd13ifvqgmg","pricing_plan_id":"cebpf4jnsgd1na2vs0mg"},{"bike_id":"ab87e1f7-abe2-4879-8847-579f441a056a","system_id":"levelo_inurba_marseille","lat":43.310852,"lon":5.424364,"is_reserved":false,"is_disabled":false,"rental_uris":{"android":"levelo://app?vid=ab87e1f7-abe2-4879-8847-579f441a056a","ios":"levelo://app?vid=ab87e1f7-abe2-4879-8847-579f441a056a"},"vehicle_type_id":"4","last_reported":1753348548,"current_range_meters":8400,"station_id":"ce4bhp92rcd13ifvqhag","pricing_plan_id":"cebpf4jnsgd1na2vs0mg"},{"bike_id":"da053e6a-15f2-492e-8bc1-42b1d66cc329","system_id":"levelo_inurba_marseille","lat":43.28348,"lon":5.43292,"is_reserved":false,"is_disabled":false,"rental_uris":{"android":"levelo://app?vid=da053e6a-15f2-492e-8bc1-42b1d66cc329","ios":"levelo://app?vid=da053e6a-15f2-492e-8bc1-42b1d66cc329"},"vehicle_type_id":"4","last_reported":1753348548,"current_range_meters":8800,"station_id":"","pricing_plan_id":"cebpf4jnsgd1na2vs0mg"},{"bike_id":"77e0dd93-0bcc-470a-8331-6bd36f5fb054","system_id":"levelo_inurba_marseille","lat":43.29492,"lon":5.39047,"is_reserved":false,"is_disabled":false,"rental_uris":{"android":"levelo://app?vid=77e0dd93-0bcc-470a-8331-6bd36f5fb054","ios":"levelo://app?vid=77e0dd93-0bcc-470a-8331-6bd36f5fb054"},"vehicle_type_id":"4","last_reported":1753348548,"current_range_meters":8800,"station_id":"ce4bh3p2rcd13ifvqdp0","pricing_plan_id":"cebpf4jnsgd1na2vs0mg"},{"bike_id":"b6832926-da2e-4163-ac11-03f912340072","system_id":"levelo_inurba_marseille","lat":43.29842,"lon":5.36267,"is_reserved":false,"is_disabled":false,"rental_uris":{"android":"levelo://app?vid=b6832926-da2e-4163-ac11-03f912340072","ios":"levelo://app?vid=b6832926-da2e-4163-ac11-03f912340072"},"vehicle_type_id":"4","last_reported":1753348548,"current_range_meters":8800,"station_id":"ce4bgpp2rcd13ifvqc3g","pricing_plan_id":"cebpf4jnsgd1na2vs0mg"},{"bike_id":"b2ef9c3e-8c97-40fc-8e1d-e6bb2eb213e4","system_id":"levelo_inurba_marseille","lat":43.21737,"lon":5.34611,"is_reserved":false,"is_disabled":false,"rental_uris":{"android":"levelo://app?vid=b2ef9c3e-8c97-40fc-8e1d-e6bb2eb213e4","ios":"levelo://app?vid=b2ef9c3e-8c97-40fc-8e1d-e6bb2eb213e4"},"vehicle_type_id":"4","last_reported":1753348548,"current_range_meters":8800,"station_id":"st_cvj6r9ubvosntc0bgbag","pricing_plan_id":"cebpf4jnsgd1na2vs0mg"},{"bike_id":"9f3ed220-9e9e-4bc8-a5f6-aeb6066011ca","system_id":"levelo_inurba_marseille","lat":43.26206,"lon":5.3744,"is_reserved":false,"is_disabled":false,"rental_uris":{"android":"levelo://app?vid=9f3ed220-9e9e-4bc8-a5f6-aeb6066011ca","ios":"levelo://app?vid=9f3ed220-9e9e-4bc8-a5f6-aeb6066011ca"},"vehicle_type_id":"4","last_reported":1753348548,"current_range_meters":8800,"station_id":"ce4bhgp2rcd13ifvqfc0","pricing_plan_id":"cebpf4jnsgd1na2vs0mg"},{"bike_id":"7f963e76-4c2a-4b2d-a6e7-6e4e7f5b20c6","system_id":"levelo_inurba_marseille","lat":43.31507,"lon":5.37394,"is_reserved":false,"is_disabled":false,"rental_uris":{"android":"levelo://app?vid=7f963e76-4c2a-4b2d-a6e7-6e4e7f5b20c6","ios":"levelo://app?vid=7f963e76-4c2a-4b2d-a6e7-6e4e7f5b20c6"},"vehicle_type_id":"4","last_reported":1753348548,"current_range_meters":9200,"station_id":"","pricing_plan_id":"cebpf4jnsgd1na2vs0mg"},{"bike_id":"0bd714f8-16c9-40fd-9131-b104dcaea400","system_id":"levelo_inurba_marseille","lat":43.29035,"lon":5.38644,"is_reserved":false,"is_disabled":false,"rental_uris":{"android":"levelo://app?vid=0bd714f8-16c9-40fd-9131-b104dcaea400","ios":"levelo://app?vid=0bd714f8-16c9-40fd-9131-b104dcaea400"},"vehicle_type_id":"4","last_reported":1753348548,"current_range_meters":9200,"station_id":"ce4bh4p2rcd13ifvqe0g","pricing_plan_id":"cebpf4jnsgd1na2vs0mg"},{"bike_id":"c99b32ef-25d9-480e-99d0-ca980f77a836","system_id":"levelo_inurba_marseille","lat":43.32364,"lon":5.36759,"is_reserved":false,"is_disabled":false,"rental_uris":{"android":"levelo://app?vid=c99b32ef-25d9-480e-99d0-ca980f77a836","ios":"levelo://app?vid=c99b32ef-25d9-480e-99d0-ca980f77a836"},"vehicle_type_id":"4","last_reported":1753348548,"current_range_meters":9200,"station_id":"ce4bhsh2rcd13ifvqi2g","pricing_plan_id":"cebpf4jnsgd1na2vs0mg"},{"bike_id":"dec93502-9771-4f3a-879a-cbdfb860df89","system_id":"levelo_inurba_marseille","lat":43.27675,"lon":5.38395,"is_reserved":false,"is_disabled":false,"rental_uris":{"android":"levelo://app?vid=dec93502-9771-4f3a-879a-cbdfb860df89","ios":"levelo://app?vid=dec93502-9771-4f3a-879a-cbdfb860df89"},"vehicle_type_id":"4","last_reported":1753348548,"current_range_meters":9600,"station_id":"","pricing_plan_id":"cebpf4jnsgd1na2vs0mg"},{"bike_id":"7b7524ae-8ecd-499f-93b7-a6de3bab91d4","system_id":"levelo_inurba_marseille","lat":43.29921,"lon":5.43693,"is_reserved":false,"is_disabled":false,"rental_uris":{"android":"levelo://app?vid=7b7524ae-8ecd-499f-93b7-a6de3bab91d4","ios":"levelo://app?vid=7b7524ae-8ecd-499f-93b7-a6de3bab91d4"},"vehicle_type_id":"4","last_reported":1753348548,"current_range_meters":9600,"station_id":"","pricing_plan_id":"cebpf4jnsgd1na2vs0mg"},{"bike_id":"89ece968-e3ae-4be2-95bd-3cfb794c33ec","system_id":"levelo_inurba_marseille","lat":43.305465,"lon":5.365527,"is_reserved":false,"is_disabled":false,"rental_uris":{"android":"levelo://app?vid=89ece968-e3ae-4be2-95bd-3cfb794c33ec","ios":"levelo://app?vid=89ece968-e3ae-4be2-95bd-3cfb794c33ec"},"vehicle_type_id":"4","last_reported":1753348548,"current_range_meters":12800,"station_id":"","pricing_plan_id":"cebpf4jnsgd1na2vs0mg"},{"bike_id":"8006020a-6cfe-4131-82ca-a6c8f07671d2","system_id":"levelo_inurba_marseille","lat":43.31177,"lon":5.37697,"is_reserved":false,"is_disabled":false,"rental_uris":{"android":"levelo://app?vid=8006020a-6cfe-4131-82ca-a6c8f07671d2","ios":"levelo://app?vid=8006020a-6cfe-4131-82ca-a6c8f07671d2"},"vehicle_type_id":"4","last_reported":1753348548,"current_range_meters":9600,"station_id":"","pricing_plan_id":"cebpf4jnsgd1na2vs0mg"},{"bike_id":"9414fea0-7c6e-4c39-95f1-457a63a631b4","system_id":"levelo_inurba_marseille","lat":43.225041,"lon":5.347869,"is_reserved":false,"is_disabled":false,"rental_uris":{"android":"levelo://app?vid=9414fea0-7c6e-4c39-95f1-457a63a631b4","ios":"levelo://app?vid=9414fea0-7c6e-4c39-95f1-457a63a631b4"},"vehicle_type_id":"4","last_reported":1753348548,"current_range_meters":9600,"station_id":"st_cvj5dfep6f1abm77gieg","pricing_plan_id":"cebpf4jnsgd1na2vs0mg"},{"bike_id":"072249e0-6b31-4d65-814c-3886177b7a41","system_id":"levelo_inurba_marseille","lat":43.31769,"lon":5.39018,"is_reserved":false,"is_disabled":false,"rental_uris":{"android":"levelo://app?vid=072249e0-6b31-4d65-814c-3886177b7a41","ios":"levelo://app?vid=072249e0-6b31-4d65-814c-3886177b7a41"},"vehicle_type_id":"4","last_reported":1753348548,"current_range_meters":9600,"station_id":"ce4bhqp2rcd13ifvqhng","pricing_plan_id":"cebpf4jnsgd1na2vs0mg"},{"bike_id":"105e7843-ce5e-4078-a750-1870123bd042","system_id":"levelo_inurba_marseille","lat":43.29163,"lon":5.37174,"is_reserved":false,"is_disabled":false,"rental_uris":{"android":"levelo://app?vid=105e7843-ce5e-4078-a750-1870123bd042","ios":"levelo://app?vid=105e7843-ce5e-4078-a750-1870123bd042"},"vehicle_type_id":"4","last_reported":1753348548,"current_range_meters":10000,"station_id":"ce4bha92rcd13ifvqeh0","pricing_plan_id":"cebpf4jnsgd1na2vs0mg"},{"bike_id":"b982e5a3-88f5-4403-a53a-38d90073ed80","system_id":"levelo_inurba_marseille","lat":43.29448,"lon":5.43232,"is_reserved":false,"is_disabled":false,"rental_uris":{"android":"levelo://app?vid=b982e5a3-88f5-4403-a53a-38d90073ed80","ios":"levelo://app?vid=b982e5a3-88f5-4403-a53a-38d90073ed80"},"vehicle_type_id":"4","last_reported":1753348548,"current_range_meters":10000,"station_id":"","pricing_plan_id":"cebpf4jnsgd1na2vs0mg"},{"bike_id":"44499859-96d0-4beb-a2fe-c7bc0623cb12","system_id":"levelo_inurba_marseille","lat":43.30786,"lon":5.37663,"is_reserved":false,"is_disabled":false,"rental_uris":{"android":"levelo://app?vid=44499859-96d0-4beb-a2fe-c7bc0623cb12","ios":"levelo://app?vid=44499859-96d0-4beb-a2fe-c7bc0623cb12"},"vehicle_type_id":"4","last_reported":1753348548,"current_range_meters":10000,"station_id":"ce4bgv92rcd13ifvqcq0","pricing_plan_id":"cebpf4jnsgd1na2vs0mg"},{"bike_id":"bbc2b271-396f-4875-9f1d-0fcc163d87b6","system_id":"levelo_inurba_marseille","lat":43.2904,"lon":5.39901,"is_reserved":false,"is_disabled":false,"rental_uris":{"android":"levelo://app?vid=bbc2b271-396f-4875-9f1d-0fcc163d87b6","ios":"levelo://app?vid=bbc2b271-396f-4875-9f1d-0fcc163d87b6"},"vehicle_type_id":"4","last_reported":1753348548,"current_range_meters":10800,"station_id":"","pricing_plan_id":"cebpf4jnsgd1na2vs0mg"},{"bike_id":"f9c9ff83-8548-4acb-a33b-495af4adeef4","system_id":"levelo_inurba_marseille","lat":43.323566,"lon":5.367481,"is_reserved":false,"is_disabled":false,"rental_uris":{"android":"levelo://app?vid=f9c9ff83-8548-4acb-a33b-495af4adeef4","ios":"levelo://app?vid=f9c9ff83-8548-4acb-a33b-495af4adeef4"},"vehicle_type_id":"4","last_reported":1753348548,"current_range_meters":10800,"station_id":"ce4bhsh2rcd13ifvqi2g","pricing_plan_id":"cebpf4jnsgd1na2vs0mg"},{"bike_id":"a23567dc-f3a0-4378-b496-90cd12ea77ac","system_id":"levelo_inurba_marseille","lat":43.27369,"lon":5.36253,"is_reserved":false,"is_disabled":false,"rental_uris":{"android":"levelo://app?vid=a23567dc-f3a0-4378-b496-90cd12ea77ac","ios":"levelo://app?vid=a23567dc-f3a0-4378-b496-90cd12ea77ac"},"vehicle_type_id":"4","last_reported":1753348548,"current_range_meters":10800,"station_id":"ce4bhbh2rcd13ifvqeo0","pricing_plan_id":"cebpf4jnsgd1na2vs0mg"},{"bike_id":"2375cade-ab2f-4d70-815a-dda984992af7","system_id":"levelo_inurba_marseille","lat":43.31358,"lon":5.36716,"is_reserved":false,"is_disabled":false,"rental_uris":{"android":"levelo://app?vid=2375cade-ab2f-4d70-815a-dda984992af7","ios":"levelo://app?vid=2375cade-ab2f-4d70-815a-dda984992af7"},"vehicle_type_id":"4","last_reported":1753348548,"current_range_meters":10800,"station_id":"ce4bgr92rcd13ifvqc6g","pricing_plan_id":"cebpf4jnsgd1na2vs0mg"},{"bike_id":"be73e0c3-1fcd-4852-b65a-d69995cb5cc9","system_id":"levelo_inurba_marseille","lat":43.32355,"lon":5.40603,"is_reserved":false,"is_disabled":false,"rental_uris":{"android":"levelo://app?vid=be73e0c3-1fcd-4852-b65a-d69995cb5cc9","ios":"levelo://app?vid=be73e0c3-1fcd-4852-b65a-d69995cb5cc9"},"vehicle_type_id":"4","last_reported":1753348548,"current_range_meters":10800,"station_id":"ce4bhq92rcd13ifvqhjg","pricing_plan_id":"cebpf4jnsgd1na2vs0mg"},{"bike_id":"f54fe7ee-ff5a-49fe-8aa7-93ea4e22a08f","system_id":"levelo_inurba_marseille","lat":43.29185,"lon":5.3715,"is_reserved":false,"is_disabled":false,"rental_uris":{"android":"levelo://app?vid=f54fe7ee-ff5a-49fe-8aa7-93ea4e22a08f","ios":"levelo://app?vid=f54fe7ee-ff5a-49fe-8aa7-93ea4e22a08f"},"vehicle_type_id":"4","last_reported":1753348548,"current_range_meters":10800,"station_id":"ce4bha92rcd13ifvqeh0","pricing_plan_id":"cebpf4jnsgd1na2vs0mg"},{"bike_id":"f3217e35-0bb5-43ab-beb0-dd5e233a7114","system_id":"levelo_inurba_marseille","lat":43.25578,"lon":5.382244,"is_reserved":false,"is_disabled":true,"rental_uris":{"android":"levelo://app?vid=f3217e35-0bb5-43ab-beb0-dd5e233a7114","ios":"levelo://app?vid=f3217e35-0bb5-43ab-beb0-dd5e233a7114"},"vehicle_type_id":"4","last_reported":1753348548,"current_range_meters":11200,"station_id":"ce4bhih2rcd13ifvqfs0","pricing_plan_id":"cebpf4jnsgd1na2vs0mg"},{"bike_id":"b5ce8d93-17c0-45a5-b2b1-eefce45c2d79","system_id":"levelo_inurba_marseille","lat":43.31792,"lon":5.435086,"is_reserved":false,"is_disabled":false,"rental_uris":{"android":"levelo://app?vid=b5ce8d93-17c0-45a5-b2b1-eefce45c2d79","ios":"levelo://app?vid=b5ce8d93-17c0-45a5-b2b1-eefce45c2d79"},"vehicle_type_id":"4","last_reported":1753348548,"current_range_meters":11200,"station_id":"","pricing_plan_id":"cebpf4jnsgd1na2vs0mg"},{"bike_id":"bf7d1b61-ac9b-4b95-98cd-1e59bc7507e1","system_id":"levelo_inurba_marseille","lat":43.28274,"lon":5.35064,"is_reserved":false,"is_disabled":false,"rental_uris":{"android":"levelo://app?vid=bf7d1b61-ac9b-4b95-98cd-1e59bc7507e1","ios":"levelo://app?vid=bf7d1b61-ac9b-4b95-98cd-1e59bc7507e1"},"vehicle_type_id":"4","last_reported":1753348548,"current_range_meters":11200,"station_id":"ce4bhbp2rcd13ifvqerg","pricing_plan_id":"cebpf4jnsgd1na2vs0mg"},{"bike_id":"be7898c9-bda2-4b33-9383-84cdb4262eb7","system_id":"levelo_inurba_marseille","lat":43.29583,"lon":5.36739,"is_reserved":false,"is_disabled":false,"rental_uris":{"android":"levelo://app?vid=be7898c9-bda2-4b33-9383-84cdb4262eb7","ios":"levelo://app?vid=be7898c9-bda2-4b33-9383-84cdb4262eb7"},"vehicle_type_id":"4","last_reported":1753348548,"current_range_meters":11600,"station_id":"ce4bgph2rcd13ifvqc2g","pricing_plan_id":"cebpf4jnsgd1na2vs0mg"},{"bike_id":"fb9088c4-7ec5-4789-a825-7f3aef3806c9","system_id":"levelo_inurba_marseille","lat":43.26686,"lon":5.38272,"is_reserved":false,"is_disabled":false,"rental_uris":{"android":"levelo://app?vid=fb9088c4-7ec5-4789-a825-7f3aef3806c9","ios":"levelo://app?vid=fb9088c4-7ec5-4789-a825-7f3aef3806c9"},"vehicle_type_id":"4","last_reported":1753348548,"current_range_meters":11600,"station_id":"ce4bhg92rcd13ifvqf90","pricing_plan_id":"cebpf4jnsgd1na2vs0mg"},{"bike_id":"48dc12f9-68f8-4a59-b20e-09f712490eb1","system_id":"levelo_inurba_marseille","lat":43.2808,"lon":5.39659,"is_reserved":false,"is_disabled":false,"rental_uris":{"android":"levelo://app?vid=48dc12f9-68f8-4a59-b20e-09f712490eb1","ios":"levelo://app?vid=48dc12f9-68f8-4a59-b20e-09f712490eb1"},"vehicle_type_id":"4","last_reported":1753348548,"current_range_meters":12000,"station_id":"ce4bho12rcd13ifvqh2g","pricing_plan_id":"cebpf4jnsgd1na2vs0mg"},{"bike_id":"b19fe99c-d1c3-4eac-ac3c-80746375fa8e","system_id":"levelo_inurba_marseille","lat":43.29262,"lon":5.37624,"is_reserved":false,"is_disabled":false,"rental_uris":{"android":"levelo://app?vid=b19fe99c-d1c3-4eac-ac3c-80746375fa8e","ios":"levelo://app?vid=b19fe99c-d1c3-4eac-ac3c-80746375fa8e"},"vehicle_type_id":"4","last_reported":1753348548,"current_range_meters":12000,"station_id":"ce4bgi12rcd13ifvqb80","pricing_plan_id":"cebpf4jnsgd1na2vs0mg"},{"bike_id":"435190a9-f17e-4cc0-b92f-5a28a060b7fb","system_id":"levelo_inurba_marseille","lat":43.28858,"lon":5.35849,"is_reserved":false,"is_disabled":false,"rental_uris":{"android":"levelo://app?vid=435190a9-f17e-4cc0-b92f-5a28a060b7fb","ios":"levelo://app?vid=435190a9-f17e-4cc0-b92f-5a28a060b7fb"},"vehicle_type_id":"4","last_reported":1753348548,"current_range_meters":12000,"station_id":"ce4bhb12rcd13ifvqem0","pricing_plan_id":"cebpf4jnsgd1na2vs0mg"},{"bike_id":"fdb610f8-756d-4f3c-85c8-3111ef7472fa","system_id":"levelo_inurba_marseille","lat":43.29961,"lon":5.38867,"is_reserved":false,"is_disabled":false,"rental_uris":{"android":"levelo://app?vid=fdb610f8-756d-4f3c-85c8-3111ef7472fa","ios":"levelo://app?vid=fdb610f8-756d-4f3c-85c8-3111ef7472fa"},"vehicle_type_id":"4","last_reported":1753348548,"current_range_meters":12000,"station_id":"","pricing_plan_id":"cebpf4jnsgd1na2vs0mg"},{"bike_id":"ea73b2eb-222b-4db0-9125-52ce775f54f2","system_id":"levelo_inurba_marseille","lat":43.23143,"lon":5.43724,"is_reserved":false,"is_disabled":false,"rental_uris":{"android":"levelo://app?vid=ea73b2eb-222b-4db0-9125-52ce775f54f2","ios":"levelo://app?vid=ea73b2eb-222b-4db0-9125-52ce775f54f2"},"vehicle_type_id":"4","last_reported":1753348548,"current_range_meters":11600,"station_id":"ce4bhmp2rcd13ifvqgog","pricing_plan_id":"cebpf4jnsgd1na2vs0mg"},{"bike_id":"74667481-5f03-4636-8b5a-495e4f40157d","system_id":"levelo_inurba_marseille","lat":43.309798,"lon":5.373629,"is_reserved":false,"is_disabled":false,"rental_uris":{"android":"levelo://app?vid=74667481-5f03-4636-8b5a-495e4f40157d","ios":"levelo://app?vid=74667481-5f03-4636-8b5a-495e4f40157d"},"vehicle_type_id":"4","last_reported":1753348548,"current_range_meters":12400,"station_id":"","pricing_plan_id":"cebpf4jnsgd1na2vs0mg"},{"bike_id":"2ee732fb-16c6-4794-9a8e-0c60df4bd4d8","system_id":"levelo_inurba_marseille","lat":43.217797,"lon":5.346143,"is_reserved":false,"is_disabled":false,"rental_uris":{"android":"levelo://app?vid=2ee732fb-16c6-4794-9a8e-0c60df4bd4d8","ios":"levelo://app?vid=2ee732fb-16c6-4794-9a8e-0c60df4bd4d8"},"vehicle_type_id":"4","last_reported":1753348548,"current_range_meters":12400,"station_id":"st_cvj6r9ubvosntc0bgbag","pricing_plan_id":"cebpf4jnsgd1na2vs0mg"},{"bike_id":"9a47bec0-8159-4ecf-a942-d102600fae18","system_id":"levelo_inurba_marseille","lat":43.3013,"lon":5.39853,"is_reserved":false,"is_disabled":false,"rental_uris":{"android":"levelo://app?vid=9a47bec0-8159-4ecf-a942-d102600fae18","ios":"levelo://app?vid=9a47bec0-8159-4ecf-a942-d102600fae18"},"vehicle_type_id":"4","last_reported":1753348548,"current_range_meters":12400,"station_id":"ce4bh0h2rcd13ifvqd40","pricing_plan_id":"cebpf4jnsgd1na2vs0mg"},{"bike_id":"906f2ae0-0a09-4972-8fb2-f44e64698c6f","system_id":"levelo_inurba_marseille","lat":43.30137,"lon":5.37417,"is_reserved":false,"is_disabled":false,"rental_uris":{"android":"levelo://app?vid=906f2ae0-0a09-4972-8fb2-f44e64698c6f","ios":"levelo://app?vid=906f2ae0-0a09-4972-8fb2-f44e64698c6f"},"vehicle_type_id":"4","last_reported":1753348548,"current_range_meters":12800,"station_id":"ce4bgs92rcd13ifvqcc0","pricing_plan_id":"cebpf4jnsgd1na2vs0mg"},{"bike_id":"ae131367-d818-44a0-9e1d-4aa65dcdb16a","system_id":"levelo_inurba_marseille","lat":43.27493,"lon":5.39652,"is_reserved":false,"is_disabled":false,"rental_uris":{"android":"levelo://app?vid=ae131367-d818-44a0-9e1d-4aa65dcdb16a","ios":"levelo://app?vid=ae131367-d818-44a0-9e1d-4aa65dcdb16a"},"vehicle_type_id":"4","last_reported":1753348548,"current_range_meters":12800,"station_id":"","pricing_plan_id":"cebpf4jnsgd1na2vs0mg"},{"bike_id":"3cd09fc8-9554-4236-8496-0931a7be09d1","system_id":"levelo_inurba_marseille","lat":43.211916,"lon":5.350769,"is_reserved":false,"is_disabled":false,"rental_uris":{"android":"levelo://app?vid=3cd09fc8-9554-4236-8496-0931a7be09d1","ios":"levelo://app?vid=3cd09fc8-9554-4236-8496-0931a7be09d1"},"vehicle_type_id":"4","last_reported":1753348548,"current_range_meters":12800,"station_id":"st_cvj6sg6p6f1abm77japg","pricing_plan_id":"cebpf4jnsgd1na2vs0mg"},{"bike_id":"b89d6267-55af-48a1-8887-3f0adc5ff195","system_id":"levelo_inurba_marseille","lat":43.301319,"lon":5.39874,"is_reserved":false,"is_disabled":false,"rental_uris":{"android":"levelo://app?vid=b89d6267-55af-48a1-8887-3f0adc5ff195","ios":"levelo://app?vid=b89d6267-55af-48a1-8887-3f0adc5ff195"},"vehicle_type_id":"4","last_reported":1753348548,"current_range_meters":12800,"station_id":"","pricing_plan_id":"cebpf4jnsgd1na2vs0mg"},{"bike_id":"fec51878-8b50-4c25-9dbd-c3f087775fa5","system_id":"levelo_inurba_marseille","lat":43.29318,"lon":5.3717,"is_reserved":false,"is_disabled":false,"rental_uris":{"android":"levelo://app?vid=fec51878-8b50-4c25-9dbd-c3f087775fa5","ios":"levelo://app?vid=fec51878-8b50-4c25-9dbd-c3f087775fa5"},"vehicle_type_id":"4","last_reported":1753348548,"current_range_meters":12800,"station_id":"ce4bgh92rcd13ifvqb40","pricing_plan_id":"cebpf4jnsgd1na2vs0mg"},{"bike_id":"2006d6ab-c619-4a15-b9f3-97c1160843f0","system_id":"levelo_inurba_marseille","lat":43.281615,"lon":5.360854,"is_reserved":false,"is_disabled":false,"rental_uris":{"android":"levelo://app?vid=2006d6ab-c619-4a15-b9f3-97c1160843f0","ios":"levelo://app?vid=2006d6ab-c619-4a15-b9f3-97c1160843f0"},"vehicle_type_id":"4","last_reported":1753348548,"current_range_meters":12800,"station_id":"","pricing_plan_id":"cebpf4jnsgd1na2vs0mg"},{"bike_id":"91a3148c-4730-46b6-bb60-4a44084644a5","system_id":"levelo_inurba_marseille","lat":43.30545,"lon":5.36536,"is_reserved":false,"is_disabled":false,"rental_uris":{"android":"levelo://app?vid=91a3148c-4730-46b6-bb60-4a44084644a5","ios":"levelo://app?vid=91a3148c-4730-46b6-bb60-4a44084644a5"},"vehicle_type_id":"4","last_reported":1753348548,"current_range_meters":12800,"station_id":"ce4bgs12rcd13ifvqcag","pricing_plan_id":"cebpf4jnsgd1na2vs0mg"},{"bike_id":"759be6f0-55f3-44fb-98b7-8cf4f1942c22","system_id":"levelo_inurba_marseille","lat":43.28263,"lon":5.35071,"is_reserved":false,"is_disabled":false,"rental_uris":{"android":"levelo://app?vid=759be6f0-55f3-44fb-98b7-8cf4f1942c22","ios":"levelo://app?vid=759be6f0-55f3-44fb-98b7-8cf4f1942c22"},"vehicle_type_id":"4","last_reported":1753348548,"current_range_meters":12800,"station_id":"ce4bhbp2rcd13ifvqerg","pricing_plan_id":"cebpf4jnsgd1na2vs0mg"},{"bike_id":"75921511-23bf-408f-9470-1062209789d6","system_id":"levelo_inurba_marseille","lat":43.25568,"lon":5.3825,"is_reserved":false,"is_disabled":false,"rental_uris":{"android":"levelo://app?vid=75921511-23bf-408f-9470-1062209789d6","ios":"levelo://app?vid=75921511-23bf-408f-9470-1062209789d6"},"vehicle_type_id":"4","last_reported":1753348548,"current_range_meters":13600,"station_id":"ce4bhih2rcd13ifvqfs0","pricing_plan_id":"cebpf4jnsgd1na2vs0mg"},{"bike_id":"6c4192d7-178f-46fa-83a1-efceca671e10","system_id":"levelo_inurba_marseille","lat":43.30541,"lon":5.38421,"is_reserved":false,"is_disabled":false,"rental_uris":{"android":"levelo://app?vid=6c4192d7-178f-46fa-83a1-efceca671e10","ios":"levelo://app?vid=6c4192d7-178f-46fa-83a1-efceca671e10"},"vehicle_type_id":"4","last_reported":1753348548,"current_range_meters":12800,"station_id":"ce4bgg92rcd13ifvqb30","pricing_plan_id":"cebpf4jnsgd1na2vs0mg"},{"bike_id":"5ac85406-65d0-4336-aa89-4b04b2e6689e","system_id":"levelo_inurba_marseille","lat":43.33252,"lon":5.41981,"is_reserved":false,"is_disabled":false,"rental_uris":{"android":"levelo://app?vid=5ac85406-65d0-4336-aa89-4b04b2e6689e","ios":"levelo://app?vid=5ac85406-65d0-4336-aa89-4b04b2e6689e"},"vehicle_type_id":"4","last_reported":1753348548,"current_range_meters":13600,"station_id":"","pricing_plan_id":"cebpf4jnsgd1na2vs0mg"},{"bike_id":"c056311f-78c9-4e18-8685-91c659ddb125","system_id":"levelo_inurba_marseille","lat":43.31611,"lon":5.38975,"is_reserved":false,"is_disabled":false,"rental_uris":{"android":"levelo://app?vid=c056311f-78c9-4e18-8685-91c659ddb125","ios":"levelo://app?vid=c056311f-78c9-4e18-8685-91c659ddb125"},"vehicle_type_id":"4","last_reported":1753348548,"current_range_meters":13600,"station_id":"","pricing_plan_id":"cebpf4jnsgd1na2vs0mg"},{"bike_id":"4d209187-9991-4429-98f2-177a1e2a85cd","system_id":"levelo_inurba_marseille","lat":43.31487,"lon":5.37312,"is_reserved":false,"is_disabled":false,"rental_uris":{"android":"levelo://app?vid=4d209187-9991-4429-98f2-177a1e2a85cd","ios":"levelo://app?vid=4d209187-9991-4429-98f2-177a1e2a85cd"},"vehicle_type_id":"4","last_reported":1753348548,"current_range_meters":13600,"station_id":"ce4bgt12rcd13ifvqcd0","pricing_plan_id":"cebpf4jnsgd1na2vs0mg"},{"bike_id":"0372d762-aad9-470d-bcac-ca21b9bee4a9","system_id":"levelo_inurba_marseille","lat":43.31107,"lon":5.38278,"is_reserved":false,"is_disabled":true,"rental_uris":{"android":"levelo://app?vid=0372d762-aad9-470d-bcac-ca21b9bee4a9","ios":"levelo://app?vid=0372d762-aad9-470d-bcac-ca21b9bee4a9"},"vehicle_type_id":"4","last_reported":1753348548,"current_range_meters":13600,"station_id":"ce4bgv92rcd13ifvqcr0","pricing_plan_id":"cebpf4jnsgd1na2vs0mg"},{"bike_id":"6a79a396-2f47-4b1c-9dce-b0d5464f72e4","system_id":"levelo_inurba_marseille","lat":43.2293,"lon":5.35408,"is_reserved":false,"is_disabled":false,"rental_uris":{"android":"levelo://app?vid=6a79a396-2f47-4b1c-9dce-b0d5464f72e4","ios":"levelo://app?vid=6a79a396-2f47-4b1c-9dce-b0d5464f72e4"},"vehicle_type_id":"4","last_reported":1753348548,"current_range_meters":13600,"station_id":"cpo3532slgdg3j2ikp40","pricing_plan_id":"cebpf4jnsgd1na2vs0mg"},{"bike_id":"54943e91-61ee-496b-9667-a7c6c3a25bb5","system_id":"levelo_inurba_marseille","lat":43.262067,"lon":5.374442,"is_reserved":false,"is_disabled":false,"rental_uris":{"android":"levelo://app?vid=54943e91-61ee-496b-9667-a7c6c3a25bb5","ios":"levelo://app?vid=54943e91-61ee-496b-9667-a7c6c3a25bb5"},"vehicle_type_id":"4","last_reported":1753348548,"current_range_meters":13600,"station_id":"ce4bhgp2rcd13ifvqfc0","pricing_plan_id":"cebpf4jnsgd1na2vs0mg"},{"bike_id":"efce9bd7-0f84-4c4c-8629-017c0e0428bd","system_id":"levelo_inurba_marseille","lat":43.2559,"lon":5.3825,"is_reserved":false,"is_disabled":false,"rental_uris":{"android":"levelo://app?vid=efce9bd7-0f84-4c4c-8629-017c0e0428bd","ios":"levelo://app?vid=efce9bd7-0f84-4c4c-8629-017c0e0428bd"},"vehicle_type_id":"4","last_reported":1753348548,"current_range_meters":14000,"station_id":"ce4bhih2rcd13ifvqfs0","pricing_plan_id":"cebpf4jnsgd1na2vs0mg"},{"bike_id":"c3b7093a-c6fc-4872-a465-95918521be48","system_id":"levelo_inurba_marseille","lat":43.31512,"lon":5.37312,"is_reserved":false,"is_disabled":false,"rental_uris":{"android":"levelo://app?vid=c3b7093a-c6fc-4872-a465-95918521be48","ios":"levelo://app?vid=c3b7093a-c6fc-4872-a465-95918521be48"},"vehicle_type_id":"4","last_reported":1753348548,"current_range_meters":14000,"station_id":"ce4bgt12rcd13ifvqcd0","pricing_plan_id":"cebpf4jnsgd1na2vs0mg"},{"bike_id":"aff21dbd-3e9b-43a9-863b-9204264f3294","system_id":"levelo_inurba_marseille","lat":43.27053,"lon":5.40268,"is_reserved":false,"is_disabled":false,"rental_uris":{"android":"levelo://app?vid=aff21dbd-3e9b-43a9-863b-9204264f3294","ios":"levelo://app?vid=aff21dbd-3e9b-43a9-863b-9204264f3294"},"vehicle_type_id":"4","last_reported":1753348548,"current_range_meters":14000,"station_id":"ce4bhk92rcd13ifvqgc0","pricing_plan_id":"cebpf4jnsgd1na2vs0mg"},{"bike_id":"c0ece2a8-b928-406e-a7bb-8f30d22c0b07","system_id":"levelo_inurba_marseille","lat":43.29186,"lon":5.37145,"is_reserved":false,"is_disabled":false,"rental_uris":{"android":"levelo://app?vid=c0ece2a8-b928-406e-a7bb-8f30d22c0b07","ios":"levelo://app?vid=c0ece2a8-b928-406e-a7bb-8f30d22c0b07"},"vehicle_type_id":"4","last_reported":1753348548,"current_range_meters":14000,"station_id":"ce4bha92rcd13ifvqeh0","pricing_plan_id":"cebpf4jnsgd1na2vs0mg"},{"bike_id":"6bb1f31c-9335-4f39-9585-31374a4775f9","system_id":"levelo_inurba_marseille","lat":43.325583,"lon":5.379059,"is_reserved":false,"is_disabled":false,"rental_uris":{"android":"levelo://app?vid=6bb1f31c-9335-4f39-9585-31374a4775f9","ios":"levelo://app?vid=6bb1f31c-9335-4f39-9585-31374a4775f9"},"vehicle_type_id":"4","last_reported":1753348548,"current_range_meters":14000,"station_id":"","pricing_plan_id":"cebpf4jnsgd1na2vs0mg"},{"bike_id":"ce59a62d-17ec-416f-b54d-751bd3f6f3dd","system_id":"levelo_inurba_marseille","lat":43.2709,"lon":5.42233,"is_reserved":false,"is_disabled":false,"rental_uris":{"android":"levelo://app?vid=ce59a62d-17ec-416f-b54d-751bd3f6f3dd","ios":"levelo://app?vid=ce59a62d-17ec-416f-b54d-751bd3f6f3dd"},"vehicle_type_id":"4","last_reported":1753348548,"current_range_meters":14000,"station_id":"ce4bhk92rcd13ifvqgb0","pricing_plan_id":"cebpf4jnsgd1na2vs0mg"},{"bike_id":"674df432-eba2-41a5-a16c-d34b13d50f5e","system_id":"levelo_inurba_marseille","lat":43.33918,"lon":5.40684,"is_reserved":false,"is_disabled":true,"rental_uris":{"android":"levelo://app?vid=674df432-eba2-41a5-a16c-d34b13d50f5e","ios":"levelo://app?vid=674df432-eba2-41a5-a16c-d34b13d50f5e"},"vehicle_type_id":"4","last_reported":1753348548,"current_range_meters":14000,"station_id":"","pricing_plan_id":"cebpf4jnsgd1na2vs0mg"},{"bike_id":"3407292c-0e0d-4af1-956c-56e99999c954","system_id":"levelo_inurba_marseille","lat":43.262167,"lon":5.404583,"is_reserved":false,"is_disabled":false,"rental_uris":{"android":"levelo://app?vid=3407292c-0e0d-4af1-956c-56e99999c954","ios":"levelo://app?vid=3407292c-0e0d-4af1-956c-56e99999c954"},"vehicle_type_id":"4","last_reported":1753348548,"current_range_meters":14400,"station_id":"ce4bhmh2rcd13ifvqgmg","pricing_plan_id":"cebpf4jnsgd1na2vs0mg"},{"bike_id":"18b86593-4f21-41ed-81b3-f3a5b378dc91","system_id":"levelo_inurba_marseille","lat":43.31233,"lon":5.38124,"is_reserved":false,"is_disabled":false,"rental_uris":{"android":"levelo://app?vid=18b86593-4f21-41ed-81b3-f3a5b378dc91","ios":"levelo://app?vid=18b86593-4f21-41ed-81b3-f3a5b378dc91"},"vehicle_type_id":"4","last_reported":1753348548,"current_range_meters":14400,"station_id":"","pricing_plan_id":"cebpf4jnsgd1na2vs0mg"},{"bike_id":"8f451e88-6877-4aa7-a85d-1f1ac1ba7ec3","system_id":"levelo_inurba_marseille","lat":43.25089,"lon":5.39522,"is_reserved":false,"is_disabled":false,"rental_uris":{"android":"levelo://app?vid=8f451e88-6877-4aa7-a85d-1f1ac1ba7ec3","ios":"levelo://app?vid=8f451e88-6877-4aa7-a85d-1f1ac1ba7ec3"},"vehicle_type_id":"4","last_reported":1753348548,"current_range_meters":14400,"station_id":"ce4bhm12rcd13ifvqgkg","pricing_plan_id":"cebpf4jnsgd1na2vs0mg"},{"bike_id":"cf7b0671-fb94-4201-8e7b-d09f1ced3c64","system_id":"levelo_inurba_marseille","lat":43.30536,"lon":5.36718,"is_reserved":false,"is_disabled":false,"rental_uris":{"android":"levelo://app?vid=cf7b0671-fb94-4201-8e7b-d09f1ced3c64","ios":"levelo://app?vid=cf7b0671-fb94-4201-8e7b-d09f1ced3c64"},"vehicle_type_id":"4","last_reported":1753348548,"current_range_meters":14400,"station_id":"ce4bgrp2rcd13ifvqc9g","pricing_plan_id":"cebpf4jnsgd1na2vs0mg"},{"bike_id":"8ca38b94-f577-4325-b487-ec7d014c22cc","system_id":"levelo_inurba_marseille","lat":43.27056,"lon":5.40259,"is_reserved":false,"is_disabled":false,"rental_uris":{"android":"levelo://app?vid=8ca38b94-f577-4325-b487-ec7d014c22cc","ios":"levelo://app?vid=8ca38b94-f577-4325-b487-ec7d014c22cc"},"vehicle_type_id":"4","last_reported":1753348548,"current_range_meters":14800,"station_id":"ce4bhk92rcd13ifvqgc0","pricing_plan_id":"cebpf4jnsgd1na2vs0mg"},{"bike_id":"d5d7aa46-2545-4529-a70f-4fd3389d4289","system_id":"levelo_inurba_marseille","lat":43.28479,"lon":5.38573,"is_reserved":false,"is_disabled":false,"rental_uris":{"android":"levelo://app?vid=d5d7aa46-2545-4529-a70f-4fd3389d4289","ios":"levelo://app?vid=d5d7aa46-2545-4529-a70f-4fd3389d4289"},"vehicle_type_id":"4","last_reported":1753348548,"current_range_meters":14800,"station_id":"ce4bh8p2rcd13ifvqeb0","pricing_plan_id":"cebpf4jnsgd1na2vs0mg"},{"bike_id":"e30cff2e-e417-4ed9-bca1-1ee2d06c91e0","system_id":"levelo_inurba_marseille","lat":43.24083,"lon":5.3775,"is_reserved":false,"is_disabled":false,"rental_uris":{"android":"levelo://app?vid=e30cff2e-e417-4ed9-bca1-1ee2d06c91e0","ios":"levelo://app?vid=e30cff2e-e417-4ed9-bca1-1ee2d06c91e0"},"vehicle_type_id":"4","last_reported":1753348548,"current_range_meters":14800,"station_id":"ce4bhnp2rcd13ifvqgvg","pricing_plan_id":"cebpf4jnsgd1na2vs0mg"},{"bike_id":"875540a5-76de-4844-93f6-e9d5f549dced","system_id":"levelo_inurba_marseille","lat":43.295987,"lon":5.381056,"is_reserved":false,"is_disabled":true,"rental_uris":{"android":"levelo://app?vid=875540a5-76de-4844-93f6-e9d5f549dced","ios":"levelo://app?vid=875540a5-76de-4844-93f6-e9d5f549dced"},"vehicle_type_id":"4","last_reported":1753348548,"current_range_meters":14800,"station_id":"","pricing_plan_id":"cebpf4jnsgd1na2vs0mg"},{"bike_id":"0ed3c797-d2bf-46e0-9da6-604ad01e3313","system_id":"levelo_inurba_marseille","lat":43.29295,"lon":5.37465,"is_reserved":false,"is_disabled":false,"rental_uris":{"android":"levelo://app?vid=0ed3c797-d2bf-46e0-9da6-604ad01e3313","ios":"levelo://app?vid=0ed3c797-d2bf-46e0-9da6-604ad01e3313"},"vehicle_type_id":"4","last_reported":1753348548,"current_range_meters":14800,"station_id":"ce4bgi12rcd13ifvqb70","pricing_plan_id":"cebpf4jnsgd1na2vs0mg"},{"bike_id":"5254d746-bf2c-4042-b956-76a940639ba4","system_id":"levelo_inurba_marseille","lat":43.31343,"lon":5.36708,"is_reserved":false,"is_disabled":false,"rental_uris":{"android":"levelo://app?vid=5254d746-bf2c-4042-b956-76a940639ba4","ios":"levelo://app?vid=5254d746-bf2c-4042-b956-76a940639ba4"},"vehicle_type_id":"4","last_reported":1753348548,"current_range_meters":14800,"station_id":"ce4bgr92rcd13ifvqc6g","pricing_plan_id":"cebpf4jnsgd1na2vs0mg"},{"bike_id":"1ad257b5-7f83-42c1-867f-92635ff1abbf","system_id":"levelo_inurba_marseille","lat":43.22948,"lon":5.35376,"is_reserved":false,"is_disabled":false,"rental_uris":{"android":"levelo://app?vid=1ad257b5-7f83-42c1-867f-92635ff1abbf","ios":"levelo://app?vid=1ad257b5-7f83-42c1-867f-92635ff1abbf"},"vehicle_type_id":"4","last_reported":1753348548,"current_range_meters":14800,"station_id":"cpo3532slgdg3j2ikp40","pricing_plan_id":"cebpf4jnsgd1na2vs0mg"},{"bike_id":"f4bc89ed-241d-4eca-b46f-4a676df87af3","system_id":"levelo_inurba_marseille","lat":43.30542,"lon":5.36575,"is_reserved":false,"is_disabled":false,"rental_uris":{"android":"levelo://app?vid=f4bc89ed-241d-4eca-b46f-4a676df87af3","ios":"levelo://app?vid=f4bc89ed-241d-4eca-b46f-4a676df87af3"},"vehicle_type_id":"4","last_reported":1753348548,"current_range_meters":14800,"station_id":"ce4bgs12rcd13ifvqcag","pricing_plan_id":"cebpf4jnsgd1na2vs0mg"},{"bike_id":"5bf271e9-b85e-4ede-9d32-02d7c28374e7","system_id":"levelo_inurba_marseille","lat":43.32499,"lon":5.36575,"is_reserved":false,"is_disabled":false,"rental_uris":{"android":"levelo://app?vid=5bf271e9-b85e-4ede-9d32-02d7c28374e7","ios":"levelo://app?vid=5bf271e9-b85e-4ede-9d32-02d7c28374e7"},"vehicle_type_id":"4","last_reported":1753348548,"current_range_meters":15200,"station_id":"ce4bhs12rcd13ifvqhvg","pricing_plan_id":"cebpf4jnsgd1na2vs0mg"},{"bike_id":"76c65f84-3b49-4269-890c-8259fe6ade74","system_id":"levelo_inurba_marseille","lat":43.32358,"lon":5.36737,"is_reserved":false,"is_disabled":false,"rental_uris":{"android":"levelo://app?vid=76c65f84-3b49-4269-890c-8259fe6ade74","ios":"levelo://app?vid=76c65f84-3b49-4269-890c-8259fe6ade74"},"vehicle_type_id":"4","last_reported":1753348548,"current_range_meters":15200,"station_id":"ce4bhsh2rcd13ifvqi2g","pricing_plan_id":"cebpf4jnsgd1na2vs0mg"},{"bike_id":"971f361f-7d35-467c-b730-ff0e872917fc","system_id":"levelo_inurba_marseille","lat":43.25003,"lon":5.38946,"is_reserved":false,"is_disabled":false,"rental_uris":{"android":"levelo://app?vid=971f361f-7d35-467c-b730-ff0e872917fc","ios":"levelo://app?vid=971f361f-7d35-467c-b730-ff0e872917fc"},"vehicle_type_id":"4","last_reported":1753348548,"current_range_meters":15200,"station_id":"ce4bhgp2rcd13ifvqfd0","pricing_plan_id":"cebpf4jnsgd1na2vs0mg"},{"bike_id":"e529fcb4-3614-47de-b079-f55cfe82ad0a","system_id":"levelo_inurba_marseille","lat":43.30955,"lon":5.39031,"is_reserved":false,"is_disabled":false,"rental_uris":{"android":"levelo://app?vid=e529fcb4-3614-47de-b079-f55cfe82ad0a","ios":"levelo://app?vid=e529fcb4-3614-47de-b079-f55cfe82ad0a"},"vehicle_type_id":"4","last_reported":1753348548,"current_range_meters":15200,"station_id":"ce4bgup2rcd13ifvqco0","pricing_plan_id":"cebpf4jnsgd1na2vs0mg"},{"bike_id":"898f759e-ad02-4cee-9706-18388c2e677c","system_id":"levelo_inurba_marseille","lat":43.282677,"lon":5.350701,"is_reserved":false,"is_disabled":false,"rental_uris":{"android":"levelo://app?vid=898f759e-ad02-4cee-9706-18388c2e677c","ios":"levelo://app?vid=898f759e-ad02-4cee-9706-18388c2e677c"},"vehicle_type_id":"4","last_reported":1753348548,"current_range_meters":16000,"station_id":"ce4bhbp2rcd13ifvqerg","pricing_plan_id":"cebpf4jnsgd1na2vs0mg"},{"bike_id":"77be17ea-a677-46d6-a392-fbc6761621fc","system_id":"levelo_inurba_marseille","lat":43.30509,"lon":5.36546,"is_reserved":false,"is_disabled":false,"rental_uris":{"android":"levelo://app?vid=77be17ea-a677-46d6-a392-fbc6761621fc","ios":"levelo://app?vid=77be17ea-a677-46d6-a392-fbc6761621fc"},"vehicle_type_id":"4","last_reported":1753348548,"current_range_meters":16000,"station_id":"","pricing_plan_id":"cebpf4jnsgd1na2vs0mg"},{"bike_id":"73ba57e1-a104-4a32-acd3-c7fe77025782","system_id":"levelo_inurba_marseille","lat":43.30535,"lon":5.36708,"is_reserved":false,"is_disabled":false,"rental_uris":{"android":"levelo://app?vid=73ba57e1-a104-4a32-acd3-c7fe77025782","ios":"levelo://app?vid=73ba57e1-a104-4a32-acd3-c7fe77025782"},"vehicle_type_id":"4","last_reported":1753348548,"current_range_meters":16000,"station_id":"ce4bgrp2rcd13ifvqc9g","pricing_plan_id":"cebpf4jnsgd1na2vs0mg"},{"bike_id":"e7f71088-2ad1-43c6-ab1f-113be1926618","system_id":"levelo_inurba_marseille","lat":43.28424,"lon":5.34995,"is_reserved":false,"is_disabled":false,"rental_uris":{"android":"levelo://app?vid=e7f71088-2ad1-43c6-ab1f-113be1926618","ios":"levelo://app?vid=e7f71088-2ad1-43c6-ab1f-113be1926618"},"vehicle_type_id":"4","last_reported":1753348548,"current_range_meters":16000,"station_id":"ce4bhbh2rcd13ifvqepg","pricing_plan_id":"cebpf4jnsgd1na2vs0mg"},{"bike_id":"5f824980-27aa-4ef2-856d-b766bebead8a","system_id":"levelo_inurba_marseille","lat":43.22503,"lon":5.34787,"is_reserved":false,"is_disabled":false,"rental_uris":{"android":"levelo://app?vid=5f824980-27aa-4ef2-856d-b766bebead8a","ios":"levelo://app?vid=5f824980-27aa-4ef2-856d-b766bebead8a"},"vehicle_type_id":"4","last_reported":1753348548,"current_range_meters":16000,"station_id":"st_cvj5dfep6f1abm77gieg","pricing_plan_id":"cebpf4jnsgd1na2vs0mg"},{"bike_id":"65557123-861f-4bee-b8b9-fd6f09fd32db","system_id":"levelo_inurba_marseille","lat":43.27376,"lon":5.36255,"is_reserved":false,"is_disabled":false,"rental_uris":{"android":"levelo://app?vid=65557123-861f-4bee-b8b9-fd6f09fd32db","ios":"levelo://app?vid=65557123-861f-4bee-b8b9-fd6f09fd32db"},"vehicle_type_id":"4","last_reported":1753348548,"current_range_meters":16000,"station_id":"ce4bhbh2rcd13ifvqeo0","pricing_plan_id":"cebpf4jnsgd1na2vs0mg"},{"bike_id":"806de4ad-b467-48b2-a10e-6cbd3133cfb4","system_id":"levelo_inurba_marseille","lat":43.23147,"lon":5.43694,"is_reserved":false,"is_disabled":false,"rental_uris":{"android":"levelo://app?vid=806de4ad-b467-48b2-a10e-6cbd3133cfb4","ios":"levelo://app?vid=806de4ad-b467-48b2-a10e-6cbd3133cfb4"},"vehicle_type_id":"4","last_reported":1753348548,"current_range_meters":16000,"station_id":"ce4bhmp2rcd13ifvqgog","pricing_plan_id":"cebpf4jnsgd1na2vs0mg"},{"bike_id":"9437277c-d886-4a0b-9535-11724bd91051","system_id":"levelo_inurba_marseille","lat":43.2709,"lon":5.42345,"is_reserved":false,"is_disabled":false,"rental_uris":{"android":"levelo://app?vid=9437277c-d886-4a0b-9535-11724bd91051","ios":"levelo://app?vid=9437277c-d886-4a0b-9535-11724bd91051"},"vehicle_type_id":"4","last_reported":1753348548,"current_range_meters":16000,"station_id":"","pricing_plan_id":"cebpf4jnsgd1na2vs0mg"},{"bike_id":"81df7d6f-832b-40f6-ad7c-3d213cee8b09","system_id":"levelo_inurba_marseille","lat":43.24036,"lon":5.37864,"is_reserved":false,"is_disabled":false,"rental_uris":{"android":"levelo://app?vid=81df7d6f-832b-40f6-ad7c-3d213cee8b09","ios":"levelo://app?vid=81df7d6f-832b-40f6-ad7c-3d213cee8b09"},"vehicle_type_id":"4","last_reported":1753348548,"current_range_meters":16400,"station_id":"ce4bhnp2rcd13ifvqgvg","pricing_plan_id":"cebpf4jnsgd1na2vs0mg"},{"bike_id":"4b8efed3-9e53-47c8-bfa4-f1fb0beb03b1","system_id":"levelo_inurba_marseille","lat":43.295924,"lon":5.367338,"is_reserved":false,"is_disabled":true,"rental_uris":{"android":"levelo://app?vid=4b8efed3-9e53-47c8-bfa4-f1fb0beb03b1","ios":"levelo://app?vid=4b8efed3-9e53-47c8-bfa4-f1fb0beb03b1"},"vehicle_type_id":"4","last_reported":1753348548,"current_range_meters":16400,"station_id":"ce4bgph2rcd13ifvqc2g","pricing_plan_id":"cebpf4jnsgd1na2vs0mg"},{"bike_id":"eaea15aa-98ae-4f78-b37a-80e2e4524837","system_id":"levelo_inurba_marseille","lat":43.297916,"lon":5.381026,"is_reserved":false,"is_disabled":false,"rental_uris":{"android":"levelo://app?vid=eaea15aa-98ae-4f78-b37a-80e2e4524837","ios":"levelo://app?vid=eaea15aa-98ae-4f78-b37a-80e2e4524837"},"vehicle_type_id":"4","last_reported":1753348548,"current_range_meters":16400,"station_id":"","pricing_plan_id":"cebpf4jnsgd1na2vs0mg"},{"bike_id":"f7f07796-c7c9-4a74-80e9-fb85744448b8","system_id":"levelo_inurba_marseille","lat":43.22924,"lon":5.354,"is_reserved":false,"is_disabled":false,"rental_uris":{"android":"levelo://app?vid=f7f07796-c7c9-4a74-80e9-fb85744448b8","ios":"levelo://app?vid=f7f07796-c7c9-4a74-80e9-fb85744448b8"},"vehicle_type_id":"4","last_reported":1753348548,"current_range_meters":16400,"station_id":"cpo3532slgdg3j2ikp40","pricing_plan_id":"cebpf4jnsgd1na2vs0mg"},{"bike_id":"1f8e7fa3-18ac-45b3-8b02-428826e579f5","system_id":"levelo_inurba_marseille","lat":43.298278,"lon":5.382489,"is_reserved":false,"is_disabled":false,"rental_uris":{"android":"levelo://app?vid=1f8e7fa3-18ac-45b3-8b02-428826e579f5","ios":"levelo://app?vid=1f8e7fa3-18ac-45b3-8b02-428826e579f5"},"vehicle_type_id":"4","last_reported":1753348548,"current_range_meters":16800,"station_id":"ce4bgih2rcd13ifvqba0","pricing_plan_id":"cebpf4jnsgd1na2vs0mg"},{"bike_id":"35a86048-76dd-4de0-afb2-7da8772fad44","system_id":"levelo_inurba_marseille","lat":43.21549,"lon":5.34759,"is_reserved":false,"is_disabled":false,"rental_uris":{"android":"levelo://app?vid=35a86048-76dd-4de0-afb2-7da8772fad44","ios":"levelo://app?vid=35a86048-76dd-4de0-afb2-7da8772fad44"},"vehicle_type_id":"4","last_reported":1753348548,"current_range_meters":16400,"station_id":"","pricing_plan_id":"cebpf4jnsgd1na2vs0mg"},{"bike_id":"27b5acbc-b1fd-4385-9be5-bae49e9e4f6a","system_id":"levelo_inurba_marseille","lat":43.248093,"lon":5.374539,"is_reserved":false,"is_disabled":false,"rental_uris":{"android":"levelo://app?vid=27b5acbc-b1fd-4385-9be5-bae49e9e4f6a","ios":"levelo://app?vid=27b5acbc-b1fd-4385-9be5-bae49e9e4f6a"},"vehicle_type_id":"4","last_reported":1753348548,"current_range_meters":16400,"station_id":"ce4bhgh2rcd13ifvqfb0","pricing_plan_id":"cebpf4jnsgd1na2vs0mg"},{"bike_id":"fbda76a5-068e-4d90-b9ba-25721acd9298","system_id":"levelo_inurba_marseille","lat":43.29042,"lon":5.43978,"is_reserved":false,"is_disabled":false,"rental_uris":{"android":"levelo://app?vid=fbda76a5-068e-4d90-b9ba-25721acd9298","ios":"levelo://app?vid=fbda76a5-068e-4d90-b9ba-25721acd9298"},"vehicle_type_id":"4","last_reported":1753348548,"current_range_meters":16800,"station_id":"","pricing_plan_id":"cebpf4jnsgd1na2vs0mg"},{"bike_id":"51c649e2-2b8c-4efe-89e6-46fa39d89504","system_id":"levelo_inurba_marseille","lat":43.30154,"lon":5.38089,"is_reserved":false,"is_disabled":false,"rental_uris":{"android":"levelo://app?vid=51c649e2-2b8c-4efe-89e6-46fa39d89504","ios":"levelo://app?vid=51c649e2-2b8c-4efe-89e6-46fa39d89504"},"vehicle_type_id":"4","last_reported":1753348548,"current_range_meters":16400,"station_id":"ce4bgjp2rcd13ifvqbh0","pricing_plan_id":"cebpf4jnsgd1na2vs0mg"},{"bike_id":"92d050d0-2ea1-43ef-8c80-fe39c5833f2b","system_id":"levelo_inurba_marseille","lat":43.29532,"lon":5.37496,"is_reserved":false,"is_disabled":false,"rental_uris":{"android":"levelo://app?vid=92d050d0-2ea1-43ef-8c80-fe39c5833f2b","ios":"levelo://app?vid=92d050d0-2ea1-43ef-8c80-fe39c5833f2b"},"vehicle_type_id":"4","last_reported":1753348548,"current_range_meters":16800,"station_id":"ce4bgkp2rcd13ifvqbmg","pricing_plan_id":"cebpf4jnsgd1na2vs0mg"},{"bike_id":"451c8b55-6be2-42fe-a6f2-5298fefb419a","system_id":"levelo_inurba_marseille","lat":43.28162,"lon":5.42703,"is_reserved":false,"is_disabled":false,"rental_uris":{"android":"levelo://app?vid=451c8b55-6be2-42fe-a6f2-5298fefb419a","ios":"levelo://app?vid=451c8b55-6be2-42fe-a6f2-5298fefb419a"},"vehicle_type_id":"4","last_reported":1753348548,"current_range_meters":16800,"station_id":"ce4bhnh2rcd13ifvqgug","pricing_plan_id":"cebpf4jnsgd1na2vs0mg"},{"bike_id":"35809018-a617-4f65-9134-7b21e1e5bd76","system_id":"levelo_inurba_marseille","lat":43.28037,"lon":5.36941,"is_reserved":false,"is_disabled":true,"rental_uris":{"android":"levelo://app?vid=35809018-a617-4f65-9134-7b21e1e5bd76","ios":"levelo://app?vid=35809018-a617-4f65-9134-7b21e1e5bd76"},"vehicle_type_id":"4","last_reported":1753348548,"current_range_meters":16800,"station_id":"ce4bha12rcd13ifvqef0","pricing_plan_id":"cebpf4jnsgd1na2vs0mg"},{"bike_id":"819bb1b6-06bc-4eb2-b94e-4388d87b087b","system_id":"levelo_inurba_marseille","lat":43.29734,"lon":5.36601,"is_reserved":false,"is_disabled":false,"rental_uris":{"android":"levelo://app?vid=819bb1b6-06bc-4eb2-b94e-4388d87b087b","ios":"levelo://app?vid=819bb1b6-06bc-4eb2-b94e-4388d87b087b"},"vehicle_type_id":"4","last_reported":1753348548,"current_range_meters":16800,"station_id":"ce4bgn12rcd13ifvqbt0","pricing_plan_id":"cebpf4jnsgd1na2vs0mg"},{"bike_id":"616f62c9-03bf-4930-b722-62dade5e4595","system_id":"levelo_inurba_marseille","lat":43.28274,"lon":5.35069,"is_reserved":false,"is_disabled":false,"rental_uris":{"android":"levelo://app?vid=616f62c9-03bf-4930-b722-62dade5e4595","ios":"levelo://app?vid=616f62c9-03bf-4930-b722-62dade5e4595"},"vehicle_type_id":"4","last_reported":1753348548,"current_range_meters":16800,"station_id":"ce4bhbp2rcd13ifvqerg","pricing_plan_id":"cebpf4jnsgd1na2vs0mg"},{"bike_id":"d433812a-3a7b-48d2-bd62-4f917bf92793","system_id":"levelo_inurba_marseille","lat":43.276077,"lon":5.360994,"is_reserved":false,"is_disabled":false,"rental_uris":{"android":"levelo://app?vid=d433812a-3a7b-48d2-bd62-4f917bf92793","ios":"levelo://app?vid=d433812a-3a7b-48d2-bd62-4f917bf92793"},"vehicle_type_id":"4","last_reported":1753348548,"current_range_meters":16800,"station_id":"ce4bgj92rcd13ifvqbe0","pricing_plan_id":"cebpf4jnsgd1na2vs0mg"},{"bike_id":"e401289a-83cf-4377-aa07-419b9b37079e","system_id":"levelo_inurba_marseille","lat":43.23075,"lon":5.35496,"is_reserved":false,"is_disabled":false,"rental_uris":{"android":"levelo://app?vid=e401289a-83cf-4377-aa07-419b9b37079e","ios":"levelo://app?vid=e401289a-83cf-4377-aa07-419b9b37079e"},"vehicle_type_id":"4","last_reported":1753348548,"current_range_meters":16800,"station_id":"cpo3342slgdg3j2ifvpg","pricing_plan_id":"cebpf4jnsgd1na2vs0mg"},{"bike_id":"c6aa9af9-9a2d-4c74-a251-ede8df9515d7","system_id":"levelo_inurba_marseille","lat":43.31229,"lon":5.36855,"is_reserved":false,"is_disabled":false,"rental_uris":{"android":"levelo://app?vid=c6aa9af9-9a2d-4c74-a251-ede8df9515d7","ios":"levelo://app?vid=c6aa9af9-9a2d-4c74-a251-ede8df9515d7"},"vehicle_type_id":"4","last_reported":1753348548,"current_range_meters":16800,"station_id":"ce4bgl92rcd13ifvqbq0","pricing_plan_id":"cebpf4jnsgd1na2vs0mg"},{"bike_id":"55c34f11-7726-4f75-9264-c2784ef1e47e","system_id":"levelo_inurba_marseille","lat":43.2501,"lon":5.38932,"is_reserved":false,"is_disabled":false,"rental_uris":{"android":"levelo://app?vid=55c34f11-7726-4f75-9264-c2784ef1e47e","ios":"levelo://app?vid=55c34f11-7726-4f75-9264-c2784ef1e47e"},"vehicle_type_id":"4","last_reported":1753348548,"current_range_meters":16800,"station_id":"ce4bhgp2rcd13ifvqfd0","pricing_plan_id":"cebpf4jnsgd1na2vs0mg"},{"bike_id":"2d0d1fa6-b1a7-49de-822e-188e5cab6185","system_id":"levelo_inurba_marseille","lat":43.31253,"lon":5.36872,"is_reserved":false,"is_disabled":false,"rental_uris":{"android":"levelo://app?vid=2d0d1fa6-b1a7-49de-822e-188e5cab6185","ios":"levelo://app?vid=2d0d1fa6-b1a7-49de-822e-188e5cab6185"},"vehicle_type_id":"4","last_reported":1753348548,"current_range_meters":16800,"station_id":"ce4bgl92rcd13ifvqbq0","pricing_plan_id":"cebpf4jnsgd1na2vs0mg"},{"bike_id":"85c8f939-49e5-43d7-b524-31747577fd94","system_id":"levelo_inurba_marseille","lat":43.30795,"lon":5.37653,"is_reserved":false,"is_disabled":false,"rental_uris":{"android":"levelo://app?vid=85c8f939-49e5-43d7-b524-31747577fd94","ios":"levelo://app?vid=85c8f939-49e5-43d7-b524-31747577fd94"},"vehicle_type_id":"4","last_reported":1753348548,"current_range_meters":16800,"station_id":"ce4bgv92rcd13ifvqcq0","pricing_plan_id":"cebpf4jnsgd1na2vs0mg"},{"bike_id":"1f39eb17-34c7-4235-9069-0f68f613789c","system_id":"levelo_inurba_marseille","lat":43.26886,"lon":5.36871,"is_reserved":false,"is_disabled":false,"rental_uris":{"android":"levelo://app?vid=1f39eb17-34c7-4235-9069-0f68f613789c","ios":"levelo://app?vid=1f39eb17-34c7-4235-9069-0f68f613789c"},"vehicle_type_id":"4","last_reported":1753348548,"current_range_meters":17200,"station_id":"","pricing_plan_id":"cebpf4jnsgd1na2vs0mg"},{"bike_id":"0aa2d153-96d1-4d69-83b8-d39119aa9dd5","system_id":"levelo_inurba_marseille","lat":43.33523,"lon":5.36229,"is_reserved":false,"is_disabled":false,"rental_uris":{"android":"levelo://app?vid=0aa2d153-96d1-4d69-83b8-d39119aa9dd5","ios":"levelo://app?vid=0aa2d153-96d1-4d69-83b8-d39119aa9dd5"},"vehicle_type_id":"4","last_reported":1753348548,"current_range_meters":17200,"station_id":"","pricing_plan_id":"cebpf4jnsgd1na2vs0mg"},{"bike_id":"29ae9718-c985-4a67-b87d-fe9f41064859","system_id":"levelo_inurba_marseille","lat":43.29841,"lon":5.36267,"is_reserved":false,"is_disabled":false,"rental_uris":{"android":"levelo://app?vid=29ae9718-c985-4a67-b87d-fe9f41064859","ios":"levelo://app?vid=29ae9718-c985-4a67-b87d-fe9f41064859"},"vehicle_type_id":"4","last_reported":1753348548,"current_range_meters":17200,"station_id":"ce4bgpp2rcd13ifvqc3g","pricing_plan_id":"cebpf4jnsgd1na2vs0mg"},{"bike_id":"be1112aa-92c6-4f71-9978-f794b04ae2fe","system_id":"levelo_inurba_marseille","lat":43.27834,"lon":5.4071,"is_reserved":false,"is_disabled":false,"rental_uris":{"android":"levelo://app?vid=be1112aa-92c6-4f71-9978-f794b04ae2fe","ios":"levelo://app?vid=be1112aa-92c6-4f71-9978-f794b04ae2fe"},"vehicle_type_id":"4","last_reported":1753348548,"current_range_meters":17200,"station_id":"ce4bhnh2rcd13ifvqgtg","pricing_plan_id":"cebpf4jnsgd1na2vs0mg"},{"bike_id":"630f322e-ea39-413c-8ed4-096ccef376bc","system_id":"levelo_inurba_marseille","lat":43.29601,"lon":5.36942,"is_reserved":false,"is_disabled":false,"rental_uris":{"android":"levelo://app?vid=630f322e-ea39-413c-8ed4-096ccef376bc","ios":"levelo://app?vid=630f322e-ea39-413c-8ed4-096ccef376bc"},"vehicle_type_id":"4","last_reported":1753348548,"current_range_meters":17200,"station_id":"","pricing_plan_id":"cebpf4jnsgd1na2vs0mg"},{"bike_id":"d2c1d56d-6a3a-4ae3-b7ab-84022ad7ad84","system_id":"levelo_inurba_marseille","lat":43.2986,"lon":5.37651,"is_reserved":false,"is_disabled":false,"rental_uris":{"android":"levelo://app?vid=d2c1d56d-6a3a-4ae3-b7ab-84022ad7ad84","ios":"levelo://app?vid=d2c1d56d-6a3a-4ae3-b7ab-84022ad7ad84"},"vehicle_type_id":"4","last_reported":1753348548,"current_range_meters":17200,"station_id":"","pricing_plan_id":"cebpf4jnsgd1na2vs0mg"},{"bike_id":"33ce2ff8-7e21-4229-9288-7ac129269db8","system_id":"levelo_inurba_marseille","lat":43.32109,"lon":5.36787,"is_reserved":false,"is_disabled":false,"rental_uris":{"android":"levelo://app?vid=33ce2ff8-7e21-4229-9288-7ac129269db8","ios":"levelo://app?vid=33ce2ff8-7e21-4229-9288-7ac129269db8"},"vehicle_type_id":"4","last_reported":1753348548,"current_range_meters":17600,"station_id":"ce4bhrh2rcd13ifvqhug","pricing_plan_id":"cebpf4jnsgd1na2vs0mg"},{"bike_id":"d8606872-c4e4-41d7-97d7-e6e0f75f9e13","system_id":"levelo_inurba_marseille","lat":43.30479,"lon":5.36557,"is_reserved":false,"is_disabled":false,"rental_uris":{"android":"levelo://app?vid=d8606872-c4e4-41d7-97d7-e6e0f75f9e13","ios":"levelo://app?vid=d8606872-c4e4-41d7-97d7-e6e0f75f9e13"},"vehicle_type_id":"4","last_reported":1753348548,"current_range_meters":17600,"station_id":"","pricing_plan_id":"cebpf4jnsgd1na2vs0mg"},{"bike_id":"9af7cc99-e3bb-4b15-83b1-9d5f9541de1b","system_id":"levelo_inurba_marseille","lat":43.29304,"lon":5.37159,"is_reserved":false,"is_disabled":false,"rental_uris":{"android":"levelo://app?vid=9af7cc99-e3bb-4b15-83b1-9d5f9541de1b","ios":"levelo://app?vid=9af7cc99-e3bb-4b15-83b1-9d5f9541de1b"},"vehicle_type_id":"4","last_reported":1753348548,"current_range_meters":17600,"station_id":"ce4bgh92rcd13ifvqb40","pricing_plan_id":"cebpf4jnsgd1na2vs0mg"},{"bike_id":"dc3e0ad5-33fd-449c-b62c-7400648f6447","system_id":"levelo_inurba_marseille","lat":43.28264,"lon":5.35068,"is_reserved":false,"is_disabled":false,"rental_uris":{"android":"levelo://app?vid=dc3e0ad5-33fd-449c-b62c-7400648f6447","ios":"levelo://app?vid=dc3e0ad5-33fd-449c-b62c-7400648f6447"},"vehicle_type_id":"4","last_reported":1753348548,"current_range_meters":17600,"station_id":"ce4bhbp2rcd13ifvqerg","pricing_plan_id":"cebpf4jnsgd1na2vs0mg"},{"bike_id":"784eeebd-2893-4f27-84ae-c797089b4166","system_id":"levelo_inurba_marseille","lat":43.22526,"lon":5.34797,"is_reserved":false,"is_disabled":false,"rental_uris":{"android":"levelo://app?vid=784eeebd-2893-4f27-84ae-c797089b4166","ios":"levelo://app?vid=784eeebd-2893-4f27-84ae-c797089b4166"},"vehicle_type_id":"4","last_reported":1753348548,"current_range_meters":17600,"station_id":"st_cvj5dfep6f1abm77gieg","pricing_plan_id":"cebpf4jnsgd1na2vs0mg"},{"bike_id":"2765299a-2bb0-4df0-a0a4-1ecfada6fa44","system_id":"levelo_inurba_marseille","lat":43.27837,"lon":5.39222,"is_reserved":false,"is_disabled":false,"rental_uris":{"android":"levelo://app?vid=2765299a-2bb0-4df0-a0a4-1ecfada6fa44","ios":"levelo://app?vid=2765299a-2bb0-4df0-a0a4-1ecfada6fa44"},"vehicle_type_id":"4","last_reported":1753348548,"current_range_meters":17600,"station_id":"ce4bhjp2rcd13ifvqga0","pricing_plan_id":"cebpf4jnsgd1na2vs0mg"},{"bike_id":"481351de-e3d5-4a6f-aa67-c1762e7ed223","system_id":"levelo_inurba_marseille","lat":43.27063,"lon":5.42282,"is_reserved":false,"is_disabled":false,"rental_uris":{"android":"levelo://app?vid=481351de-e3d5-4a6f-aa67-c1762e7ed223","ios":"levelo://app?vid=481351de-e3d5-4a6f-aa67-c1762e7ed223"},"vehicle_type_id":"4","last_reported":1753348548,"current_range_meters":17600,"station_id":"ce4bhk92rcd13ifvqgb0","pricing_plan_id":"cebpf4jnsgd1na2vs0mg"},{"bike_id":"9e71a50e-df43-4a48-bc37-13460235be7b","system_id":"levelo_inurba_marseille","lat":43.24173,"lon":5.36398,"is_reserved":false,"is_disabled":false,"rental_uris":{"android":"levelo://app?vid=9e71a50e-df43-4a48-bc37-13460235be7b","ios":"levelo://app?vid=9e71a50e-df43-4a48-bc37-13460235be7b"},"vehicle_type_id":"4","last_reported":1753348548,"current_range_meters":17600,"station_id":"cpo36qri1sfpv3e86is0","pricing_plan_id":"cebpf4jnsgd1na2vs0mg"},{"bike_id":"383595c9-16e7-4af2-96da-cd682079f448","system_id":"levelo_inurba_marseille","lat":43.32054,"lon":5.41542,"is_reserved":false,"is_disabled":false,"rental_uris":{"android":"levelo://app?vid=383595c9-16e7-4af2-96da-cd682079f448","ios":"levelo://app?vid=383595c9-16e7-4af2-96da-cd682079f448"},"vehicle_type_id":"4","last_reported":1753348548,"current_range_meters":17600,"station_id":"ce4bhq92rcd13ifvqhkg","pricing_plan_id":"cebpf4jnsgd1na2vs0mg"},{"bike_id":"3af52dd6-d3ee-4f26-8c77-9cbf3c28b249","system_id":"levelo_inurba_marseille","lat":43.26215,"lon":5.40481,"is_reserved":false,"is_disabled":false,"rental_uris":{"android":"levelo://app?vid=3af52dd6-d3ee-4f26-8c77-9cbf3c28b249","ios":"levelo://app?vid=3af52dd6-d3ee-4f26-8c77-9cbf3c28b249"},"vehicle_type_id":"4","last_reported":1753348548,"current_range_meters":17600,"station_id":"ce4bhmh2rcd13ifvqgmg","pricing_plan_id":"cebpf4jnsgd1na2vs0mg"},{"bike_id":"464646ad-4fc9-44ce-ae5a-a11f1450504d","system_id":"levelo_inurba_marseille","lat":43.28721,"lon":5.37934,"is_reserved":false,"is_disabled":false,"rental_uris":{"android":"levelo://app?vid=464646ad-4fc9-44ce-ae5a-a11f1450504d","ios":"levelo://app?vid=464646ad-4fc9-44ce-ae5a-a11f1450504d"},"vehicle_type_id":"4","last_reported":1753348548,"current_range_meters":17600,"station_id":"ce4bh9p2rcd13ifvqec0","pricing_plan_id":"cebpf4jnsgd1na2vs0mg"},{"bike_id":"5d87ab4f-2991-4627-83f2-f3aa17c203a5","system_id":"levelo_inurba_marseille","lat":43.30637,"lon":5.40082,"is_reserved":false,"is_disabled":false,"rental_uris":{"android":"levelo://app?vid=5d87ab4f-2991-4627-83f2-f3aa17c203a5","ios":"levelo://app?vid=5d87ab4f-2991-4627-83f2-f3aa17c203a5"},"vehicle_type_id":"4","last_reported":1753348548,"current_range_meters":17600,"station_id":"ce4bh112rcd13ifvqda0","pricing_plan_id":"cebpf4jnsgd1na2vs0mg"},{"bike_id":"feaf9bd2-ee86-4471-a992-a940da75c6d9","system_id":"levelo_inurba_marseille","lat":43.28266,"lon":5.3506,"is_reserved":false,"is_disabled":false,"rental_uris":{"android":"levelo://app?vid=feaf9bd2-ee86-4471-a992-a940da75c6d9","ios":"levelo://app?vid=feaf9bd2-ee86-4471-a992-a940da75c6d9"},"vehicle_type_id":"4","last_reported":1753348548,"current_range_meters":18000,"station_id":"ce4bhbp2rcd13ifvqerg","pricing_plan_id":"cebpf4jnsgd1na2vs0mg"},{"bike_id":"79a1830d-4216-4db2-a82e-4728770c40dd","system_id":"levelo_inurba_marseille","lat":43.31074,"lon":5.38344,"is_reserved":false,"is_disabled":true,"rental_uris":{"android":"levelo://app?vid=79a1830d-4216-4db2-a82e-4728770c40dd","ios":"levelo://app?vid=79a1830d-4216-4db2-a82e-4728770c40dd"},"vehicle_type_id":"4","last_reported":1753348548,"current_range_meters":18000,"station_id":"ce4bgv92rcd13ifvqcr0","pricing_plan_id":"cebpf4jnsgd1na2vs0mg"},{"bike_id":"20a4e9dc-dc3c-400d-b0ee-5397b2784ed2","system_id":"levelo_inurba_marseille","lat":43.290283,"lon":5.381249,"is_reserved":false,"is_disabled":false,"rental_uris":{"android":"levelo://app?vid=20a4e9dc-dc3c-400d-b0ee-5397b2784ed2","ios":"levelo://app?vid=20a4e9dc-dc3c-400d-b0ee-5397b2784ed2"},"vehicle_type_id":"4","last_reported":1753348548,"current_range_meters":17600,"station_id":"ce4bh4p2rcd13ifvqe1g","pricing_plan_id":"cebpf4jnsgd1na2vs0mg"},{"bike_id":"c9fa87fb-bb42-4d95-a8cc-6cff58b20d5c","system_id":"levelo_inurba_marseille","lat":43.261853,"lon":5.374465,"is_reserved":false,"is_disabled":false,"rental_uris":{"android":"levelo://app?vid=c9fa87fb-bb42-4d95-a8cc-6cff58b20d5c","ios":"levelo://app?vid=c9fa87fb-bb42-4d95-a8cc-6cff58b20d5c"},"vehicle_type_id":"4","last_reported":1753348548,"current_range_meters":18000,"station_id":"ce4bhgp2rcd13ifvqfc0","pricing_plan_id":"cebpf4jnsgd1na2vs0mg"},{"bike_id":"fca1ca0f-236e-4c52-9204-2d9a1417d423","system_id":"levelo_inurba_marseille","lat":43.289357,"lon":5.366477,"is_reserved":false,"is_disabled":false,"rental_uris":{"android":"levelo://app?vid=fca1ca0f-236e-4c52-9204-2d9a1417d423","ios":"levelo://app?vid=fca1ca0f-236e-4c52-9204-2d9a1417d423"},"vehicle_type_id":"4","last_reported":1753348548,"current_range_meters":18000,"station_id":"ce4bhap2rcd13ifvqek0","pricing_plan_id":"cebpf4jnsgd1na2vs0mg"},{"bike_id":"8bf2041f-a165-47bf-84f1-41526695fbf0","system_id":"levelo_inurba_marseille","lat":43.24164,"lon":5.363963,"is_reserved":false,"is_disabled":false,"rental_uris":{"android":"levelo://app?vid=8bf2041f-a165-47bf-84f1-41526695fbf0","ios":"levelo://app?vid=8bf2041f-a165-47bf-84f1-41526695fbf0"},"vehicle_type_id":"4","last_reported":1753348548,"current_range_meters":18000,"station_id":"cpo36qri1sfpv3e86is0","pricing_plan_id":"cebpf4jnsgd1na2vs0mg"},{"bike_id":"81ee9d72-91bb-4253-b8ff-48a4e83fe5eb","system_id":"levelo_inurba_marseille","lat":43.28261,"lon":5.35071,"is_reserved":false,"is_disabled":false,"rental_uris":{"android":"levelo://app?vid=81ee9d72-91bb-4253-b8ff-48a4e83fe5eb","ios":"levelo://app?vid=81ee9d72-91bb-4253-b8ff-48a4e83fe5eb"},"vehicle_type_id":"4","last_reported":1753348548,"current_range_meters":18000,"station_id":"ce4bhbp2rcd13ifvqerg","pricing_plan_id":"cebpf4jnsgd1na2vs0mg"},{"bike_id":"d8ab8225-ebfc-48f1-9981-f15e3b9960ea","system_id":"levelo_inurba_marseille","lat":43.22927,"lon":5.35383,"is_reserved":false,"is_disabled":false,"rental_uris":{"android":"levelo://app?vid=d8ab8225-ebfc-48f1-9981-f15e3b9960ea","ios":"levelo://app?vid=d8ab8225-ebfc-48f1-9981-f15e3b9960ea"},"vehicle_type_id":"4","last_reported":1753348548,"current_range_meters":18000,"station_id":"cpo3532slgdg3j2ikp40","pricing_plan_id":"cebpf4jnsgd1na2vs0mg"},{"bike_id":"0a7e2862-d8ec-4c77-89d9-cfcdd51f8d75","system_id":"levelo_inurba_marseille","lat":43.311878,"lon":5.378754,"is_reserved":false,"is_disabled":false,"rental_uris":{"android":"levelo://app?vid=0a7e2862-d8ec-4c77-89d9-cfcdd51f8d75","ios":"levelo://app?vid=0a7e2862-d8ec-4c77-89d9-cfcdd51f8d75"},"vehicle_type_id":"4","last_reported":1753348548,"current_range_meters":18000,"station_id":"","pricing_plan_id":"cebpf4jnsgd1na2vs0mg"},{"bike_id":"922e3d66-ae7e-4439-a5cf-23b2217d76cd","system_id":"levelo_inurba_marseille","lat":43.25937,"lon":5.40915,"is_reserved":false,"is_disabled":false,"rental_uris":{"android":"levelo://app?vid=922e3d66-ae7e-4439-a5cf-23b2217d76cd","ios":"levelo://app?vid=922e3d66-ae7e-4439-a5cf-23b2217d76cd"},"vehicle_type_id":"4","last_reported":1753348548,"current_range_meters":18000,"station_id":"ce4bhm92rcd13ifvqglg","pricing_plan_id":"cebpf4jnsgd1na2vs0mg"},{"bike_id":"bfddca7c-3825-4dd2-81c9-335257a69f7c","system_id":"levelo_inurba_marseille","lat":43.29584,"lon":5.36752,"is_reserved":false,"is_disabled":false,"rental_uris":{"android":"levelo://app?vid=bfddca7c-3825-4dd2-81c9-335257a69f7c","ios":"levelo://app?vid=bfddca7c-3825-4dd2-81c9-335257a69f7c"},"vehicle_type_id":"4","last_reported":1753348548,"current_range_meters":18800,"station_id":"ce4bgph2rcd13ifvqc2g","pricing_plan_id":"cebpf4jnsgd1na2vs0mg"},{"bike_id":"c214acfa-8444-4d69-bdda-2fa29e34203a","system_id":"levelo_inurba_marseille","lat":43.32506,"lon":5.36572,"is_reserved":false,"is_disabled":false,"rental_uris":{"android":"levelo://app?vid=c214acfa-8444-4d69-bdda-2fa29e34203a","ios":"levelo://app?vid=c214acfa-8444-4d69-bdda-2fa29e34203a"},"vehicle_type_id":"4","last_reported":1753348548,"current_range_meters":18800,"station_id":"ce4bhs12rcd13ifvqhvg","pricing_plan_id":"cebpf4jnsgd1na2vs0mg"},{"bike_id":"ce193c8e-90e0-4599-95e2-d02b7d163b03","system_id":"levelo_inurba_marseille","lat":43.24086,"lon":5.3775,"is_reserved":false,"is_disabled":false,"rental_uris":{"android":"levelo://app?vid=ce193c8e-90e0-4599-95e2-d02b7d163b03","ios":"levelo://app?vid=ce193c8e-90e0-4599-95e2-d02b7d163b03"},"vehicle_type_id":"4","last_reported":1753348548,"current_range_meters":18800,"station_id":"ce4bhnp2rcd13ifvqgvg","pricing_plan_id":"cebpf4jnsgd1na2vs0mg"},{"bike_id":"3842bc7b-8cff-42b4-a98f-4fc7ae438b93","system_id":"levelo_inurba_marseille","lat":43.30536,"lon":5.36694,"is_reserved":false,"is_disabled":false,"rental_uris":{"android":"levelo://app?vid=3842bc7b-8cff-42b4-a98f-4fc7ae438b93","ios":"levelo://app?vid=3842bc7b-8cff-42b4-a98f-4fc7ae438b93"},"vehicle_type_id":"4","last_reported":1753348548,"current_range_meters":18800,"station_id":"ce4bgrp2rcd13ifvqc9g","pricing_plan_id":"cebpf4jnsgd1na2vs0mg"},{"bike_id":"0aca8709-ed97-4e7c-96dc-d1aaa82865d8","system_id":"levelo_inurba_marseille","lat":43.30602,"lon":5.36667,"is_reserved":false,"is_disabled":false,"rental_uris":{"android":"levelo://app?vid=0aca8709-ed97-4e7c-96dc-d1aaa82865d8","ios":"levelo://app?vid=0aca8709-ed97-4e7c-96dc-d1aaa82865d8"},"vehicle_type_id":"4","last_reported":1753348548,"current_range_meters":18800,"station_id":"","pricing_plan_id":"cebpf4jnsgd1na2vs0mg"},{"bike_id":"f78b69a5-7f99-469b-9809-db12b867eb2e","system_id":"levelo_inurba_marseille","lat":43.24168,"lon":5.36393,"is_reserved":false,"is_disabled":false,"rental_uris":{"android":"levelo://app?vid=f78b69a5-7f99-469b-9809-db12b867eb2e","ios":"levelo://app?vid=f78b69a5-7f99-469b-9809-db12b867eb2e"},"vehicle_type_id":"4","last_reported":1753348548,"current_range_meters":18800,"station_id":"cpo36qri1sfpv3e86is0","pricing_plan_id":"cebpf4jnsgd1na2vs0mg"},{"bike_id":"e989862c-69f9-4f39-b21f-c2aea878cf77","system_id":"levelo_inurba_marseille","lat":43.239632,"lon":5.366234,"is_reserved":false,"is_disabled":false,"rental_uris":{"android":"levelo://app?vid=e989862c-69f9-4f39-b21f-c2aea878cf77","ios":"levelo://app?vid=e989862c-69f9-4f39-b21f-c2aea878cf77"},"vehicle_type_id":"4","last_reported":1753348548,"current_range_meters":18800,"station_id":"ce4bhi12rcd13ifvqfp0","pricing_plan_id":"cebpf4jnsgd1na2vs0mg"},{"bike_id":"3a1952fb-2c08-48fc-ab85-21a9d2053433","system_id":"levelo_inurba_marseille","lat":43.28072,"lon":5.39657,"is_reserved":false,"is_disabled":false,"rental_uris":{"android":"levelo://app?vid=3a1952fb-2c08-48fc-ab85-21a9d2053433","ios":"levelo://app?vid=3a1952fb-2c08-48fc-ab85-21a9d2053433"},"vehicle_type_id":"4","last_reported":1753348548,"current_range_meters":18800,"station_id":"ce4bho12rcd13ifvqh2g","pricing_plan_id":"cebpf4jnsgd1na2vs0mg"},{"bike_id":"261d4bb0-7bb9-4c80-93f3-cd6f68b7285e","system_id":"levelo_inurba_marseille","lat":43.31504,"lon":5.3685,"is_reserved":false,"is_disabled":false,"rental_uris":{"android":"levelo://app?vid=261d4bb0-7bb9-4c80-93f3-cd6f68b7285e","ios":"levelo://app?vid=261d4bb0-7bb9-4c80-93f3-cd6f68b7285e"},"vehicle_type_id":"4","last_reported":1753348548,"current_range_meters":18800,"station_id":"","pricing_plan_id":"cebpf4jnsgd1na2vs0mg"},{"bike_id":"22832dd9-6f40-41f0-84f7-20d5b045fc09","system_id":"levelo_inurba_marseille","lat":43.30381,"lon":5.42515,"is_reserved":false,"is_disabled":false,"rental_uris":{"android":"levelo://app?vid=22832dd9-6f40-41f0-84f7-20d5b045fc09","ios":"levelo://app?vid=22832dd9-6f40-41f0-84f7-20d5b045fc09"},"vehicle_type_id":"4","last_reported":1753348548,"current_range_meters":18800,"station_id":"ce4bhoh2rcd13ifvqh6g","pricing_plan_id":"cebpf4jnsgd1na2vs0mg"},{"bike_id":"a6392186-f214-48a9-9bfb-58599d724494","system_id":"levelo_inurba_marseille","lat":43.28412,"lon":5.34982,"is_reserved":false,"is_disabled":false,"rental_uris":{"android":"levelo://app?vid=a6392186-f214-48a9-9bfb-58599d724494","ios":"levelo://app?vid=a6392186-f214-48a9-9bfb-58599d724494"},"vehicle_type_id":"4","last_reported":1753348548,"current_range_meters":18800,"station_id":"ce4bhbh2rcd13ifvqepg","pricing_plan_id":"cebpf4jnsgd1na2vs0mg"},{"bike_id":"8bd36a73-8e2f-4f37-b1f8-05d7058e4d1c","system_id":"levelo_inurba_marseille","lat":43.25927,"lon":5.40899,"is_reserved":false,"is_disabled":false,"rental_uris":{"android":"levelo://app?vid=8bd36a73-8e2f-4f37-b1f8-05d7058e4d1c","ios":"levelo://app?vid=8bd36a73-8e2f-4f37-b1f8-05d7058e4d1c"},"vehicle_type_id":"4","last_reported":1753348548,"current_range_meters":18800,"station_id":"ce4bhm92rcd13ifvqglg","pricing_plan_id":"cebpf4jnsgd1na2vs0mg"},{"bike_id":"8c1d0819-f991-43c1-a0ae-15c2c54fdbcd","system_id":"levelo_inurba_marseille","lat":43.27372,"lon":5.36248,"is_reserved":false,"is_disabled":false,"rental_uris":{"android":"levelo://app?vid=8c1d0819-f991-43c1-a0ae-15c2c54fdbcd","ios":"levelo://app?vid=8c1d0819-f991-43c1-a0ae-15c2c54fdbcd"},"vehicle_type_id":"4","last_reported":1753348548,"current_range_meters":19200,"station_id":"ce4bhbh2rcd13ifvqeo0","pricing_plan_id":"cebpf4jnsgd1na2vs0mg"},{"bike_id":"6d162757-3924-4476-9818-84d10836cd88","system_id":"levelo_inurba_marseille","lat":43.31237,"lon":5.36873,"is_reserved":false,"is_disabled":false,"rental_uris":{"android":"levelo://app?vid=6d162757-3924-4476-9818-84d10836cd88","ios":"levelo://app?vid=6d162757-3924-4476-9818-84d10836cd88"},"vehicle_type_id":"4","last_reported":1753348548,"current_range_meters":19200,"station_id":"ce4bgl92rcd13ifvqbq0","pricing_plan_id":"cebpf4jnsgd1na2vs0mg"},{"bike_id":"1190a6a6-e0cc-4ff3-b3e2-3e7074b6085c","system_id":"levelo_inurba_marseille","lat":43.30907,"lon":5.36837,"is_reserved":false,"is_disabled":false,"rental_uris":{"android":"levelo://app?vid=1190a6a6-e0cc-4ff3-b3e2-3e7074b6085c","ios":"levelo://app?vid=1190a6a6-e0cc-4ff3-b3e2-3e7074b6085c"},"vehicle_type_id":"4","last_reported":1753348548,"current_range_meters":19200,"station_id":"ce4bgn92rcd13ifvqbvg","pricing_plan_id":"cebpf4jnsgd1na2vs0mg"},{"bike_id":"8872422e-fb5d-45d7-9a33-49bd04059650","system_id":"levelo_inurba_marseille","lat":43.28486,"lon":5.38422,"is_reserved":false,"is_disabled":false,"rental_uris":{"android":"levelo://app?vid=8872422e-fb5d-45d7-9a33-49bd04059650","ios":"levelo://app?vid=8872422e-fb5d-45d7-9a33-49bd04059650"},"vehicle_type_id":"4","last_reported":1753348548,"current_range_meters":19200,"station_id":"ce4bh512rcd13ifvqe3g","pricing_plan_id":"cebpf4jnsgd1na2vs0mg"},{"bike_id":"ac9faa2f-a031-4e73-94ba-5f1363b8a4c8","system_id":"levelo_inurba_marseille","lat":43.30537,"lon":5.36708,"is_reserved":false,"is_disabled":false,"rental_uris":{"android":"levelo://app?vid=ac9faa2f-a031-4e73-94ba-5f1363b8a4c8","ios":"levelo://app?vid=ac9faa2f-a031-4e73-94ba-5f1363b8a4c8"},"vehicle_type_id":"4","last_reported":1753348548,"current_range_meters":19200,"station_id":"","pricing_plan_id":"cebpf4jnsgd1na2vs0mg"},{"bike_id":"c47743f2-54e1-4c61-88a9-119ba575b878","system_id":"levelo_inurba_marseille","lat":43.296272,"lon":5.377122,"is_reserved":false,"is_disabled":false,"rental_uris":{"android":"levelo://app?vid=c47743f2-54e1-4c61-88a9-119ba575b878","ios":"levelo://app?vid=c47743f2-54e1-4c61-88a9-119ba575b878"},"vehicle_type_id":"4","last_reported":1753348548,"current_range_meters":19200,"station_id":"ce4bgi92rcd13ifvqb90","pricing_plan_id":"cebpf4jnsgd1na2vs0mg"},{"bike_id":"8406251d-bed5-49c7-9c12-36b49a20ecea","system_id":"levelo_inurba_marseille","lat":43.27308,"lon":5.39091,"is_reserved":false,"is_disabled":false,"rental_uris":{"android":"levelo://app?vid=8406251d-bed5-49c7-9c12-36b49a20ecea","ios":"levelo://app?vid=8406251d-bed5-49c7-9c12-36b49a20ecea"},"vehicle_type_id":"4","last_reported":1753348548,"current_range_meters":19200,"station_id":"ce4bhgp2rcd13ifvqfe0","pricing_plan_id":"cebpf4jnsgd1na2vs0mg"},{"bike_id":"f1df9252-2b20-4f6d-acd7-8fb0544bc675","system_id":"levelo_inurba_marseille","lat":43.29887,"lon":5.39748,"is_reserved":false,"is_disabled":false,"rental_uris":{"android":"levelo://app?vid=f1df9252-2b20-4f6d-acd7-8fb0544bc675","ios":"levelo://app?vid=f1df9252-2b20-4f6d-acd7-8fb0544bc675"},"vehicle_type_id":"4","last_reported":1753348548,"current_range_meters":19200,"station_id":"ce4bh0h2rcd13ifvqd50","pricing_plan_id":"cebpf4jnsgd1na2vs0mg"},{"bike_id":"975621b1-02b2-43ba-95e3-5e639ac7a8db","system_id":"levelo_inurba_marseille","lat":43.28179,"lon":5.42629,"is_reserved":false,"is_disabled":false,"rental_uris":{"android":"levelo://app?vid=975621b1-02b2-43ba-95e3-5e639ac7a8db","ios":"levelo://app?vid=975621b1-02b2-43ba-95e3-5e639ac7a8db"},"vehicle_type_id":"4","last_reported":1753348548,"current_range_meters":19600,"station_id":"ce4bhnh2rcd13ifvqgug","pricing_plan_id":"cebpf4jnsgd1na2vs0mg"},{"bike_id":"13403e20-6518-4ecb-a2e2-2e809530dc03","system_id":"levelo_inurba_marseille","lat":43.29784,"lon":5.37118,"is_reserved":false,"is_disabled":false,"rental_uris":{"android":"levelo://app?vid=13403e20-6518-4ecb-a2e2-2e809530dc03","ios":"levelo://app?vid=13403e20-6518-4ecb-a2e2-2e809530dc03"},"vehicle_type_id":"4","last_reported":1753348548,"current_range_meters":19600,"station_id":"ce4bgop2rcd13ifvqc1g","pricing_plan_id":"cebpf4jnsgd1na2vs0mg"},{"bike_id":"184dd696-a175-47ac-8af1-548fdbc31847","system_id":"levelo_inurba_marseille","lat":43.30541,"lon":5.365767,"is_reserved":false,"is_disabled":false,"rental_uris":{"android":"levelo://app?vid=184dd696-a175-47ac-8af1-548fdbc31847","ios":"levelo://app?vid=184dd696-a175-47ac-8af1-548fdbc31847"},"vehicle_type_id":"4","last_reported":1753348548,"current_range_meters":19600,"station_id":"ce4bgs12rcd13ifvqcag","pricing_plan_id":"cebpf4jnsgd1na2vs0mg"},{"bike_id":"21bb3fef-81ef-46bb-a48d-d85402757c94","system_id":"levelo_inurba_marseille","lat":43.254439,"lon":5.379832,"is_reserved":false,"is_disabled":false,"rental_uris":{"android":"levelo://app?vid=21bb3fef-81ef-46bb-a48d-d85402757c94","ios":"levelo://app?vid=21bb3fef-81ef-46bb-a48d-d85402757c94"},"vehicle_type_id":"4","last_reported":1753348548,"current_range_meters":19600,"station_id":"","pricing_plan_id":"cebpf4jnsgd1na2vs0mg"},{"bike_id":"3105b080-eaef-462f-9090-9fad060b9946","system_id":"levelo_inurba_marseille","lat":43.255776,"lon":5.382326,"is_reserved":false,"is_disabled":false,"rental_uris":{"android":"levelo://app?vid=3105b080-eaef-462f-9090-9fad060b9946","ios":"levelo://app?vid=3105b080-eaef-462f-9090-9fad060b9946"},"vehicle_type_id":"4","last_reported":1753348548,"current_range_meters":19600,"station_id":"ce4bhih2rcd13ifvqfs0","pricing_plan_id":"cebpf4jnsgd1na2vs0mg"},{"bike_id":"37380543-4729-4c34-9950-3eae712dfc50","system_id":"levelo_inurba_marseille","lat":43.27839,"lon":5.39215,"is_reserved":false,"is_disabled":false,"rental_uris":{"android":"levelo://app?vid=37380543-4729-4c34-9950-3eae712dfc50","ios":"levelo://app?vid=37380543-4729-4c34-9950-3eae712dfc50"},"vehicle_type_id":"4","last_reported":1753348548,"current_range_meters":19600,"station_id":"ce4bhjp2rcd13ifvqga0","pricing_plan_id":"cebpf4jnsgd1na2vs0mg"},{"bike_id":"ad25e224-b15c-4949-92a3-53289b1bd1fb","system_id":"levelo_inurba_marseille","lat":43.28737,"lon":5.38504,"is_reserved":false,"is_disabled":false,"rental_uris":{"android":"levelo://app?vid=ad25e224-b15c-4949-92a3-53289b1bd1fb","ios":"levelo://app?vid=ad25e224-b15c-4949-92a3-53289b1bd1fb"},"vehicle_type_id":"4","last_reported":1753348548,"current_range_meters":19600,"station_id":"","pricing_plan_id":"cebpf4jnsgd1na2vs0mg"},{"bike_id":"602ab243-2cf7-49d8-9bd9-753b4b0e64bc","system_id":"levelo_inurba_marseille","lat":43.29967,"lon":5.37182,"is_reserved":false,"is_disabled":false,"rental_uris":{"android":"levelo://app?vid=602ab243-2cf7-49d8-9bd9-753b4b0e64bc","ios":"levelo://app?vid=602ab243-2cf7-49d8-9bd9-753b4b0e64bc"},"vehicle_type_id":"4","last_reported":1753348548,"current_range_meters":19600,"station_id":"ce4bgr92rcd13ifvqc7g","pricing_plan_id":"cebpf4jnsgd1na2vs0mg"},{"bike_id":"e16dde5d-0cc1-45bc-adc4-fe9d96184d24","system_id":"levelo_inurba_marseille","lat":43.28193,"lon":5.42642,"is_reserved":false,"is_disabled":false,"rental_uris":{"android":"levelo://app?vid=e16dde5d-0cc1-45bc-adc4-fe9d96184d24","ios":"levelo://app?vid=e16dde5d-0cc1-45bc-adc4-fe9d96184d24"},"vehicle_type_id":"4","last_reported":1753348548,"current_range_meters":19600,"station_id":"ce4bhnh2rcd13ifvqgug","pricing_plan_id":"cebpf4jnsgd1na2vs0mg"},{"bike_id":"7cd4a2e5-fd5d-45cf-b668-8f7225b672d8","system_id":"levelo_inurba_marseille","lat":43.31484,"lon":5.37302,"is_reserved":false,"is_disabled":false,"rental_uris":{"android":"levelo://app?vid=7cd4a2e5-fd5d-45cf-b668-8f7225b672d8","ios":"levelo://app?vid=7cd4a2e5-fd5d-45cf-b668-8f7225b672d8"},"vehicle_type_id":"4","last_reported":1753348548,"current_range_meters":19600,"station_id":"ce4bgt12rcd13ifvqcd0","pricing_plan_id":"cebpf4jnsgd1na2vs0mg"},{"bike_id":"cae6ab92-aa86-4236-8306-acc40daf9102","system_id":"levelo_inurba_marseille","lat":43.29571,"lon":5.37522,"is_reserved":false,"is_disabled":false,"rental_uris":{"android":"levelo://app?vid=cae6ab92-aa86-4236-8306-acc40daf9102","ios":"levelo://app?vid=cae6ab92-aa86-4236-8306-acc40daf9102"},"vehicle_type_id":"4","last_reported":1753348548,"current_range_meters":19600,"station_id":"ce4bgh92rcd13ifvqb50","pricing_plan_id":"cebpf4jnsgd1na2vs0mg"},{"bike_id":"f2ca3887-7e82-498b-8c49-e80cd18a3051","system_id":"levelo_inurba_marseille","lat":43.23965,"lon":5.36639,"is_reserved":false,"is_disabled":false,"rental_uris":{"android":"levelo://app?vid=f2ca3887-7e82-498b-8c49-e80cd18a3051","ios":"levelo://app?vid=f2ca3887-7e82-498b-8c49-e80cd18a3051"},"vehicle_type_id":"4","last_reported":1753348548,"current_range_meters":20000,"station_id":"ce4bhi12rcd13ifvqfp0","pricing_plan_id":"cebpf4jnsgd1na2vs0mg"},{"bike_id":"562cda51-6e5d-41ef-8ee5-4bc2adad5275","system_id":"levelo_inurba_marseille","lat":43.31227,"lon":5.36859,"is_reserved":false,"is_disabled":false,"rental_uris":{"android":"levelo://app?vid=562cda51-6e5d-41ef-8ee5-4bc2adad5275","ios":"levelo://app?vid=562cda51-6e5d-41ef-8ee5-4bc2adad5275"},"vehicle_type_id":"4","last_reported":1753348548,"current_range_meters":20000,"station_id":"ce4bgl92rcd13ifvqbq0","pricing_plan_id":"cebpf4jnsgd1na2vs0mg"},{"bike_id":"d0a3ae16-9ba0-42b4-a925-61b6cf9c3947","system_id":"levelo_inurba_marseille","lat":43.31322,"lon":5.3673,"is_reserved":false,"is_disabled":false,"rental_uris":{"android":"levelo://app?vid=d0a3ae16-9ba0-42b4-a925-61b6cf9c3947","ios":"levelo://app?vid=d0a3ae16-9ba0-42b4-a925-61b6cf9c3947"},"vehicle_type_id":"4","last_reported":1753348548,"current_range_meters":20000,"station_id":"ce4bgr92rcd13ifvqc6g","pricing_plan_id":"cebpf4jnsgd1na2vs0mg"},{"bike_id":"577446f9-a7de-4fa6-9f43-16c5920f5097","system_id":"levelo_inurba_marseille","lat":43.297734,"lon":5.381266,"is_reserved":false,"is_disabled":true,"rental_uris":{"android":"levelo://app?vid=577446f9-a7de-4fa6-9f43-16c5920f5097","ios":"levelo://app?vid=577446f9-a7de-4fa6-9f43-16c5920f5097"},"vehicle_type_id":"4","last_reported":1753348548,"current_range_meters":20000,"station_id":"","pricing_plan_id":"cebpf4jnsgd1na2vs0mg"},{"bike_id":"1635e6d4-d136-4f23-85e4-f58d7ccb970e","system_id":"levelo_inurba_marseille","lat":43.31487,"lon":5.37309,"is_reserved":false,"is_disabled":false,"rental_uris":{"android":"levelo://app?vid=1635e6d4-d136-4f23-85e4-f58d7ccb970e","ios":"levelo://app?vid=1635e6d4-d136-4f23-85e4-f58d7ccb970e"},"vehicle_type_id":"4","last_reported":1753348548,"current_range_meters":18000,"station_id":"ce4bgt12rcd13ifvqcd0","pricing_plan_id":"cebpf4jnsgd1na2vs0mg"},{"bike_id":"bb8e94b8-c650-4a5f-a1af-db71a64e8c5b","system_id":"levelo_inurba_marseille","lat":43.24075,"lon":5.37755,"is_reserved":false,"is_disabled":false,"rental_uris":{"android":"levelo://app?vid=bb8e94b8-c650-4a5f-a1af-db71a64e8c5b","ios":"levelo://app?vid=bb8e94b8-c650-4a5f-a1af-db71a64e8c5b"},"vehicle_type_id":"4","last_reported":1753348548,"current_range_meters":20000,"station_id":"ce4bhnp2rcd13ifvqgvg","pricing_plan_id":"cebpf4jnsgd1na2vs0mg"},{"bike_id":"d61dfa4e-b4da-48cb-adb5-b3e4c37be3cd","system_id":"levelo_inurba_marseille","lat":43.331394,"lon":5.41374,"is_reserved":false,"is_disabled":true,"rental_uris":{"android":"levelo://app?vid=d61dfa4e-b4da-48cb-adb5-b3e4c37be3cd","ios":"levelo://app?vid=d61dfa4e-b4da-48cb-adb5-b3e4c37be3cd"},"vehicle_type_id":"4","last_reported":1753348548,"current_range_meters":20000,"station_id":"","pricing_plan_id":"cebpf4jnsgd1na2vs0mg"},{"bike_id":"cc42e25f-a12e-49b2-bf6c-3d35776b5bb7","system_id":"levelo_inurba_marseille","lat":43.28082,"lon":5.39658,"is_reserved":false,"is_disabled":false,"rental_uris":{"android":"levelo://app?vid=cc42e25f-a12e-49b2-bf6c-3d35776b5bb7","ios":"levelo://app?vid=cc42e25f-a12e-49b2-bf6c-3d35776b5bb7"},"vehicle_type_id":"4","last_reported":1753348548,"current_range_meters":20000,"station_id":"ce4bho12rcd13ifvqh2g","pricing_plan_id":"cebpf4jnsgd1na2vs0mg"},{"bike_id":"fd13a871-6a7c-45ab-8193-0aedb29a36fc","system_id":"levelo_inurba_marseille","lat":43.26552,"lon":5.37311,"is_reserved":false,"is_disabled":false,"rental_uris":{"android":"levelo://app?vid=fd13a871-6a7c-45ab-8193-0aedb29a36fc","ios":"levelo://app?vid=fd13a871-6a7c-45ab-8193-0aedb29a36fc"},"vehicle_type_id":"4","last_reported":1753348548,"current_range_meters":20400,"station_id":"ce4bhg12rcd13ifvqf70","pricing_plan_id":"cebpf4jnsgd1na2vs0mg"},{"bike_id":"635d529b-81db-4d95-967c-681543329cb0","system_id":"levelo_inurba_marseille","lat":43.29902,"lon":5.43685,"is_reserved":false,"is_disabled":false,"rental_uris":{"android":"levelo://app?vid=635d529b-81db-4d95-967c-681543329cb0","ios":"levelo://app?vid=635d529b-81db-4d95-967c-681543329cb0"},"vehicle_type_id":"4","last_reported":1753348548,"current_range_meters":20400,"station_id":"ce4bhpp2rcd13ifvqhfg","pricing_plan_id":"cebpf4jnsgd1na2vs0mg"},{"bike_id":"f16bdc94-e793-4bf2-8598-29ab06de5627","system_id":"levelo_inurba_marseille","lat":43.27917,"lon":5.41185,"is_reserved":false,"is_disabled":false,"rental_uris":{"android":"levelo://app?vid=f16bdc94-e793-4bf2-8598-29ab06de5627","ios":"levelo://app?vid=f16bdc94-e793-4bf2-8598-29ab06de5627"},"vehicle_type_id":"4","last_reported":1753348548,"current_range_meters":20400,"station_id":"","pricing_plan_id":"cebpf4jnsgd1na2vs0mg"},{"bike_id":"2419f35f-f556-4af5-ab88-bf29962d269f","system_id":"levelo_inurba_marseille","lat":43.32489,"lon":5.36574,"is_reserved":false,"is_disabled":false,"rental_uris":{"android":"levelo://app?vid=2419f35f-f556-4af5-ab88-bf29962d269f","ios":"levelo://app?vid=2419f35f-f556-4af5-ab88-bf29962d269f"},"vehicle_type_id":"4","last_reported":1753348548,"current_range_meters":20400,"station_id":"ce4bhs12rcd13ifvqhvg","pricing_plan_id":"cebpf4jnsgd1na2vs0mg"},{"bike_id":"ba86cb1f-77a0-40cf-b434-3914a01b304a","system_id":"levelo_inurba_marseille","lat":43.30879,"lon":5.37104,"is_reserved":false,"is_disabled":false,"rental_uris":{"android":"levelo://app?vid=ba86cb1f-77a0-40cf-b434-3914a01b304a","ios":"levelo://app?vid=ba86cb1f-77a0-40cf-b434-3914a01b304a"},"vehicle_type_id":"4","last_reported":1753348548,"current_range_meters":20800,"station_id":"","pricing_plan_id":"cebpf4jnsgd1na2vs0mg"},{"bike_id":"7b80f78c-3770-4713-8d26-39111765a5db","system_id":"levelo_inurba_marseille","lat":43.231955,"lon":5.355506,"is_reserved":false,"is_disabled":false,"rental_uris":{"android":"levelo://app?vid=7b80f78c-3770-4713-8d26-39111765a5db","ios":"levelo://app?vid=7b80f78c-3770-4713-8d26-39111765a5db"},"vehicle_type_id":"4","last_reported":1753348548,"current_range_meters":20800,"station_id":"ce4bhu92rcd13ifvqi70","pricing_plan_id":"cebpf4jnsgd1na2vs0mg"},{"bike_id":"b0a60fe1-1353-481b-91e3-03996d1455e6","system_id":"levelo_inurba_marseille","lat":43.31749,"lon":5.39031,"is_reserved":false,"is_disabled":false,"rental_uris":{"android":"levelo://app?vid=b0a60fe1-1353-481b-91e3-03996d1455e6","ios":"levelo://app?vid=b0a60fe1-1353-481b-91e3-03996d1455e6"},"vehicle_type_id":"4","last_reported":1753348548,"current_range_meters":20800,"station_id":"ce4bhqp2rcd13ifvqhng","pricing_plan_id":"cebpf4jnsgd1na2vs0mg"},{"bike_id":"17d36a48-e529-4482-99d5-0e62ea98bd08","system_id":"levelo_inurba_marseille","lat":43.299286,"lon":5.381548,"is_reserved":false,"is_disabled":false,"rental_uris":{"android":"levelo://app?vid=17d36a48-e529-4482-99d5-0e62ea98bd08","ios":"levelo://app?vid=17d36a48-e529-4482-99d5-0e62ea98bd08"},"vehicle_type_id":"4","last_reported":1753348548,"current_range_meters":20800,"station_id":"ce4bgj12rcd13ifvqbc0","pricing_plan_id":"cebpf4jnsgd1na2vs0mg"},{"bike_id":"0416e4ab-6fd4-4f32-821d-abcdce7f3c95","system_id":"levelo_inurba_marseille","lat":43.30903,"lon":5.37079,"is_reserved":false,"is_disabled":false,"rental_uris":{"android":"levelo://app?vid=0416e4ab-6fd4-4f32-821d-abcdce7f3c95","ios":"levelo://app?vid=0416e4ab-6fd4-4f32-821d-abcdce7f3c95"},"vehicle_type_id":"4","last_reported":1753348548,"current_range_meters":20800,"station_id":"","pricing_plan_id":"cebpf4jnsgd1na2vs0mg"},{"bike_id":"1c6f98e7-bffb-444b-98ce-c5a83f3b3c24","system_id":"levelo_inurba_marseille","lat":43.24803,"lon":5.37449,"is_reserved":false,"is_disabled":false,"rental_uris":{"android":"levelo://app?vid=1c6f98e7-bffb-444b-98ce-c5a83f3b3c24","ios":"levelo://app?vid=1c6f98e7-bffb-444b-98ce-c5a83f3b3c24"},"vehicle_type_id":"4","last_reported":1753348548,"current_range_meters":20800,"station_id":"ce4bhgh2rcd13ifvqfb0","pricing_plan_id":"cebpf4jnsgd1na2vs0mg"},{"bike_id":"bbc5950b-9184-44d1-b5d7-d2c2c177774b","system_id":"levelo_inurba_marseille","lat":43.301238,"lon":5.387855,"is_reserved":false,"is_disabled":false,"rental_uris":{"android":"levelo://app?vid=bbc5950b-9184-44d1-b5d7-d2c2c177774b","ios":"levelo://app?vid=bbc5950b-9184-44d1-b5d7-d2c2c177774b"},"vehicle_type_id":"4","last_reported":1753348548,"current_range_meters":20800,"station_id":"","pricing_plan_id":"cebpf4jnsgd1na2vs0mg"},{"bike_id":"c4960e79-2838-4f89-9fbd-ecd7355ee027","system_id":"levelo_inurba_marseille","lat":43.23194,"lon":5.3999,"is_reserved":false,"is_disabled":true,"rental_uris":{"android":"levelo://app?vid=c4960e79-2838-4f89-9fbd-ecd7355ee027","ios":"levelo://app?vid=c4960e79-2838-4f89-9fbd-ecd7355ee027"},"vehicle_type_id":"4","last_reported":1753348548,"current_range_meters":20800,"station_id":"ce4bhn12rcd13ifvqgqg","pricing_plan_id":"cebpf4jnsgd1na2vs0mg"},{"bike_id":"3f88fc47-96cf-4308-8459-d1d0ae31e9c4","system_id":"levelo_inurba_marseille","lat":43.3054,"lon":5.36709,"is_reserved":false,"is_disabled":false,"rental_uris":{"android":"levelo://app?vid=3f88fc47-96cf-4308-8459-d1d0ae31e9c4","ios":"levelo://app?vid=3f88fc47-96cf-4308-8459-d1d0ae31e9c4"},"vehicle_type_id":"4","last_reported":1753348548,"current_range_meters":20800,"station_id":"ce4bgrp2rcd13ifvqc9g","pricing_plan_id":"cebpf4jnsgd1na2vs0mg"},{"bike_id":"f2fb42df-b317-4050-9c35-8b2b6533ccf7","system_id":"levelo_inurba_marseille","lat":43.32489,"lon":5.36566,"is_reserved":false,"is_disabled":false,"rental_uris":{"android":"levelo://app?vid=f2fb42df-b317-4050-9c35-8b2b6533ccf7","ios":"levelo://app?vid=f2fb42df-b317-4050-9c35-8b2b6533ccf7"},"vehicle_type_id":"4","last_reported":1753348548,"current_range_meters":20800,"station_id":"ce4bhs12rcd13ifvqhvg","pricing_plan_id":"cebpf4jnsgd1na2vs0mg"},{"bike_id":"5515ee61-835f-4458-a7b2-dc9ac5c0cc88","system_id":"levelo_inurba_marseille","lat":43.30176,"lon":5.37425,"is_reserved":false,"is_disabled":false,"rental_uris":{"android":"levelo://app?vid=5515ee61-835f-4458-a7b2-dc9ac5c0cc88","ios":"levelo://app?vid=5515ee61-835f-4458-a7b2-dc9ac5c0cc88"},"vehicle_type_id":"4","last_reported":1753348548,"current_range_meters":21600,"station_id":"ce4bgs92rcd13ifvqcc0","pricing_plan_id":"cebpf4jnsgd1na2vs0mg"},{"bike_id":"df9f9af0-ae52-4d41-8161-9b2c500985fb","system_id":"levelo_inurba_marseille","lat":43.28269,"lon":5.35059,"is_reserved":false,"is_disabled":false,"rental_uris":{"android":"levelo://app?vid=df9f9af0-ae52-4d41-8161-9b2c500985fb","ios":"levelo://app?vid=df9f9af0-ae52-4d41-8161-9b2c500985fb"},"vehicle_type_id":"4","last_reported":1753348548,"current_range_meters":21600,"station_id":"ce4bhbp2rcd13ifvqerg","pricing_plan_id":"cebpf4jnsgd1na2vs0mg"},{"bike_id":"cf5577ea-8085-442d-b092-8cf7a9d9102b","system_id":"levelo_inurba_marseille","lat":43.32363,"lon":5.36724,"is_reserved":false,"is_disabled":false,"rental_uris":{"android":"levelo://app?vid=cf5577ea-8085-442d-b092-8cf7a9d9102b","ios":"levelo://app?vid=cf5577ea-8085-442d-b092-8cf7a9d9102b"},"vehicle_type_id":"4","last_reported":1753348548,"current_range_meters":21600,"station_id":"ce4bhsh2rcd13ifvqi2g","pricing_plan_id":"cebpf4jnsgd1na2vs0mg"},{"bike_id":"511fdb7e-ad7f-4ed4-9174-4f68c29ae86e","system_id":"levelo_inurba_marseille","lat":43.28153,"lon":5.42642,"is_reserved":false,"is_disabled":false,"rental_uris":{"android":"levelo://app?vid=511fdb7e-ad7f-4ed4-9174-4f68c29ae86e","ios":"levelo://app?vid=511fdb7e-ad7f-4ed4-9174-4f68c29ae86e"},"vehicle_type_id":"4","last_reported":1753348548,"current_range_meters":21600,"station_id":"ce4bhnh2rcd13ifvqgug","pricing_plan_id":"cebpf4jnsgd1na2vs0mg"},{"bike_id":"298a03ce-3f00-4d2a-94db-e11c20f2d47b","system_id":"levelo_inurba_marseille","lat":43.26217,"lon":5.40439,"is_reserved":false,"is_disabled":false,"rental_uris":{"android":"levelo://app?vid=298a03ce-3f00-4d2a-94db-e11c20f2d47b","ios":"levelo://app?vid=298a03ce-3f00-4d2a-94db-e11c20f2d47b"},"vehicle_type_id":"4","last_reported":1753348548,"current_range_meters":21600,"station_id":"ce4bhmh2rcd13ifvqgmg","pricing_plan_id":"cebpf4jnsgd1na2vs0mg"},{"bike_id":"4e1fec1a-1a22-4768-af30-a735c7bf4d4d","system_id":"levelo_inurba_marseille","lat":43.28271,"lon":5.35061,"is_reserved":false,"is_disabled":false,"rental_uris":{"android":"levelo://app?vid=4e1fec1a-1a22-4768-af30-a735c7bf4d4d","ios":"levelo://app?vid=4e1fec1a-1a22-4768-af30-a735c7bf4d4d"},"vehicle_type_id":"4","last_reported":1753348548,"current_range_meters":22000,"station_id":"ce4bhbp2rcd13ifvqerg","pricing_plan_id":"cebpf4jnsgd1na2vs0mg"},{"bike_id":"5535bfab-0862-4b4e-9713-35b213ee8982","system_id":"levelo_inurba_marseille","lat":43.28331,"lon":5.43259,"is_reserved":false,"is_disabled":false,"rental_uris":{"android":"levelo://app?vid=5535bfab-0862-4b4e-9713-35b213ee8982","ios":"levelo://app?vid=5535bfab-0862-4b4e-9713-35b213ee8982"},"vehicle_type_id":"4","last_reported":1753348548,"current_range_meters":21600,"station_id":"","pricing_plan_id":"cebpf4jnsgd1na2vs0mg"},{"bike_id":"b1f19b3b-9f02-46f1-b967-17b385676b68","system_id":"levelo_inurba_marseille","lat":43.31167,"lon":5.38724,"is_reserved":false,"is_disabled":false,"rental_uris":{"android":"levelo://app?vid=b1f19b3b-9f02-46f1-b967-17b385676b68","ios":"levelo://app?vid=b1f19b3b-9f02-46f1-b967-17b385676b68"},"vehicle_type_id":"4","last_reported":1753348548,"current_range_meters":21600,"station_id":"ce4bgv12rcd13ifvqcp0","pricing_plan_id":"cebpf4jnsgd1na2vs0mg"},{"bike_id":"613102dd-618c-4c9e-b339-22a9c45c3a39","system_id":"levelo_inurba_marseille","lat":43.28941,"lon":5.36637,"is_reserved":false,"is_disabled":false,"rental_uris":{"android":"levelo://app?vid=613102dd-618c-4c9e-b339-22a9c45c3a39","ios":"levelo://app?vid=613102dd-618c-4c9e-b339-22a9c45c3a39"},"vehicle_type_id":"4","last_reported":1753348548,"current_range_meters":19600,"station_id":"ce4bhap2rcd13ifvqek0","pricing_plan_id":"cebpf4jnsgd1na2vs0mg"},{"bike_id":"4b144b91-92b5-4b3a-889d-6125ab862286","system_id":"levelo_inurba_marseille","lat":43.230689,"lon":5.354943,"is_reserved":false,"is_disabled":false,"rental_uris":{"android":"levelo://app?vid=4b144b91-92b5-4b3a-889d-6125ab862286","ios":"levelo://app?vid=4b144b91-92b5-4b3a-889d-6125ab862286"},"vehicle_type_id":"4","last_reported":1753348548,"current_range_meters":22000,"station_id":"cpo3342slgdg3j2ifvpg","pricing_plan_id":"cebpf4jnsgd1na2vs0mg"},{"bike_id":"00b81b97-f917-4401-876c-240aa5e480ff","system_id":"levelo_inurba_marseille","lat":43.23153,"lon":5.43717,"is_reserved":false,"is_disabled":false,"rental_uris":{"android":"levelo://app?vid=00b81b97-f917-4401-876c-240aa5e480ff","ios":"levelo://app?vid=00b81b97-f917-4401-876c-240aa5e480ff"},"vehicle_type_id":"4","last_reported":1753348548,"current_range_meters":22000,"station_id":"ce4bhmp2rcd13ifvqgog","pricing_plan_id":"cebpf4jnsgd1na2vs0mg"},{"bike_id":"d3eea4a0-76ba-4059-ba6b-c1ecd6270925","system_id":"levelo_inurba_marseille","lat":43.21156,"lon":5.35124,"is_reserved":false,"is_disabled":false,"rental_uris":{"android":"levelo://app?vid=d3eea4a0-76ba-4059-ba6b-c1ecd6270925","ios":"levelo://app?vid=d3eea4a0-76ba-4059-ba6b-c1ecd6270925"},"vehicle_type_id":"4","last_reported":1753348548,"current_range_meters":22000,"station_id":"st_cvj6sg6p6f1abm77japg","pricing_plan_id":"cebpf4jnsgd1na2vs0mg"},{"bike_id":"d861442c-09c2-4130-9f6c-d36472e7baf5","system_id":"levelo_inurba_marseille","lat":43.21191,"lon":5.350773,"is_reserved":false,"is_disabled":true,"rental_uris":{"android":"levelo://app?vid=d861442c-09c2-4130-9f6c-d36472e7baf5","ios":"levelo://app?vid=d861442c-09c2-4130-9f6c-d36472e7baf5"},"vehicle_type_id":"4","last_reported":1753348548,"current_range_meters":22000,"station_id":"","pricing_plan_id":"cebpf4jnsgd1na2vs0mg"},{"bike_id":"8dcecab2-d08a-49ef-97ee-66dac8e4729f","system_id":"levelo_inurba_marseille","lat":43.270526,"lon":5.402618,"is_reserved":false,"is_disabled":false,"rental_uris":{"android":"levelo://app?vid=8dcecab2-d08a-49ef-97ee-66dac8e4729f","ios":"levelo://app?vid=8dcecab2-d08a-49ef-97ee-66dac8e4729f"},