{"last_updated":1685580749,"ttl":30,"version":"2.2","data":{"bikes":[{"bike_id":"668cd431-6a43-4821-97a1-e06388a8e131","system_id":"levelo_inurba_marseille","lat":43.312239,"lon":5.368562,"is_reserved":false,"is_disabled":false,"rental_uris":{"android":"levelo://app?vid=668cd431-6a43-4821-97a1-e06388a8e131","ios":"levelo://app?vid=668cd431-6a43-4821-97a1-e06388a8e131"},"vehicle_type_id":"4","last_reported":1685580749,"current_range_meters":28400,"station_id":"ce4bgl92rcd13ifvqbq0","pricing_plan_id":"free"},{"bike_id":"afbda4ff-70e4-4c80-9729-ee6d1516a115","system_id":"levelo_inurba_marseille","lat":43.314811,"lon":5.373103,"is_reserved":false,"is_disabled":false,"rental_uris":{"android":"levelo://app?vid=afbda4ff-70e4-4c80-9729-ee6d1516a115","ios":"levelo://app?vid=afbda4ff-70e4-4c80-9729-ee6d1516a115"},"vehicle_type_id":"4","last_reported":1685580749,"current_range_meters":31200,"station_id":"ce4bgt12rcd13ifvqcd0","pricing_plan_id":"free"},{"bike_id":"3fd62091-692b-4747-b292-fd04a09b7156","system_id":"levelo_inurba_marseille","lat":43.31483,"lon":5.37307,"is_reserved":false,"is_disabled":false,"rental_uris":{"android":"levelo://app?vid=3fd62091-692b-4747-b292-fd04a09b7156","ios":"levelo://app?vid=3fd62091-692b-4747-b292-fd04a09b7156"},"vehicle_type_id":"4","last_reported":1685580749,"current_range_meters":4400,"station_id":"ce4bgt12rcd13ifvqcd0","pricing_plan_id":"free"},{"bike_id":"06b6daf0-563b-4d79-9c4e-7d31a1ba802a","system_id":"levelo_inurba_marseille","lat":43.314811,"lon":5.373104,"is_reserved":false,"is_disabled":false,"rental_uris":{"android":"levelo://app?vid=06b6daf0-563b-4d79-9c4e-7d31a1ba802a","ios":"levelo://app?vid=06b6daf0-563b-4d79-9c4e-7d31a1ba802a"},"vehicle_type_id":"4","last_reported":1685580749,"current_range_meters":30800,"station_id":"ce4bgt12rcd13ifvqcd0","pricing_plan_id":"free"},{"bike_id":"e2085d7e-f03c-4b34-84b4-b83e37f0633a","system_id":"levelo_inurba_marseille","lat":43.314811,"lon":5.373104,"is_reserved":false,"is_disabled":false,"rental_uris":{"android":"levelo://app?vid=e2085d7e-f03c-4b34-84b4-b83e37f0633a","ios":"levelo://app?vid=e2085d7e-f03c-4b34-84b4-b83e37f0633a"},"vehicle_type_id":"4","last_reported":1685580749,"current_range_meters":31200,"station_id":"ce4bgt12rcd13ifvqcd0","pricing_plan_id":"free"},{"bike_id":"b03e3e07-9c37-4ef4-ab5e-9052a707b8b8","system_id":"levelo_inurba_marseille","lat":43.314811,"lon":5.373103,"is_reserved":false,"is_disabled":false,"rental_uris":{"android":"levelo://app?vid=b03e3e07-9c37-4ef4-ab5e-9052a707b8b8","ios":"levelo://app?vid=b03e3e07-9c37-4ef4-ab5e-9052a707b8b8"},"vehicle_type_id":"4","last_reported":1685580749,"current_range_meters":19600,"station_id":"ce4bgt12rcd13ifvqcd0","pricing_plan_id":"free"},{"bike_id":"f69a3f8a-adab-435a-ad98-4302ca7a3c35","system_id":"levelo_inurba_marseille","lat":43.31724,"lon":5.37095,"is_reserved":false,"is_disabled":false,"rental_uris":{"android":"levelo://app?vid=f69a3f8a-adab-435a-ad98-4302ca7a3c35","ios":"levelo://app?vid=f69a3f8a-adab-435a-ad98-4302ca7a3c35"},"vehicle_type_id":"4","last_reported":1685580749,"current_range_meters":15600,"station_id":"","pricing_plan_id":"free"},{"bike_id":"e65c2738-577c-416a-8097-1170462782b7","system_id":"levelo_inurba_marseille","lat":43.30608,"lon":5.37219,"is_reserved":false,"is_disabled":false,"rental_uris":{"android":"levelo://app?vid=e65c2738-577c-416a-8097-1170462782b7","ios":"levelo://app?vid=e65c2738-577c-416a-8097-1170462782b7"},"vehicle_type_id":"4","last_reported":1685580749,"current_range_meters":2800,"station_id":"ce4bgqh2rcd13ifvqc4g","pricing_plan_id":"free"},{"bike_id":"5a48ed31-516c-410a-b504-37cecb4b62b7","system_id":"levelo_inurba_marseille","lat":43.305989,"lon":5.37225,"is_reserved":false,"is_disabled":false,"rental_uris":{"android":"levelo://app?vid=5a48ed31-516c-410a-b504-37cecb4b62b7","ios":"levelo://app?vid=5a48ed31-516c-410a-b504-37cecb4b62b7"},"vehicle_type_id":"4","last_reported":1685580749,"current_range_meters":26000,"station_id":"ce4bgqh2rcd13ifvqc4g","pricing_plan_id":"free"},{"bike_id":"44970321-6a3b-4d0d-82c4-4de8d0722cdc","system_id":"levelo_inurba_marseille","lat":43.30603,"lon":5.37229,"is_reserved":false,"is_disabled":false,"rental_uris":{"android":"levelo://app?vid=44970321-6a3b-4d0d-82c4-4de8d0722cdc","ios":"levelo://app?vid=44970321-6a3b-4d0d-82c4-4de8d0722cdc"},"vehicle_type_id":"4","last_reported":1685580749,"current_range_meters":12800,"station_id":"ce4bgqh2rcd13ifvqc4g","pricing_plan_id":"free"},{"bike_id":"7e4bfe88-08b6-4683-958b-fec7684b32f3","system_id":"levelo_inurba_marseille","lat":43.311131,"lon":5.377651,"is_reserved":false,"is_disabled":false,"rental_uris":{"android":"levelo://app?vid=7e4bfe88-08b6-4683-958b-fec7684b32f3","ios":"levelo://app?vid=7e4bfe88-08b6-4683-958b-fec7684b32f3"},"vehicle_type_id":"4","last_reported":1685580749,"current_range_meters":22800,"station_id":"ce4bgt92rcd13ifvqcg0","pricing_plan_id":"free"},{"bike_id":"ba07bce7-222b-4beb-855b-b595236c1bb9","system_id":"levelo_inurba_marseille","lat":43.311131,"lon":5.377651,"is_reserved":false,"is_disabled":false,"rental_uris":{"android":"levelo://app?vid=ba07bce7-222b-4beb-855b-b595236c1bb9","ios":"levelo://app?vid=ba07bce7-222b-4beb-855b-b595236c1bb9"},"vehicle_type_id":"4","last_reported":1685580749,"current_range_meters":31600,"station_id":"ce4bgt92rcd13ifvqcg0","pricing_plan_id":"free"},{"bike_id":"66b14a60-07a9-416d-8bc5-9c81dce18825","system_id":"levelo_inurba_marseille","lat":43.311125,"lon":5.377624,"is_reserved":false,"is_disabled":false,"rental_uris":{"android":"levelo://app?vid=66b14a60-07a9-416d-8bc5-9c81dce18825","ios":"levelo://app?vid=66b14a60-07a9-416d-8bc5-9c81dce18825"},"vehicle_type_id":"4","last_reported":1685580749,"current_range_meters":30800,"station_id":"ce4bgt92rcd13ifvqcg0","pricing_plan_id":"free"},{"bike_id":"a80c8258-e5f7-4067-bda5-9bf99389b1c9","system_id":"levelo_inurba_marseille","lat":43.311131,"lon":5.377651,"is_reserved":false,"is_disabled":false,"rental_uris":{"android":"levelo://app?vid=a80c8258-e5f7-4067-bda5-9bf99389b1c9","ios":"levelo://app?vid=a80c8258-e5f7-4067-bda5-9bf99389b1c9"},"vehicle_type_id":"4","last_reported":1685580749,"current_range_meters":9200,"station_id":"ce4bgt92rcd13ifvqcg0","pricing_plan_id":"free"},{"bike_id":"bec223d4-cce1-4e94-b328-1fe0a741b333","system_id":"levelo_inurba_marseille","lat":43.311125,"lon":5.377624,"is_reserved":false,"is_disabled":false,"rental_uris":{"android":"levelo://app?vid=bec223d4-cce1-4e94-b328-1fe0a741b333","ios":"levelo://app?vid=bec223d4-cce1-4e94-b328-1fe0a741b333"},"vehicle_type_id":"4","last_reported":1685580749,"current_range_meters":31200,"station_id":"ce4bgt92rcd13ifvqcg0","pricing_plan_id":"free"},{"bike_id":"2e436361-2164-4679-b061-d77fbd415422","system_id":"levelo_inurba_marseille","lat":43.31859,"lon":5.37462,"is_reserved":false,"is_disabled":false,"rental_uris":{"android":"levelo://app?vid=2e436361-2164-4679-b061-d77fbd415422","ios":"levelo://app?vid=2e436361-2164-4679-b061-d77fbd415422"},"vehicle_type_id":"4","last_reported":1685580749,"current_range_meters":20800,"station_id":"","pricing_plan_id":"free"},{"bike_id":"997919aa-2218-4b0d-ab25-41179850189a","system_id":"levelo_inurba_marseille","lat":43.30445,"lon":5.37106,"is_reserved":false,"is_disabled":false,"rental_uris":{"android":"levelo://app?vid=997919aa-2218-4b0d-ab25-41179850189a","ios":"levelo://app?vid=997919aa-2218-4b0d-ab25-41179850189a"},"vehicle_type_id":"4","last_reported":1685580749,"current_range_meters":2000,"station_id":"","pricing_plan_id":"free"},{"bike_id":"dc58f958-a228-4b35-be48-7e9ec1791273","system_id":"levelo_inurba_marseille","lat":43.317075,"lon":5.377367,"is_reserved":false,"is_disabled":false,"rental_uris":{"android":"levelo://app?vid=dc58f958-a228-4b35-be48-7e9ec1791273","ios":"levelo://app?vid=dc58f958-a228-4b35-be48-7e9ec1791273"},"vehicle_type_id":"4","last_reported":1685580749,"current_range_meters":2800,"station_id":"ce4bgth2rcd13ifvqch0","pricing_plan_id":"free"},{"bike_id":"155f023b-89d0-431e-a271-76d2b181a6bc","system_id":"levelo_inurba_marseille","lat":43.30308,"lon":5.369,"is_reserved":false,"is_disabled":false,"rental_uris":{"android":"levelo://app?vid=155f023b-89d0-431e-a271-76d2b181a6bc","ios":"levelo://app?vid=155f023b-89d0-431e-a271-76d2b181a6bc"},"vehicle_type_id":"4","last_reported":1685580749,"current_range_meters":19200,"station_id":"ce4bgqh2rcd13ifvqc5g","pricing_plan_id":"free"},{"bike_id":"85376b9d-4814-4e31-9fb2-4d6de196f247","system_id":"levelo_inurba_marseille","lat":43.315289,"lon":5.380349,"is_reserved":false,"is_disabled":false,"rental_uris":{"android":"levelo://app?vid=85376b9d-4814-4e31-9fb2-4d6de196f247","ios":"levelo://app?vid=85376b9d-4814-4e31-9fb2-4d6de196f247"},"vehicle_type_id":"4","last_reported":1685580749,"current_range_meters":0,"station_id":"ce4bhsp2rcd13ifvqi50","pricing_plan_id":"free"},{"bike_id":"20fb1e6b-ef22-41d8-9250-11513a095df8","system_id":"levelo_inurba_marseille","lat":43.31002,"lon":5.38021,"is_reserved":false,"is_disabled":false,"rental_uris":{"android":"levelo://app?vid=20fb1e6b-ef22-41d8-9250-11513a095df8","ios":"levelo://app?vid=20fb1e6b-ef22-41d8-9250-11513a095df8"},"vehicle_type_id":"4","last_reported":1685580749,"current_range_meters":6800,"station_id":"","pricing_plan_id":"free"},{"bike_id":"579a51c3-f230-4ccd-8937-7113e22eab55","system_id":"levelo_inurba_marseille","lat":43.315289,"lon":5.380349,"is_reserved":false,"is_disabled":false,"rental_uris":{"android":"levelo://app?vid=579a51c3-f230-4ccd-8937-7113e22eab55","ios":"levelo://app?vid=579a51c3-f230-4ccd-8937-7113e22eab55"},"vehicle_type_id":"4","last_reported":1685580749,"current_range_meters":3200,"station_id":"ce4bhsp2rcd13ifvqi50","pricing_plan_id":"free"},{"bike_id":"3adaaa17-1c8a-4872-9e9c-2232acd40ecf","system_id":"levelo_inurba_marseille","lat":43.315289,"lon":5.380349,"is_reserved":false,"is_disabled":false,"rental_uris":{"android":"levelo://app?vid=3adaaa17-1c8a-4872-9e9c-2232acd40ecf","ios":"levelo://app?vid=3adaaa17-1c8a-4872-9e9c-2232acd40ecf"},"vehicle_type_id":"4","last_reported":1685580749,"current_range_meters":5200,"station_id":"ce4bhsp2rcd13ifvqi50","pricing_plan_id":"free"},{"bike_id":"5bc80bb6-d1f6-4815-a612-f3f9292f8b24","system_id":"levelo_inurba_marseille","lat":43.315289,"lon":5.380349,"is_reserved":false,"is_disabled":false,"rental_uris":{"android":"levelo://app?vid=5bc80bb6-d1f6-4815-a612-f3f9292f8b24","ios":"levelo://app?vid=5bc80bb6-d1f6-4815-a612-f3f9292f8b24"},"vehicle_type_id":"4","last_reported":1685580749,"current_range_meters":19200,"station_id":"ce4bhsp2rcd13ifvqi50","pricing_plan_id":"free"},{"bike_id":"c6f3b3c7-93b8-4276-a01d-fdcefde79f4f","system_id":"levelo_inurba_marseille","lat":43.301939,"lon":5.366286,"is_reserved":false,"is_disabled":false,"rental_uris":{"android":"levelo://app?vid=c6f3b3c7-93b8-4276-a01d-fdcefde79f4f","ios":"levelo://app?vid=c6f3b3c7-93b8-4276-a01d-fdcefde79f4f"},"vehicle_type_id":"4","last_reported":1685580749,"current_range_meters":19200,"station_id":"ce4bgrh2rcd13ifvqc8g","pricing_plan_id":"free"},{"bike_id":"b6b372ab-3420-4dc6-98e9-1e46f4668c70","system_id":"levelo_inurba_marseille","lat":43.308012,"lon":5.381511,"is_reserved":false,"is_disabled":false,"rental_uris":{"android":"levelo://app?vid=b6b372ab-3420-4dc6-98e9-1e46f4668c70","ios":"levelo://app?vid=b6b372ab-3420-4dc6-98e9-1e46f4668c70"},"vehicle_type_id":"4","last_reported":1685580749,"current_range_meters":0,"station_id":"ce4bgt12rcd13ifvqce0","pricing_plan_id":"free"},{"bike_id":"7a0a3d25-a537-4a65-94e8-285913e9f66b","system_id":"levelo_inurba_marseille","lat":43.308012,"lon":5.381511,"is_reserved":false,"is_disabled":false,"rental_uris":{"android":"levelo://app?vid=7a0a3d25-a537-4a65-94e8-285913e9f66b","ios":"levelo://app?vid=7a0a3d25-a537-4a65-94e8-285913e9f66b"},"vehicle_type_id":"4","last_reported":1685580749,"current_range_meters":16800,"station_id":"ce4bgt12rcd13ifvqce0","pricing_plan_id":"free"},{"bike_id":"b69f59ff-2e91-462e-9874-6d3bcd3e668a","system_id":"levelo_inurba_marseille","lat":43.308012,"lon":5.381511,"is_reserved":false,"is_disabled":false,"rental_uris":{"android":"levelo://app?vid=b69f59ff-2e91-462e-9874-6d3bcd3e668a","ios":"levelo://app?vid=b69f59ff-2e91-462e-9874-6d3bcd3e668a"},"vehicle_type_id":"4","last_reported":1685580749,"current_range_meters":31200,"station_id":"ce4bgt12rcd13ifvqce0","pricing_plan_id":"free"},{"bike_id":"a3a67a57-072f-4b49-b134-613485aa4f8b","system_id":"levelo_inurba_marseille","lat":43.308012,"lon":5.381511,"is_reserved":false,"is_disabled":false,"rental_uris":{"android":"levelo://app?vid=a3a67a57-072f-4b49-b134-613485aa4f8b","ios":"levelo://app?vid=a3a67a57-072f-4b49-b134-613485aa4f8b"},"vehicle_type_id":"4","last_reported":1685580749,"current_range_meters":31200,"station_id":"ce4bgt12rcd13ifvqce0","pricing_plan_id":"free"},{"bike_id":"7c4c44bc-4b43-4453-b988-8762916b291d","system_id":"levelo_inurba_marseille","lat":43.308012,"lon":5.381511,"is_reserved":false,"is_disabled":false,"rental_uris":{"android":"levelo://app?vid=7c4c44bc-4b43-4453-b988-8762916b291d","ios":"levelo://app?vid=7c4c44bc-4b43-4453-b988-8762916b291d"},"vehicle_type_id":"4","last_reported":1685580749,"current_range_meters":30800,"station_id":"ce4bgt12rcd13ifvqce0","pricing_plan_id":"free"},{"bike_id":"eb1adb48-c078-45b9-9219-aa3703100620","system_id":"levelo_inurba_marseille","lat":43.308012,"lon":5.381511,"is_reserved":false,"is_disabled":false,"rental_uris":{"android":"levelo://app?vid=eb1adb48-c078-45b9-9219-aa3703100620","ios":"levelo://app?vid=eb1adb48-c078-45b9-9219-aa3703100620"},"vehicle_type_id":"4","last_reported":1685580749,"current_range_meters":29200,"station_id":"ce4bgt12rcd13ifvqce0","pricing_plan_id":"free"},{"bike_id":"1217f175-de60-49c3-b200-3699b5317c3c","system_id":"levelo_inurba_marseille","lat":43.308012,"lon":5.381511,"is_reserved":false,"is_disabled":false,"rental_uris":{"android":"levelo://app?vid=1217f175-de60-49c3-b200-3699b5317c3c","ios":"levelo://app?vid=1217f175-de60-49c3-b200-3699b5317c3c"},"vehicle_type_id":"4","last_reported":1685580749,"current_range_meters":31200,"station_id":"ce4bgt12rcd13ifvqce0","pricing_plan_id":"free"},{"bike_id":"74a56193-f75f-4741-850d-4f7d18e39ee1","system_id":"levelo_inurba_marseille","lat":43.308012,"lon":5.381511,"is_reserved":false,"is_disabled":false,"rental_uris":{"android":"levelo://app?vid=74a56193-f75f-4741-850d-4f7d18e39ee1","ios":"levelo://app?vid=74a56193-f75f-4741-850d-4f7d18e39ee1"},"vehicle_type_id":"4","last_reported":1685580749,"current_range_meters":30000,"station_id":"ce4bgt12rcd13ifvqce0","pricing_plan_id":"free"},{"bike_id":"d7e0e1b3-6e1c-4122-b90e-ea496cc1179d","system_id":"levelo_inurba_marseille","lat":43.308012,"lon":5.381511,"is_reserved":false,"is_disabled":false,"rental_uris":{"android":"levelo://app?vid=d7e0e1b3-6e1c-4122-b90e-ea496cc1179d","ios":"levelo://app?vid=d7e0e1b3-6e1c-4122-b90e-ea496cc1179d"},"vehicle_type_id":"4","last_reported":1685580749,"current_range_meters":28000,"station_id":"ce4bgt12rcd13ifvqce0","pricing_plan_id":"free"},{"bike_id":"0b75cd3f-f52f-4f4a-aefa-eae9462bb3f4","system_id":"levelo_inurba_marseille","lat":43.308012,"lon":5.381511,"is_reserved":false,"is_disabled":false,"rental_uris":{"android":"levelo://app?vid=0b75cd3f-f52f-4f4a-aefa-eae9462bb3f4","ios":"levelo://app?vid=0b75cd3f-f52f-4f4a-aefa-eae9462bb3f4"},"vehicle_type_id":"4","last_reported":1685580749,"current_range_meters":31200,"station_id":"ce4bgt12rcd13ifvqce0","pricing_plan_id":"free"},{"bike_id":"454d47a4-f9d5-4e0f-9c57-6676bd9547f6","system_id":"levelo_inurba_marseille","lat":43.308012,"lon":5.381511,"is_reserved":false,"is_disabled":false,"rental_uris":{"android":"levelo://app?vid=454d47a4-f9d5-4e0f-9c57-6676bd9547f6","ios":"levelo://app?vid=454d47a4-f9d5-4e0f-9c57-6676bd9547f6"},"vehicle_type_id":"4","last_reported":1685580749,"current_range_meters":31200,"station_id":"ce4bgt12rcd13ifvqce0","pricing_plan_id":"free"},{"bike_id":"94640872-1bde-422e-89ea-3e51de093e86","system_id":"levelo_inurba_marseille","lat":43.308012,"lon":5.381511,"is_reserved":false,"is_disabled":false,"rental_uris":{"android":"levelo://app?vid=94640872-1bde-422e-89ea-3e51de093e86","ios":"levelo://app?vid=94640872-1bde-422e-89ea-3e51de093e86"},"vehicle_type_id":"4","last_reported":1685580749,"current_range_meters":28000,"station_id":"ce4bgt12rcd13ifvqce0","pricing_plan_id":"free"},{"bike_id":"2dcc5246-91f6-4cb7-aa3f-5b0eb3b97880","system_id":"levelo_inurba_marseille","lat":43.308012,"lon":5.381511,"is_reserved":false,"is_disabled":false,"rental_uris":{"android":"levelo://app?vid=2dcc5246-91f6-4cb7-aa3f-5b0eb3b97880","ios":"levelo://app?vid=2dcc5246-91f6-4cb7-aa3f-5b0eb3b97880"},"vehicle_type_id":"4","last_reported":1685580749,"current_range_meters":28800,"station_id":"ce4bgt12rcd13ifvqce0","pricing_plan_id":"free"},{"bike_id":"44bf9199-8d9b-4170-9d92-68f507c1b978","system_id":"levelo_inurba_marseille","lat":43.308012,"lon":5.381511,"is_reserved":false,"is_disabled":false,"rental_uris":{"android":"levelo://app?vid=44bf9199-8d9b-4170-9d92-68f507c1b978","ios":"levelo://app?vid=44bf9199-8d9b-4170-9d92-68f507c1b978"},"vehicle_type_id":"4","last_reported":1685580749,"current_range_meters":31200,"station_id":"ce4bgt12rcd13ifvqce0","pricing_plan_id":"free"},{"bike_id":"b02345fd-753f-45c9-b0a3-c94c9cffb451","system_id":"levelo_inurba_marseille","lat":43.308012,"lon":5.381511,"is_reserved":false,"is_disabled":false,"rental_uris":{"android":"levelo://app?vid=b02345fd-753f-45c9-b0a3-c94c9cffb451","ios":"levelo://app?vid=b02345fd-753f-45c9-b0a3-c94c9cffb451"},"vehicle_type_id":"4","last_reported":1685580749,"current_range_meters":28000,"station_id":"ce4bgt12rcd13ifvqce0","pricing_plan_id":"free"},{"bike_id":"634ccbc7-772c-4ea1-9766-0aeec56e9e24","system_id":"levelo_inurba_marseille","lat":43.30802,"lon":5.38161,"is_reserved":false,"is_disabled":false,"rental_uris":{"android":"levelo://app?vid=634ccbc7-772c-4ea1-9766-0aeec56e9e24","ios":"levelo://app?vid=634ccbc7-772c-4ea1-9766-0aeec56e9e24"},"vehicle_type_id":"4","last_reported":1685580749,"current_range_meters":18000,"station_id":"ce4bgt12rcd13ifvqce0","pricing_plan_id":"free"},{"bike_id":"11e3e9a6-0196-4a74-a881-38549b2bd024","system_id":"levelo_inurba_marseille","lat":43.30802,"lon":5.38164,"is_reserved":false,"is_disabled":false,"rental_uris":{"android":"levelo://app?vid=11e3e9a6-0196-4a74-a881-38549b2bd024","ios":"levelo://app?vid=11e3e9a6-0196-4a74-a881-38549b2bd024"},"vehicle_type_id":"4","last_reported":1685580749,"current_range_meters":7600,"station_id":"ce4bgt12rcd13ifvqce0","pricing_plan_id":"free"},{"bike_id":"b40f9ad8-5958-43d1-851b-29eb342ffb07","system_id":"levelo_inurba_marseille","lat":43.304606,"lon":5.379026,"is_reserved":false,"is_disabled":false,"rental_uris":{"android":"levelo://app?vid=b40f9ad8-5958-43d1-851b-29eb342ffb07","ios":"levelo://app?vid=b40f9ad8-5958-43d1-851b-29eb342ffb07"},"vehicle_type_id":"4","last_reported":1685580749,"current_range_meters":18000,"station_id":"ce4bgup2rcd13ifvqcn0","pricing_plan_id":"free"},{"bike_id":"7a8cd430-dd37-4a8d-b5ff-3141c9f698f4","system_id":"levelo_inurba_marseille","lat":43.31809,"lon":5.38161,"is_reserved":false,"is_disabled":false,"rental_uris":{"android":"levelo://app?vid=7a8cd430-dd37-4a8d-b5ff-3141c9f698f4","ios":"levelo://app?vid=7a8cd430-dd37-4a8d-b5ff-3141c9f698f4"},"vehicle_type_id":"4","last_reported":1685580749,"current_range_meters":3200,"station_id":"","pricing_plan_id":"free"},{"bike_id":"c4276daf-0211-485f-a822-26c3ab061cf5","system_id":"levelo_inurba_marseille","lat":43.30162,"lon":5.3751,"is_reserved":false,"is_disabled":false,"rental_uris":{"android":"levelo://app?vid=c4276daf-0211-485f-a822-26c3ab061cf5","ios":"levelo://app?vid=c4276daf-0211-485f-a822-26c3ab061cf5"},"vehicle_type_id":"4","last_reported":1685580749,"current_range_meters":12400,"station_id":"","pricing_plan_id":"free"},{"bike_id":"8122b6a2-1897-433f-8d73-049d77b58160","system_id":"levelo_inurba_marseille","lat":43.319935,"lon":5.381699,"is_reserved":false,"is_disabled":false,"rental_uris":{"android":"levelo://app?vid=8122b6a2-1897-433f-8d73-049d77b58160","ios":"levelo://app?vid=8122b6a2-1897-433f-8d73-049d77b58160"},"vehicle_type_id":"4","last_reported":1685580749,"current_range_meters":1600,"station_id":"ce4bhr12rcd13ifvqhpg","pricing_plan_id":"free"},{"bike_id":"9c4eb06a-e32f-4fed-8974-3a073e4fe459","system_id":"levelo_inurba_marseille","lat":43.319935,"lon":5.381699,"is_reserved":false,"is_disabled":false,"rental_uris":{"android":"levelo://app?vid=9c4eb06a-e32f-4fed-8974-3a073e4fe459","ios":"levelo://app?vid=9c4eb06a-e32f-4fed-8974-3a073e4fe459"},"vehicle_type_id":"4","last_reported":1685580749,"current_range_meters":8800,"station_id":"ce4bhr12rcd13ifvqhpg","pricing_plan_id":"free"},{"bike_id":"d81a4dd2-5496-4ddd-ba80-4324dc22f878","system_id":"levelo_inurba_marseille","lat":43.31835,"lon":5.38293,"is_reserved":false,"is_disabled":false,"rental_uris":{"android":"levelo://app?vid=d81a4dd2-5496-4ddd-ba80-4324dc22f878","ios":"levelo://app?vid=d81a4dd2-5496-4ddd-ba80-4324dc22f878"},"vehicle_type_id":"4","last_reported":1685580749,"current_range_meters":22000,"station_id":"","pricing_plan_id":"free"},{"bike_id":"05e88466-9a75-4db7-a1ad-89fce4915a68","system_id":"levelo_inurba_marseille","lat":43.313571,"lon":5.384829,"is_reserved":false,"is_disabled":false,"rental_uris":{"android":"levelo://app?vid=05e88466-9a75-4db7-a1ad-89fce4915a68","ios":"levelo://app?vid=05e88466-9a75-4db7-a1ad-89fce4915a68"},"vehicle_type_id":"4","last_reported":1685580749,"current_range_meters":23600,"station_id":"ce4bgt92rcd13ifvqcf0","pricing_plan_id":"free"},{"bike_id":"82990372-714a-45c2-a0cc-a757fd9ee5fd","system_id":"levelo_inurba_marseille","lat":43.313571,"lon":5.384829,"is_reserved":false,"is_disabled":false,"rental_uris":{"android":"levelo://app?vid=82990372-714a-45c2-a0cc-a757fd9ee5fd","ios":"levelo://app?vid=82990372-714a-45c2-a0cc-a757fd9ee5fd"},"vehicle_type_id":"4","last_reported":1685580749,"current_range_meters":29600,"station_id":"ce4bgt92rcd13ifvqcf0","pricing_plan_id":"free"},{"bike_id":"a5d2cd5a-cbe5-4fc2-95aa-a7dda521e460","system_id":"levelo_inurba_marseille","lat":43.313571,"lon":5.384829,"is_reserved":false,"is_disabled":false,"rental_uris":{"android":"levelo://app?vid=a5d2cd5a-cbe5-4fc2-95aa-a7dda521e460","ios":"levelo://app?vid=a5d2cd5a-cbe5-4fc2-95aa-a7dda521e460"},"vehicle_type_id":"4","last_reported":1685580749,"current_range_meters":18400,"station_id":"ce4bgt92rcd13ifvqcf0","pricing_plan_id":"free"},{"bike_id":"fed16c91-2081-4d9d-add5-35b6db157a1c","system_id":"levelo_inurba_marseille","lat":43.313571,"lon":5.384829,"is_reserved":false,"is_disabled":false,"rental_uris":{"android":"levelo://app?vid=fed16c91-2081-4d9d-add5-35b6db157a1c","ios":"levelo://app?vid=fed16c91-2081-4d9d-add5-35b6db157a1c"},"vehicle_type_id":"4","last_reported":1685580749,"current_range_meters":29200,"station_id":"ce4bgt92rcd13ifvqcf0","pricing_plan_id":"free"},{"bike_id":"ed1784de-cf9d-4010-976e-36aae5526db6","system_id":"levelo_inurba_marseille","lat":43.305364,"lon":5.384119,"is_reserved":false,"is_disabled":false,"rental_uris":{"android":"levelo://app?vid=ed1784de-cf9d-4010-976e-36aae5526db6","ios":"levelo://app?vid=ed1784de-cf9d-4010-976e-36aae5526db6"},"vehicle_type_id":"4","last_reported":1685580749,"current_range_meters":30000,"station_id":"ce4bgg92rcd13ifvqb30","pricing_plan_id":"free"},{"bike_id":"51c394eb-19c1-47f4-b06f-cf0db7370409","system_id":"levelo_inurba_marseille","lat":43.305364,"lon":5.384119,"is_reserved":false,"is_disabled":false,"rental_uris":{"android":"levelo://app?vid=51c394eb-19c1-47f4-b06f-cf0db7370409","ios":"levelo://app?vid=51c394eb-19c1-47f4-b06f-cf0db7370409"},"vehicle_type_id":"4","last_reported":1685580749,"current_range_meters":28800,"station_id":"ce4bgg92rcd13ifvqb30","pricing_plan_id":"free"},{"bike_id":"e2395783-f6fb-473f-9889-f8adf918a1c1","system_id":"levelo_inurba_marseille","lat":43.305364,"lon":5.384119,"is_reserved":false,"is_disabled":false,"rental_uris":{"android":"levelo://app?vid=e2395783-f6fb-473f-9889-f8adf918a1c1","ios":"levelo://app?vid=e2395783-f6fb-473f-9889-f8adf918a1c1"},"vehicle_type_id":"4","last_reported":1685580749,"current_range_meters":25600,"station_id":"ce4bgg92rcd13ifvqb30","pricing_plan_id":"free"},{"bike_id":"a1c673b9-d382-4991-92a9-e1a678e4009e","system_id":"levelo_inurba_marseille","lat":43.305364,"lon":5.384119,"is_reserved":false,"is_disabled":false,"rental_uris":{"android":"levelo://app?vid=a1c673b9-d382-4991-92a9-e1a678e4009e","ios":"levelo://app?vid=a1c673b9-d382-4991-92a9-e1a678e4009e"},"vehicle_type_id":"4","last_reported":1685580749,"current_range_meters":27600,"station_id":"ce4bgg92rcd13ifvqb30","pricing_plan_id":"free"},{"bike_id":"5a756658-e15a-4b87-9577-e4a9cc70b615","system_id":"levelo_inurba_marseille","lat":43.305364,"lon":5.384119,"is_reserved":false,"is_disabled":false,"rental_uris":{"android":"levelo://app?vid=5a756658-e15a-4b87-9577-e4a9cc70b615","ios":"levelo://app?vid=5a756658-e15a-4b87-9577-e4a9cc70b615"},"vehicle_type_id":"4","last_reported":1685580749,"current_range_meters":30400,"station_id":"ce4bgg92rcd13ifvqb30","pricing_plan_id":"free"},{"bike_id":"cb72900c-588f-4849-af30-10512b2a861b","system_id":"levelo_inurba_marseille","lat":43.305364,"lon":5.384119,"is_reserved":false,"is_disabled":false,"rental_uris":{"android":"levelo://app?vid=cb72900c-588f-4849-af30-10512b2a861b","ios":"levelo://app?vid=cb72900c-588f-4849-af30-10512b2a861b"},"vehicle_type_id":"4","last_reported":1685580749,"current_range_meters":30800,"station_id":"ce4bgg92rcd13ifvqb30","pricing_plan_id":"free"},{"bike_id":"b57cca7d-5d95-4784-8bfd-05e65547db16","system_id":"levelo_inurba_marseille","lat":43.311722,"lon":5.387247,"is_reserved":false,"is_disabled":false,"rental_uris":{"android":"levelo://app?vid=b57cca7d-5d95-4784-8bfd-05e65547db16","ios":"levelo://app?vid=b57cca7d-5d95-4784-8bfd-05e65547db16"},"vehicle_type_id":"4","last_reported":1685580749,"current_range_meters":21200,"station_id":"ce4bgv12rcd13ifvqcp0","pricing_plan_id":"free"},{"bike_id":"70391df2-0953-4070-ae8f-f32d5ed59daf","system_id":"levelo_inurba_marseille","lat":43.311722,"lon":5.387247,"is_reserved":false,"is_disabled":false,"rental_uris":{"android":"levelo://app?vid=70391df2-0953-4070-ae8f-f32d5ed59daf","ios":"levelo://app?vid=70391df2-0953-4070-ae8f-f32d5ed59daf"},"vehicle_type_id":"4","last_reported":1685580749,"current_range_meters":21600,"station_id":"ce4bgv12rcd13ifvqcp0","pricing_plan_id":"free"},{"bike_id":"ef9b071a-ec22-4d73-ab72-a278da68b85d","system_id":"levelo_inurba_marseille","lat":43.311722,"lon":5.387247,"is_reserved":false,"is_disabled":false,"rental_uris":{"android":"levelo://app?vid=ef9b071a-ec22-4d73-ab72-a278da68b85d","ios":"levelo://app?vid=ef9b071a-ec22-4d73-ab72-a278da68b85d"},"vehicle_type_id":"4","last_reported":1685580749,"current_range_meters":31200,"station_id":"ce4bgv12rcd13ifvqcp0","pricing_plan_id":"free"},{"bike_id":"f5cee587-e2c8-4e9e-8281-75562f0b6345","system_id":"levelo_inurba_marseille","lat":43.311722,"lon":5.387247,"is_reserved":false,"is_disabled":false,"rental_uris":{"android":"levelo://app?vid=f5cee587-e2c8-4e9e-8281-75562f0b6345","ios":"levelo://app?vid=f5cee587-e2c8-4e9e-8281-75562f0b6345"},"vehicle_type_id":"4","last_reported":1685580749,"current_range_meters":20400,"station_id":"ce4bgv12rcd13ifvqcp0","pricing_plan_id":"free"},{"bike_id":"c9398189-8a0a-415d-885a-c97e415deb86","system_id":"levelo_inurba_marseille","lat":43.311722,"lon":5.387247,"is_reserved":false,"is_disabled":false,"rental_uris":{"android":"levelo://app?vid=c9398189-8a0a-415d-885a-c97e415deb86","ios":"levelo://app?vid=c9398189-8a0a-415d-885a-c97e415deb86"},"vehicle_type_id":"4","last_reported":1685580749,"current_range_meters":18000,"station_id":"ce4bgv12rcd13ifvqcp0","pricing_plan_id":"free"},{"bike_id":"b3570da4-e6db-4c5d-998a-426004f945f7","system_id":"levelo_inurba_marseille","lat":43.311722,"lon":5.387247,"is_reserved":false,"is_disabled":false,"rental_uris":{"android":"levelo://app?vid=b3570da4-e6db-4c5d-998a-426004f945f7","ios":"levelo://app?vid=b3570da4-e6db-4c5d-998a-426004f945f7"},"vehicle_type_id":"4","last_reported":1685580749,"current_range_meters":23600,"station_id":"ce4bgv12rcd13ifvqcp0","pricing_plan_id":"free"},{"bike_id":"e7cbb56d-c4ca-40f2-814b-e4acef311ab0","system_id":"levelo_inurba_marseille","lat":43.311722,"lon":5.387247,"is_reserved":false,"is_disabled":false,"rental_uris":{"android":"levelo://app?vid=e7cbb56d-c4ca-40f2-814b-e4acef311ab0","ios":"levelo://app?vid=e7cbb56d-c4ca-40f2-814b-e4acef311ab0"},"vehicle_type_id":"4","last_reported":1685580749,"current_range_meters":10000,"station_id":"ce4bgv12rcd13ifvqcp0","pricing_plan_id":"free"},{"bike_id":"e5eaccbe-89dc-4f2e-9cce-2dd8e6a89f25","system_id":"levelo_inurba_marseille","lat":43.311722,"lon":5.387247,"is_reserved":false,"is_disabled":false,"rental_uris":{"android":"levelo://app?vid=e5eaccbe-89dc-4f2e-9cce-2dd8e6a89f25","ios":"levelo://app?vid=e5eaccbe-89dc-4f2e-9cce-2dd8e6a89f25"},"vehicle_type_id":"4","last_reported":1685580749,"current_range_meters":31200,"station_id":"ce4bgv12rcd13ifvqcp0","pricing_plan_id":"free"},{"bike_id":"7c009b87-e835-4534-bfc0-40404c5c0199","system_id":"levelo_inurba_marseille","lat":43.32829,"lon":5.36691,"is_reserved":false,"is_disabled":false,"rental_uris":{"android":"levelo://app?vid=7c009b87-e835-4534-bfc0-40404c5c0199","ios":"levelo://app?vid=7c009b87-e835-4534-bfc0-40404c5c0199"},"vehicle_type_id":"4","last_reported":1685580749,"current_range_meters":18800,"station_id":"ce4bhs92rcd13ifvqi0g","pricing_plan_id":"free"},{"bike_id":"fd718ae2-bd99-428e-bbb7-a79d5a12d726","system_id":"levelo_inurba_marseille","lat":43.30183,"lon":5.38287,"is_reserved":false,"is_disabled":false,"rental_uris":{"android":"levelo://app?vid=fd718ae2-bd99-428e-bbb7-a79d5a12d726","ios":"levelo://app?vid=fd718ae2-bd99-428e-bbb7-a79d5a12d726"},"vehicle_type_id":"4","last_reported":1685580749,"current_range_meters":10800,"station_id":"","pricing_plan_id":"free"},{"bike_id":"8c831443-7c11-494f-bd59-cd62383b4d6b","system_id":"levelo_inurba_marseille","lat":43.29633,"lon":5.36857,"is_reserved":false,"is_disabled":false,"rental_uris":{"android":"levelo://app?vid=8c831443-7c11-494f-bd59-cd62383b4d6b","ios":"levelo://app?vid=8c831443-7c11-494f-bd59-cd62383b4d6b"},"vehicle_type_id":"4","last_reported":1685580749,"current_range_meters":25600,"station_id":"","pricing_plan_id":"free"},{"bike_id":"34345437-e016-4824-a450-f600709f5ad4","system_id":"levelo_inurba_marseille","lat":43.299028,"lon":5.381509,"is_reserved":false,"is_disabled":false,"rental_uris":{"android":"levelo://app?vid=34345437-e016-4824-a450-f600709f5ad4","ios":"levelo://app?vid=34345437-e016-4824-a450-f600709f5ad4"},"vehicle_type_id":"4","last_reported":1685580749,"current_range_meters":31200,"station_id":"ce4bgj12rcd13ifvqbc0","pricing_plan_id":"free"},{"bike_id":"75063b5b-6a72-4bac-bc81-d152a1a0000b","system_id":"levelo_inurba_marseille","lat":43.299028,"lon":5.381509,"is_reserved":false,"is_disabled":false,"rental_uris":{"android":"levelo://app?vid=75063b5b-6a72-4bac-bc81-d152a1a0000b","ios":"levelo://app?vid=75063b5b-6a72-4bac-bc81-d152a1a0000b"},"vehicle_type_id":"4","last_reported":1685580749,"current_range_meters":31200,"station_id":"ce4bgj12rcd13ifvqbc0","pricing_plan_id":"free"},{"bike_id":"7cbdcf50-b189-4aa9-845c-5839d97d2e5a","system_id":"levelo_inurba_marseille","lat":43.299028,"lon":5.381509,"is_reserved":false,"is_disabled":false,"rental_uris":{"android":"levelo://app?vid=7cbdcf50-b189-4aa9-845c-5839d97d2e5a","ios":"levelo://app?vid=7cbdcf50-b189-4aa9-845c-5839d97d2e5a"},"vehicle_type_id":"4","last_reported":1685580749,"current_range_meters":31200,"station_id":"ce4bgj12rcd13ifvqbc0","pricing_plan_id":"free"},{"bike_id":"ff79cac9-a0c2-47f5-bca3-f4edf658c89e","system_id":"levelo_inurba_marseille","lat":43.317557,"lon":5.390173,"is_reserved":false,"is_disabled":false,"rental_uris":{"android":"levelo://app?vid=ff79cac9-a0c2-47f5-bca3-f4edf658c89e","ios":"levelo://app?vid=ff79cac9-a0c2-47f5-bca3-f4edf658c89e"},"vehicle_type_id":"4","last_reported":1685580749,"current_range_meters":800,"station_id":"ce4bhqp2rcd13ifvqhng","pricing_plan_id":"free"},{"bike_id":"f770f405-5f96-48f1-a8f7-d86863a7c3e8","system_id":"levelo_inurba_marseille","lat":43.31761,"lon":5.39017,"is_reserved":false,"is_disabled":false,"rental_uris":{"android":"levelo://app?vid=f770f405-5f96-48f1-a8f7-d86863a7c3e8","ios":"levelo://app?vid=f770f405-5f96-48f1-a8f7-d86863a7c3e8"},"vehicle_type_id":"4","last_reported":1685580749,"current_range_meters":0,"station_id":"ce4bhqp2rcd13ifvqhng","pricing_plan_id":"free"},{"bike_id":"36ae8566-3707-41ea-8f0f-31c724853eee","system_id":"levelo_inurba_marseille","lat":43.31756,"lon":5.3902,"is_reserved":false,"is_disabled":false,"rental_uris":{"android":"levelo://app?vid=36ae8566-3707-41ea-8f0f-31c724853eee","ios":"levelo://app?vid=36ae8566-3707-41ea-8f0f-31c724853eee"},"vehicle_type_id":"4","last_reported":1685580749,"current_range_meters":18400,"station_id":"ce4bhqp2rcd13ifvqhng","pricing_plan_id":"free"},{"bike_id":"4b267e26-2f55-4cdc-9bd9-970d121ad656","system_id":"levelo_inurba_marseille","lat":43.31759,"lon":5.39021,"is_reserved":false,"is_disabled":false,"rental_uris":{"android":"levelo://app?vid=4b267e26-2f55-4cdc-9bd9-970d121ad656","ios":"levelo://app?vid=4b267e26-2f55-4cdc-9bd9-970d121ad656"},"vehicle_type_id":"4","last_reported":1685580749,"current_range_meters":2000,"station_id":"ce4bhqp2rcd13ifvqhng","pricing_plan_id":"free"},{"bike_id":"a608eb4a-1121-492f-8445-08c05e0a3f81","system_id":"levelo_inurba_marseille","lat":43.29504,"lon":5.3633,"is_reserved":false,"is_disabled":false,"rental_uris":{"android":"levelo://app?vid=a608eb4a-1121-492f-8445-08c05e0a3f81","ios":"levelo://app?vid=a608eb4a-1121-492f-8445-08c05e0a3f81"},"vehicle_type_id":"4","last_reported":1685580749,"current_range_meters":10400,"station_id":"","pricing_plan_id":"free"},{"bike_id":"99c92a2d-a8c4-4537-b896-1d14aec1a31d","system_id":"levelo_inurba_marseille","lat":43.304274,"lon":5.388873,"is_reserved":false,"is_disabled":false,"rental_uris":{"android":"levelo://app?vid=99c92a2d-a8c4-4537-b896-1d14aec1a31d","ios":"levelo://app?vid=99c92a2d-a8c4-4537-b896-1d14aec1a31d"},"vehicle_type_id":"4","last_reported":1685580749,"current_range_meters":0,"station_id":"ce4bgk12rcd13ifvqbi0","pricing_plan_id":"free"},{"bike_id":"30528db0-9ff4-4b43-9aa0-7279f53330fa","system_id":"levelo_inurba_marseille","lat":43.304274,"lon":5.388873,"is_reserved":false,"is_disabled":false,"rental_uris":{"android":"levelo://app?vid=30528db0-9ff4-4b43-9aa0-7279f53330fa","ios":"levelo://app?vid=30528db0-9ff4-4b43-9aa0-7279f53330fa"},"vehicle_type_id":"4","last_reported":1685580749,"current_range_meters":0,"station_id":"ce4bgk12rcd13ifvqbi0","pricing_plan_id":"free"},{"bike_id":"8fbb2a7a-5491-428f-beac-4dcfc90876c9","system_id":"levelo_inurba_marseille","lat":43.311722,"lon":5.387247,"is_reserved":false,"is_disabled":false,"rental_uris":{"android":"levelo://app?vid=8fbb2a7a-5491-428f-beac-4dcfc90876c9","ios":"levelo://app?vid=8fbb2a7a-5491-428f-beac-4dcfc90876c9"},"vehicle_type_id":"4","last_reported":1685580749,"current_range_meters":5200,"station_id":"ce4bgv12rcd13ifvqcp0","pricing_plan_id":"free"},{"bike_id":"16209ad7-f1bb-4dc9-90e2-f941f70c6718","system_id":"levelo_inurba_marseille","lat":43.31422,"lon":5.39316,"is_reserved":false,"is_disabled":false,"rental_uris":{"android":"levelo://app?vid=16209ad7-f1bb-4dc9-90e2-f941f70c6718","ios":"levelo://app?vid=16209ad7-f1bb-4dc9-90e2-f941f70c6718"},"vehicle_type_id":"4","last_reported":1685580749,"current_range_meters":0,"station_id":"","pricing_plan_id":"free"},{"bike_id":"5c1ae803-bb83-4405-b753-5d2604b52519","system_id":"levelo_inurba_marseille","lat":43.305059,"lon":5.391047,"is_reserved":false,"is_disabled":false,"rental_uris":{"android":"levelo://app?vid=5c1ae803-bb83-4405-b753-5d2604b52519","ios":"levelo://app?vid=5c1ae803-bb83-4405-b753-5d2604b52519"},"vehicle_type_id":"4","last_reported":1685580749,"current_range_meters":6400,"station_id":"","pricing_plan_id":"free"},{"bike_id":"72e6ca87-497f-4a38-88ed-807251067b7b","system_id":"levelo_inurba_marseille","lat":43.32367,"lon":5.388836,"is_reserved":false,"is_disabled":false,"rental_uris":{"android":"levelo://app?vid=72e6ca87-497f-4a38-88ed-807251067b7b","ios":"levelo://app?vid=72e6ca87-497f-4a38-88ed-807251067b7b"},"vehicle_type_id":"4","last_reported":1685580749,"current_range_meters":19200,"station_id":"ce4bhqp2rcd13ifvqhog","pricing_plan_id":"free"},{"bike_id":"fc2d505d-ec8a-4ee8-be56-159f01226b32","system_id":"levelo_inurba_marseille","lat":43.32367,"lon":5.388836,"is_reserved":false,"is_disabled":false,"rental_uris":{"android":"levelo://app?vid=fc2d505d-ec8a-4ee8-be56-159f01226b32","ios":"levelo://app?vid=fc2d505d-ec8a-4ee8-be56-159f01226b32"},"vehicle_type_id":"4","last_reported":1685580749,"current_range_meters":10800,"station_id":"ce4bhqp2rcd13ifvqhog","pricing_plan_id":"free"},{"bike_id":"44437fa6-a312-44d3-bb14-1b6ba0aa8ca4","system_id":"levelo_inurba_marseille","lat":43.32367,"lon":5.388836,"is_reserved":false,"is_disabled":false,"rental_uris":{"android":"levelo://app?vid=44437fa6-a312-44d3-bb14-1b6ba0aa8ca4","ios":"levelo://app?vid=44437fa6-a312-44d3-bb14-1b6ba0aa8ca4"},"vehicle_type_id":"4","last_reported":1685580749,"current_range_meters":11200,"station_id":"ce4bhqp2rcd13ifvqhog","pricing_plan_id":"free"},{"bike_id":"f823caa4-8853-45ce-8a51-a76fb6658442","system_id":"levelo_inurba_marseille","lat":43.32367,"lon":5.388836,"is_reserved":false,"is_disabled":false,"rental_uris":{"android":"levelo://app?vid=f823caa4-8853-45ce-8a51-a76fb6658442","ios":"levelo://app?vid=f823caa4-8853-45ce-8a51-a76fb6658442"},"vehicle_type_id":"4","last_reported":1685580749,"current_range_meters":4400,"station_id":"ce4bhqp2rcd13ifvqhog","pricing_plan_id":"free"},{"bike_id":"e7b5c29b-8a9f-4e14-b026-09394ecb58f0","system_id":"levelo_inurba_marseille","lat":43.32367,"lon":5.388836,"is_reserved":false,"is_disabled":false,"rental_uris":{"android":"levelo://app?vid=e7b5c29b-8a9f-4e14-b026-09394ecb58f0","ios":"levelo://app?vid=e7b5c29b-8a9f-4e14-b026-09394ecb58f0"},"vehicle_type_id":"4","last_reported":1685580749,"current_range_meters":10400,"station_id":"ce4bhqp2rcd13ifvqhog","pricing_plan_id":"free"},{"bike_id":"bd3d7178-6daa-4b22-b9a0-679e8b7fd598","system_id":"levelo_inurba_marseille","lat":43.32367,"lon":5.388836,"is_reserved":false,"is_disabled":false,"rental_uris":{"android":"levelo://app?vid=bd3d7178-6daa-4b22-b9a0-679e8b7fd598","ios":"levelo://app?vid=bd3d7178-6daa-4b22-b9a0-679e8b7fd598"},"vehicle_type_id":"4","last_reported":1685580749,"current_range_meters":18000,"station_id":"ce4bhqp2rcd13ifvqhog","pricing_plan_id":"free"},{"bike_id":"aa27ea23-1a5b-4b89-94c0-8bcd95e16977","system_id":"levelo_inurba_marseille","lat":43.32367,"lon":5.388836,"is_reserved":false,"is_disabled":false,"rental_uris":{"android":"levelo://app?vid=aa27ea23-1a5b-4b89-94c0-8bcd95e16977","ios":"levelo://app?vid=aa27ea23-1a5b-4b89-94c0-8bcd95e16977"},"vehicle_type_id":"4","last_reported":1685580749,"current_range_meters":8800,"station_id":"ce4bhqp2rcd13ifvqhog","pricing_plan_id":"free"},{"bike_id":"8a8eb0b7-fc16-44b6-96e6-eb923e795629","system_id":"levelo_inurba_marseille","lat":43.32367,"lon":5.38885,"is_reserved":false,"is_disabled":false,"rental_uris":{"android":"levelo://app?vid=8a8eb0b7-fc16-44b6-96e6-eb923e795629","ios":"levelo://app?vid=8a8eb0b7-fc16-44b6-96e6-eb923e795629"},"vehicle_type_id":"4","last_reported":1685580749,"current_range_meters":2800,"station_id":"ce4bhqp2rcd13ifvqhog","pricing_plan_id":"free"},{"bike_id":"e6567bf7-8ac9-4101-8bda-38fb5ea7b1b6","system_id":"levelo_inurba_marseille","lat":43.32367,"lon":5.388836,"is_reserved":false,"is_disabled":false,"rental_uris":{"android":"levelo://app?vid=e6567bf7-8ac9-4101-8bda-38fb5ea7b1b6","ios":"levelo://app?vid=e6567bf7-8ac9-4101-8bda-38fb5ea7b1b6"},"vehicle_type_id":"4","last_reported":1685580749,"current_range_meters":20800,"station_id":"ce4bhqp2rcd13ifvqhog","pricing_plan_id":"free"},{"bike_id":"7bd282ed-14c0-4573-8503-f47466baca13","system_id":"levelo_inurba_marseille","lat":43.29393,"lon":5.37423,"is_reserved":false,"is_disabled":false,"rental_uris":{"android":"levelo://app?vid=7bd282ed-14c0-4573-8503-f47466baca13","ios":"levelo://app?vid=7bd282ed-14c0-4573-8503-f47466baca13"},"vehicle_type_id":"4","last_reported":1685580749,"current_range_meters":31200,"station_id":"","pricing_plan_id":"free"},{"bike_id":"a7fea4a0-8aba-44ea-9b42-a2e533cff432","system_id":"levelo_inurba_marseille","lat":43.305994,"lon":5.393687,"is_reserved":false,"is_disabled":false,"rental_uris":{"android":"levelo://app?vid=a7fea4a0-8aba-44ea-9b42-a2e533cff432","ios":"levelo://app?vid=a7fea4a0-8aba-44ea-9b42-a2e533cff432"},"vehicle_type_id":"4","last_reported":1685580749,"current_range_meters":31200,"station_id":"ce4bh0p2rcd13ifvqd80","pricing_plan_id":"free"},{"bike_id":"98061e82-600d-48ce-8a93-c5885b9446cd","system_id":"levelo_inurba_marseille","lat":43.305994,"lon":5.393687,"is_reserved":false,"is_disabled":false,"rental_uris":{"android":"levelo://app?vid=98061e82-600d-48ce-8a93-c5885b9446cd","ios":"levelo://app?vid=98061e82-600d-48ce-8a93-c5885b9446cd"},"vehicle_type_id":"4","last_reported":1685580749,"current_range_meters":10800,"station_id":"ce4bh0p2rcd13ifvqd80","pricing_plan_id":"free"},{"bike_id":"b001ea58-bb63-419d-a01b-21eefcff486c","system_id":"levelo_inurba_marseille","lat":43.302992,"lon":5.392136,"is_reserved":false,"is_disabled":false,"rental_uris":{"android":"levelo://app?vid=b001ea58-bb63-419d-a01b-21eefcff486c","ios":"levelo://app?vid=b001ea58-bb63-419d-a01b-21eefcff486c"},"vehicle_type_id":"4","last_reported":1685580749,"current_range_meters":0,"station_id":"ce4bgkh2rcd13ifvqbk0","pricing_plan_id":"free"},{"bike_id":"23f0f68f-0901-442b-abfa-adc27c543e84","system_id":"levelo_inurba_marseille","lat":43.30104,"lon":5.39077,"is_reserved":false,"is_disabled":false,"rental_uris":{"android":"levelo://app?vid=23f0f68f-0901-442b-abfa-adc27c543e84","ios":"levelo://app?vid=23f0f68f-0901-442b-abfa-adc27c543e84"},"vehicle_type_id":"4","last_reported":1685580749,"current_range_meters":22000,"station_id":"ce4bh192rcd13ifvqdb0","pricing_plan_id":"free"},{"bike_id":"7aaff438-448c-45b5-9ba2-c74e759490c7","system_id":"levelo_inurba_marseille","lat":43.300852,"lon":5.390859,"is_reserved":false,"is_disabled":false,"rental_uris":{"android":"levelo://app?vid=7aaff438-448c-45b5-9ba2-c74e759490c7","ios":"levelo://app?vid=7aaff438-448c-45b5-9ba2-c74e759490c7"},"vehicle_type_id":"4","last_reported":1685580749,"current_range_meters":9200,"station_id":"ce4bh192rcd13ifvqdb0","pricing_plan_id":"free"},{"bike_id":"4a1d7ff1-fac9-4d51-9952-f73f59eaa207","system_id":"levelo_inurba_marseille","lat":43.298764,"lon":5.388973,"is_reserved":false,"is_disabled":false,"rental_uris":{"android":"levelo://app?vid=4a1d7ff1-fac9-4d51-9952-f73f59eaa207","ios":"levelo://app?vid=4a1d7ff1-fac9-4d51-9952-f73f59eaa207"},"vehicle_type_id":"4","last_reported":1685580749,"current_range_meters":25200,"station_id":"ce4bh392rcd13ifvqdl0","pricing_plan_id":"free"},{"bike_id":"d7a39ad4-b024-42ee-b071-56489df0d5a1","system_id":"levelo_inurba_marseille","lat":43.33228,"lon":5.37859,"is_reserved":false,"is_disabled":false,"rental_uris":{"android":"levelo://app?vid=d7a39ad4-b024-42ee-b071-56489df0d5a1","ios":"levelo://app?vid=d7a39ad4-b024-42ee-b071-56489df0d5a1"},"vehicle_type_id":"4","last_reported":1685580749,"current_range_meters":0,"station_id":"","pricing_plan_id":"free"},{"bike_id":"0df635b8-8310-4a9c-ae00-a5892cdf0f39","system_id":"levelo_inurba_marseille","lat":43.309038,"lon":5.396546,"is_reserved":false,"is_disabled":false,"rental_uris":{"android":"levelo://app?vid=0df635b8-8310-4a9c-ae00-a5892cdf0f39","ios":"levelo://app?vid=0df635b8-8310-4a9c-ae00-a5892cdf0f39"},"vehicle_type_id":"4","last_reported":1685580749,"current_range_meters":9200,"station_id":"ce4bh012rcd13ifvqcv0","pricing_plan_id":"free"},{"bike_id":"48bf913a-1ea2-4658-bb85-9ae89d5f37b5","system_id":"levelo_inurba_marseille","lat":43.309038,"lon":5.396546,"is_reserved":false,"is_disabled":false,"rental_uris":{"android":"levelo://app?vid=48bf913a-1ea2-4658-bb85-9ae89d5f37b5","ios":"levelo://app?vid=48bf913a-1ea2-4658-bb85-9ae89d5f37b5"},"vehicle_type_id":"4","last_reported":1685580749,"current_range_meters":13200,"station_id":"ce4bh012rcd13ifvqcv0","pricing_plan_id":"free"},{"bike_id":"d2f774ae-fc60-41e7-825a-1ea807f96c7c","system_id":"levelo_inurba_marseille","lat":43.30886,"lon":5.3964,"is_reserved":false,"is_disabled":false,"rental_uris":{"android":"levelo://app?vid=d2f774ae-fc60-41e7-825a-1ea807f96c7c","ios":"levelo://app?vid=d2f774ae-fc60-41e7-825a-1ea807f96c7c"},"vehicle_type_id":"4","last_reported":1685580749,"current_range_meters":0,"station_id":"ce4bh012rcd13ifvqcv0","pricing_plan_id":"free"},{"bike_id":"e8bd221c-0364-463b-b9fb-acb41a81effe","system_id":"levelo_inurba_marseille","lat":43.313291,"lon":5.396838,"is_reserved":false,"is_disabled":false,"rental_uris":{"android":"levelo://app?vid=e8bd221c-0364-463b-b9fb-acb41a81effe","ios":"levelo://app?vid=e8bd221c-0364-463b-b9fb-acb41a81effe"},"vehicle_type_id":"4","last_reported":1685580749,"current_range_meters":1600,"station_id":"ce4bgvp2rcd13ifvqcu0","pricing_plan_id":"free"},{"bike_id":"84125dcd-4e7d-4d8c-bd73-b8aecc39155a","system_id":"levelo_inurba_marseille","lat":43.313291,"lon":5.396838,"is_reserved":false,"is_disabled":false,"rental_uris":{"android":"levelo://app?vid=84125dcd-4e7d-4d8c-bd73-b8aecc39155a","ios":"levelo://app?vid=84125dcd-4e7d-4d8c-bd73-b8aecc39155a"},"vehicle_type_id":"4","last_reported":1685580749,"current_range_meters":21200,"station_id":"ce4bgvp2rcd13ifvqcu0","pricing_plan_id":"free"},{"bike_id":"18103b15-d8ff-4e9d-ad8b-f3543a0d39be","system_id":"levelo_inurba_marseille","lat":43.313291,"lon":5.396838,"is_reserved":false,"is_disabled":false,"rental_uris":{"android":"levelo://app?vid=18103b15-d8ff-4e9d-ad8b-f3543a0d39be","ios":"levelo://app?vid=18103b15-d8ff-4e9d-ad8b-f3543a0d39be"},"vehicle_type_id":"4","last_reported":1685580749,"current_range_meters":3200,"station_id":"ce4bgvp2rcd13ifvqcu0","pricing_plan_id":"free"},{"bike_id":"f0457bcb-36e6-4526-946b-029b3f3d2ed3","system_id":"levelo_inurba_marseille","lat":43.309038,"lon":5.396546,"is_reserved":false,"is_disabled":false,"rental_uris":{"android":"levelo://app?vid=f0457bcb-36e6-4526-946b-029b3f3d2ed3","ios":"levelo://app?vid=f0457bcb-36e6-4526-946b-029b3f3d2ed3"},"vehicle_type_id":"4","last_reported":1685580749,"current_range_meters":29200,"station_id":"ce4bh012rcd13ifvqcv0","pricing_plan_id":"free"},{"bike_id":"5b1155f9-9f98-4f89-bdcf-34ff32bf4ddb","system_id":"levelo_inurba_marseille","lat":43.31927,"lon":5.39565,"is_reserved":false,"is_disabled":false,"rental_uris":{"android":"levelo://app?vid=5b1155f9-9f98-4f89-bdcf-34ff32bf4ddb","ios":"levelo://app?vid=5b1155f9-9f98-4f89-bdcf-34ff32bf4ddb"},"vehicle_type_id":"4","last_reported":1685580749,"current_range_meters":10000,"station_id":"","pricing_plan_id":"free"},{"bike_id":"8563ecf3-c8ff-47be-8304-0b1d0b8c1360","system_id":"levelo_inurba_marseille","lat":43.309038,"lon":5.396546,"is_reserved":false,"is_disabled":false,"rental_uris":{"android":"levelo://app?vid=8563ecf3-c8ff-47be-8304-0b1d0b8c1360","ios":"levelo://app?vid=8563ecf3-c8ff-47be-8304-0b1d0b8c1360"},"vehicle_type_id":"4","last_reported":1685580749,"current_range_meters":0,"station_id":"ce4bh012rcd13ifvqcv0","pricing_plan_id":"free"},{"bike_id":"3abac0f5-0398-4e9d-8e59-32b492feba6c","system_id":"levelo_inurba_marseille","lat":43.313291,"lon":5.396838,"is_reserved":false,"is_disabled":false,"rental_uris":{"android":"levelo://app?vid=3abac0f5-0398-4e9d-8e59-32b492feba6c","ios":"levelo://app?vid=3abac0f5-0398-4e9d-8e59-32b492feba6c"},"vehicle_type_id":"4","last_reported":1685580749,"current_range_meters":20000,"station_id":"ce4bgvp2rcd13ifvqcu0","pricing_plan_id":"free"},{"bike_id":"12c7115b-09c7-4479-98bd-dce30439e768","system_id":"levelo_inurba_marseille","lat":43.290624,"lon":5.359245,"is_reserved":false,"is_disabled":false,"rental_uris":{"android":"levelo://app?vid=12c7115b-09c7-4479-98bd-dce30439e768","ios":"levelo://app?vid=12c7115b-09c7-4479-98bd-dce30439e768"},"vehicle_type_id":"4","last_reported":1685580749,"current_range_meters":28800,"station_id":"ce4bha92rcd13ifvqeg0","pricing_plan_id":"free"},{"bike_id":"a9413dfd-0c9a-492d-bbd5-bc3ccace5ca7","system_id":"levelo_inurba_marseille","lat":43.290631,"lon":5.359244,"is_reserved":false,"is_disabled":false,"rental_uris":{"android":"levelo://app?vid=a9413dfd-0c9a-492d-bbd5-bc3ccace5ca7","ios":"levelo://app?vid=a9413dfd-0c9a-492d-bbd5-bc3ccace5ca7"},"vehicle_type_id":"4","last_reported":1685580749,"current_range_meters":22800,"station_id":"ce4bha92rcd13ifvqeg0","pricing_plan_id":"free"},{"bike_id":"49cbffed-f45c-405f-8581-3de79e7fe2a2","system_id":"levelo_inurba_marseille","lat":43.2894,"lon":5.36631,"is_reserved":false,"is_disabled":false,"rental_uris":{"android":"levelo://app?vid=49cbffed-f45c-405f-8581-3de79e7fe2a2","ios":"levelo://app?vid=49cbffed-f45c-405f-8581-3de79e7fe2a2"},"vehicle_type_id":"4","last_reported":1685580749,"current_range_meters":31200,"station_id":"ce4bhap2rcd13ifvqek0","pricing_plan_id":"free"},{"bike_id":"5097489b-c941-48a4-bfd5-d80a38eb4f28","system_id":"levelo_inurba_marseille","lat":43.28936,"lon":5.36642,"is_reserved":false,"is_disabled":false,"rental_uris":{"android":"levelo://app?vid=5097489b-c941-48a4-bfd5-d80a38eb4f28","ios":"levelo://app?vid=5097489b-c941-48a4-bfd5-d80a38eb4f28"},"vehicle_type_id":"4","last_reported":1685580749,"current_range_meters":31200,"station_id":"ce4bhap2rcd13ifvqek0","pricing_plan_id":"free"},{"bike_id":"4cffe551-31a4-41be-903e-5624bc0ad10b","system_id":"levelo_inurba_marseille","lat":43.28936,"lon":5.36625,"is_reserved":false,"is_disabled":false,"rental_uris":{"android":"levelo://app?vid=4cffe551-31a4-41be-903e-5624bc0ad10b","ios":"levelo://app?vid=4cffe551-31a4-41be-903e-5624bc0ad10b"},"vehicle_type_id":"4","last_reported":1685580749,"current_range_meters":14400,"station_id":"ce4bhap2rcd13ifvqek0","pricing_plan_id":"free"},{"bike_id":"772473ec-3d2c-4253-844b-c77be1da3150","system_id":"levelo_inurba_marseille","lat":43.28935,"lon":5.36632,"is_reserved":false,"is_disabled":false,"rental_uris":{"android":"levelo://app?vid=772473ec-3d2c-4253-844b-c77be1da3150","ios":"levelo://app?vid=772473ec-3d2c-4253-844b-c77be1da3150"},"vehicle_type_id":"4","last_reported":1685580749,"current_range_meters":26400,"station_id":"ce4bhap2rcd13ifvqek0","pricing_plan_id":"free"},{"bike_id":"a33bd27d-9dad-4052-8b7e-2ca9018c3205","system_id":"levelo_inurba_marseille","lat":43.28934,"lon":5.36634,"is_reserved":false,"is_disabled":false,"rental_uris":{"android":"levelo://app?vid=a33bd27d-9dad-4052-8b7e-2ca9018c3205","ios":"levelo://app?vid=a33bd27d-9dad-4052-8b7e-2ca9018c3205"},"vehicle_type_id":"4","last_reported":1685580749,"current_range_meters":18800,"station_id":"ce4bhap2rcd13ifvqek0","pricing_plan_id":"free"},{"bike_id":"e4dc9e53-7503-4a4c-8c43-f49a00c79ada","system_id":"levelo_inurba_marseille","lat":43.329862,"lon":5.389192,"is_reserved":false,"is_disabled":false,"rental_uris":{"android":"levelo://app?vid=e4dc9e53-7503-4a4c-8c43-f49a00c79ada","ios":"levelo://app?vid=e4dc9e53-7503-4a4c-8c43-f49a00c79ada"},"vehicle_type_id":"4","last_reported":1685580749,"current_range_meters":13600,"station_id":"","pricing_plan_id":"free"},{"bike_id":"3b834d5d-2b42-4b82-b3f6-ab6bb1bca885","system_id":"levelo_inurba_marseille","lat":43.304274,"lon":5.397513,"is_reserved":false,"is_disabled":false,"rental_uris":{"android":"levelo://app?vid=3b834d5d-2b42-4b82-b3f6-ab6bb1bca885","ios":"levelo://app?vid=3b834d5d-2b42-4b82-b3f6-ab6bb1bca885"},"vehicle_type_id":"4","last_reported":1685580749,"current_range_meters":13600,"station_id":"ce4bh092rcd13ifvqd20","pricing_plan_id":"free"},{"bike_id":"df8f30bd-1ec4-4270-9826-5b8f932d8979","system_id":"levelo_inurba_marseille","lat":43.292598,"lon":5.384437,"is_reserved":false,"is_disabled":false,"rental_uris":{"android":"levelo://app?vid=df8f30bd-1ec4-4270-9826-5b8f932d8979","ios":"levelo://app?vid=df8f30bd-1ec4-4270-9826-5b8f932d8979"},"vehicle_type_id":"4","last_reported":1685580749,"current_range_meters":30400,"station_id":"","pricing_plan_id":"free"},{"bike_id":"a325b6a0-8349-4394-9ba8-6704e14739d5","system_id":"levelo_inurba_marseille","lat":43.304274,"lon":5.397513,"is_reserved":false,"is_disabled":false,"rental_uris":{"android":"levelo://app?vid=a325b6a0-8349-4394-9ba8-6704e14739d5","ios":"levelo://app?vid=a325b6a0-8349-4394-9ba8-6704e14739d5"},"vehicle_type_id":"4","last_reported":1685580749,"current_range_meters":5600,"station_id":"ce4bh092rcd13ifvqd20","pricing_plan_id":"free"},{"bike_id":"943f1edd-0699-4c59-91bd-be015231347e","system_id":"levelo_inurba_marseille","lat":43.33043,"lon":5.38916,"is_reserved":false,"is_disabled":false,"rental_uris":{"android":"levelo://app?vid=943f1edd-0699-4c59-91bd-be015231347e","ios":"levelo://app?vid=943f1edd-0699-4c59-91bd-be015231347e"},"vehicle_type_id":"4","last_reported":1685580749,"current_range_meters":0,"station_id":"ce4bhr92rcd13ifvqhrg","pricing_plan_id":"free"},{"bike_id":"a97597ab-b3ef-458f-8f98-96fbd0b7add5","system_id":"levelo_inurba_marseille","lat":43.33045,"lon":5.38917,"is_reserved":false,"is_disabled":false,"rental_uris":{"android":"levelo://app?vid=a97597ab-b3ef-458f-8f98-96fbd0b7add5","ios":"levelo://app?vid=a97597ab-b3ef-458f-8f98-96fbd0b7add5"},"vehicle_type_id":"4","last_reported":1685580749,"current_range_meters":23600,"station_id":"ce4bhr92rcd13ifvqhrg","pricing_plan_id":"free"},{"bike_id":"e61e4c95-8a63-47af-8142-7de9fbfc5a6e","system_id":"levelo_inurba_marseille","lat":43.33048,"lon":5.38916,"is_reserved":false,"is_disabled":false,"rental_uris":{"android":"levelo://app?vid=e61e4c95-8a63-47af-8142-7de9fbfc5a6e","ios":"levelo://app?vid=e61e4c95-8a63-47af-8142-7de9fbfc5a6e"},"vehicle_type_id":"4","last_reported":1685580749,"current_range_meters":5200,"station_id":"ce4bhr92rcd13ifvqhrg","pricing_plan_id":"free"},{"bike_id":"8da7bbf6-b999-4b8f-8628-f7bfa76d9363","system_id":"levelo_inurba_marseille","lat":43.3305,"lon":5.38915,"is_reserved":false,"is_disabled":false,"rental_uris":{"android":"levelo://app?vid=8da7bbf6-b999-4b8f-8628-f7bfa76d9363","ios":"levelo://app?vid=8da7bbf6-b999-4b8f-8628-f7bfa76d9363"},"vehicle_type_id":"4","last_reported":1685580749,"current_range_meters":22000,"station_id":"ce4bhr92rcd13ifvqhrg","pricing_plan_id":"free"},{"bike_id":"7de5a4ec-a735-4171-9aad-0948d0f65512","system_id":"levelo_inurba_marseille","lat":43.290104,"lon":5.356111,"is_reserved":false,"is_disabled":false,"rental_uris":{"android":"levelo://app?vid=7de5a4ec-a735-4171-9aad-0948d0f65512","ios":"levelo://app?vid=7de5a4ec-a735-4171-9aad-0948d0f65512"},"vehicle_type_id":"4","last_reported":1685580749,"current_range_meters":28400,"station_id":"ce4bhb92rcd13ifvqen0","pricing_plan_id":"free"},{"bike_id":"2080181f-b51e-4b97-8b54-d0c1dab956f5","system_id":"levelo_inurba_marseille","lat":43.297814,"lon":5.393513,"is_reserved":false,"is_disabled":false,"rental_uris":{"android":"levelo://app?vid=2080181f-b51e-4b97-8b54-d0c1dab956f5","ios":"levelo://app?vid=2080181f-b51e-4b97-8b54-d0c1dab956f5"},"vehicle_type_id":"4","last_reported":1685580749,"current_range_meters":0,"station_id":"chh1huq6cuj3fo74tm60","pricing_plan_id":"free"},{"bike_id":"ac0c6644-b120-4206-9341-31259c2779c4","system_id":"levelo_inurba_marseille","lat":43.295169,"lon":5.390426,"is_reserved":false,"is_disabled":false,"rental_uris":{"android":"levelo://app?vid=ac0c6644-b120-4206-9341-31259c2779c4","ios":"levelo://app?vid=ac0c6644-b120-4206-9341-31259c2779c4"},"vehicle_type_id":"4","last_reported":1685580749,"current_range_meters":7600,"station_id":"ce4bh3p2rcd13ifvqdp0","pricing_plan_id":"free"},{"bike_id":"e386094f-08f0-425f-86ce-15033fc7e41e","system_id":"levelo_inurba_marseille","lat":43.29173,"lon":5.38484,"is_reserved":false,"is_disabled":false,"rental_uris":{"android":"levelo://app?vid=e386094f-08f0-425f-86ce-15033fc7e41e","ios":"levelo://app?vid=e386094f-08f0-425f-86ce-15033fc7e41e"},"vehicle_type_id":"4","last_reported":1685580749,"current_range_meters":8800,"station_id":"","pricing_plan_id":"free"},{"bike_id":"989956c3-27d7-4d91-9eff-78532faa1aa8","system_id":"levelo_inurba_marseille","lat":43.28856,"lon":5.358371,"is_reserved":false,"is_disabled":false,"rental_uris":{"android":"levelo://app?vid=989956c3-27d7-4d91-9eff-78532faa1aa8","ios":"levelo://app?vid=989956c3-27d7-4d91-9eff-78532faa1aa8"},"vehicle_type_id":"4","last_reported":1685580749,"current_range_meters":31200,"station_id":"ce4bhb12rcd13ifvqem0","pricing_plan_id":"free"},{"bike_id":"4b4b5e29-68e8-4588-802b-a957500b04c1","system_id":"levelo_inurba_marseille","lat":43.28856,"lon":5.358371,"is_reserved":false,"is_disabled":false,"rental_uris":{"android":"levelo://app?vid=4b4b5e29-68e8-4588-802b-a957500b04c1","ios":"levelo://app?vid=4b4b5e29-68e8-4588-802b-a957500b04c1"},"vehicle_type_id":"4","last_reported":1685580749,"current_range_meters":25600,"station_id":"ce4bhb12rcd13ifvqem0","pricing_plan_id":"free"},{"bike_id":"72c9e9eb-fa2b-4eee-a2aa-0e71060d451d","system_id":"levelo_inurba_marseille","lat":43.28856,"lon":5.358371,"is_reserved":false,"is_disabled":false,"rental_uris":{"android":"levelo://app?vid=72c9e9eb-fa2b-4eee-a2aa-0e71060d451d","ios":"levelo://app?vid=72c9e9eb-fa2b-4eee-a2aa-0e71060d451d"},"vehicle_type_id":"4","last_reported":1685580749,"current_range_meters":24800,"station_id":"ce4bhb12rcd13ifvqem0","pricing_plan_id":"free"},{"bike_id":"7a61d8c9-14c9-4711-80a6-b3c8aceea5a4","system_id":"levelo_inurba_marseille","lat":43.28856,"lon":5.358371,"is_reserved":false,"is_disabled":false,"rental_uris":{"android":"levelo://app?vid=7a61d8c9-14c9-4711-80a6-b3c8aceea5a4","ios":"levelo://app?vid=7a61d8c9-14c9-4711-80a6-b3c8aceea5a4"},"vehicle_type_id":"4","last_reported":1685580749,"current_range_meters":28800,"station_id":"ce4bhb12rcd13ifvqem0","pricing_plan_id":"free"},{"bike_id":"7dafd386-4d7d-4543-a960-5612352088a8","system_id":"levelo_inurba_marseille","lat":43.28856,"lon":5.358371,"is_reserved":false,"is_disabled":false,"rental_uris":{"android":"levelo://app?vid=7dafd386-4d7d-4543-a960-5612352088a8","ios":"levelo://app?vid=7dafd386-4d7d-4543-a960-5612352088a8"},"vehicle_type_id":"4","last_reported":1685580749,"current_range_meters":8000,"station_id":"ce4bhb12rcd13ifvqem0","pricing_plan_id":"free"},{"bike_id":"bcb07921-82f5-482d-8560-65a09f11cc05","system_id":"levelo_inurba_marseille","lat":43.28856,"lon":5.358371,"is_reserved":false,"is_disabled":false,"rental_uris":{"android":"levelo://app?vid=bcb07921-82f5-482d-8560-65a09f11cc05","ios":"levelo://app?vid=bcb07921-82f5-482d-8560-65a09f11cc05"},"vehicle_type_id":"4","last_reported":1685580749,"current_range_meters":21600,"station_id":"ce4bhb12rcd13ifvqem0","pricing_plan_id":"free"},{"bike_id":"31508662-c8fd-4d7e-9517-4745e75173b6","system_id":"levelo_inurba_marseille","lat":43.28841,"lon":5.35848,"is_reserved":false,"is_disabled":false,"rental_uris":{"android":"levelo://app?vid=31508662-c8fd-4d7e-9517-4745e75173b6","ios":"levelo://app?vid=31508662-c8fd-4d7e-9517-4745e75173b6"},"vehicle_type_id":"4","last_reported":1685580749,"current_range_meters":1200,"station_id":"ce4bhb12rcd13ifvqem0","pricing_plan_id":"free"},{"bike_id":"141c14ea-594b-43ee-894e-8c44af1dcd73","system_id":"levelo_inurba_marseille","lat":43.33741,"lon":5.37457,"is_reserved":false,"is_disabled":false,"rental_uris":{"android":"levelo://app?vid=141c14ea-594b-43ee-894e-8c44af1dcd73","ios":"levelo://app?vid=141c14ea-594b-43ee-894e-8c44af1dcd73"},"vehicle_type_id":"4","last_reported":1685580749,"current_range_meters":23600,"station_id":"","pricing_plan_id":"free"},{"bike_id":"c7942551-36a2-48f0-86d3-473949af1ed6","system_id":"levelo_inurba_marseille","lat":43.33748,"lon":5.3743,"is_reserved":false,"is_disabled":false,"rental_uris":{"android":"levelo://app?vid=c7942551-36a2-48f0-86d3-473949af1ed6","ios":"levelo://app?vid=c7942551-36a2-48f0-86d3-473949af1ed6"},"vehicle_type_id":"4","last_reported":1685580749,"current_range_meters":28800,"station_id":"","pricing_plan_id":"free"},{"bike_id":"d8112de5-3496-43cb-8ba9-437621514779","system_id":"levelo_inurba_marseille","lat":43.33748,"lon":5.37436,"is_reserved":false,"is_disabled":false,"rental_uris":{"android":"levelo://app?vid=d8112de5-3496-43cb-8ba9-437621514779","ios":"levelo://app?vid=d8112de5-3496-43cb-8ba9-437621514779"},"vehicle_type_id":"4","last_reported":1685580749,"current_range_meters":28800,"station_id":"","pricing_plan_id":"free"},{"bike_id":"09d851e0-31be-41a5-9af2-5d089e94030d","system_id":"levelo_inurba_marseille","lat":43.30928,"lon":5.40146,"is_reserved":false,"is_disabled":false,"rental_uris":{"android":"levelo://app?vid=09d851e0-31be-41a5-9af2-5d089e94030d","ios":"levelo://app?vid=09d851e0-31be-41a5-9af2-5d089e94030d"},"vehicle_type_id":"4","last_reported":1685580749,"current_range_meters":19200,"station_id":"","pricing_plan_id":"free"},{"bike_id":"556c6db1-2600-4c2b-9521-aae8453517c1","system_id":"levelo_inurba_marseille","lat":43.33753,"lon":5.37441,"is_reserved":false,"is_disabled":false,"rental_uris":{"android":"levelo://app?vid=556c6db1-2600-4c2b-9521-aae8453517c1","ios":"levelo://app?vid=556c6db1-2600-4c2b-9521-aae8453517c1"},"vehicle_type_id":"4","last_reported":1685580749,"current_range_meters":4400,"station_id":"","pricing_plan_id":"free"},{"bike_id":"124b13d2-6454-4e12-b0c9-1fa204d1f78c","system_id":"levelo_inurba_marseille","lat":43.33758,"lon":5.3743,"is_reserved":false,"is_disabled":false,"rental_uris":{"android":"levelo://app?vid=124b13d2-6454-4e12-b0c9-1fa204d1f78c","ios":"levelo://app?vid=124b13d2-6454-4e12-b0c9-1fa204d1f78c"},"vehicle_type_id":"4","last_reported":1685580749,"current_range_meters":28000,"station_id":"","pricing_plan_id":"free"},{"bike_id":"cfc59d8a-68f8-45ca-afa6-03e76c378f39","system_id":"levelo_inurba_marseille","lat":43.30637,"lon":5.40078,"is_reserved":false,"is_disabled":false,"rental_uris":{"android":"levelo://app?vid=cfc59d8a-68f8-45ca-afa6-03e76c378f39","ios":"levelo://app?vid=cfc59d8a-68f8-45ca-afa6-03e76c378f39"},"vehicle_type_id":"4","last_reported":1685580749,"current_range_meters":18800,"station_id":"ce4bh112rcd13ifvqda0","pricing_plan_id":"free"},{"bike_id":"6e22d9d1-08b9-43bf-8efb-c62ead4b6932","system_id":"levelo_inurba_marseille","lat":43.33763,"lon":5.37429,"is_reserved":false,"is_disabled":false,"rental_uris":{"android":"levelo://app?vid=6e22d9d1-08b9-43bf-8efb-c62ead4b6932","ios":"levelo://app?vid=6e22d9d1-08b9-43bf-8efb-c62ead4b6932"},"vehicle_type_id":"4","last_reported":1685580749,"current_range_meters":31200,"station_id":"","pricing_plan_id":"free"},{"bike_id":"e5e8515f-e4c1-4008-b05c-b8771333b2ab","system_id":"levelo_inurba_marseille","lat":43.30642,"lon":5.401031,"is_reserved":false,"is_disabled":false,"rental_uris":{"android":"levelo://app?vid=e5e8515f-e4c1-4008-b05c-b8771333b2ab","ios":"levelo://app?vid=e5e8515f-e4c1-4008-b05c-b8771333b2ab"},"vehicle_type_id":"4","last_reported":1685580749,"current_range_meters":19200,"station_id":"ce4bh112rcd13ifvqda0","pricing_plan_id":"free"},{"bike_id":"c1da147f-158b-4733-bb7b-fe75e1162cb9","system_id":"levelo_inurba_marseille","lat":43.33762,"lon":5.37453,"is_reserved":false,"is_disabled":false,"rental_uris":{"android":"levelo://app?vid=c1da147f-158b-4733-bb7b-fe75e1162cb9","ios":"levelo://app?vid=c1da147f-158b-4733-bb7b-fe75e1162cb9"},"vehicle_type_id":"4","last_reported":1685580749,"current_range_meters":29600,"station_id":"","pricing_plan_id":"free"},{"bike_id":"bb799a97-3014-4dcf-b257-d4025dc1546d","system_id":"levelo_inurba_marseille","lat":43.33766,"lon":5.37436,"is_reserved":false,"is_disabled":false,"rental_uris":{"android":"levelo://app?vid=bb799a97-3014-4dcf-b257-d4025dc1546d","ios":"levelo://app?vid=bb799a97-3014-4dcf-b257-d4025dc1546d"},"vehicle_type_id":"4","last_reported":1685580749,"current_range_meters":23600,"station_id":"","pricing_plan_id":"free"},{"bike_id":"04d1feb9-8056-468c-9b71-d735dd81bc98","system_id":"levelo_inurba_marseille","lat":43.30642,"lon":5.401031,"is_reserved":false,"is_disabled":false,"rental_uris":{"android":"levelo://app?vid=04d1feb9-8056-468c-9b71-d735dd81bc98","ios":"levelo://app?vid=04d1feb9-8056-468c-9b71-d735dd81bc98"},"vehicle_type_id":"4","last_reported":1685580749,"current_range_meters":16800,"station_id":"ce4bh112rcd13ifvqda0","pricing_plan_id":"free"},{"bike_id":"843ba23e-08b0-4787-9cd7-c81b493cb611","system_id":"levelo_inurba_marseille","lat":43.30645,"lon":5.40096,"is_reserved":false,"is_disabled":false,"rental_uris":{"android":"levelo://app?vid=843ba23e-08b0-4787-9cd7-c81b493cb611","ios":"levelo://app?vid=843ba23e-08b0-4787-9cd7-c81b493cb611"},"vehicle_type_id":"4","last_reported":1685580749,"current_range_meters":5600,"station_id":"ce4bh112rcd13ifvqda0","pricing_plan_id":"free"},{"bike_id":"76d60ddd-c3b7-4be9-930f-62a89190bed7","system_id":"levelo_inurba_marseille","lat":43.30642,"lon":5.401031,"is_reserved":false,"is_disabled":false,"rental_uris":{"android":"levelo://app?vid=76d60ddd-c3b7-4be9-930f-62a89190bed7","ios":"levelo://app?vid=76d60ddd-c3b7-4be9-930f-62a89190bed7"},"vehicle_type_id":"4","last_reported":1685580749,"current_range_meters":28800,"station_id":"ce4bh112rcd13ifvqda0","pricing_plan_id":"free"},{"bike_id":"6d678481-0e0b-436a-aa94-9d12fa2c91f5","system_id":"levelo_inurba_marseille","lat":43.33775,"lon":5.37432,"is_reserved":false,"is_disabled":false,"rental_uris":{"android":"levelo://app?vid=6d678481-0e0b-436a-aa94-9d12fa2c91f5","ios":"levelo://app?vid=6d678481-0e0b-436a-aa94-9d12fa2c91f5"},"vehicle_type_id":"4","last_reported":1685580749,"current_range_meters":30400,"station_id":"","pricing_plan_id":"free"},{"bike_id":"e7aba2e5-6c2f-4e20-8071-1976d544e417","system_id":"levelo_inurba_marseille","lat":43.30642,"lon":5.401031,"is_reserved":false,"is_disabled":false,"rental_uris":{"android":"levelo://app?vid=e7aba2e5-6c2f-4e20-8071-1976d544e417","ios":"levelo://app?vid=e7aba2e5-6c2f-4e20-8071-1976d544e417"},"vehicle_type_id":"4","last_reported":1685580749,"current_range_meters":9600,"station_id":"ce4bh112rcd13ifvqda0","pricing_plan_id":"free"},{"bike_id":"9b7fb75b-05d8-4d92-b385-c7bca7db3c4e","system_id":"levelo_inurba_marseille","lat":43.30651,"lon":5.40104,"is_reserved":false,"is_disabled":false,"rental_uris":{"android":"levelo://app?vid=9b7fb75b-05d8-4d92-b385-c7bca7db3c4e","ios":"levelo://app?vid=9b7fb75b-05d8-4d92-b385-c7bca7db3c4e"},"vehicle_type_id":"4","last_reported":1685580749,"current_range_meters":21200,"station_id":"ce4bh112rcd13ifvqda0","pricing_plan_id":"free"},{"bike_id":"be70abc3-9b45-4799-9578-b8b91a7f51b2","system_id":"levelo_inurba_marseille","lat":43.28719,"lon":5.37107,"is_reserved":false,"is_disabled":false,"rental_uris":{"android":"levelo://app?vid=be70abc3-9b45-4799-9578-b8b91a7f51b2","ios":"levelo://app?vid=be70abc3-9b45-4799-9578-b8b91a7f51b2"},"vehicle_type_id":"4","last_reported":1685580749,"current_range_meters":24800,"station_id":"","pricing_plan_id":"free"},{"bike_id":"42254ec4-a969-4c53-9746-ecd5dd9316fc","system_id":"levelo_inurba_marseille","lat":43.28704,"lon":5.37379,"is_reserved":false,"is_disabled":false,"rental_uris":{"android":"levelo://app?vid=42254ec4-a969-4c53-9746-ecd5dd9316fc","ios":"levelo://app?vid=42254ec4-a969-4c53-9746-ecd5dd9316fc"},"vehicle_type_id":"4","last_reported":1685580749,"current_range_meters":6400,"station_id":"","pricing_plan_id":"free"},{"bike_id":"00826fa9-bdae-4287-ab20-d106d2e5d966","system_id":"levelo_inurba_marseille","lat":43.286591,"lon":5.363346,"is_reserved":false,"is_disabled":false,"rental_uris":{"android":"levelo://app?vid=00826fa9-bdae-4287-ab20-d106d2e5d966","ios":"levelo://app?vid=00826fa9-bdae-4287-ab20-d106d2e5d966"},"vehicle_type_id":"4","last_reported":1685580749,"current_range_meters":31200,"station_id":"ce4bhah2rcd13ifvqej0","pricing_plan_id":"free"},{"bike_id":"6d65a1d8-3f67-4ca4-9742-9e0fc1d5785c","system_id":"levelo_inurba_marseille","lat":43.286591,"lon":5.363346,"is_reserved":false,"is_disabled":false,"rental_uris":{"android":"levelo://app?vid=6d65a1d8-3f67-4ca4-9742-9e0fc1d5785c","ios":"levelo://app?vid=6d65a1d8-3f67-4ca4-9742-9e0fc1d5785c"},"vehicle_type_id":"4","last_reported":1685580749,"current_range_meters":2800,"station_id":"ce4bhah2rcd13ifvqej0","pricing_plan_id":"free"},{"bike_id":"39e010b7-1a0d-4554-80c5-a9821e22c901","system_id":"levelo_inurba_marseille","lat":43.286591,"lon":5.363346,"is_reserved":false,"is_disabled":false,"rental_uris":{"android":"levelo://app?vid=39e010b7-1a0d-4554-80c5-a9821e22c901","ios":"levelo://app?vid=39e010b7-1a0d-4554-80c5-a9821e22c901"},"vehicle_type_id":"4","last_reported":1685580749,"current_range_meters":800,"station_id":"ce4bhah2rcd13ifvqej0","pricing_plan_id":"free"},{"bike_id":"d535c997-c3cd-4e9d-83d9-9b0be1b22ab9","system_id":"levelo_inurba_marseille","lat":43.286591,"lon":5.363346,"is_reserved":false,"is_disabled":false,"rental_uris":{"android":"levelo://app?vid=d535c997-c3cd-4e9d-83d9-9b0be1b22ab9","ios":"levelo://app?vid=d535c997-c3cd-4e9d-83d9-9b0be1b22ab9"},"vehicle_type_id":"4","last_reported":1685580749,"current_range_meters":19600,"station_id":"ce4bhah2rcd13ifvqej0","pricing_plan_id":"free"},{"bike_id":"45bae6c4-f0d0-4460-9f78-cc35c8b82f80","system_id":"levelo_inurba_marseille","lat":43.287,"lon":5.37385,"is_reserved":false,"is_disabled":false,"rental_uris":{"android":"levelo://app?vid=45bae6c4-f0d0-4460-9f78-cc35c8b82f80","ios":"levelo://app?vid=45bae6c4-f0d0-4460-9f78-cc35c8b82f80"},"vehicle_type_id":"4","last_reported":1685580749,"current_range_meters":27200,"station_id":"","pricing_plan_id":"free"},{"bike_id":"80222697-d436-4145-983a-05c8a246729c","system_id":"levelo_inurba_marseille","lat":43.286591,"lon":5.363346,"is_reserved":false,"is_disabled":false,"rental_uris":{"android":"levelo://app?vid=80222697-d436-4145-983a-05c8a246729c","ios":"levelo://app?vid=80222697-d436-4145-983a-05c8a246729c"},"vehicle_type_id":"4","last_reported":1685580749,"current_range_meters":1200,"station_id":"ce4bhah2rcd13ifvqej0","pricing_plan_id":"free"},{"bike_id":"85dc95d9-9295-4654-a705-a7acfa51794f","system_id":"levelo_inurba_marseille","lat":43.286593,"lon":5.363346,"is_reserved":false,"is_disabled":false,"rental_uris":{"android":"levelo://app?vid=85dc95d9-9295-4654-a705-a7acfa51794f","ios":"levelo://app?vid=85dc95d9-9295-4654-a705-a7acfa51794f"},"vehicle_type_id":"4","last_reported":1685580749,"current_range_meters":29600,"station_id":"ce4bhah2rcd13ifvqej0","pricing_plan_id":"free"},{"bike_id":"9850b2ed-7e6b-4e87-a424-358528ed1b58","system_id":"levelo_inurba_marseille","lat":43.286593,"lon":5.363346,"is_reserved":false,"is_disabled":false,"rental_uris":{"android":"levelo://app?vid=9850b2ed-7e6b-4e87-a424-358528ed1b58","ios":"levelo://app?vid=9850b2ed-7e6b-4e87-a424-358528ed1b58"},"vehicle_type_id":"4","last_reported":1685580749,"current_range_meters":27600,"station_id":"ce4bhah2rcd13ifvqej0","pricing_plan_id":"free"},{"bike_id":"8c69e759-627b-4381-85a1-dbbb2e58a01e","system_id":"levelo_inurba_marseille","lat":43.286593,"lon":5.363346,"is_reserved":false,"is_disabled":false,"rental_uris":{"android":"levelo://app?vid=8c69e759-627b-4381-85a1-dbbb2e58a01e","ios":"levelo://app?vid=8c69e759-627b-4381-85a1-dbbb2e58a01e"},"vehicle_type_id":"4","last_reported":1685580749,"current_range_meters":27600,"station_id":"ce4bhah2rcd13ifvqej0","pricing_plan_id":"free"},{"bike_id":"2c15b66d-4d17-4faf-81a4-92799e9ba6fd","system_id":"levelo_inurba_marseille","lat":43.286593,"lon":5.363346,"is_reserved":false,"is_disabled":false,"rental_uris":{"android":"levelo://app?vid=2c15b66d-4d17-4faf-81a4-92799e9ba6fd","ios":"levelo://app?vid=2c15b66d-4d17-4faf-81a4-92799e9ba6fd"},"vehicle_type_id":"4","last_reported":1685580749,"current_range_meters":28800,"station_id":"ce4bhah2rcd13ifvqej0","pricing_plan_id":"free"},{"bike_id":"411fba80-f35d-43ab-a487-1d722f0bdfaa","system_id":"levelo_inurba_marseille","lat":43.302759,"lon":5.400793,"is_reserved":false,"is_disabled":false,"rental_uris":{"android":"levelo://app?vid=411fba80-f35d-43ab-a487-1d722f0bdfaa","ios":"levelo://app?vid=411fba80-f35d-43ab-a487-1d722f0bdfaa"},"vehicle_type_id":"4","last_reported":1685580749,"current_range_meters":14800,"station_id":"ce4bgvh2rcd13ifvqcs0","pricing_plan_id":"free"},{"bike_id":"59d5f714-cdf4-4128-b921-6ac7bef15726","system_id":"levelo_inurba_marseille","lat":43.30249,"lon":5.4007,"is_reserved":false,"is_disabled":false,"rental_uris":{"android":"levelo://app?vid=59d5f714-cdf4-4128-b921-6ac7bef15726","ios":"levelo://app?vid=59d5f714-cdf4-4128-b921-6ac7bef15726"},"vehicle_type_id":"4","last_reported":1685580749,"current_range_meters":30400,"station_id":"","pricing_plan_id":"free"},{"bike_id":"ddbfe616-03c8-4f77-b838-83ebec52b2f5","system_id":"levelo_inurba_marseille","lat":43.286039,"lon":5.370679,"is_reserved":false,"is_disabled":false,"rental_uris":{"android":"levelo://app?vid=ddbfe616-03c8-4f77-b838-83ebec52b2f5","ios":"levelo://app?vid=ddbfe616-03c8-4f77-b838-83ebec52b2f5"},"vehicle_type_id":"4","last_reported":1685580749,"current_range_meters":30000,"station_id":"ce4bht12rcd13ifvqi60","pricing_plan_id":"free"},{"bike_id":"66668937-558f-4ecb-95e9-551c4aaec046","system_id":"levelo_inurba_marseille","lat":43.287184,"lon":5.37937,"is_reserved":false,"is_disabled":false,"rental_uris":{"android":"levelo://app?vid=66668937-558f-4ecb-95e9-551c4aaec046","ios":"levelo://app?vid=66668937-558f-4ecb-95e9-551c4aaec046"},"vehicle_type_id":"4","last_reported":1685580749,"current_range_meters":24800,"station_id":"ce4bh9p2rcd13ifvqec0","pricing_plan_id":"free"},{"bike_id":"35b6a65f-ce90-42fe-9780-cdc9abdb0e05","system_id":"levelo_inurba_marseille","lat":43.287184,"lon":5.37937,"is_reserved":false,"is_disabled":false,"rental_uris":{"android":"levelo://app?vid=35b6a65f-ce90-42fe-9780-cdc9abdb0e05","ios":"levelo://app?vid=35b6a65f-ce90-42fe-9780-cdc9abdb0e05"},"vehicle_type_id":"4","last_reported":1685580749,"current_range_meters":24400,"station_id":"ce4bh9p2rcd13ifvqec0","pricing_plan_id":"free"},{"bike_id":"bff91eae-6023-48e2-bb1b-e8aca893a79e","system_id":"levelo_inurba_marseille","lat":43.316523,"lon":5.404367,"is_reserved":false,"is_disabled":false,"rental_uris":{"android":"levelo://app?vid=bff91eae-6023-48e2-bb1b-e8aca893a79e","ios":"levelo://app?vid=bff91eae-6023-48e2-bb1b-e8aca893a79e"},"vehicle_type_id":"4","last_reported":1685580749,"current_range_meters":14400,"station_id":"ce4bh012rcd13ifvqd00","pricing_plan_id":"free"},{"bike_id":"5022d178-8aef-4346-890f-20103fb39def","system_id":"levelo_inurba_marseille","lat":43.316517,"lon":5.404375,"is_reserved":false,"is_disabled":false,"rental_uris":{"android":"levelo://app?vid=5022d178-8aef-4346-890f-20103fb39def","ios":"levelo://app?vid=5022d178-8aef-4346-890f-20103fb39def"},"vehicle_type_id":"4","last_reported":1685580749,"current_range_meters":21600,"station_id":"ce4bh012rcd13ifvqd00","pricing_plan_id":"free"},{"bike_id":"4319241e-7e7c-4808-866f-a5b7afe97bd6","system_id":"levelo_inurba_marseille","lat":43.316517,"lon":5.404375,"is_reserved":false,"is_disabled":false,"rental_uris":{"android":"levelo://app?vid=4319241e-7e7c-4808-866f-a5b7afe97bd6","ios":"levelo://app?vid=4319241e-7e7c-4808-866f-a5b7afe97bd6"},"vehicle_type_id":"4","last_reported":1685580749,"current_range_meters":0,"station_id":"ce4bh012rcd13ifvqd00","pricing_plan_id":"free"},{"bike_id":"2791305c-c3f9-4d49-b165-c3e4d4b4f460","system_id":"levelo_inurba_marseille","lat":43.316523,"lon":5.404367,"is_reserved":false,"is_disabled":false,"rental_uris":{"android":"levelo://app?vid=2791305c-c3f9-4d49-b165-c3e4d4b4f460","ios":"levelo://app?vid=2791305c-c3f9-4d49-b165-c3e4d4b4f460"},"vehicle_type_id":"4","last_reported":1685580749,"current_range_meters":7600,"station_id":"ce4bh012rcd13ifvqd00","pricing_plan_id":"free"},{"bike_id":"04c83b4d-e038-4c84-9eb5-d4b080a79d94","system_id":"levelo_inurba_marseille","lat":43.316523,"lon":5.404367,"is_reserved":false,"is_disabled":false,"rental_uris":{"android":"levelo://app?vid=04c83b4d-e038-4c84-9eb5-d4b080a79d94","ios":"levelo://app?vid=04c83b4d-e038-4c84-9eb5-d4b080a79d94"},"vehicle_type_id":"4","last_reported":1685580749,"current_range_meters":4000,"station_id":"ce4bh012rcd13ifvqd00","pricing_plan_id":"free"},{"bike_id":"afbedbbe-544a-41f0-8e1d-6bd03c5f24ef","system_id":"levelo_inurba_marseille","lat":43.316523,"lon":5.404367,"is_reserved":false,"is_disabled":false,"rental_uris":{"android":"levelo://app?vid=afbedbbe-544a-41f0-8e1d-6bd03c5f24ef","ios":"levelo://app?vid=afbedbbe-544a-41f0-8e1d-6bd03c5f24ef"},"vehicle_type_id":"4","last_reported":1685580749,"current_range_meters":7200,"station_id":"ce4bh012rcd13ifvqd00","pricing_plan_id":"free"},{"bike_id":"4c44211f-50d9-4fb5-903e-5e8a7cdbdd4a","system_id":"levelo_inurba_marseille","lat":43.316523,"lon":5.404367,"is_reserved":false,"is_disabled":false,"rental_uris":{"android":"levelo://app?vid=4c44211f-50d9-4fb5-903e-5e8a7cdbdd4a","ios":"levelo://app?vid=4c44211f-50d9-4fb5-903e-5e8a7cdbdd4a"},"vehicle_type_id":"4","last_reported":1685580749,"current_range_meters":3600,"station_id":"ce4bh012rcd13ifvqd00","pricing_plan_id":"free"},{"bike_id":"ba5ee574-329e-4e5c-9e17-a7ffa161218f","system_id":"levelo_inurba_marseille","lat":43.316517,"lon":5.404375,"is_reserved":false,"is_disabled":false,"rental_uris":{"android":"levelo://app?vid=ba5ee574-329e-4e5c-9e17-a7ffa161218f","ios":"levelo://app?vid=ba5ee574-329e-4e5c-9e17-a7ffa161218f"},"vehicle_type_id":"4","last_reported":1685580749,"current_range_meters":0,"station_id":"ce4bh012rcd13ifvqd00","pricing_plan_id":"free"},{"bike_id":"2b81a3eb-38c2-4512-bedc-8d98ba4f9180","system_id":"levelo_inurba_marseille","lat":43.2993,"lon":5.40078,"is_reserved":false,"is_disabled":false,"rental_uris":{"android":"levelo://app?vid=2b81a3eb-38c2-4512-bedc-8d98ba4f9180","ios":"levelo://app?vid=2b81a3eb-38c2-4512-bedc-8d98ba4f9180"},"vehicle_type_id":"4","last_reported":1685580749,"current_range_meters":400,"station_id":"","pricing_plan_id":"free"},{"bike_id":"c92dabd0-48ee-4905-b2c3-f1f3eb64680d","system_id":"levelo_inurba_marseille","lat":43.284534,"lon":5.358662,"is_reserved":false,"is_disabled":false,"rental_uris":{"android":"levelo://app?vid=c92dabd0-48ee-4905-b2c3-f1f3eb64680d","ios":"levelo://app?vid=c92dabd0-48ee-4905-b2c3-f1f3eb64680d"},"vehicle_type_id":"4","last_reported":1685580749,"current_range_meters":20800,"station_id":"ce4bhah2rcd13ifvqei0","pricing_plan_id":"free"},{"bike_id":"e14eba04-78fc-4e65-8e98-81c29c5765fb","system_id":"levelo_inurba_marseille","lat":43.284534,"lon":5.358662,"is_reserved":false,"is_disabled":false,"rental_uris":{"android":"levelo://app?vid=e14eba04-78fc-4e65-8e98-81c29c5765fb","ios":"levelo://app?vid=e14eba04-78fc-4e65-8e98-81c29c5765fb"},"vehicle_type_id":"4","last_reported":1685580749,"current_range_meters":0,"station_id":"ce4bhah2rcd13ifvqei0","pricing_plan_id":"free"},{"bike_id":"3dfc30b0-5c9d-450f-87e5-a0bc9d5b383e","system_id":"levelo_inurba_marseille","lat":43.284534,"lon":5.358662,"is_reserved":false,"is_disabled":false,"rental_uris":{"android":"levelo://app?vid=3dfc30b0-5c9d-450f-87e5-a0bc9d5b383e","ios":"levelo://app?vid=3dfc30b0-5c9d-450f-87e5-a0bc9d5b383e"},"vehicle_type_id":"4","last_reported":1685580749,"current_range_meters":6800,"station_id":"ce4bhah2rcd13ifvqei0","pricing_plan_id":"free"},{"bike_id":"3eed97d3-ba9a-4989-9156-d27850e5a23a","system_id":"levelo_inurba_marseille","lat":43.284534,"lon":5.358662,"is_reserved":false,"is_disabled":false,"rental_uris":{"android":"levelo://app?vid=3eed97d3-ba9a-4989-9156-d27850e5a23a","ios":"levelo://app?vid=3eed97d3-ba9a-4989-9156-d27850e5a23a"},"vehicle_type_id":"4","last_reported":1685580749,"current_range_meters":21200,"station_id":"ce4bhah2rcd13ifvqei0","pricing_plan_id":"free"},{"bike_id":"36f32bad-80f5-452a-a9f1-c10365a61de9","system_id":"levelo_inurba_marseille","lat":43.284534,"lon":5.358662,"is_reserved":false,"is_disabled":false,"rental_uris":{"android":"levelo://app?vid=36f32bad-80f5-452a-a9f1-c10365a61de9","ios":"levelo://app?vid=36f32bad-80f5-452a-a9f1-c10365a61de9"},"vehicle_type_id":"4","last_reported":1685580749,"current_range_meters":2000,"station_id":"ce4bhah2rcd13ifvqei0","pricing_plan_id":"free"},{"bike_id":"51911100-8e9b-4df7-83a8-ad5d9e42bffe","system_id":"levelo_inurba_marseille","lat":43.284534,"lon":5.358662,"is_reserved":false,"is_disabled":false,"rental_uris":{"android":"levelo://app?vid=51911100-8e9b-4df7-83a8-ad5d9e42bffe","ios":"levelo://app?vid=51911100-8e9b-4df7-83a8-ad5d9e42bffe"},"vehicle_type_id":"4","last_reported":1685580749,"current_range_meters":6800,"station_id":"ce4bhah2rcd13ifvqei0","pricing_plan_id":"free"},{"bike_id":"a27fe220-3868-45ac-91c2-799f1cab2742","system_id":"levelo_inurba_marseille","lat":43.284534,"lon":5.358662,"is_reserved":false,"is_disabled":false,"rental_uris":{"android":"levelo://app?vid=a27fe220-3868-45ac-91c2-799f1cab2742","ios":"levelo://app?vid=a27fe220-3868-45ac-91c2-799f1cab2742"},"vehicle_type_id":"4","last_reported":1685580749,"current_range_meters":7600,"station_id":"ce4bhah2rcd13ifvqei0","pricing_plan_id":"free"},{"bike_id":"a1956d1b-3bdd-46aa-98e8-96d9c2b8a09b","system_id":"levelo_inurba_marseille","lat":43.284534,"lon":5.358662,"is_reserved":false,"is_disabled":false,"rental_uris":{"android":"levelo://app?vid=a1956d1b-3bdd-46aa-98e8-96d9c2b8a09b","ios":"levelo://app?vid=a1956d1b-3bdd-46aa-98e8-96d9c2b8a09b"},"vehicle_type_id":"4","last_reported":1685580749,"current_range_meters":6000,"station_id":"ce4bhah2rcd13ifvqei0","pricing_plan_id":"free"},{"bike_id":"b53b9376-b988-485d-b626-659df460cf30","system_id":"levelo_inurba_marseille","lat":43.284534,"lon":5.358662,"is_reserved":false,"is_disabled":false,"rental_uris":{"android":"levelo://app?vid=b53b9376-b988-485d-b626-659df460cf30","ios":"levelo://app?vid=b53b9376-b988-485d-b626-659df460cf30"},"vehicle_type_id":"4","last_reported":1685580749,"current_range_meters":4800,"station_id":"ce4bhah2rcd13ifvqei0","pricing_plan_id":"free"},{"bike_id":"e1afed64-5fc6-4665-a119-ea798e7d69c2","system_id":"levelo_inurba_marseille","lat":43.285856,"lon":5.350771,"is_reserved":false,"is_disabled":false,"rental_uris":{"android":"levelo://app?vid=e1afed64-5fc6-4665-a119-ea798e7d69c2","ios":"levelo://app?vid=e1afed64-5fc6-4665-a119-ea798e7d69c2"},"vehicle_type_id":"4","last_reported":1685580749,"current_range_meters":0,"station_id":"ce4bhch2rcd13ifvqeug","pricing_plan_id":"free"},{"bike_id":"7118a1f3-3bcd-44d5-9d31-52510ceb0731","system_id":"levelo_inurba_marseille","lat":43.29572,"lon":5.39988,"is_reserved":false,"is_disabled":false,"rental_uris":{"android":"levelo://app?vid=7118a1f3-3bcd-44d5-9d31-52510ceb0731","ios":"levelo://app?vid=7118a1f3-3bcd-44d5-9d31-52510ceb0731"},"vehicle_type_id":"4","last_reported":1685580749,"current_range_meters":30800,"station_id":"ce4bh312rcd13ifvqdj0","pricing_plan_id":"free"},{"bike_id":"edcb0d3b-9a2e-4278-b503-1d3069d5b9b1","system_id":"levelo_inurba_marseille","lat":43.286595,"lon":5.386795,"is_reserved":false,"is_disabled":false,"rental_uris":{"android":"levelo://app?vid=edcb0d3b-9a2e-4278-b503-1d3069d5b9b1","ios":"levelo://app?vid=edcb0d3b-9a2e-4278-b503-1d3069d5b9b1"},"vehicle_type_id":"4","last_reported":1685580749,"current_range_meters":28800,"station_id":"ce4bh492rcd13ifvqdug","pricing_plan_id":"free"},{"bike_id":"8f71399f-bae5-42ab-b7e5-6f56a3639e69","system_id":"levelo_inurba_marseille","lat":43.286595,"lon":5.386795,"is_reserved":false,"is_disabled":false,"rental_uris":{"android":"levelo://app?vid=8f71399f-bae5-42ab-b7e5-6f56a3639e69","ios":"levelo://app?vid=8f71399f-bae5-42ab-b7e5-6f56a3639e69"},"vehicle_type_id":"4","last_reported":1685580749,"current_range_meters":28800,"station_id":"ce4bh492rcd13ifvqdug","pricing_plan_id":"free"},{"bike_id":"5df871e9-80d6-4175-966d-d1ced8a5ad6c","system_id":"levelo_inurba_marseille","lat":43.32682,"lon":5.40388,"is_reserved":false,"is_disabled":false,"rental_uris":{"android":"levelo://app?vid=5df871e9-80d6-4175-966d-d1ced8a5ad6c","ios":"levelo://app?vid=5df871e9-80d6-4175-966d-d1ced8a5ad6c"},"vehicle_type_id":"4","last_reported":1685580749,"current_range_meters":28000,"station_id":"","pricing_plan_id":"free"},{"bike_id":"5d7b2f57-eeab-4180-8538-6852e566a460","system_id":"levelo_inurba_marseille","lat":43.323464,"lon":5.406297,"is_reserved":false,"is_disabled":false,"rental_uris":{"android":"levelo://app?vid=5d7b2f57-eeab-4180-8538-6852e566a460","ios":"levelo://app?vid=5d7b2f57-eeab-4180-8538-6852e566a460"},"vehicle_type_id":"4","last_reported":1685580749,"current_range_meters":22400,"station_id":"ce4bhq92rcd13ifvqhjg","pricing_plan_id":"free"},{"bike_id":"70914b6d-7432-4904-a107-905339cc5b51","system_id":"levelo_inurba_marseille","lat":43.33727,"lon":5.39187,"is_reserved":false,"is_disabled":false,"rental_uris":{"android":"levelo://app?vid=70914b6d-7432-4904-a107-905339cc5b51","ios":"levelo://app?vid=70914b6d-7432-4904-a107-905339cc5b51"},"vehicle_type_id":"4","last_reported":1685580749,"current_range_meters":12400,"station_id":"","pricing_plan_id":"free"},{"bike_id":"d9ecd562-3f42-42bf-a0c7-7ff1f1292786","system_id":"levelo_inurba_marseille","lat":43.284793,"lon":5.384113,"is_reserved":false,"is_disabled":false,"rental_uris":{"android":"levelo://app?vid=d9ecd562-3f42-42bf-a0c7-7ff1f1292786","ios":"levelo://app?vid=d9ecd562-3f42-42bf-a0c7-7ff1f1292786"},"vehicle_type_id":"4","last_reported":1685580749,"current_range_meters":25600,"station_id":"ce4bh512rcd13ifvqe3g","pricing_plan_id":"free"},{"bike_id":"64ffebd5-c85f-4104-b64f-848f73cee081","system_id":"levelo_inurba_marseille","lat":43.284793,"lon":5.384113,"is_reserved":false,"is_disabled":false,"rental_uris":{"android":"levelo://app?vid=64ffebd5-c85f-4104-b64f-848f73cee081","ios":"levelo://app?vid=64ffebd5-c85f-4104-b64f-848f73cee081"},"vehicle_type_id":"4","last_reported":1685580749,"current_range_meters":11200,"station_id":"ce4bh512rcd13ifvqe3g","pricing_plan_id":"free"},{"bike_id":"2a53d736-3f28-4fc1-951b-5fc69bf13571","system_id":"levelo_inurba_marseille","lat":43.284787,"lon":5.384116,"is_reserved":false,"is_disabled":false,"rental_uris":{"android":"levelo://app?vid=2a53d736-3f28-4fc1-951b-5fc69bf13571","ios":"levelo://app?vid=2a53d736-3f28-4fc1-951b-5fc69bf13571"},"vehicle_type_id":"4","last_reported":1685580749,"current_range_meters":30400,"station_id":"ce4bh512rcd13ifvqe3g","pricing_plan_id":"free"},{"bike_id":"d7eb8480-ceda-4bac-bae8-13419338294a","system_id":"levelo_inurba_marseille","lat":43.284703,"lon":5.384189,"is_reserved":false,"is_disabled":false,"rental_uris":{"android":"levelo://app?vid=d7eb8480-ceda-4bac-bae8-13419338294a","ios":"levelo://app?vid=d7eb8480-ceda-4bac-bae8-13419338294a"},"vehicle_type_id":"4","last_reported":1685580749,"current_range_meters":0,"station_id":"","pricing_plan_id":"free"},{"bike_id":"6d0504f0-3867-4584-bc79-229a79bec351","system_id":"levelo_inurba_marseille","lat":43.284787,"lon":5.384116,"is_reserved":false,"is_disabled":false,"rental_uris":{"android":"levelo://app?vid=6d0504f0-3867-4584-bc79-229a79bec351","ios":"levelo://app?vid=6d0504f0-3867-4584-bc79-229a79bec351"},"vehicle_type_id":"4","last_reported":1685580749,"current_range_meters":30000,"station_id":"ce4bh512rcd13ifvqe3g","pricing_plan_id":"free"},{"bike_id":"22f535d2-412e-4946-a4de-d7dfea43a720","system_id":"levelo_inurba_marseille","lat":43.284209,"lon":5.349719,"is_reserved":false,"is_disabled":false,"rental_uris":{"android":"levelo://app?vid=22f535d2-412e-4946-a4de-d7dfea43a720","ios":"levelo://app?vid=22f535d2-412e-4946-a4de-d7dfea43a720"},"vehicle_type_id":"4","last_reported":1685580749,"current_range_meters":26800,"station_id":"ce4bhbh2rcd13ifvqepg","pricing_plan_id":"free"},{"bike_id":"ca3b84c6-fb73-4b74-a7ee-850661199783","system_id":"levelo_inurba_marseille","lat":43.292724,"lon":5.401131,"is_reserved":false,"is_disabled":false,"rental_uris":{"android":"levelo://app?vid=ca3b84c6-fb73-4b74-a7ee-850661199783","ios":"levelo://app?vid=ca3b84c6-fb73-4b74-a7ee-850661199783"},"vehicle_type_id":"4","last_reported":1685580749,"current_range_meters":7600,"station_id":"ce4bh312rcd13ifvqdk0","pricing_plan_id":"free"},{"bike_id":"11fd9065-4517-4210-9303-5d4c92de3e91","system_id":"levelo_inurba_marseille","lat":43.292724,"lon":5.401131,"is_reserved":false,"is_disabled":false,"rental_uris":{"android":"levelo://app?vid=11fd9065-4517-4210-9303-5d4c92de3e91","ios":"levelo://app?vid=11fd9065-4517-4210-9303-5d4c92de3e91"},"vehicle_type_id":"4","last_reported":1685580749,"current_range_meters":28800,"station_id":"ce4bh312rcd13ifvqdk0","pricing_plan_id":"free"},{"bike_id":"e4c3521a-46d4-4ad9-aa13-ecec6c0b8311","system_id":"levelo_inurba_marseille","lat":43.292724,"lon":5.401131,"is_reserved":false,"is_disabled":false,"rental_uris":{"android":"levelo://app?vid=e4c3521a-46d4-4ad9-aa13-ecec6c0b8311","ios":"levelo://app?vid=e4c3521a-46d4-4ad9-aa13-ecec6c0b8311"},"vehicle_type_id":"4","last_reported":1685580749,"current_range_meters":28000,"station_id":"ce4bh312rcd13ifvqdk0","pricing_plan_id":"free"},{"bike_id":"3cbf2a63-15de-461c-8f9f-3cf63bdc213d","system_id":"levelo_inurba_marseille","lat":43.283502,"lon":5.386471,"is_reserved":false,"is_disabled":false,"rental_uris":{"android":"levelo://app?vid=3cbf2a63-15de-461c-8f9f-3cf63bdc213d","ios":"levelo://app?vid=3cbf2a63-15de-461c-8f9f-3cf63bdc213d"},"vehicle_type_id":"4","last_reported":1685580749,"current_range_meters":13200,"station_id":"ce4bh492rcd13ifvqdvg","pricing_plan_id":"free"},{"bike_id":"bc68d47c-b697-43a9-bdea-96161767fd00","system_id":"levelo_inurba_marseille","lat":43.28039,"lon":5.369297,"is_reserved":false,"is_disabled":false,"rental_uris":{"android":"levelo://app?vid=bc68d47c-b697-43a9-bdea-96161767fd00","ios":"levelo://app?vid=bc68d47c-b697-43a9-bdea-96161767fd00"},"vehicle_type_id":"4","last_reported":1685580749,"current_range_meters":31200,"station_id":"ce4bha12rcd13ifvqef0","pricing_plan_id":"free"},{"bike_id":"ef96b259-4ff2-4502-a467-43d7edac6ad2","system_id":"levelo_inurba_marseille","lat":43.28039,"lon":5.369297,"is_reserved":false,"is_disabled":false,"rental_uris":{"android":"levelo://app?vid=ef96b259-4ff2-4502-a467-43d7edac6ad2","ios":"levelo://app?vid=ef96b259-4ff2-4502-a467-43d7edac6ad2"},"vehicle_type_id":"4","last_reported":1685580749,"current_range_meters":31200,"station_id":"ce4bha12rcd13ifvqef0","pricing_plan_id":"free"},{"bike_id":"5149f031-ad70-4944-a1a3-cec9f2411d20","system_id":"levelo_inurba_marseille","lat":43.28039,"lon":5.369297,"is_reserved":false,"is_disabled":false,"rental_uris":{"android":"levelo://app?vid=5149f031-ad70-4944-a1a3-cec9f2411d20","ios":"levelo://app?vid=5149f031-ad70-4944-a1a3-cec9f2411d20"},"vehicle_type_id":"4","last_reported":1685580749,"current_range_meters":30800,"station_id":"ce4bha12rcd13ifvqef0","pricing_plan_id":"free"},{"bike_id":"0f213988-6999-4b7e-ab8f-0f979e1d06ab","system_id":"levelo_inurba_marseille","lat":43.28039,"lon":5.369297,"is_reserved":false,"is_disabled":false,"rental_uris":{"android":"levelo://app?vid=0f213988-6999-4b7e-ab8f-0f979e1d06ab","ios":"levelo://app?vid=0f213988-6999-4b7e-ab8f-0f979e1d06ab"},"vehicle_type_id":"4","last_reported":1685580749,"current_range_meters":5200,"station_id":"ce4bha12rcd13ifvqef0","pricing_plan_id":"free"},{"bike_id":"1a50fe55-58d4-4477-b617-b326e2a7a605","system_id":"levelo_inurba_marseille","lat":43.28039,"lon":5.369297,"is_reserved":false,"is_disabled":false,"rental_uris":{"android":"levelo://app?vid=1a50fe55-58d4-4477-b617-b326e2a7a605","ios":"levelo://app?vid=1a50fe55-58d4-4477-b617-b326e2a7a605"},"vehicle_type_id":"4","last_reported":1685580749,"current_range_meters":31200,"station_id":"ce4bha12rcd13ifvqef0","pricing_plan_id":"free"},{"bike_id":"a95757a3-1805-49aa-a4fb-d8c0ceae5dd4","system_id":"levelo_inurba_marseille","lat":43.28039,"lon":5.369297,"is_reserved":false,"is_disabled":false,"rental_uris":{"android":"levelo://app?vid=a95757a3-1805-49aa-a4fb-d8c0ceae5dd4","ios":"levelo://app?vid=a95757a3-1805-49aa-a4fb-d8c0ceae5dd4"},"vehicle_type_id":"4","last_reported":1685580749,"current_range_meters":12000,"station_id":"ce4bha12rcd13ifvqef0","pricing_plan_id":"free"},{"bike_id":"8b9b3b02-de53-4208-8b5e-14d80f1328bd","system_id":"levelo_inurba_marseille","lat":43.28039,"lon":5.369297,"is_reserved":false,"is_disabled":false,"rental_uris":{"android":"levelo://app?vid=8b9b3b02-de53-4208-8b5e-14d80f1328bd","ios":"levelo://app?vid=8b9b3b02-de53-4208-8b5e-14d80f1328bd"},"vehicle_type_id":"4","last_reported":1685580749,"current_range_meters":17200,"station_id":"ce4bha12rcd13ifvqef0","pricing_plan_id":"free"},{"bike_id":"04567635-b4c2-4e29-8ac1-11abc1575d06","system_id":"levelo_inurba_marseille","lat":43.29041,"lon":5.399634,"is_reserved":false,"is_disabled":false,"rental_uris":{"android":"levelo://app?vid=04567635-b4c2-4e29-8ac1-11abc1575d06","ios":"levelo://app?vid=04567635-b4c2-4e29-8ac1-11abc1575d06"},"vehicle_type_id":"4","last_reported":1685580749,"current_range_meters":15600,"station_id":"ce4bh392rcd13ifvqdm0","pricing_plan_id":"free"},{"bike_id":"6d4dad9f-6dfd-4c51-bc93-ffb5d56ead3e","system_id":"levelo_inurba_marseille","lat":43.28109,"lon":5.37837,"is_reserved":false,"is_disabled":false,"rental_uris":{"android":"levelo://app?vid=6d4dad9f-6dfd-4c51-bc93-ffb5d56ead3e","ios":"levelo://app?vid=6d4dad9f-6dfd-4c51-bc93-ffb5d56ead3e"},"vehicle_type_id":"4","last_reported":1685580749,"current_range_meters":16000,"station_id":"ce4bha12rcd13ifvqee0","pricing_plan_id":"free"},{"bike_id":"b244fb63-4266-47d2-bcc7-f780239e54a9","system_id":"levelo_inurba_marseille","lat":43.281095,"lon":5.378415,"is_reserved":false,"is_disabled":false,"rental_uris":{"android":"levelo://app?vid=b244fb63-4266-47d2-bcc7-f780239e54a9","ios":"levelo://app?vid=b244fb63-4266-47d2-bcc7-f780239e54a9"},"vehicle_type_id":"4","last_reported":1685580749,"current_range_meters":24000,"station_id":"ce4bha12rcd13ifvqee0","pricing_plan_id":"free"},{"bike_id":"1c4b52dc-bce4-4eab-89b2-6de90e9fe482","system_id":"levelo_inurba_marseille","lat":43.28108,"lon":5.37844,"is_reserved":false,"is_disabled":false,"rental_uris":{"android":"levelo://app?vid=1c4b52dc-bce4-4eab-89b2-6de90e9fe482","ios":"levelo://app?vid=1c4b52dc-bce4-4eab-89b2-6de90e9fe482"},"vehicle_type_id":"4","last_reported":1685580749,"current_range_meters":2400,"station_id":"ce4bha12rcd13ifvqee0","pricing_plan_id":"free"},{"bike_id":"7649e1a1-c8e0-45ce-bdfc-d6dfa4629e61","system_id":"levelo_inurba_marseille","lat":43.28106,"lon":5.37838,"is_reserved":false,"is_disabled":false,"rental_uris":{"android":"levelo://app?vid=7649e1a1-c8e0-45ce-bdfc-d6dfa4629e61","ios":"levelo://app?vid=7649e1a1-c8e0-45ce-bdfc-d6dfa4629e61"},"vehicle_type_id":"4","last_reported":1685580749,"current_range_meters":7200,"station_id":"ce4bha12rcd13ifvqee0","pricing_plan_id":"free"},{"bike_id":"d928577e-0cd2-4d9e-a2c6-e4e53bca980d","system_id":"levelo_inurba_marseille","lat":43.28105,"lon":5.37838,"is_reserved":false,"is_disabled":false,"rental_uris":{"android":"levelo://app?vid=d928577e-0cd2-4d9e-a2c6-e4e53bca980d","ios":"levelo://app?vid=d928577e-0cd2-4d9e-a2c6-e4e53bca980d"},"vehicle_type_id":"4","last_reported":1685580749,"current_range_meters":18000,"station_id":"ce4bha12rcd13ifvqee0","pricing_plan_id":"free"},{"bike_id":"62fdfdc5-ebdf-450f-b1e2-df243853d6f0","system_id":"levelo_inurba_marseille","lat":43.28105,"lon":5.3784,"is_reserved":false,"is_disabled":false,"rental_uris":{"android":"levelo://app?vid=62fdfdc5-ebdf-450f-b1e2-df243853d6f0","ios":"levelo://app?vid=62fdfdc5-ebdf-450f-b1e2-df243853d6f0"},"vehicle_type_id":"4","last_reported":1685580749,"current_range_meters":13600,"station_id":"ce4bha12rcd13ifvqee0","pricing_plan_id":"free"},{"bike_id":"5d86e638-2614-4ae9-9126-2db7b94eef25","system_id":"levelo_inurba_marseille","lat":43.28103,"lon":5.37838,"is_reserved":false,"is_disabled":false,"rental_uris":{"android":"levelo://app?vid=5d86e638-2614-4ae9-9126-2db7b94eef25","ios":"levelo://app?vid=5d86e638-2614-4ae9-9126-2db7b94eef25"},"vehicle_type_id":"4","last_reported":1685580749,"current_range_meters":22400,"station_id":"ce4bha12rcd13ifvqee0","pricing_plan_id":"free"},{"bike_id":"ebf0a8ac-814b-4e3e-bd8e-c6784a5f93de","system_id":"levelo_inurba_marseille","lat":43.296263,"lon":5.40601,"is_reserved":false,"is_disabled":false,"rental_uris":{"android":"levelo://app?vid=ebf0a8ac-814b-4e3e-bd8e-c6784a5f93de","ios":"levelo://app?vid=ebf0a8ac-814b-4e3e-bd8e-c6784a5f93de"},"vehicle_type_id":"4","last_reported":1685580749,"current_range_meters":29200,"station_id":"ce4bh0h2rcd13ifvqd60","pricing_plan_id":"free"},{"bike_id":"5288a41a-b81d-4877-8b96-c664e8432afd","system_id":"levelo_inurba_marseille","lat":43.32627,"lon":5.40922,"is_reserved":false,"is_disabled":false,"rental_uris":{"android":"levelo://app?vid=5288a41a-b81d-4877-8b96-c664e8432afd","ios":"levelo://app?vid=5288a41a-b81d-4877-8b96-c664e8432afd"},"vehicle_type_id":"4","last_reported":1685580749,"current_range_meters":24000,"station_id":"","pricing_plan_id":"free"},{"bike_id":"3fd3b47a-be82-4b48-a2ce-57a6185169a8","system_id":"levelo_inurba_marseille","lat":43.284462,"lon":5.392121,"is_reserved":false,"is_disabled":false,"rental_uris":{"android":"levelo://app?vid=3fd3b47a-be82-4b48-a2ce-57a6185169a8","ios":"levelo://app?vid=3fd3b47a-be82-4b48-a2ce-57a6185169a8"},"vehicle_type_id":"4","last_reported":1685580749,"current_range_meters":25600,"station_id":"ce4bhoh2rcd13ifvqh5g","pricing_plan_id":"free"},{"bike_id":"9d1e9c52-470a-4957-90b0-38b158edd4d6","system_id":"levelo_inurba_marseille","lat":43.284462,"lon":5.392121,"is_reserved":false,"is_disabled":false,"rental_uris":{"android":"levelo://app?vid=9d1e9c52-470a-4957-90b0-38b158edd4d6","ios":"levelo://app?vid=9d1e9c52-470a-4957-90b0-38b158edd4d6"},"vehicle_type_id":"4","last_reported":1685580749,"current_range_meters":27200,"station_id":"ce4bhoh2rcd13ifvqh5g","pricing_plan_id":"free"},{"bike_id":"dcc9d557-b9e3-4bcc-88a7-d46020c66cdb","system_id":"levelo_inurba_marseille","lat":43.28573,"lon":5.394992,"is_reserved":false,"is_disabled":false,"rental_uris":{"android":"levelo://app?vid=dcc9d557-b9e3-4bcc-88a7-d46020c66cdb","ios":"levelo://app?vid=dcc9d557-b9e3-4bcc-88a7-d46020c66cdb"},"vehicle_type_id":"4","last_reported":1685580749,"current_range_meters":25600,"station_id":"ce4bh292rcd13ifvqdg0","pricing_plan_id":"free"},{"bike_id":"3b6ceb24-05aa-4ff7-9627-07d06cccd75c","system_id":"levelo_inurba_marseille","lat":43.285742,"lon":5.395004,"is_reserved":false,"is_disabled":false,"rental_uris":{"android":"levelo://app?vid=3b6ceb24-05aa-4ff7-9627-07d06cccd75c","ios":"levelo://app?vid=3b6ceb24-05aa-4ff7-9627-07d06cccd75c"},"vehicle_type_id":"4","last_reported":1685580749,"current_range_meters":28400,"station_id":"ce4bh292rcd13ifvqdg0","pricing_plan_id":"free"},{"bike_id":"b97c96db-b8a0-406f-9469-ec52d8e69fb6","system_id":"levelo_inurba_marseille","lat":43.28564,"lon":5.39507,"is_reserved":false,"is_disabled":false,"rental_uris":{"android":"levelo://app?vid=b97c96db-b8a0-406f-9469-ec52d8e69fb6","ios":"levelo://app?vid=b97c96db-b8a0-406f-9469-ec52d8e69fb6"},"vehicle_type_id":"4","last_reported":1685580749,"current_range_meters":30400,"station_id":"ce4bh292rcd13ifvqdg0","pricing_plan_id":"free"},{"bike_id":"c6048c7c-2837-48b9-98df-7d42be2948ab","system_id":"levelo_inurba_marseille","lat":43.27906,"lon":5.38015,"is_reserved":false,"is_disabled":false,"rental_uris":{"android":"levelo://app?vid=c6048c7c-2837-48b9-98df-7d42be2948ab","ios":"levelo://app?vid=c6048c7c-2837-48b9-98df-7d42be2948ab"},"vehicle_type_id":"4","last_reported":1685580749,"current_range_meters":15600,"station_id":"","pricing_plan_id":"free"},{"bike_id":"ffc72560-4563-4723-aa74-e9045fa3cd60","system_id":"levelo_inurba_marseille","lat":43.241782,"lon":5.397261,"is_reserved":false,"is_disabled":false,"rental_uris":{"android":"levelo://app?vid=ffc72560-4563-4723-aa74-e9045fa3cd60","ios":"levelo://app?vid=ffc72560-4563-4723-aa74-e9045fa3cd60"},