{"last_updated":1690563900,"ttl":30,"version":"2.2","data":{"bikes":[{"bike_id":"e526d4e2-849c-44ae-a0d7-5572a62df909","system_id":"levelo_inurba_marseille","lat":43.312239,"lon":5.368562,"is_reserved":false,"is_disabled":false,"rental_uris":{"android":"levelo://app?vid=e526d4e2-849c-44ae-a0d7-5572a62df909","ios":"levelo://app?vid=e526d4e2-849c-44ae-a0d7-5572a62df909"},"vehicle_type_id":"4","last_reported":1690563902,"current_range_meters":31200,"station_id":"ce4bgl92rcd13ifvqbq0","pricing_plan_id":"free"},{"bike_id":"f688cb07-6a23-4877-8004-8ed1ccb71172","system_id":"levelo_inurba_marseille","lat":43.31489,"lon":5.37307,"is_reserved":false,"is_disabled":false,"rental_uris":{"android":"levelo://app?vid=f688cb07-6a23-4877-8004-8ed1ccb71172","ios":"levelo://app?vid=f688cb07-6a23-4877-8004-8ed1ccb71172"},"vehicle_type_id":"4","last_reported":1690563902,"current_range_meters":31200,"station_id":"","pricing_plan_id":"free"},{"bike_id":"e99631de-3de9-46a6-8056-34408558bb94","system_id":"levelo_inurba_marseille","lat":43.305989,"lon":5.37225,"is_reserved":false,"is_disabled":false,"rental_uris":{"android":"levelo://app?vid=e99631de-3de9-46a6-8056-34408558bb94","ios":"levelo://app?vid=e99631de-3de9-46a6-8056-34408558bb94"},"vehicle_type_id":"4","last_reported":1690563902,"current_range_meters":28000,"station_id":"ce4bgqh2rcd13ifvqc4g","pricing_plan_id":"free"},{"bike_id":"f20ea888-8740-440b-bfeb-8eb2a7c1f652","system_id":"levelo_inurba_marseille","lat":43.305989,"lon":5.37225,"is_reserved":false,"is_disabled":false,"rental_uris":{"android":"levelo://app?vid=f20ea888-8740-440b-bfeb-8eb2a7c1f652","ios":"levelo://app?vid=f20ea888-8740-440b-bfeb-8eb2a7c1f652"},"vehicle_type_id":"4","last_reported":1690563902,"current_range_meters":31200,"station_id":"ce4bgqh2rcd13ifvqc4g","pricing_plan_id":"free"},{"bike_id":"8e9d2e80-2c15-41c4-8db1-d6b31a6016ba","system_id":"levelo_inurba_marseille","lat":43.31123,"lon":5.3776,"is_reserved":false,"is_disabled":false,"rental_uris":{"android":"levelo://app?vid=8e9d2e80-2c15-41c4-8db1-d6b31a6016ba","ios":"levelo://app?vid=8e9d2e80-2c15-41c4-8db1-d6b31a6016ba"},"vehicle_type_id":"4","last_reported":1690563902,"current_range_meters":22400,"station_id":"ce4bgt92rcd13ifvqcg0","pricing_plan_id":"free"},{"bike_id":"f5b53683-ff3a-4449-bdd4-b66084417e27","system_id":"levelo_inurba_marseille","lat":43.31117,"lon":5.37772,"is_reserved":false,"is_disabled":false,"rental_uris":{"android":"levelo://app?vid=f5b53683-ff3a-4449-bdd4-b66084417e27","ios":"levelo://app?vid=f5b53683-ff3a-4449-bdd4-b66084417e27"},"vehicle_type_id":"4","last_reported":1690563902,"current_range_meters":0,"station_id":"ce4bgt92rcd13ifvqcg0","pricing_plan_id":"free"},{"bike_id":"ab09179f-200f-44a7-9150-4734e4b59a8e","system_id":"levelo_inurba_marseille","lat":43.31107,"lon":5.37774,"is_reserved":false,"is_disabled":false,"rental_uris":{"android":"levelo://app?vid=ab09179f-200f-44a7-9150-4734e4b59a8e","ios":"levelo://app?vid=ab09179f-200f-44a7-9150-4734e4b59a8e"},"vehicle_type_id":"4","last_reported":1690563902,"current_range_meters":6000,"station_id":"ce4bgt92rcd13ifvqcg0","pricing_plan_id":"free"},{"bike_id":"eb2b40d6-a622-4dde-91d2-5882e670e439","system_id":"levelo_inurba_marseille","lat":43.30789,"lon":5.37654,"is_reserved":false,"is_disabled":false,"rental_uris":{"android":"levelo://app?vid=eb2b40d6-a622-4dde-91d2-5882e670e439","ios":"levelo://app?vid=eb2b40d6-a622-4dde-91d2-5882e670e439"},"vehicle_type_id":"4","last_reported":1690563902,"current_range_meters":20800,"station_id":"ce4bgv92rcd13ifvqcq0","pricing_plan_id":"free"},{"bike_id":"0814e5f6-f00c-452e-9900-835399e75aca","system_id":"levelo_inurba_marseille","lat":43.30782,"lon":5.37648,"is_reserved":false,"is_disabled":false,"rental_uris":{"android":"levelo://app?vid=0814e5f6-f00c-452e-9900-835399e75aca","ios":"levelo://app?vid=0814e5f6-f00c-452e-9900-835399e75aca"},"vehicle_type_id":"4","last_reported":1690563902,"current_range_meters":24400,"station_id":"ce4bgv92rcd13ifvqcq0","pricing_plan_id":"free"},{"bike_id":"5eb85d80-c06a-4f25-bd81-c53b2d295275","system_id":"levelo_inurba_marseille","lat":43.307945,"lon":5.376487,"is_reserved":false,"is_disabled":false,"rental_uris":{"android":"levelo://app?vid=5eb85d80-c06a-4f25-bd81-c53b2d295275","ios":"levelo://app?vid=5eb85d80-c06a-4f25-bd81-c53b2d295275"},"vehicle_type_id":"4","last_reported":1690563902,"current_range_meters":26400,"station_id":"ce4bgv92rcd13ifvqcq0","pricing_plan_id":"free"},{"bike_id":"c47c7af5-8140-46a3-a11e-4fb7fb0ab5cc","system_id":"levelo_inurba_marseille","lat":43.30779,"lon":5.37656,"is_reserved":false,"is_disabled":false,"rental_uris":{"android":"levelo://app?vid=c47c7af5-8140-46a3-a11e-4fb7fb0ab5cc","ios":"levelo://app?vid=c47c7af5-8140-46a3-a11e-4fb7fb0ab5cc"},"vehicle_type_id":"4","last_reported":1690563902,"current_range_meters":17600,"station_id":"ce4bgv92rcd13ifvqcq0","pricing_plan_id":"free"},{"bike_id":"e16b4d90-eae7-408f-82e9-44c2371cf15d","system_id":"levelo_inurba_marseille","lat":43.317011,"lon":5.377293,"is_reserved":false,"is_disabled":false,"rental_uris":{"android":"levelo://app?vid=e16b4d90-eae7-408f-82e9-44c2371cf15d","ios":"levelo://app?vid=e16b4d90-eae7-408f-82e9-44c2371cf15d"},"vehicle_type_id":"4","last_reported":1690563902,"current_range_meters":29600,"station_id":"","pricing_plan_id":"free"},{"bike_id":"1288a8f6-8aed-4f30-b787-22deaf254165","system_id":"levelo_inurba_marseille","lat":43.317075,"lon":5.377367,"is_reserved":false,"is_disabled":false,"rental_uris":{"android":"levelo://app?vid=1288a8f6-8aed-4f30-b787-22deaf254165","ios":"levelo://app?vid=1288a8f6-8aed-4f30-b787-22deaf254165"},"vehicle_type_id":"4","last_reported":1690563902,"current_range_meters":26000,"station_id":"ce4bgth2rcd13ifvqch0","pricing_plan_id":"free"},{"bike_id":"28423d17-0e84-454b-82b5-2a69e817e7b1","system_id":"levelo_inurba_marseille","lat":43.31711,"lon":5.37758,"is_reserved":false,"is_disabled":false,"rental_uris":{"android":"levelo://app?vid=28423d17-0e84-454b-82b5-2a69e817e7b1","ios":"levelo://app?vid=28423d17-0e84-454b-82b5-2a69e817e7b1"},"vehicle_type_id":"4","last_reported":1690563902,"current_range_meters":27200,"station_id":"ce4bgth2rcd13ifvqch0","pricing_plan_id":"free"},{"bike_id":"9dcf1ae2-99eb-41c8-a9d6-ccef7a60dd1e","system_id":"levelo_inurba_marseille","lat":43.31375,"lon":5.3798,"is_reserved":false,"is_disabled":false,"rental_uris":{"android":"levelo://app?vid=9dcf1ae2-99eb-41c8-a9d6-ccef7a60dd1e","ios":"levelo://app?vid=9dcf1ae2-99eb-41c8-a9d6-ccef7a60dd1e"},"vehicle_type_id":"4","last_reported":1690563902,"current_range_meters":5600,"station_id":"","pricing_plan_id":"free"},{"bike_id":"2c3fd864-f585-4811-a76a-b3c69676eea2","system_id":"levelo_inurba_marseille","lat":43.304606,"lon":5.379026,"is_reserved":false,"is_disabled":false,"rental_uris":{"android":"levelo://app?vid=2c3fd864-f585-4811-a76a-b3c69676eea2","ios":"levelo://app?vid=2c3fd864-f585-4811-a76a-b3c69676eea2"},"vehicle_type_id":"4","last_reported":1690563902,"current_range_meters":4000,"station_id":"ce4bgup2rcd13ifvqcn0","pricing_plan_id":"free"},{"bike_id":"7c5f8bfc-f1bb-47e7-86a2-2c3603d337e1","system_id":"levelo_inurba_marseille","lat":43.30455,"lon":5.37908,"is_reserved":false,"is_disabled":false,"rental_uris":{"android":"levelo://app?vid=7c5f8bfc-f1bb-47e7-86a2-2c3603d337e1","ios":"levelo://app?vid=7c5f8bfc-f1bb-47e7-86a2-2c3603d337e1"},"vehicle_type_id":"4","last_reported":1690563902,"current_range_meters":1600,"station_id":"ce4bgup2rcd13ifvqcn0","pricing_plan_id":"free"},{"bike_id":"6df294f6-f35d-4719-ba83-767980318608","system_id":"levelo_inurba_marseille","lat":43.302784,"lon":5.377158,"is_reserved":false,"is_disabled":false,"rental_uris":{"android":"levelo://app?vid=6df294f6-f35d-4719-ba83-767980318608","ios":"levelo://app?vid=6df294f6-f35d-4719-ba83-767980318608"},"vehicle_type_id":"4","last_reported":1690563902,"current_range_meters":22000,"station_id":"ce4bguh2rcd13ifvqcj0","pricing_plan_id":"free"},{"bike_id":"56ef2822-7856-4c01-9072-52d3e3501b35","system_id":"levelo_inurba_marseille","lat":43.302784,"lon":5.377158,"is_reserved":false,"is_disabled":false,"rental_uris":{"android":"levelo://app?vid=56ef2822-7856-4c01-9072-52d3e3501b35","ios":"levelo://app?vid=56ef2822-7856-4c01-9072-52d3e3501b35"},"vehicle_type_id":"4","last_reported":1690563902,"current_range_meters":14400,"station_id":"ce4bguh2rcd13ifvqcj0","pricing_plan_id":"free"},{"bike_id":"8daf7689-d0a3-4936-b68d-6f56fdc57e86","system_id":"levelo_inurba_marseille","lat":43.30144,"lon":5.37412,"is_reserved":false,"is_disabled":false,"rental_uris":{"android":"levelo://app?vid=8daf7689-d0a3-4936-b68d-6f56fdc57e86","ios":"levelo://app?vid=8daf7689-d0a3-4936-b68d-6f56fdc57e86"},"vehicle_type_id":"4","last_reported":1690563902,"current_range_meters":9200,"station_id":"ce4bgs92rcd13ifvqcc0","pricing_plan_id":"free"},{"bike_id":"046e0f82-8663-4d19-80f8-64a6ebdcc3b8","system_id":"levelo_inurba_marseille","lat":43.302784,"lon":5.377158,"is_reserved":false,"is_disabled":false,"rental_uris":{"android":"levelo://app?vid=046e0f82-8663-4d19-80f8-64a6ebdcc3b8","ios":"levelo://app?vid=046e0f82-8663-4d19-80f8-64a6ebdcc3b8"},"vehicle_type_id":"4","last_reported":1690563902,"current_range_meters":1600,"station_id":"ce4bguh2rcd13ifvqcj0","pricing_plan_id":"free"},{"bike_id":"51281191-15d1-48a4-85c3-cd6c26b33920","system_id":"levelo_inurba_marseille","lat":43.302784,"lon":5.377158,"is_reserved":false,"is_disabled":false,"rental_uris":{"android":"levelo://app?vid=51281191-15d1-48a4-85c3-cd6c26b33920","ios":"levelo://app?vid=51281191-15d1-48a4-85c3-cd6c26b33920"},"vehicle_type_id":"4","last_reported":1690563902,"current_range_meters":16800,"station_id":"ce4bguh2rcd13ifvqcj0","pricing_plan_id":"free"},{"bike_id":"79cafeb9-3c6d-4b6a-88a8-23eee1aa4e0b","system_id":"levelo_inurba_marseille","lat":43.31997,"lon":5.38154,"is_reserved":false,"is_disabled":false,"rental_uris":{"android":"levelo://app?vid=79cafeb9-3c6d-4b6a-88a8-23eee1aa4e0b","ios":"levelo://app?vid=79cafeb9-3c6d-4b6a-88a8-23eee1aa4e0b"},"vehicle_type_id":"4","last_reported":1690563902,"current_range_meters":5200,"station_id":"ce4bhr12rcd13ifvqhpg","pricing_plan_id":"free"},{"bike_id":"a2e9896a-e7f6-46f6-bd4f-dd4bae4e3b0e","system_id":"levelo_inurba_marseille","lat":43.319935,"lon":5.381699,"is_reserved":false,"is_disabled":false,"rental_uris":{"android":"levelo://app?vid=a2e9896a-e7f6-46f6-bd4f-dd4bae4e3b0e","ios":"levelo://app?vid=a2e9896a-e7f6-46f6-bd4f-dd4bae4e3b0e"},"vehicle_type_id":"4","last_reported":1690563902,"current_range_meters":5600,"station_id":"ce4bhr12rcd13ifvqhpg","pricing_plan_id":"free"},{"bike_id":"19ed6f33-0c99-4e63-beb0-02ec9f0caa73","system_id":"levelo_inurba_marseille","lat":43.313571,"lon":5.384829,"is_reserved":false,"is_disabled":false,"rental_uris":{"android":"levelo://app?vid=19ed6f33-0c99-4e63-beb0-02ec9f0caa73","ios":"levelo://app?vid=19ed6f33-0c99-4e63-beb0-02ec9f0caa73"},"vehicle_type_id":"4","last_reported":1690563902,"current_range_meters":0,"station_id":"ce4bgt92rcd13ifvqcf0","pricing_plan_id":"free"},{"bike_id":"77cb9c5e-2de1-48d2-9087-32c25e726546","system_id":"levelo_inurba_marseille","lat":43.298433,"lon":5.362774,"is_reserved":false,"is_disabled":false,"rental_uris":{"android":"levelo://app?vid=77cb9c5e-2de1-48d2-9087-32c25e726546","ios":"levelo://app?vid=77cb9c5e-2de1-48d2-9087-32c25e726546"},"vehicle_type_id":"4","last_reported":1690563902,"current_range_meters":19200,"station_id":"ce4bgpp2rcd13ifvqc3g","pricing_plan_id":"free"},{"bike_id":"dadc5922-f24e-4a9c-b08e-1aeea0716396","system_id":"levelo_inurba_marseille","lat":43.298433,"lon":5.362774,"is_reserved":false,"is_disabled":false,"rental_uris":{"android":"levelo://app?vid=dadc5922-f24e-4a9c-b08e-1aeea0716396","ios":"levelo://app?vid=dadc5922-f24e-4a9c-b08e-1aeea0716396"},"vehicle_type_id":"4","last_reported":1690563902,"current_range_meters":11600,"station_id":"ce4bgpp2rcd13ifvqc3g","pricing_plan_id":"free"},{"bike_id":"c1f7dae9-45f7-463b-bda0-43975443dee0","system_id":"levelo_inurba_marseille","lat":43.298433,"lon":5.362774,"is_reserved":false,"is_disabled":false,"rental_uris":{"android":"levelo://app?vid=c1f7dae9-45f7-463b-bda0-43975443dee0","ios":"levelo://app?vid=c1f7dae9-45f7-463b-bda0-43975443dee0"},"vehicle_type_id":"4","last_reported":1690563902,"current_range_meters":16000,"station_id":"ce4bgpp2rcd13ifvqc3g","pricing_plan_id":"free"},{"bike_id":"ce9c0fe4-a799-4d49-a3f4-0c907533a465","system_id":"levelo_inurba_marseille","lat":43.298433,"lon":5.362774,"is_reserved":false,"is_disabled":false,"rental_uris":{"android":"levelo://app?vid=ce9c0fe4-a799-4d49-a3f4-0c907533a465","ios":"levelo://app?vid=ce9c0fe4-a799-4d49-a3f4-0c907533a465"},"vehicle_type_id":"4","last_reported":1690563902,"current_range_meters":18000,"station_id":"ce4bgpp2rcd13ifvqc3g","pricing_plan_id":"free"},{"bike_id":"30537d43-af02-4a10-b928-7b9b8cf633d2","system_id":"levelo_inurba_marseille","lat":43.30538,"lon":5.38428,"is_reserved":false,"is_disabled":false,"rental_uris":{"android":"levelo://app?vid=30537d43-af02-4a10-b928-7b9b8cf633d2","ios":"levelo://app?vid=30537d43-af02-4a10-b928-7b9b8cf633d2"},"vehicle_type_id":"4","last_reported":1690563902,"current_range_meters":30000,"station_id":"ce4bgg92rcd13ifvqb30","pricing_plan_id":"free"},{"bike_id":"a7213896-bef4-490f-98f0-babfcf872376","system_id":"levelo_inurba_marseille","lat":43.305396,"lon":5.384309,"is_reserved":false,"is_disabled":false,"rental_uris":{"android":"levelo://app?vid=a7213896-bef4-490f-98f0-babfcf872376","ios":"levelo://app?vid=a7213896-bef4-490f-98f0-babfcf872376"},"vehicle_type_id":"4","last_reported":1690563902,"current_range_meters":6800,"station_id":"ce4bgg92rcd13ifvqb30","pricing_plan_id":"free"},{"bike_id":"56435545-dec0-4b03-a0aa-74825673f873","system_id":"levelo_inurba_marseille","lat":43.30536,"lon":5.3843,"is_reserved":false,"is_disabled":false,"rental_uris":{"android":"levelo://app?vid=56435545-dec0-4b03-a0aa-74825673f873","ios":"levelo://app?vid=56435545-dec0-4b03-a0aa-74825673f873"},"vehicle_type_id":"4","last_reported":1690563902,"current_range_meters":22400,"station_id":"ce4bgg92rcd13ifvqb30","pricing_plan_id":"free"},{"bike_id":"f176a775-8173-4308-b754-fa003b2b3fdd","system_id":"levelo_inurba_marseille","lat":43.311722,"lon":5.387247,"is_reserved":false,"is_disabled":false,"rental_uris":{"android":"levelo://app?vid=f176a775-8173-4308-b754-fa003b2b3fdd","ios":"levelo://app?vid=f176a775-8173-4308-b754-fa003b2b3fdd"},"vehicle_type_id":"4","last_reported":1690563902,"current_range_meters":31200,"station_id":"ce4bgv12rcd13ifvqcp0","pricing_plan_id":"free"},{"bike_id":"6399b51c-5626-41fd-9820-f38d696f860b","system_id":"levelo_inurba_marseille","lat":43.311722,"lon":5.387247,"is_reserved":false,"is_disabled":false,"rental_uris":{"android":"levelo://app?vid=6399b51c-5626-41fd-9820-f38d696f860b","ios":"levelo://app?vid=6399b51c-5626-41fd-9820-f38d696f860b"},"vehicle_type_id":"4","last_reported":1690563902,"current_range_meters":30400,"station_id":"ce4bgv12rcd13ifvqcp0","pricing_plan_id":"free"},{"bike_id":"e8398ec3-0852-42c2-841e-1dab7dd7c48c","system_id":"levelo_inurba_marseille","lat":43.311722,"lon":5.387247,"is_reserved":false,"is_disabled":false,"rental_uris":{"android":"levelo://app?vid=e8398ec3-0852-42c2-841e-1dab7dd7c48c","ios":"levelo://app?vid=e8398ec3-0852-42c2-841e-1dab7dd7c48c"},"vehicle_type_id":"4","last_reported":1690563902,"current_range_meters":23200,"station_id":"ce4bgv12rcd13ifvqcp0","pricing_plan_id":"free"},{"bike_id":"fdb72c44-a4e5-4389-a0e4-b33b42db5271","system_id":"levelo_inurba_marseille","lat":43.299243,"lon":5.37481,"is_reserved":false,"is_disabled":false,"rental_uris":{"android":"levelo://app?vid=fdb72c44-a4e5-4389-a0e4-b33b42db5271","ios":"levelo://app?vid=fdb72c44-a4e5-4389-a0e4-b33b42db5271"},"vehicle_type_id":"4","last_reported":1690563902,"current_range_meters":1200,"station_id":"ce4bgjh2rcd13ifvqbg0","pricing_plan_id":"free"},{"bike_id":"e9039e1c-0a16-4517-8cfd-bb32640ca55f","system_id":"levelo_inurba_marseille","lat":43.311722,"lon":5.387247,"is_reserved":false,"is_disabled":false,"rental_uris":{"android":"levelo://app?vid=e9039e1c-0a16-4517-8cfd-bb32640ca55f","ios":"levelo://app?vid=e9039e1c-0a16-4517-8cfd-bb32640ca55f"},"vehicle_type_id":"4","last_reported":1690563902,"current_range_meters":800,"station_id":"ce4bgv12rcd13ifvqcp0","pricing_plan_id":"free"},{"bike_id":"fead3f1e-e9e6-4830-9da4-e98cba309113","system_id":"levelo_inurba_marseille","lat":43.32294,"lon":5.3825,"is_reserved":false,"is_disabled":false,"rental_uris":{"android":"levelo://app?vid=fead3f1e-e9e6-4830-9da4-e98cba309113","ios":"levelo://app?vid=fead3f1e-e9e6-4830-9da4-e98cba309113"},"vehicle_type_id":"4","last_reported":1690563902,"current_range_meters":20800,"station_id":"ce4bhr12rcd13ifvqhqg","pricing_plan_id":"free"},{"bike_id":"230255a2-19c1-4f43-985e-9f8bf39d5ec1","system_id":"levelo_inurba_marseille","lat":43.297794,"lon":5.370888,"is_reserved":false,"is_disabled":false,"rental_uris":{"android":"levelo://app?vid=230255a2-19c1-4f43-985e-9f8bf39d5ec1","ios":"levelo://app?vid=230255a2-19c1-4f43-985e-9f8bf39d5ec1"},"vehicle_type_id":"4","last_reported":1690563902,"current_range_meters":22800,"station_id":"ce4bgop2rcd13ifvqc1g","pricing_plan_id":"free"},{"bike_id":"1257422b-3072-4d83-9b87-25dd517e2035","system_id":"levelo_inurba_marseille","lat":43.29776,"lon":5.37111,"is_reserved":false,"is_disabled":false,"rental_uris":{"android":"levelo://app?vid=1257422b-3072-4d83-9b87-25dd517e2035","ios":"levelo://app?vid=1257422b-3072-4d83-9b87-25dd517e2035"},"vehicle_type_id":"4","last_reported":1690563902,"current_range_meters":20000,"station_id":"","pricing_plan_id":"free"},{"bike_id":"a196dbb0-0ca2-44b0-8b03-b7d3a734d20c","system_id":"levelo_inurba_marseille","lat":43.32294,"lon":5.38269,"is_reserved":false,"is_disabled":false,"rental_uris":{"android":"levelo://app?vid=a196dbb0-0ca2-44b0-8b03-b7d3a734d20c","ios":"levelo://app?vid=a196dbb0-0ca2-44b0-8b03-b7d3a734d20c"},"vehicle_type_id":"4","last_reported":1690563902,"current_range_meters":31200,"station_id":"ce4bhr12rcd13ifvqhqg","pricing_plan_id":"free"},{"bike_id":"82f1e03d-e4c3-4aac-b6f0-c9fc3950fe62","system_id":"levelo_inurba_marseille","lat":43.322929,"lon":5.382715,"is_reserved":false,"is_disabled":false,"rental_uris":{"android":"levelo://app?vid=82f1e03d-e4c3-4aac-b6f0-c9fc3950fe62","ios":"levelo://app?vid=82f1e03d-e4c3-4aac-b6f0-c9fc3950fe62"},"vehicle_type_id":"4","last_reported":1690563902,"current_range_meters":28400,"station_id":"","pricing_plan_id":"free"},{"bike_id":"d6a0fed4-cb78-4fef-8536-2b5612ab4427","system_id":"levelo_inurba_marseille","lat":43.32351,"lon":5.38201,"is_reserved":false,"is_disabled":false,"rental_uris":{"android":"levelo://app?vid=d6a0fed4-cb78-4fef-8536-2b5612ab4427","ios":"levelo://app?vid=d6a0fed4-cb78-4fef-8536-2b5612ab4427"},"vehicle_type_id":"4","last_reported":1690563902,"current_range_meters":11200,"station_id":"","pricing_plan_id":"free"},{"bike_id":"3641a761-0636-4e0b-b047-72e86565129d","system_id":"levelo_inurba_marseille","lat":43.32285,"lon":5.38286,"is_reserved":false,"is_disabled":false,"rental_uris":{"android":"levelo://app?vid=3641a761-0636-4e0b-b047-72e86565129d","ios":"levelo://app?vid=3641a761-0636-4e0b-b047-72e86565129d"},"vehicle_type_id":"4","last_reported":1690563902,"current_range_meters":31200,"station_id":"ce4bhr12rcd13ifvqhqg","pricing_plan_id":"free"},{"bike_id":"79bf6da4-5f08-488b-96b1-6e23f74ec5ec","system_id":"levelo_inurba_marseille","lat":43.32286,"lon":5.38289,"is_reserved":false,"is_disabled":false,"rental_uris":{"android":"levelo://app?vid=79bf6da4-5f08-488b-96b1-6e23f74ec5ec","ios":"levelo://app?vid=79bf6da4-5f08-488b-96b1-6e23f74ec5ec"},"vehicle_type_id":"4","last_reported":1690563902,"current_range_meters":19600,"station_id":"ce4bhr12rcd13ifvqhqg","pricing_plan_id":"free"},{"bike_id":"4ee06baa-8479-4dfa-adf9-cd0cbf5fdf9d","system_id":"levelo_inurba_marseille","lat":43.32823,"lon":5.3669,"is_reserved":false,"is_disabled":false,"rental_uris":{"android":"levelo://app?vid=4ee06baa-8479-4dfa-adf9-cd0cbf5fdf9d","ios":"levelo://app?vid=4ee06baa-8479-4dfa-adf9-cd0cbf5fdf9d"},"vehicle_type_id":"4","last_reported":1690563902,"current_range_meters":2400,"station_id":"ce4bhs92rcd13ifvqi0g","pricing_plan_id":"free"},{"bike_id":"25ade45d-b420-4f6e-9a61-a6fb26eedcd0","system_id":"levelo_inurba_marseille","lat":43.32827,"lon":5.36691,"is_reserved":false,"is_disabled":false,"rental_uris":{"android":"levelo://app?vid=25ade45d-b420-4f6e-9a61-a6fb26eedcd0","ios":"levelo://app?vid=25ade45d-b420-4f6e-9a61-a6fb26eedcd0"},"vehicle_type_id":"4","last_reported":1690563902,"current_range_meters":0,"station_id":"ce4bhs92rcd13ifvqi0g","pricing_plan_id":"free"},{"bike_id":"e62bfda9-bcf2-4c89-a45d-d60de6ef64d4","system_id":"levelo_inurba_marseille","lat":43.32829,"lon":5.36691,"is_reserved":false,"is_disabled":false,"rental_uris":{"android":"levelo://app?vid=e62bfda9-bcf2-4c89-a45d-d60de6ef64d4","ios":"levelo://app?vid=e62bfda9-bcf2-4c89-a45d-d60de6ef64d4"},"vehicle_type_id":"4","last_reported":1690563902,"current_range_meters":4800,"station_id":"ce4bhs92rcd13ifvqi0g","pricing_plan_id":"free"},{"bike_id":"dd789220-e7b5-42c1-b9dc-dc4243148021","system_id":"levelo_inurba_marseille","lat":43.297163,"lon":5.365866,"is_reserved":false,"is_disabled":false,"rental_uris":{"android":"levelo://app?vid=dd789220-e7b5-42c1-b9dc-dc4243148021","ios":"levelo://app?vid=dd789220-e7b5-42c1-b9dc-dc4243148021"},"vehicle_type_id":"4","last_reported":1690563902,"current_range_meters":31200,"station_id":"ce4bgn12rcd13ifvqbt0","pricing_plan_id":"free"},{"bike_id":"c95a2fd1-76d3-4785-b662-52d3eb1cb971","system_id":"levelo_inurba_marseille","lat":43.32832,"lon":5.36687,"is_reserved":false,"is_disabled":false,"rental_uris":{"android":"levelo://app?vid=c95a2fd1-76d3-4785-b662-52d3eb1cb971","ios":"levelo://app?vid=c95a2fd1-76d3-4785-b662-52d3eb1cb971"},"vehicle_type_id":"4","last_reported":1690563902,"current_range_meters":30000,"station_id":"ce4bhs92rcd13ifvqi0g","pricing_plan_id":"free"},{"bike_id":"c74815bb-dd80-4512-b6e4-d9a568912733","system_id":"levelo_inurba_marseille","lat":43.297163,"lon":5.365866,"is_reserved":false,"is_disabled":false,"rental_uris":{"android":"levelo://app?vid=c74815bb-dd80-4512-b6e4-d9a568912733","ios":"levelo://app?vid=c74815bb-dd80-4512-b6e4-d9a568912733"},"vehicle_type_id":"4","last_reported":1690563902,"current_range_meters":1200,"station_id":"ce4bgn12rcd13ifvqbt0","pricing_plan_id":"free"},{"bike_id":"10dfaa26-ac1d-42c9-8a41-1dc69570a093","system_id":"levelo_inurba_marseille","lat":43.296131,"lon":5.370791,"is_reserved":false,"is_disabled":false,"rental_uris":{"android":"levelo://app?vid=10dfaa26-ac1d-42c9-8a41-1dc69570a093","ios":"levelo://app?vid=10dfaa26-ac1d-42c9-8a41-1dc69570a093"},"vehicle_type_id":"4","last_reported":1690563902,"current_range_meters":9600,"station_id":"ce4bgnh2rcd13ifvqc0g","pricing_plan_id":"free"},{"bike_id":"2871f18f-4994-4111-a9ac-b84b181cbd81","system_id":"levelo_inurba_marseille","lat":43.309589,"lon":5.390258,"is_reserved":false,"is_disabled":false,"rental_uris":{"android":"levelo://app?vid=2871f18f-4994-4111-a9ac-b84b181cbd81","ios":"levelo://app?vid=2871f18f-4994-4111-a9ac-b84b181cbd81"},"vehicle_type_id":"4","last_reported":1690563902,"current_range_meters":19200,"station_id":"ce4bgup2rcd13ifvqco0","pricing_plan_id":"free"},{"bike_id":"453dbf93-abaa-4efd-a4be-75df4485a012","system_id":"levelo_inurba_marseille","lat":43.309589,"lon":5.390258,"is_reserved":false,"is_disabled":false,"rental_uris":{"android":"levelo://app?vid=453dbf93-abaa-4efd-a4be-75df4485a012","ios":"levelo://app?vid=453dbf93-abaa-4efd-a4be-75df4485a012"},"vehicle_type_id":"4","last_reported":1690563902,"current_range_meters":23600,"station_id":"ce4bgup2rcd13ifvqco0","pricing_plan_id":"free"},{"bike_id":"b7bea71e-7fa3-4baa-bdfa-3aa3443a04c9","system_id":"levelo_inurba_marseille","lat":43.309589,"lon":5.390258,"is_reserved":false,"is_disabled":false,"rental_uris":{"android":"levelo://app?vid=b7bea71e-7fa3-4baa-bdfa-3aa3443a04c9","ios":"levelo://app?vid=b7bea71e-7fa3-4baa-bdfa-3aa3443a04c9"},"vehicle_type_id":"4","last_reported":1690563902,"current_range_meters":4800,"station_id":"ce4bgup2rcd13ifvqco0","pricing_plan_id":"free"},{"bike_id":"80996baf-8597-4552-b66a-a0139bedf903","system_id":"levelo_inurba_marseille","lat":43.309502,"lon":5.390365,"is_reserved":false,"is_disabled":false,"rental_uris":{"android":"levelo://app?vid=80996baf-8597-4552-b66a-a0139bedf903","ios":"levelo://app?vid=80996baf-8597-4552-b66a-a0139bedf903"},"vehicle_type_id":"4","last_reported":1690563902,"current_range_meters":5600,"station_id":"","pricing_plan_id":"free"},{"bike_id":"f0b1921d-8fc5-42f6-8214-26455e772ce5","system_id":"levelo_inurba_marseille","lat":43.309589,"lon":5.390258,"is_reserved":false,"is_disabled":false,"rental_uris":{"android":"levelo://app?vid=f0b1921d-8fc5-42f6-8214-26455e772ce5","ios":"levelo://app?vid=f0b1921d-8fc5-42f6-8214-26455e772ce5"},"vehicle_type_id":"4","last_reported":1690563902,"current_range_meters":28400,"station_id":"ce4bgup2rcd13ifvqco0","pricing_plan_id":"free"},{"bike_id":"a34957d9-ad44-4ddc-aece-d42797266a89","system_id":"levelo_inurba_marseille","lat":43.309589,"lon":5.390258,"is_reserved":false,"is_disabled":false,"rental_uris":{"android":"levelo://app?vid=a34957d9-ad44-4ddc-aece-d42797266a89","ios":"levelo://app?vid=a34957d9-ad44-4ddc-aece-d42797266a89"},"vehicle_type_id":"4","last_reported":1690563902,"current_range_meters":22800,"station_id":"ce4bgup2rcd13ifvqco0","pricing_plan_id":"free"},{"bike_id":"6e39445c-b1bb-4de7-bf03-52804997cd7b","system_id":"levelo_inurba_marseille","lat":43.317557,"lon":5.390173,"is_reserved":false,"is_disabled":false,"rental_uris":{"android":"levelo://app?vid=6e39445c-b1bb-4de7-bf03-52804997cd7b","ios":"levelo://app?vid=6e39445c-b1bb-4de7-bf03-52804997cd7b"},"vehicle_type_id":"4","last_reported":1690563902,"current_range_meters":12400,"station_id":"ce4bhqp2rcd13ifvqhng","pricing_plan_id":"free"},{"bike_id":"a0f12647-7595-4ad3-af95-b1d986330f80","system_id":"levelo_inurba_marseille","lat":43.317557,"lon":5.390173,"is_reserved":false,"is_disabled":false,"rental_uris":{"android":"levelo://app?vid=a0f12647-7595-4ad3-af95-b1d986330f80","ios":"levelo://app?vid=a0f12647-7595-4ad3-af95-b1d986330f80"},"vehicle_type_id":"4","last_reported":1690563902,"current_range_meters":23600,"station_id":"ce4bhqp2rcd13ifvqhng","pricing_plan_id":"free"},{"bike_id":"dd3ca477-5f9a-49ee-87d5-4e6b8703e878","system_id":"levelo_inurba_marseille","lat":43.317557,"lon":5.390173,"is_reserved":false,"is_disabled":false,"rental_uris":{"android":"levelo://app?vid=dd3ca477-5f9a-49ee-87d5-4e6b8703e878","ios":"levelo://app?vid=dd3ca477-5f9a-49ee-87d5-4e6b8703e878"},"vehicle_type_id":"4","last_reported":1690563902,"current_range_meters":29200,"station_id":"ce4bhqp2rcd13ifvqhng","pricing_plan_id":"free"},{"bike_id":"ba8c5288-ac58-4843-9aa2-8b55de188811","system_id":"levelo_inurba_marseille","lat":43.298037,"lon":5.381066,"is_reserved":false,"is_disabled":false,"rental_uris":{"android":"levelo://app?vid=ba8c5288-ac58-4843-9aa2-8b55de188811","ios":"levelo://app?vid=ba8c5288-ac58-4843-9aa2-8b55de188811"},"vehicle_type_id":"4","last_reported":1690563902,"current_range_meters":12000,"station_id":"ce4bgip2rcd13ifvqbb0","pricing_plan_id":"free"},{"bike_id":"68ea74c5-44fe-47f2-b72c-c1a3945e6f0f","system_id":"levelo_inurba_marseille","lat":43.298037,"lon":5.381066,"is_reserved":false,"is_disabled":false,"rental_uris":{"android":"levelo://app?vid=68ea74c5-44fe-47f2-b72c-c1a3945e6f0f","ios":"levelo://app?vid=68ea74c5-44fe-47f2-b72c-c1a3945e6f0f"},"vehicle_type_id":"4","last_reported":1690563902,"current_range_meters":16000,"station_id":"ce4bgip2rcd13ifvqbb0","pricing_plan_id":"free"},{"bike_id":"72157df5-214e-4a97-9eac-aa9798533f8b","system_id":"levelo_inurba_marseille","lat":43.295,"lon":5.36329,"is_reserved":false,"is_disabled":false,"rental_uris":{"android":"levelo://app?vid=72157df5-214e-4a97-9eac-aa9798533f8b","ios":"levelo://app?vid=72157df5-214e-4a97-9eac-aa9798533f8b"},"vehicle_type_id":"4","last_reported":1690563902,"current_range_meters":27600,"station_id":"","pricing_plan_id":"free"},{"bike_id":"57b0af19-ab6e-403a-ae7d-057a8cf5b17a","system_id":"levelo_inurba_marseille","lat":43.298037,"lon":5.381066,"is_reserved":false,"is_disabled":false,"rental_uris":{"android":"levelo://app?vid=57b0af19-ab6e-403a-ae7d-057a8cf5b17a","ios":"levelo://app?vid=57b0af19-ab6e-403a-ae7d-057a8cf5b17a"},"vehicle_type_id":"4","last_reported":1690563902,"current_range_meters":22800,"station_id":"ce4bgip2rcd13ifvqbb0","pricing_plan_id":"free"},{"bike_id":"8578e603-35c8-4503-9187-67dd1d8f95f1","system_id":"levelo_inurba_marseille","lat":43.304274,"lon":5.388873,"is_reserved":false,"is_disabled":false,"rental_uris":{"android":"levelo://app?vid=8578e603-35c8-4503-9187-67dd1d8f95f1","ios":"levelo://app?vid=8578e603-35c8-4503-9187-67dd1d8f95f1"},"vehicle_type_id":"4","last_reported":1690563902,"current_range_meters":18000,"station_id":"ce4bgk12rcd13ifvqbi0","pricing_plan_id":"free"},{"bike_id":"f78077fa-c1c2-41dd-8313-a0bc0d5bc35d","system_id":"levelo_inurba_marseille","lat":43.30431,"lon":5.3891,"is_reserved":false,"is_disabled":false,"rental_uris":{"android":"levelo://app?vid=f78077fa-c1c2-41dd-8313-a0bc0d5bc35d","ios":"levelo://app?vid=f78077fa-c1c2-41dd-8313-a0bc0d5bc35d"},"vehicle_type_id":"4","last_reported":1690563902,"current_range_meters":2400,"station_id":"ce4bgk12rcd13ifvqbi0","pricing_plan_id":"free"},{"bike_id":"3ebaa3ed-f8e1-4a5b-99dd-eb3d3697dd79","system_id":"levelo_inurba_marseille","lat":43.296277,"lon":5.377108,"is_reserved":false,"is_disabled":false,"rental_uris":{"android":"levelo://app?vid=3ebaa3ed-f8e1-4a5b-99dd-eb3d3697dd79","ios":"levelo://app?vid=3ebaa3ed-f8e1-4a5b-99dd-eb3d3697dd79"},"vehicle_type_id":"4","last_reported":1690563902,"current_range_meters":12000,"station_id":"ce4bgi92rcd13ifvqb90","pricing_plan_id":"free"},{"bike_id":"27d2d37a-8fed-4090-ae0f-bffc0fe6b898","system_id":"levelo_inurba_marseille","lat":43.295279,"lon":5.375048,"is_reserved":false,"is_disabled":false,"rental_uris":{"android":"levelo://app?vid=27d2d37a-8fed-4090-ae0f-bffc0fe6b898","ios":"levelo://app?vid=27d2d37a-8fed-4090-ae0f-bffc0fe6b898"},"vehicle_type_id":"4","last_reported":1690563902,"current_range_meters":20400,"station_id":"ce4bgkp2rcd13ifvqbmg","pricing_plan_id":"free"},{"bike_id":"d708cbcd-1727-478d-b947-9de9f0b603b5","system_id":"levelo_inurba_marseille","lat":43.299707,"lon":5.384859,"is_reserved":false,"is_disabled":false,"rental_uris":{"android":"levelo://app?vid=d708cbcd-1727-478d-b947-9de9f0b603b5","ios":"levelo://app?vid=d708cbcd-1727-478d-b947-9de9f0b603b5"},"vehicle_type_id":"4","last_reported":1690563902,"current_range_meters":25200,"station_id":"ce4bgj92rcd13ifvqbd0","pricing_plan_id":"free"},{"bike_id":"a02d06fc-0ba7-4dca-b7f4-a4379ddabdad","system_id":"levelo_inurba_marseille","lat":43.299707,"lon":5.384859,"is_reserved":false,"is_disabled":false,"rental_uris":{"android":"levelo://app?vid=a02d06fc-0ba7-4dca-b7f4-a4379ddabdad","ios":"levelo://app?vid=a02d06fc-0ba7-4dca-b7f4-a4379ddabdad"},"vehicle_type_id":"4","last_reported":1690563902,"current_range_meters":17200,"station_id":"ce4bgj92rcd13ifvqbd0","pricing_plan_id":"free"},{"bike_id":"4634e743-7833-4f32-bd96-87789af5d4e9","system_id":"levelo_inurba_marseille","lat":43.32367,"lon":5.388836,"is_reserved":false,"is_disabled":false,"rental_uris":{"android":"levelo://app?vid=4634e743-7833-4f32-bd96-87789af5d4e9","ios":"levelo://app?vid=4634e743-7833-4f32-bd96-87789af5d4e9"},"vehicle_type_id":"4","last_reported":1690563902,"current_range_meters":17200,"station_id":"ce4bhqp2rcd13ifvqhog","pricing_plan_id":"free"},{"bike_id":"e5122ef3-1138-46b4-96bb-cf4cf4126bd9","system_id":"levelo_inurba_marseille","lat":43.29308,"lon":5.37179,"is_reserved":false,"is_disabled":false,"rental_uris":{"android":"levelo://app?vid=e5122ef3-1138-46b4-96bb-cf4cf4126bd9","ios":"levelo://app?vid=e5122ef3-1138-46b4-96bb-cf4cf4126bd9"},"vehicle_type_id":"4","last_reported":1690563902,"current_range_meters":0,"station_id":"ce4bgh92rcd13ifvqb40","pricing_plan_id":"free"},{"bike_id":"1ca9d97b-d166-4d3c-87e1-ceefe401e319","system_id":"levelo_inurba_marseille","lat":43.293249,"lon":5.371578,"is_reserved":false,"is_disabled":false,"rental_uris":{"android":"levelo://app?vid=1ca9d97b-d166-4d3c-87e1-ceefe401e319","ios":"levelo://app?vid=1ca9d97b-d166-4d3c-87e1-ceefe401e319"},"vehicle_type_id":"4","last_reported":1690563902,"current_range_meters":21200,"station_id":"ce4bgh92rcd13ifvqb40","pricing_plan_id":"free"},{"bike_id":"6bc29b44-c51d-4db5-9ff2-aa121c5433dd","system_id":"levelo_inurba_marseille","lat":43.29529,"lon":5.385581,"is_reserved":false,"is_disabled":false,"rental_uris":{"android":"levelo://app?vid=6bc29b44-c51d-4db5-9ff2-aa121c5433dd","ios":"levelo://app?vid=6bc29b44-c51d-4db5-9ff2-aa121c5433dd"},"vehicle_type_id":"4","last_reported":1690563902,"current_range_meters":10800,"station_id":"ce4bgih2rcd13ifvqba0","pricing_plan_id":"free"},{"bike_id":"49c9f8d2-69f2-473e-85b1-3ae8724ceb01","system_id":"levelo_inurba_marseille","lat":43.305994,"lon":5.393687,"is_reserved":false,"is_disabled":false,"rental_uris":{"android":"levelo://app?vid=49c9f8d2-69f2-473e-85b1-3ae8724ceb01","ios":"levelo://app?vid=49c9f8d2-69f2-473e-85b1-3ae8724ceb01"},"vehicle_type_id":"4","last_reported":1690563902,"current_range_meters":14400,"station_id":"ce4bh0p2rcd13ifvqd80","pricing_plan_id":"free"},{"bike_id":"8bedf1b8-ec37-40d7-94bb-a67cbddb6fab","system_id":"levelo_inurba_marseille","lat":43.293009,"lon":5.374584,"is_reserved":false,"is_disabled":false,"rental_uris":{"android":"levelo://app?vid=8bedf1b8-ec37-40d7-94bb-a67cbddb6fab","ios":"levelo://app?vid=8bedf1b8-ec37-40d7-94bb-a67cbddb6fab"},"vehicle_type_id":"4","last_reported":1690563902,"current_range_meters":26000,"station_id":"ce4bgi12rcd13ifvqb70","pricing_plan_id":"free"},{"bike_id":"4b779e3c-8907-48f6-895a-870a2636ac4c","system_id":"levelo_inurba_marseille","lat":43.293009,"lon":5.374584,"is_reserved":false,"is_disabled":false,"rental_uris":{"android":"levelo://app?vid=4b779e3c-8907-48f6-895a-870a2636ac4c","ios":"levelo://app?vid=4b779e3c-8907-48f6-895a-870a2636ac4c"},"vehicle_type_id":"4","last_reported":1690563902,"current_range_meters":16800,"station_id":"ce4bgi12rcd13ifvqb70","pricing_plan_id":"free"},{"bike_id":"b875e679-eb92-4784-82bc-109a9461d3e9","system_id":"levelo_inurba_marseille","lat":43.298681,"lon":5.397225,"is_reserved":false,"is_disabled":false,"rental_uris":{"android":"levelo://app?vid=b875e679-eb92-4784-82bc-109a9461d3e9","ios":"levelo://app?vid=b875e679-eb92-4784-82bc-109a9461d3e9"},"vehicle_type_id":"4","last_reported":1690563902,"current_range_meters":12400,"station_id":"ce4bh0h2rcd13ifvqd50","pricing_plan_id":"free"},{"bike_id":"e1eb8ecd-9f50-49be-a429-1e82076f42fc","system_id":"levelo_inurba_marseille","lat":43.303002,"lon":5.392142,"is_reserved":false,"is_disabled":false,"rental_uris":{"android":"levelo://app?vid=e1eb8ecd-9f50-49be-a429-1e82076f42fc","ios":"levelo://app?vid=e1eb8ecd-9f50-49be-a429-1e82076f42fc"},"vehicle_type_id":"4","last_reported":1690563902,"current_range_meters":25200,"station_id":"ce4bgkh2rcd13ifvqbk0","pricing_plan_id":"free"},{"bike_id":"46d3a899-1262-4226-9400-7e177d6b6d8f","system_id":"levelo_inurba_marseille","lat":43.29272,"lon":5.35978,"is_reserved":false,"is_disabled":false,"rental_uris":{"android":"levelo://app?vid=46d3a899-1262-4226-9400-7e177d6b6d8f","ios":"levelo://app?vid=46d3a899-1262-4226-9400-7e177d6b6d8f"},"vehicle_type_id":"4","last_reported":1690563902,"current_range_meters":30800,"station_id":"","pricing_plan_id":"free"},{"bike_id":"c3d94059-8cfb-47f2-b0b8-ee3cf1681c2a","system_id":"levelo_inurba_marseille","lat":43.2936,"lon":5.37835,"is_reserved":false,"is_disabled":false,"rental_uris":{"android":"levelo://app?vid=c3d94059-8cfb-47f2-b0b8-ee3cf1681c2a","ios":"levelo://app?vid=c3d94059-8cfb-47f2-b0b8-ee3cf1681c2a"},"vehicle_type_id":"4","last_reported":1690563902,"current_range_meters":0,"station_id":"ce4bgjh2rcd13ifvqbf0","pricing_plan_id":"free"},{"bike_id":"001b760c-175e-4039-b683-316f30710742","system_id":"levelo_inurba_marseille","lat":43.303002,"lon":5.392142,"is_reserved":false,"is_disabled":false,"rental_uris":{"android":"levelo://app?vid=001b760c-175e-4039-b683-316f30710742","ios":"levelo://app?vid=001b760c-175e-4039-b683-316f30710742"},"vehicle_type_id":"4","last_reported":1690563902,"current_range_meters":1600,"station_id":"ce4bgkh2rcd13ifvqbk0","pricing_plan_id":"free"},{"bike_id":"0540fe1f-3b43-43b4-9387-d9c48869f7db","system_id":"levelo_inurba_marseille","lat":43.292311,"lon":5.360731,"is_reserved":false,"is_disabled":false,"rental_uris":{"android":"levelo://app?vid=0540fe1f-3b43-43b4-9387-d9c48869f7db","ios":"levelo://app?vid=0540fe1f-3b43-43b4-9387-d9c48869f7db"},"vehicle_type_id":"4","last_reported":1690563902,"current_range_meters":0,"station_id":"ce4bhbh2rcd13ifvqeqg","pricing_plan_id":"free"},{"bike_id":"ca376ce6-904c-4e0b-9939-c1c95423f71f","system_id":"levelo_inurba_marseille","lat":43.300852,"lon":5.390859,"is_reserved":false,"is_disabled":false,"rental_uris":{"android":"levelo://app?vid=ca376ce6-904c-4e0b-9939-c1c95423f71f","ios":"levelo://app?vid=ca376ce6-904c-4e0b-9939-c1c95423f71f"},"vehicle_type_id":"4","last_reported":1690563902,"current_range_meters":16000,"station_id":"ce4bh192rcd13ifvqdb0","pricing_plan_id":"free"},{"bike_id":"80aafe49-808c-45b6-adb3-7618ac33b986","system_id":"levelo_inurba_marseille","lat":43.30089,"lon":5.39083,"is_reserved":false,"is_disabled":false,"rental_uris":{"android":"levelo://app?vid=80aafe49-808c-45b6-adb3-7618ac33b986","ios":"levelo://app?vid=80aafe49-808c-45b6-adb3-7618ac33b986"},"vehicle_type_id":"4","last_reported":1690563902,"current_range_meters":28800,"station_id":"","pricing_plan_id":"free"},{"bike_id":"89b3d2f1-96fb-427c-8ac6-2238ed433a49","system_id":"levelo_inurba_marseille","lat":43.2922,"lon":5.3604,"is_reserved":false,"is_disabled":false,"rental_uris":{"android":"levelo://app?vid=89b3d2f1-96fb-427c-8ac6-2238ed433a49","ios":"levelo://app?vid=89b3d2f1-96fb-427c-8ac6-2238ed433a49"},"vehicle_type_id":"4","last_reported":1690563902,"current_range_meters":22400,"station_id":"","pricing_plan_id":"free"},{"bike_id":"915c6dc5-91a9-49d2-a452-a38d3f00e04a","system_id":"levelo_inurba_marseille","lat":43.298764,"lon":5.388973,"is_reserved":false,"is_disabled":false,"rental_uris":{"android":"levelo://app?vid=915c6dc5-91a9-49d2-a452-a38d3f00e04a","ios":"levelo://app?vid=915c6dc5-91a9-49d2-a452-a38d3f00e04a"},"vehicle_type_id":"4","last_reported":1690563902,"current_range_meters":21200,"station_id":"ce4bh392rcd13ifvqdl0","pricing_plan_id":"free"},{"bike_id":"de13299b-d3e1-4ee3-9a15-ba966e659a84","system_id":"levelo_inurba_marseille","lat":43.291671,"lon":5.371575,"is_reserved":false,"is_disabled":false,"rental_uris":{"android":"levelo://app?vid=de13299b-d3e1-4ee3-9a15-ba966e659a84","ios":"levelo://app?vid=de13299b-d3e1-4ee3-9a15-ba966e659a84"},"vehicle_type_id":"4","last_reported":1690563902,"current_range_meters":17200,"station_id":"ce4bha92rcd13ifvqeh0","pricing_plan_id":"free"},{"bike_id":"14918274-4207-48fd-9208-cc1107750e9e","system_id":"levelo_inurba_marseille","lat":43.3088,"lon":5.39639,"is_reserved":false,"is_disabled":false,"rental_uris":{"android":"levelo://app?vid=14918274-4207-48fd-9208-cc1107750e9e","ios":"levelo://app?vid=14918274-4207-48fd-9208-cc1107750e9e"},"vehicle_type_id":"4","last_reported":1690563902,"current_range_meters":3600,"station_id":"ce4bh012rcd13ifvqcv0","pricing_plan_id":"free"},{"bike_id":"7305f0ae-51cf-4ef4-882d-4aa18b9c8dd4","system_id":"levelo_inurba_marseille","lat":43.313291,"lon":5.396838,"is_reserved":false,"is_disabled":false,"rental_uris":{"android":"levelo://app?vid=7305f0ae-51cf-4ef4-882d-4aa18b9c8dd4","ios":"levelo://app?vid=7305f0ae-51cf-4ef4-882d-4aa18b9c8dd4"},"vehicle_type_id":"4","last_reported":1690563902,"current_range_meters":20800,"station_id":"ce4bgvp2rcd13ifvqcu0","pricing_plan_id":"free"},{"bike_id":"24a084b3-5d2c-45f5-9b22-7a82476c8a8c","system_id":"levelo_inurba_marseille","lat":43.30892,"lon":5.39651,"is_reserved":false,"is_disabled":false,"rental_uris":{"android":"levelo://app?vid=24a084b3-5d2c-45f5-9b22-7a82476c8a8c","ios":"levelo://app?vid=24a084b3-5d2c-45f5-9b22-7a82476c8a8c"},"vehicle_type_id":"4","last_reported":1690563902,"current_range_meters":23200,"station_id":"ce4bh012rcd13ifvqcv0","pricing_plan_id":"free"},{"bike_id":"79b4a8b5-9081-4e8b-b1a8-5788baeeab74","system_id":"levelo_inurba_marseille","lat":43.30885,"lon":5.3965,"is_reserved":false,"is_disabled":false,"rental_uris":{"android":"levelo://app?vid=79b4a8b5-9081-4e8b-b1a8-5788baeeab74","ios":"levelo://app?vid=79b4a8b5-9081-4e8b-b1a8-5788baeeab74"},"vehicle_type_id":"4","last_reported":1690563902,"current_range_meters":24000,"station_id":"ce4bh012rcd13ifvqcv0","pricing_plan_id":"free"},{"bike_id":"f6a17acb-156e-4304-be56-b1313a5178c0","system_id":"levelo_inurba_marseille","lat":43.313291,"lon":5.396981,"is_reserved":false,"is_disabled":false,"rental_uris":{"android":"levelo://app?vid=f6a17acb-156e-4304-be56-b1313a5178c0","ios":"levelo://app?vid=f6a17acb-156e-4304-be56-b1313a5178c0"},"vehicle_type_id":"4","last_reported":1690563902,"current_range_meters":4400,"station_id":"ce4bgvp2rcd13ifvqcu0","pricing_plan_id":"free"},{"bike_id":"595f3df9-0d2a-4250-91b9-4728978ce387","system_id":"levelo_inurba_marseille","lat":43.313291,"lon":5.396838,"is_reserved":false,"is_disabled":false,"rental_uris":{"android":"levelo://app?vid=595f3df9-0d2a-4250-91b9-4728978ce387","ios":"levelo://app?vid=595f3df9-0d2a-4250-91b9-4728978ce387"},"vehicle_type_id":"4","last_reported":1690563902,"current_range_meters":25200,"station_id":"ce4bgvp2rcd13ifvqcu0","pricing_plan_id":"free"},{"bike_id":"79ca8561-3bcd-4257-9720-d2579046e0e5","system_id":"levelo_inurba_marseille","lat":43.309038,"lon":5.396546,"is_reserved":false,"is_disabled":false,"rental_uris":{"android":"levelo://app?vid=79ca8561-3bcd-4257-9720-d2579046e0e5","ios":"levelo://app?vid=79ca8561-3bcd-4257-9720-d2579046e0e5"},"vehicle_type_id":"4","last_reported":1690563902,"current_range_meters":11200,"station_id":"ce4bh012rcd13ifvqcv0","pricing_plan_id":"free"},{"bike_id":"1d4370b1-7e2f-46fc-ba7d-7b2351601d2c","system_id":"levelo_inurba_marseille","lat":43.29529,"lon":5.385581,"is_reserved":false,"is_disabled":false,"rental_uris":{"android":"levelo://app?vid=1d4370b1-7e2f-46fc-ba7d-7b2351601d2c","ios":"levelo://app?vid=1d4370b1-7e2f-46fc-ba7d-7b2351601d2c"},"vehicle_type_id":"4","last_reported":1690563902,"current_range_meters":2800,"station_id":"ce4bgih2rcd13ifvqba0","pricing_plan_id":"free"},{"bike_id":"c1283aae-a5b2-4b88-b6f5-7d7481de71e2","system_id":"levelo_inurba_marseille","lat":43.29416,"lon":5.38316,"is_reserved":false,"is_disabled":false,"rental_uris":{"android":"levelo://app?vid=c1283aae-a5b2-4b88-b6f5-7d7481de71e2","ios":"levelo://app?vid=c1283aae-a5b2-4b88-b6f5-7d7481de71e2"},"vehicle_type_id":"4","last_reported":1690563902,"current_range_meters":13200,"station_id":"","pricing_plan_id":"free"},{"bike_id":"a3141e0b-b76e-46d8-aef9-76f1e353c4f3","system_id":"levelo_inurba_marseille","lat":43.29529,"lon":5.385581,"is_reserved":false,"is_disabled":false,"rental_uris":{"android":"levelo://app?vid=a3141e0b-b76e-46d8-aef9-76f1e353c4f3","ios":"levelo://app?vid=a3141e0b-b76e-46d8-aef9-76f1e353c4f3"},"vehicle_type_id":"4","last_reported":1690563902,"current_range_meters":25600,"station_id":"ce4bgih2rcd13ifvqba0","pricing_plan_id":"free"},{"bike_id":"8d225168-13d3-4cc5-894c-2cd1b1c0cd23","system_id":"levelo_inurba_marseille","lat":43.29529,"lon":5.385581,"is_reserved":false,"is_disabled":false,"rental_uris":{"android":"levelo://app?vid=8d225168-13d3-4cc5-894c-2cd1b1c0cd23","ios":"levelo://app?vid=8d225168-13d3-4cc5-894c-2cd1b1c0cd23"},"vehicle_type_id":"4","last_reported":1690563902,"current_range_meters":19200,"station_id":"ce4bgih2rcd13ifvqba0","pricing_plan_id":"free"},{"bike_id":"f4bd37a7-a6c3-4c30-8aa0-5046aa4a4c41","system_id":"levelo_inurba_marseille","lat":43.29529,"lon":5.385581,"is_reserved":false,"is_disabled":false,"rental_uris":{"android":"levelo://app?vid=f4bd37a7-a6c3-4c30-8aa0-5046aa4a4c41","ios":"levelo://app?vid=f4bd37a7-a6c3-4c30-8aa0-5046aa4a4c41"},"vehicle_type_id":"4","last_reported":1690563902,"current_range_meters":800,"station_id":"ce4bgih2rcd13ifvqba0","pricing_plan_id":"free"},{"bike_id":"b8d94add-858c-4d24-8db6-2371c5695625","system_id":"levelo_inurba_marseille","lat":43.289184,"lon":5.366408,"is_reserved":false,"is_disabled":false,"rental_uris":{"android":"levelo://app?vid=b8d94add-858c-4d24-8db6-2371c5695625","ios":"levelo://app?vid=b8d94add-858c-4d24-8db6-2371c5695625"},"vehicle_type_id":"4","last_reported":1690563902,"current_range_meters":18800,"station_id":"ce4bhap2rcd13ifvqek0","pricing_plan_id":"free"},{"bike_id":"248830b4-c441-4605-b1a5-59fd34b066b8","system_id":"levelo_inurba_marseille","lat":43.289184,"lon":5.366408,"is_reserved":false,"is_disabled":false,"rental_uris":{"android":"levelo://app?vid=248830b4-c441-4605-b1a5-59fd34b066b8","ios":"levelo://app?vid=248830b4-c441-4605-b1a5-59fd34b066b8"},"vehicle_type_id":"4","last_reported":1690563902,"current_range_meters":1200,"station_id":"ce4bhap2rcd13ifvqek0","pricing_plan_id":"free"},{"bike_id":"21776b16-06d3-4b10-ab88-87dd9572dde7","system_id":"levelo_inurba_marseille","lat":43.289468,"lon":5.363719,"is_reserved":false,"is_disabled":false,"rental_uris":{"android":"levelo://app?vid=21776b16-06d3-4b10-ab88-87dd9572dde7","ios":"levelo://app?vid=21776b16-06d3-4b10-ab88-87dd9572dde7"},"vehicle_type_id":"4","last_reported":1690563902,"current_range_meters":26000,"station_id":"ce4bhc92rcd13ifvqetg","pricing_plan_id":"free"},{"bike_id":"6b0fc4d8-95fb-4604-8dad-0ed2b093f129","system_id":"levelo_inurba_marseille","lat":43.28929,"lon":5.36406,"is_reserved":false,"is_disabled":false,"rental_uris":{"android":"levelo://app?vid=6b0fc4d8-95fb-4604-8dad-0ed2b093f129","ios":"levelo://app?vid=6b0fc4d8-95fb-4604-8dad-0ed2b093f129"},"vehicle_type_id":"4","last_reported":1690563902,"current_range_meters":18000,"station_id":"","pricing_plan_id":"free"},{"bike_id":"d29cf246-f764-4186-b4b4-7b5c81661a4a","system_id":"levelo_inurba_marseille","lat":43.292644,"lon":5.384257,"is_reserved":false,"is_disabled":false,"rental_uris":{"android":"levelo://app?vid=d29cf246-f764-4186-b4b4-7b5c81661a4a","ios":"levelo://app?vid=d29cf246-f764-4186-b4b4-7b5c81661a4a"},"vehicle_type_id":"4","last_reported":1690563902,"current_range_meters":1200,"station_id":"ce4bh692rcd13ifvqea0","pricing_plan_id":"free"},{"bike_id":"c51e078a-7af1-44b6-8b95-4d47dbfa3fe6","system_id":"levelo_inurba_marseille","lat":43.304296,"lon":5.397513,"is_reserved":false,"is_disabled":false,"rental_uris":{"android":"levelo://app?vid=c51e078a-7af1-44b6-8b95-4d47dbfa3fe6","ios":"levelo://app?vid=c51e078a-7af1-44b6-8b95-4d47dbfa3fe6"},"vehicle_type_id":"4","last_reported":1690563902,"current_range_meters":4000,"station_id":"ce4bh092rcd13ifvqd20","pricing_plan_id":"free"},{"bike_id":"ad8844e2-9259-47f7-8f40-fa484d6c5a98","system_id":"levelo_inurba_marseille","lat":43.292642,"lon":5.384254,"is_reserved":false,"is_disabled":false,"rental_uris":{"android":"levelo://app?vid=ad8844e2-9259-47f7-8f40-fa484d6c5a98","ios":"levelo://app?vid=ad8844e2-9259-47f7-8f40-fa484d6c5a98"},"vehicle_type_id":"4","last_reported":1690563902,"current_range_meters":8000,"station_id":"ce4bh692rcd13ifvqea0","pricing_plan_id":"free"},{"bike_id":"4f842915-f414-4451-87b9-4161a8f0688a","system_id":"levelo_inurba_marseille","lat":43.304296,"lon":5.397513,"is_reserved":false,"is_disabled":false,"rental_uris":{"android":"levelo://app?vid=4f842915-f414-4451-87b9-4161a8f0688a","ios":"levelo://app?vid=4f842915-f414-4451-87b9-4161a8f0688a"},"vehicle_type_id":"4","last_reported":1690563902,"current_range_meters":26400,"station_id":"ce4bh092rcd13ifvqd20","pricing_plan_id":"free"},{"bike_id":"5740f5dc-251a-4872-86e3-018decba1938","system_id":"levelo_inurba_marseille","lat":43.292642,"lon":5.384254,"is_reserved":false,"is_disabled":false,"rental_uris":{"android":"levelo://app?vid=5740f5dc-251a-4872-86e3-018decba1938","ios":"levelo://app?vid=5740f5dc-251a-4872-86e3-018decba1938"},"vehicle_type_id":"4","last_reported":1690563902,"current_range_meters":20400,"station_id":"ce4bh692rcd13ifvqea0","pricing_plan_id":"free"},{"bike_id":"e1abaf2d-c31c-4c12-b4ec-5dd51f9510e3","system_id":"levelo_inurba_marseille","lat":43.292644,"lon":5.384257,"is_reserved":false,"is_disabled":false,"rental_uris":{"android":"levelo://app?vid=e1abaf2d-c31c-4c12-b4ec-5dd51f9510e3","ios":"levelo://app?vid=e1abaf2d-c31c-4c12-b4ec-5dd51f9510e3"},"vehicle_type_id":"4","last_reported":1690563902,"current_range_meters":0,"station_id":"ce4bh692rcd13ifvqea0","pricing_plan_id":"free"},{"bike_id":"b232e831-da3c-41cd-86bf-0298618bd123","system_id":"levelo_inurba_marseille","lat":43.29261,"lon":5.38451,"is_reserved":false,"is_disabled":false,"rental_uris":{"android":"levelo://app?vid=b232e831-da3c-41cd-86bf-0298618bd123","ios":"levelo://app?vid=b232e831-da3c-41cd-86bf-0298618bd123"},"vehicle_type_id":"4","last_reported":1690563902,"current_range_meters":0,"station_id":"ce4bh692rcd13ifvqea0","pricing_plan_id":"free"},{"bike_id":"4e30847a-b055-4d00-b9b4-c9e042901b7e","system_id":"levelo_inurba_marseille","lat":43.33035,"lon":5.38919,"is_reserved":false,"is_disabled":false,"rental_uris":{"android":"levelo://app?vid=4e30847a-b055-4d00-b9b4-c9e042901b7e","ios":"levelo://app?vid=4e30847a-b055-4d00-b9b4-c9e042901b7e"},"vehicle_type_id":"4","last_reported":1690563902,"current_range_meters":19200,"station_id":"ce4bhr92rcd13ifvqhrg","pricing_plan_id":"free"},{"bike_id":"7c2c3720-d424-462d-971e-d3463100e661","system_id":"levelo_inurba_marseille","lat":43.33043,"lon":5.38917,"is_reserved":false,"is_disabled":false,"rental_uris":{"android":"levelo://app?vid=7c2c3720-d424-462d-971e-d3463100e661","ios":"levelo://app?vid=7c2c3720-d424-462d-971e-d3463100e661"},"vehicle_type_id":"4","last_reported":1690563902,"current_range_meters":1600,"station_id":"ce4bhr92rcd13ifvqhrg","pricing_plan_id":"free"},{"bike_id":"3ad392a5-8356-4057-aa0f-a21c95d4dadd","system_id":"levelo_inurba_marseille","lat":43.33043,"lon":5.38919,"is_reserved":false,"is_disabled":false,"rental_uris":{"android":"levelo://app?vid=3ad392a5-8356-4057-aa0f-a21c95d4dadd","ios":"levelo://app?vid=3ad392a5-8356-4057-aa0f-a21c95d4dadd"},"vehicle_type_id":"4","last_reported":1690563902,"current_range_meters":29200,"station_id":"ce4bhr92rcd13ifvqhrg","pricing_plan_id":"free"},{"bike_id":"2c914af5-3f76-4c26-ae2e-a98cca55902c","system_id":"levelo_inurba_marseille","lat":43.33043,"lon":5.38919,"is_reserved":false,"is_disabled":false,"rental_uris":{"android":"levelo://app?vid=2c914af5-3f76-4c26-ae2e-a98cca55902c","ios":"levelo://app?vid=2c914af5-3f76-4c26-ae2e-a98cca55902c"},"vehicle_type_id":"4","last_reported":1690563902,"current_range_meters":30400,"station_id":"ce4bhr92rcd13ifvqhrg","pricing_plan_id":"free"},{"bike_id":"f56db9a8-b4b7-4400-bf17-8a65adc21520","system_id":"levelo_inurba_marseille","lat":43.33045,"lon":5.38916,"is_reserved":false,"is_disabled":false,"rental_uris":{"android":"levelo://app?vid=f56db9a8-b4b7-4400-bf17-8a65adc21520","ios":"levelo://app?vid=f56db9a8-b4b7-4400-bf17-8a65adc21520"},"vehicle_type_id":"4","last_reported":1690563902,"current_range_meters":26000,"station_id":"ce4bhr92rcd13ifvqhrg","pricing_plan_id":"free"},{"bike_id":"e6a5b640-997d-4921-9034-12f6d3ba15ff","system_id":"levelo_inurba_marseille","lat":43.290103,"lon":5.356114,"is_reserved":false,"is_disabled":false,"rental_uris":{"android":"levelo://app?vid=e6a5b640-997d-4921-9034-12f6d3ba15ff","ios":"levelo://app?vid=e6a5b640-997d-4921-9034-12f6d3ba15ff"},"vehicle_type_id":"4","last_reported":1690563902,"current_range_meters":6800,"station_id":"ce4bhb92rcd13ifvqen0","pricing_plan_id":"free"},{"bike_id":"86f7e702-5a91-4401-ab78-a4b2963e3f33","system_id":"levelo_inurba_marseille","lat":43.33047,"lon":5.38915,"is_reserved":false,"is_disabled":false,"rental_uris":{"android":"levelo://app?vid=86f7e702-5a91-4401-ab78-a4b2963e3f33","ios":"levelo://app?vid=86f7e702-5a91-4401-ab78-a4b2963e3f33"},"vehicle_type_id":"4","last_reported":1690563902,"current_range_meters":800,"station_id":"ce4bhr92rcd13ifvqhrg","pricing_plan_id":"free"},{"bike_id":"75827c4c-f9ce-41ed-b329-7460cd2f8db0","system_id":"levelo_inurba_marseille","lat":43.33043,"lon":5.38922,"is_reserved":false,"is_disabled":false,"rental_uris":{"android":"levelo://app?vid=75827c4c-f9ce-41ed-b329-7460cd2f8db0","ios":"levelo://app?vid=75827c4c-f9ce-41ed-b329-7460cd2f8db0"},"vehicle_type_id":"4","last_reported":1690563902,"current_range_meters":20000,"station_id":"ce4bhr92rcd13ifvqhrg","pricing_plan_id":"free"},{"bike_id":"1152e93c-a2c1-4385-9a03-5f6e2ea1bf15","system_id":"levelo_inurba_marseille","lat":43.330446,"lon":5.3892,"is_reserved":false,"is_disabled":false,"rental_uris":{"android":"levelo://app?vid=1152e93c-a2c1-4385-9a03-5f6e2ea1bf15","ios":"levelo://app?vid=1152e93c-a2c1-4385-9a03-5f6e2ea1bf15"},"vehicle_type_id":"4","last_reported":1690563902,"current_range_meters":0,"station_id":"ce4bhr92rcd13ifvqhrg","pricing_plan_id":"free"},{"bike_id":"51ceaf4e-dad2-418b-a676-c4296d5d3490","system_id":"levelo_inurba_marseille","lat":43.33046,"lon":5.38919,"is_reserved":false,"is_disabled":false,"rental_uris":{"android":"levelo://app?vid=51ceaf4e-dad2-418b-a676-c4296d5d3490","ios":"levelo://app?vid=51ceaf4e-dad2-418b-a676-c4296d5d3490"},"vehicle_type_id":"4","last_reported":1690563902,"current_range_meters":6400,"station_id":"ce4bhr92rcd13ifvqhrg","pricing_plan_id":"free"},{"bike_id":"3da59d48-7042-4d25-8bf6-d920347c6b30","system_id":"levelo_inurba_marseille","lat":43.290103,"lon":5.356114,"is_reserved":false,"is_disabled":false,"rental_uris":{"android":"levelo://app?vid=3da59d48-7042-4d25-8bf6-d920347c6b30","ios":"levelo://app?vid=3da59d48-7042-4d25-8bf6-d920347c6b30"},"vehicle_type_id":"4","last_reported":1690563902,"current_range_meters":26400,"station_id":"ce4bhb92rcd13ifvqen0","pricing_plan_id":"free"},{"bike_id":"ab95b2e6-22f2-4ad5-841e-8c71beb449a0","system_id":"levelo_inurba_marseille","lat":43.290104,"lon":5.356111,"is_reserved":false,"is_disabled":false,"rental_uris":{"android":"levelo://app?vid=ab95b2e6-22f2-4ad5-841e-8c71beb449a0","ios":"levelo://app?vid=ab95b2e6-22f2-4ad5-841e-8c71beb449a0"},"vehicle_type_id":"4","last_reported":1690563902,"current_range_meters":28800,"station_id":"ce4bhb92rcd13ifvqen0","pricing_plan_id":"free"},{"bike_id":"91fec792-a5a5-4820-af7d-3c6be3109af2","system_id":"levelo_inurba_marseille","lat":43.28998,"lon":5.35616,"is_reserved":false,"is_disabled":false,"rental_uris":{"android":"levelo://app?vid=91fec792-a5a5-4820-af7d-3c6be3109af2","ios":"levelo://app?vid=91fec792-a5a5-4820-af7d-3c6be3109af2"},"vehicle_type_id":"4","last_reported":1690563902,"current_range_meters":29600,"station_id":"ce4bhb92rcd13ifvqen0","pricing_plan_id":"free"},{"bike_id":"99cf52cf-965c-4e38-8d6f-be4e8e4afdbb","system_id":"levelo_inurba_marseille","lat":43.295169,"lon":5.390426,"is_reserved":false,"is_disabled":false,"rental_uris":{"android":"levelo://app?vid=99cf52cf-965c-4e38-8d6f-be4e8e4afdbb","ios":"levelo://app?vid=99cf52cf-965c-4e38-8d6f-be4e8e4afdbb"},"vehicle_type_id":"4","last_reported":1690563902,"current_range_meters":20000,"station_id":"ce4bh3p2rcd13ifvqdp0","pricing_plan_id":"free"},{"bike_id":"f19a2d0a-5c67-463f-b7dd-4dd0ae858755","system_id":"levelo_inurba_marseille","lat":43.286591,"lon":5.363346,"is_reserved":false,"is_disabled":false,"rental_uris":{"android":"levelo://app?vid=f19a2d0a-5c67-463f-b7dd-4dd0ae858755","ios":"levelo://app?vid=f19a2d0a-5c67-463f-b7dd-4dd0ae858755"},"vehicle_type_id":"4","last_reported":1690563902,"current_range_meters":11200,"station_id":"ce4bhah2rcd13ifvqej0","pricing_plan_id":"free"},{"bike_id":"0af32868-d5a5-4441-ab9f-f8efffcba1f6","system_id":"levelo_inurba_marseille","lat":43.28858,"lon":5.35869,"is_reserved":false,"is_disabled":false,"rental_uris":{"android":"levelo://app?vid=0af32868-d5a5-4441-ab9f-f8efffcba1f6","ios":"levelo://app?vid=0af32868-d5a5-4441-ab9f-f8efffcba1f6"},"vehicle_type_id":"4","last_reported":1690563902,"current_range_meters":11600,"station_id":"ce4bhb12rcd13ifvqem0","pricing_plan_id":"free"},{"bike_id":"a0d5f7b0-7eac-400e-9262-579c4bba156e","system_id":"levelo_inurba_marseille","lat":43.28856,"lon":5.358371,"is_reserved":false,"is_disabled":false,"rental_uris":{"android":"levelo://app?vid=a0d5f7b0-7eac-400e-9262-579c4bba156e","ios":"levelo://app?vid=a0d5f7b0-7eac-400e-9262-579c4bba156e"},"vehicle_type_id":"4","last_reported":1690563902,"current_range_meters":6000,"station_id":"ce4bhb12rcd13ifvqem0","pricing_plan_id":"free"},{"bike_id":"96bd0e0a-171c-496a-b39d-561b3aaae061","system_id":"levelo_inurba_marseille","lat":43.28856,"lon":5.358371,"is_reserved":false,"is_disabled":false,"rental_uris":{"android":"levelo://app?vid=96bd0e0a-171c-496a-b39d-561b3aaae061","ios":"levelo://app?vid=96bd0e0a-171c-496a-b39d-561b3aaae061"},"vehicle_type_id":"4","last_reported":1690563902,"current_range_meters":800,"station_id":"ce4bhb12rcd13ifvqem0","pricing_plan_id":"free"},{"bike_id":"17055b74-39cc-41f3-ad85-3143304cb815","system_id":"levelo_inurba_marseille","lat":43.28856,"lon":5.358371,"is_reserved":false,"is_disabled":false,"rental_uris":{"android":"levelo://app?vid=17055b74-39cc-41f3-ad85-3143304cb815","ios":"levelo://app?vid=17055b74-39cc-41f3-ad85-3143304cb815"},"vehicle_type_id":"4","last_reported":1690563902,"current_range_meters":9200,"station_id":"ce4bhb12rcd13ifvqem0","pricing_plan_id":"free"},{"bike_id":"03d3a26e-e6bc-4ca7-a39c-af46aabc529f","system_id":"levelo_inurba_marseille","lat":43.31269,"lon":5.40166,"is_reserved":false,"is_disabled":false,"rental_uris":{"android":"levelo://app?vid=03d3a26e-e6bc-4ca7-a39c-af46aabc529f","ios":"levelo://app?vid=03d3a26e-e6bc-4ca7-a39c-af46aabc529f"},"vehicle_type_id":"4","last_reported":1690563902,"current_range_meters":19200,"station_id":"ce4bh092rcd13ifvqd30","pricing_plan_id":"free"},{"bike_id":"e702046f-51fd-46ae-a85b-22eb26b4607d","system_id":"levelo_inurba_marseille","lat":43.31276,"lon":5.40169,"is_reserved":false,"is_disabled":false,"rental_uris":{"android":"levelo://app?vid=e702046f-51fd-46ae-a85b-22eb26b4607d","ios":"levelo://app?vid=e702046f-51fd-46ae-a85b-22eb26b4607d"},"vehicle_type_id":"4","last_reported":1690563902,"current_range_meters":25200,"station_id":"ce4bh092rcd13ifvqd30","pricing_plan_id":"free"},{"bike_id":"b0e02498-09cb-43a9-957e-45f4ad80126d","system_id":"levelo_inurba_marseille","lat":43.31269,"lon":5.40169,"is_reserved":false,"is_disabled":false,"rental_uris":{"android":"levelo://app?vid=b0e02498-09cb-43a9-957e-45f4ad80126d","ios":"levelo://app?vid=b0e02498-09cb-43a9-957e-45f4ad80126d"},"vehicle_type_id":"4","last_reported":1690563902,"current_range_meters":15200,"station_id":"ce4bh092rcd13ifvqd30","pricing_plan_id":"free"},{"bike_id":"e3afe929-0bf8-4f43-838e-ce427d0f5351","system_id":"levelo_inurba_marseille","lat":43.30935,"lon":5.40138,"is_reserved":false,"is_disabled":false,"rental_uris":{"android":"levelo://app?vid=e3afe929-0bf8-4f43-838e-ce427d0f5351","ios":"levelo://app?vid=e3afe929-0bf8-4f43-838e-ce427d0f5351"},"vehicle_type_id":"4","last_reported":1690563902,"current_range_meters":4800,"station_id":"ce4bgvp2rcd13ifvqct0","pricing_plan_id":"free"},{"bike_id":"44ce7ae3-ce0c-4639-98ff-edfa252071ef","system_id":"levelo_inurba_marseille","lat":43.31264,"lon":5.4017,"is_reserved":false,"is_disabled":false,"rental_uris":{"android":"levelo://app?vid=44ce7ae3-ce0c-4639-98ff-edfa252071ef","ios":"levelo://app?vid=44ce7ae3-ce0c-4639-98ff-edfa252071ef"},"vehicle_type_id":"4","last_reported":1690563902,"current_range_meters":23200,"station_id":"ce4bh092rcd13ifvqd30","pricing_plan_id":"free"},{"bike_id":"e9b595cf-3ff6-46a0-84f5-a6e3f6f0624c","system_id":"levelo_inurba_marseille","lat":43.309354,"lon":5.401389,"is_reserved":false,"is_disabled":false,"rental_uris":{"android":"levelo://app?vid=e9b595cf-3ff6-46a0-84f5-a6e3f6f0624c","ios":"levelo://app?vid=e9b595cf-3ff6-46a0-84f5-a6e3f6f0624c"},"vehicle_type_id":"4","last_reported":1690563902,"current_range_meters":2800,"station_id":"ce4bgvp2rcd13ifvqct0","pricing_plan_id":"free"},{"bike_id":"4377c084-fb78-4f94-aa74-cbf6cee938ee","system_id":"levelo_inurba_marseille","lat":43.31269,"lon":5.40172,"is_reserved":false,"is_disabled":false,"rental_uris":{"android":"levelo://app?vid=4377c084-fb78-4f94-aa74-cbf6cee938ee","ios":"levelo://app?vid=4377c084-fb78-4f94-aa74-cbf6cee938ee"},"vehicle_type_id":"4","last_reported":1690563902,"current_range_meters":20400,"station_id":"ce4bh092rcd13ifvqd30","pricing_plan_id":"free"},{"bike_id":"5990b9b6-3cc1-48fc-ac9f-6b8217fe5040","system_id":"levelo_inurba_marseille","lat":43.309371,"lon":5.401449,"is_reserved":false,"is_disabled":false,"rental_uris":{"android":"levelo://app?vid=5990b9b6-3cc1-48fc-ac9f-6b8217fe5040","ios":"levelo://app?vid=5990b9b6-3cc1-48fc-ac9f-6b8217fe5040"},"vehicle_type_id":"4","last_reported":1690563902,"current_range_meters":4400,"station_id":"ce4bgvp2rcd13ifvqct0","pricing_plan_id":"free"},{"bike_id":"cc381cae-48e1-43d1-a3ca-9c32b4726a9d","system_id":"levelo_inurba_marseille","lat":43.31276,"lon":5.40175,"is_reserved":false,"is_disabled":false,"rental_uris":{"android":"levelo://app?vid=cc381cae-48e1-43d1-a3ca-9c32b4726a9d","ios":"levelo://app?vid=cc381cae-48e1-43d1-a3ca-9c32b4726a9d"},"vehicle_type_id":"4","last_reported":1690563902,"current_range_meters":1600,"station_id":"ce4bh092rcd13ifvqd30","pricing_plan_id":"free"},{"bike_id":"b2d2b287-7b3f-4477-b36d-8313e8877366","system_id":"levelo_inurba_marseille","lat":43.309371,"lon":5.401449,"is_reserved":false,"is_disabled":false,"rental_uris":{"android":"levelo://app?vid=b2d2b287-7b3f-4477-b36d-8313e8877366","ios":"levelo://app?vid=b2d2b287-7b3f-4477-b36d-8313e8877366"},"vehicle_type_id":"4","last_reported":1690563902,"current_range_meters":6400,"station_id":"ce4bgvp2rcd13ifvqct0","pricing_plan_id":"free"},{"bike_id":"3197f34f-3e73-4230-9935-9d4d2a0d2440","system_id":"levelo_inurba_marseille","lat":43.309371,"lon":5.401449,"is_reserved":false,"is_disabled":false,"rental_uris":{"android":"levelo://app?vid=3197f34f-3e73-4230-9935-9d4d2a0d2440","ios":"levelo://app?vid=3197f34f-3e73-4230-9935-9d4d2a0d2440"},"vehicle_type_id":"4","last_reported":1690563902,"current_range_meters":13600,"station_id":"ce4bgvp2rcd13ifvqct0","pricing_plan_id":"free"},{"bike_id":"80b5d12d-2649-4004-97ce-ee82b560ad6a","system_id":"levelo_inurba_marseille","lat":43.30155,"lon":5.39845,"is_reserved":false,"is_disabled":false,"rental_uris":{"android":"levelo://app?vid=80b5d12d-2649-4004-97ce-ee82b560ad6a","ios":"levelo://app?vid=80b5d12d-2649-4004-97ce-ee82b560ad6a"},"vehicle_type_id":"4","last_reported":1690563902,"current_range_meters":7200,"station_id":"","pricing_plan_id":"free"},{"bike_id":"bff25710-484b-432e-8788-39893de0839d","system_id":"levelo_inurba_marseille","lat":43.30641,"lon":5.40093,"is_reserved":false,"is_disabled":false,"rental_uris":{"android":"levelo://app?vid=bff25710-484b-432e-8788-39893de0839d","ios":"levelo://app?vid=bff25710-484b-432e-8788-39893de0839d"},"vehicle_type_id":"4","last_reported":1690563902,"current_range_meters":1200,"station_id":"ce4bh112rcd13ifvqda0","pricing_plan_id":"free"},{"bike_id":"5f9893a1-891f-4f75-aa42-9b0817057ea8","system_id":"levelo_inurba_marseille","lat":43.30643,"lon":5.40095,"is_reserved":false,"is_disabled":false,"rental_uris":{"android":"levelo://app?vid=5f9893a1-891f-4f75-aa42-9b0817057ea8","ios":"levelo://app?vid=5f9893a1-891f-4f75-aa42-9b0817057ea8"},"vehicle_type_id":"4","last_reported":1690563902,"current_range_meters":16800,"station_id":"ce4bh112rcd13ifvqda0","pricing_plan_id":"free"},{"bike_id":"12597217-f156-46c3-af1c-6a1b5b85382f","system_id":"levelo_inurba_marseille","lat":43.30649,"lon":5.40101,"is_reserved":false,"is_disabled":false,"rental_uris":{"android":"levelo://app?vid=12597217-f156-46c3-af1c-6a1b5b85382f","ios":"levelo://app?vid=12597217-f156-46c3-af1c-6a1b5b85382f"},"vehicle_type_id":"4","last_reported":1690563902,"current_range_meters":19200,"station_id":"ce4bh112rcd13ifvqda0","pricing_plan_id":"free"},{"bike_id":"7a0bf67b-231c-4b08-bb28-d1ac4dd9fb8a","system_id":"levelo_inurba_marseille","lat":43.301117,"lon":5.398795,"is_reserved":false,"is_disabled":false,"rental_uris":{"android":"levelo://app?vid=7a0bf67b-231c-4b08-bb28-d1ac4dd9fb8a","ios":"levelo://app?vid=7a0bf67b-231c-4b08-bb28-d1ac4dd9fb8a"},"vehicle_type_id":"4","last_reported":1690563902,"current_range_meters":4400,"station_id":"ce4bh0h2rcd13ifvqd40","pricing_plan_id":"free"},{"bike_id":"19bbade0-c9e9-41cf-9b77-ef0295f089ea","system_id":"levelo_inurba_marseille","lat":43.301117,"lon":5.398795,"is_reserved":false,"is_disabled":false,"rental_uris":{"android":"levelo://app?vid=19bbade0-c9e9-41cf-9b77-ef0295f089ea","ios":"levelo://app?vid=19bbade0-c9e9-41cf-9b77-ef0295f089ea"},"vehicle_type_id":"4","last_reported":1690563902,"current_range_meters":24800,"station_id":"ce4bh0h2rcd13ifvqd40","pricing_plan_id":"free"},{"bike_id":"4594d5a0-6229-40e5-8b27-ccc31cc01f20","system_id":"levelo_inurba_marseille","lat":43.301117,"lon":5.398795,"is_reserved":false,"is_disabled":false,"rental_uris":{"android":"levelo://app?vid=4594d5a0-6229-40e5-8b27-ccc31cc01f20","ios":"levelo://app?vid=4594d5a0-6229-40e5-8b27-ccc31cc01f20"},"vehicle_type_id":"4","last_reported":1690563902,"current_range_meters":19600,"station_id":"ce4bh0h2rcd13ifvqd40","pricing_plan_id":"free"},{"bike_id":"61479241-ce42-4b29-805a-0847cfb3c6ee","system_id":"levelo_inurba_marseille","lat":43.301325,"lon":5.398567,"is_reserved":false,"is_disabled":false,"rental_uris":{"android":"levelo://app?vid=61479241-ce42-4b29-805a-0847cfb3c6ee","ios":"levelo://app?vid=61479241-ce42-4b29-805a-0847cfb3c6ee"},"vehicle_type_id":"4","last_reported":1690563902,"current_range_meters":11600,"station_id":"","pricing_plan_id":"free"},{"bike_id":"32c3ef77-5376-4f98-bf7a-0902c25b8fc4","system_id":"levelo_inurba_marseille","lat":43.301117,"lon":5.398795,"is_reserved":false,"is_disabled":false,"rental_uris":{"android":"levelo://app?vid=32c3ef77-5376-4f98-bf7a-0902c25b8fc4","ios":"levelo://app?vid=32c3ef77-5376-4f98-bf7a-0902c25b8fc4"},"vehicle_type_id":"4","last_reported":1690563902,"current_range_meters":14000,"station_id":"ce4bh0h2rcd13ifvqd40","pricing_plan_id":"free"},{"bike_id":"c97e4dcb-aaf1-42d6-a29d-46b4472f299a","system_id":"levelo_inurba_marseille","lat":43.301117,"lon":5.398795,"is_reserved":false,"is_disabled":false,"rental_uris":{"android":"levelo://app?vid=c97e4dcb-aaf1-42d6-a29d-46b4472f299a","ios":"levelo://app?vid=c97e4dcb-aaf1-42d6-a29d-46b4472f299a"},"vehicle_type_id":"4","last_reported":1690563902,"current_range_meters":24400,"station_id":"ce4bh0h2rcd13ifvqd40","pricing_plan_id":"free"},{"bike_id":"16e339b6-73f8-434a-a1c2-4068a1f4f25e","system_id":"levelo_inurba_marseille","lat":43.301117,"lon":5.398795,"is_reserved":false,"is_disabled":false,"rental_uris":{"android":"levelo://app?vid=16e339b6-73f8-434a-a1c2-4068a1f4f25e","ios":"levelo://app?vid=16e339b6-73f8-434a-a1c2-4068a1f4f25e"},"vehicle_type_id":"4","last_reported":1690563902,"current_range_meters":16000,"station_id":"ce4bh0h2rcd13ifvqd40","pricing_plan_id":"free"},{"bike_id":"1b686c31-19d3-4e1b-9d12-a092c64cc5b4","system_id":"levelo_inurba_marseille","lat":43.301117,"lon":5.398795,"is_reserved":false,"is_disabled":false,"rental_uris":{"android":"levelo://app?vid=1b686c31-19d3-4e1b-9d12-a092c64cc5b4","ios":"levelo://app?vid=1b686c31-19d3-4e1b-9d12-a092c64cc5b4"},"vehicle_type_id":"4","last_reported":1690563902,"current_range_meters":26400,"station_id":"ce4bh0h2rcd13ifvqd40","pricing_plan_id":"free"},{"bike_id":"e140594d-9c4a-4b3a-ad56-b720c2902d45","system_id":"levelo_inurba_marseille","lat":43.30135,"lon":5.39876,"is_reserved":false,"is_disabled":false,"rental_uris":{"android":"levelo://app?vid=e140594d-9c4a-4b3a-ad56-b720c2902d45","ios":"levelo://app?vid=e140594d-9c4a-4b3a-ad56-b720c2902d45"},"vehicle_type_id":"4","last_reported":1690563902,"current_range_meters":30000,"station_id":"ce4bh0h2rcd13ifvqd40","pricing_plan_id":"free"},{"bike_id":"906d3d36-614f-4146-8da4-4526bb9bd655","system_id":"levelo_inurba_marseille","lat":43.301117,"lon":5.398795,"is_reserved":false,"is_disabled":false,"rental_uris":{"android":"levelo://app?vid=906d3d36-614f-4146-8da4-4526bb9bd655","ios":"levelo://app?vid=906d3d36-614f-4146-8da4-4526bb9bd655"},"vehicle_type_id":"4","last_reported":1690563902,"current_range_meters":23600,"station_id":"ce4bh0h2rcd13ifvqd40","pricing_plan_id":"free"},{"bike_id":"45745153-1715-4526-a0d3-5ff090f4a975","system_id":"levelo_inurba_marseille","lat":43.298681,"lon":5.397225,"is_reserved":false,"is_disabled":false,"rental_uris":{"android":"levelo://app?vid=45745153-1715-4526-a0d3-5ff090f4a975","ios":"levelo://app?vid=45745153-1715-4526-a0d3-5ff090f4a975"},"vehicle_type_id":"4","last_reported":1690563902,"current_range_meters":6400,"station_id":"ce4bh0h2rcd13ifvqd50","pricing_plan_id":"free"},{"bike_id":"99f3325c-a004-436b-9b48-8cd5cc5ef637","system_id":"levelo_inurba_marseille","lat":43.286591,"lon":5.363346,"is_reserved":false,"is_disabled":false,"rental_uris":{"android":"levelo://app?vid=99f3325c-a004-436b-9b48-8cd5cc5ef637","ios":"levelo://app?vid=99f3325c-a004-436b-9b48-8cd5cc5ef637"},"vehicle_type_id":"4","last_reported":1690563902,"current_range_meters":23600,"station_id":"ce4bhah2rcd13ifvqej0","pricing_plan_id":"free"},{"bike_id":"81602a2c-5626-48bd-adb4-a353909ffca8","system_id":"levelo_inurba_marseille","lat":43.286591,"lon":5.363346,"is_reserved":false,"is_disabled":false,"rental_uris":{"android":"levelo://app?vid=81602a2c-5626-48bd-adb4-a353909ffca8","ios":"levelo://app?vid=81602a2c-5626-48bd-adb4-a353909ffca8"},"vehicle_type_id":"4","last_reported":1690563902,"current_range_meters":11600,"station_id":"ce4bhah2rcd13ifvqej0","pricing_plan_id":"free"},{"bike_id":"a035e579-dadd-46bd-b134-ba11d3ea566f","system_id":"levelo_inurba_marseille","lat":43.298681,"lon":5.397225,"is_reserved":false,"is_disabled":false,"rental_uris":{"android":"levelo://app?vid=a035e579-dadd-46bd-b134-ba11d3ea566f","ios":"levelo://app?vid=a035e579-dadd-46bd-b134-ba11d3ea566f"},"vehicle_type_id":"4","last_reported":1690563902,"current_range_meters":12000,"station_id":"ce4bh0h2rcd13ifvqd50","pricing_plan_id":"free"},{"bike_id":"6325d918-2479-4ab5-b45a-857ea251aeae","system_id":"levelo_inurba_marseille","lat":43.286591,"lon":5.363346,"is_reserved":false,"is_disabled":false,"rental_uris":{"android":"levelo://app?vid=6325d918-2479-4ab5-b45a-857ea251aeae","ios":"levelo://app?vid=6325d918-2479-4ab5-b45a-857ea251aeae"},"vehicle_type_id":"4","last_reported":1690563902,"current_range_meters":5600,"station_id":"ce4bhah2rcd13ifvqej0","pricing_plan_id":"free"},{"bike_id":"3ac3273e-37e4-4714-bc0d-64e13c3c1d7e","system_id":"levelo_inurba_marseille","lat":43.295196,"lon":5.39397,"is_reserved":false,"is_disabled":false,"rental_uris":{"android":"levelo://app?vid=3ac3273e-37e4-4714-bc0d-64e13c3c1d7e","ios":"levelo://app?vid=3ac3273e-37e4-4714-bc0d-64e13c3c1d7e"},"vehicle_type_id":"4","last_reported":1690563902,"current_range_meters":12000,"station_id":"ce4bh292rcd13ifvqdf0","pricing_plan_id":"free"},{"bike_id":"994d4529-3d38-4dc1-a15d-eb774cd33b67","system_id":"levelo_inurba_marseille","lat":43.298681,"lon":5.397225,"is_reserved":false,"is_disabled":false,"rental_uris":{"android":"levelo://app?vid=994d4529-3d38-4dc1-a15d-eb774cd33b67","ios":"levelo://app?vid=994d4529-3d38-4dc1-a15d-eb774cd33b67"},"vehicle_type_id":"4","last_reported":1690563902,"current_range_meters":16800,"station_id":"ce4bh0h2rcd13ifvqd50","pricing_plan_id":"free"},{"bike_id":"92fcdae6-d686-41b8-97b5-01df11c72fe2","system_id":"levelo_inurba_marseille","lat":43.286961,"lon":5.373785,"is_reserved":false,"is_disabled":false,"rental_uris":{"android":"levelo://app?vid=92fcdae6-d686-41b8-97b5-01df11c72fe2","ios":"levelo://app?vid=92fcdae6-d686-41b8-97b5-01df11c72fe2"},"vehicle_type_id":"4","last_reported":1690563902,"current_range_meters":6400,"station_id":"ce4bh3p2rcd13ifvqdq0","pricing_plan_id":"free"},{"bike_id":"4b0e1c83-5348-4729-87eb-05359ae5cadd","system_id":"levelo_inurba_marseille","lat":43.298681,"lon":5.397225,"is_reserved":false,"is_disabled":false,"rental_uris":{"android":"levelo://app?vid=4b0e1c83-5348-4729-87eb-05359ae5cadd","ios":"levelo://app?vid=4b0e1c83-5348-4729-87eb-05359ae5cadd"},"vehicle_type_id":"4","last_reported":1690563902,"current_range_meters":10800,"station_id":"ce4bh0h2rcd13ifvqd50","pricing_plan_id":"free"},{"bike_id":"acd07d18-f17d-430a-8bc0-9f6d77f1dfad","system_id":"levelo_inurba_marseille","lat":43.298681,"lon":5.397225,"is_reserved":false,"is_disabled":false,"rental_uris":{"android":"levelo://app?vid=acd07d18-f17d-430a-8bc0-9f6d77f1dfad","ios":"levelo://app?vid=acd07d18-f17d-430a-8bc0-9f6d77f1dfad"},"vehicle_type_id":"4","last_reported":1690563902,"current_range_meters":16800,"station_id":"ce4bh0h2rcd13ifvqd50","pricing_plan_id":"free"},{"bike_id":"75199276-b705-4ad7-b6a9-49aeaa84628a","system_id":"levelo_inurba_marseille","lat":43.286591,"lon":5.363346,"is_reserved":false,"is_disabled":false,"rental_uris":{"android":"levelo://app?vid=75199276-b705-4ad7-b6a9-49aeaa84628a","ios":"levelo://app?vid=75199276-b705-4ad7-b6a9-49aeaa84628a"},"vehicle_type_id":"4","last_reported":1690563902,"current_range_meters":31200,"station_id":"ce4bhah2rcd13ifvqej0","pricing_plan_id":"free"},{"bike_id":"0a9ef07a-ad57-482a-a2af-f764d6726a95","system_id":"levelo_inurba_marseille","lat":43.295196,"lon":5.39397,"is_reserved":false,"is_disabled":false,"rental_uris":{"android":"levelo://app?vid=0a9ef07a-ad57-482a-a2af-f764d6726a95","ios":"levelo://app?vid=0a9ef07a-ad57-482a-a2af-f764d6726a95"},"vehicle_type_id":"4","last_reported":1690563902,"current_range_meters":23200,"station_id":"ce4bh292rcd13ifvqdf0","pricing_plan_id":"free"},{"bike_id":"3cd6089d-4f4b-402e-b598-efed5ff5bba2","system_id":"levelo_inurba_marseille","lat":43.298681,"lon":5.397225,"is_reserved":false,"is_disabled":false,"rental_uris":{"android":"levelo://app?vid=3cd6089d-4f4b-402e-b598-efed5ff5bba2","ios":"levelo://app?vid=3cd6089d-4f4b-402e-b598-efed5ff5bba2"},"vehicle_type_id":"4","last_reported":1690563902,"current_range_meters":28800,"station_id":"ce4bh0h2rcd13ifvqd50","pricing_plan_id":"free"},{"bike_id":"2e811edf-fe29-4560-8120-c614504d5074","system_id":"levelo_inurba_marseille","lat":43.298681,"lon":5.397225,"is_reserved":false,"is_disabled":false,"rental_uris":{"android":"levelo://app?vid=2e811edf-fe29-4560-8120-c614504d5074","ios":"levelo://app?vid=2e811edf-fe29-4560-8120-c614504d5074"},"vehicle_type_id":"4","last_reported":1690563902,"current_range_meters":20800,"station_id":"ce4bh0h2rcd13ifvqd50","pricing_plan_id":"free"},{"bike_id":"5979a26f-439d-4cfd-bbf8-040b4799d78b","system_id":"levelo_inurba_marseille","lat":43.295196,"lon":5.39397,"is_reserved":false,"is_disabled":false,"rental_uris":{"android":"levelo://app?vid=5979a26f-439d-4cfd-bbf8-040b4799d78b","ios":"levelo://app?vid=5979a26f-439d-4cfd-bbf8-040b4799d78b"},"vehicle_type_id":"4","last_reported":1690563902,"current_range_meters":8000,"station_id":"ce4bh292rcd13ifvqdf0","pricing_plan_id":"free"},{"bike_id":"4114fa3c-6529-4a61-8053-8a67cd2476cb","system_id":"levelo_inurba_marseille","lat":43.29515,"lon":5.39396,"is_reserved":false,"is_disabled":false,"rental_uris":{"android":"levelo://app?vid=4114fa3c-6529-4a61-8053-8a67cd2476cb","ios":"levelo://app?vid=4114fa3c-6529-4a61-8053-8a67cd2476cb"},"vehicle_type_id":"4","last_reported":1690563902,"current_range_meters":0,"station_id":"ce4bh292rcd13ifvqdf0","pricing_plan_id":"free"},{"bike_id":"6215266d-0188-4e97-89b0-9f546c9479f7","system_id":"levelo_inurba_marseille","lat":43.295194,"lon":5.39397,"is_reserved":false,"is_disabled":false,"rental_uris":{"android":"levelo://app?vid=6215266d-0188-4e97-89b0-9f546c9479f7","ios":"levelo://app?vid=6215266d-0188-4e97-89b0-9f546c9479f7"},"vehicle_type_id":"4","last_reported":1690563902,"current_range_meters":11200,"station_id":"ce4bh292rcd13ifvqdf0","pricing_plan_id":"free"},{"bike_id":"a9c6176e-d717-44fa-b611-a67018ca75ec","system_id":"levelo_inurba_marseille","lat":43.295194,"lon":5.39397,"is_reserved":false,"is_disabled":false,"rental_uris":{"android":"levelo://app?vid=a9c6176e-d717-44fa-b611-a67018ca75ec","ios":"levelo://app?vid=a9c6176e-d717-44fa-b611-a67018ca75ec"},"vehicle_type_id":"4","last_reported":1690563902,"current_range_meters":22800,"station_id":"ce4bh292rcd13ifvqdf0","pricing_plan_id":"free"},{"bike_id":"224d215b-1d34-4af6-afe1-0924f6c7b007","system_id":"levelo_inurba_marseille","lat":43.294314,"lon":5.397498,"is_reserved":false,"is_disabled":false,"rental_uris":{"android":"levelo://app?vid=224d215b-1d34-4af6-afe1-0924f6c7b007","ios":"levelo://app?vid=224d215b-1d34-4af6-afe1-0924f6c7b007"},"vehicle_type_id":"4","last_reported":1690563902,"current_range_meters":21200,"station_id":"ce4bh3h2rcd13ifvqdo0","pricing_plan_id":"free"},{"bike_id":"01a67974-c766-41ad-b459-7bf2ebc6b37b","system_id":"levelo_inurba_marseille","lat":43.302759,"lon":5.400793,"is_reserved":false,"is_disabled":false,"rental_uris":{"android":"levelo://app?vid=01a67974-c766-41ad-b459-7bf2ebc6b37b","ios":"levelo://app?vid=01a67974-c766-41ad-b459-7bf2ebc6b37b"},"vehicle_type_id":"4","last_reported":1690563902,"current_range_meters":30000,"station_id":"ce4bgvh2rcd13ifvqcs0","pricing_plan_id":"free"},{"bike_id":"0fc57687-0caa-49f3-bcb4-ea4cb50aa08c","system_id":"levelo_inurba_marseille","lat":43.3025,"lon":5.40069,"is_reserved":false,"is_disabled":false,"rental_uris":{"android":"levelo://app?vid=0fc57687-0caa-49f3-bcb4-ea4cb50aa08c","ios":"levelo://app?vid=0fc57687-0caa-49f3-bcb4-ea4cb50aa08c"},"vehicle_type_id":"4","last_reported":1690563902,"current_range_meters":30000,"station_id":"ce4bgvh2rcd13ifvqcs0","pricing_plan_id":"free"},{"bike_id":"f62d8c2a-2e46-456a-ab6c-a3ddf98de136","system_id":"levelo_inurba_marseille","lat":43.302759,"lon":5.400793,"is_reserved":false,"is_disabled":false,"rental_uris":{"android":"levelo://app?vid=f62d8c2a-2e46-456a-ab6c-a3ddf98de136","ios":"levelo://app?vid=f62d8c2a-2e46-456a-ab6c-a3ddf98de136"},"vehicle_type_id":"4","last_reported":1690563902,"current_range_meters":30000,"station_id":"ce4bgvh2rcd13ifvqcs0","pricing_plan_id":"free"},{"bike_id":"508b4020-9510-45a1-ba30-304f9a7481a0","system_id":"levelo_inurba_marseille","lat":43.302759,"lon":5.400793,"is_reserved":false,"is_disabled":false,"rental_uris":{"android":"levelo://app?vid=508b4020-9510-45a1-ba30-304f9a7481a0","ios":"levelo://app?vid=508b4020-9510-45a1-ba30-304f9a7481a0"},"vehicle_type_id":"4","last_reported":1690563902,"current_range_meters":18800,"station_id":"ce4bgvh2rcd13ifvqcs0","pricing_plan_id":"free"},{"bike_id":"06483b62-c68a-45ee-8c37-336560e051ef","system_id":"levelo_inurba_marseille","lat":43.286039,"lon":5.370679,"is_reserved":false,"is_disabled":false,"rental_uris":{"android":"levelo://app?vid=06483b62-c68a-45ee-8c37-336560e051ef","ios":"levelo://app?vid=06483b62-c68a-45ee-8c37-336560e051ef"},"vehicle_type_id":"4","last_reported":1690563902,"current_range_meters":11600,"station_id":"ce4bht12rcd13ifvqi60","pricing_plan_id":"free"},{"bike_id":"9e36626f-662a-4681-9ec7-bdf832cd5a6d","system_id":"levelo_inurba_marseille","lat":43.286039,"lon":5.370681,"is_reserved":false,"is_disabled":false,"rental_uris":{"android":"levelo://app?vid=9e36626f-662a-4681-9ec7-bdf832cd5a6d","ios":"levelo://app?vid=9e36626f-662a-4681-9ec7-bdf832cd5a6d"},"vehicle_type_id":"4","last_reported":1690563902,"current_range_meters":18800,"station_id":"ce4bht12rcd13ifvqi60","pricing_plan_id":"free"},{"bike_id":"f71eaa45-6a6e-422f-903a-2acdfa66e48c","system_id":"levelo_inurba_marseille","lat":43.286039,"lon":5.370679,"is_reserved":false,"is_disabled":false,"rental_uris":{"android":"levelo://app?vid=f71eaa45-6a6e-422f-903a-2acdfa66e48c","ios":"levelo://app?vid=f71eaa45-6a6e-422f-903a-2acdfa66e48c"},"vehicle_type_id":"4","last_reported":1690563902,"current_range_meters":20000,"station_id":"ce4bht12rcd13ifvqi60","pricing_plan_id":"free"},{"bike_id":"d3a45b88-c125-4894-8028-d373cb24deb3","system_id":"levelo_inurba_marseille","lat":43.286039,"lon":5.370679,"is_reserved":false,"is_disabled":false,"rental_uris":{"android":"levelo://app?vid=d3a45b88-c125-4894-8028-d373cb24deb3","ios":"levelo://app?vid=d3a45b88-c125-4894-8028-d373cb24deb3"},"vehicle_type_id":"4","last_reported":1690563902,"current_range_meters":31200,"station_id":"ce4bht12rcd13ifvqi60","pricing_plan_id":"free"},{"bike_id":"a3e5a3ac-31ef-44c9-b34b-f7b200df2c7f","system_id":"levelo_inurba_marseille","lat":43.286039,"lon":5.370679,"is_reserved":false,"is_disabled":false,"rental_uris":{"android":"levelo://app?vid=a3e5a3ac-31ef-44c9-b34b-f7b200df2c7f","ios":"levelo://app?vid=a3e5a3ac-31ef-44c9-b34b-f7b200df2c7f"},"vehicle_type_id":"4","last_reported":1690563902,"current_range_meters":4400,"station_id":"ce4bht12rcd13ifvqi60","pricing_plan_id":"free"},{"bike_id":"db1ee932-bfc7-4884-ad33-9664c2f47287","system_id":"levelo_inurba_marseille","lat":43.3165,"lon":5.4044,"is_reserved":false,"is_disabled":false,"rental_uris":{"android":"levelo://app?vid=db1ee932-bfc7-4884-ad33-9664c2f47287","ios":"levelo://app?vid=db1ee932-bfc7-4884-ad33-9664c2f47287"},"vehicle_type_id":"4","last_reported":1690563902,"current_range_meters":17600,"station_id":"ce4bh012rcd13ifvqd00","pricing_plan_id":"free"},{"bike_id":"ad152b74-da20-431a-aa78-7b256ff0df25","system_id":"levelo_inurba_marseille","lat":43.31645,"lon":5.40442,"is_reserved":false,"is_disabled":false,"rental_uris":{"android":"levelo://app?vid=ad152b74-da20-431a-aa78-7b256ff0df25","ios":"levelo://app?vid=ad152b74-da20-431a-aa78-7b256ff0df25"},"vehicle_type_id":"4","last_reported":1690563902,"current_range_meters":17200,"station_id":"ce4bh012rcd13ifvqd00","pricing_plan_id":"free"},{"bike_id":"c90eae36-a6ac-4a3b-b056-96f2e1fd3138","system_id":"levelo_inurba_marseille","lat":43.3165,"lon":5.40442,"is_reserved":false,"is_disabled":false,"rental_uris":{"android":"levelo://app?vid=c90eae36-a6ac-4a3b-b056-96f2e1fd3138","ios":"levelo://app?vid=c90eae36-a6ac-4a3b-b056-96f2e1fd3138"},"vehicle_type_id":"4","last_reported":1690563902,"current_range_meters":26400,"station_id":"ce4bh012rcd13ifvqd00","pricing_plan_id":"free"},{"bike_id":"5aaf402a-103b-42d2-a66d-e14b0aa02fe9","system_id":"levelo_inurba_marseille","lat":43.291994,"lon":5.392907,"is_reserved":false,"is_disabled":false,"rental_uris":{"android":"levelo://app?vid=5aaf402a-103b-42d2-a66d-e14b0aa02fe9","ios":"levelo://app?vid=5aaf402a-103b-42d2-a66d-e14b0aa02fe9"},"vehicle_type_id":"4","last_reported":1690563902,"current_range_meters":21600,"station_id":"ce4bh192rcd13ifvqdd0","pricing_plan_id":"free"},{"bike_id":"2d83cc28-89b3-4553-b927-b64ce2fae95d","system_id":"levelo_inurba_marseille","lat":43.291994,"lon":5.392907,"is_reserved":false,"is_disabled":false,"rental_uris":{"android":"levelo://app?vid=2d83cc28-89b3-4553-b927-b64ce2fae95d","ios":"levelo://app?vid=2d83cc28-89b3-4553-b927-b64ce2fae95d"},"vehicle_type_id":"4","last_reported":1690563902,"current_range_meters":5200,"station_id":"ce4bh192rcd13ifvqdd0","pricing_plan_id":"free"},{"bike_id":"abaf1065-da92-42bb-be42-7063626bfd4d","system_id":"levelo_inurba_marseille","lat":43.294314,"lon":5.397498,"is_reserved":false,"is_disabled":false,"rental_uris":{"android":"levelo://app?vid=abaf1065-da92-42bb-be42-7063626bfd4d","ios":"levelo://app?vid=abaf1065-da92-42bb-be42-7063626bfd4d"},"vehicle_type_id":"4","last_reported":1690563902,"current_range_meters":6800,"station_id":"ce4bh3h2rcd13ifvqdo0","pricing_plan_id":"free"},{"bike_id":"f44cea89-d9a3-481e-a137-61109b12a095","system_id":"levelo_inurba_marseille","lat":43.294314,"lon":5.397498,"is_reserved":false,"is_disabled":false,"rental_uris":{"android":"levelo://app?vid=f44cea89-d9a3-481e-a137-61109b12a095","ios":"levelo://app?vid=f44cea89-d9a3-481e-a137-61109b12a095"},"vehicle_type_id":"4","last_reported":1690563902,"current_range_meters":14800,"station_id":"ce4bh3h2rcd13ifvqdo0","pricing_plan_id":"free"},{"bike_id":"89d33e86-9419-413c-adce-1033300b4d5a","system_id":"levelo_inurba_marseille","lat":43.28463,"lon":5.35883,"is_reserved":false,"is_disabled":false,"rental_uris":{"android":"levelo://app?vid=89d33e86-9419-413c-adce-1033300b4d5a","ios":"levelo://app?vid=89d33e86-9419-413c-adce-1033300b4d5a"},"vehicle_type_id":"4","last_reported":1690563902,"current_range_meters":2800,"station_id":"ce4bhah2rcd13ifvqei0","pricing_plan_id":"free"},{"bike_id":"1a79f88c-9cd0-49ac-8645-cc803410693a","system_id":"levelo_inurba_marseille","lat":43.284538,"lon":5.358657,"is_reserved":false,"is_disabled":false,"rental_uris":{"android":"levelo://app?vid=1a79f88c-9cd0-49ac-8645-cc803410693a","ios":"levelo://app?vid=1a79f88c-9cd0-49ac-8645-cc803410693a"},"vehicle_type_id":"4","last_reported":1690563902,"current_range_meters":31600,"station_id":"ce4bhah2rcd13ifvqei0","pricing_plan_id":"free"},{"bike_id":"fe95711b-2f40-4951-bc23-9eb205e1ec35","system_id":"levelo_inurba_marseille","lat":43.284538,"lon":5.358657,"is_reserved":false,"is_disabled":false,"rental_uris":{"android":"levelo://app?vid=fe95711b-2f40-4951-bc23-9eb205e1ec35","ios":"levelo://app?vid=fe95711b-2f40-4951-bc23-9eb205e1ec35"},"vehicle_type_id":"4","last_reported":1690563902,"current_range_meters":16800,"station_id":"ce4bhah2rcd13ifvqei0","pricing_plan_id":"free"},{"bike_id":"5ecb978e-1654-4370-9bbc-df72029cde84","system_id":"levelo_inurba_marseille","lat":43.285848,"lon":5.350787,"is_reserved":false,"is_disabled":false,"rental_uris":{"android":"levelo://app?vid=5ecb978e-1654-4370-9bbc-df72029cde84","ios":"levelo://app?vid=5ecb978e-1654-4370-9bbc-df72029cde84"},"vehicle_type_id":"4","last_reported":1690563902,"current_range_meters":7200,"station_id":"ce4bhch2rcd13ifvqeug","pricing_plan_id":"free"},{"bike_id":"a4e7b79d-4280-41de-8abd-b52c4f6a6997","system_id":"levelo_inurba_marseille","lat":43.28615,"lon":5.35101,"is_reserved":false,"is_disabled":false,"rental_uris":{"android":"levelo://app?vid=a4e7b79d-4280-41de-8abd-b52c4f6a6997","ios":"levelo://app?vid=a4e7b79d-4280-41de-8abd-b52c4f6a6997"},"vehicle_type_id":"4","last_reported":1690563902,"current_range_meters":28000,"station_id":"ce4bhch2rcd13ifvqeug","pricing_plan_id":"free"},{"bike_id":"c0127358-21dd-4cd8-8fcc-a44d9f878fbd","system_id":"levelo_inurba_marseille","lat":43.285848,"lon":5.350787,"is_reserved":false,"is_disabled":false,"rental_uris":{"android":"levelo://app?vid=c0127358-21dd-4cd8-8fcc-a44d9f878fbd","ios":"levelo://app?vid=c0127358-21dd-4cd8-8fcc-a44d9f878fbd"},"vehicle_type_id":"4","last_reported":1690563902,"current_range_meters":12400,"station_id":"ce4bhch2rcd13ifvqeug","pricing_plan_id":"free"},{"bike_id":"6b092be6-6173-4089-a6ec-18d031fc9d09","system_id":"levelo_inurba_marseille","lat":43.283998,"lon":5.375062,"is_reserved":false,"is_disabled":false,"rental_uris":{"android":"levelo://app?vid=6b092be6-6173-4089-a6ec-18d031fc9d09","ios":"levelo://app?vid=6b092be6-6173-4089-a6ec-18d031fc9d09"},"vehicle_type_id":"4","last_reported":1690563902,"current_range_meters":21200,"station_id":"ce4bh412rcd13ifvqds0","pricing_plan_id":"free"},{"bike_id":"1e7c9048-43ee-429d-ad76-cc0bbbce2bbb","system_id":"levelo_inurba_marseille","lat":43.28409,"lon":5.3751,"is_reserved":false,"is_disabled":false,"rental_uris":{"android":"levelo://app?vid=1e7c9048-43ee-429d-ad76-cc0bbbce2bbb","ios":"levelo://app?vid=1e7c9048-43ee-429d-ad76-cc0bbbce2bbb"},"vehicle_type_id":"4","last_reported":1690563902,"current_range_meters":8400,"station_id":"","pricing_plan_id":"free"},{"bike_id":"47a12324-899f-4656-97ea-144288342edf","system_id":"levelo_inurba_marseille","lat":43.283998,"lon":5.375062,"is_reserved":false,"is_disabled":false,"rental_uris":{"android":"levelo://app?vid=47a12324-899f-4656-97ea-144288342edf","ios":"levelo://app?vid=47a12324-899f-4656-97ea-144288342edf"},"vehicle_type_id":"4","last_reported":1690563902,"current_range_meters":8000,"station_id":"ce4bh412rcd13ifvqds0","pricing_plan_id":"free"},{"bike_id":"a5abd5b0-72e0-4303-ae3a-d5c2050ddaed","system_id":"levelo_inurba_marseille","lat":43.283998,"lon":5.375062,"is_reserved":false,"is_disabled":false,"rental_uris":{"android":"levelo://app?vid=a5abd5b0-72e0-4303-ae3a-d5c2050ddaed","ios":"levelo://app?vid=a5abd5b0-72e0-4303-ae3a-d5c2050ddaed"},"vehicle_type_id":"4","last_reported":1690563902,"current_range_meters":24400,"station_id":"ce4bh412rcd13ifvqds0","pricing_plan_id":"free"},{"bike_id":"bc1f0a9e-9ce2-426b-9998-9e226038a0ad","system_id":"levelo_inurba_marseille","lat":43.283998,"lon":5.375062,"is_reserved":false,"is_disabled":false,"rental_uris":{"android":"levelo://app?vid=bc1f0a9e-9ce2-426b-9998-9e226038a0ad","ios":"levelo://app?vid=bc1f0a9e-9ce2-426b-9998-9e226038a0ad"},"vehicle_type_id":"4","last_reported":1690563902,"current_range_meters":24800,"station_id":"ce4bh412rcd13ifvqds0","pricing_plan_id":"free"},{"bike_id":"31b08648-1bd1-49d6-8307-639703805df1","system_id":"levelo_inurba_marseille","lat":43.283998,"lon":5.375062,"is_reserved":false,"is_disabled":false,"rental_uris":{"android":"levelo://app?vid=31b08648-1bd1-49d6-8307-639703805df1","ios":"levelo://app?vid=31b08648-1bd1-49d6-8307-639703805df1"},"vehicle_type_id":"4","last_reported":1690563902,"current_range_meters":14800,"station_id":"ce4bh412rcd13ifvqds0","pricing_plan_id":"free"},{"bike_id":"48ce642f-ca8c-4ad7-9313-732ab6b4a3f4","system_id":"levelo_inurba_marseille","lat":43.28403,"lon":5.37515,"is_reserved":false,"is_disabled":false,"rental_uris":{"android":"levelo://app?vid=48ce642f-ca8c-4ad7-9313-732ab6b4a3f4","ios":"levelo://app?vid=48ce642f-ca8c-4ad7-9313-732ab6b4a3f4"},"vehicle_type_id":"4","last_reported":1690563902,"current_range_meters":29200,"station_id":"ce4bh412rcd13ifvqds0","pricing_plan_id":"free"},{"bike_id":"87578f67-8edf-4887-8038-99d8d4c50b85","system_id":"levelo_inurba_marseille","lat":43.295713,"lon":5.399639,"is_reserved":false,"is_disabled":false,"rental_uris":{"android":"levelo://app?vid=87578f67-8edf-4887-8038-99d8d4c50b85","ios":"levelo://app?vid=87578f67-8edf-4887-8038-99d8d4c50b85"},"vehicle_type_id":"4","last_reported":1690563902,"current_range_meters":22800,"station_id":"ce4bh312rcd13ifvqdj0","pricing_plan_id":"free"},{"bike_id":"80206105-cad6-4e1f-b92e-261a2a8c9abd","system_id":"levelo_inurba_marseille","lat":43.295713,"lon":5.399639,"is_reserved":false,"is_disabled":false,"rental_uris":{"android":"levelo://app?vid=80206105-cad6-4e1f-b92e-261a2a8c9abd","ios":"levelo://app?vid=80206105-cad6-4e1f-b92e-261a2a8c9abd"},"vehicle_type_id":"4","last_reported":1690563902,"current_range_meters":3600,"station_id":"ce4bh312rcd13ifvqdj0","pricing_plan_id":"free"},{"bike_id":"c0c8e2fd-0464-4388-9acf-19c0edc181ad","system_id":"levelo_inurba_marseille","lat":43.31887,"lon":5.40745,"is_reserved":false,"is_disabled":false,"rental_uris":{"android":"levelo://app?vid=c0c8e2fd-0464-4388-9acf-19c0edc181ad","ios":"levelo://app?vid=c0c8e2fd-0464-4388-9acf-19c0edc181ad"},"vehicle_type_id":"4","last_reported":1690563902,"current_range_meters":28000,"station_id":"ce4bhq12rcd13ifvqhig","pricing_plan_id":"free"},{"bike_id":"7e209f61-3c45-427c-ae4d-e4269e2dda66","system_id":"levelo_inurba_marseille","lat":43.33726,"lon":5.39174,"is_reserved":false,"is_disabled":false,"rental_uris":{"android":"levelo://app?vid=7e209f61-3c45-427c-ae4d-e4269e2dda66","ios":"levelo://app?vid=7e209f61-3c45-427c-ae4d-e4269e2dda66"},"vehicle_type_id":"4","last_reported":1690563902,"current_range_meters":19200,"station_id":"ce4bhr92rcd13ifvqhsg","pricing_plan_id":"free"},{"bike_id":"838a4aae-6542-4395-bd1f-0c01c6ad5d93","system_id":"levelo_inurba_marseille","lat":43.33727,"lon":5.39178,"is_reserved":false,"is_disabled":false,"rental_uris":{"android":"levelo://app?vid=838a4aae-6542-4395-bd1f-0c01c6ad5d93","ios":"levelo://app?vid=838a4aae-6542-4395-bd1f-0c01c6ad5d93"},"vehicle_type_id":"4","last_reported":1690563902,"current_range_meters":12000,"station_id":"ce4bhr92rcd13ifvqhsg","pricing_plan_id":"free"},{"bike_id":"bfba1d51-c352-4de8-b042-a36245d6322f","system_id":"levelo_inurba_marseille","lat":43.337168,"lon":5.391825,"is_reserved":false,"is_disabled":false,"rental_uris":{"android":"levelo://app?vid=bfba1d51-c352-4de8-b042-a36245d6322f","ios":"levelo://app?vid=bfba1d51-c352-4de8-b042-a36245d6322f"},"vehicle_type_id":"4","last_reported":1690563902,"current_range_meters":25200,"station_id":"ce4bhr92rcd13ifvqhsg","pricing_plan_id":"free"},{"bike_id":"f2197b32-1790-4499-9acb-48b384ecc478","system_id":"levelo_inurba_marseille","lat":43.337168,"lon":5.391825,"is_reserved":false,"is_disabled":false,"rental_uris":{"android":"levelo://app?vid=f2197b32-1790-4499-9acb-48b384ecc478","ios":"levelo://app?vid=f2197b32-1790-4499-9acb-48b384ecc478"},"vehicle_type_id":"4","last_reported":1690563902,"current_range_meters":24800,"station_id":"ce4bhr92rcd13ifvqhsg","pricing_plan_id":"free"},{"bike_id":"29a7712d-067c-4ae1-9301-c795bf20c53f","system_id":"levelo_inurba_marseille","lat":43.33717,"lon":5.391857,"is_reserved":false,"is_disabled":false,"rental_uris":{"android":"levelo://app?vid=29a7712d-067c-4ae1-9301-c795bf20c53f","ios":"levelo://app?vid=29a7712d-067c-4ae1-9301-c795bf20c53f"},"vehicle_type_id":"4","last_reported":1690563902,"current_range_meters":25200,"station_id":"ce4bhr92rcd13ifvqhsg","pricing_plan_id":"free"},{"bike_id":"07355913-3475-48df-8d84-3e45dbf0e07b","system_id":"levelo_inurba_marseille","lat":43.33717,"lon":5.391857,"is_reserved":false,"is_disabled":false,"rental_uris":{"android":"levelo://app?vid=07355913-3475-48df-8d84-3e45dbf0e07b","ios":"levelo://app?vid=07355913-3475-48df-8d84-3e45dbf0e07b"},"vehicle_type_id":"4","last_reported":1690563902,"current_range_meters":23600,"station_id":"ce4bhr92rcd13ifvqhsg","pricing_plan_id":"free"},{"bike_id":"c2e0d788-06c6-4864-90af-153f10e4a9ce","system_id":"levelo_inurba_marseille","lat":43.33735,"lon":5.39183,"is_reserved":false,"is_disabled":false,"rental_uris":{"android":"levelo://app?vid=c2e0d788-06c6-4864-90af-153f10e4a9ce","ios":"levelo://app?vid=c2e0d788-06c6-4864-90af-153f10e4a9ce"},"vehicle_type_id":"4","last_reported":1690563902,"current_range_meters":24000,"station_id":"ce4bhr92rcd13ifvqhsg","pricing_plan_id":"free"},{"bike_id":"80d0d10d-6e2c-4a8f-a4b5-183c8411b524","system_id":"levelo_inurba_marseille","lat":43.33733,"lon":5.39189,"is_reserved":false,"is_disabled":false,"rental_uris":{"android":"levelo://app?vid=80d0d10d-6e2c-4a8f-a4b5-183c8411b524","ios":"levelo://app?vid=80d0d10d-6e2c-4a8f-a4b5-183c8411b524"},"vehicle_type_id":"4","last_reported":1690563902,"current_range_meters":4000,"station_id":"ce4bhr92rcd13ifvqhsg","pricing_plan_id":"free"},{"bike_id":"62573310-66f3-4117-aa9b-e946db58a84b","system_id":"levelo_inurba_marseille","lat":43.284793,"lon":5.384113,"is_reserved":false,"is_disabled":false,"rental_uris":{"android":"levelo://app?vid=62573310-66f3-4117-aa9b-e946db58a84b","ios":"levelo://app?vid=62573310-66f3-4117-aa9b-e946db58a84b"},"vehicle_type_id":"4","last_reported":1690563902,"current_range_meters":4000,"station_id":"ce4bh512rcd13ifvqe3g","pricing_plan_id":"free"},{"bike_id":"bb3c41da-e985-4896-a88c-4bd49c217ebf","system_id":"levelo_inurba_marseille","lat":43.28353,"lon":5.38109,"is_reserved":false,"is_disabled":false,"rental_uris":{"android":"levelo://app?vid=bb3c41da-e985-4896-a88c-4bd49c217ebf","ios":"levelo://app?vid=bb3c41da-e985-4896-a88c-4bd49c217ebf"},"vehicle_type_id":"4","last_reported":1690563902,"current_range_meters":25200,"station_id":"ce4bh412rcd13ifvqdr0","pricing_plan_id":"free"},{"bike_id":"eaf22408-76f9-4553-86e1-05d9369c52aa","system_id":"levelo_inurba_marseille","lat":43.283494,"lon":5.380945,"is_reserved":false,"is_disabled":false,"rental_uris":{"android":"levelo://app?vid=eaf22408-76f9-4553-86e1-05d9369c52aa","ios":"levelo://app?vid=eaf22408-76f9-4553-86e1-05d9369c52aa"},"vehicle_type_id":"4","last_reported":1690563902,"current_range_meters":14400,"station_id":"ce4bh412rcd13ifvqdr0","pricing_plan_id":"free"},{"bike_id":"28107b56-d609-4626-ad87-d00780e3f0fc","system_id":"levelo_inurba_marseille","lat":43.28427,"lon":5.34991,"is_reserved":false,"is_disabled":false,"rental_uris":{"android":"levelo://app?vid=28107b56-d609-4626-ad87-d00780e3f0fc","ios":"levelo://app?vid=28107b56-d609-4626-ad87-d00780e3f0fc"},"vehicle_type_id":"4","last_reported":1690563902,"current_range_meters":13200,"station_id":"ce4bhbh2rcd13ifvqepg","pricing_plan_id":"free"},{"bike_id":"a3aa8208-0359-4b8b-b7fc-8a98206e48d9","system_id":"levelo_inurba_marseille","lat":43.289363,"lon":5.396322,"is_reserved":false,"is_disabled":false,"rental_uris":{"android":"levelo://app?vid=a3aa8208-0359-4b8b-b7fc-8a98206e48d9","ios":"levelo://app?vid=a3aa8208-0359-4b8b-b7fc-8a98206e48d9"},"vehicle_type_id":"4","last_reported":1690563902,"current_range_meters":5600,"station_id":"ce4bh3h2rcd13ifvqdn0","pricing_plan_id":"free"},{"bike_id":"bcd82e34-b86f-4634-a07b-ade7ab3ab06f","system_id":"levelo_inurba_marseille","lat":43.28425,"lon":5.34983,"is_reserved":false,"is_disabled":false,"rental_uris":{"android":"levelo://app?vid=bcd82e34-b86f-4634-a07b-ade7ab3ab06f","ios":"levelo://app?vid=bcd82e34-b86f-4634-a07b-ade7ab3ab06f"},"vehicle_type_id":"4","last_reported":1690563902,"current_range_meters":23200,"station_id":"ce4bhbh2rcd13ifvqepg","pricing_plan_id":"free"},{"bike_id":"733fdc06-d409-40d9-97eb-511d509f5e57","system_id":"levelo_inurba_marseille","lat":43.28422,"lon":5.34991,"is_reserved":false,"is_disabled":false,"rental_uris":{"android":"levelo://app?vid=733fdc06-d409-40d9-97eb-511d509f5e57","ios":"levelo://app?vid=733fdc06-d409-40d9-97eb-511d509f5e57"},"vehicle_type_id":"4","last_reported":1690563902,"current_range_meters":30000,"station_id":"ce4bhbh2rcd13ifvqepg","pricing_plan_id":"free"},{"bike_id":"729187fc-a134-46d3-a18b-d78729b36314","system_id":"levelo_inurba_marseille","lat":43.28423,"lon":5.34987,"is_reserved":false,"is_disabled":false,"rental_uris":{"android":"levelo://app?vid=729187fc-a134-46d3-a18b-d78729b36314","ios":"levelo://app?vid=729187fc-a134-46d3-a18b-d78729b36314"},"vehicle_type_id":"4","last_reported":1690563902,"current_range_meters":11200,"station_id":"ce4bhbh2rcd13ifvqepg","pricing_plan_id":"free"},{"bike_id":"8d494584-6c12-4133-aeb1-6185d37adf3b","system_id":"levelo_inurba_marseille","lat":43.28422,"lon":5.34987,"is_reserved":false,"is_disabled":false,"rental_uris":{"android":"levelo://app?vid=8d494584-6c12-4133-aeb1-6185d37adf3b","ios":"levelo://app?vid=8d494584-6c12-4133-aeb1-6185d37adf3b"},"vehicle_type_id":"4","last_reported":1690563902,"current_range_meters":25200,"station_id":"ce4bhbh2rcd13ifvqepg","pricing_plan_id":"free"},{"bike_id":"c6972b5a-5a21-4b63-9027-2dd3725d9d89","system_id":"levelo_inurba_marseille","lat":43.28423,"lon":5.34983,"is_reserved":false,"is_disabled":false,"rental_uris":{"android":"levelo://app?vid=c6972b5a-5a21-4b63-9027-2dd3725d9d89","ios":"levelo://app?vid=c6972b5a-5a21-4b63-9027-2dd3725d9d89"},"vehicle_type_id":"4","last_reported":1690563902,"current_range_meters":8400,"station_id":"ce4bhbh2rcd13ifvqepg","pricing_plan_id":"free"},{"bike_id":"275bf83f-ffce-4db8-a014-63754e1ed9c0","system_id":"levelo_inurba_marseille","lat":43.28419,"lon":5.34995,"is_reserved":false,"is_disabled":false,"rental_uris":{"android":"levelo://app?vid=275bf83f-ffce-4db8-a014-63754e1ed9c0","ios":"levelo://app?vid=275bf83f-ffce-4db8-a014-63754e1ed9c0"},"vehicle_type_id":"4","last_reported":1690563902,"current_range_meters":12000,"station_id":"ce4bhbh2rcd13ifvqepg","pricing_plan_id":"free"},{"bike_id":"5f97f34e-e3da-4381-8fc4-bb3c97bbb996","system_id":"levelo_inurba_marseille","lat":43.28423,"lon":5.34981,"is_reserved":false,"is_disabled":false,"rental_uris":{"android":"levelo://app?vid=5f97f34e-e3da-4381-8fc4-bb3c97bbb996","ios":"levelo://app?vid=5f97f34e-e3da-4381-8fc4-bb3c97bbb996"},