{"last_updated":1741594263,"ttl":60,"version":"2.2","data":{"bikes":[{"bike_id":"e3565dcf-4d34-49d7-919b-1234920ea466","system_id":"levelo_inurba_marseille","lat":43.33746,"lon":5.3745,"is_reserved":false,"is_disabled":false,"rental_uris":{"android":"levelo://app?vid=e3565dcf-4d34-49d7-919b-1234920ea466","ios":"levelo://app?vid=e3565dcf-4d34-49d7-919b-1234920ea466"},"vehicle_type_id":"4","last_reported":1741594263,"current_range_meters":28000,"station_id":"","pricing_plan_id":"cebpf4jnsgd1na2vs0mg"},{"bike_id":"ee1d2ad1-36ca-49dd-a328-f2a9a9994ecb","system_id":"levelo_inurba_marseille","lat":43.310869,"lon":5.38131,"is_reserved":false,"is_disabled":true,"rental_uris":{"android":"levelo://app?vid=ee1d2ad1-36ca-49dd-a328-f2a9a9994ecb","ios":"levelo://app?vid=ee1d2ad1-36ca-49dd-a328-f2a9a9994ecb"},"vehicle_type_id":"4","last_reported":1741594263,"current_range_meters":0,"station_id":"","pricing_plan_id":"cebpf4jnsgd1na2vs0mg"},{"bike_id":"4c6c948d-c1c1-47fd-ac5c-b248b950f649","system_id":"levelo_inurba_marseille","lat":43.26806,"lon":5.39443,"is_reserved":false,"is_disabled":true,"rental_uris":{"android":"levelo://app?vid=4c6c948d-c1c1-47fd-ac5c-b248b950f649","ios":"levelo://app?vid=4c6c948d-c1c1-47fd-ac5c-b248b950f649"},"vehicle_type_id":"4","last_reported":1741594263,"current_range_meters":0,"station_id":"ce4bhh12rcd13ifvqfg0","pricing_plan_id":"cebpf4jnsgd1na2vs0mg"},{"bike_id":"1b15e149-9480-4b9e-ba23-c8a883ef7a06","system_id":"levelo_inurba_marseille","lat":43.295768,"lon":5.375847,"is_reserved":false,"is_disabled":false,"rental_uris":{"android":"levelo://app?vid=1b15e149-9480-4b9e-ba23-c8a883ef7a06","ios":"levelo://app?vid=1b15e149-9480-4b9e-ba23-c8a883ef7a06"},"vehicle_type_id":"4","last_reported":1741594263,"current_range_meters":400,"station_id":"ce4bgi12rcd13ifvqb70","pricing_plan_id":"cebpf4jnsgd1na2vs0mg"},{"bike_id":"b4c2a382-6b39-4525-a805-2d5df6bb94b4","system_id":"levelo_inurba_marseille","lat":43.29579,"lon":5.37519,"is_reserved":false,"is_disabled":true,"rental_uris":{"android":"levelo://app?vid=b4c2a382-6b39-4525-a805-2d5df6bb94b4","ios":"levelo://app?vid=b4c2a382-6b39-4525-a805-2d5df6bb94b4"},"vehicle_type_id":"4","last_reported":1741594263,"current_range_meters":800,"station_id":"ce4bgh92rcd13ifvqb50","pricing_plan_id":"cebpf4jnsgd1na2vs0mg"},{"bike_id":"cec42360-6623-4587-9fe2-ab1159e29ac4","system_id":"levelo_inurba_marseille","lat":43.27206,"lon":5.39183,"is_reserved":false,"is_disabled":true,"rental_uris":{"android":"levelo://app?vid=cec42360-6623-4587-9fe2-ab1159e29ac4","ios":"levelo://app?vid=cec42360-6623-4587-9fe2-ab1159e29ac4"},"vehicle_type_id":"4","last_reported":1741594263,"current_range_meters":800,"station_id":"ce4bhhp2rcd13ifvqfm0","pricing_plan_id":"cebpf4jnsgd1na2vs0mg"},{"bike_id":"661f98d3-de40-41b0-818d-49a15f743932","system_id":"levelo_inurba_marseille","lat":43.28156,"lon":5.42634,"is_reserved":false,"is_disabled":true,"rental_uris":{"android":"levelo://app?vid=661f98d3-de40-41b0-818d-49a15f743932","ios":"levelo://app?vid=661f98d3-de40-41b0-818d-49a15f743932"},"vehicle_type_id":"4","last_reported":1741594263,"current_range_meters":800,"station_id":"ce4bhnh2rcd13ifvqgug","pricing_plan_id":"cebpf4jnsgd1na2vs0mg"},{"bike_id":"49f588ee-0bdb-45dd-9bc3-a475604e8d55","system_id":"levelo_inurba_marseille","lat":43.27936,"lon":5.41051,"is_reserved":false,"is_disabled":true,"rental_uris":{"android":"levelo://app?vid=49f588ee-0bdb-45dd-9bc3-a475604e8d55","ios":"levelo://app?vid=49f588ee-0bdb-45dd-9bc3-a475604e8d55"},"vehicle_type_id":"4","last_reported":1741594263,"current_range_meters":800,"station_id":"ce4bhnp2rcd13ifvqh0g","pricing_plan_id":"cebpf4jnsgd1na2vs0mg"},{"bike_id":"531b9ff3-88ec-415f-8096-fe11d9a4ebee","system_id":"levelo_inurba_marseille","lat":43.29636,"lon":5.40586,"is_reserved":false,"is_disabled":true,"rental_uris":{"android":"levelo://app?vid=531b9ff3-88ec-415f-8096-fe11d9a4ebee","ios":"levelo://app?vid=531b9ff3-88ec-415f-8096-fe11d9a4ebee"},"vehicle_type_id":"4","last_reported":1741594263,"current_range_meters":1200,"station_id":"ce4bh0h2rcd13ifvqd60","pricing_plan_id":"cebpf4jnsgd1na2vs0mg"},{"bike_id":"b4ec2170-59cc-4751-981a-ecabaa90ce87","system_id":"levelo_inurba_marseille","lat":43.25139,"lon":5.40331,"is_reserved":false,"is_disabled":true,"rental_uris":{"android":"levelo://app?vid=b4ec2170-59cc-4751-981a-ecabaa90ce87","ios":"levelo://app?vid=b4ec2170-59cc-4751-981a-ecabaa90ce87"},"vehicle_type_id":"4","last_reported":1741594263,"current_range_meters":1200,"station_id":"ce4bhlh2rcd13ifvqgig","pricing_plan_id":"cebpf4jnsgd1na2vs0mg"},{"bike_id":"b4d96cf7-2e2e-4ea7-8bcd-c15283b1203f","system_id":"levelo_inurba_marseille","lat":43.27489,"lon":5.42448,"is_reserved":false,"is_disabled":true,"rental_uris":{"android":"levelo://app?vid=b4d96cf7-2e2e-4ea7-8bcd-c15283b1203f","ios":"levelo://app?vid=b4d96cf7-2e2e-4ea7-8bcd-c15283b1203f"},"vehicle_type_id":"4","last_reported":1741594263,"current_range_meters":1200,"station_id":"ce4bhn92rcd13ifvqgrg","pricing_plan_id":"cebpf4jnsgd1na2vs0mg"},{"bike_id":"1d4bb7b9-3ae6-4d31-8bdd-ee00b3232adf","system_id":"levelo_inurba_marseille","lat":43.25713,"lon":5.41128,"is_reserved":false,"is_disabled":true,"rental_uris":{"android":"levelo://app?vid=1d4bb7b9-3ae6-4d31-8bdd-ee00b3232adf","ios":"levelo://app?vid=1d4bb7b9-3ae6-4d31-8bdd-ee00b3232adf"},"vehicle_type_id":"4","last_reported":1741594263,"current_range_meters":1600,"station_id":"ce4bhkp2rcd13ifvqgd0","pricing_plan_id":"cebpf4jnsgd1na2vs0mg"},{"bike_id":"d399c68f-4683-4187-95d7-e32ffde3c66c","system_id":"levelo_inurba_marseille","lat":43.25073,"lon":5.39519,"is_reserved":false,"is_disabled":true,"rental_uris":{"android":"levelo://app?vid=d399c68f-4683-4187-95d7-e32ffde3c66c","ios":"levelo://app?vid=d399c68f-4683-4187-95d7-e32ffde3c66c"},"vehicle_type_id":"4","last_reported":1741594263,"current_range_meters":1600,"station_id":"ce4bhm12rcd13ifvqgkg","pricing_plan_id":"cebpf4jnsgd1na2vs0mg"},{"bike_id":"7dc50a24-8266-4006-89e5-84e203f66894","system_id":"levelo_inurba_marseille","lat":43.29118,"lon":5.40078,"is_reserved":false,"is_disabled":true,"rental_uris":{"android":"levelo://app?vid=7dc50a24-8266-4006-89e5-84e203f66894","ios":"levelo://app?vid=7dc50a24-8266-4006-89e5-84e203f66894"},"vehicle_type_id":"4","last_reported":1741594263,"current_range_meters":2000,"station_id":"","pricing_plan_id":"cebpf4jnsgd1na2vs0mg"},{"bike_id":"57835ad0-ae77-4c64-a836-21b673a5c8fe","system_id":"levelo_inurba_marseille","lat":43.25726,"lon":5.4111,"is_reserved":false,"is_disabled":true,"rental_uris":{"android":"levelo://app?vid=57835ad0-ae77-4c64-a836-21b673a5c8fe","ios":"levelo://app?vid=57835ad0-ae77-4c64-a836-21b673a5c8fe"},"vehicle_type_id":"4","last_reported":1741594263,"current_range_meters":2000,"station_id":"ce4bhkp2rcd13ifvqgd0","pricing_plan_id":"cebpf4jnsgd1na2vs0mg"},{"bike_id":"93964709-a405-4e8c-9198-15f348c3868a","system_id":"levelo_inurba_marseille","lat":43.25934,"lon":5.4091,"is_reserved":false,"is_disabled":false,"rental_uris":{"android":"levelo://app?vid=93964709-a405-4e8c-9198-15f348c3868a","ios":"levelo://app?vid=93964709-a405-4e8c-9198-15f348c3868a"},"vehicle_type_id":"4","last_reported":1741594263,"current_range_meters":2800,"station_id":"ce4bhm92rcd13ifvqglg","pricing_plan_id":"cebpf4jnsgd1na2vs0mg"},{"bike_id":"0b41a417-5dab-43ec-a71a-abe58a530228","system_id":"levelo_inurba_marseille","lat":43.25942,"lon":5.40906,"is_reserved":false,"is_disabled":false,"rental_uris":{"android":"levelo://app?vid=0b41a417-5dab-43ec-a71a-abe58a530228","ios":"levelo://app?vid=0b41a417-5dab-43ec-a71a-abe58a530228"},"vehicle_type_id":"4","last_reported":1741594263,"current_range_meters":2800,"station_id":"ce4bhm92rcd13ifvqglg","pricing_plan_id":"cebpf4jnsgd1na2vs0mg"},{"bike_id":"f4693df5-a14c-4083-8d32-d05000f58a85","system_id":"levelo_inurba_marseille","lat":43.24077,"lon":5.37765,"is_reserved":false,"is_disabled":false,"rental_uris":{"android":"levelo://app?vid=f4693df5-a14c-4083-8d32-d05000f58a85","ios":"levelo://app?vid=f4693df5-a14c-4083-8d32-d05000f58a85"},"vehicle_type_id":"4","last_reported":1741594263,"current_range_meters":3200,"station_id":"ce4bhnp2rcd13ifvqgvg","pricing_plan_id":"cebpf4jnsgd1na2vs0mg"},{"bike_id":"1d12d484-14d1-45a6-b7bb-e83591734ac1","system_id":"levelo_inurba_marseille","lat":43.27928,"lon":5.41044,"is_reserved":false,"is_disabled":false,"rental_uris":{"android":"levelo://app?vid=1d12d484-14d1-45a6-b7bb-e83591734ac1","ios":"levelo://app?vid=1d12d484-14d1-45a6-b7bb-e83591734ac1"},"vehicle_type_id":"4","last_reported":1741594263,"current_range_meters":3200,"station_id":"ce4bhnp2rcd13ifvqh0g","pricing_plan_id":"cebpf4jnsgd1na2vs0mg"},{"bike_id":"9a8daf51-d1cf-432e-88a0-a4cd3e684d6a","system_id":"levelo_inurba_marseille","lat":43.30143,"lon":5.38081,"is_reserved":false,"is_disabled":false,"rental_uris":{"android":"levelo://app?vid=9a8daf51-d1cf-432e-88a0-a4cd3e684d6a","ios":"levelo://app?vid=9a8daf51-d1cf-432e-88a0-a4cd3e684d6a"},"vehicle_type_id":"4","last_reported":1741594263,"current_range_meters":3600,"station_id":"ce4bgjp2rcd13ifvqbh0","pricing_plan_id":"cebpf4jnsgd1na2vs0mg"},{"bike_id":"2e3c60b3-f5fc-40b6-b347-86b0b4f3ee6e","system_id":"levelo_inurba_marseille","lat":43.23193,"lon":5.39988,"is_reserved":false,"is_disabled":false,"rental_uris":{"android":"levelo://app?vid=2e3c60b3-f5fc-40b6-b347-86b0b4f3ee6e","ios":"levelo://app?vid=2e3c60b3-f5fc-40b6-b347-86b0b4f3ee6e"},"vehicle_type_id":"4","last_reported":1741594263,"current_range_meters":3600,"station_id":"ce4bhn12rcd13ifvqgqg","pricing_plan_id":"cebpf4jnsgd1na2vs0mg"},{"bike_id":"803f2b82-4bc0-4ae7-b369-d8002e96387a","system_id":"levelo_inurba_marseille","lat":43.32483,"lon":5.36578,"is_reserved":false,"is_disabled":false,"rental_uris":{"android":"levelo://app?vid=803f2b82-4bc0-4ae7-b369-d8002e96387a","ios":"levelo://app?vid=803f2b82-4bc0-4ae7-b369-d8002e96387a"},"vehicle_type_id":"4","last_reported":1741594263,"current_range_meters":3600,"station_id":"ce4bhs12rcd13ifvqhvg","pricing_plan_id":"cebpf4jnsgd1na2vs0mg"},{"bike_id":"93ed9207-feb3-4f9e-96e9-7cc15d86e7ef","system_id":"levelo_inurba_marseille","lat":43.283508,"lon":5.381068,"is_reserved":false,"is_disabled":false,"rental_uris":{"android":"levelo://app?vid=93ed9207-feb3-4f9e-96e9-7cc15d86e7ef","ios":"levelo://app?vid=93ed9207-feb3-4f9e-96e9-7cc15d86e7ef"},"vehicle_type_id":"4","last_reported":1741594263,"current_range_meters":4000,"station_id":"ce4bh412rcd13ifvqdr0","pricing_plan_id":"cebpf4jnsgd1na2vs0mg"},{"bike_id":"2f0c724b-bb76-4a4c-8862-0d82bf790fbd","system_id":"levelo_inurba_marseille","lat":43.26561,"lon":5.39001,"is_reserved":false,"is_disabled":false,"rental_uris":{"android":"levelo://app?vid=2f0c724b-bb76-4a4c-8862-0d82bf790fbd","ios":"levelo://app?vid=2f0c724b-bb76-4a4c-8862-0d82bf790fbd"},"vehicle_type_id":"4","last_reported":1741594263,"current_range_meters":4400,"station_id":"ce4bhe12rcd13ifvqf30","pricing_plan_id":"cebpf4jnsgd1na2vs0mg"},{"bike_id":"f5dc1165-438a-47f6-858c-490164cecd29","system_id":"levelo_inurba_marseille","lat":43.307556,"lon":5.38191,"is_reserved":false,"is_disabled":false,"rental_uris":{"android":"levelo://app?vid=f5dc1165-438a-47f6-858c-490164cecd29","ios":"levelo://app?vid=f5dc1165-438a-47f6-858c-490164cecd29"},"vehicle_type_id":"4","last_reported":1741594263,"current_range_meters":4800,"station_id":"ce4bgt12rcd13ifvqce0","pricing_plan_id":"cebpf4jnsgd1na2vs0mg"},{"bike_id":"388f129e-8951-4dab-9de4-f7b7824b878f","system_id":"levelo_inurba_marseille","lat":43.29961,"lon":5.38516,"is_reserved":false,"is_disabled":false,"rental_uris":{"android":"levelo://app?vid=388f129e-8951-4dab-9de4-f7b7824b878f","ios":"levelo://app?vid=388f129e-8951-4dab-9de4-f7b7824b878f"},"vehicle_type_id":"4","last_reported":1741594263,"current_range_meters":5600,"station_id":"ce4bgj92rcd13ifvqbd0","pricing_plan_id":"cebpf4jnsgd1na2vs0mg"},{"bike_id":"8810679a-e7c9-4297-97b3-dd7d0bfc4864","system_id":"levelo_inurba_marseille","lat":43.25015,"lon":5.38927,"is_reserved":false,"is_disabled":false,"rental_uris":{"android":"levelo://app?vid=8810679a-e7c9-4297-97b3-dd7d0bfc4864","ios":"levelo://app?vid=8810679a-e7c9-4297-97b3-dd7d0bfc4864"},"vehicle_type_id":"4","last_reported":1741594263,"current_range_meters":5600,"station_id":"ce4bhgp2rcd13ifvqfd0","pricing_plan_id":"cebpf4jnsgd1na2vs0mg"},{"bike_id":"ad284fdb-e6f9-4c5a-9e2c-c44130087410","system_id":"levelo_inurba_marseille","lat":43.23187,"lon":5.39976,"is_reserved":false,"is_disabled":false,"rental_uris":{"android":"levelo://app?vid=ad284fdb-e6f9-4c5a-9e2c-c44130087410","ios":"levelo://app?vid=ad284fdb-e6f9-4c5a-9e2c-c44130087410"},"vehicle_type_id":"4","last_reported":1741594263,"current_range_meters":5600,"station_id":"ce4bhn12rcd13ifvqgqg","pricing_plan_id":"cebpf4jnsgd1na2vs0mg"},{"bike_id":"e5e118b0-32a8-4ef3-b6d1-b7487133ba19","system_id":"levelo_inurba_marseille","lat":43.28149,"lon":5.42638,"is_reserved":false,"is_disabled":false,"rental_uris":{"android":"levelo://app?vid=e5e118b0-32a8-4ef3-b6d1-b7487133ba19","ios":"levelo://app?vid=e5e118b0-32a8-4ef3-b6d1-b7487133ba19"},"vehicle_type_id":"4","last_reported":1741594263,"current_range_meters":5600,"station_id":"ce4bhnh2rcd13ifvqgug","pricing_plan_id":"cebpf4jnsgd1na2vs0mg"},{"bike_id":"8df81582-b866-4e92-b4ac-8e09a62a5b41","system_id":"levelo_inurba_marseille","lat":43.3281,"lon":5.37558,"is_reserved":false,"is_disabled":false,"rental_uris":{"android":"levelo://app?vid=8df81582-b866-4e92-b4ac-8e09a62a5b41","ios":"levelo://app?vid=8df81582-b866-4e92-b4ac-8e09a62a5b41"},"vehicle_type_id":"4","last_reported":1741594263,"current_range_meters":6000,"station_id":"","pricing_plan_id":"cebpf4jnsgd1na2vs0mg"},{"bike_id":"a4b45358-b9e1-4399-8f25-694df52f476d","system_id":"levelo_inurba_marseille","lat":43.2408,"lon":5.37756,"is_reserved":false,"is_disabled":false,"rental_uris":{"android":"levelo://app?vid=a4b45358-b9e1-4399-8f25-694df52f476d","ios":"levelo://app?vid=a4b45358-b9e1-4399-8f25-694df52f476d"},"vehicle_type_id":"4","last_reported":1741594263,"current_range_meters":6000,"station_id":"ce4bhnp2rcd13ifvqgvg","pricing_plan_id":"cebpf4jnsgd1na2vs0mg"},{"bike_id":"a522e2ef-641e-45f6-85f5-5952ec941a6a","system_id":"levelo_inurba_marseille","lat":43.25692,"lon":5.41202,"is_reserved":false,"is_disabled":false,"rental_uris":{"android":"levelo://app?vid=a522e2ef-641e-45f6-85f5-5952ec941a6a","ios":"levelo://app?vid=a522e2ef-641e-45f6-85f5-5952ec941a6a"},"vehicle_type_id":"4","last_reported":1741594263,"current_range_meters":6400,"station_id":"","pricing_plan_id":"cebpf4jnsgd1na2vs0mg"},{"bike_id":"19bbe8da-d7df-496e-a677-cbaab925cf5e","system_id":"levelo_inurba_marseille","lat":43.24893,"lon":5.42547,"is_reserved":false,"is_disabled":false,"rental_uris":{"android":"levelo://app?vid=19bbe8da-d7df-496e-a677-cbaab925cf5e","ios":"levelo://app?vid=19bbe8da-d7df-496e-a677-cbaab925cf5e"},"vehicle_type_id":"4","last_reported":1741594263,"current_range_meters":6400,"station_id":"","pricing_plan_id":"cebpf4jnsgd1na2vs0mg"},{"bike_id":"96b74608-ff1b-4dd1-88d1-373fdaf06100","system_id":"levelo_inurba_marseille","lat":43.31364,"lon":5.36695,"is_reserved":false,"is_disabled":false,"rental_uris":{"android":"levelo://app?vid=96b74608-ff1b-4dd1-88d1-373fdaf06100","ios":"levelo://app?vid=96b74608-ff1b-4dd1-88d1-373fdaf06100"},"vehicle_type_id":"4","last_reported":1741594263,"current_range_meters":6400,"station_id":"ce4bgr92rcd13ifvqc6g","pricing_plan_id":"cebpf4jnsgd1na2vs0mg"},{"bike_id":"ce090f12-c0e8-4601-8e24-88472425a3e5","system_id":"levelo_inurba_marseille","lat":43.25103,"lon":5.40325,"is_reserved":false,"is_disabled":false,"rental_uris":{"android":"levelo://app?vid=ce090f12-c0e8-4601-8e24-88472425a3e5","ios":"levelo://app?vid=ce090f12-c0e8-4601-8e24-88472425a3e5"},"vehicle_type_id":"4","last_reported":1741594263,"current_range_meters":6400,"station_id":"ce4bhlh2rcd13ifvqgig","pricing_plan_id":"cebpf4jnsgd1na2vs0mg"},{"bike_id":"fe270f6f-3058-4d0d-bb0f-717033fe11c4","system_id":"levelo_inurba_marseille","lat":43.27497,"lon":5.4245,"is_reserved":false,"is_disabled":false,"rental_uris":{"android":"levelo://app?vid=fe270f6f-3058-4d0d-bb0f-717033fe11c4","ios":"levelo://app?vid=fe270f6f-3058-4d0d-bb0f-717033fe11c4"},"vehicle_type_id":"4","last_reported":1741594263,"current_range_meters":6400,"station_id":"ce4bhn92rcd13ifvqgrg","pricing_plan_id":"cebpf4jnsgd1na2vs0mg"},{"bike_id":"eb54cad0-0885-44cc-bb8f-d8b053fa7883","system_id":"levelo_inurba_marseille","lat":43.30302,"lon":5.39212,"is_reserved":false,"is_disabled":false,"rental_uris":{"android":"levelo://app?vid=eb54cad0-0885-44cc-bb8f-d8b053fa7883","ios":"levelo://app?vid=eb54cad0-0885-44cc-bb8f-d8b053fa7883"},"vehicle_type_id":"4","last_reported":1741594263,"current_range_meters":6800,"station_id":"ce4bgkh2rcd13ifvqbk0","pricing_plan_id":"cebpf4jnsgd1na2vs0mg"},{"bike_id":"643457a2-1f13-4cd9-801c-b177a92c5eaa","system_id":"levelo_inurba_marseille","lat":43.29621,"lon":5.37166,"is_reserved":false,"is_disabled":false,"rental_uris":{"android":"levelo://app?vid=643457a2-1f13-4cd9-801c-b177a92c5eaa","ios":"levelo://app?vid=643457a2-1f13-4cd9-801c-b177a92c5eaa"},"vehicle_type_id":"4","last_reported":1741594263,"current_range_meters":6800,"station_id":"ce4bgnh2rcd13ifvqc0g","pricing_plan_id":"cebpf4jnsgd1na2vs0mg"},{"bike_id":"282100e0-e0fc-46c7-bbde-bf102c89d654","system_id":"levelo_inurba_marseille","lat":43.26684,"lon":5.38267,"is_reserved":false,"is_disabled":false,"rental_uris":{"android":"levelo://app?vid=282100e0-e0fc-46c7-bbde-bf102c89d654","ios":"levelo://app?vid=282100e0-e0fc-46c7-bbde-bf102c89d654"},"vehicle_type_id":"4","last_reported":1741594263,"current_range_meters":6800,"station_id":"ce4bhg92rcd13ifvqf90","pricing_plan_id":"cebpf4jnsgd1na2vs0mg"},{"bike_id":"14704438-ead4-4a94-95b6-837271a082f6","system_id":"levelo_inurba_marseille","lat":43.24673,"lon":5.38162,"is_reserved":false,"is_disabled":false,"rental_uris":{"android":"levelo://app?vid=14704438-ead4-4a94-95b6-837271a082f6","ios":"levelo://app?vid=14704438-ead4-4a94-95b6-837271a082f6"},"vehicle_type_id":"4","last_reported":1741594263,"current_range_meters":6800,"station_id":"ce4bhih2rcd13ifvqfr0","pricing_plan_id":"cebpf4jnsgd1na2vs0mg"},{"bike_id":"ac2efbb8-87f5-4e67-91b6-6982ed970754","system_id":"levelo_inurba_marseille","lat":43.25109,"lon":5.40321,"is_reserved":false,"is_disabled":false,"rental_uris":{"android":"levelo://app?vid=ac2efbb8-87f5-4e67-91b6-6982ed970754","ios":"levelo://app?vid=ac2efbb8-87f5-4e67-91b6-6982ed970754"},"vehicle_type_id":"4","last_reported":1741594263,"current_range_meters":6800,"station_id":"ce4bhlh2rcd13ifvqgig","pricing_plan_id":"cebpf4jnsgd1na2vs0mg"},{"bike_id":"4711a0d3-184b-4ba2-86aa-fea8964a4a5c","system_id":"levelo_inurba_marseille","lat":43.31082,"lon":5.42433,"is_reserved":false,"is_disabled":false,"rental_uris":{"android":"levelo://app?vid=4711a0d3-184b-4ba2-86aa-fea8964a4a5c","ios":"levelo://app?vid=4711a0d3-184b-4ba2-86aa-fea8964a4a5c"},"vehicle_type_id":"4","last_reported":1741594263,"current_range_meters":6800,"station_id":"ce4bhp92rcd13ifvqhag","pricing_plan_id":"cebpf4jnsgd1na2vs0mg"},{"bike_id":"147f2ed6-85d6-4713-9ea5-853fd0e784b2","system_id":"levelo_inurba_marseille","lat":43.30159,"lon":5.38095,"is_reserved":false,"is_disabled":false,"rental_uris":{"android":"levelo://app?vid=147f2ed6-85d6-4713-9ea5-853fd0e784b2","ios":"levelo://app?vid=147f2ed6-85d6-4713-9ea5-853fd0e784b2"},"vehicle_type_id":"4","last_reported":1741594263,"current_range_meters":7200,"station_id":"ce4bgjp2rcd13ifvqbh0","pricing_plan_id":"cebpf4jnsgd1na2vs0mg"},{"bike_id":"f03d2eed-0be8-4590-957c-bb803d52c8bb","system_id":"levelo_inurba_marseille","lat":43.31228,"lon":5.36861,"is_reserved":false,"is_disabled":false,"rental_uris":{"android":"levelo://app?vid=f03d2eed-0be8-4590-957c-bb803d52c8bb","ios":"levelo://app?vid=f03d2eed-0be8-4590-957c-bb803d52c8bb"},"vehicle_type_id":"4","last_reported":1741594263,"current_range_meters":7200,"station_id":"ce4bgl92rcd13ifvqbq0","pricing_plan_id":"cebpf4jnsgd1na2vs0mg"},{"bike_id":"1bbe83b2-d9fb-4900-8025-eb6fd82a7a48","system_id":"levelo_inurba_marseille","lat":43.31228,"lon":5.36853,"is_reserved":false,"is_disabled":false,"rental_uris":{"android":"levelo://app?vid=1bbe83b2-d9fb-4900-8025-eb6fd82a7a48","ios":"levelo://app?vid=1bbe83b2-d9fb-4900-8025-eb6fd82a7a48"},"vehicle_type_id":"4","last_reported":1741594263,"current_range_meters":7200,"station_id":"ce4bgl92rcd13ifvqbq0","pricing_plan_id":"cebpf4jnsgd1na2vs0mg"},{"bike_id":"d9bc5e71-006b-4f12-932d-50e81ce13377","system_id":"levelo_inurba_marseille","lat":43.28483,"lon":5.3842,"is_reserved":false,"is_disabled":false,"rental_uris":{"android":"levelo://app?vid=d9bc5e71-006b-4f12-932d-50e81ce13377","ios":"levelo://app?vid=d9bc5e71-006b-4f12-932d-50e81ce13377"},"vehicle_type_id":"4","last_reported":1741594263,"current_range_meters":7200,"station_id":"ce4bh512rcd13ifvqe3g","pricing_plan_id":"cebpf4jnsgd1na2vs0mg"},{"bike_id":"5d3de634-4f2e-4dc3-92c9-c713336471ee","system_id":"levelo_inurba_marseille","lat":43.24071,"lon":5.37755,"is_reserved":false,"is_disabled":false,"rental_uris":{"android":"levelo://app?vid=5d3de634-4f2e-4dc3-92c9-c713336471ee","ios":"levelo://app?vid=5d3de634-4f2e-4dc3-92c9-c713336471ee"},"vehicle_type_id":"4","last_reported":1741594263,"current_range_meters":7200,"station_id":"ce4bhnp2rcd13ifvqgvg","pricing_plan_id":"cebpf4jnsgd1na2vs0mg"},{"bike_id":"55fc6b10-f388-48db-a281-045fb494a3fc","system_id":"levelo_inurba_marseille","lat":43.24064,"lon":5.37758,"is_reserved":false,"is_disabled":false,"rental_uris":{"android":"levelo://app?vid=55fc6b10-f388-48db-a281-045fb494a3fc","ios":"levelo://app?vid=55fc6b10-f388-48db-a281-045fb494a3fc"},"vehicle_type_id":"4","last_reported":1741594263,"current_range_meters":7200,"station_id":"ce4bhnp2rcd13ifvqgvg","pricing_plan_id":"cebpf4jnsgd1na2vs0mg"},{"bike_id":"b4c9fc08-92b4-40ba-ba9e-03e885dbfc0c","system_id":"levelo_inurba_marseille","lat":43.23081,"lon":5.35454,"is_reserved":false,"is_disabled":false,"rental_uris":{"android":"levelo://app?vid=b4c9fc08-92b4-40ba-ba9e-03e885dbfc0c","ios":"levelo://app?vid=b4c9fc08-92b4-40ba-ba9e-03e885dbfc0c"},"vehicle_type_id":"4","last_reported":1741594263,"current_range_meters":7200,"station_id":"cpo3342slgdg3j2ifvpg","pricing_plan_id":"cebpf4jnsgd1na2vs0mg"},{"bike_id":"a64cb479-0cc7-4584-92c4-25a2b8534a3f","system_id":"levelo_inurba_marseille","lat":43.26943,"lon":5.38636,"is_reserved":false,"is_disabled":false,"rental_uris":{"android":"levelo://app?vid=a64cb479-0cc7-4584-92c4-25a2b8534a3f","ios":"levelo://app?vid=a64cb479-0cc7-4584-92c4-25a2b8534a3f"},"vehicle_type_id":"4","last_reported":1741594263,"current_range_meters":8000,"station_id":"ce4bhh92rcd13ifvqfh0","pricing_plan_id":"cebpf4jnsgd1na2vs0mg"},{"bike_id":"f2c740ac-4419-4994-9e4f-a0bf1a34d41e","system_id":"levelo_inurba_marseille","lat":43.27682,"lon":5.38877,"is_reserved":false,"is_disabled":false,"rental_uris":{"android":"levelo://app?vid=f2c740ac-4419-4994-9e4f-a0bf1a34d41e","ios":"levelo://app?vid=f2c740ac-4419-4994-9e4f-a0bf1a34d41e"},"vehicle_type_id":"4","last_reported":1741594263,"current_range_meters":8000,"station_id":"ce4bhi12rcd13ifvqfo0","pricing_plan_id":"cebpf4jnsgd1na2vs0mg"},{"bike_id":"18656ee1-bec4-47b9-821d-61902b6f5512","system_id":"levelo_inurba_marseille","lat":43.24552,"lon":5.39523,"is_reserved":false,"is_disabled":false,"rental_uris":{"android":"levelo://app?vid=18656ee1-bec4-47b9-821d-61902b6f5512","ios":"levelo://app?vid=18656ee1-bec4-47b9-821d-61902b6f5512"},"vehicle_type_id":"4","last_reported":1741594263,"current_range_meters":8000,"station_id":"ce4bhlp2rcd13ifvqgjg","pricing_plan_id":"cebpf4jnsgd1na2vs0mg"},{"bike_id":"f5d27d01-effc-4a0c-b4ac-2b42b750aca5","system_id":"levelo_inurba_marseille","lat":43.24545,"lon":5.39536,"is_reserved":false,"is_disabled":false,"rental_uris":{"android":"levelo://app?vid=f5d27d01-effc-4a0c-b4ac-2b42b750aca5","ios":"levelo://app?vid=f5d27d01-effc-4a0c-b4ac-2b42b750aca5"},"vehicle_type_id":"4","last_reported":1741594263,"current_range_meters":8000,"station_id":"ce4bhlp2rcd13ifvqgjg","pricing_plan_id":"cebpf4jnsgd1na2vs0mg"},{"bike_id":"b0ead537-d890-4d14-a3e6-7854e30d0bf6","system_id":"levelo_inurba_marseille","lat":43.29818,"lon":5.382,"is_reserved":false,"is_disabled":false,"rental_uris":{"android":"levelo://app?vid=b0ead537-d890-4d14-a3e6-7854e30d0bf6","ios":"levelo://app?vid=b0ead537-d890-4d14-a3e6-7854e30d0bf6"},"vehicle_type_id":"4","last_reported":1741594263,"current_range_meters":8400,"station_id":"","pricing_plan_id":"cebpf4jnsgd1na2vs0mg"},{"bike_id":"6d30fa00-fa73-4a2d-aac6-368b08cd61f0","system_id":"levelo_inurba_marseille","lat":43.311946,"lon":5.379451,"is_reserved":false,"is_disabled":false,"rental_uris":{"android":"levelo://app?vid=6d30fa00-fa73-4a2d-aac6-368b08cd61f0","ios":"levelo://app?vid=6d30fa00-fa73-4a2d-aac6-368b08cd61f0"},"vehicle_type_id":"4","last_reported":1741594263,"current_range_meters":8400,"station_id":"","pricing_plan_id":"cebpf4jnsgd1na2vs0mg"},{"bike_id":"66c4a070-1967-4299-9156-0d086acbd60c","system_id":"levelo_inurba_marseille","lat":43.31222,"lon":5.36867,"is_reserved":false,"is_disabled":false,"rental_uris":{"android":"levelo://app?vid=66c4a070-1967-4299-9156-0d086acbd60c","ios":"levelo://app?vid=66c4a070-1967-4299-9156-0d086acbd60c"},"vehicle_type_id":"4","last_reported":1741594263,"current_range_meters":8400,"station_id":"ce4bgl92rcd13ifvqbq0","pricing_plan_id":"cebpf4jnsgd1na2vs0mg"},{"bike_id":"c7790178-d3d2-480d-ba8d-c28bafdfcf7a","system_id":"levelo_inurba_marseille","lat":43.31349,"lon":5.36731,"is_reserved":false,"is_disabled":false,"rental_uris":{"android":"levelo://app?vid=c7790178-d3d2-480d-ba8d-c28bafdfcf7a","ios":"levelo://app?vid=c7790178-d3d2-480d-ba8d-c28bafdfcf7a"},"vehicle_type_id":"4","last_reported":1741594263,"current_range_meters":8400,"station_id":"ce4bgr92rcd13ifvqc6g","pricing_plan_id":"cebpf4jnsgd1na2vs0mg"},{"bike_id":"68bcf1b4-26f6-44e4-abca-d12a32c052b2","system_id":"levelo_inurba_marseille","lat":43.26697,"lon":5.38269,"is_reserved":false,"is_disabled":false,"rental_uris":{"android":"levelo://app?vid=68bcf1b4-26f6-44e4-abca-d12a32c052b2","ios":"levelo://app?vid=68bcf1b4-26f6-44e4-abca-d12a32c052b2"},"vehicle_type_id":"4","last_reported":1741594263,"current_range_meters":8400,"station_id":"ce4bhg92rcd13ifvqf90","pricing_plan_id":"cebpf4jnsgd1na2vs0mg"},{"bike_id":"67fc845a-4e54-4c1c-8b59-aae9c41867a4","system_id":"levelo_inurba_marseille","lat":43.27102,"lon":5.42273,"is_reserved":false,"is_disabled":false,"rental_uris":{"android":"levelo://app?vid=67fc845a-4e54-4c1c-8b59-aae9c41867a4","ios":"levelo://app?vid=67fc845a-4e54-4c1c-8b59-aae9c41867a4"},"vehicle_type_id":"4","last_reported":1741594263,"current_range_meters":8400,"station_id":"ce4bhk92rcd13ifvqgb0","pricing_plan_id":"cebpf4jnsgd1na2vs0mg"},{"bike_id":"ebb2d58b-982f-41cd-b65c-668035c69ec1","system_id":"levelo_inurba_marseille","lat":43.30506,"lon":5.37134,"is_reserved":false,"is_disabled":false,"rental_uris":{"android":"levelo://app?vid=ebb2d58b-982f-41cd-b65c-668035c69ec1","ios":"levelo://app?vid=ebb2d58b-982f-41cd-b65c-668035c69ec1"},"vehicle_type_id":"4","last_reported":1741594263,"current_range_meters":8800,"station_id":"","pricing_plan_id":"cebpf4jnsgd1na2vs0mg"},{"bike_id":"15be1787-ffd3-4976-8d1b-49d10459ca14","system_id":"levelo_inurba_marseille","lat":43.30546,"lon":5.36537,"is_reserved":false,"is_disabled":false,"rental_uris":{"android":"levelo://app?vid=15be1787-ffd3-4976-8d1b-49d10459ca14","ios":"levelo://app?vid=15be1787-ffd3-4976-8d1b-49d10459ca14"},"vehicle_type_id":"4","last_reported":1741594263,"current_range_meters":8800,"station_id":"ce4bgs12rcd13ifvqcag","pricing_plan_id":"cebpf4jnsgd1na2vs0mg"},{"bike_id":"045eaadf-27e3-4933-a165-91600a1deffb","system_id":"levelo_inurba_marseille","lat":43.25937,"lon":5.40909,"is_reserved":false,"is_disabled":false,"rental_uris":{"android":"levelo://app?vid=045eaadf-27e3-4933-a165-91600a1deffb","ios":"levelo://app?vid=045eaadf-27e3-4933-a165-91600a1deffb"},"vehicle_type_id":"4","last_reported":1741594263,"current_range_meters":8800,"station_id":"ce4bhm92rcd13ifvqglg","pricing_plan_id":"cebpf4jnsgd1na2vs0mg"},{"bike_id":"85ada2ed-88bb-4067-a78c-81d0d71bf163","system_id":"levelo_inurba_marseille","lat":43.28152,"lon":5.42644,"is_reserved":false,"is_disabled":false,"rental_uris":{"android":"levelo://app?vid=85ada2ed-88bb-4067-a78c-81d0d71bf163","ios":"levelo://app?vid=85ada2ed-88bb-4067-a78c-81d0d71bf163"},"vehicle_type_id":"4","last_reported":1741594263,"current_range_meters":8800,"station_id":"ce4bhnh2rcd13ifvqgug","pricing_plan_id":"cebpf4jnsgd1na2vs0mg"},{"bike_id":"61193e8a-8e60-4220-8577-846bbeba5e58","system_id":"levelo_inurba_marseille","lat":43.30632,"lon":5.37426,"is_reserved":false,"is_disabled":false,"rental_uris":{"android":"levelo://app?vid=61193e8a-8e60-4220-8577-846bbeba5e58","ios":"levelo://app?vid=61193e8a-8e60-4220-8577-846bbeba5e58"},"vehicle_type_id":"4","last_reported":1741594263,"current_range_meters":9200,"station_id":"","pricing_plan_id":"cebpf4jnsgd1na2vs0mg"},{"bike_id":"08b7fb52-5e45-4fc7-b899-a1b224f588e5","system_id":"levelo_inurba_marseille","lat":43.31514,"lon":5.37274,"is_reserved":false,"is_disabled":false,"rental_uris":{"android":"levelo://app?vid=08b7fb52-5e45-4fc7-b899-a1b224f588e5","ios":"levelo://app?vid=08b7fb52-5e45-4fc7-b899-a1b224f588e5"},"vehicle_type_id":"4","last_reported":1741594263,"current_range_meters":9200,"station_id":"ce4bgt12rcd13ifvqcd0","pricing_plan_id":"cebpf4jnsgd1na2vs0mg"},{"bike_id":"e3139aee-4d41-424e-bc2d-c59a3cbc3d4b","system_id":"levelo_inurba_marseille","lat":43.30968,"lon":5.39051,"is_reserved":false,"is_disabled":false,"rental_uris":{"android":"levelo://app?vid=e3139aee-4d41-424e-bc2d-c59a3cbc3d4b","ios":"levelo://app?vid=e3139aee-4d41-424e-bc2d-c59a3cbc3d4b"},"vehicle_type_id":"4","last_reported":1741594263,"current_range_meters":9200,"station_id":"ce4bgup2rcd13ifvqco0","pricing_plan_id":"cebpf4jnsgd1na2vs0mg"},{"bike_id":"1c481fb0-d338-447e-9ac4-5d0e02692c73","system_id":"levelo_inurba_marseille","lat":43.25495,"lon":5.37647,"is_reserved":false,"is_disabled":false,"rental_uris":{"android":"levelo://app?vid=1c481fb0-d338-447e-9ac4-5d0e02692c73","ios":"levelo://app?vid=1c481fb0-d338-447e-9ac4-5d0e02692c73"},"vehicle_type_id":"4","last_reported":1741594263,"current_range_meters":9200,"station_id":"ce4bhh12rcd13ifvqff0","pricing_plan_id":"cebpf4jnsgd1na2vs0mg"},{"bike_id":"60f4da96-da64-488c-98f7-c9a61709620a","system_id":"levelo_inurba_marseille","lat":43.25551,"lon":5.38266,"is_reserved":false,"is_disabled":false,"rental_uris":{"android":"levelo://app?vid=60f4da96-da64-488c-98f7-c9a61709620a","ios":"levelo://app?vid=60f4da96-da64-488c-98f7-c9a61709620a"},"vehicle_type_id":"4","last_reported":1741594263,"current_range_meters":9200,"station_id":"ce4bhih2rcd13ifvqfs0","pricing_plan_id":"cebpf4jnsgd1na2vs0mg"},{"bike_id":"435bfe2a-0139-4e21-ab4f-977998275987","system_id":"levelo_inurba_marseille","lat":43.25937,"lon":5.40898,"is_reserved":false,"is_disabled":false,"rental_uris":{"android":"levelo://app?vid=435bfe2a-0139-4e21-ab4f-977998275987","ios":"levelo://app?vid=435bfe2a-0139-4e21-ab4f-977998275987"},"vehicle_type_id":"4","last_reported":1741594263,"current_range_meters":9200,"station_id":"ce4bhm92rcd13ifvqglg","pricing_plan_id":"cebpf4jnsgd1na2vs0mg"},{"bike_id":"6332f21c-b735-409b-8f12-ffcec3dc9b39","system_id":"levelo_inurba_marseille","lat":43.2319,"lon":5.40015,"is_reserved":false,"is_disabled":false,"rental_uris":{"android":"levelo://app?vid=6332f21c-b735-409b-8f12-ffcec3dc9b39","ios":"levelo://app?vid=6332f21c-b735-409b-8f12-ffcec3dc9b39"},"vehicle_type_id":"4","last_reported":1741594263,"current_range_meters":9200,"station_id":"ce4bhn12rcd13ifvqgqg","pricing_plan_id":"cebpf4jnsgd1na2vs0mg"},{"bike_id":"11f35fc8-bf5a-42db-8ee3-67d16f82ad59","system_id":"levelo_inurba_marseille","lat":43.2409,"lon":5.37753,"is_reserved":false,"is_disabled":false,"rental_uris":{"android":"levelo://app?vid=11f35fc8-bf5a-42db-8ee3-67d16f82ad59","ios":"levelo://app?vid=11f35fc8-bf5a-42db-8ee3-67d16f82ad59"},"vehicle_type_id":"4","last_reported":1741594263,"current_range_meters":9200,"station_id":"ce4bhnp2rcd13ifvqgvg","pricing_plan_id":"cebpf4jnsgd1na2vs0mg"},{"bike_id":"7f08542c-3622-4bee-8852-d0974c0ec085","system_id":"levelo_inurba_marseille","lat":43.24135,"lon":5.36362,"is_reserved":false,"is_disabled":false,"rental_uris":{"android":"levelo://app?vid=7f08542c-3622-4bee-8852-d0974c0ec085","ios":"levelo://app?vid=7f08542c-3622-4bee-8852-d0974c0ec085"},"vehicle_type_id":"4","last_reported":1741594263,"current_range_meters":9200,"station_id":"cpo36qri1sfpv3e86is0","pricing_plan_id":"cebpf4jnsgd1na2vs0mg"},{"bike_id":"239162f1-6901-4b7a-b4a8-fb7b0f41bdca","system_id":"levelo_inurba_marseille","lat":43.25631,"lon":5.38131,"is_reserved":false,"is_disabled":false,"rental_uris":{"android":"levelo://app?vid=239162f1-6901-4b7a-b4a8-fb7b0f41bdca","ios":"levelo://app?vid=239162f1-6901-4b7a-b4a8-fb7b0f41bdca"},"vehicle_type_id":"4","last_reported":1741594263,"current_range_meters":9600,"station_id":"","pricing_plan_id":"cebpf4jnsgd1na2vs0mg"},{"bike_id":"1f72adc6-3d1a-4fad-a905-cb9dcd596e26","system_id":"levelo_inurba_marseille","lat":43.23842,"lon":5.43582,"is_reserved":false,"is_disabled":false,"rental_uris":{"android":"levelo://app?vid=1f72adc6-3d1a-4fad-a905-cb9dcd596e26","ios":"levelo://app?vid=1f72adc6-3d1a-4fad-a905-cb9dcd596e26"},"vehicle_type_id":"4","last_reported":1741594263,"current_range_meters":9600,"station_id":"","pricing_plan_id":"cebpf4jnsgd1na2vs0mg"},{"bike_id":"f7e3bdae-a1b7-42a5-985e-360b1f923322","system_id":"levelo_inurba_marseille","lat":43.29931,"lon":5.37474,"is_reserved":false,"is_disabled":false,"rental_uris":{"android":"levelo://app?vid=f7e3bdae-a1b7-42a5-985e-360b1f923322","ios":"levelo://app?vid=f7e3bdae-a1b7-42a5-985e-360b1f923322"},"vehicle_type_id":"4","last_reported":1741594263,"current_range_meters":9600,"station_id":"ce4bgjh2rcd13ifvqbg0","pricing_plan_id":"cebpf4jnsgd1na2vs0mg"},{"bike_id":"3cf765c1-9b94-444c-b309-719d12cb0bc8","system_id":"levelo_inurba_marseille","lat":43.30536,"lon":5.36727,"is_reserved":false,"is_disabled":false,"rental_uris":{"android":"levelo://app?vid=3cf765c1-9b94-444c-b309-719d12cb0bc8","ios":"levelo://app?vid=3cf765c1-9b94-444c-b309-719d12cb0bc8"},"vehicle_type_id":"4","last_reported":1741594263,"current_range_meters":9600,"station_id":"ce4bgrp2rcd13ifvqc9g","pricing_plan_id":"cebpf4jnsgd1na2vs0mg"},{"bike_id":"c528ac76-1f15-4207-8438-1a21104a978d","system_id":"levelo_inurba_marseille","lat":43.24998,"lon":5.3894,"is_reserved":false,"is_disabled":false,"rental_uris":{"android":"levelo://app?vid=c528ac76-1f15-4207-8438-1a21104a978d","ios":"levelo://app?vid=c528ac76-1f15-4207-8438-1a21104a978d"},"vehicle_type_id":"4","last_reported":1741594263,"current_range_meters":9600,"station_id":"ce4bhgp2rcd13ifvqfd0","pricing_plan_id":"cebpf4jnsgd1na2vs0mg"},{"bike_id":"a249eb15-8351-4e17-b802-b3b06f8f2d64","system_id":"levelo_inurba_marseille","lat":43.32489,"lon":5.3656,"is_reserved":false,"is_disabled":false,"rental_uris":{"android":"levelo://app?vid=a249eb15-8351-4e17-b802-b3b06f8f2d64","ios":"levelo://app?vid=a249eb15-8351-4e17-b802-b3b06f8f2d64"},"vehicle_type_id":"4","last_reported":1741594263,"current_range_meters":9600,"station_id":"ce4bhs12rcd13ifvqhvg","pricing_plan_id":"cebpf4jnsgd1na2vs0mg"},{"bike_id":"195498c8-08fd-4cb8-b960-8f8120d9880b","system_id":"levelo_inurba_marseille","lat":43.28976,"lon":5.35527,"is_reserved":false,"is_disabled":false,"rental_uris":{"android":"levelo://app?vid=195498c8-08fd-4cb8-b960-8f8120d9880b","ios":"levelo://app?vid=195498c8-08fd-4cb8-b960-8f8120d9880b"},"vehicle_type_id":"4","last_reported":1741594263,"current_range_meters":10000,"station_id":"ce4bhbp2rcd13ifvqerg","pricing_plan_id":"cebpf4jnsgd1na2vs0mg"},{"bike_id":"dc7d365d-8fb8-43a5-a36d-599342368973","system_id":"levelo_inurba_marseille","lat":43.26562,"lon":5.39032,"is_reserved":false,"is_disabled":false,"rental_uris":{"android":"levelo://app?vid=dc7d365d-8fb8-43a5-a36d-599342368973","ios":"levelo://app?vid=dc7d365d-8fb8-43a5-a36d-599342368973"},"vehicle_type_id":"4","last_reported":1741594263,"current_range_meters":10000,"station_id":"ce4bhh92rcd13ifvqfh0","pricing_plan_id":"cebpf4jnsgd1na2vs0mg"},{"bike_id":"ef6303de-f84a-4b1f-9060-2a8d28e015bb","system_id":"levelo_inurba_marseille","lat":43.24062,"lon":5.37748,"is_reserved":false,"is_disabled":false,"rental_uris":{"android":"levelo://app?vid=ef6303de-f84a-4b1f-9060-2a8d28e015bb","ios":"levelo://app?vid=ef6303de-f84a-4b1f-9060-2a8d28e015bb"},"vehicle_type_id":"4","last_reported":1741594263,"current_range_meters":10000,"station_id":"ce4bhnp2rcd13ifvqgvg","pricing_plan_id":"cebpf4jnsgd1na2vs0mg"},{"bike_id":"199cb7b2-857a-4db4-b08b-30cc2dc0c4f3","system_id":"levelo_inurba_marseille","lat":43.31707,"lon":5.43706,"is_reserved":false,"is_disabled":false,"rental_uris":{"android":"levelo://app?vid=199cb7b2-857a-4db4-b08b-30cc2dc0c4f3","ios":"levelo://app?vid=199cb7b2-857a-4db4-b08b-30cc2dc0c4f3"},"vehicle_type_id":"4","last_reported":1741594263,"current_range_meters":10000,"station_id":"ce4bhp92rcd13ifvqhcg","pricing_plan_id":"cebpf4jnsgd1na2vs0mg"},{"bike_id":"77a4f926-21bd-441f-b6cb-8e1951ee5fc8","system_id":"levelo_inurba_marseille","lat":43.32547,"lon":5.41427,"is_reserved":false,"is_disabled":false,"rental_uris":{"android":"levelo://app?vid=77a4f926-21bd-441f-b6cb-8e1951ee5fc8","ios":"levelo://app?vid=77a4f926-21bd-441f-b6cb-8e1951ee5fc8"},"vehicle_type_id":"4","last_reported":1741594263,"current_range_meters":10000,"station_id":"ce4bhq12rcd13ifvqhhg","pricing_plan_id":"cebpf4jnsgd1na2vs0mg"},{"bike_id":"46dcef25-2959-4ea9-b205-86dadd9ae292","system_id":"levelo_inurba_marseille","lat":43.29898,"lon":5.38074,"is_reserved":false,"is_disabled":false,"rental_uris":{"android":"levelo://app?vid=46dcef25-2959-4ea9-b205-86dadd9ae292","ios":"levelo://app?vid=46dcef25-2959-4ea9-b205-86dadd9ae292"},"vehicle_type_id":"4","last_reported":1741594263,"current_range_meters":10800,"station_id":"ce4bgj12rcd13ifvqbc0","pricing_plan_id":"cebpf4jnsgd1na2vs0mg"},{"bike_id":"17e71706-a905-44b0-b56a-9b68d9a70c1b","system_id":"levelo_inurba_marseille","lat":43.25929,"lon":5.40935,"is_reserved":false,"is_disabled":false,"rental_uris":{"android":"levelo://app?vid=17e71706-a905-44b0-b56a-9b68d9a70c1b","ios":"levelo://app?vid=17e71706-a905-44b0-b56a-9b68d9a70c1b"},"vehicle_type_id":"4","last_reported":1741594263,"current_range_meters":10800,"station_id":"ce4bhm92rcd13ifvqglg","pricing_plan_id":"cebpf4jnsgd1na2vs0mg"},{"bike_id":"96f5041e-4c0c-4051-b49b-72c4cf668d09","system_id":"levelo_inurba_marseille","lat":43.287,"lon":5.39983,"is_reserved":false,"is_disabled":false,"rental_uris":{"android":"levelo://app?vid=96f5041e-4c0c-4051-b49b-72c4cf668d09","ios":"levelo://app?vid=96f5041e-4c0c-4051-b49b-72c4cf668d09"},"vehicle_type_id":"4","last_reported":1741594263,"current_range_meters":10800,"station_id":"ce4bho92rcd13ifvqh3g","pricing_plan_id":"cebpf4jnsgd1na2vs0mg"},{"bike_id":"acc1658b-7ea3-44a5-a65b-40f1faa0438d","system_id":"levelo_inurba_marseille","lat":43.32542,"lon":5.41435,"is_reserved":false,"is_disabled":false,"rental_uris":{"android":"levelo://app?vid=acc1658b-7ea3-44a5-a65b-40f1faa0438d","ios":"levelo://app?vid=acc1658b-7ea3-44a5-a65b-40f1faa0438d"},"vehicle_type_id":"4","last_reported":1741594263,"current_range_meters":10800,"station_id":"ce4bhq12rcd13ifvqhhg","pricing_plan_id":"cebpf4jnsgd1na2vs0mg"},{"bike_id":"98de571b-b137-41e1-a957-f1f43c068d6a","system_id":"levelo_inurba_marseille","lat":43.32491,"lon":5.36569,"is_reserved":false,"is_disabled":false,"rental_uris":{"android":"levelo://app?vid=98de571b-b137-41e1-a957-f1f43c068d6a","ios":"levelo://app?vid=98de571b-b137-41e1-a957-f1f43c068d6a"},"vehicle_type_id":"4","last_reported":1741594263,"current_range_meters":10800,"station_id":"ce4bhs12rcd13ifvqhvg","pricing_plan_id":"cebpf4jnsgd1na2vs0mg"},{"bike_id":"3ed0c8ba-c7f7-40d8-9403-a3f96d6af6b9","system_id":"levelo_inurba_marseille","lat":43.32351,"lon":5.36756,"is_reserved":false,"is_disabled":false,"rental_uris":{"android":"levelo://app?vid=3ed0c8ba-c7f7-40d8-9403-a3f96d6af6b9","ios":"levelo://app?vid=3ed0c8ba-c7f7-40d8-9403-a3f96d6af6b9"},"vehicle_type_id":"4","last_reported":1741594263,"current_range_meters":10800,"station_id":"ce4bhsh2rcd13ifvqi2g","pricing_plan_id":"cebpf4jnsgd1na2vs0mg"},{"bike_id":"8db12307-83c5-4ab1-8e4e-b5f471f883f6","system_id":"levelo_inurba_marseille","lat":43.25094,"lon":5.39586,"is_reserved":false,"is_disabled":false,"rental_uris":{"android":"levelo://app?vid=8db12307-83c5-4ab1-8e4e-b5f471f883f6","ios":"levelo://app?vid=8db12307-83c5-4ab1-8e4e-b5f471f883f6"},"vehicle_type_id":"4","last_reported":1741594263,"current_range_meters":11600,"station_id":"","pricing_plan_id":"cebpf4jnsgd1na2vs0mg"},{"bike_id":"4ec5d479-c92c-4224-8409-3cb864eeca2a","system_id":"levelo_inurba_marseille","lat":43.28169,"lon":5.40459,"is_reserved":false,"is_disabled":false,"rental_uris":{"android":"levelo://app?vid=4ec5d479-c92c-4224-8409-3cb864eeca2a","ios":"levelo://app?vid=4ec5d479-c92c-4224-8409-3cb864eeca2a"},"vehicle_type_id":"4","last_reported":1741594263,"current_range_meters":11600,"station_id":"","pricing_plan_id":"cebpf4jnsgd1na2vs0mg"},{"bike_id":"dfa08677-d5e8-48b0-9ad6-ea8173c6f7d2","system_id":"levelo_inurba_marseille","lat":43.24033,"lon":5.37785,"is_reserved":false,"is_disabled":false,"rental_uris":{"android":"levelo://app?vid=dfa08677-d5e8-48b0-9ad6-ea8173c6f7d2","ios":"levelo://app?vid=dfa08677-d5e8-48b0-9ad6-ea8173c6f7d2"},"vehicle_type_id":"4","last_reported":1741594263,"current_range_meters":11600,"station_id":"ce4bhnp2rcd13ifvqgvg","pricing_plan_id":"cebpf4jnsgd1na2vs0mg"},{"bike_id":"9accf568-b81b-4f5a-b823-6a23bfcb8604","system_id":"levelo_inurba_marseille","lat":43.2409,"lon":5.37767,"is_reserved":false,"is_disabled":false,"rental_uris":{"android":"levelo://app?vid=9accf568-b81b-4f5a-b823-6a23bfcb8604","ios":"levelo://app?vid=9accf568-b81b-4f5a-b823-6a23bfcb8604"},"vehicle_type_id":"4","last_reported":1741594263,"current_range_meters":11600,"station_id":"ce4bhnp2rcd13ifvqgvg","pricing_plan_id":"cebpf4jnsgd1na2vs0mg"},{"bike_id":"158e535f-825e-4468-93be-62b6e673c923","system_id":"levelo_inurba_marseille","lat":43.26173,"lon":5.42088,"is_reserved":false,"is_disabled":false,"rental_uris":{"android":"levelo://app?vid=158e535f-825e-4468-93be-62b6e673c923","ios":"levelo://app?vid=158e535f-825e-4468-93be-62b6e673c923"},"vehicle_type_id":"4","last_reported":1741594263,"current_range_meters":12000,"station_id":"","pricing_plan_id":"cebpf4jnsgd1na2vs0mg"},{"bike_id":"51764fd4-f7e8-4dab-bb95-270ccffd0c37","system_id":"levelo_inurba_marseille","lat":43.3135,"lon":5.36727,"is_reserved":false,"is_disabled":false,"rental_uris":{"android":"levelo://app?vid=51764fd4-f7e8-4dab-bb95-270ccffd0c37","ios":"levelo://app?vid=51764fd4-f7e8-4dab-bb95-270ccffd0c37"},"vehicle_type_id":"4","last_reported":1741594263,"current_range_meters":12000,"station_id":"ce4bgr92rcd13ifvqc6g","pricing_plan_id":"cebpf4jnsgd1na2vs0mg"},{"bike_id":"9542d8f6-8829-423d-94df-f2dd9ce06c30","system_id":"levelo_inurba_marseille","lat":43.30177,"lon":5.36643,"is_reserved":false,"is_disabled":false,"rental_uris":{"android":"levelo://app?vid=9542d8f6-8829-423d-94df-f2dd9ce06c30","ios":"levelo://app?vid=9542d8f6-8829-423d-94df-f2dd9ce06c30"},"vehicle_type_id":"4","last_reported":1741594263,"current_range_meters":12000,"station_id":"ce4bgrh2rcd13ifvqc8g","pricing_plan_id":"cebpf4jnsgd1na2vs0mg"},{"bike_id":"906c6e5a-4ec6-4885-afda-48adb50c51d3","system_id":"levelo_inurba_marseille","lat":43.243874,"lon":5.370536,"is_reserved":false,"is_disabled":false,"rental_uris":{"android":"levelo://app?vid=906c6e5a-4ec6-4885-afda-48adb50c51d3","ios":"levelo://app?vid=906c6e5a-4ec6-4885-afda-48adb50c51d3"},"vehicle_type_id":"4","last_reported":1741594263,"current_range_meters":12000,"station_id":"ce4bhhh2rcd13ifvqfk0","pricing_plan_id":"cebpf4jnsgd1na2vs0mg"},{"bike_id":"43b3cc00-4077-4657-9467-20046fb2277c","system_id":"levelo_inurba_marseille","lat":43.25122,"lon":5.40325,"is_reserved":false,"is_disabled":false,"rental_uris":{"android":"levelo://app?vid=43b3cc00-4077-4657-9467-20046fb2277c","ios":"levelo://app?vid=43b3cc00-4077-4657-9467-20046fb2277c"},"vehicle_type_id":"4","last_reported":1741594263,"current_range_meters":12000,"station_id":"ce4bhlh2rcd13ifvqgig","pricing_plan_id":"cebpf4jnsgd1na2vs0mg"},{"bike_id":"8579e54f-565e-4025-a73c-88723bee831d","system_id":"levelo_inurba_marseille","lat":43.23182,"lon":5.39996,"is_reserved":false,"is_disabled":false,"rental_uris":{"android":"levelo://app?vid=8579e54f-565e-4025-a73c-88723bee831d","ios":"levelo://app?vid=8579e54f-565e-4025-a73c-88723bee831d"},"vehicle_type_id":"4","last_reported":1741594263,"current_range_meters":12000,"station_id":"ce4bhn12rcd13ifvqgqg","pricing_plan_id":"cebpf4jnsgd1na2vs0mg"},{"bike_id":"4cfbdb17-1931-457c-a7e0-e66504671741","system_id":"levelo_inurba_marseille","lat":43.24076,"lon":5.37757,"is_reserved":false,"is_disabled":false,"rental_uris":{"android":"levelo://app?vid=4cfbdb17-1931-457c-a7e0-e66504671741","ios":"levelo://app?vid=4cfbdb17-1931-457c-a7e0-e66504671741"},"vehicle_type_id":"4","last_reported":1741594263,"current_range_meters":12000,"station_id":"ce4bhnp2rcd13ifvqgvg","pricing_plan_id":"cebpf4jnsgd1na2vs0mg"},{"bike_id":"a5c5ade0-6f33-45a7-beaf-3545d30425b1","system_id":"levelo_inurba_marseille","lat":43.24075,"lon":5.37764,"is_reserved":false,"is_disabled":false,"rental_uris":{"android":"levelo://app?vid=a5c5ade0-6f33-45a7-beaf-3545d30425b1","ios":"levelo://app?vid=a5c5ade0-6f33-45a7-beaf-3545d30425b1"},"vehicle_type_id":"4","last_reported":1741594263,"current_range_meters":12000,"station_id":"ce4bhnp2rcd13ifvqgvg","pricing_plan_id":"cebpf4jnsgd1na2vs0mg"},{"bike_id":"ae4913d3-c7b3-4e3b-8b0e-9eedefc8bcf1","system_id":"levelo_inurba_marseille","lat":43.31314,"lon":5.38836,"is_reserved":false,"is_disabled":false,"rental_uris":{"android":"levelo://app?vid=ae4913d3-c7b3-4e3b-8b0e-9eedefc8bcf1","ios":"levelo://app?vid=ae4913d3-c7b3-4e3b-8b0e-9eedefc8bcf1"},"vehicle_type_id":"4","last_reported":1741594263,"current_range_meters":12400,"station_id":"","pricing_plan_id":"cebpf4jnsgd1na2vs0mg"},{"bike_id":"6bf01d46-d202-42a3-9ad7-99a7367081c0","system_id":"levelo_inurba_marseille","lat":43.31317,"lon":5.36818,"is_reserved":false,"is_disabled":false,"rental_uris":{"android":"levelo://app?vid=6bf01d46-d202-42a3-9ad7-99a7367081c0","ios":"levelo://app?vid=6bf01d46-d202-42a3-9ad7-99a7367081c0"},"vehicle_type_id":"4","last_reported":1741594263,"current_range_meters":12400,"station_id":"","pricing_plan_id":"cebpf4jnsgd1na2vs0mg"},{"bike_id":"8ff3983c-32e4-4cef-b292-8d3f53050c89","system_id":"levelo_inurba_marseille","lat":43.30908,"lon":5.36854,"is_reserved":false,"is_disabled":false,"rental_uris":{"android":"levelo://app?vid=8ff3983c-32e4-4cef-b292-8d3f53050c89","ios":"levelo://app?vid=8ff3983c-32e4-4cef-b292-8d3f53050c89"},"vehicle_type_id":"4","last_reported":1741594263,"current_range_meters":12400,"station_id":"ce4bgn92rcd13ifvqbvg","pricing_plan_id":"cebpf4jnsgd1na2vs0mg"},{"bike_id":"534939f3-eb05-4d25-998c-2b253ef466b0","system_id":"levelo_inurba_marseille","lat":43.30461,"lon":5.37903,"is_reserved":false,"is_disabled":false,"rental_uris":{"android":"levelo://app?vid=534939f3-eb05-4d25-998c-2b253ef466b0","ios":"levelo://app?vid=534939f3-eb05-4d25-998c-2b253ef466b0"},"vehicle_type_id":"4","last_reported":1741594263,"current_range_meters":12400,"station_id":"ce4bgup2rcd13ifvqcn0","pricing_plan_id":"cebpf4jnsgd1na2vs0mg"},{"bike_id":"1689e47c-b3be-41f1-825a-50008dbe5a30","system_id":"levelo_inurba_marseille","lat":43.26561,"lon":5.37284,"is_reserved":false,"is_disabled":false,"rental_uris":{"android":"levelo://app?vid=1689e47c-b3be-41f1-825a-50008dbe5a30","ios":"levelo://app?vid=1689e47c-b3be-41f1-825a-50008dbe5a30"},"vehicle_type_id":"4","last_reported":1741594263,"current_range_meters":12400,"station_id":"ce4bhg12rcd13ifvqf70","pricing_plan_id":"cebpf4jnsgd1na2vs0mg"},{"bike_id":"e1464fd1-88dd-4217-9b48-8798f8d7a4bc","system_id":"levelo_inurba_marseille","lat":43.24392,"lon":5.37057,"is_reserved":false,"is_disabled":false,"rental_uris":{"android":"levelo://app?vid=e1464fd1-88dd-4217-9b48-8798f8d7a4bc","ios":"levelo://app?vid=e1464fd1-88dd-4217-9b48-8798f8d7a4bc"},"vehicle_type_id":"4","last_reported":1741594263,"current_range_meters":12400,"station_id":"ce4bhhh2rcd13ifvqfk0","pricing_plan_id":"cebpf4jnsgd1na2vs0mg"},{"bike_id":"fdaae881-8580-424e-8f1a-ad42c6fc5fc7","system_id":"levelo_inurba_marseille","lat":43.2594,"lon":5.40898,"is_reserved":false,"is_disabled":false,"rental_uris":{"android":"levelo://app?vid=fdaae881-8580-424e-8f1a-ad42c6fc5fc7","ios":"levelo://app?vid=fdaae881-8580-424e-8f1a-ad42c6fc5fc7"},"vehicle_type_id":"4","last_reported":1741594263,"current_range_meters":12400,"station_id":"ce4bhm92rcd13ifvqglg","pricing_plan_id":"cebpf4jnsgd1na2vs0mg"},{"bike_id":"f69b7152-3937-413e-a7e7-a1fcd79986be","system_id":"levelo_inurba_marseille","lat":43.32114,"lon":5.36761,"is_reserved":false,"is_disabled":false,"rental_uris":{"android":"levelo://app?vid=f69b7152-3937-413e-a7e7-a1fcd79986be","ios":"levelo://app?vid=f69b7152-3937-413e-a7e7-a1fcd79986be"},"vehicle_type_id":"4","last_reported":1741594263,"current_range_meters":12400,"station_id":"ce4bhrh2rcd13ifvqhug","pricing_plan_id":"cebpf4jnsgd1na2vs0mg"},{"bike_id":"c1c80c13-20cb-44f5-aa30-5c8aedb294e8","system_id":"levelo_inurba_marseille","lat":43.32107,"lon":5.36787,"is_reserved":false,"is_disabled":false,"rental_uris":{"android":"levelo://app?vid=c1c80c13-20cb-44f5-aa30-5c8aedb294e8","ios":"levelo://app?vid=c1c80c13-20cb-44f5-aa30-5c8aedb294e8"},"vehicle_type_id":"4","last_reported":1741594263,"current_range_meters":12400,"station_id":"ce4bhrh2rcd13ifvqhug","pricing_plan_id":"cebpf4jnsgd1na2vs0mg"},{"bike_id":"b7fb55da-7d98-4190-9596-87e1582b6aa1","system_id":"levelo_inurba_marseille","lat":43.33779,"lon":5.37447,"is_reserved":false,"is_disabled":false,"rental_uris":{"android":"levelo://app?vid=b7fb55da-7d98-4190-9596-87e1582b6aa1","ios":"levelo://app?vid=b7fb55da-7d98-4190-9596-87e1582b6aa1"},"vehicle_type_id":"4","last_reported":1741594263,"current_range_meters":12800,"station_id":"","pricing_plan_id":"cebpf4jnsgd1na2vs0mg"},{"bike_id":"31f29cac-3aae-4cf2-8f51-239792227105","system_id":"levelo_inurba_marseille","lat":43.24991,"lon":5.38953,"is_reserved":false,"is_disabled":false,"rental_uris":{"android":"levelo://app?vid=31f29cac-3aae-4cf2-8f51-239792227105","ios":"levelo://app?vid=31f29cac-3aae-4cf2-8f51-239792227105"},"vehicle_type_id":"4","last_reported":1741594263,"current_range_meters":12800,"station_id":"ce4bhgp2rcd13ifvqfd0","pricing_plan_id":"cebpf4jnsgd1na2vs0mg"},{"bike_id":"6c7acd0e-d950-476c-9eb3-046468b88ffd","system_id":"levelo_inurba_marseille","lat":43.24696,"lon":5.38148,"is_reserved":false,"is_disabled":false,"rental_uris":{"android":"levelo://app?vid=6c7acd0e-d950-476c-9eb3-046468b88ffd","ios":"levelo://app?vid=6c7acd0e-d950-476c-9eb3-046468b88ffd"},"vehicle_type_id":"4","last_reported":1741594263,"current_range_meters":12800,"station_id":"ce4bhih2rcd13ifvqfr0","pricing_plan_id":"cebpf4jnsgd1na2vs0mg"},{"bike_id":"5168a913-5224-4ddf-8293-e2c5484c5bf7","system_id":"levelo_inurba_marseille","lat":43.2558,"lon":5.38243,"is_reserved":false,"is_disabled":false,"rental_uris":{"android":"levelo://app?vid=5168a913-5224-4ddf-8293-e2c5484c5bf7","ios":"levelo://app?vid=5168a913-5224-4ddf-8293-e2c5484c5bf7"},"vehicle_type_id":"4","last_reported":1741594263,"current_range_meters":12800,"station_id":"ce4bhih2rcd13ifvqfs0","pricing_plan_id":"cebpf4jnsgd1na2vs0mg"},{"bike_id":"8e021f9b-eb72-4b5b-8ad4-72a89a0c7484","system_id":"levelo_inurba_marseille","lat":43.30956,"lon":5.39039,"is_reserved":false,"is_disabled":false,"rental_uris":{"android":"levelo://app?vid=8e021f9b-eb72-4b5b-8ad4-72a89a0c7484","ios":"levelo://app?vid=8e021f9b-eb72-4b5b-8ad4-72a89a0c7484"},"vehicle_type_id":"4","last_reported":1741594263,"current_range_meters":13600,"station_id":"ce4bgup2rcd13ifvqco0","pricing_plan_id":"cebpf4jnsgd1na2vs0mg"},{"bike_id":"863fe8dd-e693-4f8e-84ce-2fd09c5d38bc","system_id":"levelo_inurba_marseille","lat":43.25022,"lon":5.38957,"is_reserved":false,"is_disabled":false,"rental_uris":{"android":"levelo://app?vid=863fe8dd-e693-4f8e-84ce-2fd09c5d38bc","ios":"levelo://app?vid=863fe8dd-e693-4f8e-84ce-2fd09c5d38bc"},"vehicle_type_id":"4","last_reported":1741594263,"current_range_meters":13600,"station_id":"ce4bhgp2rcd13ifvqfd0","pricing_plan_id":"cebpf4jnsgd1na2vs0mg"},{"bike_id":"22e6b03a-4ede-440e-a1aa-6617e4288f96","system_id":"levelo_inurba_marseille","lat":43.25961,"lon":5.40851,"is_reserved":false,"is_disabled":false,"rental_uris":{"android":"levelo://app?vid=22e6b03a-4ede-440e-a1aa-6617e4288f96","ios":"levelo://app?vid=22e6b03a-4ede-440e-a1aa-6617e4288f96"},"vehicle_type_id":"4","last_reported":1741594263,"current_range_meters":13600,"station_id":"ce4bhm92rcd13ifvqglg","pricing_plan_id":"cebpf4jnsgd1na2vs0mg"},{"bike_id":"7e3d8419-8a9f-4911-a4ba-a72be646bfd3","system_id":"levelo_inurba_marseille","lat":43.29553,"lon":5.42336,"is_reserved":false,"is_disabled":false,"rental_uris":{"android":"levelo://app?vid=7e3d8419-8a9f-4911-a4ba-a72be646bfd3","ios":"levelo://app?vid=7e3d8419-8a9f-4911-a4ba-a72be646bfd3"},"vehicle_type_id":"4","last_reported":1741594263,"current_range_meters":13600,"station_id":"ce4bhph2rcd13ifvqhdg","pricing_plan_id":"cebpf4jnsgd1na2vs0mg"},{"bike_id":"caeb1ed2-b70b-481f-b341-ccaa84ec7ae8","system_id":"levelo_inurba_marseille","lat":43.24563,"lon":5.38499,"is_reserved":false,"is_disabled":false,"rental_uris":{"android":"levelo://app?vid=caeb1ed2-b70b-481f-b341-ccaa84ec7ae8","ios":"levelo://app?vid=caeb1ed2-b70b-481f-b341-ccaa84ec7ae8"},"vehicle_type_id":"4","last_reported":1741594263,"current_range_meters":14000,"station_id":"","pricing_plan_id":"cebpf4jnsgd1na2vs0mg"},{"bike_id":"787941c7-68e4-4a9e-b1f1-d3bf469258e1","system_id":"levelo_inurba_marseille","lat":43.2418,"lon":5.39727,"is_reserved":false,"is_disabled":false,"rental_uris":{"android":"levelo://app?vid=787941c7-68e4-4a9e-b1f1-d3bf469258e1","ios":"levelo://app?vid=787941c7-68e4-4a9e-b1f1-d3bf469258e1"},"vehicle_type_id":"4","last_reported":1741594263,"current_range_meters":14000,"station_id":"ce4bhn12rcd13ifvqgpg","pricing_plan_id":"cebpf4jnsgd1na2vs0mg"},{"bike_id":"1b6fd044-29bf-4782-a7de-344e612e2ec3","system_id":"levelo_inurba_marseille","lat":43.29311,"lon":5.37174,"is_reserved":false,"is_disabled":false,"rental_uris":{"android":"levelo://app?vid=1b6fd044-29bf-4782-a7de-344e612e2ec3","ios":"levelo://app?vid=1b6fd044-29bf-4782-a7de-344e612e2ec3"},"vehicle_type_id":"4","last_reported":1741594263,"current_range_meters":14400,"station_id":"ce4bgh92rcd13ifvqb40","pricing_plan_id":"cebpf4jnsgd1na2vs0mg"},{"bike_id":"8dc2c2dc-de0f-4fd2-b739-faf253fff5e5","system_id":"levelo_inurba_marseille","lat":43.2317,"lon":5.437,"is_reserved":false,"is_disabled":false,"rental_uris":{"android":"levelo://app?vid=8dc2c2dc-de0f-4fd2-b739-faf253fff5e5","ios":"levelo://app?vid=8dc2c2dc-de0f-4fd2-b739-faf253fff5e5"},"vehicle_type_id":"4","last_reported":1741594263,"current_range_meters":14400,"station_id":"ce4bhmp2rcd13ifvqgog","pricing_plan_id":"cebpf4jnsgd1na2vs0mg"},{"bike_id":"d958a0dc-fbb2-45af-9cc2-2280637fe440","system_id":"levelo_inurba_marseille","lat":43.26208,"lon":5.37928,"is_reserved":false,"is_disabled":false,"rental_uris":{"android":"levelo://app?vid=d958a0dc-fbb2-45af-9cc2-2280637fe440","ios":"levelo://app?vid=d958a0dc-fbb2-45af-9cc2-2280637fe440"},"vehicle_type_id":"4","last_reported":1741594263,"current_range_meters":14800,"station_id":"ce4bhjp2rcd13ifvqg90","pricing_plan_id":"cebpf4jnsgd1na2vs0mg"},{"bike_id":"be41e619-397e-4189-8cf6-78245de87946","system_id":"levelo_inurba_marseille","lat":43.25933,"lon":5.40915,"is_reserved":false,"is_disabled":false,"rental_uris":{"android":"levelo://app?vid=be41e619-397e-4189-8cf6-78245de87946","ios":"levelo://app?vid=be41e619-397e-4189-8cf6-78245de87946"},"vehicle_type_id":"4","last_reported":1741594263,"current_range_meters":14800,"station_id":"ce4bhm92rcd13ifvqglg","pricing_plan_id":"cebpf4jnsgd1na2vs0mg"},{"bike_id":"9ec52ed9-9c0e-4e61-a378-5327e3711632","system_id":"levelo_inurba_marseille","lat":43.24773,"lon":5.4116,"is_reserved":false,"is_disabled":false,"rental_uris":{"android":"levelo://app?vid=9ec52ed9-9c0e-4e61-a378-5327e3711632","ios":"levelo://app?vid=9ec52ed9-9c0e-4e61-a378-5327e3711632"},"vehicle_type_id":"4","last_reported":1741594263,"current_range_meters":15200,"station_id":"","pricing_plan_id":"cebpf4jnsgd1na2vs0mg"},{"bike_id":"b5f24760-138f-4676-b5a5-e1d99857a913","system_id":"levelo_inurba_marseille","lat":43.29268,"lon":5.37615,"is_reserved":false,"is_disabled":false,"rental_uris":{"android":"levelo://app?vid=b5f24760-138f-4676-b5a5-e1d99857a913","ios":"levelo://app?vid=b5f24760-138f-4676-b5a5-e1d99857a913"},"vehicle_type_id":"4","last_reported":1741594263,"current_range_meters":15200,"station_id":"ce4bgi12rcd13ifvqb80","pricing_plan_id":"cebpf4jnsgd1na2vs0mg"},{"bike_id":"e52bfbb2-906c-4d6c-b0c2-025faf8e2582","system_id":"levelo_inurba_marseille","lat":43.30146,"lon":5.38085,"is_reserved":false,"is_disabled":false,"rental_uris":{"android":"levelo://app?vid=e52bfbb2-906c-4d6c-b0c2-025faf8e2582","ios":"levelo://app?vid=e52bfbb2-906c-4d6c-b0c2-025faf8e2582"},"vehicle_type_id":"4","last_reported":1741594263,"current_range_meters":15200,"station_id":"ce4bgjp2rcd13ifvqbh0","pricing_plan_id":"cebpf4jnsgd1na2vs0mg"},{"bike_id":"894041ef-df0e-4083-9462-59211a96f41d","system_id":"levelo_inurba_marseille","lat":43.301558,"lon":5.381041,"is_reserved":false,"is_disabled":false,"rental_uris":{"android":"levelo://app?vid=894041ef-df0e-4083-9462-59211a96f41d","ios":"levelo://app?vid=894041ef-df0e-4083-9462-59211a96f41d"},"vehicle_type_id":"4","last_reported":1741594263,"current_range_meters":15200,"station_id":"ce4bgjp2rcd13ifvqbh0","pricing_plan_id":"cebpf4jnsgd1na2vs0mg"},{"bike_id":"ab1a274a-910d-4b1d-9254-2323d1e0929c","system_id":"levelo_inurba_marseille","lat":43.31227,"lon":5.36867,"is_reserved":false,"is_disabled":false,"rental_uris":{"android":"levelo://app?vid=ab1a274a-910d-4b1d-9254-2323d1e0929c","ios":"levelo://app?vid=ab1a274a-910d-4b1d-9254-2323d1e0929c"},"vehicle_type_id":"4","last_reported":1741594263,"current_range_meters":15200,"station_id":"ce4bgl92rcd13ifvqbq0","pricing_plan_id":"cebpf4jnsgd1na2vs0mg"},{"bike_id":"6c925a33-922a-4f5d-a19e-2ae09dadacc9","system_id":"levelo_inurba_marseille","lat":43.31363,"lon":5.38463,"is_reserved":false,"is_disabled":false,"rental_uris":{"android":"levelo://app?vid=6c925a33-922a-4f5d-a19e-2ae09dadacc9","ios":"levelo://app?vid=6c925a33-922a-4f5d-a19e-2ae09dadacc9"},"vehicle_type_id":"4","last_reported":1741594263,"current_range_meters":15200,"station_id":"ce4bgt92rcd13ifvqcf0","pricing_plan_id":"cebpf4jnsgd1na2vs0mg"},{"bike_id":"2338626f-0565-48b6-9fa4-dab8eb33618f","system_id":"levelo_inurba_marseille","lat":43.25716,"lon":5.41091,"is_reserved":false,"is_disabled":false,"rental_uris":{"android":"levelo://app?vid=2338626f-0565-48b6-9fa4-dab8eb33618f","ios":"levelo://app?vid=2338626f-0565-48b6-9fa4-dab8eb33618f"},"vehicle_type_id":"4","last_reported":1741594263,"current_range_meters":15200,"station_id":"ce4bhkp2rcd13ifvqgd0","pricing_plan_id":"cebpf4jnsgd1na2vs0mg"},{"bike_id":"ccbf617d-c92c-4154-ad70-fcdbe832004f","system_id":"levelo_inurba_marseille","lat":43.28138,"lon":5.42647,"is_reserved":false,"is_disabled":false,"rental_uris":{"android":"levelo://app?vid=ccbf617d-c92c-4154-ad70-fcdbe832004f","ios":"levelo://app?vid=ccbf617d-c92c-4154-ad70-fcdbe832004f"},"vehicle_type_id":"4","last_reported":1741594263,"current_range_meters":15200,"station_id":"ce4bhnh2rcd13ifvqgug","pricing_plan_id":"cebpf4jnsgd1na2vs0mg"},{"bike_id":"67e96ce9-54b2-44cb-a5b1-546730071f20","system_id":"levelo_inurba_marseille","lat":43.2725,"lon":5.39111,"is_reserved":false,"is_disabled":false,"rental_uris":{"android":"levelo://app?vid=67e96ce9-54b2-44cb-a5b1-546730071f20","ios":"levelo://app?vid=67e96ce9-54b2-44cb-a5b1-546730071f20"},"vehicle_type_id":"4","last_reported":1741594263,"current_range_meters":16000,"station_id":"","pricing_plan_id":"cebpf4jnsgd1na2vs0mg"},{"bike_id":"1e61f1c2-f1b8-4841-8ffd-ffd9ba5d4378","system_id":"levelo_inurba_marseille","lat":43.30542,"lon":5.36544,"is_reserved":false,"is_disabled":false,"rental_uris":{"android":"levelo://app?vid=1e61f1c2-f1b8-4841-8ffd-ffd9ba5d4378","ios":"levelo://app?vid=1e61f1c2-f1b8-4841-8ffd-ffd9ba5d4378"},"vehicle_type_id":"4","last_reported":1741594263,"current_range_meters":16000,"station_id":"ce4bgs12rcd13ifvqcag","pricing_plan_id":"cebpf4jnsgd1na2vs0mg"},{"bike_id":"a44b4ad2-e639-4c9a-8fb7-52bbbdc7ff12","system_id":"levelo_inurba_marseille","lat":43.2501,"lon":5.38934,"is_reserved":false,"is_disabled":false,"rental_uris":{"android":"levelo://app?vid=a44b4ad2-e639-4c9a-8fb7-52bbbdc7ff12","ios":"levelo://app?vid=a44b4ad2-e639-4c9a-8fb7-52bbbdc7ff12"},"vehicle_type_id":"4","last_reported":1741594263,"current_range_meters":16000,"station_id":"ce4bhgp2rcd13ifvqfd0","pricing_plan_id":"cebpf4jnsgd1na2vs0mg"},{"bike_id":"f381c9bd-14fa-41ab-b589-3ecebd6dfe48","system_id":"levelo_inurba_marseille","lat":43.32353,"lon":5.36766,"is_reserved":false,"is_disabled":false,"rental_uris":{"android":"levelo://app?vid=f381c9bd-14fa-41ab-b589-3ecebd6dfe48","ios":"levelo://app?vid=f381c9bd-14fa-41ab-b589-3ecebd6dfe48"},"vehicle_type_id":"4","last_reported":1741594263,"current_range_meters":16000,"station_id":"ce4bhsh2rcd13ifvqi2g","pricing_plan_id":"cebpf4jnsgd1na2vs0mg"},{"bike_id":"08b68eba-53e3-4dc9-b600-bf554c1ed500","system_id":"levelo_inurba_marseille","lat":43.29276,"lon":5.37641,"is_reserved":false,"is_disabled":false,"rental_uris":{"android":"levelo://app?vid=08b68eba-53e3-4dc9-b600-bf554c1ed500","ios":"levelo://app?vid=08b68eba-53e3-4dc9-b600-bf554c1ed500"},"vehicle_type_id":"4","last_reported":1741594263,"current_range_meters":16400,"station_id":"ce4bgi12rcd13ifvqb80","pricing_plan_id":"cebpf4jnsgd1na2vs0mg"},{"bike_id":"3152a264-ba3f-4333-8d06-07b62ba96ec9","system_id":"levelo_inurba_marseille","lat":43.29699,"lon":5.37309,"is_reserved":false,"is_disabled":false,"rental_uris":{"android":"levelo://app?vid=3152a264-ba3f-4333-8d06-07b62ba96ec9","ios":"levelo://app?vid=3152a264-ba3f-4333-8d06-07b62ba96ec9"},"vehicle_type_id":"4","last_reported":1741594263,"current_range_meters":16400,"station_id":"ce4bgk12rcd13ifvqbj0","pricing_plan_id":"cebpf4jnsgd1na2vs0mg"},{"bike_id":"ec158045-a82c-4f94-a9fe-4ee57996b1b4","system_id":"levelo_inurba_marseille","lat":43.25108,"lon":5.40333,"is_reserved":false,"is_disabled":false,"rental_uris":{"android":"levelo://app?vid=ec158045-a82c-4f94-a9fe-4ee57996b1b4","ios":"levelo://app?vid=ec158045-a82c-4f94-a9fe-4ee57996b1b4"},"vehicle_type_id":"4","last_reported":1741594263,"current_range_meters":16400,"station_id":"ce4bhlh2rcd13ifvqgig","pricing_plan_id":"cebpf4jnsgd1na2vs0mg"},{"bike_id":"9c21c891-bf93-4c67-b36f-39a12f814032","system_id":"levelo_inurba_marseille","lat":43.245481,"lon":5.395166,"is_reserved":false,"is_disabled":false,"rental_uris":{"android":"levelo://app?vid=9c21c891-bf93-4c67-b36f-39a12f814032","ios":"levelo://app?vid=9c21c891-bf93-4c67-b36f-39a12f814032"},"vehicle_type_id":"4","last_reported":1741594263,"current_range_meters":16400,"station_id":"ce4bhlp2rcd13ifvqgjg","pricing_plan_id":"cebpf4jnsgd1na2vs0mg"},{"bike_id":"72ecfd75-4877-4c4b-a7f9-6597d1b3a6f1","system_id":"levelo_inurba_marseille","lat":43.27496,"lon":5.42446,"is_reserved":false,"is_disabled":false,"rental_uris":{"android":"levelo://app?vid=72ecfd75-4877-4c4b-a7f9-6597d1b3a6f1","ios":"levelo://app?vid=72ecfd75-4877-4c4b-a7f9-6597d1b3a6f1"},"vehicle_type_id":"4","last_reported":1741594263,"current_range_meters":16400,"station_id":"ce4bhn92rcd13ifvqgrg","pricing_plan_id":"cebpf4jnsgd1na2vs0mg"},{"bike_id":"774cc435-3dfe-40b5-9a40-8ba685232d49","system_id":"levelo_inurba_marseille","lat":43.32665,"lon":5.40989,"is_reserved":false,"is_disabled":false,"rental_uris":{"android":"levelo://app?vid=774cc435-3dfe-40b5-9a40-8ba685232d49","ios":"levelo://app?vid=774cc435-3dfe-40b5-9a40-8ba685232d49"},"vehicle_type_id":"4","last_reported":1741594263,"current_range_meters":16400,"station_id":"ce4bhpp2rcd13ifvqhgg","pricing_plan_id":"cebpf4jnsgd1na2vs0mg"},{"bike_id":"0f520d00-ebca-4721-9b5a-856107a487e4","system_id":"levelo_inurba_marseille","lat":43.3122,"lon":5.3685,"is_reserved":false,"is_disabled":false,"rental_uris":{"android":"levelo://app?vid=0f520d00-ebca-4721-9b5a-856107a487e4","ios":"levelo://app?vid=0f520d00-ebca-4721-9b5a-856107a487e4"},"vehicle_type_id":"4","last_reported":1741594263,"current_range_meters":16800,"station_id":"ce4bgl92rcd13ifvqbq0","pricing_plan_id":"cebpf4jnsgd1na2vs0mg"},{"bike_id":"caed4545-182d-42df-8230-6bdcdcfdf765","system_id":"levelo_inurba_marseille","lat":43.31259,"lon":5.36843,"is_reserved":false,"is_disabled":false,"rental_uris":{"android":"levelo://app?vid=caed4545-182d-42df-8230-6bdcdcfdf765","ios":"levelo://app?vid=caed4545-182d-42df-8230-6bdcdcfdf765"},"vehicle_type_id":"4","last_reported":1741594263,"current_range_meters":16800,"station_id":"ce4bgl92rcd13ifvqbq0","pricing_plan_id":"cebpf4jnsgd1na2vs0mg"},{"bike_id":"14a64e50-67e4-4ccc-8dd3-b69f798262a6","system_id":"levelo_inurba_marseille","lat":43.25118,"lon":5.40316,"is_reserved":false,"is_disabled":false,"rental_uris":{"android":"levelo://app?vid=14a64e50-67e4-4ccc-8dd3-b69f798262a6","ios":"levelo://app?vid=14a64e50-67e4-4ccc-8dd3-b69f798262a6"},"vehicle_type_id":"4","last_reported":1741594263,"current_range_meters":16800,"station_id":"ce4bhlh2rcd13ifvqgig","pricing_plan_id":"cebpf4jnsgd1na2vs0mg"},{"bike_id":"24ea9c03-0afd-4100-ad62-62865e3edce9","system_id":"levelo_inurba_marseille","lat":43.23145,"lon":5.43711,"is_reserved":false,"is_disabled":false,"rental_uris":{"android":"levelo://app?vid=24ea9c03-0afd-4100-ad62-62865e3edce9","ios":"levelo://app?vid=24ea9c03-0afd-4100-ad62-62865e3edce9"},"vehicle_type_id":"4","last_reported":1741594263,"current_range_meters":16800,"station_id":"ce4bhmp2rcd13ifvqgog","pricing_plan_id":"cebpf4jnsgd1na2vs0mg"},{"bike_id":"51bff58c-1fb3-414d-951a-1b030bc6ad5b","system_id":"levelo_inurba_marseille","lat":43.32478,"lon":5.36565,"is_reserved":false,"is_disabled":false,"rental_uris":{"android":"levelo://app?vid=51bff58c-1fb3-414d-951a-1b030bc6ad5b","ios":"levelo://app?vid=51bff58c-1fb3-414d-951a-1b030bc6ad5b"},"vehicle_type_id":"4","last_reported":1741594263,"current_range_meters":16800,"station_id":"ce4bhs12rcd13ifvqhvg","pricing_plan_id":"cebpf4jnsgd1na2vs0mg"},{"bike_id":"bf49a0fd-bfe2-4bbb-8d6a-0540c7d91d25","system_id":"levelo_inurba_marseille","lat":43.32373,"lon":5.36785,"is_reserved":false,"is_disabled":false,"rental_uris":{"android":"levelo://app?vid=bf49a0fd-bfe2-4bbb-8d6a-0540c7d91d25","ios":"levelo://app?vid=bf49a0fd-bfe2-4bbb-8d6a-0540c7d91d25"},"vehicle_type_id":"4","last_reported":1741594263,"current_range_meters":16800,"station_id":"ce4bhsh2rcd13ifvqi2g","pricing_plan_id":"cebpf4jnsgd1na2vs0mg"},{"bike_id":"c77d9f61-f49d-494f-ab4e-3aab5a7c6976","system_id":"levelo_inurba_marseille","lat":43.29045,"lon":5.3757,"is_reserved":false,"is_disabled":false,"rental_uris":{"android":"levelo://app?vid=c77d9f61-f49d-494f-ab4e-3aab5a7c6976","ios":"levelo://app?vid=c77d9f61-f49d-494f-ab4e-3aab5a7c6976"},"vehicle_type_id":"4","last_reported":1741594263,"current_range_meters":17200,"station_id":"ce4bh692rcd13ifvqe90","pricing_plan_id":"cebpf4jnsgd1na2vs0mg"},{"bike_id":"c738e230-9ce1-456d-a4fd-6829f8a26995","system_id":"levelo_inurba_marseille","lat":43.26209,"lon":5.37444,"is_reserved":false,"is_disabled":false,"rental_uris":{"android":"levelo://app?vid=c738e230-9ce1-456d-a4fd-6829f8a26995","ios":"levelo://app?vid=c738e230-9ce1-456d-a4fd-6829f8a26995"},"vehicle_type_id":"4","last_reported":1741594263,"current_range_meters":17200,"station_id":"ce4bhgp2rcd13ifvqfc0","pricing_plan_id":"cebpf4jnsgd1na2vs0mg"},{"bike_id":"3703c744-9d3f-453d-84db-9db8e7cf5406","system_id":"levelo_inurba_marseille","lat":43.25497,"lon":5.37649,"is_reserved":false,"is_disabled":false,"rental_uris":{"android":"levelo://app?vid=3703c744-9d3f-453d-84db-9db8e7cf5406","ios":"levelo://app?vid=3703c744-9d3f-453d-84db-9db8e7cf5406"},"vehicle_type_id":"4","last_reported":1741594263,"current_range_meters":17200,"station_id":"ce4bhh12rcd13ifvqff0","pricing_plan_id":"cebpf4jnsgd1na2vs0mg"},{"bike_id":"ca57d901-cb2c-48c2-91cf-ac2cee86a3a4","system_id":"levelo_inurba_marseille","lat":43.23147,"lon":5.4372,"is_reserved":false,"is_disabled":false,"rental_uris":{"android":"levelo://app?vid=ca57d901-cb2c-48c2-91cf-ac2cee86a3a4","ios":"levelo://app?vid=ca57d901-cb2c-48c2-91cf-ac2cee86a3a4"},"vehicle_type_id":"4","last_reported":1741594263,"current_range_meters":17200,"station_id":"ce4bhmp2rcd13ifvqgog","pricing_plan_id":"cebpf4jnsgd1na2vs0mg"},{"bike_id":"844894c7-065d-427a-9941-8626b05204ed","system_id":"levelo_inurba_marseille","lat":43.32545,"lon":5.41438,"is_reserved":false,"is_disabled":false,"rental_uris":{"android":"levelo://app?vid=844894c7-065d-427a-9941-8626b05204ed","ios":"levelo://app?vid=844894c7-065d-427a-9941-8626b05204ed"},"vehicle_type_id":"4","last_reported":1741594263,"current_range_meters":17200,"station_id":"ce4bhq12rcd13ifvqhhg","pricing_plan_id":"cebpf4jnsgd1na2vs0mg"},{"bike_id":"259dde30-071d-4e72-9e93-2afe0e28cbba","system_id":"levelo_inurba_marseille","lat":43.30643,"lon":5.37322,"is_reserved":false,"is_disabled":false,"rental_uris":{"android":"levelo://app?vid=259dde30-071d-4e72-9e93-2afe0e28cbba","ios":"levelo://app?vid=259dde30-071d-4e72-9e93-2afe0e28cbba"},"vehicle_type_id":"4","last_reported":1741594263,"current_range_meters":17600,"station_id":"","pricing_plan_id":"cebpf4jnsgd1na2vs0mg"},{"bike_id":"a0342377-1db1-43d3-bd94-f68c10dd1f1e","system_id":"levelo_inurba_marseille","lat":43.29966,"lon":5.38498,"is_reserved":false,"is_disabled":false,"rental_uris":{"android":"levelo://app?vid=a0342377-1db1-43d3-bd94-f68c10dd1f1e","ios":"levelo://app?vid=a0342377-1db1-43d3-bd94-f68c10dd1f1e"},"vehicle_type_id":"4","last_reported":1741594263,"current_range_meters":17600,"station_id":"ce4bgj92rcd13ifvqbd0","pricing_plan_id":"cebpf4jnsgd1na2vs0mg"},{"bike_id":"e4f61b86-04a4-4652-a877-15de8ddf1997","system_id":"levelo_inurba_marseille","lat":43.31228,"lon":5.36862,"is_reserved":false,"is_disabled":false,"rental_uris":{"android":"levelo://app?vid=e4f61b86-04a4-4652-a877-15de8ddf1997","ios":"levelo://app?vid=e4f61b86-04a4-4652-a877-15de8ddf1997"},"vehicle_type_id":"4","last_reported":1741594263,"current_range_meters":17600,"station_id":"ce4bgl92rcd13ifvqbq0","pricing_plan_id":"cebpf4jnsgd1na2vs0mg"},{"bike_id":"dcd0c5eb-36c9-4542-9b13-ded8eea11997","system_id":"levelo_inurba_marseille","lat":43.30146,"lon":5.37419,"is_reserved":false,"is_disabled":false,"rental_uris":{"android":"levelo://app?vid=dcd0c5eb-36c9-4542-9b13-ded8eea11997","ios":"levelo://app?vid=dcd0c5eb-36c9-4542-9b13-ded8eea11997"},"vehicle_type_id":"4","last_reported":1741594263,"current_range_meters":17600,"station_id":"ce4bgs92rcd13ifvqcc0","pricing_plan_id":"cebpf4jnsgd1na2vs0mg"},{"bike_id":"a3d8580a-1e25-4809-bd9d-11c60058ede4","system_id":"levelo_inurba_marseille","lat":43.25954,"lon":5.40895,"is_reserved":false,"is_disabled":false,"rental_uris":{"android":"levelo://app?vid=a3d8580a-1e25-4809-bd9d-11c60058ede4","ios":"levelo://app?vid=a3d8580a-1e25-4809-bd9d-11c60058ede4"},"vehicle_type_id":"4","last_reported":1741594263,"current_range_meters":17600,"station_id":"ce4bhm92rcd13ifvqglg","pricing_plan_id":"cebpf4jnsgd1na2vs0mg"},{"bike_id":"33cb5104-e4d3-4956-880b-001178ccb2fc","system_id":"levelo_inurba_marseille","lat":43.32539,"lon":5.41431,"is_reserved":false,"is_disabled":false,"rental_uris":{"android":"levelo://app?vid=33cb5104-e4d3-4956-880b-001178ccb2fc","ios":"levelo://app?vid=33cb5104-e4d3-4956-880b-001178ccb2fc"},"vehicle_type_id":"4","last_reported":1741594263,"current_range_meters":17600,"station_id":"ce4bhq12rcd13ifvqhhg","pricing_plan_id":"cebpf4jnsgd1na2vs0mg"},{"bike_id":"1a26001d-d49a-47a3-a711-f7ff22c1c811","system_id":"levelo_inurba_marseille","lat":43.28881,"lon":5.3716,"is_reserved":false,"is_disabled":false,"rental_uris":{"android":"levelo://app?vid=1a26001d-d49a-47a3-a711-f7ff22c1c811","ios":"levelo://app?vid=1a26001d-d49a-47a3-a711-f7ff22c1c811"},"vehicle_type_id":"4","last_reported":1741594263,"current_range_meters":18000,"station_id":"","pricing_plan_id":"cebpf4jnsgd1na2vs0mg"},{"bike_id":"ac8e6b48-e483-4aef-bede-c5576834d55a","system_id":"levelo_inurba_marseille","lat":43.29859,"lon":5.36264,"is_reserved":false,"is_disabled":false,"rental_uris":{"android":"levelo://app?vid=ac8e6b48-e483-4aef-bede-c5576834d55a","ios":"levelo://app?vid=ac8e6b48-e483-4aef-bede-c5576834d55a"},"vehicle_type_id":"4","last_reported":1741594263,"current_range_meters":18000,"station_id":"ce4bgpp2rcd13ifvqc3g","pricing_plan_id":"cebpf4jnsgd1na2vs0mg"},{"bike_id":"5feb6fa1-6aef-4afb-8cf0-7112712f90e3","system_id":"levelo_inurba_marseille","lat":43.30558,"lon":5.36693,"is_reserved":false,"is_disabled":false,"rental_uris":{"android":"levelo://app?vid=5feb6fa1-6aef-4afb-8cf0-7112712f90e3","ios":"levelo://app?vid=5feb6fa1-6aef-4afb-8cf0-7112712f90e3"},"vehicle_type_id":"4","last_reported":1741594263,"current_range_meters":18000,"station_id":"ce4bgrp2rcd13ifvqc9g","pricing_plan_id":"cebpf4jnsgd1na2vs0mg"},{"bike_id":"13422b31-3d82-46fb-a112-4ed6bb411087","system_id":"levelo_inurba_marseille","lat":43.30452,"lon":5.37912,"is_reserved":false,"is_disabled":false,"rental_uris":{"android":"levelo://app?vid=13422b31-3d82-46fb-a112-4ed6bb411087","ios":"levelo://app?vid=13422b31-3d82-46fb-a112-4ed6bb411087"},"vehicle_type_id":"4","last_reported":1741594263,"current_range_meters":18000,"station_id":"ce4bgup2rcd13ifvqcn0","pricing_plan_id":"cebpf4jnsgd1na2vs0mg"},{"bike_id":"e59567f6-dc79-4e89-b886-508089119a97","system_id":"levelo_inurba_marseille","lat":43.24183,"lon":5.39741,"is_reserved":false,"is_disabled":false,"rental_uris":{"android":"levelo://app?vid=e59567f6-dc79-4e89-b886-508089119a97","ios":"levelo://app?vid=e59567f6-dc79-4e89-b886-508089119a97"},"vehicle_type_id":"4","last_reported":1741594263,"current_range_meters":18000,"station_id":"ce4bhn12rcd13ifvqgpg","pricing_plan_id":"cebpf4jnsgd1na2vs0mg"},{"bike_id":"f6dc7e9d-be33-4c3d-b28e-234510ea7980","system_id":"levelo_inurba_marseille","lat":43.290716,"lon":5.380863,"is_reserved":false,"is_disabled":false,"rental_uris":{"android":"levelo://app?vid=f6dc7e9d-be33-4c3d-b28e-234510ea7980","ios":"levelo://app?vid=f6dc7e9d-be33-4c3d-b28e-234510ea7980"},"vehicle_type_id":"4","last_reported":1741594263,"current_range_meters":18800,"station_id":"","pricing_plan_id":"cebpf4jnsgd1na2vs0mg"},{"bike_id":"d0852a77-0c39-4073-b89d-15b85c3aa5e5","system_id":"levelo_inurba_marseille","lat":43.30136,"lon":5.37413,"is_reserved":false,"is_disabled":false,"rental_uris":{"android":"levelo://app?vid=d0852a77-0c39-4073-b89d-15b85c3aa5e5","ios":"levelo://app?vid=d0852a77-0c39-4073-b89d-15b85c3aa5e5"},"vehicle_type_id":"4","last_reported":1741594263,"current_range_meters":18800,"station_id":"ce4bgs92rcd13ifvqcc0","pricing_plan_id":"cebpf4jnsgd1na2vs0mg"},{"bike_id":"5a123b3c-d5fd-46b8-9b7e-f6e607a56645","system_id":"levelo_inurba_marseille","lat":43.30897,"lon":5.3719,"is_reserved":false,"is_disabled":false,"rental_uris":{"android":"levelo://app?vid=5a123b3c-d5fd-46b8-9b7e-f6e607a56645","ios":"levelo://app?vid=5a123b3c-d5fd-46b8-9b7e-f6e607a56645"},"vehicle_type_id":"4","last_reported":1741594263,"current_range_meters":18800,"station_id":"ce4bguh2rcd13ifvqckg","pricing_plan_id":"cebpf4jnsgd1na2vs0mg"},{"bike_id":"d86305e0-06c7-4b3c-a848-f31c32545e15","system_id":"levelo_inurba_marseille","lat":43.30594,"lon":5.39357,"is_reserved":false,"is_disabled":false,"rental_uris":{"android":"levelo://app?vid=d86305e0-06c7-4b3c-a848-f31c32545e15","ios":"levelo://app?vid=d86305e0-06c7-4b3c-a848-f31c32545e15"},"vehicle_type_id":"4","last_reported":1741594263,"current_range_meters":18800,"station_id":"ce4bh0p2rcd13ifvqd80","pricing_plan_id":"cebpf4jnsgd1na2vs0mg"},{"bike_id":"7db142bd-4215-4d6a-8795-458ceb0b178e","system_id":"levelo_inurba_marseille","lat":43.28622,"lon":5.351,"is_reserved":false,"is_disabled":false,"rental_uris":{"android":"levelo://app?vid=7db142bd-4215-4d6a-8795-458ceb0b178e","ios":"levelo://app?vid=7db142bd-4215-4d6a-8795-458ceb0b178e"},"vehicle_type_id":"4","last_reported":1741594263,"current_range_meters":18800,"station_id":"ce4bhch2rcd13ifvqeug","pricing_plan_id":"cebpf4jnsgd1na2vs0mg"},{"bike_id":"2c300ed3-ce8f-4136-bb9c-f443a0876d97","system_id":"levelo_inurba_marseille","lat":43.27488,"lon":5.42453,"is_reserved":false,"is_disabled":false,"rental_uris":{"android":"levelo://app?vid=2c300ed3-ce8f-4136-bb9c-f443a0876d97","ios":"levelo://app?vid=2c300ed3-ce8f-4136-bb9c-f443a0876d97"},"vehicle_type_id":"4","last_reported":1741594263,"current_range_meters":18800,"station_id":"ce4bhn92rcd13ifvqgrg","pricing_plan_id":"cebpf4jnsgd1na2vs0mg"},{"bike_id":"e64d800d-10c2-4cd6-9201-c8d34bd9c9cf","system_id":"levelo_inurba_marseille","lat":43.24078,"lon":5.37757,"is_reserved":false,"is_disabled":false,"rental_uris":{"android":"levelo://app?vid=e64d800d-10c2-4cd6-9201-c8d34bd9c9cf","ios":"levelo://app?vid=e64d800d-10c2-4cd6-9201-c8d34bd9c9cf"},"vehicle_type_id":"4","last_reported":1741594263,"current_range_meters":18800,"station_id":"ce4bhnp2rcd13ifvqgvg","pricing_plan_id":"cebpf4jnsgd1na2vs0mg"},{"bike_id":"2cdec81d-2593-4153-a426-2f527f1b29e2","system_id":"levelo_inurba_marseille","lat":43.23595,"lon":5.391,"is_reserved":false,"is_disabled":false,"rental_uris":{"android":"levelo://app?vid=2cdec81d-2593-4153-a426-2f527f1b29e2","ios":"levelo://app?vid=2cdec81d-2593-4153-a426-2f527f1b29e2"},"vehicle_type_id":"4","last_reported":1741594263,"current_range_meters":19200,"station_id":"","pricing_plan_id":"cebpf4jnsgd1na2vs0mg"},{"bike_id":"f0b5f6b7-161e-4c72-8f30-8d8e8d5c374f","system_id":"levelo_inurba_marseille","lat":43.24582,"lon":5.40491,"is_reserved":false,"is_disabled":false,"rental_uris":{"android":"levelo://app?vid=f0b5f6b7-161e-4c72-8f30-8d8e8d5c374f","ios":"levelo://app?vid=f0b5f6b7-161e-4c72-8f30-8d8e8d5c374f"},"vehicle_type_id":"4","last_reported":1741594263,"current_range_meters":19200,"station_id":"","pricing_plan_id":"cebpf4jnsgd1na2vs0mg"},{"bike_id":"da875ee6-41ee-456c-8806-a1f1cf2875ef","system_id":"levelo_inurba_marseille","lat":43.30258,"lon":5.4008,"is_reserved":false,"is_disabled":false,"rental_uris":{"android":"levelo://app?vid=da875ee6-41ee-456c-8806-a1f1cf2875ef","ios":"levelo://app?vid=da875ee6-41ee-456c-8806-a1f1cf2875ef"},"vehicle_type_id":"4","last_reported":1741594263,"current_range_meters":19200,"station_id":"ce4bgvh2rcd13ifvqcs0","pricing_plan_id":"cebpf4jnsgd1na2vs0mg"},{"bike_id":"af380254-abf5-4669-9a0a-67f507f23f12","system_id":"levelo_inurba_marseille","lat":43.31724,"lon":5.40455,"is_reserved":false,"is_disabled":false,"rental_uris":{"android":"levelo://app?vid=af380254-abf5-4669-9a0a-67f507f23f12","ios":"levelo://app?vid=af380254-abf5-4669-9a0a-67f507f23f12"},"vehicle_type_id":"4","last_reported":1741594263,"current_range_meters":19200,"station_id":"ce4bh012rcd13ifvqd00","pricing_plan_id":"cebpf4jnsgd1na2vs0mg"},{"bike_id":"493d0bcc-39cb-4cfd-948e-8bb2c4e137bf","system_id":"levelo_inurba_marseille","lat":43.28637,"lon":5.3511,"is_reserved":false,"is_disabled":false,"rental_uris":{"android":"levelo://app?vid=493d0bcc-39cb-4cfd-948e-8bb2c4e137bf","ios":"levelo://app?vid=493d0bcc-39cb-4cfd-948e-8bb2c4e137bf"},"vehicle_type_id":"4","last_reported":1741594263,"current_range_meters":19200,"station_id":"ce4bhch2rcd13ifvqeug","pricing_plan_id":"cebpf4jnsgd1na2vs0mg"},{"bike_id":"c07c9768-f075-4ae2-bd18-c350fa6ec429","system_id":"levelo_inurba_marseille","lat":43.26686,"lon":5.38279,"is_reserved":false,"is_disabled":false,"rental_uris":{"android":"levelo://app?vid=c07c9768-f075-4ae2-bd18-c350fa6ec429","ios":"levelo://app?vid=c07c9768-f075-4ae2-bd18-c350fa6ec429"},"vehicle_type_id":"4","last_reported":1741594263,"current_range_meters":19200,"station_id":"ce4bhg92rcd13ifvqf90","pricing_plan_id":"cebpf4jnsgd1na2vs0mg"},{"bike_id":"4418d755-9e03-4e82-8128-87a6a5fbf1a3","system_id":"levelo_inurba_marseille","lat":43.26217,"lon":5.37441,"is_reserved":false,"is_disabled":false,"rental_uris":{"android":"levelo://app?vid=4418d755-9e03-4e82-8128-87a6a5fbf1a3","ios":"levelo://app?vid=4418d755-9e03-4e82-8128-87a6a5fbf1a3"},"vehicle_type_id":"4","last_reported":1741594263,"current_range_meters":19200,"station_id":"ce4bhgp2rcd13ifvqfc0","pricing_plan_id":"cebpf4jnsgd1na2vs0mg"},{"bike_id":"df661ef6-2ccd-416a-95d1-2f0c080557f5","system_id":"levelo_inurba_marseille","lat":43.25953,"lon":5.40889,"is_reserved":false,"is_disabled":false,"rental_uris":{"android":"levelo://app?vid=df661ef6-2ccd-416a-95d1-2f0c080557f5","ios":"levelo://app?vid=df661ef6-2ccd-416a-95d1-2f0c080557f5"},"vehicle_type_id":"4","last_reported":1741594263,"current_range_meters":19200,"station_id":"ce4bhm92rcd13ifvqglg","pricing_plan_id":"cebpf4jnsgd1na2vs0mg"},{"bike_id":"565febc3-3424-4d4c-95ca-5705a262f891","system_id":"levelo_inurba_marseille","lat":43.2815,"lon":5.42665,"is_reserved":false,"is_disabled":false,"rental_uris":{"android":"levelo://app?vid=565febc3-3424-4d4c-95ca-5705a262f891","ios":"levelo://app?vid=565febc3-3424-4d4c-95ca-5705a262f891"},"vehicle_type_id":"4","last_reported":1741594263,"current_range_meters":19200,"station_id":"ce4bhnh2rcd13ifvqgug","pricing_plan_id":"cebpf4jnsgd1na2vs0mg"},{"bike_id":"5540180e-55d0-4c4d-8e95-598bebdc1ae2","system_id":"levelo_inurba_marseille","lat":43.324853,"lon":5.36593,"is_reserved":false,"is_disabled":false,"rental_uris":{"android":"levelo://app?vid=5540180e-55d0-4c4d-8e95-598bebdc1ae2","ios":"levelo://app?vid=5540180e-55d0-4c4d-8e95-598bebdc1ae2"},"vehicle_type_id":"4","last_reported":1741594263,"current_range_meters":19200,"station_id":"ce4bhs12rcd13ifvqhvg","pricing_plan_id":"cebpf4jnsgd1na2vs0mg"},{"bike_id":"3fa2bcaf-48db-402a-afa2-0f2671ca060a","system_id":"levelo_inurba_marseille","lat":43.31729,"lon":5.40454,"is_reserved":false,"is_disabled":false,"rental_uris":{"android":"levelo://app?vid=3fa2bcaf-48db-402a-afa2-0f2671ca060a","ios":"levelo://app?vid=3fa2bcaf-48db-402a-afa2-0f2671ca060a"},"vehicle_type_id":"4","last_reported":1741594263,"current_range_meters":19600,"station_id":"","pricing_plan_id":"cebpf4jnsgd1na2vs0mg"},{"bike_id":"78549cf8-b0cc-41c9-ae90-189226d24ef8","system_id":"levelo_inurba_marseille","lat":43.29857,"lon":5.36318,"is_reserved":false,"is_disabled":false,"rental_uris":{"android":"levelo://app?vid=78549cf8-b0cc-41c9-ae90-189226d24ef8","ios":"levelo://app?vid=78549cf8-b0cc-41c9-ae90-189226d24ef8"},"vehicle_type_id":"4","last_reported":1741594263,"current_range_meters":19600,"station_id":"ce4bgpp2rcd13ifvqc3g","pricing_plan_id":"cebpf4jnsgd1na2vs0mg"},{"bike_id":"301d58f1-e541-4dfa-922b-c31b866905c8","system_id":"levelo_inurba_marseille","lat":43.30987,"lon":5.39073,"is_reserved":false,"is_disabled":false,"rental_uris":{"android":"levelo://app?vid=301d58f1-e541-4dfa-922b-c31b866905c8","ios":"levelo://app?vid=301d58f1-e541-4dfa-922b-c31b866905c8"},"vehicle_type_id":"4","last_reported":1741594263,"current_range_meters":19600,"station_id":"ce4bgup2rcd13ifvqco0","pricing_plan_id":"cebpf4jnsgd1na2vs0mg"},{"bike_id":"9ed2fa2a-81a5-416e-b1db-025ca959b9ab","system_id":"levelo_inurba_marseille","lat":43.2928,"lon":5.40129,"is_reserved":false,"is_disabled":false,"rental_uris":{"android":"levelo://app?vid=9ed2fa2a-81a5-416e-b1db-025ca959b9ab","ios":"levelo://app?vid=9ed2fa2a-81a5-416e-b1db-025ca959b9ab"},"vehicle_type_id":"4","last_reported":1741594263,"current_range_meters":19600,"station_id":"ce4bh312rcd13ifvqdk0","pricing_plan_id":"cebpf4jnsgd1na2vs0mg"},{"bike_id":"303473d0-c71d-4532-867e-1af4d571971a","system_id":"levelo_inurba_marseille","lat":43.31078,"lon":5.42436,"is_reserved":false,"is_disabled":false,"rental_uris":{"android":"levelo://app?vid=303473d0-c71d-4532-867e-1af4d571971a","ios":"levelo://app?vid=303473d0-c71d-4532-867e-1af4d571971a"},"vehicle_type_id":"4","last_reported":1741594263,"current_range_meters":19600,"station_id":"ce4bhp92rcd13ifvqhag","pricing_plan_id":"cebpf4jnsgd1na2vs0mg"},{"bike_id":"5349bf50-8793-4c60-92ca-428ddd98d5a2","system_id":"levelo_inurba_marseille","lat":43.32557,"lon":5.41464,"is_reserved":false,"is_disabled":false,"rental_uris":{"android":"levelo://app?vid=5349bf50-8793-4c60-92ca-428ddd98d5a2","ios":"levelo://app?vid=5349bf50-8793-4c60-92ca-428ddd98d5a2"},"vehicle_type_id":"4","last_reported":1741594263,"current_range_meters":19600,"station_id":"ce4bhq12rcd13ifvqhhg","pricing_plan_id":"cebpf4jnsgd1na2vs0mg"},{"bike_id":"fdaa1059-b581-419b-ac4d-269c36f9ab41","system_id":"levelo_inurba_marseille","lat":43.32105,"lon":5.36764,"is_reserved":false,"is_disabled":false,"rental_uris":{"android":"levelo://app?vid=fdaa1059-b581-419b-ac4d-269c36f9ab41","ios":"levelo://app?vid=fdaa1059-b581-419b-ac4d-269c36f9ab41"},"vehicle_type_id":"4","last_reported":1741594263,"current_range_meters":19600,"station_id":"ce4bhrh2rcd13ifvqhug","pricing_plan_id":"cebpf4jnsgd1na2vs0mg"},{"bike_id":"404c75c1-b6ef-4728-9d23-4692de57273e","system_id":"levelo_inurba_marseille","lat":43.30543,"lon":5.367,"is_reserved":false,"is_disabled":false,"rental_uris":{"android":"levelo://app?vid=404c75c1-b6ef-4728-9d23-4692de57273e","ios":"levelo://app?vid=404c75c1-b6ef-4728-9d23-4692de57273e"},"vehicle_type_id":"4","last_reported":1741594263,"current_range_meters":20000,"station_id":"ce4bgrp2rcd13ifvqc9g","pricing_plan_id":"cebpf4jnsgd1na2vs0mg"},{"bike_id":"67ac6126-4ed7-40ce-84e9-3e2f3ee8e27f","system_id":"levelo_inurba_marseille","lat":43.30545,"lon":5.36548,"is_reserved":false,"is_disabled":false,"rental_uris":{"android":"levelo://app?vid=67ac6126-4ed7-40ce-84e9-3e2f3ee8e27f","ios":"levelo://app?vid=67ac6126-4ed7-40ce-84e9-3e2f3ee8e27f"},"vehicle_type_id":"4","last_reported":1741594263,"current_range_meters":20000,"station_id":"ce4bgs12rcd13ifvqcag","pricing_plan_id":"cebpf4jnsgd1na2vs0mg"},{"bike_id":"fd00b056-973a-4169-9423-78042f03e07e","system_id":"levelo_inurba_marseille","lat":43.29871,"lon":5.39737,"is_reserved":false,"is_disabled":false,"rental_uris":{"android":"levelo://app?vid=fd00b056-973a-4169-9423-78042f03e07e","ios":"levelo://app?vid=fd00b056-973a-4169-9423-78042f03e07e"},"vehicle_type_id":"4","last_reported":1741594263,"current_range_meters":20000,"station_id":"ce4bh0h2rcd13ifvqd50","pricing_plan_id":"cebpf4jnsgd1na2vs0mg"},{"bike_id":"210fdac4-a708-426e-b618-80e060bd1617","system_id":"levelo_inurba_marseille","lat":43.25095,"lon":5.40333,"is_reserved":false,"is_disabled":false,"rental_uris":{"android":"levelo://app?vid=210fdac4-a708-426e-b618-80e060bd1617","ios":"levelo://app?vid=210fdac4-a708-426e-b618-80e060bd1617"},"vehicle_type_id":"4","last_reported":1741594263,"current_range_meters":20000,"station_id":"ce4bhlh2rcd13ifvqgig","pricing_plan_id":"cebpf4jnsgd1na2vs0mg"},{"bike_id":"a0f3529f-eaf4-4a27-ac60-aa7375bbe566","system_id":"levelo_inurba_marseille","lat":43.24181,"lon":5.39732,"is_reserved":false,"is_disabled":false,"rental_uris":{"android":"levelo://app?vid=a0f3529f-eaf4-4a27-ac60-aa7375bbe566","ios":"levelo://app?vid=a0f3529f-eaf4-4a27-ac60-aa7375bbe566"},"vehicle_type_id":"4","last_reported":1741594263,"current_range_meters":20000,"station_id":"ce4bhn12rcd13ifvqgpg","pricing_plan_id":"cebpf4jnsgd1na2vs0mg"},{"bike_id":"3dfe102b-1814-4e6b-bfe1-a12093ba540d","system_id":"levelo_inurba_marseille","lat":43.23185,"lon":5.4,"is_reserved":false,"is_disabled":false,"rental_uris":{"android":"levelo://app?vid=3dfe102b-1814-4e6b-bfe1-a12093ba540d","ios":"levelo://app?vid=3dfe102b-1814-4e6b-bfe1-a12093ba540d"},"vehicle_type_id":"4","last_reported":1741594263,"current_range_meters":20000,"station_id":"ce4bhn12rcd13ifvqgqg","pricing_plan_id":"cebpf4jnsgd1na2vs0mg"},{"bike_id":"17b872eb-086c-460e-bcad-782a4a781cf9","system_id":"levelo_inurba_marseille","lat":43.25164,"lon":5.42516,"is_reserved":false,"is_disabled":false,"rental_uris":{"android":"levelo://app?vid=17b872eb-086c-460e-bcad-782a4a781cf9","ios":"levelo://app?vid=17b872eb-086c-460e-bcad-782a4a781cf9"},"vehicle_type_id":"4","last_reported":1741594263,"current_range_meters":20400,"station_id":"","pricing_plan_id":"cebpf4jnsgd1na2vs0mg"},{"bike_id":"9186ca93-ddec-4865-8df5-3b3a921aaa0e","system_id":"levelo_inurba_marseille","lat":43.30535,"lon":5.36719,"is_reserved":false,"is_disabled":false,"rental_uris":{"android":"levelo://app?vid=9186ca93-ddec-4865-8df5-3b3a921aaa0e","ios":"levelo://app?vid=9186ca93-ddec-4865-8df5-3b3a921aaa0e"},"vehicle_type_id":"4","last_reported":1741594263,"current_range_meters":20400,"station_id":"ce4bgrp2rcd13ifvqc9g","pricing_plan_id":"cebpf4jnsgd1na2vs0mg"},{"bike_id":"2888a4d0-eae5-45b9-a432-3c34d23c80c7","system_id":"levelo_inurba_marseille","lat":43.31492,"lon":5.37309,"is_reserved":false,"is_disabled":false,"rental_uris":{"android":"levelo://app?vid=2888a4d0-eae5-45b9-a432-3c34d23c80c7","ios":"levelo://app?vid=2888a4d0-eae5-45b9-a432-3c34d23c80c7"},"vehicle_type_id":"4","last_reported":1741594263,"current_range_meters":20400,"station_id":"ce4bgt12rcd13ifvqcd0","pricing_plan_id":"cebpf4jnsgd1na2vs0mg"},{"bike_id":"92933905-e72f-44ee-9e57-41919f30dcff","system_id":"levelo_inurba_marseille","lat":43.31711,"lon":5.40462,"is_reserved":false,"is_disabled":false,"rental_uris":{"android":"levelo://app?vid=92933905-e72f-44ee-9e57-41919f30dcff","ios":"levelo://app?vid=92933905-e72f-44ee-9e57-41919f30dcff"},"vehicle_type_id":"4","last_reported":1741594263,"current_range_meters":20400,"station_id":"ce4bh012rcd13ifvqd00","pricing_plan_id":"cebpf4jnsgd1na2vs0mg"},{"bike_id":"ae1891e1-5a2a-4e59-95ce-ab3ec1636ea4","system_id":"levelo_inurba_marseille","lat":43.23967,"lon":5.36629,"is_reserved":false,"is_disabled":false,"rental_uris":{"android":"levelo://app?vid=ae1891e1-5a2a-4e59-95ce-ab3ec1636ea4","ios":"levelo://app?vid=ae1891e1-5a2a-4e59-95ce-ab3ec1636ea4"},"vehicle_type_id":"4","last_reported":1741594263,"current_range_meters":20400,"station_id":"ce4bhi12rcd13ifvqfp0","pricing_plan_id":"cebpf4jnsgd1na2vs0mg"},{"bike_id":"4fa28fb8-8a7c-4522-801a-54448d25e7fe","system_id":"levelo_inurba_marseille","lat":43.32656,"lon":5.41,"is_reserved":false,"is_disabled":false,"rental_uris":{"android":"levelo://app?vid=4fa28fb8-8a7c-4522-801a-54448d25e7fe","ios":"levelo://app?vid=4fa28fb8-8a7c-4522-801a-54448d25e7fe"},"vehicle_type_id":"4","last_reported":1741594263,"current_range_meters":20400,"station_id":"ce4bhpp2rcd13ifvqhgg","pricing_plan_id":"cebpf4jnsgd1na2vs0mg"},{"bike_id":"f89c0f32-1cc0-4482-afb0-fae53194230a","system_id":"levelo_inurba_marseille","lat":43.28614,"lon":5.37063,"is_reserved":false,"is_disabled":false,"rental_uris":{"android":"levelo://app?vid=f89c0f32-1cc0-4482-afb0-fae53194230a","ios":"levelo://app?vid=f89c0f32-1cc0-4482-afb0-fae53194230a"},"vehicle_type_id":"4","last_reported":1741594263,"current_range_meters":20400,"station_id":"ce4bht12rcd13ifvqi60","pricing_plan_id":"cebpf4jnsgd1na2vs0mg"},{"bike_id":"aa7ef81b-b6eb-4b86-b23e-5267b418199d","system_id":"levelo_inurba_marseille","lat":43.31729,"lon":5.37679,"is_reserved":false,"is_disabled":false,"rental_uris":{"android":"levelo://app?vid=aa7ef81b-b6eb-4b86-b23e-5267b418199d","ios":"levelo://app?vid=aa7ef81b-b6eb-4b86-b23e-5267b418199d"},"vehicle_type_id":"4","last_reported":1741594263,"current_range_meters":20800,"station_id":"","pricing_plan_id":"cebpf4jnsgd1na2vs0mg"},{"bike_id":"7e3b5b9c-b7aa-44b6-8a5b-79798f7b22fc","system_id":"levelo_inurba_marseille","lat":43.30574,"lon":5.36697,"is_reserved":false,"is_disabled":false,"rental_uris":{"android":"levelo://app?vid=7e3b5b9c-b7aa-44b6-8a5b-79798f7b22fc","ios":"levelo://app?vid=7e3b5b9c-b7aa-44b6-8a5b-79798f7b22fc"},"vehicle_type_id":"4","last_reported":1741594263,"current_range_meters":20800,"station_id":"ce4bgrp2rcd13ifvqc9g","pricing_plan_id":"cebpf4jnsgd1na2vs0mg"},{"bike_id":"e34ec4dc-b0d7-44d7-8dfb-a6f7ccbbb70d","system_id":"levelo_inurba_marseille","lat":43.3053,"lon":5.3671,"is_reserved":false,"is_disabled":false,"rental_uris":{"android":"levelo://app?vid=e34ec4dc-b0d7-44d7-8dfb-a6f7ccbbb70d","ios":"levelo://app?vid=e34ec4dc-b0d7-44d7-8dfb-a6f7ccbbb70d"},"vehicle_type_id":"4","last_reported":1741594263,"current_range_meters":20800,"station_id":"ce4bgrp2rcd13ifvqc9g","pricing_plan_id":"cebpf4jnsgd1na2vs0mg"},{"bike_id":"421c21b9-0c6b-42b9-a27a-71aae88caa66","system_id":"levelo_inurba_marseille","lat":43.25952,"lon":5.40852,"is_reserved":false,"is_disabled":false,"rental_uris":{"android":"levelo://app?vid=421c21b9-0c6b-42b9-a27a-71aae88caa66","ios":"levelo://app?vid=421c21b9-0c6b-42b9-a27a-71aae88caa66"},"vehicle_type_id":"4","last_reported":1741594263,"current_range_meters":20800,"station_id":"ce4bhm92rcd13ifvqglg","pricing_plan_id":"cebpf4jnsgd1na2vs0mg"},{"bike_id":"17f3fae9-87ee-4c72-9bd6-ee80791d97bf","system_id":"levelo_inurba_marseille","lat":43.27998,"lon":5.4001,"is_reserved":false,"is_disabled":false,"rental_uris":{"android":"levelo://app?vid=17f3fae9-87ee-4c72-9bd6-ee80791d97bf","ios":"levelo://app?vid=17f3fae9-87ee-4c72-9bd6-ee80791d97bf"},"vehicle_type_id":"4","last_reported":1741594263,"current_range_meters":20800,"station_id":"ce4bho92rcd13ifvqh4g","pricing_plan_id":"cebpf4jnsgd1na2vs0mg"},{"bike_id":"3779d2ae-7adb-4a44-9d12-018b4857a114","system_id":"levelo_inurba_marseille","lat":43.33614,"lon":5.41045,"is_reserved":false,"is_disabled":false,"rental_uris":{"android":"levelo://app?vid=3779d2ae-7adb-4a44-9d12-018b4857a114","ios":"levelo://app?vid=3779d2ae-7adb-4a44-9d12-018b4857a114"},"vehicle_type_id":"4","last_reported":1741594263,"current_range_meters":20800,"station_id":"ce4bhqh2rcd13ifvqhmg","pricing_plan_id":"cebpf4jnsgd1na2vs0mg"},{"bike_id":"f829a819-671e-4b71-9c22-56c5f8047725","system_id":"levelo_inurba_marseille","lat":43.323615,"lon":5.367573,"is_reserved":false,"is_disabled":false,"rental_uris":{"android":"levelo://app?vid=f829a819-671e-4b71-9c22-56c5f8047725","ios":"levelo://app?vid=f829a819-671e-4b71-9c22-56c5f8047725"},"vehicle_type_id":"4","last_reported":1741594263,"current_range_meters":20800,"station_id":"ce4bhsh2rcd13ifvqi2g","pricing_plan_id":"cebpf4jnsgd1na2vs0mg"},{"bike_id":"b4833599-feb3-4cc1-93a0-71f6e892c03b","system_id":"levelo_inurba_marseille","lat":43.3016,"lon":5.38102,"is_reserved":false,"is_disabled":false,"rental_uris":{"android":"levelo://app?vid=b4833599-feb3-4cc1-93a0-71f6e892c03b","ios":"levelo://app?vid=b4833599-feb3-4cc1-93a0-71f6e892c03b"},"vehicle_type_id":"4","last_reported":1741594263,"current_range_meters":21600,"station_id":"ce4bgjp2rcd13ifvqbh0","pricing_plan_id":"cebpf4jnsgd1na2vs0mg"},{"bike_id":"c1df21a6-65fb-4936-b256-39c0296f503f","system_id":"levelo_inurba_marseille","lat":43.309,"lon":5.36853,"is_reserved":false,"is_disabled":false,"rental_uris":{"android":"levelo://app?vid=c1df21a6-65fb-4936-b256-39c0296f503f","ios":"levelo://app?vid=c1df21a6-65fb-4936-b256-39c0296f503f"},"vehicle_type_id":"4","last_reported":1741594263,"current_range_meters":21600,"station_id":"ce4bgn92rcd13ifvqbvg","pricing_plan_id":"cebpf4jnsgd1na2vs0mg"},{"bike_id":"e0a5ca0e-e67f-4524-965f-508ce49a2e2a","system_id":"levelo_inurba_marseille","lat":43.285011,"lon":5.385788,"is_reserved":false,"is_disabled":false,"rental_uris":{"android":"levelo://app?vid=e0a5ca0e-e67f-4524-965f-508ce49a2e2a","ios":"levelo://app?vid=e0a5ca0e-e67f-4524-965f-508ce49a2e2a"},"vehicle_type_id":"4","last_reported":1741594263,"current_range_meters":21600,"station_id":"ce4bhg12rcd13ifvqf60","pricing_plan_id":"cebpf4jnsgd1na2vs0mg"},{"bike_id":"3a66d43c-ad78-4ad9-9a57-cdcb8be63c1c","system_id":"levelo_inurba_marseille","lat":43.23156,"lon":5.437,"is_reserved":false,"is_disabled":false,"rental_uris":{"android":"levelo://app?vid=3a66d43c-ad78-4ad9-9a57-cdcb8be63c1c","ios":"levelo://app?vid=3a66d43c-ad78-4ad9-9a57-cdcb8be63c1c"},"vehicle_type_id":"4","last_reported":1741594263,"current_range_meters":21600,"station_id":"ce4bhmp2rcd13ifvqgog","pricing_plan_id":"cebpf4jnsgd1na2vs0mg"},{"bike_id":"461d923c-b594-438c-a6df-2f7464a45083","system_id":"levelo_inurba_marseille","lat":43.30534,"lon":5.36549,"is_reserved":false,"is_disabled":false,"rental_uris":{"android":"levelo://app?vid=461d923c-b594-438c-a6df-2f7464a45083","ios":"levelo://app?vid=461d923c-b594-438c-a6df-2f7464a45083"},"vehicle_type_id":"4","last_reported":1741594263,"current_range_meters":22000,"station_id":"ce4bgs12rcd13ifvqcag","pricing_plan_id":"cebpf4jnsgd1na2vs0mg"},{"bike_id":"bb662398-1435-4601-bcd4-5b7e5bfcc8e6","system_id":"levelo_inurba_marseille","lat":43.30131,"lon":5.37456,"is_reserved":false,"is_disabled":false,"rental_uris":{"android":"levelo://app?vid=bb662398-1435-4601-bcd4-5b7e5bfcc8e6","ios":"levelo://app?vid=bb662398-1435-4601-bcd4-5b7e5bfcc8e6"},"vehicle_type_id":"4","last_reported":1741594263,"current_range_meters":22000,"station_id":"ce4bgs92rcd13ifvqcc0","pricing_plan_id":"cebpf4jnsgd1na2vs0mg"},{"bike_id":"b294b8de-9d97-4ef2-a441-4d3d179f88ea","system_id":"levelo_inurba_marseille","lat":43.26212,"lon":5.37442,"is_reserved":false,"is_disabled":false,"rental_uris":{"android":"levelo://app?vid=b294b8de-9d97-4ef2-a441-4d3d179f88ea","ios":"levelo://app?vid=b294b8de-9d97-4ef2-a441-4d3d179f88ea"},"vehicle_type_id":"4","last_reported":1741594263,"current_range_meters":22000,"station_id":"ce4bhgp2rcd13ifvqfc0","pricing_plan_id":"cebpf4jnsgd1na2vs0mg"},{"bike_id":"254cadb0-31d2-4bfa-978a-6eb54880fa4f","system_id":"levelo_inurba_marseille","lat":43.23154,"lon":5.43711,"is_reserved":false,"is_disabled":false,"rental_uris":{"android":"levelo://app?vid=254cadb0-31d2-4bfa-978a-6eb54880fa4f","ios":"levelo://app?vid=254cadb0-31d2-4bfa-978a-6eb54880fa4f"},"vehicle_type_id":"4","last_reported":1741594263,"current_range_meters":22000,"station_id":"ce4bhmp2rcd13ifvqgog","pricing_plan_id":"cebpf4jnsgd1na2vs0mg"},{"bike_id":"e166916b-fc8a-4068-a2c2-f6eab84b3c65","system_id":"levelo_inurba_marseille","lat":43.2815,"lon":5.42648,"is_reserved":false,"is_disabled":false,"rental_uris":{"android":"levelo://app?vid=e166916b-fc8a-4068-a2c2-f6eab84b3c65","ios":"levelo://app?vid=e166916b-fc8a-4068-a2c2-f6eab84b3c65"},"vehicle_type_id":"4","last_reported":1741594263,"current_range_meters":22000,"station_id":"ce4bhnh2rcd13ifvqgug","pricing_plan_id":"cebpf4jnsgd1na2vs0mg"},{"bike_id":"eb7e20e3-573d-4f29-b488-f944b9c0207d","system_id":"levelo_inurba_marseille","lat":43.292642,"lon":5.376268,"is_reserved":false,"is_disabled":false,"rental_uris":{"android":"levelo://app?vid=eb7e20e3-573d-4f29-b488-f944b9c0207d","ios":"levelo://app?vid=eb7e20e3-573d-4f29-b488-f944b9c0207d"},"vehicle_type_id":"4","last_reported":1741594263,"current_range_meters":22400,"station_id":"ce4bgi12rcd13ifvqb80","pricing_plan_id":"cebpf4jnsgd1na2vs0mg"},{"bike_id":"c94b5115-de52-4363-b712-eb597e6b415c","system_id":"levelo_inurba_marseille","lat":43.29933,"lon":5.37483,"is_reserved":false,"is_disabled":false,"rental_uris":{"android":"levelo://app?vid=c94b5115-de52-4363-b712-eb597e6b415c","ios":"levelo://app?vid=c94b5115-de52-4363-b712-eb597e6b415c"},"vehicle_type_id":"4","last_reported":1741594263,"current_range_meters":22400,"station_id":"ce4bgjh2rcd13ifvqbg0","pricing_plan_id":"cebpf4jnsgd1na2vs0mg"},{"bike_id":"d35aeb37-1d3e-4b2c-bf37-3c59636510bf","system_id":"levelo_inurba_marseille","lat":43.30905,"lon":5.36843,"is_reserved":false,"is_disabled":false,"rental_uris":{"android":"levelo://app?vid=d35aeb37-1d3e-4b2c-bf37-3c59636510bf","ios":"levelo://app?vid=d35aeb37-1d3e-4b2c-bf37-3c59636510bf"},"vehicle_type_id":"4","last_reported":1741594263,"current_range_meters":22400,"station_id":"ce4bgn92rcd13ifvqbvg","pricing_plan_id":"cebpf4jnsgd1na2vs0mg"},