{"last_updated":1749481862,"ttl":60,"version":"2.2","data":{"bikes":[{"bike_id":"87a4c74b-1e2a-46d2-ac17-4415973c0200","system_id":"levelo_inurba_marseille","lat":43.2655,"lon":5.37285,"is_reserved":false,"is_disabled":false,"rental_uris":{"android":"levelo://app?vid=87a4c74b-1e2a-46d2-ac17-4415973c0200","ios":"levelo://app?vid=87a4c74b-1e2a-46d2-ac17-4415973c0200"},"vehicle_type_id":"4","last_reported":1749481862,"current_range_meters":2800,"station_id":"","pricing_plan_id":"cebpf4jnsgd1na2vs0mg"},{"bike_id":"14fff386-42bd-4723-a925-7fe0683f9cc1","system_id":"levelo_inurba_marseille","lat":43.3095,"lon":5.39031,"is_reserved":false,"is_disabled":false,"rental_uris":{"android":"levelo://app?vid=14fff386-42bd-4723-a925-7fe0683f9cc1","ios":"levelo://app?vid=14fff386-42bd-4723-a925-7fe0683f9cc1"},"vehicle_type_id":"4","last_reported":1749481862,"current_range_meters":2800,"station_id":"ce4bgup2rcd13ifvqco0","pricing_plan_id":"cebpf4jnsgd1na2vs0mg"},{"bike_id":"496d48a1-7a8b-488d-a162-d2250c820fb0","system_id":"levelo_inurba_marseille","lat":43.26433,"lon":5.38599,"is_reserved":false,"is_disabled":false,"rental_uris":{"android":"levelo://app?vid=496d48a1-7a8b-488d-a162-d2250c820fb0","ios":"levelo://app?vid=496d48a1-7a8b-488d-a162-d2250c820fb0"},"vehicle_type_id":"4","last_reported":1749481862,"current_range_meters":2800,"station_id":"","pricing_plan_id":"cebpf4jnsgd1na2vs0mg"},{"bike_id":"d031b5f8-e58e-4bba-9088-a41aa3af6eea","system_id":"levelo_inurba_marseille","lat":43.30788,"lon":5.37651,"is_reserved":false,"is_disabled":false,"rental_uris":{"android":"levelo://app?vid=d031b5f8-e58e-4bba-9088-a41aa3af6eea","ios":"levelo://app?vid=d031b5f8-e58e-4bba-9088-a41aa3af6eea"},"vehicle_type_id":"4","last_reported":1749481862,"current_range_meters":2000,"station_id":"ce4bgv92rcd13ifvqcq0","pricing_plan_id":"cebpf4jnsgd1na2vs0mg"},{"bike_id":"af792bed-408f-456b-aee0-c51bd6dd41ef","system_id":"levelo_inurba_marseille","lat":43.27377,"lon":5.36257,"is_reserved":false,"is_disabled":false,"rental_uris":{"android":"levelo://app?vid=af792bed-408f-456b-aee0-c51bd6dd41ef","ios":"levelo://app?vid=af792bed-408f-456b-aee0-c51bd6dd41ef"},"vehicle_type_id":"4","last_reported":1749481862,"current_range_meters":2800,"station_id":"ce4bhbh2rcd13ifvqeo0","pricing_plan_id":"cebpf4jnsgd1na2vs0mg"},{"bike_id":"834e5309-88ed-4711-8fdc-6c7ff3601bd7","system_id":"levelo_inurba_marseille","lat":43.29512,"lon":5.37512,"is_reserved":false,"is_disabled":false,"rental_uris":{"android":"levelo://app?vid=834e5309-88ed-4711-8fdc-6c7ff3601bd7","ios":"levelo://app?vid=834e5309-88ed-4711-8fdc-6c7ff3601bd7"},"vehicle_type_id":"4","last_reported":1749481862,"current_range_meters":3200,"station_id":"ce4bgkp2rcd13ifvqbmg","pricing_plan_id":"cebpf4jnsgd1na2vs0mg"},{"bike_id":"ff35a1d8-f575-4f43-bff5-6762ba0c275b","system_id":"levelo_inurba_marseille","lat":43.23197,"lon":5.3556,"is_reserved":false,"is_disabled":false,"rental_uris":{"android":"levelo://app?vid=ff35a1d8-f575-4f43-bff5-6762ba0c275b","ios":"levelo://app?vid=ff35a1d8-f575-4f43-bff5-6762ba0c275b"},"vehicle_type_id":"4","last_reported":1749481862,"current_range_meters":3200,"station_id":"ce4bhu92rcd13ifvqi70","pricing_plan_id":"cebpf4jnsgd1na2vs0mg"},{"bike_id":"94100305-b53c-486a-9645-b712b740ad13","system_id":"levelo_inurba_marseille","lat":43.284052,"lon":5.349682,"is_reserved":false,"is_disabled":false,"rental_uris":{"android":"levelo://app?vid=94100305-b53c-486a-9645-b712b740ad13","ios":"levelo://app?vid=94100305-b53c-486a-9645-b712b740ad13"},"vehicle_type_id":"4","last_reported":1749481862,"current_range_meters":3600,"station_id":"ce4bhbh2rcd13ifvqepg","pricing_plan_id":"cebpf4jnsgd1na2vs0mg"},{"bike_id":"6b85da52-7ea8-4c00-bfea-d2522b567364","system_id":"levelo_inurba_marseille","lat":43.28611,"lon":5.37065,"is_reserved":false,"is_disabled":false,"rental_uris":{"android":"levelo://app?vid=6b85da52-7ea8-4c00-bfea-d2522b567364","ios":"levelo://app?vid=6b85da52-7ea8-4c00-bfea-d2522b567364"},"vehicle_type_id":"4","last_reported":1749481862,"current_range_meters":3600,"station_id":"ce4bht12rcd13ifvqi60","pricing_plan_id":"cebpf4jnsgd1na2vs0mg"},{"bike_id":"993687f2-87fb-4152-85a2-3dd5a0b176fd","system_id":"levelo_inurba_marseille","lat":43.33608,"lon":5.40986,"is_reserved":false,"is_disabled":false,"rental_uris":{"android":"levelo://app?vid=993687f2-87fb-4152-85a2-3dd5a0b176fd","ios":"levelo://app?vid=993687f2-87fb-4152-85a2-3dd5a0b176fd"},"vehicle_type_id":"4","last_reported":1749481862,"current_range_meters":3600,"station_id":"ce4bhqh2rcd13ifvqhmg","pricing_plan_id":"cebpf4jnsgd1na2vs0mg"},{"bike_id":"d257e237-8978-4687-9742-9c4863456837","system_id":"levelo_inurba_marseille","lat":43.30931,"lon":5.40142,"is_reserved":false,"is_disabled":false,"rental_uris":{"android":"levelo://app?vid=d257e237-8978-4687-9742-9c4863456837","ios":"levelo://app?vid=d257e237-8978-4687-9742-9c4863456837"},"vehicle_type_id":"4","last_reported":1749481862,"current_range_meters":3600,"station_id":"ce4bgvp2rcd13ifvqct0","pricing_plan_id":"cebpf4jnsgd1na2vs0mg"},{"bike_id":"5e82b437-5bdb-4431-944a-e556cbb2af96","system_id":"levelo_inurba_marseille","lat":43.26499,"lon":5.39545,"is_reserved":false,"is_disabled":false,"rental_uris":{"android":"levelo://app?vid=5e82b437-5bdb-4431-944a-e556cbb2af96","ios":"levelo://app?vid=5e82b437-5bdb-4431-944a-e556cbb2af96"},"vehicle_type_id":"4","last_reported":1749481862,"current_range_meters":3600,"station_id":"ce4bhi12rcd13ifvqfq0","pricing_plan_id":"cebpf4jnsgd1na2vs0mg"},{"bike_id":"85b24217-2766-4112-8fdd-e17eb50115eb","system_id":"levelo_inurba_marseille","lat":43.23154,"lon":5.43714,"is_reserved":false,"is_disabled":false,"rental_uris":{"android":"levelo://app?vid=85b24217-2766-4112-8fdd-e17eb50115eb","ios":"levelo://app?vid=85b24217-2766-4112-8fdd-e17eb50115eb"},"vehicle_type_id":"4","last_reported":1749481862,"current_range_meters":4000,"station_id":"ce4bhmp2rcd13ifvqgog","pricing_plan_id":"cebpf4jnsgd1na2vs0mg"},{"bike_id":"61fe8776-5a0b-4ce0-bb04-db45583e5560","system_id":"levelo_inurba_marseille","lat":43.28418,"lon":5.34998,"is_reserved":false,"is_disabled":false,"rental_uris":{"android":"levelo://app?vid=61fe8776-5a0b-4ce0-bb04-db45583e5560","ios":"levelo://app?vid=61fe8776-5a0b-4ce0-bb04-db45583e5560"},"vehicle_type_id":"4","last_reported":1749481862,"current_range_meters":4000,"station_id":"ce4bhbh2rcd13ifvqepg","pricing_plan_id":"cebpf4jnsgd1na2vs0mg"},{"bike_id":"f4a2cc47-b022-4894-b938-b0719c4731c9","system_id":"levelo_inurba_marseille","lat":43.28267,"lon":5.35062,"is_reserved":false,"is_disabled":false,"rental_uris":{"android":"levelo://app?vid=f4a2cc47-b022-4894-b938-b0719c4731c9","ios":"levelo://app?vid=f4a2cc47-b022-4894-b938-b0719c4731c9"},"vehicle_type_id":"4","last_reported":1749481862,"current_range_meters":4400,"station_id":"ce4bhbp2rcd13ifvqerg","pricing_plan_id":"cebpf4jnsgd1na2vs0mg"},{"bike_id":"1ea4d901-280f-4050-a043-0b37afe86b03","system_id":"levelo_inurba_marseille","lat":43.21188,"lon":5.3507,"is_reserved":false,"is_disabled":false,"rental_uris":{"android":"levelo://app?vid=1ea4d901-280f-4050-a043-0b37afe86b03","ios":"levelo://app?vid=1ea4d901-280f-4050-a043-0b37afe86b03"},"vehicle_type_id":"4","last_reported":1749481862,"current_range_meters":4400,"station_id":"st_cvj6sg6p6f1abm77japg","pricing_plan_id":"cebpf4jnsgd1na2vs0mg"},{"bike_id":"19b9d581-3680-42d2-9b05-5c990c0fe3c8","system_id":"levelo_inurba_marseille","lat":43.31573,"lon":5.38374,"is_reserved":false,"is_disabled":false,"rental_uris":{"android":"levelo://app?vid=19b9d581-3680-42d2-9b05-5c990c0fe3c8","ios":"levelo://app?vid=19b9d581-3680-42d2-9b05-5c990c0fe3c8"},"vehicle_type_id":"4","last_reported":1749481862,"current_range_meters":4400,"station_id":"","pricing_plan_id":"cebpf4jnsgd1na2vs0mg"},{"bike_id":"67d4735d-a812-4e55-90bc-5641f4e35931","system_id":"levelo_inurba_marseille","lat":43.21189,"lon":5.35075,"is_reserved":false,"is_disabled":false,"rental_uris":{"android":"levelo://app?vid=67d4735d-a812-4e55-90bc-5641f4e35931","ios":"levelo://app?vid=67d4735d-a812-4e55-90bc-5641f4e35931"},"vehicle_type_id":"4","last_reported":1749481862,"current_range_meters":4800,"station_id":"st_cvj6sg6p6f1abm77japg","pricing_plan_id":"cebpf4jnsgd1na2vs0mg"},{"bike_id":"dea51c1c-f49f-4285-b568-db81e10ec9a6","system_id":"levelo_inurba_marseille","lat":43.29411,"lon":5.38625,"is_reserved":false,"is_disabled":false,"rental_uris":{"android":"levelo://app?vid=dea51c1c-f49f-4285-b568-db81e10ec9a6","ios":"levelo://app?vid=dea51c1c-f49f-4285-b568-db81e10ec9a6"},"vehicle_type_id":"4","last_reported":1749481862,"current_range_meters":4800,"station_id":"ce4bh2h2rcd13ifvqdh0","pricing_plan_id":"cebpf4jnsgd1na2vs0mg"},{"bike_id":"774994c0-f213-4ff6-b2f3-d4a3196adca4","system_id":"levelo_inurba_marseille","lat":43.30351,"lon":5.41874,"is_reserved":false,"is_disabled":false,"rental_uris":{"android":"levelo://app?vid=774994c0-f213-4ff6-b2f3-d4a3196adca4","ios":"levelo://app?vid=774994c0-f213-4ff6-b2f3-d4a3196adca4"},"vehicle_type_id":"4","last_reported":1749481862,"current_range_meters":4800,"station_id":"ce4bhop2rcd13ifvqh7g","pricing_plan_id":"cebpf4jnsgd1na2vs0mg"},{"bike_id":"212b3395-2884-4ed9-9c88-6ec0f9f02f58","system_id":"levelo_inurba_marseille","lat":43.27617,"lon":5.36097,"is_reserved":false,"is_disabled":false,"rental_uris":{"android":"levelo://app?vid=212b3395-2884-4ed9-9c88-6ec0f9f02f58","ios":"levelo://app?vid=212b3395-2884-4ed9-9c88-6ec0f9f02f58"},"vehicle_type_id":"4","last_reported":1749481862,"current_range_meters":4800,"station_id":"ce4bgj92rcd13ifvqbe0","pricing_plan_id":"cebpf4jnsgd1na2vs0mg"},{"bike_id":"0373a87b-2ac7-43d9-99cf-ae7e3006433e","system_id":"levelo_inurba_marseille","lat":43.21744,"lon":5.34606,"is_reserved":false,"is_disabled":false,"rental_uris":{"android":"levelo://app?vid=0373a87b-2ac7-43d9-99cf-ae7e3006433e","ios":"levelo://app?vid=0373a87b-2ac7-43d9-99cf-ae7e3006433e"},"vehicle_type_id":"4","last_reported":1749481862,"current_range_meters":4800,"station_id":"st_cvj6r9ubvosntc0bgbag","pricing_plan_id":"cebpf4jnsgd1na2vs0mg"},{"bike_id":"3d934df4-d284-4aab-8f36-1879db27fb6c","system_id":"levelo_inurba_marseille","lat":43.27983,"lon":5.38756,"is_reserved":false,"is_disabled":false,"rental_uris":{"android":"levelo://app?vid=3d934df4-d284-4aab-8f36-1879db27fb6c","ios":"levelo://app?vid=3d934df4-d284-4aab-8f36-1879db27fb6c"},"vehicle_type_id":"4","last_reported":1749481862,"current_range_meters":4400,"station_id":"ce4bhg12rcd13ifvqf80","pricing_plan_id":"cebpf4jnsgd1na2vs0mg"},{"bike_id":"a2d73be7-868a-4600-9834-af16b43b12ad","system_id":"levelo_inurba_marseille","lat":43.244743,"lon":5.425253,"is_reserved":false,"is_disabled":false,"rental_uris":{"android":"levelo://app?vid=a2d73be7-868a-4600-9834-af16b43b12ad","ios":"levelo://app?vid=a2d73be7-868a-4600-9834-af16b43b12ad"},"vehicle_type_id":"4","last_reported":1749481862,"current_range_meters":5600,"station_id":"","pricing_plan_id":"cebpf4jnsgd1na2vs0mg"},{"bike_id":"6655785a-fb62-4f56-9ba6-81e7c3d60be0","system_id":"levelo_inurba_marseille","lat":43.28425,"lon":5.34994,"is_reserved":false,"is_disabled":false,"rental_uris":{"android":"levelo://app?vid=6655785a-fb62-4f56-9ba6-81e7c3d60be0","ios":"levelo://app?vid=6655785a-fb62-4f56-9ba6-81e7c3d60be0"},"vehicle_type_id":"4","last_reported":1749481862,"current_range_meters":5600,"station_id":"ce4bhbh2rcd13ifvqepg","pricing_plan_id":"cebpf4jnsgd1na2vs0mg"},{"bike_id":"bfdff45d-6df6-480e-8cf5-c3248f5c3d12","system_id":"levelo_inurba_marseille","lat":43.30427,"lon":5.39739,"is_reserved":false,"is_disabled":false,"rental_uris":{"android":"levelo://app?vid=bfdff45d-6df6-480e-8cf5-c3248f5c3d12","ios":"levelo://app?vid=bfdff45d-6df6-480e-8cf5-c3248f5c3d12"},"vehicle_type_id":"4","last_reported":1749481862,"current_range_meters":5600,"station_id":"ce4bh092rcd13ifvqd20","pricing_plan_id":"cebpf4jnsgd1na2vs0mg"},{"bike_id":"5c5617ff-6bd6-48e5-ab32-2ac6773ad6d4","system_id":"levelo_inurba_marseille","lat":43.30949,"lon":5.39034,"is_reserved":false,"is_disabled":false,"rental_uris":{"android":"levelo://app?vid=5c5617ff-6bd6-48e5-ab32-2ac6773ad6d4","ios":"levelo://app?vid=5c5617ff-6bd6-48e5-ab32-2ac6773ad6d4"},"vehicle_type_id":"4","last_reported":1749481862,"current_range_meters":5600,"station_id":"ce4bgup2rcd13ifvqco0","pricing_plan_id":"cebpf4jnsgd1na2vs0mg"},{"bike_id":"85cb7e5a-b3ee-467a-ba16-118328542ef8","system_id":"levelo_inurba_marseille","lat":43.2319,"lon":5.39992,"is_reserved":false,"is_disabled":false,"rental_uris":{"android":"levelo://app?vid=85cb7e5a-b3ee-467a-ba16-118328542ef8","ios":"levelo://app?vid=85cb7e5a-b3ee-467a-ba16-118328542ef8"},"vehicle_type_id":"4","last_reported":1749481862,"current_range_meters":5600,"station_id":"ce4bhn12rcd13ifvqgqg","pricing_plan_id":"cebpf4jnsgd1na2vs0mg"},{"bike_id":"ee91dd7c-9811-44ce-98a9-df7e7e1d000f","system_id":"levelo_inurba_marseille","lat":43.31693,"lon":5.40477,"is_reserved":false,"is_disabled":false,"rental_uris":{"android":"levelo://app?vid=ee91dd7c-9811-44ce-98a9-df7e7e1d000f","ios":"levelo://app?vid=ee91dd7c-9811-44ce-98a9-df7e7e1d000f"},"vehicle_type_id":"4","last_reported":1749481862,"current_range_meters":6000,"station_id":"ce4bh012rcd13ifvqd00","pricing_plan_id":"cebpf4jnsgd1na2vs0mg"},{"bike_id":"513d1f34-2908-474f-a89f-b3daa224a6a3","system_id":"levelo_inurba_marseille","lat":43.21758,"lon":5.34595,"is_reserved":false,"is_disabled":false,"rental_uris":{"android":"levelo://app?vid=513d1f34-2908-474f-a89f-b3daa224a6a3","ios":"levelo://app?vid=513d1f34-2908-474f-a89f-b3daa224a6a3"},"vehicle_type_id":"4","last_reported":1749481862,"current_range_meters":6000,"station_id":"st_cvj6r9ubvosntc0bgbag","pricing_plan_id":"cebpf4jnsgd1na2vs0mg"},{"bike_id":"a2e59991-b6db-4a79-bd4a-c85459ff1272","system_id":"levelo_inurba_marseille","lat":43.29537,"lon":5.37503,"is_reserved":false,"is_disabled":false,"rental_uris":{"android":"levelo://app?vid=a2e59991-b6db-4a79-bd4a-c85459ff1272","ios":"levelo://app?vid=a2e59991-b6db-4a79-bd4a-c85459ff1272"},"vehicle_type_id":"4","last_reported":1749481862,"current_range_meters":5600,"station_id":"ce4bgkp2rcd13ifvqbmg","pricing_plan_id":"cebpf4jnsgd1na2vs0mg"},{"bike_id":"d35b275a-b514-4085-8fb1-77b814bb7331","system_id":"levelo_inurba_marseille","lat":43.3176,"lon":5.39017,"is_reserved":false,"is_disabled":false,"rental_uris":{"android":"levelo://app?vid=d35b275a-b514-4085-8fb1-77b814bb7331","ios":"levelo://app?vid=d35b275a-b514-4085-8fb1-77b814bb7331"},"vehicle_type_id":"4","last_reported":1749481862,"current_range_meters":6000,"station_id":"ce4bhqp2rcd13ifvqhng","pricing_plan_id":"cebpf4jnsgd1na2vs0mg"},{"bike_id":"a61242dd-8369-4520-9963-a504224e1a30","system_id":"levelo_inurba_marseille","lat":43.23181,"lon":5.40787,"is_reserved":false,"is_disabled":false,"rental_uris":{"android":"levelo://app?vid=a61242dd-8369-4520-9963-a504224e1a30","ios":"levelo://app?vid=a61242dd-8369-4520-9963-a504224e1a30"},"vehicle_type_id":"4","last_reported":1749481862,"current_range_meters":6400,"station_id":"","pricing_plan_id":"cebpf4jnsgd1na2vs0mg"},{"bike_id":"a92831d9-e6cf-4d03-a714-494fe4fe9894","system_id":"levelo_inurba_marseille","lat":43.24662,"lon":5.38166,"is_reserved":false,"is_disabled":false,"rental_uris":{"android":"levelo://app?vid=a92831d9-e6cf-4d03-a714-494fe4fe9894","ios":"levelo://app?vid=a92831d9-e6cf-4d03-a714-494fe4fe9894"},"vehicle_type_id":"4","last_reported":1749481862,"current_range_meters":6400,"station_id":"ce4bhih2rcd13ifvqfr0","pricing_plan_id":"cebpf4jnsgd1na2vs0mg"},{"bike_id":"e17ca8f7-5361-4509-8831-ddecc2aab0c2","system_id":"levelo_inurba_marseille","lat":43.29294,"lon":5.37466,"is_reserved":false,"is_disabled":false,"rental_uris":{"android":"levelo://app?vid=e17ca8f7-5361-4509-8831-ddecc2aab0c2","ios":"levelo://app?vid=e17ca8f7-5361-4509-8831-ddecc2aab0c2"},"vehicle_type_id":"4","last_reported":1749481862,"current_range_meters":6400,"station_id":"ce4bgi12rcd13ifvqb70","pricing_plan_id":"cebpf4jnsgd1na2vs0mg"},{"bike_id":"5c8c9f76-729a-4e03-a5e3-985c760a4063","system_id":"levelo_inurba_marseille","lat":43.29974,"lon":5.38494,"is_reserved":false,"is_disabled":false,"rental_uris":{"android":"levelo://app?vid=5c8c9f76-729a-4e03-a5e3-985c760a4063","ios":"levelo://app?vid=5c8c9f76-729a-4e03-a5e3-985c760a4063"},"vehicle_type_id":"4","last_reported":1749481862,"current_range_meters":6800,"station_id":"ce4bgj92rcd13ifvqbd0","pricing_plan_id":"cebpf4jnsgd1na2vs0mg"},{"bike_id":"994fbbd1-7b7a-4973-8b72-780a5cbeda75","system_id":"levelo_inurba_marseille","lat":43.28976,"lon":5.3783,"is_reserved":false,"is_disabled":true,"rental_uris":{"android":"levelo://app?vid=994fbbd1-7b7a-4973-8b72-780a5cbeda75","ios":"levelo://app?vid=994fbbd1-7b7a-4973-8b72-780a5cbeda75"},"vehicle_type_id":"4","last_reported":1749481862,"current_range_meters":6800,"station_id":"ce4bh9p2rcd13ifvqed0","pricing_plan_id":"cebpf4jnsgd1na2vs0mg"},{"bike_id":"d14bb3fb-0246-43a5-b426-497f5f9c0a9e","system_id":"levelo_inurba_marseille","lat":43.29604,"lon":5.38104,"is_reserved":false,"is_disabled":false,"rental_uris":{"android":"levelo://app?vid=d14bb3fb-0246-43a5-b426-497f5f9c0a9e","ios":"levelo://app?vid=d14bb3fb-0246-43a5-b426-497f5f9c0a9e"},"vehicle_type_id":"4","last_reported":1749481862,"current_range_meters":6800,"station_id":"ce4bgl12rcd13ifvqbo0","pricing_plan_id":"cebpf4jnsgd1na2vs0mg"},{"bike_id":"ac0f1f83-7df5-425e-ab88-2950897c850e","system_id":"levelo_inurba_marseille","lat":43.30632,"lon":5.40093,"is_reserved":false,"is_disabled":false,"rental_uris":{"android":"levelo://app?vid=ac0f1f83-7df5-425e-ab88-2950897c850e","ios":"levelo://app?vid=ac0f1f83-7df5-425e-ab88-2950897c850e"},"vehicle_type_id":"4","last_reported":1749481862,"current_range_meters":6800,"station_id":"ce4bh112rcd13ifvqda0","pricing_plan_id":"cebpf4jnsgd1na2vs0mg"},{"bike_id":"f9fc7906-a75f-4f97-884b-50861daa4f44","system_id":"levelo_inurba_marseille","lat":43.28264,"lon":5.3507,"is_reserved":false,"is_disabled":false,"rental_uris":{"android":"levelo://app?vid=f9fc7906-a75f-4f97-884b-50861daa4f44","ios":"levelo://app?vid=f9fc7906-a75f-4f97-884b-50861daa4f44"},"vehicle_type_id":"4","last_reported":1749481862,"current_range_meters":6800,"station_id":"ce4bhbp2rcd13ifvqerg","pricing_plan_id":"cebpf4jnsgd1na2vs0mg"},{"bike_id":"534ba662-f5ff-46be-8cb2-6f649c0638fd","system_id":"levelo_inurba_marseille","lat":43.21744,"lon":5.34598,"is_reserved":false,"is_disabled":false,"rental_uris":{"android":"levelo://app?vid=534ba662-f5ff-46be-8cb2-6f649c0638fd","ios":"levelo://app?vid=534ba662-f5ff-46be-8cb2-6f649c0638fd"},"vehicle_type_id":"4","last_reported":1749481862,"current_range_meters":6800,"station_id":"st_cvj6r9ubvosntc0bgbag","pricing_plan_id":"cebpf4jnsgd1na2vs0mg"},{"bike_id":"a0206d07-e277-445f-afd4-e12840eb60d0","system_id":"levelo_inurba_marseille","lat":43.24071,"lon":5.37764,"is_reserved":false,"is_disabled":false,"rental_uris":{"android":"levelo://app?vid=a0206d07-e277-445f-afd4-e12840eb60d0","ios":"levelo://app?vid=a0206d07-e277-445f-afd4-e12840eb60d0"},"vehicle_type_id":"4","last_reported":1749481862,"current_range_meters":6800,"station_id":"ce4bhnp2rcd13ifvqgvg","pricing_plan_id":"cebpf4jnsgd1na2vs0mg"},{"bike_id":"1d33457a-a880-408f-b962-1c183a046093","system_id":"levelo_inurba_marseille","lat":43.25865,"lon":5.39894,"is_reserved":false,"is_disabled":false,"rental_uris":{"android":"levelo://app?vid=1d33457a-a880-408f-b962-1c183a046093","ios":"levelo://app?vid=1d33457a-a880-408f-b962-1c183a046093"},"vehicle_type_id":"4","last_reported":1749481862,"current_range_meters":6800,"station_id":"ce4bhl92rcd13ifvqghg","pricing_plan_id":"cebpf4jnsgd1na2vs0mg"},{"bike_id":"e134d0ea-f1be-4abb-a94e-3bd3ca355c7a","system_id":"levelo_inurba_marseille","lat":43.27173,"lon":5.40988,"is_reserved":false,"is_disabled":false,"rental_uris":{"android":"levelo://app?vid=e134d0ea-f1be-4abb-a94e-3bd3ca355c7a","ios":"levelo://app?vid=e134d0ea-f1be-4abb-a94e-3bd3ca355c7a"},"vehicle_type_id":"4","last_reported":1749481862,"current_range_meters":6800,"station_id":"ce4bhl12rcd13ifvqgf0","pricing_plan_id":"cebpf4jnsgd1na2vs0mg"},{"bike_id":"9788b364-b0b6-443c-a282-592535f38295","system_id":"levelo_inurba_marseille","lat":43.2842,"lon":5.34998,"is_reserved":false,"is_disabled":false,"rental_uris":{"android":"levelo://app?vid=9788b364-b0b6-443c-a282-592535f38295","ios":"levelo://app?vid=9788b364-b0b6-443c-a282-592535f38295"},"vehicle_type_id":"4","last_reported":1749481862,"current_range_meters":7200,"station_id":"ce4bhbh2rcd13ifvqepg","pricing_plan_id":"cebpf4jnsgd1na2vs0mg"},{"bike_id":"26b898cc-11a0-4c85-a890-8a9bb099fecf","system_id":"levelo_inurba_marseille","lat":43.32287,"lon":5.38272,"is_reserved":false,"is_disabled":false,"rental_uris":{"android":"levelo://app?vid=26b898cc-11a0-4c85-a890-8a9bb099fecf","ios":"levelo://app?vid=26b898cc-11a0-4c85-a890-8a9bb099fecf"},"vehicle_type_id":"4","last_reported":1749481862,"current_range_meters":7200,"station_id":"ce4bhr12rcd13ifvqhqg","pricing_plan_id":"cebpf4jnsgd1na2vs0mg"},{"bike_id":"d425de15-1bd7-4abd-8abe-aa1ae0db838d","system_id":"levelo_inurba_marseille","lat":43.31717,"lon":5.42403,"is_reserved":false,"is_disabled":false,"rental_uris":{"android":"levelo://app?vid=d425de15-1bd7-4abd-8abe-aa1ae0db838d","ios":"levelo://app?vid=d425de15-1bd7-4abd-8abe-aa1ae0db838d"},"vehicle_type_id":"4","last_reported":1749481862,"current_range_meters":7200,"station_id":"ce4bhp92rcd13ifvqhbg","pricing_plan_id":"cebpf4jnsgd1na2vs0mg"},{"bike_id":"c96237fc-8bc6-4574-a13f-34d99827e293","system_id":"levelo_inurba_marseille","lat":43.2826,"lon":5.35081,"is_reserved":false,"is_disabled":false,"rental_uris":{"android":"levelo://app?vid=c96237fc-8bc6-4574-a13f-34d99827e293","ios":"levelo://app?vid=c96237fc-8bc6-4574-a13f-34d99827e293"},"vehicle_type_id":"4","last_reported":1749481862,"current_range_meters":7200,"station_id":"ce4bhbp2rcd13ifvqerg","pricing_plan_id":"cebpf4jnsgd1na2vs0mg"},{"bike_id":"533fac1a-7840-4722-b7cc-aa868652d036","system_id":"levelo_inurba_marseille","lat":43.28261,"lon":5.35066,"is_reserved":false,"is_disabled":false,"rental_uris":{"android":"levelo://app?vid=533fac1a-7840-4722-b7cc-aa868652d036","ios":"levelo://app?vid=533fac1a-7840-4722-b7cc-aa868652d036"},"vehicle_type_id":"4","last_reported":1749481862,"current_range_meters":7200,"station_id":"ce4bhbp2rcd13ifvqerg","pricing_plan_id":"cebpf4jnsgd1na2vs0mg"},{"bike_id":"e789db96-5390-475e-be94-97ae95e7e988","system_id":"levelo_inurba_marseille","lat":43.229329,"lon":5.353801,"is_reserved":false,"is_disabled":false,"rental_uris":{"android":"levelo://app?vid=e789db96-5390-475e-be94-97ae95e7e988","ios":"levelo://app?vid=e789db96-5390-475e-be94-97ae95e7e988"},"vehicle_type_id":"4","last_reported":1749481862,"current_range_meters":8000,"station_id":"cpo3532slgdg3j2ikp40","pricing_plan_id":"cebpf4jnsgd1na2vs0mg"},{"bike_id":"a3874012-62cd-4dcc-a907-f1271d1f0b81","system_id":"levelo_inurba_marseille","lat":43.25107,"lon":5.40346,"is_reserved":false,"is_disabled":false,"rental_uris":{"android":"levelo://app?vid=a3874012-62cd-4dcc-a907-f1271d1f0b81","ios":"levelo://app?vid=a3874012-62cd-4dcc-a907-f1271d1f0b81"},"vehicle_type_id":"4","last_reported":1749481862,"current_range_meters":8000,"station_id":"ce4bhlh2rcd13ifvqgig","pricing_plan_id":"cebpf4jnsgd1na2vs0mg"},{"bike_id":"bd1485dd-6aae-42ae-bc28-23359f9f7bca","system_id":"levelo_inurba_marseille","lat":43.29305,"lon":5.37457,"is_reserved":false,"is_disabled":false,"rental_uris":{"android":"levelo://app?vid=bd1485dd-6aae-42ae-bc28-23359f9f7bca","ios":"levelo://app?vid=bd1485dd-6aae-42ae-bc28-23359f9f7bca"},"vehicle_type_id":"4","last_reported":1749481862,"current_range_meters":8400,"station_id":"ce4bgi12rcd13ifvqb70","pricing_plan_id":"cebpf4jnsgd1na2vs0mg"},{"bike_id":"145749c2-07fc-4a38-aa8c-84ac0c3789c6","system_id":"levelo_inurba_marseille","lat":43.32048,"lon":5.41542,"is_reserved":false,"is_disabled":false,"rental_uris":{"android":"levelo://app?vid=145749c2-07fc-4a38-aa8c-84ac0c3789c6","ios":"levelo://app?vid=145749c2-07fc-4a38-aa8c-84ac0c3789c6"},"vehicle_type_id":"4","last_reported":1749481862,"current_range_meters":8400,"station_id":"ce4bhq92rcd13ifvqhkg","pricing_plan_id":"cebpf4jnsgd1na2vs0mg"},{"bike_id":"781bcf50-52ca-4350-bf0f-8071b3b2b128","system_id":"levelo_inurba_marseille","lat":43.29926,"lon":5.43671,"is_reserved":false,"is_disabled":false,"rental_uris":{"android":"levelo://app?vid=781bcf50-52ca-4350-bf0f-8071b3b2b128","ios":"levelo://app?vid=781bcf50-52ca-4350-bf0f-8071b3b2b128"},"vehicle_type_id":"4","last_reported":1749481862,"current_range_meters":8400,"station_id":"","pricing_plan_id":"cebpf4jnsgd1na2vs0mg"},{"bike_id":"cbb5a8a3-001e-4fbc-990f-a92952b5b244","system_id":"levelo_inurba_marseille","lat":43.2558,"lon":5.38239,"is_reserved":false,"is_disabled":false,"rental_uris":{"android":"levelo://app?vid=cbb5a8a3-001e-4fbc-990f-a92952b5b244","ios":"levelo://app?vid=cbb5a8a3-001e-4fbc-990f-a92952b5b244"},"vehicle_type_id":"4","last_reported":1749481862,"current_range_meters":8400,"station_id":"ce4bhih2rcd13ifvqfs0","pricing_plan_id":"cebpf4jnsgd1na2vs0mg"},{"bike_id":"18a8aad5-4510-42dd-b76e-34a73061f496","system_id":"levelo_inurba_marseille","lat":43.28273,"lon":5.35078,"is_reserved":false,"is_disabled":false,"rental_uris":{"android":"levelo://app?vid=18a8aad5-4510-42dd-b76e-34a73061f496","ios":"levelo://app?vid=18a8aad5-4510-42dd-b76e-34a73061f496"},"vehicle_type_id":"4","last_reported":1749481862,"current_range_meters":8400,"station_id":"ce4bhbp2rcd13ifvqerg","pricing_plan_id":"cebpf4jnsgd1na2vs0mg"},{"bike_id":"5911cf26-4ab1-483d-824f-36cd72f7369f","system_id":"levelo_inurba_marseille","lat":43.26678,"lon":5.38262,"is_reserved":false,"is_disabled":false,"rental_uris":{"android":"levelo://app?vid=5911cf26-4ab1-483d-824f-36cd72f7369f","ios":"levelo://app?vid=5911cf26-4ab1-483d-824f-36cd72f7369f"},"vehicle_type_id":"4","last_reported":1749481862,"current_range_meters":8400,"station_id":"ce4bhg92rcd13ifvqf90","pricing_plan_id":"cebpf4jnsgd1na2vs0mg"},{"bike_id":"86fde31b-85b0-4cb0-b28a-d008fb1199ce","system_id":"levelo_inurba_marseille","lat":43.30178,"lon":5.36619,"is_reserved":false,"is_disabled":false,"rental_uris":{"android":"levelo://app?vid=86fde31b-85b0-4cb0-b28a-d008fb1199ce","ios":"levelo://app?vid=86fde31b-85b0-4cb0-b28a-d008fb1199ce"},"vehicle_type_id":"4","last_reported":1749481862,"current_range_meters":8800,"station_id":"ce4bgrh2rcd13ifvqc8g","pricing_plan_id":"cebpf4jnsgd1na2vs0mg"},{"bike_id":"e050839e-0eb1-444f-a2d4-866393151ca7","system_id":"levelo_inurba_marseille","lat":43.23193,"lon":5.3555,"is_reserved":false,"is_disabled":false,"rental_uris":{"android":"levelo://app?vid=e050839e-0eb1-444f-a2d4-866393151ca7","ios":"levelo://app?vid=e050839e-0eb1-444f-a2d4-866393151ca7"},"vehicle_type_id":"4","last_reported":1749481862,"current_range_meters":8800,"station_id":"ce4bhu92rcd13ifvqi70","pricing_plan_id":"cebpf4jnsgd1na2vs0mg"},{"bike_id":"8b4caff4-6ee7-47a5-a64f-5ccaa83c132f","system_id":"levelo_inurba_marseille","lat":43.295313,"lon":5.425099,"is_reserved":false,"is_disabled":false,"rental_uris":{"android":"levelo://app?vid=8b4caff4-6ee7-47a5-a64f-5ccaa83c132f","ios":"levelo://app?vid=8b4caff4-6ee7-47a5-a64f-5ccaa83c132f"},"vehicle_type_id":"4","last_reported":1749481862,"current_range_meters":8800,"station_id":"","pricing_plan_id":"cebpf4jnsgd1na2vs0mg"},{"bike_id":"4e3a8dd3-65e1-490c-8cff-d20c3d86c68a","system_id":"levelo_inurba_marseille","lat":43.26555,"lon":5.37283,"is_reserved":false,"is_disabled":false,"rental_uris":{"android":"levelo://app?vid=4e3a8dd3-65e1-490c-8cff-d20c3d86c68a","ios":"levelo://app?vid=4e3a8dd3-65e1-490c-8cff-d20c3d86c68a"},"vehicle_type_id":"4","last_reported":1749481862,"current_range_meters":8800,"station_id":"ce4bhg12rcd13ifvqf70","pricing_plan_id":"cebpf4jnsgd1na2vs0mg"},{"bike_id":"8ac5cfb7-8341-4d53-9280-98d580b6d82b","system_id":"levelo_inurba_marseille","lat":43.28268,"lon":5.35061,"is_reserved":false,"is_disabled":false,"rental_uris":{"android":"levelo://app?vid=8ac5cfb7-8341-4d53-9280-98d580b6d82b","ios":"levelo://app?vid=8ac5cfb7-8341-4d53-9280-98d580b6d82b"},"vehicle_type_id":"4","last_reported":1749481862,"current_range_meters":8800,"station_id":"ce4bhbp2rcd13ifvqerg","pricing_plan_id":"cebpf4jnsgd1na2vs0mg"},{"bike_id":"89e61be4-479c-4cec-a748-e4051ae578a2","system_id":"levelo_inurba_marseille","lat":43.32369,"lon":5.38867,"is_reserved":false,"is_disabled":false,"rental_uris":{"android":"levelo://app?vid=89e61be4-479c-4cec-a748-e4051ae578a2","ios":"levelo://app?vid=89e61be4-479c-4cec-a748-e4051ae578a2"},"vehicle_type_id":"4","last_reported":1749481862,"current_range_meters":8800,"station_id":"ce4bhqp2rcd13ifvqhog","pricing_plan_id":"cebpf4jnsgd1na2vs0mg"},{"bike_id":"7eedcc0e-33d2-492d-876b-2852803d9891","system_id":"levelo_inurba_marseille","lat":43.26494,"lon":5.39239,"is_reserved":false,"is_disabled":false,"rental_uris":{"android":"levelo://app?vid=7eedcc0e-33d2-492d-876b-2852803d9891","ios":"levelo://app?vid=7eedcc0e-33d2-492d-876b-2852803d9891"},"vehicle_type_id":"4","last_reported":1749481862,"current_range_meters":8800,"station_id":"","pricing_plan_id":"cebpf4jnsgd1na2vs0mg"},{"bike_id":"c863e750-b5b6-4572-b57e-c0e976f53305","system_id":"levelo_inurba_marseille","lat":43.28403,"lon":5.34983,"is_reserved":false,"is_disabled":false,"rental_uris":{"android":"levelo://app?vid=c863e750-b5b6-4572-b57e-c0e976f53305","ios":"levelo://app?vid=c863e750-b5b6-4572-b57e-c0e976f53305"},"vehicle_type_id":"4","last_reported":1749481862,"current_range_meters":8800,"station_id":"ce4bhbh2rcd13ifvqepg","pricing_plan_id":"cebpf4jnsgd1na2vs0mg"},{"bike_id":"3bb87db6-8022-418f-a4aa-7c455834f81e","system_id":"levelo_inurba_marseille","lat":43.23573,"lon":5.379098,"is_reserved":false,"is_disabled":false,"rental_uris":{"android":"levelo://app?vid=3bb87db6-8022-418f-a4aa-7c455834f81e","ios":"levelo://app?vid=3bb87db6-8022-418f-a4aa-7c455834f81e"},"vehicle_type_id":"4","last_reported":1749481862,"current_range_meters":9200,"station_id":"","pricing_plan_id":"cebpf4jnsgd1na2vs0mg"},{"bike_id":"5478c1b4-4c7d-476f-b8e4-102490ff70cd","system_id":"levelo_inurba_marseille","lat":43.31956,"lon":5.37282,"is_reserved":false,"is_disabled":false,"rental_uris":{"android":"levelo://app?vid=5478c1b4-4c7d-476f-b8e4-102490ff70cd","ios":"levelo://app?vid=5478c1b4-4c7d-476f-b8e4-102490ff70cd"},"vehicle_type_id":"4","last_reported":1749481862,"current_range_meters":9200,"station_id":"","pricing_plan_id":"cebpf4jnsgd1na2vs0mg"},{"bike_id":"11d99533-1239-4522-b0b5-f8a3bff696e7","system_id":"levelo_inurba_marseille","lat":43.30154,"lon":5.42439,"is_reserved":false,"is_disabled":false,"rental_uris":{"android":"levelo://app?vid=11d99533-1239-4522-b0b5-f8a3bff696e7","ios":"levelo://app?vid=11d99533-1239-4522-b0b5-f8a3bff696e7"},"vehicle_type_id":"4","last_reported":1749481862,"current_range_meters":9200,"station_id":"","pricing_plan_id":"cebpf4jnsgd1na2vs0mg"},{"bike_id":"9ab5dcb2-22af-49e2-b2c1-32117ad578dc","system_id":"levelo_inurba_marseille","lat":43.29493,"lon":5.42571,"is_reserved":false,"is_disabled":false,"rental_uris":{"android":"levelo://app?vid=9ab5dcb2-22af-49e2-b2c1-32117ad578dc","ios":"levelo://app?vid=9ab5dcb2-22af-49e2-b2c1-32117ad578dc"},"vehicle_type_id":"4","last_reported":1749481862,"current_range_meters":9200,"station_id":"","pricing_plan_id":"cebpf4jnsgd1na2vs0mg"},{"bike_id":"dd67f108-95bf-4a1e-b619-4bb77e009c5b","system_id":"levelo_inurba_marseille","lat":43.29093,"lon":5.4276,"is_reserved":false,"is_disabled":false,"rental_uris":{"android":"levelo://app?vid=dd67f108-95bf-4a1e-b619-4bb77e009c5b","ios":"levelo://app?vid=dd67f108-95bf-4a1e-b619-4bb77e009c5b"},"vehicle_type_id":"4","last_reported":1749481862,"current_range_meters":9200,"station_id":"","pricing_plan_id":"cebpf4jnsgd1na2vs0mg"},{"bike_id":"a4d0fd14-cf22-41d1-a3fb-e0b805f5d238","system_id":"levelo_inurba_marseille","lat":43.28353,"lon":5.38114,"is_reserved":false,"is_disabled":false,"rental_uris":{"android":"levelo://app?vid=a4d0fd14-cf22-41d1-a3fb-e0b805f5d238","ios":"levelo://app?vid=a4d0fd14-cf22-41d1-a3fb-e0b805f5d238"},"vehicle_type_id":"4","last_reported":1749481862,"current_range_meters":9200,"station_id":"ce4bh412rcd13ifvqdr0","pricing_plan_id":"cebpf4jnsgd1na2vs0mg"},{"bike_id":"d0335b62-b327-476c-91be-37179ff89c90","system_id":"levelo_inurba_marseille","lat":43.2623,"lon":5.3743,"is_reserved":false,"is_disabled":false,"rental_uris":{"android":"levelo://app?vid=d0335b62-b327-476c-91be-37179ff89c90","ios":"levelo://app?vid=d0335b62-b327-476c-91be-37179ff89c90"},"vehicle_type_id":"4","last_reported":1749481862,"current_range_meters":9200,"station_id":"ce4bhgp2rcd13ifvqfc0","pricing_plan_id":"cebpf4jnsgd1na2vs0mg"},{"bike_id":"1e586377-e5cd-4379-a2f0-02b4a6a16d45","system_id":"levelo_inurba_marseille","lat":43.26028,"lon":5.37534,"is_reserved":false,"is_disabled":true,"rental_uris":{"android":"levelo://app?vid=1e586377-e5cd-4379-a2f0-02b4a6a16d45","ios":"levelo://app?vid=1e586377-e5cd-4379-a2f0-02b4a6a16d45"},"vehicle_type_id":"4","last_reported":1749481862,"current_range_meters":9200,"station_id":"ce4bhgh2rcd13ifvqfa0","pricing_plan_id":"cebpf4jnsgd1na2vs0mg"},{"bike_id":"9d073130-46db-46c4-affb-6564e2de5a50","system_id":"levelo_inurba_marseille","lat":43.32366,"lon":5.38873,"is_reserved":false,"is_disabled":false,"rental_uris":{"android":"levelo://app?vid=9d073130-46db-46c4-affb-6564e2de5a50","ios":"levelo://app?vid=9d073130-46db-46c4-affb-6564e2de5a50"},"vehicle_type_id":"4","last_reported":1749481862,"current_range_meters":9200,"station_id":"ce4bhqp2rcd13ifvqhog","pricing_plan_id":"cebpf4jnsgd1na2vs0mg"},{"bike_id":"ca8be690-9def-466a-9c9f-3f27533662a2","system_id":"levelo_inurba_marseille","lat":43.28618,"lon":5.35108,"is_reserved":false,"is_disabled":false,"rental_uris":{"android":"levelo://app?vid=ca8be690-9def-466a-9c9f-3f27533662a2","ios":"levelo://app?vid=ca8be690-9def-466a-9c9f-3f27533662a2"},"vehicle_type_id":"4","last_reported":1749481862,"current_range_meters":9200,"station_id":"ce4bhch2rcd13ifvqeug","pricing_plan_id":"cebpf4jnsgd1na2vs0mg"},{"bike_id":"c4283814-4516-4cb9-92e2-202ee90d96cf","system_id":"levelo_inurba_marseille","lat":43.239655,"lon":5.366326,"is_reserved":false,"is_disabled":false,"rental_uris":{"android":"levelo://app?vid=c4283814-4516-4cb9-92e2-202ee90d96cf","ios":"levelo://app?vid=c4283814-4516-4cb9-92e2-202ee90d96cf"},"vehicle_type_id":"4","last_reported":1749481862,"current_range_meters":11200,"station_id":"","pricing_plan_id":"cebpf4jnsgd1na2vs0mg"},{"bike_id":"ee7a2e6a-3e65-41f6-b8b3-501fb42682dc","system_id":"levelo_inurba_marseille","lat":43.275467,"lon":5.38438,"is_reserved":false,"is_disabled":true,"rental_uris":{"android":"levelo://app?vid=ee7a2e6a-3e65-41f6-b8b3-501fb42682dc","ios":"levelo://app?vid=ee7a2e6a-3e65-41f6-b8b3-501fb42682dc"},"vehicle_type_id":"4","last_reported":1749481862,"current_range_meters":9200,"station_id":"ce4bhh92rcd13ifvqfi0","pricing_plan_id":"cebpf4jnsgd1na2vs0mg"},{"bike_id":"1319fada-ccd6-4fe4-8b4c-8048f59c4998","system_id":"levelo_inurba_marseille","lat":43.30771,"lon":5.38156,"is_reserved":false,"is_disabled":false,"rental_uris":{"android":"levelo://app?vid=1319fada-ccd6-4fe4-8b4c-8048f59c4998","ios":"levelo://app?vid=1319fada-ccd6-4fe4-8b4c-8048f59c4998"},"vehicle_type_id":"4","last_reported":1749481862,"current_range_meters":9200,"station_id":"ce4bgt12rcd13ifvqce0","pricing_plan_id":"cebpf4jnsgd1na2vs0mg"},{"bike_id":"25a253ad-7ee7-4c2e-bab0-87a81f95e00c","system_id":"levelo_inurba_marseille","lat":43.28428,"lon":5.34994,"is_reserved":false,"is_disabled":true,"rental_uris":{"android":"levelo://app?vid=25a253ad-7ee7-4c2e-bab0-87a81f95e00c","ios":"levelo://app?vid=25a253ad-7ee7-4c2e-bab0-87a81f95e00c"},"vehicle_type_id":"4","last_reported":1749481862,"current_range_meters":9600,"station_id":"ce4bhbh2rcd13ifvqepg","pricing_plan_id":"cebpf4jnsgd1na2vs0mg"},{"bike_id":"56b0e8e6-3496-4197-b8b7-1ea9a28654fb","system_id":"levelo_inurba_marseille","lat":43.28419,"lon":5.34976,"is_reserved":false,"is_disabled":false,"rental_uris":{"android":"levelo://app?vid=56b0e8e6-3496-4197-b8b7-1ea9a28654fb","ios":"levelo://app?vid=56b0e8e6-3496-4197-b8b7-1ea9a28654fb"},"vehicle_type_id":"4","last_reported":1749481862,"current_range_meters":9600,"station_id":"ce4bhbh2rcd13ifvqepg","pricing_plan_id":"cebpf4jnsgd1na2vs0mg"},{"bike_id":"78824323-0810-44e8-b331-2726c6b3645d","system_id":"levelo_inurba_marseille","lat":43.33603,"lon":5.41033,"is_reserved":false,"is_disabled":false,"rental_uris":{"android":"levelo://app?vid=78824323-0810-44e8-b331-2726c6b3645d","ios":"levelo://app?vid=78824323-0810-44e8-b331-2726c6b3645d"},"vehicle_type_id":"4","last_reported":1749481862,"current_range_meters":9600,"station_id":"ce4bhqh2rcd13ifvqhmg","pricing_plan_id":"cebpf4jnsgd1na2vs0mg"},{"bike_id":"bbe309f5-bea9-49ea-b8a9-73a9ea86cd43","system_id":"levelo_inurba_marseille","lat":43.28613,"lon":5.37062,"is_reserved":false,"is_disabled":false,"rental_uris":{"android":"levelo://app?vid=bbe309f5-bea9-49ea-b8a9-73a9ea86cd43","ios":"levelo://app?vid=bbe309f5-bea9-49ea-b8a9-73a9ea86cd43"},"vehicle_type_id":"4","last_reported":1749481862,"current_range_meters":9600,"station_id":"ce4bht12rcd13ifvqi60","pricing_plan_id":"cebpf4jnsgd1na2vs0mg"},{"bike_id":"55991ce1-64b0-4649-b968-a764f3c6eee7","system_id":"levelo_inurba_marseille","lat":43.23191,"lon":5.35553,"is_reserved":false,"is_disabled":false,"rental_uris":{"android":"levelo://app?vid=55991ce1-64b0-4649-b968-a764f3c6eee7","ios":"levelo://app?vid=55991ce1-64b0-4649-b968-a764f3c6eee7"},"vehicle_type_id":"4","last_reported":1749481862,"current_range_meters":9600,"station_id":"ce4bhu92rcd13ifvqi70","pricing_plan_id":"cebpf4jnsgd1na2vs0mg"},{"bike_id":"2b74abfb-1262-40a3-bda3-f22e67504377","system_id":"levelo_inurba_marseille","lat":43.304439,"lon":5.368911,"is_reserved":false,"is_disabled":false,"rental_uris":{"android":"levelo://app?vid=2b74abfb-1262-40a3-bda3-f22e67504377","ios":"levelo://app?vid=2b74abfb-1262-40a3-bda3-f22e67504377"},"vehicle_type_id":"4","last_reported":1749481862,"current_range_meters":9600,"station_id":"","pricing_plan_id":"cebpf4jnsgd1na2vs0mg"},{"bike_id":"cb990818-444e-4c31-908c-0ac881770dbf","system_id":"levelo_inurba_marseille","lat":43.3309,"lon":5.38227,"is_reserved":false,"is_disabled":false,"rental_uris":{"android":"levelo://app?vid=cb990818-444e-4c31-908c-0ac881770dbf","ios":"levelo://app?vid=cb990818-444e-4c31-908c-0ac881770dbf"},"vehicle_type_id":"4","last_reported":1749481862,"current_range_meters":9600,"station_id":"","pricing_plan_id":"cebpf4jnsgd1na2vs0mg"},{"bike_id":"6246825d-02f4-4b98-9ee0-336fe2684f68","system_id":"levelo_inurba_marseille","lat":43.31625,"lon":5.38948,"is_reserved":false,"is_disabled":false,"rental_uris":{"android":"levelo://app?vid=6246825d-02f4-4b98-9ee0-336fe2684f68","ios":"levelo://app?vid=6246825d-02f4-4b98-9ee0-336fe2684f68"},"vehicle_type_id":"4","last_reported":1749481862,"current_range_meters":9600,"station_id":"","pricing_plan_id":"cebpf4jnsgd1na2vs0mg"},{"bike_id":"3ec6a0b2-3ac6-4f19-b3c2-f46a6ec79e4a","system_id":"levelo_inurba_marseille","lat":43.23188,"lon":5.35524,"is_reserved":false,"is_disabled":false,"rental_uris":{"android":"levelo://app?vid=3ec6a0b2-3ac6-4f19-b3c2-f46a6ec79e4a","ios":"levelo://app?vid=3ec6a0b2-3ac6-4f19-b3c2-f46a6ec79e4a"},"vehicle_type_id":"4","last_reported":1749481862,"current_range_meters":9600,"station_id":"ce4bhu92rcd13ifvqi70","pricing_plan_id":"cebpf4jnsgd1na2vs0mg"},{"bike_id":"7101e620-cc76-4028-b91a-a52aa997ec1d","system_id":"levelo_inurba_marseille","lat":43.30618,"lon":5.37387,"is_reserved":false,"is_disabled":false,"rental_uris":{"android":"levelo://app?vid=7101e620-cc76-4028-b91a-a52aa997ec1d","ios":"levelo://app?vid=7101e620-cc76-4028-b91a-a52aa997ec1d"},"vehicle_type_id":"4","last_reported":1749481862,"current_range_meters":9600,"station_id":"","pricing_plan_id":"cebpf4jnsgd1na2vs0mg"},{"bike_id":"39cdf7ed-89dc-4de2-aafe-6c9905ce3698","system_id":"levelo_inurba_marseille","lat":43.29809,"lon":5.36777,"is_reserved":false,"is_disabled":false,"rental_uris":{"android":"levelo://app?vid=39cdf7ed-89dc-4de2-aafe-6c9905ce3698","ios":"levelo://app?vid=39cdf7ed-89dc-4de2-aafe-6c9905ce3698"},"vehicle_type_id":"4","last_reported":1749481862,"current_range_meters":10000,"station_id":"","pricing_plan_id":"cebpf4jnsgd1na2vs0mg"},{"bike_id":"1767f70e-d5ee-4ca4-a65a-ffe005eccfaa","system_id":"levelo_inurba_marseille","lat":43.28251,"lon":5.35092,"is_reserved":false,"is_disabled":false,"rental_uris":{"android":"levelo://app?vid=1767f70e-d5ee-4ca4-a65a-ffe005eccfaa","ios":"levelo://app?vid=1767f70e-d5ee-4ca4-a65a-ffe005eccfaa"},"vehicle_type_id":"4","last_reported":1749481862,"current_range_meters":10000,"station_id":"ce4bhbp2rcd13ifvqerg","pricing_plan_id":"cebpf4jnsgd1na2vs0mg"},{"bike_id":"649a7053-0d2a-4dc9-8125-ff6f6a643fa3","system_id":"levelo_inurba_marseille","lat":43.26213,"lon":5.37439,"is_reserved":false,"is_disabled":false,"rental_uris":{"android":"levelo://app?vid=649a7053-0d2a-4dc9-8125-ff6f6a643fa3","ios":"levelo://app?vid=649a7053-0d2a-4dc9-8125-ff6f6a643fa3"},"vehicle_type_id":"4","last_reported":1749481862,"current_range_meters":10000,"station_id":"ce4bhgp2rcd13ifvqfc0","pricing_plan_id":"cebpf4jnsgd1na2vs0mg"},{"bike_id":"ed00ef55-0e4e-4c69-a83d-529208d44147","system_id":"levelo_inurba_marseille","lat":43.28612,"lon":5.35099,"is_reserved":false,"is_disabled":false,"rental_uris":{"android":"levelo://app?vid=ed00ef55-0e4e-4c69-a83d-529208d44147","ios":"levelo://app?vid=ed00ef55-0e4e-4c69-a83d-529208d44147"},"vehicle_type_id":"4","last_reported":1749481862,"current_range_meters":10000,"station_id":"ce4bhch2rcd13ifvqeug","pricing_plan_id":"cebpf4jnsgd1na2vs0mg"},{"bike_id":"7f8d428f-f39d-4d11-92e4-cebac4d23a2c","system_id":"levelo_inurba_marseille","lat":43.271724,"lon":5.409891,"is_reserved":false,"is_disabled":false,"rental_uris":{"android":"levelo://app?vid=7f8d428f-f39d-4d11-92e4-cebac4d23a2c","ios":"levelo://app?vid=7f8d428f-f39d-4d11-92e4-cebac4d23a2c"},"vehicle_type_id":"4","last_reported":1749481862,"current_range_meters":10800,"station_id":"ce4bhl12rcd13ifvqgf0","pricing_plan_id":"cebpf4jnsgd1na2vs0mg"},{"bike_id":"f9a7995c-43bd-4d9c-a96e-c45956ade08b","system_id":"levelo_inurba_marseille","lat":43.27625,"lon":5.36122,"is_reserved":false,"is_disabled":false,"rental_uris":{"android":"levelo://app?vid=f9a7995c-43bd-4d9c-a96e-c45956ade08b","ios":"levelo://app?vid=f9a7995c-43bd-4d9c-a96e-c45956ade08b"},"vehicle_type_id":"4","last_reported":1749481862,"current_range_meters":10800,"station_id":"ce4bgj92rcd13ifvqbe0","pricing_plan_id":"cebpf4jnsgd1na2vs0mg"},{"bike_id":"9216dba1-771f-4e5a-af74-387979995090","system_id":"levelo_inurba_marseille","lat":43.21206,"lon":5.35053,"is_reserved":false,"is_disabled":false,"rental_uris":{"android":"levelo://app?vid=9216dba1-771f-4e5a-af74-387979995090","ios":"levelo://app?vid=9216dba1-771f-4e5a-af74-387979995090"},"vehicle_type_id":"4","last_reported":1749481862,"current_range_meters":10800,"station_id":"st_cvj6sg6p6f1abm77japg","pricing_plan_id":"cebpf4jnsgd1na2vs0mg"},{"bike_id":"712a30c7-0f79-44f4-a37c-ba4636f6f916","system_id":"levelo_inurba_marseille","lat":43.23203,"lon":5.35623,"is_reserved":false,"is_disabled":false,"rental_uris":{"android":"levelo://app?vid=712a30c7-0f79-44f4-a37c-ba4636f6f916","ios":"levelo://app?vid=712a30c7-0f79-44f4-a37c-ba4636f6f916"},"vehicle_type_id":"4","last_reported":1749481862,"current_range_meters":10800,"station_id":"","pricing_plan_id":"cebpf4jnsgd1na2vs0mg"},{"bike_id":"7a286b17-17df-491a-a381-1330c2f7a715","system_id":"levelo_inurba_marseille","lat":43.29903,"lon":5.43675,"is_reserved":false,"is_disabled":false,"rental_uris":{"android":"levelo://app?vid=7a286b17-17df-491a-a381-1330c2f7a715","ios":"levelo://app?vid=7a286b17-17df-491a-a381-1330c2f7a715"},"vehicle_type_id":"4","last_reported":1749481862,"current_range_meters":10800,"station_id":"ce4bhpp2rcd13ifvqhfg","pricing_plan_id":"cebpf4jnsgd1na2vs0mg"},{"bike_id":"be3de90f-3640-4d88-bf79-3852856f9bd7","system_id":"levelo_inurba_marseille","lat":43.30929,"lon":5.40154,"is_reserved":false,"is_disabled":false,"rental_uris":{"android":"levelo://app?vid=be3de90f-3640-4d88-bf79-3852856f9bd7","ios":"levelo://app?vid=be3de90f-3640-4d88-bf79-3852856f9bd7"},"vehicle_type_id":"4","last_reported":1749481862,"current_range_meters":10800,"station_id":"ce4bgvp2rcd13ifvqct0","pricing_plan_id":"cebpf4jnsgd1na2vs0mg"},{"bike_id":"47c45e90-46ff-4542-82bb-bbc8ba290382","system_id":"levelo_inurba_marseille","lat":43.3043,"lon":5.38896,"is_reserved":false,"is_disabled":false,"rental_uris":{"android":"levelo://app?vid=47c45e90-46ff-4542-82bb-bbc8ba290382","ios":"levelo://app?vid=47c45e90-46ff-4542-82bb-bbc8ba290382"},"vehicle_type_id":"4","last_reported":1749481862,"current_range_meters":10800,"station_id":"ce4bgk12rcd13ifvqbi0","pricing_plan_id":"cebpf4jnsgd1na2vs0mg"},{"bike_id":"ba18b8d6-36dc-4ba2-8440-35095876d199","system_id":"levelo_inurba_marseille","lat":43.22938,"lon":5.35396,"is_reserved":false,"is_disabled":false,"rental_uris":{"android":"levelo://app?vid=ba18b8d6-36dc-4ba2-8440-35095876d199","ios":"levelo://app?vid=ba18b8d6-36dc-4ba2-8440-35095876d199"},"vehicle_type_id":"4","last_reported":1749481862,"current_range_meters":11200,"station_id":"cpo3532slgdg3j2ikp40","pricing_plan_id":"cebpf4jnsgd1na2vs0mg"},{"bike_id":"842b3250-4d8c-4a66-bdcc-cc0e7d8d04c9","system_id":"levelo_inurba_marseille","lat":43.21783,"lon":5.34609,"is_reserved":false,"is_disabled":false,"rental_uris":{"android":"levelo://app?vid=842b3250-4d8c-4a66-bdcc-cc0e7d8d04c9","ios":"levelo://app?vid=842b3250-4d8c-4a66-bdcc-cc0e7d8d04c9"},"vehicle_type_id":"4","last_reported":1749481862,"current_range_meters":11200,"station_id":"st_cvj6r9ubvosntc0bgbag","pricing_plan_id":"cebpf4jnsgd1na2vs0mg"},{"bike_id":"8f8a4ccb-171b-4dbb-8ae4-31e8a264532f","system_id":"levelo_inurba_marseille","lat":43.28417,"lon":5.34998,"is_reserved":false,"is_disabled":false,"rental_uris":{"android":"levelo://app?vid=8f8a4ccb-171b-4dbb-8ae4-31e8a264532f","ios":"levelo://app?vid=8f8a4ccb-171b-4dbb-8ae4-31e8a264532f"},"vehicle_type_id":"4","last_reported":1749481862,"current_range_meters":11200,"station_id":"ce4bhbh2rcd13ifvqepg","pricing_plan_id":"cebpf4jnsgd1na2vs0mg"},{"bike_id":"2c441bbf-d288-4d72-9ee1-76e95c230117","system_id":"levelo_inurba_marseille","lat":43.27598,"lon":5.36129,"is_reserved":false,"is_disabled":false,"rental_uris":{"android":"levelo://app?vid=2c441bbf-d288-4d72-9ee1-76e95c230117","ios":"levelo://app?vid=2c441bbf-d288-4d72-9ee1-76e95c230117"},"vehicle_type_id":"4","last_reported":1749481862,"current_range_meters":11200,"station_id":"ce4bgj92rcd13ifvqbe0","pricing_plan_id":"cebpf4jnsgd1na2vs0mg"},{"bike_id":"036ddd9b-7336-46f1-86ce-c5ff4d74ea35","system_id":"levelo_inurba_marseille","lat":43.27618,"lon":5.36109,"is_reserved":false,"is_disabled":false,"rental_uris":{"android":"levelo://app?vid=036ddd9b-7336-46f1-86ce-c5ff4d74ea35","ios":"levelo://app?vid=036ddd9b-7336-46f1-86ce-c5ff4d74ea35"},"vehicle_type_id":"4","last_reported":1749481862,"current_range_meters":11200,"station_id":"ce4bgj92rcd13ifvqbe0","pricing_plan_id":"cebpf4jnsgd1na2vs0mg"},{"bike_id":"da14da1f-7442-42b5-98f6-365f4fbd4c56","system_id":"levelo_inurba_marseille","lat":43.31859,"lon":5.38718,"is_reserved":false,"is_disabled":false,"rental_uris":{"android":"levelo://app?vid=da14da1f-7442-42b5-98f6-365f4fbd4c56","ios":"levelo://app?vid=da14da1f-7442-42b5-98f6-365f4fbd4c56"},"vehicle_type_id":"4","last_reported":1749481862,"current_range_meters":11200,"station_id":"","pricing_plan_id":"cebpf4jnsgd1na2vs0mg"},{"bike_id":"62bea32f-b147-4070-b162-523f879a2a9c","system_id":"levelo_inurba_marseille","lat":43.25317,"lon":5.39372,"is_reserved":false,"is_disabled":false,"rental_uris":{"android":"levelo://app?vid=62bea32f-b147-4070-b162-523f879a2a9c","ios":"levelo://app?vid=62bea32f-b147-4070-b162-523f879a2a9c"},"vehicle_type_id":"4","last_reported":1749481862,"current_range_meters":11200,"station_id":"","pricing_plan_id":"cebpf4jnsgd1na2vs0mg"},{"bike_id":"4b48594e-0db4-4c10-bc6d-2c152c7ab41d","system_id":"levelo_inurba_marseille","lat":43.2841,"lon":5.34992,"is_reserved":false,"is_disabled":false,"rental_uris":{"android":"levelo://app?vid=4b48594e-0db4-4c10-bc6d-2c152c7ab41d","ios":"levelo://app?vid=4b48594e-0db4-4c10-bc6d-2c152c7ab41d"},"vehicle_type_id":"4","last_reported":1749481862,"current_range_meters":11600,"station_id":"ce4bhbh2rcd13ifvqepg","pricing_plan_id":"cebpf4jnsgd1na2vs0mg"},{"bike_id":"2cdfcb5f-67bc-44c9-ae75-2e63d77f3f09","system_id":"levelo_inurba_marseille","lat":43.27373,"lon":5.36264,"is_reserved":false,"is_disabled":false,"rental_uris":{"android":"levelo://app?vid=2cdfcb5f-67bc-44c9-ae75-2e63d77f3f09","ios":"levelo://app?vid=2cdfcb5f-67bc-44c9-ae75-2e63d77f3f09"},"vehicle_type_id":"4","last_reported":1749481862,"current_range_meters":11600,"station_id":"ce4bhbh2rcd13ifvqeo0","pricing_plan_id":"cebpf4jnsgd1na2vs0mg"},{"bike_id":"ec6f23f1-4435-4f03-b947-be2326a2502a","system_id":"levelo_inurba_marseille","lat":43.27643,"lon":5.36166,"is_reserved":false,"is_disabled":false,"rental_uris":{"android":"levelo://app?vid=ec6f23f1-4435-4f03-b947-be2326a2502a","ios":"levelo://app?vid=ec6f23f1-4435-4f03-b947-be2326a2502a"},"vehicle_type_id":"4","last_reported":1749481862,"current_range_meters":11600,"station_id":"","pricing_plan_id":"cebpf4jnsgd1na2vs0mg"},{"bike_id":"6ddb5fa7-4997-4324-ab7f-5f095f4365f3","system_id":"levelo_inurba_marseille","lat":43.26827,"lon":5.42769,"is_reserved":false,"is_disabled":false,"rental_uris":{"android":"levelo://app?vid=6ddb5fa7-4997-4324-ab7f-5f095f4365f3","ios":"levelo://app?vid=6ddb5fa7-4997-4324-ab7f-5f095f4365f3"},"vehicle_type_id":"4","last_reported":1749481862,"current_range_meters":11600,"station_id":"","pricing_plan_id":"cebpf4jnsgd1na2vs0mg"},{"bike_id":"0eb5f53c-4b34-4f74-8dfb-bd46ec707bb8","system_id":"levelo_inurba_marseille","lat":43.2738,"lon":5.36258,"is_reserved":false,"is_disabled":false,"rental_uris":{"android":"levelo://app?vid=0eb5f53c-4b34-4f74-8dfb-bd46ec707bb8","ios":"levelo://app?vid=0eb5f53c-4b34-4f74-8dfb-bd46ec707bb8"},"vehicle_type_id":"4","last_reported":1749481862,"current_range_meters":11600,"station_id":"ce4bhbh2rcd13ifvqeo0","pricing_plan_id":"cebpf4jnsgd1na2vs0mg"},{"bike_id":"d7f228d3-40c9-494e-aaba-c8ab739652fc","system_id":"levelo_inurba_marseille","lat":43.28616,"lon":5.35109,"is_reserved":false,"is_disabled":false,"rental_uris":{"android":"levelo://app?vid=d7f228d3-40c9-494e-aaba-c8ab739652fc","ios":"levelo://app?vid=d7f228d3-40c9-494e-aaba-c8ab739652fc"},"vehicle_type_id":"4","last_reported":1749481862,"current_range_meters":11600,"station_id":"","pricing_plan_id":"cebpf4jnsgd1na2vs0mg"},{"bike_id":"e878e97f-e8f0-477f-b34d-2831dff92604","system_id":"levelo_inurba_marseille","lat":43.25496,"lon":5.37655,"is_reserved":false,"is_disabled":false,"rental_uris":{"android":"levelo://app?vid=e878e97f-e8f0-477f-b34d-2831dff92604","ios":"levelo://app?vid=e878e97f-e8f0-477f-b34d-2831dff92604"},"vehicle_type_id":"4","last_reported":1749481862,"current_range_meters":11600,"station_id":"ce4bhh12rcd13ifvqff0","pricing_plan_id":"cebpf4jnsgd1na2vs0mg"},{"bike_id":"c09b1c1e-6d5b-4a72-8f97-eccd430a9e54","system_id":"levelo_inurba_marseille","lat":43.26677,"lon":5.38264,"is_reserved":false,"is_disabled":false,"rental_uris":{"android":"levelo://app?vid=c09b1c1e-6d5b-4a72-8f97-eccd430a9e54","ios":"levelo://app?vid=c09b1c1e-6d5b-4a72-8f97-eccd430a9e54"},"vehicle_type_id":"4","last_reported":1749481862,"current_range_meters":11600,"station_id":"ce4bhgp2rcd13ifvqfc0","pricing_plan_id":"cebpf4jnsgd1na2vs0mg"},{"bike_id":"7e15a9f9-ad17-48b2-88bf-d97d670a8979","system_id":"levelo_inurba_marseille","lat":43.24069,"lon":5.37759,"is_reserved":false,"is_disabled":false,"rental_uris":{"android":"levelo://app?vid=7e15a9f9-ad17-48b2-88bf-d97d670a8979","ios":"levelo://app?vid=7e15a9f9-ad17-48b2-88bf-d97d670a8979"},"vehicle_type_id":"4","last_reported":1749481862,"current_range_meters":12000,"station_id":"ce4bhnp2rcd13ifvqgvg","pricing_plan_id":"cebpf4jnsgd1na2vs0mg"},{"bike_id":"898adc08-6852-494f-92e0-a15241901b70","system_id":"levelo_inurba_marseille","lat":43.26197,"lon":5.3755,"is_reserved":false,"is_disabled":false,"rental_uris":{"android":"levelo://app?vid=898adc08-6852-494f-92e0-a15241901b70","ios":"levelo://app?vid=898adc08-6852-494f-92e0-a15241901b70"},"vehicle_type_id":"4","last_reported":1749481862,"current_range_meters":12000,"station_id":"","pricing_plan_id":"cebpf4jnsgd1na2vs0mg"},{"bike_id":"fbb9b34c-7031-4d75-9691-342c610b2101","system_id":"levelo_inurba_marseille","lat":43.28393,"lon":5.36455,"is_reserved":false,"is_disabled":false,"rental_uris":{"android":"levelo://app?vid=fbb9b34c-7031-4d75-9691-342c610b2101","ios":"levelo://app?vid=fbb9b34c-7031-4d75-9691-342c610b2101"},"vehicle_type_id":"4","last_reported":1749481862,"current_range_meters":12000,"station_id":"","pricing_plan_id":"cebpf4jnsgd1na2vs0mg"},{"bike_id":"a8650cfe-a31a-4ec8-a221-8f99bc0f054c","system_id":"levelo_inurba_marseille","lat":43.21212,"lon":5.35076,"is_reserved":false,"is_disabled":false,"rental_uris":{"android":"levelo://app?vid=a8650cfe-a31a-4ec8-a221-8f99bc0f054c","ios":"levelo://app?vid=a8650cfe-a31a-4ec8-a221-8f99bc0f054c"},"vehicle_type_id":"4","last_reported":1749481862,"current_range_meters":12000,"station_id":"st_cvj6sg6p6f1abm77japg","pricing_plan_id":"cebpf4jnsgd1na2vs0mg"},{"bike_id":"c8c4af1d-070c-484a-a3f7-babd17d99646","system_id":"levelo_inurba_marseille","lat":43.3372,"lon":5.39196,"is_reserved":false,"is_disabled":false,"rental_uris":{"android":"levelo://app?vid=c8c4af1d-070c-484a-a3f7-babd17d99646","ios":"levelo://app?vid=c8c4af1d-070c-484a-a3f7-babd17d99646"},"vehicle_type_id":"4","last_reported":1749481862,"current_range_meters":12000,"station_id":"ce4bhr92rcd13ifvqhsg","pricing_plan_id":"cebpf4jnsgd1na2vs0mg"},{"bike_id":"4cacb408-f051-4e32-ba40-16604d300ec9","system_id":"levelo_inurba_marseille","lat":43.2843,"lon":5.35027,"is_reserved":false,"is_disabled":false,"rental_uris":{"android":"levelo://app?vid=4cacb408-f051-4e32-ba40-16604d300ec9","ios":"levelo://app?vid=4cacb408-f051-4e32-ba40-16604d300ec9"},"vehicle_type_id":"4","last_reported":1749481862,"current_range_meters":12000,"station_id":"ce4bhbh2rcd13ifvqepg","pricing_plan_id":"cebpf4jnsgd1na2vs0mg"},{"bike_id":"aa1bdd37-123a-417e-b194-c17fd42be0da","system_id":"levelo_inurba_marseille","lat":43.21199,"lon":5.35055,"is_reserved":false,"is_disabled":false,"rental_uris":{"android":"levelo://app?vid=aa1bdd37-123a-417e-b194-c17fd42be0da","ios":"levelo://app?vid=aa1bdd37-123a-417e-b194-c17fd42be0da"},"vehicle_type_id":"4","last_reported":1749481862,"current_range_meters":12000,"station_id":"st_cvj6sg6p6f1abm77japg","pricing_plan_id":"cebpf4jnsgd1na2vs0mg"},{"bike_id":"e9ecf9cc-ee26-4815-b045-8e2c12158f46","system_id":"levelo_inurba_marseille","lat":43.29271,"lon":5.38438,"is_reserved":false,"is_disabled":false,"rental_uris":{"android":"levelo://app?vid=e9ecf9cc-ee26-4815-b045-8e2c12158f46","ios":"levelo://app?vid=e9ecf9cc-ee26-4815-b045-8e2c12158f46"},"vehicle_type_id":"4","last_reported":1749481862,"current_range_meters":12000,"station_id":"ce4bh692rcd13ifvqea0","pricing_plan_id":"cebpf4jnsgd1na2vs0mg"},{"bike_id":"1e38c04e-827b-478a-8d37-bb098e0017bd","system_id":"levelo_inurba_marseille","lat":43.28265,"lon":5.35075,"is_reserved":false,"is_disabled":false,"rental_uris":{"android":"levelo://app?vid=1e38c04e-827b-478a-8d37-bb098e0017bd","ios":"levelo://app?vid=1e38c04e-827b-478a-8d37-bb098e0017bd"},"vehicle_type_id":"4","last_reported":1749481862,"current_range_meters":12000,"station_id":"ce4bhbp2rcd13ifvqerg","pricing_plan_id":"cebpf4jnsgd1na2vs0mg"},{"bike_id":"c1e95a5c-defd-4da0-887f-ead53a9317cf","system_id":"levelo_inurba_marseille","lat":43.23962,"lon":5.36635,"is_reserved":false,"is_disabled":false,"rental_uris":{"android":"levelo://app?vid=c1e95a5c-defd-4da0-887f-ead53a9317cf","ios":"levelo://app?vid=c1e95a5c-defd-4da0-887f-ead53a9317cf"},"vehicle_type_id":"4","last_reported":1749481862,"current_range_meters":12000,"station_id":"ce4bhi12rcd13ifvqfp0","pricing_plan_id":"cebpf4jnsgd1na2vs0mg"},{"bike_id":"6ee7386e-c9f8-4c04-af36-4580cffb8b44","system_id":"levelo_inurba_marseille","lat":43.2681,"lon":5.40267,"is_reserved":false,"is_disabled":false,"rental_uris":{"android":"levelo://app?vid=6ee7386e-c9f8-4c04-af36-4580cffb8b44","ios":"levelo://app?vid=6ee7386e-c9f8-4c04-af36-4580cffb8b44"},"vehicle_type_id":"4","last_reported":1749481862,"current_range_meters":12400,"station_id":"ce501612rcd8frsf0b60","pricing_plan_id":"cebpf4jnsgd1na2vs0mg"},{"bike_id":"d0b72d65-79b0-4986-805e-066fa2089486","system_id":"levelo_inurba_marseille","lat":43.23191,"lon":5.35544,"is_reserved":false,"is_disabled":false,"rental_uris":{"android":"levelo://app?vid=d0b72d65-79b0-4986-805e-066fa2089486","ios":"levelo://app?vid=d0b72d65-79b0-4986-805e-066fa2089486"},"vehicle_type_id":"4","last_reported":1749481862,"current_range_meters":12400,"station_id":"ce4bhu92rcd13ifvqi70","pricing_plan_id":"cebpf4jnsgd1na2vs0mg"},{"bike_id":"2f32b755-3ca4-4102-8e33-37fff5e1ff8d","system_id":"levelo_inurba_marseille","lat":43.27137,"lon":5.40136,"is_reserved":false,"is_disabled":false,"rental_uris":{"android":"levelo://app?vid=2f32b755-3ca4-4102-8e33-37fff5e1ff8d","ios":"levelo://app?vid=2f32b755-3ca4-4102-8e33-37fff5e1ff8d"},"vehicle_type_id":"4","last_reported":1749481862,"current_range_meters":12400,"station_id":"","pricing_plan_id":"cebpf4jnsgd1na2vs0mg"},{"bike_id":"5aee6e98-5d72-4a58-8068-559ee9f9703d","system_id":"levelo_inurba_marseille","lat":43.21197,"lon":5.35069,"is_reserved":false,"is_disabled":false,"rental_uris":{"android":"levelo://app?vid=5aee6e98-5d72-4a58-8068-559ee9f9703d","ios":"levelo://app?vid=5aee6e98-5d72-4a58-8068-559ee9f9703d"},"vehicle_type_id":"4","last_reported":1749481862,"current_range_meters":12400,"station_id":"st_cvj6sg6p6f1abm77japg","pricing_plan_id":"cebpf4jnsgd1na2vs0mg"},{"bike_id":"c6332fae-c51a-46bd-a0f9-6c7d27066239","system_id":"levelo_inurba_marseille","lat":43.32659,"lon":5.40993,"is_reserved":false,"is_disabled":false,"rental_uris":{"android":"levelo://app?vid=c6332fae-c51a-46bd-a0f9-6c7d27066239","ios":"levelo://app?vid=c6332fae-c51a-46bd-a0f9-6c7d27066239"},"vehicle_type_id":"4","last_reported":1749481862,"current_range_meters":12800,"station_id":"ce4bhpp2rcd13ifvqhgg","pricing_plan_id":"cebpf4jnsgd1na2vs0mg"},{"bike_id":"5f2fea90-0683-4be5-a6ec-2516c355d622","system_id":"levelo_inurba_marseille","lat":43.24165,"lon":5.36403,"is_reserved":false,"is_disabled":false,"rental_uris":{"android":"levelo://app?vid=5f2fea90-0683-4be5-a6ec-2516c355d622","ios":"levelo://app?vid=5f2fea90-0683-4be5-a6ec-2516c355d622"},"vehicle_type_id":"4","last_reported":1749481862,"current_range_meters":12800,"station_id":"cpo36qri1sfpv3e86is0","pricing_plan_id":"cebpf4jnsgd1na2vs0mg"},{"bike_id":"46c45b18-1394-472b-9717-9272a4c994da","system_id":"levelo_inurba_marseille","lat":43.28275,"lon":5.35068,"is_reserved":false,"is_disabled":false,"rental_uris":{"android":"levelo://app?vid=46c45b18-1394-472b-9717-9272a4c994da","ios":"levelo://app?vid=46c45b18-1394-472b-9717-9272a4c994da"},"vehicle_type_id":"4","last_reported":1749481862,"current_range_meters":12800,"station_id":"ce4bhbp2rcd13ifvqerg","pricing_plan_id":"cebpf4jnsgd1na2vs0mg"},{"bike_id":"80a0df42-20d9-4736-8e76-7218c0997a1e","system_id":"levelo_inurba_marseille","lat":43.28408,"lon":5.35007,"is_reserved":false,"is_disabled":false,"rental_uris":{"android":"levelo://app?vid=80a0df42-20d9-4736-8e76-7218c0997a1e","ios":"levelo://app?vid=80a0df42-20d9-4736-8e76-7218c0997a1e"},"vehicle_type_id":"4","last_reported":1749481862,"current_range_meters":12800,"station_id":"ce4bhbh2rcd13ifvqepg","pricing_plan_id":"cebpf4jnsgd1na2vs0mg"},{"bike_id":"df783b2a-7310-452c-a029-82f342fd7d7d","system_id":"levelo_inurba_marseille","lat":43.284287,"lon":5.349937,"is_reserved":false,"is_disabled":false,"rental_uris":{"android":"levelo://app?vid=df783b2a-7310-452c-a029-82f342fd7d7d","ios":"levelo://app?vid=df783b2a-7310-452c-a029-82f342fd7d7d"},"vehicle_type_id":"4","last_reported":1749481862,"current_range_meters":12800,"station_id":"ce4bhbh2rcd13ifvqepg","pricing_plan_id":"cebpf4jnsgd1na2vs0mg"},{"bike_id":"47d4b7a4-532c-4a61-a79c-aed63cb566e6","system_id":"levelo_inurba_marseille","lat":43.28261,"lon":5.35088,"is_reserved":false,"is_disabled":false,"rental_uris":{"android":"levelo://app?vid=47d4b7a4-532c-4a61-a79c-aed63cb566e6","ios":"levelo://app?vid=47d4b7a4-532c-4a61-a79c-aed63cb566e6"},"vehicle_type_id":"4","last_reported":1749481862,"current_range_meters":13600,"station_id":"ce4bhbp2rcd13ifvqerg","pricing_plan_id":"cebpf4jnsgd1na2vs0mg"},{"bike_id":"48d4ea13-7f91-4530-b695-ed01c385b9a6","system_id":"levelo_inurba_marseille","lat":43.2827,"lon":5.35078,"is_reserved":false,"is_disabled":false,"rental_uris":{"android":"levelo://app?vid=48d4ea13-7f91-4530-b695-ed01c385b9a6","ios":"levelo://app?vid=48d4ea13-7f91-4530-b695-ed01c385b9a6"},"vehicle_type_id":"4","last_reported":1749481862,"current_range_meters":14000,"station_id":"ce4bhbp2rcd13ifvqerg","pricing_plan_id":"cebpf4jnsgd1na2vs0mg"},{"bike_id":"7702b3f7-6b2d-446a-b086-3b082076f633","system_id":"levelo_inurba_marseille","lat":43.276136,"lon":5.361059,"is_reserved":false,"is_disabled":false,"rental_uris":{"android":"levelo://app?vid=7702b3f7-6b2d-446a-b086-3b082076f633","ios":"levelo://app?vid=7702b3f7-6b2d-446a-b086-3b082076f633"},"vehicle_type_id":"4","last_reported":1749481862,"current_range_meters":14000,"station_id":"ce4bgj92rcd13ifvqbe0","pricing_plan_id":"cebpf4jnsgd1na2vs0mg"},{"bike_id":"eb57f640-ca86-4c08-9d9e-b2dd0d23c963","system_id":"levelo_inurba_marseille","lat":43.26491,"lon":5.39549,"is_reserved":false,"is_disabled":false,"rental_uris":{"android":"levelo://app?vid=eb57f640-ca86-4c08-9d9e-b2dd0d23c963","ios":"levelo://app?vid=eb57f640-ca86-4c08-9d9e-b2dd0d23c963"},"vehicle_type_id":"4","last_reported":1749481862,"current_range_meters":14000,"station_id":"ce4bhi12rcd13ifvqfq0","pricing_plan_id":"cebpf4jnsgd1na2vs0mg"},{"bike_id":"7facd0d3-e088-4a5a-a896-d77e8e818ab6","system_id":"levelo_inurba_marseille","lat":43.29222,"lon":5.3606,"is_reserved":false,"is_disabled":true,"rental_uris":{"android":"levelo://app?vid=7facd0d3-e088-4a5a-a896-d77e8e818ab6","ios":"levelo://app?vid=7facd0d3-e088-4a5a-a896-d77e8e818ab6"},"vehicle_type_id":"4","last_reported":1749481862,"current_range_meters":14000,"station_id":"ce4bhbh2rcd13ifvqeqg","pricing_plan_id":"cebpf4jnsgd1na2vs0mg"},{"bike_id":"64578cd7-b5f6-423c-bb6a-a97838c483a2","system_id":"levelo_inurba_marseille","lat":43.21784,"lon":5.34595,"is_reserved":false,"is_disabled":false,"rental_uris":{"android":"levelo://app?vid=64578cd7-b5f6-423c-bb6a-a97838c483a2","ios":"levelo://app?vid=64578cd7-b5f6-423c-bb6a-a97838c483a2"},"vehicle_type_id":"4","last_reported":1749481862,"current_range_meters":14000,"station_id":"","pricing_plan_id":"cebpf4jnsgd1na2vs0mg"},{"bike_id":"52d1b077-b6d4-4662-b739-a4e64dc2f1a9","system_id":"levelo_inurba_marseille","lat":43.28276,"lon":5.35085,"is_reserved":false,"is_disabled":false,"rental_uris":{"android":"levelo://app?vid=52d1b077-b6d4-4662-b739-a4e64dc2f1a9","ios":"levelo://app?vid=52d1b077-b6d4-4662-b739-a4e64dc2f1a9"},"vehicle_type_id":"4","last_reported":1749481862,"current_range_meters":14000,"station_id":"ce4bhbp2rcd13ifvqerg","pricing_plan_id":"cebpf4jnsgd1na2vs0mg"},{"bike_id":"2c1e0b0c-b417-4cb1-ad54-105ea9ec7167","system_id":"levelo_inurba_marseille","lat":43.306018,"lon":5.372279,"is_reserved":false,"is_disabled":false,"rental_uris":{"android":"levelo://app?vid=2c1e0b0c-b417-4cb1-ad54-105ea9ec7167","ios":"levelo://app?vid=2c1e0b0c-b417-4cb1-ad54-105ea9ec7167"},"vehicle_type_id":"4","last_reported":1749481862,"current_range_meters":14000,"station_id":"ce4bgqh2rcd13ifvqc4g","pricing_plan_id":"cebpf4jnsgd1na2vs0mg"},{"bike_id":"90c24675-e654-4da0-a995-031c2b62c370","system_id":"levelo_inurba_marseille","lat":43.28266,"lon":5.35077,"is_reserved":false,"is_disabled":false,"rental_uris":{"android":"levelo://app?vid=90c24675-e654-4da0-a995-031c2b62c370","ios":"levelo://app?vid=90c24675-e654-4da0-a995-031c2b62c370"},"vehicle_type_id":"4","last_reported":1749481862,"current_range_meters":14000,"station_id":"ce4bhbp2rcd13ifvqerg","pricing_plan_id":"cebpf4jnsgd1na2vs0mg"},{"bike_id":"0882b1bc-be87-43fc-8ee6-586807606a31","system_id":"levelo_inurba_marseille","lat":43.27374,"lon":5.36266,"is_reserved":false,"is_disabled":false,"rental_uris":{"android":"levelo://app?vid=0882b1bc-be87-43fc-8ee6-586807606a31","ios":"levelo://app?vid=0882b1bc-be87-43fc-8ee6-586807606a31"},"vehicle_type_id":"4","last_reported":1749481862,"current_range_meters":14400,"station_id":"ce4bhbh2rcd13ifvqeo0","pricing_plan_id":"cebpf4jnsgd1na2vs0mg"},{"bike_id":"7b621075-9a84-4c80-869d-3f3541637187","system_id":"levelo_inurba_marseille","lat":43.2294,"lon":5.3537,"is_reserved":false,"is_disabled":false,"rental_uris":{"android":"levelo://app?vid=7b621075-9a84-4c80-869d-3f3541637187","ios":"levelo://app?vid=7b621075-9a84-4c80-869d-3f3541637187"},"vehicle_type_id":"4","last_reported":1749481862,"current_range_meters":14400,"station_id":"cpo3532slgdg3j2ikp40","pricing_plan_id":"cebpf4jnsgd1na2vs0mg"},{"bike_id":"b1428231-f7d0-41b4-82e6-611a90031269","system_id":"levelo_inurba_marseille","lat":43.29893,"lon":5.43669,"is_reserved":false,"is_disabled":false,"rental_uris":{"android":"levelo://app?vid=b1428231-f7d0-41b4-82e6-611a90031269","ios":"levelo://app?vid=b1428231-f7d0-41b4-82e6-611a90031269"},"vehicle_type_id":"4","last_reported":1749481862,"current_range_meters":14400,"station_id":"ce4bhpp2rcd13ifvqhfg","pricing_plan_id":"cebpf4jnsgd1na2vs0mg"},{"bike_id":"9ab1d159-225c-4d32-939e-cb8c9e8242c9","system_id":"levelo_inurba_marseille","lat":43.27381,"lon":5.36237,"is_reserved":false,"is_disabled":false,"rental_uris":{"android":"levelo://app?vid=9ab1d159-225c-4d32-939e-cb8c9e8242c9","ios":"levelo://app?vid=9ab1d159-225c-4d32-939e-cb8c9e8242c9"},"vehicle_type_id":"4","last_reported":1749481862,"current_range_meters":14400,"station_id":"ce4bhbh2rcd13ifvqeo0","pricing_plan_id":"cebpf4jnsgd1na2vs0mg"},{"bike_id":"a748d92b-cd24-4466-a83d-fbcec21be800","system_id":"levelo_inurba_marseille","lat":43.27375,"lon":5.36263,"is_reserved":false,"is_disabled":false,"rental_uris":{"android":"levelo://app?vid=a748d92b-cd24-4466-a83d-fbcec21be800","ios":"levelo://app?vid=a748d92b-cd24-4466-a83d-fbcec21be800"},"vehicle_type_id":"4","last_reported":1749481862,"current_range_meters":14400,"station_id":"ce4bhbh2rcd13ifvqeo0","pricing_plan_id":"cebpf4jnsgd1na2vs0mg"},{"bike_id":"5fda9a87-2b68-4421-b415-520c832f56e9","system_id":"levelo_inurba_marseille","lat":43.21199,"lon":5.3508,"is_reserved":false,"is_disabled":false,"rental_uris":{"android":"levelo://app?vid=5fda9a87-2b68-4421-b415-520c832f56e9","ios":"levelo://app?vid=5fda9a87-2b68-4421-b415-520c832f56e9"},"vehicle_type_id":"4","last_reported":1749481862,"current_range_meters":14400,"station_id":"st_cvj6sg6p6f1abm77japg","pricing_plan_id":"cebpf4jnsgd1na2vs0mg"},{"bike_id":"9455d38b-6f8c-4442-87c1-499e849fe884","system_id":"levelo_inurba_marseille","lat":43.28432,"lon":5.35006,"is_reserved":false,"is_disabled":true,"rental_uris":{"android":"levelo://app?vid=9455d38b-6f8c-4442-87c1-499e849fe884","ios":"levelo://app?vid=9455d38b-6f8c-4442-87c1-499e849fe884"},"vehicle_type_id":"4","last_reported":1749481862,"current_range_meters":14400,"station_id":"ce4bhbh2rcd13ifvqepg","pricing_plan_id":"cebpf4jnsgd1na2vs0mg"},{"bike_id":"6fd4cd93-a409-4da9-ad4b-b6025023458d","system_id":"levelo_inurba_marseille","lat":43.290126,"lon":5.38123,"is_reserved":false,"is_disabled":false,"rental_uris":{"android":"levelo://app?vid=6fd4cd93-a409-4da9-ad4b-b6025023458d","ios":"levelo://app?vid=6fd4cd93-a409-4da9-ad4b-b6025023458d"},"vehicle_type_id":"4","last_reported":1749481862,"current_range_meters":14800,"station_id":"","pricing_plan_id":"cebpf4jnsgd1na2vs0mg"},{"bike_id":"6b566ac5-f5de-4ba0-a650-a81ea46fe09e","system_id":"levelo_inurba_marseille","lat":43.34143,"lon":5.4091,"is_reserved":false,"is_disabled":false,"rental_uris":{"android":"levelo://app?vid=6b566ac5-f5de-4ba0-a650-a81ea46fe09e","ios":"levelo://app?vid=6b566ac5-f5de-4ba0-a650-a81ea46fe09e"},"vehicle_type_id":"4","last_reported":1749481862,"current_range_meters":14800,"station_id":"ce4bhqh2rcd13ifvqhlg","pricing_plan_id":"cebpf4jnsgd1na2vs0mg"},{"bike_id":"05a01055-1e1a-46e6-aa3f-4671da58ea43","system_id":"levelo_inurba_marseille","lat":43.27381,"lon":5.36265,"is_reserved":false,"is_disabled":false,"rental_uris":{"android":"levelo://app?vid=05a01055-1e1a-46e6-aa3f-4671da58ea43","ios":"levelo://app?vid=05a01055-1e1a-46e6-aa3f-4671da58ea43"},"vehicle_type_id":"4","last_reported":1749481862,"current_range_meters":14800,"station_id":"ce4bhbh2rcd13ifvqeo0","pricing_plan_id":"cebpf4jnsgd1na2vs0mg"},{"bike_id":"138dba73-f197-46d0-988e-ddabb8a53f7e","system_id":"levelo_inurba_marseille","lat":43.25502,"lon":5.37652,"is_reserved":false,"is_disabled":false,"rental_uris":{"android":"levelo://app?vid=138dba73-f197-46d0-988e-ddabb8a53f7e","ios":"levelo://app?vid=138dba73-f197-46d0-988e-ddabb8a53f7e"},"vehicle_type_id":"4","last_reported":1749481862,"current_range_meters":14800,"station_id":"ce4bhh12rcd13ifvqff0","pricing_plan_id":"cebpf4jnsgd1na2vs0mg"},{"bike_id":"1ef53f93-b553-429a-a968-fbb5b62692b3","system_id":"levelo_inurba_marseille","lat":43.26553,"lon":5.37283,"is_reserved":false,"is_disabled":false,"rental_uris":{"android":"levelo://app?vid=1ef53f93-b553-429a-a968-fbb5b62692b3","ios":"levelo://app?vid=1ef53f93-b553-429a-a968-fbb5b62692b3"},"vehicle_type_id":"4","last_reported":1749481862,"current_range_meters":15200,"station_id":"ce4bhg12rcd13ifvqf70","pricing_plan_id":"cebpf4jnsgd1na2vs0mg"},{"bike_id":"193a9225-14f5-42ac-9b0f-e663104861d2","system_id":"levelo_inurba_marseille","lat":43.22929,"lon":5.35373,"is_reserved":false,"is_disabled":false,"rental_uris":{"android":"levelo://app?vid=193a9225-14f5-42ac-9b0f-e663104861d2","ios":"levelo://app?vid=193a9225-14f5-42ac-9b0f-e663104861d2"},"vehicle_type_id":"4","last_reported":1749481862,"current_range_meters":15200,"station_id":"cpo3532slgdg3j2ikp40","pricing_plan_id":"cebpf4jnsgd1na2vs0mg"},{"bike_id":"146bbc2c-b8ed-4017-b0d0-e3112abc464f","system_id":"levelo_inurba_marseille","lat":43.24164,"lon":5.36393,"is_reserved":false,"is_disabled":false,"rental_uris":{"android":"levelo://app?vid=146bbc2c-b8ed-4017-b0d0-e3112abc464f","ios":"levelo://app?vid=146bbc2c-b8ed-4017-b0d0-e3112abc464f"},"vehicle_type_id":"4","last_reported":1749481862,"current_range_meters":15200,"station_id":"cpo36qri1sfpv3e86is0","pricing_plan_id":"cebpf4jnsgd1na2vs0mg"},{"bike_id":"44742482-c814-4b76-ba59-605bbfd89379","system_id":"levelo_inurba_marseille","lat":43.28262,"lon":5.35077,"is_reserved":false,"is_disabled":false,"rental_uris":{"android":"levelo://app?vid=44742482-c814-4b76-ba59-605bbfd89379","ios":"levelo://app?vid=44742482-c814-4b76-ba59-605bbfd89379"},"vehicle_type_id":"4","last_reported":1749481862,"current_range_meters":15200,"station_id":"ce4bhbp2rcd13ifvqerg","pricing_plan_id":"cebpf4jnsgd1na2vs0mg"},{"bike_id":"88113087-f0bb-4133-ab2a-bbfce1f3d99a","system_id":"levelo_inurba_marseille","lat":43.317313,"lon":5.404735,"is_reserved":false,"is_disabled":true,"rental_uris":{"android":"levelo://app?vid=88113087-f0bb-4133-ab2a-bbfce1f3d99a","ios":"levelo://app?vid=88113087-f0bb-4133-ab2a-bbfce1f3d99a"},"vehicle_type_id":"4","last_reported":1749481862,"current_range_meters":15200,"station_id":"","pricing_plan_id":"cebpf4jnsgd1na2vs0mg"},{"bike_id":"8e317286-d121-41fb-88b8-5b957116b9fe","system_id":"levelo_inurba_marseille","lat":43.21195,"lon":5.35071,"is_reserved":false,"is_disabled":false,"rental_uris":{"android":"levelo://app?vid=8e317286-d121-41fb-88b8-5b957116b9fe","ios":"levelo://app?vid=8e317286-d121-41fb-88b8-5b957116b9fe"},"vehicle_type_id":"4","last_reported":1749481862,"current_range_meters":15200,"station_id":"st_cvj6sg6p6f1abm77japg","pricing_plan_id":"cebpf4jnsgd1na2vs0mg"},{"bike_id":"b51eb269-ea73-4164-b6b3-2865212ff2f6","system_id":"levelo_inurba_marseille","lat":43.28269,"lon":5.35083,"is_reserved":false,"is_disabled":false,"rental_uris":{"android":"levelo://app?vid=b51eb269-ea73-4164-b6b3-2865212ff2f6","ios":"levelo://app?vid=b51eb269-ea73-4164-b6b3-2865212ff2f6"},"vehicle_type_id":"4","last_reported":1749481862,"current_range_meters":15200,"station_id":"ce4bhbp2rcd13ifvqerg","pricing_plan_id":"cebpf4jnsgd1na2vs0mg"},{"bike_id":"0ea8c20a-fda7-4009-8343-46b36fdf21dd","system_id":"levelo_inurba_marseille","lat":43.302444,"lon":5.400433,"is_reserved":false,"is_disabled":false,"rental_uris":{"android":"levelo://app?vid=0ea8c20a-fda7-4009-8343-46b36fdf21dd","ios":"levelo://app?vid=0ea8c20a-fda7-4009-8343-46b36fdf21dd"},"vehicle_type_id":"4","last_reported":1749481862,"current_range_meters":15200,"station_id":"","pricing_plan_id":"cebpf4jnsgd1na2vs0mg"},{"bike_id":"b636db2e-a3c3-4add-a149-885d591878e8","system_id":"levelo_inurba_marseille","lat":43.28616,"lon":5.35107,"is_reserved":false,"is_disabled":false,"rental_uris":{"android":"levelo://app?vid=b636db2e-a3c3-4add-a149-885d591878e8","ios":"levelo://app?vid=b636db2e-a3c3-4add-a149-885d591878e8"},"vehicle_type_id":"4","last_reported":1749481862,"current_range_meters":15200,"station_id":"ce4bhch2rcd13ifvqeug","pricing_plan_id":"cebpf4jnsgd1na2vs0mg"},{"bike_id":"5077581b-cebb-46fc-ba69-4fa8272d4810","system_id":"levelo_inurba_marseille","lat":43.21388,"lon":5.35525,"is_reserved":false,"is_disabled":false,"rental_uris":{"android":"levelo://app?vid=5077581b-cebb-46fc-ba69-4fa8272d4810","ios":"levelo://app?vid=5077581b-cebb-46fc-ba69-4fa8272d4810"},"vehicle_type_id":"4","last_reported":1749481862,"current_range_meters":16000,"station_id":"","pricing_plan_id":"cebpf4jnsgd1na2vs0mg"},{"bike_id":"35ebcff3-a5ad-4376-ac85-13bbc765ad08","system_id":"levelo_inurba_marseille","lat":43.28268,"lon":5.35059,"is_reserved":false,"is_disabled":false,"rental_uris":{"android":"levelo://app?vid=35ebcff3-a5ad-4376-ac85-13bbc765ad08","ios":"levelo://app?vid=35ebcff3-a5ad-4376-ac85-13bbc765ad08"},"vehicle_type_id":"4","last_reported":1749481862,"current_range_meters":16000,"station_id":"ce4bhbp2rcd13ifvqerg","pricing_plan_id":"cebpf4jnsgd1na2vs0mg"},{"bike_id":"f087024a-1100-4d51-85c7-098f33c58e77","system_id":"levelo_inurba_marseille","lat":43.22956,"lon":5.35386,"is_reserved":false,"is_disabled":false,"rental_uris":{"android":"levelo://app?vid=f087024a-1100-4d51-85c7-098f33c58e77","ios":"levelo://app?vid=f087024a-1100-4d51-85c7-098f33c58e77"},"vehicle_type_id":"4","last_reported":1749481862,"current_range_meters":16000,"station_id":"cpo3532slgdg3j2ikp40","pricing_plan_id":"cebpf4jnsgd1na2vs0mg"},{"bike_id":"e5e2ee53-1226-462a-82b9-a66f590d38b2","system_id":"levelo_inurba_marseille","lat":43.26193,"lon":5.3746,"is_reserved":false,"is_disabled":false,"rental_uris":{"android":"levelo://app?vid=e5e2ee53-1226-462a-82b9-a66f590d38b2","ios":"levelo://app?vid=e5e2ee53-1226-462a-82b9-a66f590d38b2"},"vehicle_type_id":"4","last_reported":1749481862,"current_range_meters":16000,"station_id":"ce4bhgp2rcd13ifvqfc0","pricing_plan_id":"cebpf4jnsgd1na2vs0mg"},{"bike_id":"9080ee0e-9056-4b76-9d4e-2d2b1f468981","system_id":"levelo_inurba_marseille","lat":43.28275,"lon":5.35082,"is_reserved":false,"is_disabled":false,"rental_uris":{"android":"levelo://app?vid=9080ee0e-9056-4b76-9d4e-2d2b1f468981","ios":"levelo://app?vid=9080ee0e-9056-4b76-9d4e-2d2b1f468981"},"vehicle_type_id":"4","last_reported":1749481862,"current_range_meters":16000,"station_id":"ce4bhbp2rcd13ifvqerg","pricing_plan_id":"cebpf4jnsgd1na2vs0mg"},{"bike_id":"254e0f58-ed50-4479-8064-5b6e98c79f5b","system_id":"levelo_inurba_marseille","lat":43.23192,"lon":5.35557,"is_reserved":false,"is_disabled":false,"rental_uris":{"android":"levelo://app?vid=254e0f58-ed50-4479-8064-5b6e98c79f5b","ios":"levelo://app?vid=254e0f58-ed50-4479-8064-5b6e98c79f5b"},"vehicle_type_id":"4","last_reported":1749481862,"current_range_meters":16000,"station_id":"ce4bhu92rcd13ifvqi70","pricing_plan_id":"cebpf4jnsgd1na2vs0mg"},{"bike_id":"10e909d1-c6b1-4b90-8920-fe52260a9ede","system_id":"levelo_inurba_marseille","lat":43.2862,"lon":5.35091,"is_reserved":false,"is_disabled":false,"rental_uris":{"android":"levelo://app?vid=10e909d1-c6b1-4b90-8920-fe52260a9ede","ios":"levelo://app?vid=10e909d1-c6b1-4b90-8920-fe52260a9ede"},"vehicle_type_id":"4","last_reported":1749481862,"current_range_meters":16000,"station_id":"ce4bhch2rcd13ifvqeug","pricing_plan_id":"cebpf4jnsgd1na2vs0mg"},{"bike_id":"0053f0bd-3481-4f8f-a19e-7dd7a6624507","system_id":"levelo_inurba_marseille","lat":43.29914,"lon":5.43682,"is_reserved":false,"is_disabled":false,"rental_uris":{"android":"levelo://app?vid=0053f0bd-3481-4f8f-a19e-7dd7a6624507","ios":"levelo://app?vid=0053f0bd-3481-4f8f-a19e-7dd7a6624507"},"vehicle_type_id":"4","last_reported":1749481862,"current_range_meters":16000,"station_id":"","pricing_plan_id":"cebpf4jnsgd1na2vs0mg"},{"bike_id":"5a909280-6420-4ff7-ada3-2f9a4d447735","system_id":"levelo_inurba_marseille","lat":43.28266,"lon":5.35071,"is_reserved":false,"is_disabled":false,"rental_uris":{"android":"levelo://app?vid=5a909280-6420-4ff7-ada3-2f9a4d447735","ios":"levelo://app?vid=5a909280-6420-4ff7-ada3-2f9a4d447735"},"vehicle_type_id":"4","last_reported":1749481862,"current_range_meters":16000,"station_id":"ce4bhbp2rcd13ifvqerg","pricing_plan_id":"cebpf4jnsgd1na2vs0mg"},{"bike_id":"1e3c0132-c838-4f06-a6c3-46c3cb6ca49e","system_id":"levelo_inurba_marseille","lat":43.27365,"lon":5.36278,"is_reserved":false,"is_disabled":false,"rental_uris":{"android":"levelo://app?vid=1e3c0132-c838-4f06-a6c3-46c3cb6ca49e","ios":"levelo://app?vid=1e3c0132-c838-4f06-a6c3-46c3cb6ca49e"},"vehicle_type_id":"4","last_reported":1749481862,"current_range_meters":16000,"station_id":"ce4bhbh2rcd13ifvqeo0","pricing_plan_id":"cebpf4jnsgd1na2vs0mg"},{"bike_id":"e83c1c2a-1fcf-46e1-adbb-09f634aa3f06","system_id":"levelo_inurba_marseille","lat":43.29006,"lon":5.35627,"is_reserved":false,"is_disabled":true,"rental_uris":{"android":"levelo://app?vid=e83c1c2a-1fcf-46e1-adbb-09f634aa3f06","ios":"levelo://app?vid=e83c1c2a-1fcf-46e1-adbb-09f634aa3f06"},"vehicle_type_id":"4","last_reported":1749481862,"current_range_meters":16000,"station_id":"ce4bhb92rcd13ifvqen0","pricing_plan_id":"cebpf4jnsgd1na2vs0mg"},{"bike_id":"de8e06e5-3b35-4f47-b97a-15327cfa528b","system_id":"levelo_inurba_marseille","lat":43.28419,"lon":5.34993,"is_reserved":false,"is_disabled":false,"rental_uris":{"android":"levelo://app?vid=de8e06e5-3b35-4f47-b97a-15327cfa528b","ios":"levelo://app?vid=de8e06e5-3b35-4f47-b97a-15327cfa528b"},"vehicle_type_id":"4","last_reported":1749481862,"current_range_meters":16000,"station_id":"ce4bhbh2rcd13ifvqepg","pricing_plan_id":"cebpf4jnsgd1na2vs0mg"},{"bike_id":"6f5e2ae1-704e-47d7-8df4-a21571bbea82","system_id":"levelo_inurba_marseille","lat":43.32423,"lon":5.37461,"is_reserved":false,"is_disabled":false,"rental_uris":{"android":"levelo://app?vid=6f5e2ae1-704e-47d7-8df4-a21571bbea82","ios":"levelo://app?vid=6f5e2ae1-704e-47d7-8df4-a21571bbea82"},"vehicle_type_id":"4","last_reported":1749481862,"current_range_meters":16000,"station_id":"","pricing_plan_id":"cebpf4jnsgd1na2vs0mg"},{"bike_id":"a6932b32-a7b9-4a74-9653-0ce32b5546e9","system_id":"levelo_inurba_marseille","lat":43.32341,"lon":5.36797,"is_reserved":false,"is_disabled":false,"rental_uris":{"android":"levelo://app?vid=a6932b32-a7b9-4a74-9653-0ce32b5546e9","ios":"levelo://app?vid=a6932b32-a7b9-4a74-9653-0ce32b5546e9"},"vehicle_type_id":"4","last_reported":1749481862,"current_range_meters":16400,"station_id":"ce4bhsh2rcd13ifvqi2g","pricing_plan_id":"cebpf4jnsgd1na2vs0mg"},{"bike_id":"5534adbf-4284-4ca8-99eb-a673e78afaf9","system_id":"levelo_inurba_marseille","lat":43.24164,"lon":5.36396,"is_reserved":false,"is_disabled":false,"rental_uris":{"android":"levelo://app?vid=5534adbf-4284-4ca8-99eb-a673e78afaf9","ios":"levelo://app?vid=5534adbf-4284-4ca8-99eb-a673e78afaf9"},"vehicle_type_id":"4","last_reported":1749481862,"current_range_meters":16400,"station_id":"cpo36qri1sfpv3e86is0","pricing_plan_id":"cebpf4jnsgd1na2vs0mg"},{"bike_id":"f05dcf36-e8ac-4564-8510-5708223faab2","system_id":"levelo_inurba_marseille","lat":43.27807,"lon":5.40715,"is_reserved":false,"is_disabled":false,"rental_uris":{"android":"levelo://app?vid=f05dcf36-e8ac-4564-8510-5708223faab2","ios":"levelo://app?vid=f05dcf36-e8ac-4564-8510-5708223faab2"},"vehicle_type_id":"4","last_reported":1749481862,"current_range_meters":16000,"station_id":"ce4bhnh2rcd13ifvqgtg","pricing_plan_id":"cebpf4jnsgd1na2vs0mg"},{"bike_id":"1da9c80e-456e-4709-82e4-b1140e0dff9f","system_id":"levelo_inurba_marseille","lat":43.25584,"lon":5.38241,"is_reserved":false,"is_disabled":false,"rental_uris":{"android":"levelo://app?vid=1da9c80e-456e-4709-82e4-b1140e0dff9f","ios":"levelo://app?vid=1da9c80e-456e-4709-82e4-b1140e0dff9f"},"vehicle_type_id":"4","last_reported":1749481862,"current_range_meters":16400,"station_id":"ce4bhih2rcd13ifvqfs0","pricing_plan_id":"cebpf4jnsgd1na2vs0mg"},{"bike_id":"9d3ca6f7-da3f-4284-a37c-669c14d0fd5c","system_id":"levelo_inurba_marseille","lat":43.25879,"lon":5.39902,"is_reserved":false,"is_disabled":false,"rental_uris":{"android":"levelo://app?vid=9d3ca6f7-da3f-4284-a37c-669c14d0fd5c","ios":"levelo://app?vid=9d3ca6f7-da3f-4284-a37c-669c14d0fd5c"},"vehicle_type_id":"4","last_reported":1749481862,"current_range_meters":16400,"station_id":"ce4bhl92rcd13ifvqghg","pricing_plan_id":"cebpf4jnsgd1na2vs0mg"},{"bike_id":"a2824cfe-99fd-4677-ab2b-2ca7e09b9260","system_id":"levelo_inurba_marseille","lat":43.32358,"lon":5.36727,"is_reserved":false,"is_disabled":false,"rental_uris":{"android":"levelo://app?vid=a2824cfe-99fd-4677-ab2b-2ca7e09b9260","ios":"levelo://app?vid=a2824cfe-99fd-4677-ab2b-2ca7e09b9260"},"vehicle_type_id":"4","last_reported":1749481862,"current_range_meters":16400,"station_id":"ce4bhsh2rcd13ifvqi2g","pricing_plan_id":"cebpf4jnsgd1na2vs0mg"},{"bike_id":"f7c040ee-edb8-45a3-8ad6-06669014c343","system_id":"levelo_inurba_marseille","lat":43.2867,"lon":5.38663,"is_reserved":false,"is_disabled":false,"rental_uris":{"android":"levelo://app?vid=f7c040ee-edb8-45a3-8ad6-06669014c343","ios":"levelo://app?vid=f7c040ee-edb8-45a3-8ad6-06669014c343"},"vehicle_type_id":"4","last_reported":1749481862,"current_range_meters":16400,"station_id":"ce4bh492rcd13ifvqdug","pricing_plan_id":"cebpf4jnsgd1na2vs0mg"},{"bike_id":"f4d39fe3-afe9-4d85-87f9-457d9f9c136e","system_id":"levelo_inurba_marseille","lat":43.27615,"lon":5.36135,"is_reserved":false,"is_disabled":false,"rental_uris":{"android":"levelo://app?vid=f4d39fe3-afe9-4d85-87f9-457d9f9c136e","ios":"levelo://app?vid=f4d39fe3-afe9-4d85-87f9-457d9f9c136e"},"vehicle_type_id":"4","last_reported":1749481862,"current_range_meters":16400,"station_id":"ce4bgj92rcd13ifvqbe0","pricing_plan_id":"cebpf4jnsgd1na2vs0mg"},{"bike_id":"e1d9ab8a-de6e-4a59-815a-0c6ebde2cf3b","system_id":"levelo_inurba_marseille","lat":43.31721,"lon":5.42409,"is_reserved":false,"is_disabled":false,"rental_uris":{"android":"levelo://app?vid=e1d9ab8a-de6e-4a59-815a-0c6ebde2cf3b","ios":"levelo://app?vid=e1d9ab8a-de6e-4a59-815a-0c6ebde2cf3b"},"vehicle_type_id":"4","last_reported":1749481862,"current_range_meters":16400,"station_id":"ce4bhp92rcd13ifvqhbg","pricing_plan_id":"cebpf4jnsgd1na2vs0mg"},{"bike_id":"d7357f13-084e-404d-b899-4bd2e91888b1","system_id":"levelo_inurba_marseille","lat":43.27372,"lon":5.36261,"is_reserved":false,"is_disabled":false,"rental_uris":{"android":"levelo://app?vid=d7357f13-084e-404d-b899-4bd2e91888b1","ios":"levelo://app?vid=d7357f13-084e-404d-b899-4bd2e91888b1"},"vehicle_type_id":"4","last_reported":1749481862,"current_range_meters":16400,"station_id":"ce4bhbh2rcd13ifvqeo0","pricing_plan_id":"cebpf4jnsgd1na2vs0mg"},{"bike_id":"b8117546-41fe-4c56-82e4-26dca8059854","system_id":"levelo_inurba_marseille","lat":43.273804,"lon":5.36261,"is_reserved":false,"is_disabled":false,"rental_uris":{"android":"levelo://app?vid=b8117546-41fe-4c56-82e4-26dca8059854","ios":"levelo://app?vid=b8117546-41fe-4c56-82e4-26dca8059854"},"vehicle_type_id":"4","last_reported":1749481862,"current_range_meters":16400,"station_id":"ce4bhbh2rcd13ifvqeo0","pricing_plan_id":"cebpf4jnsgd1na2vs0mg"},{"bike_id":"faf9c3bb-fedc-4bfe-9db3-13af9b9eacce","system_id":"levelo_inurba_marseille","lat":43.279822,"lon":5.400146,"is_reserved":false,"is_disabled":false,"rental_uris":{"android":"levelo://app?vid=faf9c3bb-fedc-4bfe-9db3-13af9b9eacce","ios":"levelo://app?vid=faf9c3bb-fedc-4bfe-9db3-13af9b9eacce"},"vehicle_type_id":"4","last_reported":1749481862,"current_range_meters":16400,"station_id":"ce4bho92rcd13ifvqh4g","pricing_plan_id":"cebpf4jnsgd1na2vs0mg"},{"bike_id":"22a6b669-3e0c-480d-b786-829ac021d255","system_id":"levelo_inurba_marseille","lat":43.23194,"lon":5.35555,"is_reserved":false,"is_disabled":false,"rental_uris":{"android":"levelo://app?vid=22a6b669-3e0c-480d-b786-829ac021d255","ios":"levelo://app?vid=22a6b669-3e0c-480d-b786-829ac021d255"},"vehicle_type_id":"4","last_reported":1749481862,"current_range_meters":16400,"station_id":"ce4bhu92rcd13ifvqi70","pricing_plan_id":"cebpf4jnsgd1na2vs0mg"},{"bike_id":"402b268f-51d8-4319-85da-3f411d4d5d91","system_id":"levelo_inurba_marseille","lat":43.21185,"lon":5.35065,"is_reserved":false,"is_disabled":false,"rental_uris":{"android":"levelo://app?vid=402b268f-51d8-4319-85da-3f411d4d5d91","ios":"levelo://app?vid=402b268f-51d8-4319-85da-3f411d4d5d91"},"vehicle_type_id":"4","last_reported":1749481862,"current_range_meters":16400,"station_id":"st_cvj6sg6p6f1abm77japg","pricing_plan_id":"cebpf4jnsgd1na2vs0mg"},{"bike_id":"26372c51-88d2-45e3-9c15-627c8cea592d","system_id":"levelo_inurba_marseille","lat":43.23083,"lon":5.35514,"is_reserved":false,"is_disabled":false,"rental_uris":{"android":"levelo://app?vid=26372c51-88d2-45e3-9c15-627c8cea592d","ios":"levelo://app?vid=26372c51-88d2-45e3-9c15-627c8cea592d"},"vehicle_type_id":"4","last_reported":1749481862,"current_range_meters":16400,"station_id":"cpo3342slgdg3j2ifvpg","pricing_plan_id":"cebpf4jnsgd1na2vs0mg"},{"bike_id":"2de21299-d27c-47e9-aa84-a269068c3f28","system_id":"levelo_inurba_marseille","lat":43.23962,"lon":5.36629,"is_reserved":false,"is_disabled":false,"rental_uris":{"android":"levelo://app?vid=2de21299-d27c-47e9-aa84-a269068c3f28","ios":"levelo://app?vid=2de21299-d27c-47e9-aa84-a269068c3f28"},"vehicle_type_id":"4","last_reported":1749481862,"current_range_meters":16400,"station_id":"ce4bhi12rcd13ifvqfp0","pricing_plan_id":"cebpf4jnsgd1na2vs0mg"},{"bike_id":"2e706ecc-6a9f-4af7-be06-a7a24091f5d7","system_id":"levelo_inurba_marseille","lat":43.29188,"lon":5.35793,"is_reserved":false,"is_disabled":false,"rental_uris":{"android":"levelo://app?vid=2e706ecc-6a9f-4af7-be06-a7a24091f5d7","ios":"levelo://app?vid=2e706ecc-6a9f-4af7-be06-a7a24091f5d7"},"vehicle_type_id":"4","last_reported":1749481862,"current_range_meters":16800,"station_id":"ce4bhb12rcd13ifvqel0","pricing_plan_id":"cebpf4jnsgd1na2vs0mg"},{"bike_id":"cc632944-d941-4970-b167-ff92932a44b8","system_id":"levelo_inurba_marseille","lat":43.21749,"lon":5.34608,"is_reserved":false,"is_disabled":false,"rental_uris":{"android":"levelo://app?vid=cc632944-d941-4970-b167-ff92932a44b8","ios":"levelo://app?vid=cc632944-d941-4970-b167-ff92932a44b8"},"vehicle_type_id":"4","last_reported":1749481862,"current_range_meters":16800,"station_id":"st_cvj6r9ubvosntc0bgbag","pricing_plan_id":"cebpf4jnsgd1na2vs0mg"},{"bike_id":"ab5f1112-31f1-4884-9278-3943b0267de8","system_id":"levelo_inurba_marseille","lat":43.2739,"lon":5.36267,"is_reserved":false,"is_disabled":false,"rental_uris":{"android":"levelo://app?vid=ab5f1112-31f1-4884-9278-3943b0267de8","ios":"levelo://app?vid=ab5f1112-31f1-4884-9278-3943b0267de8"},"vehicle_type_id":"4","last_reported":1749481862,"current_range_meters":16800,"station_id":"ce4bhbh2rcd13ifvqeo0","pricing_plan_id":"cebpf4jnsgd1na2vs0mg"},{"bike_id":"10a70f2c-55b2-4b29-a176-df92e1013498","system_id":"levelo_inurba_marseille","lat":43.26218,"lon":5.37433,"is_reserved":false,"is_disabled":false,"rental_uris":{"android":"levelo://app?vid=10a70f2c-55b2-4b29-a176-df92e1013498","ios":"levelo://app?vid=10a70f2c-55b2-4b29-a176-df92e1013498"},"vehicle_type_id":"4","last_reported":1749481862,"current_range_meters":16800,"station_id":"ce4bhgp2rcd13ifvqfc0","pricing_plan_id":"cebpf4jnsgd1na2vs0mg"},{"bike_id":"22d0924c-5da1-457f-9250-e6195eccffd9","system_id":"levelo_inurba_marseille","lat":43.21748,"lon":5.34598,"is_reserved":false,"is_disabled":false,"rental_uris":{"android":"levelo://app?vid=22d0924c-5da1-457f-9250-e6195eccffd9","ios":"levelo://app?vid=22d0924c-5da1-457f-9250-e6195eccffd9"},"vehicle_type_id":"4","last_reported":1749481862,"current_range_meters":16800,"station_id":"st_cvj6r9ubvosntc0bgbag","pricing_plan_id":"cebpf4jnsgd1na2vs0mg"},{"bike_id":"1df13f07-0bfd-4623-9075-314547a8efaf","system_id":"levelo_inurba_marseille","lat":43.23055,"lon":5.35489,"is_reserved":false,"is_disabled":false,"rental_uris":{"android":"levelo://app?vid=1df13f07-0bfd-4623-9075-314547a8efaf","ios":"levelo://app?vid=1df13f07-0bfd-4623-9075-314547a8efaf"},"vehicle_type_id":"4","last_reported":1749481862,"current_range_meters":16400,"station_id":"cpo3342slgdg3j2ifvpg","pricing_plan_id":"cebpf4jnsgd1na2vs0mg"},{"bike_id":"c44b96f8-8eff-420f-97be-a52a803c0dfc","system_id":"levelo_inurba_marseille","lat":43.31707,"lon":5.37743,"is_reserved":false,"is_disabled":false,"rental_uris":{"android":"levelo://app?vid=c44b96f8-8eff-420f-97be-a52a803c0dfc","ios":"levelo://app?vid=c44b96f8-8eff-420f-97be-a52a803c0dfc"},"vehicle_type_id":"4","last_reported":1749481862,"current_range_meters":16400,"station_id":"ce4bgth2rcd13ifvqch0","pricing_plan_id":"cebpf4jnsgd1na2vs0mg"},{"bike_id":"61c97d7f-156a-4520-988a-fbde8ea3b039","system_id":"levelo_inurba_marseille","lat":43.31724,"lon":5.42413,"is_reserved":false,"is_disabled":false,"rental_uris":{"android":"levelo://app?vid=61c97d7f-156a-4520-988a-fbde8ea3b039","ios":"levelo://app?vid=61c97d7f-156a-4520-988a-fbde8ea3b039"},"vehicle_type_id":"4","last_reported":1749481862,"current_range_meters":16800,"station_id":"ce4bhp92rcd13ifvqhbg","pricing_plan_id":"cebpf4jnsgd1na2vs0mg"},{"bike_id":"740da1e1-1a42-4224-a2ea-f489fe9abbcf","system_id":"levelo_inurba_marseille","lat":43.24462,"lon":5.42538,"is_reserved":false,"is_disabled":false,"rental_uris":{"android":"levelo://app?vid=740da1e1-1a42-4224-a2ea-f489fe9abbcf","ios":"levelo://app?vid=740da1e1-1a42-4224-a2ea-f489fe9abbcf"},"vehicle_type_id":"4","last_reported":1749481862,"current_range_meters":16800,"station_id":"","pricing_plan_id":"cebpf4jnsgd1na2vs0mg"},{"bike_id":"54c0e61a-7629-47d8-85a6-0cfb394cfd5f","system_id":"levelo_inurba_marseille","lat":43.28564,"lon":5.39497,"is_reserved":false,"is_disabled":false,"rental_uris":{"android":"levelo://app?vid=54c0e61a-7629-47d8-85a6-0cfb394cfd5f","ios":"levelo://app?vid=54c0e61a-7629-47d8-85a6-0cfb394cfd5f"},"vehicle_type_id":"4","last_reported":1749481862,"current_range_meters":16800,"station_id":"ce4bh292rcd13ifvqdg0","pricing_plan_id":"cebpf4jnsgd1na2vs0mg"},{"bike_id":"eab6b162-1fae-42cb-af90-060f27764e48","system_id":"levelo_inurba_marseille","lat":43.21781,"lon":5.34583,"is_reserved":false,"is_disabled":false,"rental_uris":{"android":"levelo://app?vid=eab6b162-1fae-42cb-af90-060f27764e48","ios":"levelo://app?vid=eab6b162-1fae-42cb-af90-060f27764e48"},"vehicle_type_id":"4","last_reported":1749481862,"current_range_meters":16800,"station_id":"","pricing_plan_id":"cebpf4jnsgd1na2vs0mg"},{"bike_id":"01a4d6e0-e13e-4860-b605-15f0bef4fdd6","system_id":"levelo_inurba_marseille","lat":43.21238,"lon":5.35087,"is_reserved":false,"is_disabled":false,"rental_uris":{"android":"levelo://app?vid=01a4d6e0-e13e-4860-b605-15f0bef4fdd6","ios":"levelo://app?vid=01a4d6e0-e13e-4860-b605-15f0bef4fdd6"},"vehicle_type_id":"4","last_reported":1749481862,"current_range_meters":16800,"station_id":"","pricing_plan_id":"cebpf4jnsgd1na2vs0mg"},{"bike_id":"498fa481-e070-4263-86e4-e91fdc7a07d0","system_id":"levelo_inurba_marseille","lat":43.28425,"lon":5.34976,"is_reserved":false,"is_disabled":false,"rental_uris":{"android":"levelo://app?vid=498fa481-e070-4263-86e4-e91fdc7a07d0","ios":"levelo://app?vid=498fa481-e070-4263-86e4-e91fdc7a07d0"},"vehicle_type_id":"4","last_reported":1749481862,"current_range_meters":17200,"station_id":"ce4bhbh2rcd13ifvqepg","pricing_plan_id":"cebpf4jnsgd1na2vs0mg"},{"bike_id":"136b8fbf-14bc-4a87-a822-8077a5afc251","system_id":"levelo_inurba_marseille","lat":43.28422,"lon":5.34993,"is_reserved":false,"is_disabled":false,"rental_uris":{"android":"levelo://app?vid=136b8fbf-14bc-4a87-a822-8077a5afc251","ios":"levelo://app?vid=136b8fbf-14bc-4a87-a822-8077a5afc251"},"vehicle_type_id":"4","last_reported":1749481862,"current_range_meters":17200,"station_id":"ce4bhbh2rcd13ifvqepg","pricing_plan_id":"cebpf4jnsgd1na2vs0mg"},{"bike_id":"8c761ef8-c444-4ceb-b858-bc87d8fe27d4","system_id":"levelo_inurba_marseille","lat":43.25084,"lon":5.39523,"is_reserved":false,"is_disabled":false,"rental_uris":{"android":"levelo://app?vid=8c761ef8-c444-4ceb-b858-bc87d8fe27d4","ios":"levelo://app?vid=8c761ef8-c444-4ceb-b858-bc87d8fe27d4"},"vehicle_type_id":"4","last_reported":1749481862,"current_range_meters":17200,"station_id":"ce4bhm12rcd13ifvqgkg","pricing_plan_id":"cebpf4jnsgd1na2vs0mg"},{"bike_id":"b7651752-8eb3-4b67-91fc-0a6e006c8d1f","system_id":"levelo_inurba_marseille","lat":43.2117,"lon":5.35091,"is_reserved":false,"is_disabled":false,"rental_uris":{"android":"levelo://app?vid=b7651752-8eb3-4b67-91fc-0a6e006c8d1f","ios":"levelo://app?vid=b7651752-8eb3-4b67-91fc-0a6e006c8d1f"},"vehicle_type_id":"4","last_reported":1749481862,"current_range_meters":17200,"station_id":"st_cvj6sg6p6f1abm77japg","pricing_plan_id":"cebpf4jnsgd1na2vs0mg"},{"bike_id":"268a7ad4-6b20-487a-8019-7970475fd9aa","system_id":"levelo_inurba_marseille","lat":43.2791,"lon":5.395757,"is_reserved":false,"is_disabled":false,"rental_uris":{"android":"levelo://app?vid=268a7ad4-6b20-487a-8019-7970475fd9aa","ios":"levelo://app?vid=268a7ad4-6b20-487a-8019-7970475fd9aa"},"vehicle_type_id":"4","last_reported":1749481862,"current_range_meters":17200,"station_id":"ce4bhf92rcd13ifvqf40","pricing_plan_id":"cebpf4jnsgd1na2vs0mg"},{"bike_id":"01a575ed-1f03-4cd7-9534-24b45d98f89d","system_id":"levelo_inurba_marseille","lat":43.28436,"lon":5.35011,"is_reserved":false,"is_disabled":false,"rental_uris":{"android":"levelo://app?vid=01a575ed-1f03-4cd7-9534-24b45d98f89d","ios":"levelo://app?vid=01a575ed-1f03-4cd7-9534-24b45d98f89d"},"vehicle_type_id":"4","last_reported":1749481862,"current_range_meters":17200,"station_id":"ce4bhbh2rcd13ifvqepg","pricing_plan_id":"cebpf4jnsgd1na2vs0mg"},{"bike_id":"ca27e12a-1f2d-4cf2-be29-12a2b9ff1547","system_id":"levelo_inurba_marseille","lat":43.31725,"lon":5.42441,"is_reserved":false,"is_disabled":false,"rental_uris":{"android":"levelo://app?vid=ca27e12a-1f2d-4cf2-be29-12a2b9ff1547","ios":"levelo://app?vid=ca27e12a-1f2d-4cf2-be29-12a2b9ff1547"},"vehicle_type_id":"4","last_reported":1749481862,"current_range_meters":17200,"station_id":"ce4bhp92rcd13ifvqhbg","pricing_plan_id":"cebpf4jnsgd1na2vs0mg"},{"bike_id":"4f2cbb97-7e2f-479b-aa3a-963a72f545e6","system_id":"levelo_inurba_marseille","lat":43.21184,"lon":5.35073,"is_reserved":false,"is_disabled":false,"rental_uris":{"android":"levelo://app?vid=4f2cbb97-7e2f-479b-aa3a-963a72f545e6","ios":"levelo://app?vid=4f2cbb97-7e2f-479b-aa3a-963a72f545e6"},"vehicle_type_id":"4","last_reported":1749481862,"current_range_meters":17200,"station_id":"st_cvj6sg6p6f1abm77japg","pricing_plan_id":"cebpf4jnsgd1na2vs0mg"},{"bike_id":"95654ac6-82d1-444f-8a03-2b578213a73c","system_id":"levelo_inurba_marseille","lat":43.2931,"lon":5.37175,"is_reserved":false,"is_disabled":false,"rental_uris":{"android":"levelo://app?vid=95654ac6-82d1-444f-8a03-2b578213a73c","ios":"levelo://app?vid=95654ac6-82d1-444f-8a03-2b578213a73c"},"vehicle_type_id":"4","last_reported":1749481862,"current_range_meters":17200,"station_id":"ce4bgh92rcd13ifvqb40","pricing_plan_id":"cebpf4jnsgd1na2vs0mg"},{"bike_id":"8fad182c-eb78-40da-9d1d-586268942b1a","system_id":"levelo_inurba_marseille","lat":43.21777,"lon":5.34597,"is_reserved":false,"is_disabled":false,"rental_uris":{"android":"levelo://app?vid=8fad182c-eb78-40da-9d1d-586268942b1a","ios":"levelo://app?vid=8fad182c-eb78-40da-9d1d-586268942b1a"},"vehicle_type_id":"4","last_reported":1749481862,"current_range_meters":17600,"station_id":"st_cvj6r9ubvosntc0bgbag","pricing_plan_id":"cebpf4jnsgd1na2vs0mg"},{"bike_id":"e055dd94-9a18-4715-b0a3-48320d828816","system_id":"levelo_inurba_marseille","lat":43.2842,"lon":5.34999,"is_reserved":false,"is_disabled":false,"rental_uris":{"android":"levelo://app?vid=e055dd94-9a18-4715-b0a3-48320d828816","ios":"levelo://app?vid=e055dd94-9a18-4715-b0a3-48320d828816"},"vehicle_type_id":"4","last_reported":1749481862,"current_range_meters":17600,"station_id":"ce4bhbh2rcd13ifvqepg","pricing_plan_id":"cebpf4jnsgd1na2vs0mg"},{"bike_id":"d3b9cedc-eeef-464f-b3a7-d771cdcb3f19","system_id":"levelo_inurba_marseille","lat":43.273732,"lon":5.362608,"is_reserved":false,"is_disabled":false,"rental_uris":{"android":"levelo://app?vid=d3b9cedc-eeef-464f-b3a7-d771cdcb3f19","ios":"levelo://app?vid=d3b9cedc-eeef-464f-b3a7-d771cdcb3f19"},"vehicle_type_id":"4","last_reported":1749481862,"current_range_meters":17600,"station_id":"ce4bhbh2rcd13ifvqeo0","pricing_plan_id":"cebpf4jnsgd1na2vs0mg"},{"bike_id":"23e89bac-e2bf-4e89-8e08-1f432b7a4188","system_id":"levelo_inurba_marseille","lat":43.21185,"lon":5.35074,"is_reserved":false,"is_disabled":true,"rental_uris":{"android":"levelo://app?vid=23e89bac-e2bf-4e89-8e08-1f432b7a4188","ios":"levelo://app?vid=23e89bac-e2bf-4e89-8e08-1f432b7a4188"},"vehicle_type_id":"4","last_reported":1749481862,"current_range_meters":17600,"station_id":"","pricing_plan_id":"cebpf4jnsgd1na2vs0mg"},{"bike_id":"3c4d7a42-e24c-466c-9d1a-7a2a5b94b606","system_id":"levelo_inurba_marseille","lat":43.286166,"lon":5.351004,"is_reserved":false,"is_disabled":false,"rental_uris":{"android":"levelo://app?vid=3c4d7a42-e24c-466c-9d1a-7a2a5b94b606","ios":"levelo://app?vid=3c4d7a42-e24c-466c-9d1a-7a2a5b94b606"},"vehicle_type_id":"4","last_reported":1749481862,"current_range_meters":17600,"station_id":"ce4bhch2rcd13ifvqeug","pricing_plan_id":"cebpf4jnsgd1na2vs0mg"},{"bike_id":"2138ff97-c5bf-410d-b7b3-dbef5874d459","system_id":"levelo_inurba_marseille","lat":43.21229,"lon":5.35065,"is_reserved":false,"is_disabled":false,"rental_uris":{"android":"levelo://app?vid=2138ff97-c5bf-410d-b7b3-dbef5874d459","ios":"levelo://app?vid=2138ff97-c5bf-410d-b7b3-dbef5874d459"},"vehicle_type_id":"4","last_reported":1749481862,"current_range_meters":17600,"station_id":"","pricing_plan_id":"cebpf4jnsgd1na2vs0mg"},{"bike_id":"b4e4e14c-70a2-4b6f-86e8-a37ac2f389d3","system_id":"levelo_inurba_marseille","lat":43.27828,"lon":5.407253,"is_reserved":false,"is_disabled":false,"rental_uris":{"android":"levelo://app?vid=b4e4e14c-70a2-4b6f-86e8-a37ac2f389d3","ios":"levelo://app?vid=b4e4e14c-70a2-4b6f-86e8-a37ac2f389d3"},"vehicle_type_id":"4","last_reported":1749481862,"current_range_meters":17600,"station_id":"ce4bhnh2rcd13ifvqgtg","pricing_plan_id":"cebpf4jnsgd1na2vs0mg"},{"bike_id":"e925ed2b-babc-4cf9-b75b-bac898fd5635","system_id":"levelo_inurba_marseille","lat":43.211931,"lon":5.350658,"is_reserved":false,"is_disabled":false,"rental_uris":{"android":"levelo://app?vid=e925ed2b-babc-4cf9-b75b-bac898fd5635","ios":"levelo://app?vid=e925ed2b-babc-4cf9-b75b-bac898fd5635"},"vehicle_type_id":"4","last_reported":1749481862,"current_range_meters":17600,"station_id":"st_cvj6sg6p6f1abm77japg","pricing_plan_id":"cebpf4jnsgd1na2vs0mg"},