{"last_updated":1762877578,"ttl":60,"version":"2.2","data":{"bikes":[{"bike_id":"d7db12ce-11cc-4c98-8751-ac59baa5d7aa","system_id":"levelo_inurba_marseille","lat":43.337444,"lon":5.374475,"is_reserved":false,"is_disabled":false,"rental_uris":{"android":"levelo://app?vid=d7db12ce-11cc-4c98-8751-ac59baa5d7aa","ios":"levelo://app?vid=d7db12ce-11cc-4c98-8751-ac59baa5d7aa"},"vehicle_type_id":"4","last_reported":1762877578,"current_range_meters":0,"station_id":"","pricing_plan_id":"cebpf4jnsgd1na2vs0mg"},{"bike_id":"74d7aa77-0588-4728-8197-83e7108efc66","system_id":"levelo_inurba_marseille","lat":43.326695,"lon":5.409883,"is_reserved":false,"is_disabled":false,"rental_uris":{"android":"levelo://app?vid=74d7aa77-0588-4728-8197-83e7108efc66","ios":"levelo://app?vid=74d7aa77-0588-4728-8197-83e7108efc66"},"vehicle_type_id":"4","last_reported":1762877578,"current_range_meters":2800,"station_id":"ce4bhpp2rcd13ifvqhgg","pricing_plan_id":"cebpf4jnsgd1na2vs0mg"},{"bike_id":"d2f21a89-e3a2-48a1-85b6-976db8a046c3","system_id":"levelo_inurba_marseille","lat":43.25502,"lon":5.37653,"is_reserved":false,"is_disabled":false,"rental_uris":{"android":"levelo://app?vid=d2f21a89-e3a2-48a1-85b6-976db8a046c3","ios":"levelo://app?vid=d2f21a89-e3a2-48a1-85b6-976db8a046c3"},"vehicle_type_id":"4","last_reported":1762877578,"current_range_meters":2800,"station_id":"ce4bhh12rcd13ifvqff0","pricing_plan_id":"cebpf4jnsgd1na2vs0mg"},{"bike_id":"0ccf669e-63e1-40dd-a3b5-d42d514b24d6","system_id":"levelo_inurba_marseille","lat":43.30537,"lon":5.36705,"is_reserved":false,"is_disabled":false,"rental_uris":{"android":"levelo://app?vid=0ccf669e-63e1-40dd-a3b5-d42d514b24d6","ios":"levelo://app?vid=0ccf669e-63e1-40dd-a3b5-d42d514b24d6"},"vehicle_type_id":"4","last_reported":1762877578,"current_range_meters":2800,"station_id":"ce4bgrp2rcd13ifvqc9g","pricing_plan_id":"cebpf4jnsgd1na2vs0mg"},{"bike_id":"48c1e81c-ce4c-4094-a00f-3aede497a698","system_id":"levelo_inurba_marseille","lat":43.30599,"lon":5.37233,"is_reserved":false,"is_disabled":false,"rental_uris":{"android":"levelo://app?vid=48c1e81c-ce4c-4094-a00f-3aede497a698","ios":"levelo://app?vid=48c1e81c-ce4c-4094-a00f-3aede497a698"},"vehicle_type_id":"4","last_reported":1762877578,"current_range_meters":2800,"station_id":"ce4bgqh2rcd13ifvqc4g","pricing_plan_id":"cebpf4jnsgd1na2vs0mg"},{"bike_id":"67034f7e-148c-415d-bca2-90380e95b6d3","system_id":"levelo_inurba_marseille","lat":43.27072,"lon":5.42282,"is_reserved":false,"is_disabled":false,"rental_uris":{"android":"levelo://app?vid=67034f7e-148c-415d-bca2-90380e95b6d3","ios":"levelo://app?vid=67034f7e-148c-415d-bca2-90380e95b6d3"},"vehicle_type_id":"4","last_reported":1762877578,"current_range_meters":3200,"station_id":"ce4bhk92rcd13ifvqgb0","pricing_plan_id":"cebpf4jnsgd1na2vs0mg"},{"bike_id":"a7e0e980-eff3-4a3f-b22b-b658162fe152","system_id":"levelo_inurba_marseille","lat":43.28108,"lon":5.40156,"is_reserved":false,"is_disabled":false,"rental_uris":{"android":"levelo://app?vid=a7e0e980-eff3-4a3f-b22b-b658162fe152","ios":"levelo://app?vid=a7e0e980-eff3-4a3f-b22b-b658162fe152"},"vehicle_type_id":"4","last_reported":1762877578,"current_range_meters":3200,"station_id":"","pricing_plan_id":"cebpf4jnsgd1na2vs0mg"},{"bike_id":"cb755174-03c1-435d-9ead-9059e7621d77","system_id":"levelo_inurba_marseille","lat":43.30732,"lon":5.42429,"is_reserved":false,"is_disabled":false,"rental_uris":{"android":"levelo://app?vid=cb755174-03c1-435d-9ead-9059e7621d77","ios":"levelo://app?vid=cb755174-03c1-435d-9ead-9059e7621d77"},"vehicle_type_id":"4","last_reported":1762877578,"current_range_meters":3200,"station_id":"st_cvj6ca6bvosntc0bfgr0","pricing_plan_id":"cebpf4jnsgd1na2vs0mg"},{"bike_id":"92fe6515-afad-4190-8124-4c8797eca3ba","system_id":"levelo_inurba_marseille","lat":43.286173,"lon":5.351053,"is_reserved":false,"is_disabled":false,"rental_uris":{"android":"levelo://app?vid=92fe6515-afad-4190-8124-4c8797eca3ba","ios":"levelo://app?vid=92fe6515-afad-4190-8124-4c8797eca3ba"},"vehicle_type_id":"4","last_reported":1762877578,"current_range_meters":3200,"station_id":"ce4bhch2rcd13ifvqeug","pricing_plan_id":"cebpf4jnsgd1na2vs0mg"},{"bike_id":"8cea92e7-4e07-4cbc-bb59-d97d4261a299","system_id":"levelo_inurba_marseille","lat":43.28265,"lon":5.35073,"is_reserved":false,"is_disabled":false,"rental_uris":{"android":"levelo://app?vid=8cea92e7-4e07-4cbc-bb59-d97d4261a299","ios":"levelo://app?vid=8cea92e7-4e07-4cbc-bb59-d97d4261a299"},"vehicle_type_id":"4","last_reported":1762877578,"current_range_meters":3200,"station_id":"ce4bhbp2rcd13ifvqerg","pricing_plan_id":"cebpf4jnsgd1na2vs0mg"},{"bike_id":"17316171-da16-4a86-9e63-83920f9a33ef","system_id":"levelo_inurba_marseille","lat":43.27949,"lon":5.41037,"is_reserved":false,"is_disabled":false,"rental_uris":{"android":"levelo://app?vid=17316171-da16-4a86-9e63-83920f9a33ef","ios":"levelo://app?vid=17316171-da16-4a86-9e63-83920f9a33ef"},"vehicle_type_id":"4","last_reported":1762877578,"current_range_meters":3200,"station_id":"ce4bhnp2rcd13ifvqh0g","pricing_plan_id":"cebpf4jnsgd1na2vs0mg"},{"bike_id":"ad1c8150-f69d-4cc2-bcbf-e328de393a66","system_id":"levelo_inurba_marseille","lat":43.339393,"lon":5.415105,"is_reserved":false,"is_disabled":false,"rental_uris":{"android":"levelo://app?vid=ad1c8150-f69d-4cc2-bcbf-e328de393a66","ios":"levelo://app?vid=ad1c8150-f69d-4cc2-bcbf-e328de393a66"},"vehicle_type_id":"4","last_reported":1762877578,"current_range_meters":3200,"station_id":"","pricing_plan_id":"cebpf4jnsgd1na2vs0mg"},{"bike_id":"4a7c4ccd-9b0e-4aac-ad13-b9c24d4d8ff0","system_id":"levelo_inurba_marseille","lat":43.290196,"lon":5.381365,"is_reserved":false,"is_disabled":false,"rental_uris":{"android":"levelo://app?vid=4a7c4ccd-9b0e-4aac-ad13-b9c24d4d8ff0","ios":"levelo://app?vid=4a7c4ccd-9b0e-4aac-ad13-b9c24d4d8ff0"},"vehicle_type_id":"4","last_reported":1762877578,"current_range_meters":3600,"station_id":"ce4bh4p2rcd13ifvqe1g","pricing_plan_id":"cebpf4jnsgd1na2vs0mg"},{"bike_id":"ba740c0e-8cbb-4e88-8e9a-261b266df0d9","system_id":"levelo_inurba_marseille","lat":43.305893,"lon":5.372393,"is_reserved":false,"is_disabled":false,"rental_uris":{"android":"levelo://app?vid=ba740c0e-8cbb-4e88-8e9a-261b266df0d9","ios":"levelo://app?vid=ba740c0e-8cbb-4e88-8e9a-261b266df0d9"},"vehicle_type_id":"4","last_reported":1762877578,"current_range_meters":3600,"station_id":"ce4bgqh2rcd13ifvqc4g","pricing_plan_id":"cebpf4jnsgd1na2vs0mg"},{"bike_id":"fb85e51e-9a4b-46c1-9d18-db741ba55be7","system_id":"levelo_inurba_marseille","lat":43.28616,"lon":5.35102,"is_reserved":false,"is_disabled":false,"rental_uris":{"android":"levelo://app?vid=fb85e51e-9a4b-46c1-9d18-db741ba55be7","ios":"levelo://app?vid=fb85e51e-9a4b-46c1-9d18-db741ba55be7"},"vehicle_type_id":"4","last_reported":1762877578,"current_range_meters":3600,"station_id":"ce4bhch2rcd13ifvqeug","pricing_plan_id":"cebpf4jnsgd1na2vs0mg"},{"bike_id":"7888e4a0-bcaa-4648-bdcc-3232db63cfe7","system_id":"levelo_inurba_marseille","lat":43.30601,"lon":5.37232,"is_reserved":false,"is_disabled":true,"rental_uris":{"android":"levelo://app?vid=7888e4a0-bcaa-4648-bdcc-3232db63cfe7","ios":"levelo://app?vid=7888e4a0-bcaa-4648-bdcc-3232db63cfe7"},"vehicle_type_id":"4","last_reported":1762877578,"current_range_meters":3600,"station_id":"ce4bgqh2rcd13ifvqc4g","pricing_plan_id":"cebpf4jnsgd1na2vs0mg"},{"bike_id":"a092189f-1dfb-41af-bce4-bbdad5f5fe28","system_id":"levelo_inurba_marseille","lat":43.27942,"lon":5.41049,"is_reserved":false,"is_disabled":false,"rental_uris":{"android":"levelo://app?vid=a092189f-1dfb-41af-bce4-bbdad5f5fe28","ios":"levelo://app?vid=a092189f-1dfb-41af-bce4-bbdad5f5fe28"},"vehicle_type_id":"4","last_reported":1762877578,"current_range_meters":3600,"station_id":"ce4bhnp2rcd13ifvqh0g","pricing_plan_id":"cebpf4jnsgd1na2vs0mg"},{"bike_id":"492165fb-300d-4e4a-932e-0d9117254b0c","system_id":"levelo_inurba_marseille","lat":43.29534,"lon":5.38547,"is_reserved":false,"is_disabled":false,"rental_uris":{"android":"levelo://app?vid=492165fb-300d-4e4a-932e-0d9117254b0c","ios":"levelo://app?vid=492165fb-300d-4e4a-932e-0d9117254b0c"},"vehicle_type_id":"4","last_reported":1762877578,"current_range_meters":3600,"station_id":"ce4bgih2rcd13ifvqba0","pricing_plan_id":"cebpf4jnsgd1na2vs0mg"},{"bike_id":"a6b48549-dbf9-4e7b-b841-40870659c887","system_id":"levelo_inurba_marseille","lat":43.24664,"lon":5.3817,"is_reserved":false,"is_disabled":false,"rental_uris":{"android":"levelo://app?vid=a6b48549-dbf9-4e7b-b841-40870659c887","ios":"levelo://app?vid=a6b48549-dbf9-4e7b-b841-40870659c887"},"vehicle_type_id":"4","last_reported":1762877578,"current_range_meters":3600,"station_id":"ce4bhih2rcd13ifvqfr0","pricing_plan_id":"cebpf4jnsgd1na2vs0mg"},{"bike_id":"2c8f7dd5-74e1-4902-9679-123471bb6b21","system_id":"levelo_inurba_marseille","lat":43.30561,"lon":5.367,"is_reserved":false,"is_disabled":true,"rental_uris":{"android":"levelo://app?vid=2c8f7dd5-74e1-4902-9679-123471bb6b21","ios":"levelo://app?vid=2c8f7dd5-74e1-4902-9679-123471bb6b21"},"vehicle_type_id":"4","last_reported":1762877578,"current_range_meters":4000,"station_id":"ce4bgrp2rcd13ifvqc9g","pricing_plan_id":"cebpf4jnsgd1na2vs0mg"},{"bike_id":"1b267de1-bcca-40ed-87d1-2e39c381830d","system_id":"levelo_inurba_marseille","lat":43.225342,"lon":5.348387,"is_reserved":false,"is_disabled":false,"rental_uris":{"android":"levelo://app?vid=1b267de1-bcca-40ed-87d1-2e39c381830d","ios":"levelo://app?vid=1b267de1-bcca-40ed-87d1-2e39c381830d"},"vehicle_type_id":"4","last_reported":1762877578,"current_range_meters":4000,"station_id":"","pricing_plan_id":"cebpf4jnsgd1na2vs0mg"},{"bike_id":"6e147b1a-b293-439e-b88d-58821c29eb6a","system_id":"levelo_inurba_marseille","lat":43.26499,"lon":5.39539,"is_reserved":false,"is_disabled":false,"rental_uris":{"android":"levelo://app?vid=6e147b1a-b293-439e-b88d-58821c29eb6a","ios":"levelo://app?vid=6e147b1a-b293-439e-b88d-58821c29eb6a"},"vehicle_type_id":"4","last_reported":1762877578,"current_range_meters":4000,"station_id":"ce4bhi12rcd13ifvqfq0","pricing_plan_id":"cebpf4jnsgd1na2vs0mg"},{"bike_id":"8b5d9dde-9f84-4875-a01b-9978a0383b10","system_id":"levelo_inurba_marseille","lat":43.26678,"lon":5.38266,"is_reserved":false,"is_disabled":false,"rental_uris":{"android":"levelo://app?vid=8b5d9dde-9f84-4875-a01b-9978a0383b10","ios":"levelo://app?vid=8b5d9dde-9f84-4875-a01b-9978a0383b10"},"vehicle_type_id":"4","last_reported":1762877578,"current_range_meters":4000,"station_id":"ce4bhg92rcd13ifvqf90","pricing_plan_id":"cebpf4jnsgd1na2vs0mg"},{"bike_id":"013f445a-83a5-46f7-8d00-cd0ec1e41ec0","system_id":"levelo_inurba_marseille","lat":43.29185,"lon":5.3581,"is_reserved":false,"is_disabled":false,"rental_uris":{"android":"levelo://app?vid=013f445a-83a5-46f7-8d00-cd0ec1e41ec0","ios":"levelo://app?vid=013f445a-83a5-46f7-8d00-cd0ec1e41ec0"},"vehicle_type_id":"4","last_reported":1762877578,"current_range_meters":4000,"station_id":"ce4bhb12rcd13ifvqel0","pricing_plan_id":"cebpf4jnsgd1na2vs0mg"},{"bike_id":"6d135522-475c-4c8a-bcde-21dba2353e8e","system_id":"levelo_inurba_marseille","lat":43.28342,"lon":5.38108,"is_reserved":false,"is_disabled":false,"rental_uris":{"android":"levelo://app?vid=6d135522-475c-4c8a-bcde-21dba2353e8e","ios":"levelo://app?vid=6d135522-475c-4c8a-bcde-21dba2353e8e"},"vehicle_type_id":"4","last_reported":1762877578,"current_range_meters":4000,"station_id":"ce4bh412rcd13ifvqdr0","pricing_plan_id":"cebpf4jnsgd1na2vs0mg"},{"bike_id":"e9be74c1-2896-4f8c-b291-bb57ae769813","system_id":"levelo_inurba_marseille","lat":43.32542,"lon":5.41431,"is_reserved":false,"is_disabled":false,"rental_uris":{"android":"levelo://app?vid=e9be74c1-2896-4f8c-b291-bb57ae769813","ios":"levelo://app?vid=e9be74c1-2896-4f8c-b291-bb57ae769813"},"vehicle_type_id":"4","last_reported":1762877578,"current_range_meters":4000,"station_id":"ce4bhq12rcd13ifvqhhg","pricing_plan_id":"cebpf4jnsgd1na2vs0mg"},{"bike_id":"f6459d3d-a080-43d0-8994-1c578d6f81d3","system_id":"levelo_inurba_marseille","lat":43.26583,"lon":5.39009,"is_reserved":false,"is_disabled":false,"rental_uris":{"android":"levelo://app?vid=f6459d3d-a080-43d0-8994-1c578d6f81d3","ios":"levelo://app?vid=f6459d3d-a080-43d0-8994-1c578d6f81d3"},"vehicle_type_id":"4","last_reported":1762877578,"current_range_meters":4000,"station_id":"ce4bhe12rcd13ifvqf30","pricing_plan_id":"cebpf4jnsgd1na2vs0mg"},{"bike_id":"d091f587-8dc6-4833-80e0-8b85bcab0e71","system_id":"levelo_inurba_marseille","lat":43.30275,"lon":5.3771,"is_reserved":false,"is_disabled":false,"rental_uris":{"android":"levelo://app?vid=d091f587-8dc6-4833-80e0-8b85bcab0e71","ios":"levelo://app?vid=d091f587-8dc6-4833-80e0-8b85bcab0e71"},"vehicle_type_id":"4","last_reported":1762877578,"current_range_meters":4000,"station_id":"ce4bguh2rcd13ifvqcj0","pricing_plan_id":"cebpf4jnsgd1na2vs0mg"},{"bike_id":"fcaf76b1-c79e-4652-8637-e91fd1a65c56","system_id":"levelo_inurba_marseille","lat":43.30923,"lon":5.40142,"is_reserved":false,"is_disabled":false,"rental_uris":{"android":"levelo://app?vid=fcaf76b1-c79e-4652-8637-e91fd1a65c56","ios":"levelo://app?vid=fcaf76b1-c79e-4652-8637-e91fd1a65c56"},"vehicle_type_id":"4","last_reported":1762877578,"current_range_meters":4400,"station_id":"ce4bgvp2rcd13ifvqct0","pricing_plan_id":"cebpf4jnsgd1na2vs0mg"},{"bike_id":"0a673601-4d41-487e-97a4-7736f6fb6f54","system_id":"levelo_inurba_marseille","lat":43.21195,"lon":5.35067,"is_reserved":false,"is_disabled":false,"rental_uris":{"android":"levelo://app?vid=0a673601-4d41-487e-97a4-7736f6fb6f54","ios":"levelo://app?vid=0a673601-4d41-487e-97a4-7736f6fb6f54"},"vehicle_type_id":"4","last_reported":1762877578,"current_range_meters":4400,"station_id":"st_cvj6sg6p6f1abm77japg","pricing_plan_id":"cebpf4jnsgd1na2vs0mg"},{"bike_id":"f39cd2ce-e925-401b-bcb7-8c0903a34325","system_id":"levelo_inurba_marseille","lat":43.29625,"lon":5.37144,"is_reserved":false,"is_disabled":false,"rental_uris":{"android":"levelo://app?vid=f39cd2ce-e925-401b-bcb7-8c0903a34325","ios":"levelo://app?vid=f39cd2ce-e925-401b-bcb7-8c0903a34325"},"vehicle_type_id":"4","last_reported":1762877578,"current_range_meters":4400,"station_id":"","pricing_plan_id":"cebpf4jnsgd1na2vs0mg"},{"bike_id":"e4731b72-0cb2-4a0b-8f3f-763828c299f1","system_id":"levelo_inurba_marseille","lat":43.2904,"lon":5.37565,"is_reserved":false,"is_disabled":false,"rental_uris":{"android":"levelo://app?vid=e4731b72-0cb2-4a0b-8f3f-763828c299f1","ios":"levelo://app?vid=e4731b72-0cb2-4a0b-8f3f-763828c299f1"},"vehicle_type_id":"4","last_reported":1762877578,"current_range_meters":4400,"station_id":"ce4bh692rcd13ifvqe90","pricing_plan_id":"cebpf4jnsgd1na2vs0mg"},{"bike_id":"30c5a8e3-945b-4584-bdac-4d56f0f41cad","system_id":"levelo_inurba_marseille","lat":43.26033,"lon":5.37555,"is_reserved":false,"is_disabled":false,"rental_uris":{"android":"levelo://app?vid=30c5a8e3-945b-4584-bdac-4d56f0f41cad","ios":"levelo://app?vid=30c5a8e3-945b-4584-bdac-4d56f0f41cad"},"vehicle_type_id":"4","last_reported":1762877578,"current_range_meters":4800,"station_id":"ce4bhgh2rcd13ifvqfa0","pricing_plan_id":"cebpf4jnsgd1na2vs0mg"},{"bike_id":"df3cfee6-7493-4255-9f42-39c00be42c13","system_id":"levelo_inurba_marseille","lat":43.29633,"lon":5.37219,"is_reserved":false,"is_disabled":false,"rental_uris":{"android":"levelo://app?vid=df3cfee6-7493-4255-9f42-39c00be42c13","ios":"levelo://app?vid=df3cfee6-7493-4255-9f42-39c00be42c13"},"vehicle_type_id":"4","last_reported":1762877578,"current_range_meters":4800,"station_id":"","pricing_plan_id":"cebpf4jnsgd1na2vs0mg"},{"bike_id":"fd4d8798-89a4-46d0-886d-d34c2a4e17fa","system_id":"levelo_inurba_marseille","lat":43.279729,"lon":5.387439,"is_reserved":false,"is_disabled":false,"rental_uris":{"android":"levelo://app?vid=fd4d8798-89a4-46d0-886d-d34c2a4e17fa","ios":"levelo://app?vid=fd4d8798-89a4-46d0-886d-d34c2a4e17fa"},"vehicle_type_id":"4","last_reported":1762877578,"current_range_meters":4800,"station_id":"ce4bhg12rcd13ifvqf80","pricing_plan_id":"cebpf4jnsgd1na2vs0mg"},{"bike_id":"d6e19ffb-fe45-4e2d-a927-2550b46dc4a8","system_id":"levelo_inurba_marseille","lat":43.21747,"lon":5.34602,"is_reserved":false,"is_disabled":false,"rental_uris":{"android":"levelo://app?vid=d6e19ffb-fe45-4e2d-a927-2550b46dc4a8","ios":"levelo://app?vid=d6e19ffb-fe45-4e2d-a927-2550b46dc4a8"},"vehicle_type_id":"4","last_reported":1762877578,"current_range_meters":5600,"station_id":"st_cvj6r9ubvosntc0bgbag","pricing_plan_id":"cebpf4jnsgd1na2vs0mg"},{"bike_id":"ad1e5168-380a-4c49-91ad-68da4be97620","system_id":"levelo_inurba_marseille","lat":43.282133,"lon":5.398317,"is_reserved":false,"is_disabled":false,"rental_uris":{"android":"levelo://app?vid=ad1e5168-380a-4c49-91ad-68da4be97620","ios":"levelo://app?vid=ad1e5168-380a-4c49-91ad-68da4be97620"},"vehicle_type_id":"4","last_reported":1762877578,"current_range_meters":5600,"station_id":"ce4bho12rcd13ifvqh2g","pricing_plan_id":"cebpf4jnsgd1na2vs0mg"},{"bike_id":"7a454629-b022-4ef4-affc-5eaa5d29da36","system_id":"levelo_inurba_marseille","lat":43.29602,"lon":5.37715,"is_reserved":false,"is_disabled":false,"rental_uris":{"android":"levelo://app?vid=7a454629-b022-4ef4-affc-5eaa5d29da36","ios":"levelo://app?vid=7a454629-b022-4ef4-affc-5eaa5d29da36"},"vehicle_type_id":"4","last_reported":1762877578,"current_range_meters":5600,"station_id":"ce4bgi92rcd13ifvqb90","pricing_plan_id":"cebpf4jnsgd1na2vs0mg"},{"bike_id":"e47465b0-e352-43b9-9e55-aaff987f6028","system_id":"levelo_inurba_marseille","lat":43.27937,"lon":5.41039,"is_reserved":false,"is_disabled":false,"rental_uris":{"android":"levelo://app?vid=e47465b0-e352-43b9-9e55-aaff987f6028","ios":"levelo://app?vid=e47465b0-e352-43b9-9e55-aaff987f6028"},"vehicle_type_id":"4","last_reported":1762877578,"current_range_meters":5600,"station_id":"ce4bhnp2rcd13ifvqh0g","pricing_plan_id":"cebpf4jnsgd1na2vs0mg"},{"bike_id":"1e9ec2b7-7cfe-4de4-a7ea-2dee191efa0f","system_id":"levelo_inurba_marseille","lat":43.27687,"lon":5.38875,"is_reserved":false,"is_disabled":false,"rental_uris":{"android":"levelo://app?vid=1e9ec2b7-7cfe-4de4-a7ea-2dee191efa0f","ios":"levelo://app?vid=1e9ec2b7-7cfe-4de4-a7ea-2dee191efa0f"},"vehicle_type_id":"4","last_reported":1762877578,"current_range_meters":6000,"station_id":"ce4bhi12rcd13ifvqfo0","pricing_plan_id":"cebpf4jnsgd1na2vs0mg"},{"bike_id":"59279097-6ccc-4377-8f7d-b5492ffa550f","system_id":"levelo_inurba_marseille","lat":43.273781,"lon":5.362612,"is_reserved":false,"is_disabled":false,"rental_uris":{"android":"levelo://app?vid=59279097-6ccc-4377-8f7d-b5492ffa550f","ios":"levelo://app?vid=59279097-6ccc-4377-8f7d-b5492ffa550f"},"vehicle_type_id":"4","last_reported":1762877578,"current_range_meters":6000,"station_id":"st_cvj5dfep6f1abm77gieg","pricing_plan_id":"cebpf4jnsgd1na2vs0mg"},{"bike_id":"b185df5d-31ee-4d5b-94ae-a5f775414eab","system_id":"levelo_inurba_marseille","lat":43.279301,"lon":5.399449,"is_reserved":false,"is_disabled":false,"rental_uris":{"android":"levelo://app?vid=b185df5d-31ee-4d5b-94ae-a5f775414eab","ios":"levelo://app?vid=b185df5d-31ee-4d5b-94ae-a5f775414eab"},"vehicle_type_id":"4","last_reported":1762877578,"current_range_meters":6000,"station_id":"ce4bho92rcd13ifvqh4g","pricing_plan_id":"cebpf4jnsgd1na2vs0mg"},{"bike_id":"357069c6-ffa5-4139-ab2f-c43deb43c051","system_id":"levelo_inurba_marseille","lat":43.30792,"lon":5.37652,"is_reserved":false,"is_disabled":false,"rental_uris":{"android":"levelo://app?vid=357069c6-ffa5-4139-ab2f-c43deb43c051","ios":"levelo://app?vid=357069c6-ffa5-4139-ab2f-c43deb43c051"},"vehicle_type_id":"4","last_reported":1762877578,"current_range_meters":6000,"station_id":"ce4bgv92rcd13ifvqcq0","pricing_plan_id":"cebpf4jnsgd1na2vs0mg"},{"bike_id":"3fd51f4b-02e6-46fc-a68c-46112be42c21","system_id":"levelo_inurba_marseille","lat":43.23963,"lon":5.36637,"is_reserved":false,"is_disabled":false,"rental_uris":{"android":"levelo://app?vid=3fd51f4b-02e6-46fc-a68c-46112be42c21","ios":"levelo://app?vid=3fd51f4b-02e6-46fc-a68c-46112be42c21"},"vehicle_type_id":"4","last_reported":1762877578,"current_range_meters":6000,"station_id":"ce4bhi12rcd13ifvqfp0","pricing_plan_id":"cebpf4jnsgd1na2vs0mg"},{"bike_id":"ff7c1666-3a08-41ed-ac2e-12e3d86f423b","system_id":"levelo_inurba_marseille","lat":43.30136,"lon":5.39873,"is_reserved":false,"is_disabled":false,"rental_uris":{"android":"levelo://app?vid=ff7c1666-3a08-41ed-ac2e-12e3d86f423b","ios":"levelo://app?vid=ff7c1666-3a08-41ed-ac2e-12e3d86f423b"},"vehicle_type_id":"4","last_reported":1762877578,"current_range_meters":6000,"station_id":"ce4bh0h2rcd13ifvqd40","pricing_plan_id":"cebpf4jnsgd1na2vs0mg"},{"bike_id":"74c3705e-1b0c-4229-b62c-b37dd5c13ca6","system_id":"levelo_inurba_marseille","lat":43.33026,"lon":5.39042,"is_reserved":false,"is_disabled":false,"rental_uris":{"android":"levelo://app?vid=74c3705e-1b0c-4229-b62c-b37dd5c13ca6","ios":"levelo://app?vid=74c3705e-1b0c-4229-b62c-b37dd5c13ca6"},"vehicle_type_id":"4","last_reported":1762877578,"current_range_meters":6000,"station_id":"ce4bhr92rcd13ifvqhrg","pricing_plan_id":"cebpf4jnsgd1na2vs0mg"},{"bike_id":"355d0a72-63a4-43ac-addc-15604eb0aa69","system_id":"levelo_inurba_marseille","lat":43.29924,"lon":5.36392,"is_reserved":false,"is_disabled":false,"rental_uris":{"android":"levelo://app?vid=355d0a72-63a4-43ac-addc-15604eb0aa69","ios":"levelo://app?vid=355d0a72-63a4-43ac-addc-15604eb0aa69"},"vehicle_type_id":"4","last_reported":1762877578,"current_range_meters":6000,"station_id":"","pricing_plan_id":"cebpf4jnsgd1na2vs0mg"},{"bike_id":"52f3481f-f63b-49be-9d54-9e7b6ba147a6","system_id":"levelo_inurba_marseille","lat":43.23951,"lon":5.36654,"is_reserved":false,"is_disabled":false,"rental_uris":{"android":"levelo://app?vid=52f3481f-f63b-49be-9d54-9e7b6ba147a6","ios":"levelo://app?vid=52f3481f-f63b-49be-9d54-9e7b6ba147a6"},"vehicle_type_id":"4","last_reported":1762877578,"current_range_meters":6400,"station_id":"ce4bhi12rcd13ifvqfp0","pricing_plan_id":"cebpf4jnsgd1na2vs0mg"},{"bike_id":"9ade1fe7-d83f-4045-9bd3-74892e77626e","system_id":"levelo_inurba_marseille","lat":43.240816,"lon":5.377272,"is_reserved":false,"is_disabled":true,"rental_uris":{"android":"levelo://app?vid=9ade1fe7-d83f-4045-9bd3-74892e77626e","ios":"levelo://app?vid=9ade1fe7-d83f-4045-9bd3-74892e77626e"},"vehicle_type_id":"4","last_reported":1762877578,"current_range_meters":6400,"station_id":"ce4bhnp2rcd13ifvqgvg","pricing_plan_id":"cebpf4jnsgd1na2vs0mg"},{"bike_id":"ab8c3c26-7f2c-44cb-819f-81becbcc3d6c","system_id":"levelo_inurba_marseille","lat":43.304202,"lon":5.397342,"is_reserved":false,"is_disabled":true,"rental_uris":{"android":"levelo://app?vid=ab8c3c26-7f2c-44cb-819f-81becbcc3d6c","ios":"levelo://app?vid=ab8c3c26-7f2c-44cb-819f-81becbcc3d6c"},"vehicle_type_id":"4","last_reported":1762877578,"current_range_meters":6400,"station_id":"ce4bh092rcd13ifvqd20","pricing_plan_id":"cebpf4jnsgd1na2vs0mg"},{"bike_id":"c25cc6ed-92f3-4de2-b79a-e5ce3fbff389","system_id":"levelo_inurba_marseille","lat":43.25582,"lon":5.38237,"is_reserved":false,"is_disabled":false,"rental_uris":{"android":"levelo://app?vid=c25cc6ed-92f3-4de2-b79a-e5ce3fbff389","ios":"levelo://app?vid=c25cc6ed-92f3-4de2-b79a-e5ce3fbff389"},"vehicle_type_id":"4","last_reported":1762877578,"current_range_meters":6400,"station_id":"ce4bhih2rcd13ifvqfs0","pricing_plan_id":"cebpf4jnsgd1na2vs0mg"},{"bike_id":"1f5a8b7a-4f85-432e-8a2e-1320e8301faa","system_id":"levelo_inurba_marseille","lat":43.33177,"lon":5.3767,"is_reserved":false,"is_disabled":false,"rental_uris":{"android":"levelo://app?vid=1f5a8b7a-4f85-432e-8a2e-1320e8301faa","ios":"levelo://app?vid=1f5a8b7a-4f85-432e-8a2e-1320e8301faa"},"vehicle_type_id":"4","last_reported":1762877578,"current_range_meters":6400,"station_id":"st_d46cu089ee8s73dldbu0","pricing_plan_id":"cebpf4jnsgd1na2vs0mg"},{"bike_id":"b12372b8-8fee-4bdd-8afa-1c79a5c99183","system_id":"levelo_inurba_marseille","lat":43.29845,"lon":5.36278,"is_reserved":false,"is_disabled":false,"rental_uris":{"android":"levelo://app?vid=b12372b8-8fee-4bdd-8afa-1c79a5c99183","ios":"levelo://app?vid=b12372b8-8fee-4bdd-8afa-1c79a5c99183"},"vehicle_type_id":"4","last_reported":1762877578,"current_range_meters":6400,"station_id":"ce4bgpp2rcd13ifvqc3g","pricing_plan_id":"cebpf4jnsgd1na2vs0mg"},{"bike_id":"285edc02-c40d-4315-906b-2d38b29ac259","system_id":"levelo_inurba_marseille","lat":43.33771,"lon":5.37471,"is_reserved":false,"is_disabled":false,"rental_uris":{"android":"levelo://app?vid=285edc02-c40d-4315-906b-2d38b29ac259","ios":"levelo://app?vid=285edc02-c40d-4315-906b-2d38b29ac259"},"vehicle_type_id":"4","last_reported":1762877578,"current_range_meters":6800,"station_id":"","pricing_plan_id":"cebpf4jnsgd1na2vs0mg"},{"bike_id":"24df1d9f-a877-4491-ba04-b13e594d6940","system_id":"levelo_inurba_marseille","lat":43.30539,"lon":5.36723,"is_reserved":false,"is_disabled":false,"rental_uris":{"android":"levelo://app?vid=24df1d9f-a877-4491-ba04-b13e594d6940","ios":"levelo://app?vid=24df1d9f-a877-4491-ba04-b13e594d6940"},"vehicle_type_id":"4","last_reported":1762877578,"current_range_meters":6800,"station_id":"ce4bgrp2rcd13ifvqc9g","pricing_plan_id":"cebpf4jnsgd1na2vs0mg"},{"bike_id":"8d677937-1824-4e06-ac08-f6ef15e14e46","system_id":"levelo_inurba_marseille","lat":43.32544,"lon":5.41421,"is_reserved":false,"is_disabled":false,"rental_uris":{"android":"levelo://app?vid=8d677937-1824-4e06-ac08-f6ef15e14e46","ios":"levelo://app?vid=8d677937-1824-4e06-ac08-f6ef15e14e46"},"vehicle_type_id":"4","last_reported":1762877578,"current_range_meters":6800,"station_id":"ce4bhq12rcd13ifvqhhg","pricing_plan_id":"cebpf4jnsgd1na2vs0mg"},{"bike_id":"56ae112f-545a-4c78-98ec-9801691b2469","system_id":"levelo_inurba_marseille","lat":43.28667,"lon":5.36358,"is_reserved":false,"is_disabled":false,"rental_uris":{"android":"levelo://app?vid=56ae112f-545a-4c78-98ec-9801691b2469","ios":"levelo://app?vid=56ae112f-545a-4c78-98ec-9801691b2469"},"vehicle_type_id":"4","last_reported":1762877578,"current_range_meters":6800,"station_id":"ce4bhah2rcd13ifvqej0","pricing_plan_id":"cebpf4jnsgd1na2vs0mg"},{"bike_id":"a153bb7a-facf-4d89-8fb0-01e6272ba505","system_id":"levelo_inurba_marseille","lat":43.269731,"lon":5.388281,"is_reserved":false,"is_disabled":false,"rental_uris":{"android":"levelo://app?vid=a153bb7a-facf-4d89-8fb0-01e6272ba505","ios":"levelo://app?vid=a153bb7a-facf-4d89-8fb0-01e6272ba505"},"vehicle_type_id":"4","last_reported":1762877578,"current_range_meters":6800,"station_id":"","pricing_plan_id":"cebpf4jnsgd1na2vs0mg"},{"bike_id":"9a82fcbb-0ab3-4f45-aacf-b6e1642c0228","system_id":"levelo_inurba_marseille","lat":43.296151,"lon":5.377427,"is_reserved":false,"is_disabled":true,"rental_uris":{"android":"levelo://app?vid=9a82fcbb-0ab3-4f45-aacf-b6e1642c0228","ios":"levelo://app?vid=9a82fcbb-0ab3-4f45-aacf-b6e1642c0228"},"vehicle_type_id":"4","last_reported":1762877578,"current_range_meters":6800,"station_id":"ce4bgi92rcd13ifvqb90","pricing_plan_id":"cebpf4jnsgd1na2vs0mg"},{"bike_id":"074db92e-e153-40bc-8c3b-08ad55f1aa10","system_id":"levelo_inurba_marseille","lat":43.26567,"lon":5.39014,"is_reserved":false,"is_disabled":false,"rental_uris":{"android":"levelo://app?vid=074db92e-e153-40bc-8c3b-08ad55f1aa10","ios":"levelo://app?vid=074db92e-e153-40bc-8c3b-08ad55f1aa10"},"vehicle_type_id":"4","last_reported":1762877578,"current_range_meters":6800,"station_id":"ce4bhe12rcd13ifvqf30","pricing_plan_id":"cebpf4jnsgd1na2vs0mg"},{"bike_id":"493274e3-02ce-4eb7-aa01-3a16940d5ecc","system_id":"levelo_inurba_marseille","lat":43.29277,"lon":5.40116,"is_reserved":false,"is_disabled":false,"rental_uris":{"android":"levelo://app?vid=493274e3-02ce-4eb7-aa01-3a16940d5ecc","ios":"levelo://app?vid=493274e3-02ce-4eb7-aa01-3a16940d5ecc"},"vehicle_type_id":"4","last_reported":1762877578,"current_range_meters":6800,"station_id":"ce4bh312rcd13ifvqdk0","pricing_plan_id":"cebpf4jnsgd1na2vs0mg"},{"bike_id":"47ffe144-c853-4169-950c-409ab9c7e87e","system_id":"levelo_inurba_marseille","lat":43.25718,"lon":5.41117,"is_reserved":false,"is_disabled":false,"rental_uris":{"android":"levelo://app?vid=47ffe144-c853-4169-950c-409ab9c7e87e","ios":"levelo://app?vid=47ffe144-c853-4169-950c-409ab9c7e87e"},"vehicle_type_id":"4","last_reported":1762877578,"current_range_meters":6800,"station_id":"ce4bhkp2rcd13ifvqgd0","pricing_plan_id":"cebpf4jnsgd1na2vs0mg"},{"bike_id":"65811392-51d5-46da-bc7e-5133910965c0","system_id":"levelo_inurba_marseille","lat":43.25582,"lon":5.38237,"is_reserved":false,"is_disabled":false,"rental_uris":{"android":"levelo://app?vid=65811392-51d5-46da-bc7e-5133910965c0","ios":"levelo://app?vid=65811392-51d5-46da-bc7e-5133910965c0"},"vehicle_type_id":"4","last_reported":1762877578,"current_range_meters":7200,"station_id":"ce4bhih2rcd13ifvqfs0","pricing_plan_id":"cebpf4jnsgd1na2vs0mg"},{"bike_id":"4dba09d3-835d-4313-a6d8-3da20a1325dd","system_id":"levelo_inurba_marseille","lat":43.29914,"lon":5.43649,"is_reserved":false,"is_disabled":false,"rental_uris":{"android":"levelo://app?vid=4dba09d3-835d-4313-a6d8-3da20a1325dd","ios":"levelo://app?vid=4dba09d3-835d-4313-a6d8-3da20a1325dd"},"vehicle_type_id":"4","last_reported":1762877578,"current_range_meters":7200,"station_id":"ce4bhpp2rcd13ifvqhfg","pricing_plan_id":"cebpf4jnsgd1na2vs0mg"},{"bike_id":"c620c9fc-398f-4dca-8fdd-2b652311235d","system_id":"levelo_inurba_marseille","lat":43.21192,"lon":5.35065,"is_reserved":false,"is_disabled":true,"rental_uris":{"android":"levelo://app?vid=c620c9fc-398f-4dca-8fdd-2b652311235d","ios":"levelo://app?vid=c620c9fc-398f-4dca-8fdd-2b652311235d"},"vehicle_type_id":"4","last_reported":1762877578,"current_range_meters":7200,"station_id":"st_cvj6sg6p6f1abm77japg","pricing_plan_id":"cebpf4jnsgd1na2vs0mg"},{"bike_id":"d315980f-e55c-4a2b-8743-e45ce3622e8d","system_id":"levelo_inurba_marseille","lat":43.284774,"lon":5.484003,"is_reserved":false,"is_disabled":false,"rental_uris":{"android":"levelo://app?vid=d315980f-e55c-4a2b-8743-e45ce3622e8d","ios":"levelo://app?vid=d315980f-e55c-4a2b-8743-e45ce3622e8d"},"vehicle_type_id":"4","last_reported":1762877578,"current_range_meters":7200,"station_id":"st_d3svhcjqgbts73a3dn0g","pricing_plan_id":"cebpf4jnsgd1na2vs0mg"},{"bike_id":"993d389f-d1a6-44c2-943b-454fdc5bbf14","system_id":"levelo_inurba_marseille","lat":43.23783,"lon":5.36635,"is_reserved":false,"is_disabled":false,"rental_uris":{"android":"levelo://app?vid=993d389f-d1a6-44c2-943b-454fdc5bbf14","ios":"levelo://app?vid=993d389f-d1a6-44c2-943b-454fdc5bbf14"},"vehicle_type_id":"4","last_reported":1762877578,"current_range_meters":7200,"station_id":"st_d3nk18o9ro0c73en2l3g","pricing_plan_id":"cebpf4jnsgd1na2vs0mg"},{"bike_id":"ae8df7c2-dced-4c87-8be6-83ffc212bba9","system_id":"levelo_inurba_marseille","lat":43.282745,"lon":5.35059,"is_reserved":false,"is_disabled":true,"rental_uris":{"android":"levelo://app?vid=ae8df7c2-dced-4c87-8be6-83ffc212bba9","ios":"levelo://app?vid=ae8df7c2-dced-4c87-8be6-83ffc212bba9"},"vehicle_type_id":"4","last_reported":1762877578,"current_range_meters":7200,"station_id":"ce4bhbp2rcd13ifvqerg","pricing_plan_id":"cebpf4jnsgd1na2vs0mg"},{"bike_id":"ff48af04-db86-4427-a234-53edd08ca0b7","system_id":"levelo_inurba_marseille","lat":43.30795,"lon":5.38152,"is_reserved":false,"is_disabled":false,"rental_uris":{"android":"levelo://app?vid=ff48af04-db86-4427-a234-53edd08ca0b7","ios":"levelo://app?vid=ff48af04-db86-4427-a234-53edd08ca0b7"},"vehicle_type_id":"4","last_reported":1762877578,"current_range_meters":7200,"station_id":"ce4bgt12rcd13ifvqce0","pricing_plan_id":"cebpf4jnsgd1na2vs0mg"},{"bike_id":"d89d845b-e507-4d17-b9a1-fa3a748f1213","system_id":"levelo_inurba_marseille","lat":43.279999,"lon":5.400224,"is_reserved":false,"is_disabled":false,"rental_uris":{"android":"levelo://app?vid=d89d845b-e507-4d17-b9a1-fa3a748f1213","ios":"levelo://app?vid=d89d845b-e507-4d17-b9a1-fa3a748f1213"},"vehicle_type_id":"4","last_reported":1762877578,"current_range_meters":7200,"station_id":"ce4bho92rcd13ifvqh4g","pricing_plan_id":"cebpf4jnsgd1na2vs0mg"},{"bike_id":"99f555dd-b87a-4899-bc4d-afec626c1e28","system_id":"levelo_inurba_marseille","lat":43.28472,"lon":5.48401,"is_reserved":false,"is_disabled":false,"rental_uris":{"android":"levelo://app?vid=99f555dd-b87a-4899-bc4d-afec626c1e28","ios":"levelo://app?vid=99f555dd-b87a-4899-bc4d-afec626c1e28"},"vehicle_type_id":"4","last_reported":1762877578,"current_range_meters":7200,"station_id":"","pricing_plan_id":"cebpf4jnsgd1na2vs0mg"},{"bike_id":"d40b332e-bd14-4afb-a23e-c2fe6ca0c51a","system_id":"levelo_inurba_marseille","lat":43.29936,"lon":5.36559,"is_reserved":false,"is_disabled":false,"rental_uris":{"android":"levelo://app?vid=d40b332e-bd14-4afb-a23e-c2fe6ca0c51a","ios":"levelo://app?vid=d40b332e-bd14-4afb-a23e-c2fe6ca0c51a"},"vehicle_type_id":"4","last_reported":1762877578,"current_range_meters":7200,"station_id":"ce4bgm92rcd13ifvqbr0","pricing_plan_id":"cebpf4jnsgd1na2vs0mg"},{"bike_id":"f401725f-785f-41c2-99e5-055dcb406e2c","system_id":"levelo_inurba_marseille","lat":43.24645,"lon":5.38892,"is_reserved":false,"is_disabled":false,"rental_uris":{"android":"levelo://app?vid=f401725f-785f-41c2-99e5-055dcb406e2c","ios":"levelo://app?vid=f401725f-785f-41c2-99e5-055dcb406e2c"},"vehicle_type_id":"4","last_reported":1762877578,"current_range_meters":7200,"station_id":"ce4bhg12rcd13ifvqf60","pricing_plan_id":"cebpf4jnsgd1na2vs0mg"},{"bike_id":"099c2d25-4b44-49f0-bacb-acba23f78313","system_id":"levelo_inurba_marseille","lat":43.29045,"lon":5.39965,"is_reserved":false,"is_disabled":false,"rental_uris":{"android":"levelo://app?vid=099c2d25-4b44-49f0-bacb-acba23f78313","ios":"levelo://app?vid=099c2d25-4b44-49f0-bacb-acba23f78313"},"vehicle_type_id":"4","last_reported":1762877578,"current_range_meters":8000,"station_id":"ce4bh392rcd13ifvqdm0","pricing_plan_id":"cebpf4jnsgd1na2vs0mg"},{"bike_id":"ab459f92-1900-46e2-9762-f12dae3ab755","system_id":"levelo_inurba_marseille","lat":43.26222,"lon":5.40448,"is_reserved":false,"is_disabled":false,"rental_uris":{"android":"levelo://app?vid=ab459f92-1900-46e2-9762-f12dae3ab755","ios":"levelo://app?vid=ab459f92-1900-46e2-9762-f12dae3ab755"},"vehicle_type_id":"4","last_reported":1762877578,"current_range_meters":8000,"station_id":"ce4bhmh2rcd13ifvqgmg","pricing_plan_id":"cebpf4jnsgd1na2vs0mg"},{"bike_id":"1d80f4dd-2352-4315-81af-42c042c7fe37","system_id":"levelo_inurba_marseille","lat":43.28865,"lon":5.39335,"is_reserved":false,"is_disabled":true,"rental_uris":{"android":"levelo://app?vid=1d80f4dd-2352-4315-81af-42c042c7fe37","ios":"levelo://app?vid=1d80f4dd-2352-4315-81af-42c042c7fe37"},"vehicle_type_id":"4","last_reported":1762877578,"current_range_meters":8000,"station_id":"ce4bh2p2rcd13ifvqdi0","pricing_plan_id":"cebpf4jnsgd1na2vs0mg"},{"bike_id":"b2be4fa2-44ee-40dc-acc7-1755c74f1c5d","system_id":"levelo_inurba_marseille","lat":43.297436,"lon":5.411099,"is_reserved":false,"is_disabled":false,"rental_uris":{"android":"levelo://app?vid=b2be4fa2-44ee-40dc-acc7-1755c74f1c5d","ios":"levelo://app?vid=b2be4fa2-44ee-40dc-acc7-1755c74f1c5d"},"vehicle_type_id":"4","last_reported":1762877578,"current_range_meters":8000,"station_id":"","pricing_plan_id":"cebpf4jnsgd1na2vs0mg"},{"bike_id":"fb4f8673-71b5-43fc-8793-6562284f997a","system_id":"levelo_inurba_marseille","lat":43.24811,"lon":5.37458,"is_reserved":false,"is_disabled":false,"rental_uris":{"android":"levelo://app?vid=fb4f8673-71b5-43fc-8793-6562284f997a","ios":"levelo://app?vid=fb4f8673-71b5-43fc-8793-6562284f997a"},"vehicle_type_id":"4","last_reported":1762877578,"current_range_meters":8000,"station_id":"ce4bhgh2rcd13ifvqfb0","pricing_plan_id":"cebpf4jnsgd1na2vs0mg"},{"bike_id":"1648104b-81bc-4751-ace2-e97e844cd43d","system_id":"levelo_inurba_marseille","lat":43.2845,"lon":5.48415,"is_reserved":false,"is_disabled":false,"rental_uris":{"android":"levelo://app?vid=1648104b-81bc-4751-ace2-e97e844cd43d","ios":"levelo://app?vid=1648104b-81bc-4751-ace2-e97e844cd43d"},"vehicle_type_id":"4","last_reported":1762877578,"current_range_meters":8000,"station_id":"st_d3svhcjqgbts73a3dn0g","pricing_plan_id":"cebpf4jnsgd1na2vs0mg"},{"bike_id":"349b2ad9-adea-4dd9-9ac9-fffb121b5424","system_id":"levelo_inurba_marseille","lat":43.29892,"lon":5.37537,"is_reserved":false,"is_disabled":false,"rental_uris":{"android":"levelo://app?vid=349b2ad9-adea-4dd9-9ac9-fffb121b5424","ios":"levelo://app?vid=349b2ad9-adea-4dd9-9ac9-fffb121b5424"},"vehicle_type_id":"4","last_reported":1762877578,"current_range_meters":8400,"station_id":"","pricing_plan_id":"cebpf4jnsgd1na2vs0mg"},{"bike_id":"ea46ba96-3b00-4bca-8d51-6e4aa90c3190","system_id":"levelo_inurba_marseille","lat":43.29894,"lon":5.43673,"is_reserved":false,"is_disabled":false,"rental_uris":{"android":"levelo://app?vid=ea46ba96-3b00-4bca-8d51-6e4aa90c3190","ios":"levelo://app?vid=ea46ba96-3b00-4bca-8d51-6e4aa90c3190"},"vehicle_type_id":"4","last_reported":1762877578,"current_range_meters":8400,"station_id":"ce4bhpp2rcd13ifvqhfg","pricing_plan_id":"cebpf4jnsgd1na2vs0mg"},{"bike_id":"5cc8ec17-08a2-446a-a81e-4fafa298d050","system_id":"levelo_inurba_marseille","lat":43.31695,"lon":5.42438,"is_reserved":false,"is_disabled":false,"rental_uris":{"android":"levelo://app?vid=5cc8ec17-08a2-446a-a81e-4fafa298d050","ios":"levelo://app?vid=5cc8ec17-08a2-446a-a81e-4fafa298d050"},"vehicle_type_id":"4","last_reported":1762877578,"current_range_meters":8400,"station_id":"ce4bhp92rcd13ifvqhbg","pricing_plan_id":"cebpf4jnsgd1na2vs0mg"},{"bike_id":"17cf8d22-31be-4244-989a-65836c6ddffb","system_id":"levelo_inurba_marseille","lat":43.23967,"lon":5.36635,"is_reserved":false,"is_disabled":false,"rental_uris":{"android":"levelo://app?vid=17cf8d22-31be-4244-989a-65836c6ddffb","ios":"levelo://app?vid=17cf8d22-31be-4244-989a-65836c6ddffb"},"vehicle_type_id":"4","last_reported":1762877578,"current_range_meters":8400,"station_id":"ce4bhi12rcd13ifvqfp0","pricing_plan_id":"cebpf4jnsgd1na2vs0mg"},{"bike_id":"3c075285-ecb5-4d2c-a98c-80c9203a3d2e","system_id":"levelo_inurba_marseille","lat":43.28862,"lon":5.35843,"is_reserved":false,"is_disabled":false,"rental_uris":{"android":"levelo://app?vid=3c075285-ecb5-4d2c-a98c-80c9203a3d2e","ios":"levelo://app?vid=3c075285-ecb5-4d2c-a98c-80c9203a3d2e"},"vehicle_type_id":"4","last_reported":1762877578,"current_range_meters":8400,"station_id":"ce4bhb12rcd13ifvqem0","pricing_plan_id":"cebpf4jnsgd1na2vs0mg"},{"bike_id":"5b44894e-22cc-4816-995a-efa14fa85ec6","system_id":"levelo_inurba_marseille","lat":43.211963,"lon":5.350697,"is_reserved":false,"is_disabled":false,"rental_uris":{"android":"levelo://app?vid=5b44894e-22cc-4816-995a-efa14fa85ec6","ios":"levelo://app?vid=5b44894e-22cc-4816-995a-efa14fa85ec6"},"vehicle_type_id":"4","last_reported":1762877578,"current_range_meters":8400,"station_id":"","pricing_plan_id":"cebpf4jnsgd1na2vs0mg"},{"bike_id":"99d5132e-d73a-4bea-bddc-0378d982cb26","system_id":"levelo_inurba_marseille","lat":43.30144,"lon":5.37424,"is_reserved":false,"is_disabled":false,"rental_uris":{"android":"levelo://app?vid=99d5132e-d73a-4bea-bddc-0378d982cb26","ios":"levelo://app?vid=99d5132e-d73a-4bea-bddc-0378d982cb26"},"vehicle_type_id":"4","last_reported":1762877578,"current_range_meters":8400,"station_id":"ce4bgs92rcd13ifvqcc0","pricing_plan_id":"cebpf4jnsgd1na2vs0mg"},{"bike_id":"c290c94d-bb42-4a4f-a6b9-7f66dc438a9d","system_id":"levelo_inurba_marseille","lat":43.28614,"lon":5.35105,"is_reserved":false,"is_disabled":false,"rental_uris":{"android":"levelo://app?vid=c290c94d-bb42-4a4f-a6b9-7f66dc438a9d","ios":"levelo://app?vid=c290c94d-bb42-4a4f-a6b9-7f66dc438a9d"},"vehicle_type_id":"4","last_reported":1762877578,"current_range_meters":8400,"station_id":"ce4bhch2rcd13ifvqeug","pricing_plan_id":"cebpf4jnsgd1na2vs0mg"},{"bike_id":"a6bdf21f-a1d2-4def-a11f-b6f07d15f833","system_id":"levelo_inurba_marseille","lat":43.300912,"lon":5.382692,"is_reserved":false,"is_disabled":false,"rental_uris":{"android":"levelo://app?vid=a6bdf21f-a1d2-4def-a11f-b6f07d15f833","ios":"levelo://app?vid=a6bdf21f-a1d2-4def-a11f-b6f07d15f833"},"vehicle_type_id":"4","last_reported":1762877578,"current_range_meters":8400,"station_id":"","pricing_plan_id":"cebpf4jnsgd1na2vs0mg"},{"bike_id":"b7bffed5-99f0-420b-b981-0cd5b675216b","system_id":"levelo_inurba_marseille","lat":43.31883,"lon":5.40741,"is_reserved":false,"is_disabled":false,"rental_uris":{"android":"levelo://app?vid=b7bffed5-99f0-420b-b981-0cd5b675216b","ios":"levelo://app?vid=b7bffed5-99f0-420b-b981-0cd5b675216b"},"vehicle_type_id":"4","last_reported":1762877578,"current_range_meters":8400,"station_id":"ce4bhq12rcd13ifvqhig","pricing_plan_id":"cebpf4jnsgd1na2vs0mg"},{"bike_id":"318f6543-9344-4a97-979a-7d9e259c430c","system_id":"levelo_inurba_marseille","lat":43.2315,"lon":5.39983,"is_reserved":false,"is_disabled":false,"rental_uris":{"android":"levelo://app?vid=318f6543-9344-4a97-979a-7d9e259c430c","ios":"levelo://app?vid=318f6543-9344-4a97-979a-7d9e259c430c"},"vehicle_type_id":"4","last_reported":1762877578,"current_range_meters":8400,"station_id":"ce4bhn12rcd13ifvqgqg","pricing_plan_id":"cebpf4jnsgd1na2vs0mg"},{"bike_id":"0b584dbc-5deb-4443-92e7-1ee75c2c8eca","system_id":"levelo_inurba_marseille","lat":43.29882,"lon":5.38915,"is_reserved":false,"is_disabled":false,"rental_uris":{"android":"levelo://app?vid=0b584dbc-5deb-4443-92e7-1ee75c2c8eca","ios":"levelo://app?vid=0b584dbc-5deb-4443-92e7-1ee75c2c8eca"},"vehicle_type_id":"4","last_reported":1762877578,"current_range_meters":8800,"station_id":"ce4bh392rcd13ifvqdl0","pricing_plan_id":"cebpf4jnsgd1na2vs0mg"},{"bike_id":"126612f2-708a-4c05-ae21-42f45903b1f4","system_id":"levelo_inurba_marseille","lat":43.25726,"lon":5.411113,"is_reserved":false,"is_disabled":false,"rental_uris":{"android":"levelo://app?vid=126612f2-708a-4c05-ae21-42f45903b1f4","ios":"levelo://app?vid=126612f2-708a-4c05-ae21-42f45903b1f4"},"vehicle_type_id":"4","last_reported":1762877578,"current_range_meters":8800,"station_id":"ce4bhkp2rcd13ifvqgd0","pricing_plan_id":"cebpf4jnsgd1na2vs0mg"},{"bike_id":"28421007-3f19-465b-afcb-06eda92f2c63","system_id":"levelo_inurba_marseille","lat":43.306504,"lon":5.365542,"is_reserved":false,"is_disabled":false,"rental_uris":{"android":"levelo://app?vid=28421007-3f19-465b-afcb-06eda92f2c63","ios":"levelo://app?vid=28421007-3f19-465b-afcb-06eda92f2c63"},"vehicle_type_id":"4","last_reported":1762877578,"current_range_meters":8800,"station_id":"","pricing_plan_id":"cebpf4jnsgd1na2vs0mg"},{"bike_id":"e99c476f-b245-4ce1-9785-e946d9f2f3f3","system_id":"levelo_inurba_marseille","lat":43.29024,"lon":5.38129,"is_reserved":false,"is_disabled":false,"rental_uris":{"android":"levelo://app?vid=e99c476f-b245-4ce1-9785-e946d9f2f3f3","ios":"levelo://app?vid=e99c476f-b245-4ce1-9785-e946d9f2f3f3"},"vehicle_type_id":"4","last_reported":1762877578,"current_range_meters":8800,"station_id":"ce4bh4p2rcd13ifvqe1g","pricing_plan_id":"cebpf4jnsgd1na2vs0mg"},{"bike_id":"e0467342-2ee8-4c36-aeb9-27d25d94ead5","system_id":"levelo_inurba_marseille","lat":43.28148,"lon":5.42641,"is_reserved":false,"is_disabled":true,"rental_uris":{"android":"levelo://app?vid=e0467342-2ee8-4c36-aeb9-27d25d94ead5","ios":"levelo://app?vid=e0467342-2ee8-4c36-aeb9-27d25d94ead5"},"vehicle_type_id":"4","last_reported":1762877578,"current_range_meters":8800,"station_id":"ce4bhnh2rcd13ifvqgug","pricing_plan_id":"cebpf4jnsgd1na2vs0mg"},{"bike_id":"f95f3f73-3fb7-4719-9721-184007335752","system_id":"levelo_inurba_marseille","lat":43.27973,"lon":5.411735,"is_reserved":false,"is_disabled":false,"rental_uris":{"android":"levelo://app?vid=f95f3f73-3fb7-4719-9721-184007335752","ios":"levelo://app?vid=f95f3f73-3fb7-4719-9721-184007335752"},"vehicle_type_id":"4","last_reported":1762877578,"current_range_meters":9200,"station_id":"","pricing_plan_id":"cebpf4jnsgd1na2vs0mg"},{"bike_id":"6e6913ab-5565-44c2-bf61-26805575b411","system_id":"levelo_inurba_marseille","lat":43.2983,"lon":5.4407,"is_reserved":false,"is_disabled":false,"rental_uris":{"android":"levelo://app?vid=6e6913ab-5565-44c2-bf61-26805575b411","ios":"levelo://app?vid=6e6913ab-5565-44c2-bf61-26805575b411"},"vehicle_type_id":"4","last_reported":1762877578,"current_range_meters":9200,"station_id":"st_d3jp68qikq2c7381ktn0","pricing_plan_id":"cebpf4jnsgd1na2vs0mg"},{"bike_id":"864a0d02-9531-431a-8a76-b35c1602d07b","system_id":"levelo_inurba_marseille","lat":43.27321,"lon":5.39075,"is_reserved":false,"is_disabled":false,"rental_uris":{"android":"levelo://app?vid=864a0d02-9531-431a-8a76-b35c1602d07b","ios":"levelo://app?vid=864a0d02-9531-431a-8a76-b35c1602d07b"},"vehicle_type_id":"4","last_reported":1762877578,"current_range_meters":9200,"station_id":"ce4bhgp2rcd13ifvqfe0","pricing_plan_id":"cebpf4jnsgd1na2vs0mg"},{"bike_id":"0a0d87ee-447f-48c7-a9cd-e00ba4e992a2","system_id":"levelo_inurba_marseille","lat":43.28875,"lon":5.42507,"is_reserved":false,"is_disabled":false,"rental_uris":{"android":"levelo://app?vid=0a0d87ee-447f-48c7-a9cd-e00ba4e992a2","ios":"levelo://app?vid=0a0d87ee-447f-48c7-a9cd-e00ba4e992a2"},"vehicle_type_id":"4","last_reported":1762877578,"current_range_meters":9200,"station_id":"st_d3b462108ojc7389ooeg","pricing_plan_id":"cebpf4jnsgd1na2vs0mg"},{"bike_id":"deae55fe-c2e6-4891-80bc-fc5795b5be3a","system_id":"levelo_inurba_marseille","lat":43.29844,"lon":5.36276,"is_reserved":false,"is_disabled":false,"rental_uris":{"android":"levelo://app?vid=deae55fe-c2e6-4891-80bc-fc5795b5be3a","ios":"levelo://app?vid=deae55fe-c2e6-4891-80bc-fc5795b5be3a"},"vehicle_type_id":"4","last_reported":1762877578,"current_range_meters":9200,"station_id":"ce4bgpp2rcd13ifvqc3g","pricing_plan_id":"cebpf4jnsgd1na2vs0mg"},{"bike_id":"d14a3070-960e-421d-b5dc-419b8cc88005","system_id":"levelo_inurba_marseille","lat":43.31576,"lon":5.37692,"is_reserved":false,"is_disabled":false,"rental_uris":{"android":"levelo://app?vid=d14a3070-960e-421d-b5dc-419b8cc88005","ios":"levelo://app?vid=d14a3070-960e-421d-b5dc-419b8cc88005"},"vehicle_type_id":"4","last_reported":1762877578,"current_range_meters":9200,"station_id":"","pricing_plan_id":"cebpf4jnsgd1na2vs0mg"},{"bike_id":"42f22170-7b55-4a7b-926c-343866fcc9e3","system_id":"levelo_inurba_marseille","lat":43.31716,"lon":5.43707,"is_reserved":false,"is_disabled":false,"rental_uris":{"android":"levelo://app?vid=42f22170-7b55-4a7b-926c-343866fcc9e3","ios":"levelo://app?vid=42f22170-7b55-4a7b-926c-343866fcc9e3"},"vehicle_type_id":"4","last_reported":1762877578,"current_range_meters":9200,"station_id":"ce4bhp92rcd13ifvqhcg","pricing_plan_id":"cebpf4jnsgd1na2vs0mg"},{"bike_id":"1683afbd-17d9-4f70-9550-22dfe5fdf0f7","system_id":"levelo_inurba_marseille","lat":43.2971,"lon":5.37705,"is_reserved":false,"is_disabled":false,"rental_uris":{"android":"levelo://app?vid=1683afbd-17d9-4f70-9550-22dfe5fdf0f7","ios":"levelo://app?vid=1683afbd-17d9-4f70-9550-22dfe5fdf0f7"},"vehicle_type_id":"4","last_reported":1762877578,"current_range_meters":9600,"station_id":"ce4bgkh2rcd13ifvqbl0","pricing_plan_id":"cebpf4jnsgd1na2vs0mg"},{"bike_id":"34543d63-019d-4aa8-a0e6-49ed97d3bd9a","system_id":"levelo_inurba_marseille","lat":43.308396,"lon":5.392006,"is_reserved":false,"is_disabled":false,"rental_uris":{"android":"levelo://app?vid=34543d63-019d-4aa8-a0e6-49ed97d3bd9a","ios":"levelo://app?vid=34543d63-019d-4aa8-a0e6-49ed97d3bd9a"},"vehicle_type_id":"4","last_reported":1762877578,"current_range_meters":9600,"station_id":"ce4bgup2rcd13ifvqco0","pricing_plan_id":"cebpf4jnsgd1na2vs0mg"},{"bike_id":"2544dc24-2753-40d4-9ec2-f98b282dc4d4","system_id":"levelo_inurba_marseille","lat":43.30643,"lon":5.40097,"is_reserved":false,"is_disabled":false,"rental_uris":{"android":"levelo://app?vid=2544dc24-2753-40d4-9ec2-f98b282dc4d4","ios":"levelo://app?vid=2544dc24-2753-40d4-9ec2-f98b282dc4d4"},"vehicle_type_id":"4","last_reported":1762877578,"current_range_meters":9600,"station_id":"ce4bh112rcd13ifvqda0","pricing_plan_id":"cebpf4jnsgd1na2vs0mg"},{"bike_id":"1b45bb62-6458-42f0-907a-e6352f15e20d","system_id":"levelo_inurba_marseille","lat":43.291048,"lon":5.381372,"is_reserved":false,"is_disabled":false,"rental_uris":{"android":"levelo://app?vid=1b45bb62-6458-42f0-907a-e6352f15e20d","ios":"levelo://app?vid=1b45bb62-6458-42f0-907a-e6352f15e20d"},"vehicle_type_id":"4","last_reported":1762877578,"current_range_meters":9600,"station_id":"ce4bh512rcd13ifvqe2g","pricing_plan_id":"cebpf4jnsgd1na2vs0mg"},{"bike_id":"c17597f2-6d8d-4215-903f-6cc4ee2e5cc5","system_id":"levelo_inurba_marseille","lat":43.305359,"lon":5.365506,"is_reserved":false,"is_disabled":false,"rental_uris":{"android":"levelo://app?vid=c17597f2-6d8d-4215-903f-6cc4ee2e5cc5","ios":"levelo://app?vid=c17597f2-6d8d-4215-903f-6cc4ee2e5cc5"},"vehicle_type_id":"4","last_reported":1762877578,"current_range_meters":9600,"station_id":"ce4bgs12rcd13ifvqcag","pricing_plan_id":"cebpf4jnsgd1na2vs0mg"},{"bike_id":"8ef7ce26-d452-4492-878b-4b6256195ba7","system_id":"levelo_inurba_marseille","lat":43.290137,"lon":5.355994,"is_reserved":false,"is_disabled":false,"rental_uris":{"android":"levelo://app?vid=8ef7ce26-d452-4492-878b-4b6256195ba7","ios":"levelo://app?vid=8ef7ce26-d452-4492-878b-4b6256195ba7"},"vehicle_type_id":"4","last_reported":1762877578,"current_range_meters":9600,"station_id":"ce4bhb92rcd13ifvqen0","pricing_plan_id":"cebpf4jnsgd1na2vs0mg"},{"bike_id":"d71525b8-a218-47a5-81f5-3a80a51768a9","system_id":"levelo_inurba_marseille","lat":43.288452,"lon":5.393072,"is_reserved":false,"is_disabled":false,"rental_uris":{"android":"levelo://app?vid=d71525b8-a218-47a5-81f5-3a80a51768a9","ios":"levelo://app?vid=d71525b8-a218-47a5-81f5-3a80a51768a9"},"vehicle_type_id":"4","last_reported":1762877578,"current_range_meters":9600,"station_id":"ce4bh2p2rcd13ifvqdi0","pricing_plan_id":"cebpf4jnsgd1na2vs0mg"},{"bike_id":"4b75f4f1-28cd-4ac7-9b5c-b069daf52b29","system_id":"levelo_inurba_marseille","lat":43.318,"lon":5.37416,"is_reserved":false,"is_disabled":false,"rental_uris":{"android":"levelo://app?vid=4b75f4f1-28cd-4ac7-9b5c-b069daf52b29","ios":"levelo://app?vid=4b75f4f1-28cd-4ac7-9b5c-b069daf52b29"},"vehicle_type_id":"4","last_reported":1762877578,"current_range_meters":10000,"station_id":"","pricing_plan_id":"cebpf4jnsgd1na2vs0mg"},{"bike_id":"69aff1d4-05e6-4619-92db-0e4a943e4f45","system_id":"levelo_inurba_marseille","lat":43.304757,"lon":5.379051,"is_reserved":false,"is_disabled":true,"rental_uris":{"android":"levelo://app?vid=69aff1d4-05e6-4619-92db-0e4a943e4f45","ios":"levelo://app?vid=69aff1d4-05e6-4619-92db-0e4a943e4f45"},"vehicle_type_id":"4","last_reported":1762877578,"current_range_meters":10000,"station_id":"ce4bgup2rcd13ifvqcn0","pricing_plan_id":"cebpf4jnsgd1na2vs0mg"},{"bike_id":"b9ee5829-d1d5-4941-b61f-3442e9ef3cde","system_id":"levelo_inurba_marseille","lat":43.225288,"lon":5.348412,"is_reserved":false,"is_disabled":false,"rental_uris":{"android":"levelo://app?vid=b9ee5829-d1d5-4941-b61f-3442e9ef3cde","ios":"levelo://app?vid=b9ee5829-d1d5-4941-b61f-3442e9ef3cde"},"vehicle_type_id":"4","last_reported":1762877578,"current_range_meters":10000,"station_id":"","pricing_plan_id":"cebpf4jnsgd1na2vs0mg"},{"bike_id":"5bb896f2-dec6-4193-88dc-e86ff5a402fd","system_id":"levelo_inurba_marseille","lat":43.298093,"lon":5.440677,"is_reserved":false,"is_disabled":false,"rental_uris":{"android":"levelo://app?vid=5bb896f2-dec6-4193-88dc-e86ff5a402fd","ios":"levelo://app?vid=5bb896f2-dec6-4193-88dc-e86ff5a402fd"},"vehicle_type_id":"4","last_reported":1762877578,"current_range_meters":10000,"station_id":"st_d3jp68qikq2c7381ktn0","pricing_plan_id":"cebpf4jnsgd1na2vs0mg"},{"bike_id":"ec4ea487-3748-4488-9998-896990146323","system_id":"levelo_inurba_marseille","lat":43.29032,"lon":5.38653,"is_reserved":false,"is_disabled":false,"rental_uris":{"android":"levelo://app?vid=ec4ea487-3748-4488-9998-896990146323","ios":"levelo://app?vid=ec4ea487-3748-4488-9998-896990146323"},"vehicle_type_id":"4","last_reported":1762877578,"current_range_meters":10000,"station_id":"ce4bh4p2rcd13ifvqe0g","pricing_plan_id":"cebpf4jnsgd1na2vs0mg"},{"bike_id":"e353a1ee-d27e-4eaa-a347-37c6ba2eeb8e","system_id":"levelo_inurba_marseille","lat":43.24624,"lon":5.43149,"is_reserved":false,"is_disabled":false,"rental_uris":{"android":"levelo://app?vid=e353a1ee-d27e-4eaa-a347-37c6ba2eeb8e","ios":"levelo://app?vid=e353a1ee-d27e-4eaa-a347-37c6ba2eeb8e"},"vehicle_type_id":"4","last_reported":1762877578,"current_range_meters":10000,"station_id":"st_d2m6c4gdas8pm72e190g","pricing_plan_id":"cebpf4jnsgd1na2vs0mg"},{"bike_id":"5369ca34-7723-43dc-a1d0-03c4269b2e4a","system_id":"levelo_inurba_marseille","lat":43.31284,"lon":5.37817,"is_reserved":false,"is_disabled":false,"rental_uris":{"android":"levelo://app?vid=5369ca34-7723-43dc-a1d0-03c4269b2e4a","ios":"levelo://app?vid=5369ca34-7723-43dc-a1d0-03c4269b2e4a"},"vehicle_type_id":"4","last_reported":1762877578,"current_range_meters":10800,"station_id":"","pricing_plan_id":"cebpf4jnsgd1na2vs0mg"},{"bike_id":"ca40087c-ac4d-4cc4-9617-7babaed90c38","system_id":"levelo_inurba_marseille","lat":43.211954,"lon":5.350719,"is_reserved":false,"is_disabled":false,"rental_uris":{"android":"levelo://app?vid=ca40087c-ac4d-4cc4-9617-7babaed90c38","ios":"levelo://app?vid=ca40087c-ac4d-4cc4-9617-7babaed90c38"},"vehicle_type_id":"4","last_reported":1762877578,"current_range_meters":10800,"station_id":"","pricing_plan_id":"cebpf4jnsgd1na2vs0mg"},{"bike_id":"db6edfb4-200d-4341-b2bc-d4b7ad6d1c50","system_id":"levelo_inurba_marseille","lat":43.30214,"lon":5.3947,"is_reserved":false,"is_disabled":false,"rental_uris":{"android":"levelo://app?vid=db6edfb4-200d-4341-b2bc-d4b7ad6d1c50","ios":"levelo://app?vid=db6edfb4-200d-4341-b2bc-d4b7ad6d1c50"},"vehicle_type_id":"4","last_reported":1762877578,"current_range_meters":10800,"station_id":"ce4bh0p2rcd13ifvqd70","pricing_plan_id":"cebpf4jnsgd1na2vs0mg"},{"bike_id":"38060efd-ed0d-4fc8-a558-2a407ef2a801","system_id":"levelo_inurba_marseille","lat":43.316977,"lon":5.436895,"is_reserved":false,"is_disabled":false,"rental_uris":{"android":"levelo://app?vid=38060efd-ed0d-4fc8-a558-2a407ef2a801","ios":"levelo://app?vid=38060efd-ed0d-4fc8-a558-2a407ef2a801"},"vehicle_type_id":"4","last_reported":1762877578,"current_range_meters":10800,"station_id":"ce4bhp92rcd13ifvqhcg","pricing_plan_id":"cebpf4jnsgd1na2vs0mg"},{"bike_id":"18e7d3ea-3c5a-46e7-adc7-d30c6dd80a6c","system_id":"levelo_inurba_marseille","lat":43.30527,"lon":5.36552,"is_reserved":false,"is_disabled":false,"rental_uris":{"android":"levelo://app?vid=18e7d3ea-3c5a-46e7-adc7-d30c6dd80a6c","ios":"levelo://app?vid=18e7d3ea-3c5a-46e7-adc7-d30c6dd80a6c"},"vehicle_type_id":"4","last_reported":1762877578,"current_range_meters":10800,"station_id":"ce4bgs12rcd13ifvqcag","pricing_plan_id":"cebpf4jnsgd1na2vs0mg"},{"bike_id":"a08765e5-c52c-45c9-9cd5-bf6d0b8a23dd","system_id":"levelo_inurba_marseille","lat":43.33157,"lon":5.37687,"is_reserved":false,"is_disabled":false,"rental_uris":{"android":"levelo://app?vid=a08765e5-c52c-45c9-9cd5-bf6d0b8a23dd","ios":"levelo://app?vid=a08765e5-c52c-45c9-9cd5-bf6d0b8a23dd"},"vehicle_type_id":"4","last_reported":1762877578,"current_range_meters":10800,"station_id":"st_d46cu089ee8s73dldbu0","pricing_plan_id":"cebpf4jnsgd1na2vs0mg"},{"bike_id":"c5972d04-4f2a-4646-ae90-eb007a82fe19","system_id":"levelo_inurba_marseille","lat":43.23051,"lon":5.35499,"is_reserved":false,"is_disabled":false,"rental_uris":{"android":"levelo://app?vid=c5972d04-4f2a-4646-ae90-eb007a82fe19","ios":"levelo://app?vid=c5972d04-4f2a-4646-ae90-eb007a82fe19"},"vehicle_type_id":"4","last_reported":1762877578,"current_range_meters":10800,"station_id":"cpo3342slgdg3j2ifvpg","pricing_plan_id":"cebpf4jnsgd1na2vs0mg"},{"bike_id":"08ac4323-e5ee-479f-8592-aec370f54dc4","system_id":"levelo_inurba_marseille","lat":43.27621,"lon":5.3611,"is_reserved":false,"is_disabled":false,"rental_uris":{"android":"levelo://app?vid=08ac4323-e5ee-479f-8592-aec370f54dc4","ios":"levelo://app?vid=08ac4323-e5ee-479f-8592-aec370f54dc4"},"vehicle_type_id":"4","last_reported":1762877578,"current_range_meters":10800,"station_id":"ce4bgj92rcd13ifvqbe0","pricing_plan_id":"cebpf4jnsgd1na2vs0mg"},{"bike_id":"4585539a-ba80-465b-83a6-4a31cabac938","system_id":"levelo_inurba_marseille","lat":43.28479,"lon":5.48391,"is_reserved":false,"is_disabled":false,"rental_uris":{"android":"levelo://app?vid=4585539a-ba80-465b-83a6-4a31cabac938","ios":"levelo://app?vid=4585539a-ba80-465b-83a6-4a31cabac938"},"vehicle_type_id":"4","last_reported":1762877578,"current_range_meters":10800,"station_id":"st_d3svhcjqgbts73a3dn0g","pricing_plan_id":"cebpf4jnsgd1na2vs0mg"},{"bike_id":"bcec3f19-205d-4d8d-af41-1729aa329635","system_id":"levelo_inurba_marseille","lat":43.27972,"lon":5.41041,"is_reserved":false,"is_disabled":false,"rental_uris":{"android":"levelo://app?vid=bcec3f19-205d-4d8d-af41-1729aa329635","ios":"levelo://app?vid=bcec3f19-205d-4d8d-af41-1729aa329635"},"vehicle_type_id":"4","last_reported":1762877578,"current_range_meters":10800,"station_id":"ce4bhnp2rcd13ifvqh0g","pricing_plan_id":"cebpf4jnsgd1na2vs0mg"},{"bike_id":"ff816b15-b63f-4d48-851e-9e53205a9632","system_id":"levelo_inurba_marseille","lat":43.28665,"lon":5.36354,"is_reserved":false,"is_disabled":false,"rental_uris":{"android":"levelo://app?vid=ff816b15-b63f-4d48-851e-9e53205a9632","ios":"levelo://app?vid=ff816b15-b63f-4d48-851e-9e53205a9632"},"vehicle_type_id":"4","last_reported":1762877578,"current_range_meters":10800,"station_id":"ce4bhah2rcd13ifvqej0","pricing_plan_id":"cebpf4jnsgd1na2vs0mg"},{"bike_id":"c31c777a-98fe-41ff-97ce-d6c4cffecca1","system_id":"levelo_inurba_marseille","lat":43.29558,"lon":5.42296,"is_reserved":false,"is_disabled":false,"rental_uris":{"android":"levelo://app?vid=c31c777a-98fe-41ff-97ce-d6c4cffecca1","ios":"levelo://app?vid=c31c777a-98fe-41ff-97ce-d6c4cffecca1"},"vehicle_type_id":"4","last_reported":1762877578,"current_range_meters":10800,"station_id":"ce4bhph2rcd13ifvqhdg","pricing_plan_id":"cebpf4jnsgd1na2vs0mg"},{"bike_id":"dccf1513-fc7a-4938-9d56-95a15c8ddf92","system_id":"levelo_inurba_marseille","lat":43.24072,"lon":5.37763,"is_reserved":false,"is_disabled":false,"rental_uris":{"android":"levelo://app?vid=dccf1513-fc7a-4938-9d56-95a15c8ddf92","ios":"levelo://app?vid=dccf1513-fc7a-4938-9d56-95a15c8ddf92"},"vehicle_type_id":"4","last_reported":1762877578,"current_range_meters":11200,"station_id":"ce4bhnp2rcd13ifvqgvg","pricing_plan_id":"cebpf4jnsgd1na2vs0mg"},{"bike_id":"38c922e6-37cd-47dc-af88-f07475112c2a","system_id":"levelo_inurba_marseille","lat":43.32116,"lon":5.38846,"is_reserved":false,"is_disabled":false,"rental_uris":{"android":"levelo://app?vid=38c922e6-37cd-47dc-af88-f07475112c2a","ios":"levelo://app?vid=38c922e6-37cd-47dc-af88-f07475112c2a"},"vehicle_type_id":"4","last_reported":1762877578,"current_range_meters":11200,"station_id":"","pricing_plan_id":"cebpf4jnsgd1na2vs0mg"},{"bike_id":"65c1994f-92e8-44a6-a17d-ffbd6d886f49","system_id":"levelo_inurba_marseille","lat":43.280974,"lon":5.378361,"is_reserved":false,"is_disabled":false,"rental_uris":{"android":"levelo://app?vid=65c1994f-92e8-44a6-a17d-ffbd6d886f49","ios":"levelo://app?vid=65c1994f-92e8-44a6-a17d-ffbd6d886f49"},"vehicle_type_id":"4","last_reported":1762877578,"current_range_meters":11200,"station_id":"ce4bha12rcd13ifvqee0","pricing_plan_id":"cebpf4jnsgd1na2vs0mg"},{"bike_id":"d5c20c9a-63f2-4da0-83cb-19664259dbc3","system_id":"levelo_inurba_marseille","lat":43.28477,"lon":5.38539,"is_reserved":false,"is_disabled":false,"rental_uris":{"android":"levelo://app?vid=d5c20c9a-63f2-4da0-83cb-19664259dbc3","ios":"levelo://app?vid=d5c20c9a-63f2-4da0-83cb-19664259dbc3"},"vehicle_type_id":"4","last_reported":1762877578,"current_range_meters":11200,"station_id":"ce4bh8p2rcd13ifvqeb0","pricing_plan_id":"cebpf4jnsgd1na2vs0mg"},{"bike_id":"bcd03af1-0a6f-420f-8cd8-e76f739ecf22","system_id":"levelo_inurba_marseille","lat":43.25569,"lon":5.38237,"is_reserved":false,"is_disabled":false,"rental_uris":{"android":"levelo://app?vid=bcd03af1-0a6f-420f-8cd8-e76f739ecf22","ios":"levelo://app?vid=bcd03af1-0a6f-420f-8cd8-e76f739ecf22"},"vehicle_type_id":"4","last_reported":1762877578,"current_range_meters":11200,"station_id":"ce4bhih2rcd13ifvqfs0","pricing_plan_id":"cebpf4jnsgd1na2vs0mg"},{"bike_id":"18d16ddf-aa2e-4a35-86fe-b52941b57276","system_id":"levelo_inurba_marseille","lat":43.28866,"lon":5.42509,"is_reserved":false,"is_disabled":false,"rental_uris":{"android":"levelo://app?vid=18d16ddf-aa2e-4a35-86fe-b52941b57276","ios":"levelo://app?vid=18d16ddf-aa2e-4a35-86fe-b52941b57276"},"vehicle_type_id":"4","last_reported":1762877578,"current_range_meters":11200,"station_id":"st_d3b462108ojc7389ooeg","pricing_plan_id":"cebpf4jnsgd1na2vs0mg"},{"bike_id":"a50b9468-18c2-4f78-864f-a4082a7e264c","system_id":"levelo_inurba_marseille","lat":43.310804,"lon":5.37843,"is_reserved":false,"is_disabled":false,"rental_uris":{"android":"levelo://app?vid=a50b9468-18c2-4f78-864f-a4082a7e264c","ios":"levelo://app?vid=a50b9468-18c2-4f78-864f-a4082a7e264c"},"vehicle_type_id":"4","last_reported":1762877578,"current_range_meters":11200,"station_id":"ce4bgt92rcd13ifvqcg0","pricing_plan_id":"cebpf4jnsgd1na2vs0mg"},{"bike_id":"280c0351-de55-4ec5-a9ba-a0c54313f50d","system_id":"levelo_inurba_marseille","lat":43.237844,"lon":5.36628,"is_reserved":false,"is_disabled":false,"rental_uris":{"android":"levelo://app?vid=280c0351-de55-4ec5-a9ba-a0c54313f50d","ios":"levelo://app?vid=280c0351-de55-4ec5-a9ba-a0c54313f50d"},"vehicle_type_id":"4","last_reported":1762877578,"current_range_meters":11200,"station_id":"st_d3nk18o9ro0c73en2l3g","pricing_plan_id":"cebpf4jnsgd1na2vs0mg"},{"bike_id":"1b5be03e-768e-46f0-b152-16af9f81cff1","system_id":"levelo_inurba_marseille","lat":43.309322,"lon":5.401366,"is_reserved":false,"is_disabled":true,"rental_uris":{"android":"levelo://app?vid=1b5be03e-768e-46f0-b152-16af9f81cff1","ios":"levelo://app?vid=1b5be03e-768e-46f0-b152-16af9f81cff1"},"vehicle_type_id":"4","last_reported":1762877578,"current_range_meters":11600,"station_id":"","pricing_plan_id":"cebpf4jnsgd1na2vs0mg"},{"bike_id":"c6e04b93-8143-4df3-96d3-73696f66f981","system_id":"levelo_inurba_marseille","lat":43.31223,"lon":5.36856,"is_reserved":false,"is_disabled":false,"rental_uris":{"android":"levelo://app?vid=c6e04b93-8143-4df3-96d3-73696f66f981","ios":"levelo://app?vid=c6e04b93-8143-4df3-96d3-73696f66f981"},"vehicle_type_id":"4","last_reported":1762877578,"current_range_meters":11600,"station_id":"ce4bgl92rcd13ifvqbq0","pricing_plan_id":"cebpf4jnsgd1na2vs0mg"},{"bike_id":"1198d30d-1d79-4711-ac2c-d13e83326af8","system_id":"levelo_inurba_marseille","lat":43.286157,"lon":5.351037,"is_reserved":false,"is_disabled":false,"rental_uris":{"android":"levelo://app?vid=1198d30d-1d79-4711-ac2c-d13e83326af8","ios":"levelo://app?vid=1198d30d-1d79-4711-ac2c-d13e83326af8"},"vehicle_type_id":"4","last_reported":1762877578,"current_range_meters":11600,"station_id":"ce4bhch2rcd13ifvqeug","pricing_plan_id":"cebpf4jnsgd1na2vs0mg"},{"bike_id":"c0fea017-2183-4bea-8e99-5ce3eb72b868","system_id":"levelo_inurba_marseille","lat":43.3171,"lon":5.37757,"is_reserved":false,"is_disabled":false,"rental_uris":{"android":"levelo://app?vid=c0fea017-2183-4bea-8e99-5ce3eb72b868","ios":"levelo://app?vid=c0fea017-2183-4bea-8e99-5ce3eb72b868"},"vehicle_type_id":"4","last_reported":1762877578,"current_range_meters":11600,"station_id":"ce4bgth2rcd13ifvqch0","pricing_plan_id":"cebpf4jnsgd1na2vs0mg"},{"bike_id":"613cdcf0-7022-4fb8-931c-792251e0e70c","system_id":"levelo_inurba_marseille","lat":43.290098,"lon":5.35604,"is_reserved":false,"is_disabled":false,"rental_uris":{"android":"levelo://app?vid=613cdcf0-7022-4fb8-931c-792251e0e70c","ios":"levelo://app?vid=613cdcf0-7022-4fb8-931c-792251e0e70c"},"vehicle_type_id":"4","last_reported":1762877578,"current_range_meters":11600,"station_id":"ce4bhb92rcd13ifvqen0","pricing_plan_id":"cebpf4jnsgd1na2vs0mg"},{"bike_id":"d54952de-c2c9-4463-b55a-b35b39e9463c","system_id":"levelo_inurba_marseille","lat":43.2982,"lon":5.44068,"is_reserved":false,"is_disabled":false,"rental_uris":{"android":"levelo://app?vid=d54952de-c2c9-4463-b55a-b35b39e9463c","ios":"levelo://app?vid=d54952de-c2c9-4463-b55a-b35b39e9463c"},"vehicle_type_id":"4","last_reported":1762877578,"current_range_meters":11600,"station_id":"st_d3jp68qikq2c7381ktn0","pricing_plan_id":"cebpf4jnsgd1na2vs0mg"},{"bike_id":"a16cbf81-9d8a-411a-9266-02dec5f4081d","system_id":"levelo_inurba_marseille","lat":43.28612,"lon":5.35099,"is_reserved":false,"is_disabled":false,"rental_uris":{"android":"levelo://app?vid=a16cbf81-9d8a-411a-9266-02dec5f4081d","ios":"levelo://app?vid=a16cbf81-9d8a-411a-9266-02dec5f4081d"},"vehicle_type_id":"4","last_reported":1762877578,"current_range_meters":12000,"station_id":"ce4bhch2rcd13ifvqeug","pricing_plan_id":"cebpf4jnsgd1na2vs0mg"},{"bike_id":"3871ebcf-4a28-4b22-beb9-9220e15dd9fe","system_id":"levelo_inurba_marseille","lat":43.28483,"lon":5.48392,"is_reserved":false,"is_disabled":false,"rental_uris":{"android":"levelo://app?vid=3871ebcf-4a28-4b22-beb9-9220e15dd9fe","ios":"levelo://app?vid=3871ebcf-4a28-4b22-beb9-9220e15dd9fe"},"vehicle_type_id":"4","last_reported":1762877578,"current_range_meters":12000,"station_id":"st_d3svhcjqgbts73a3dn0g","pricing_plan_id":"cebpf4jnsgd1na2vs0mg"},{"bike_id":"35a2a8d1-3a86-421b-8414-de0a1f4bb3bf","system_id":"levelo_inurba_marseille","lat":43.27825,"lon":5.39207,"is_reserved":false,"is_disabled":false,"rental_uris":{"android":"levelo://app?vid=35a2a8d1-3a86-421b-8414-de0a1f4bb3bf","ios":"levelo://app?vid=35a2a8d1-3a86-421b-8414-de0a1f4bb3bf"},"vehicle_type_id":"4","last_reported":1762877578,"current_range_meters":12000,"station_id":"ce4bhjp2rcd13ifvqga0","pricing_plan_id":"cebpf4jnsgd1na2vs0mg"},{"bike_id":"02b1907e-1afa-46ae-9c00-7d1129cf2388","system_id":"levelo_inurba_marseille","lat":43.28421,"lon":5.35004,"is_reserved":false,"is_disabled":false,"rental_uris":{"android":"levelo://app?vid=02b1907e-1afa-46ae-9c00-7d1129cf2388","ios":"levelo://app?vid=02b1907e-1afa-46ae-9c00-7d1129cf2388"},"vehicle_type_id":"4","last_reported":1762877578,"current_range_meters":12000,"station_id":"ce4bhbh2rcd13ifvqepg","pricing_plan_id":"cebpf4jnsgd1na2vs0mg"},{"bike_id":"1398909a-7bfa-4114-b0bc-f351da08e34c","system_id":"levelo_inurba_marseille","lat":43.30543,"lon":5.3841,"is_reserved":false,"is_disabled":false,"rental_uris":{"android":"levelo://app?vid=1398909a-7bfa-4114-b0bc-f351da08e34c","ios":"levelo://app?vid=1398909a-7bfa-4114-b0bc-f351da08e34c"},"vehicle_type_id":"4","last_reported":1762877578,"current_range_meters":12000,"station_id":"ce4bgg92rcd13ifvqb30","pricing_plan_id":"cebpf4jnsgd1na2vs0mg"},{"bike_id":"c17ac620-1f06-4130-a90a-9a34cd35f76b","system_id":"levelo_inurba_marseille","lat":43.26466,"lon":5.39533,"is_reserved":false,"is_disabled":false,"rental_uris":{"android":"levelo://app?vid=c17ac620-1f06-4130-a90a-9a34cd35f76b","ios":"levelo://app?vid=c17ac620-1f06-4130-a90a-9a34cd35f76b"},"vehicle_type_id":"4","last_reported":1762877578,"current_range_meters":12000,"station_id":"ce4bhi12rcd13ifvqfq0","pricing_plan_id":"cebpf4jnsgd1na2vs0mg"},{"bike_id":"056a0bf2-3634-497e-b636-16fa0fad432f","system_id":"levelo_inurba_marseille","lat":43.28419,"lon":5.34982,"is_reserved":false,"is_disabled":false,"rental_uris":{"android":"levelo://app?vid=056a0bf2-3634-497e-b636-16fa0fad432f","ios":"levelo://app?vid=056a0bf2-3634-497e-b636-16fa0fad432f"},"vehicle_type_id":"4","last_reported":1762877578,"current_range_meters":12400,"station_id":"ce4bhbh2rcd13ifvqepg","pricing_plan_id":"cebpf4jnsgd1na2vs0mg"},{"bike_id":"4a392cd4-0e9e-4acc-9ed4-f14baadd93d7","system_id":"levelo_inurba_marseille","lat":43.32103,"lon":5.36789,"is_reserved":false,"is_disabled":false,"rental_uris":{"android":"levelo://app?vid=4a392cd4-0e9e-4acc-9ed4-f14baadd93d7","ios":"levelo://app?vid=4a392cd4-0e9e-4acc-9ed4-f14baadd93d7"},"vehicle_type_id":"4","last_reported":1762877578,"current_range_meters":12400,"station_id":"ce4bhrh2rcd13ifvqhug","pricing_plan_id":"cebpf4jnsgd1na2vs0mg"},{"bike_id":"69bcc9c9-16ef-4b05-a281-a3669c844e4b","system_id":"levelo_inurba_marseille","lat":43.22531,"lon":5.34843,"is_reserved":false,"is_disabled":false,"rental_uris":{"android":"levelo://app?vid=69bcc9c9-16ef-4b05-a281-a3669c844e4b","ios":"levelo://app?vid=69bcc9c9-16ef-4b05-a281-a3669c844e4b"},"vehicle_type_id":"4","last_reported":1762877578,"current_range_meters":12400,"station_id":"","pricing_plan_id":"cebpf4jnsgd1na2vs0mg"},{"bike_id":"7840ddce-9a02-42d5-9858-46364a019b08","system_id":"levelo_inurba_marseille","lat":43.28615,"lon":5.35103,"is_reserved":false,"is_disabled":false,"rental_uris":{"android":"levelo://app?vid=7840ddce-9a02-42d5-9858-46364a019b08","ios":"levelo://app?vid=7840ddce-9a02-42d5-9858-46364a019b08"},"vehicle_type_id":"4","last_reported":1762877578,"current_range_meters":12400,"station_id":"ce4bhch2rcd13ifvqeug","pricing_plan_id":"cebpf4jnsgd1na2vs0mg"},{"bike_id":"5a04390a-ad60-4fd6-bcf6-e75b8899a404","system_id":"levelo_inurba_marseille","lat":43.29046,"lon":5.39952,"is_reserved":false,"is_disabled":true,"rental_uris":{"android":"levelo://app?vid=5a04390a-ad60-4fd6-bcf6-e75b8899a404","ios":"levelo://app?vid=5a04390a-ad60-4fd6-bcf6-e75b8899a404"},"vehicle_type_id":"4","last_reported":1762877578,"current_range_meters":12400,"station_id":"ce4bh392rcd13ifvqdm0","pricing_plan_id":"cebpf4jnsgd1na2vs0mg"},{"bike_id":"69630d5c-ecf8-4565-85b0-a8f1ae8b002e","system_id":"levelo_inurba_marseille","lat":43.29005,"lon":5.35589,"is_reserved":false,"is_disabled":false,"rental_uris":{"android":"levelo://app?vid=69630d5c-ecf8-4565-85b0-a8f1ae8b002e","ios":"levelo://app?vid=69630d5c-ecf8-4565-85b0-a8f1ae8b002e"},"vehicle_type_id":"4","last_reported":1762877578,"current_range_meters":12400,"station_id":"ce4bhb92rcd13ifvqen0","pricing_plan_id":"cebpf4jnsgd1na2vs0mg"},{"bike_id":"172a1479-a5a8-4a14-96d6-945fbc77b377","system_id":"levelo_inurba_marseille","lat":43.319904,"lon":5.381534,"is_reserved":false,"is_disabled":false,"rental_uris":{"android":"levelo://app?vid=172a1479-a5a8-4a14-96d6-945fbc77b377","ios":"levelo://app?vid=172a1479-a5a8-4a14-96d6-945fbc77b377"},"vehicle_type_id":"4","last_reported":1762877578,"current_range_meters":12400,"station_id":"ce4bhr12rcd13ifvqhpg","pricing_plan_id":"cebpf4jnsgd1na2vs0mg"},{"bike_id":"c02cff02-c687-4d53-92c2-ff1bc23e8e21","system_id":"levelo_inurba_marseille","lat":43.284643,"lon":5.358857,"is_reserved":false,"is_disabled":false,"rental_uris":{"android":"levelo://app?vid=c02cff02-c687-4d53-92c2-ff1bc23e8e21","ios":"levelo://app?vid=c02cff02-c687-4d53-92c2-ff1bc23e8e21"},"vehicle_type_id":"4","last_reported":1762877578,"current_range_meters":12800,"station_id":"ce4bhah2rcd13ifvqei0","pricing_plan_id":"cebpf4jnsgd1na2vs0mg"},{"bike_id":"398b58dd-c6d3-4c19-b205-3b2c300890a1","system_id":"levelo_inurba_marseille","lat":43.21746,"lon":5.34603,"is_reserved":false,"is_disabled":false,"rental_uris":{"android":"levelo://app?vid=398b58dd-c6d3-4c19-b205-3b2c300890a1","ios":"levelo://app?vid=398b58dd-c6d3-4c19-b205-3b2c300890a1"},"vehicle_type_id":"4","last_reported":1762877578,"current_range_meters":12800,"station_id":"st_cvj6r9ubvosntc0bgbag","pricing_plan_id":"cebpf4jnsgd1na2vs0mg"},{"bike_id":"3be9a261-27db-46f1-80ec-1609473dd6a3","system_id":"levelo_inurba_marseille","lat":43.2121,"lon":5.35088,"is_reserved":false,"is_disabled":false,"rental_uris":{"android":"levelo://app?vid=3be9a261-27db-46f1-80ec-1609473dd6a3","ios":"levelo://app?vid=3be9a261-27db-46f1-80ec-1609473dd6a3"},"vehicle_type_id":"4","last_reported":1762877578,"current_range_meters":12800,"station_id":"st_cvj6sg6p6f1abm77japg","pricing_plan_id":"cebpf4jnsgd1na2vs0mg"},{"bike_id":"1402bd77-2690-4d77-a67d-0352eb1e81b2","system_id":"levelo_inurba_marseille","lat":43.2558,"lon":5.382303,"is_reserved":false,"is_disabled":false,"rental_uris":{"android":"levelo://app?vid=1402bd77-2690-4d77-a67d-0352eb1e81b2","ios":"levelo://app?vid=1402bd77-2690-4d77-a67d-0352eb1e81b2"},"vehicle_type_id":"4","last_reported":1762877578,"current_range_meters":12800,"station_id":"ce4bhih2rcd13ifvqfs0","pricing_plan_id":"cebpf4jnsgd1na2vs0mg"},{"bike_id":"fab26094-ccc2-46c3-93bd-f3aca1c42298","system_id":"levelo_inurba_marseille","lat":43.289007,"lon":5.359431,"is_reserved":false,"is_disabled":false,"rental_uris":{"android":"levelo://app?vid=fab26094-ccc2-46c3-93bd-f3aca1c42298","ios":"levelo://app?vid=fab26094-ccc2-46c3-93bd-f3aca1c42298"},"vehicle_type_id":"4","last_reported":1762877578,"current_range_meters":12800,"station_id":"ce4bhb12rcd13ifvqem0","pricing_plan_id":"cebpf4jnsgd1na2vs0mg"},{"bike_id":"1152c84a-a055-4f29-9b92-843214c87d0f","system_id":"levelo_inurba_marseille","lat":43.22554,"lon":5.41632,"is_reserved":false,"is_disabled":false,"rental_uris":{"android":"levelo://app?vid=1152c84a-a055-4f29-9b92-843214c87d0f","ios":"levelo://app?vid=1152c84a-a055-4f29-9b92-843214c87d0f"},"vehicle_type_id":"4","last_reported":1762877578,"current_range_meters":12800,"station_id":"st_d2o4gvlbi1j2169b742g","pricing_plan_id":"cebpf4jnsgd1na2vs0mg"},{"bike_id":"ac571466-1dc3-4aea-b277-4afec8514b82","system_id":"levelo_inurba_marseille","lat":43.279422,"lon":5.410418,"is_reserved":false,"is_disabled":false,"rental_uris":{"android":"levelo://app?vid=ac571466-1dc3-4aea-b277-4afec8514b82","ios":"levelo://app?vid=ac571466-1dc3-4aea-b277-4afec8514b82"},"vehicle_type_id":"4","last_reported":1762877578,"current_range_meters":12800,"station_id":"ce4bhnp2rcd13ifvqh0g","pricing_plan_id":"cebpf4jnsgd1na2vs0mg"},{"bike_id":"f0aea920-30bf-4416-8f7d-25ef9071af36","system_id":"levelo_inurba_marseille","lat":43.255815,"lon":5.382275,"is_reserved":false,"is_disabled":false,"rental_uris":{"android":"levelo://app?vid=f0aea920-30bf-4416-8f7d-25ef9071af36","ios":"levelo://app?vid=f0aea920-30bf-4416-8f7d-25ef9071af36"},"vehicle_type_id":"4","last_reported":1762877578,"current_range_meters":12800,"station_id":"ce4bhh92rcd13ifvqfi0","pricing_plan_id":"cebpf4jnsgd1na2vs0mg"},{"bike_id":"f4bed65a-08cc-476f-851c-069f4a7933fa","system_id":"levelo_inurba_marseille","lat":43.301409,"lon":5.387826,"is_reserved":false,"is_disabled":false,"rental_uris":{"android":"levelo://app?vid=f4bed65a-08cc-476f-851c-069f4a7933fa","ios":"levelo://app?vid=f4bed65a-08cc-476f-851c-069f4a7933fa"},"vehicle_type_id":"4","last_reported":1762877578,"current_range_meters":12800,"station_id":"ce4bghh2rcd13ifvqb60","pricing_plan_id":"cebpf4jnsgd1na2vs0mg"},{"bike_id":"722f7e0f-46d9-4be9-997c-6a53c83a7527","system_id":"levelo_inurba_marseille","lat":43.28032,"lon":5.36945,"is_reserved":false,"is_disabled":true,"rental_uris":{"android":"levelo://app?vid=722f7e0f-46d9-4be9-997c-6a53c83a7527","ios":"levelo://app?vid=722f7e0f-46d9-4be9-997c-6a53c83a7527"},"vehicle_type_id":"4","last_reported":1762877578,"current_range_meters":12800,"station_id":"ce4bha12rcd13ifvqef0","pricing_plan_id":"cebpf4jnsgd1na2vs0mg"},{"bike_id":"dc9399a6-68ac-4bce-a28c-89dbbb7d0681","system_id":"levelo_inurba_marseille","lat":43.28773,"lon":5.40827,"is_reserved":false,"is_disabled":true,"rental_uris":{"android":"levelo://app?vid=dc9399a6-68ac-4bce-a28c-89dbbb7d0681","ios":"levelo://app?vid=dc9399a6-68ac-4bce-a28c-89dbbb7d0681"},"vehicle_type_id":"4","last_reported":1762877578,"current_range_meters":12800,"station_id":"","pricing_plan_id":"cebpf4jnsgd1na2vs0mg"},{"bike_id":"e3d0320c-e35f-416b-ad43-5ce549ac2b39","system_id":"levelo_inurba_marseille","lat":43.26559,"lon":5.37285,"is_reserved":false,"is_disabled":false,"rental_uris":{"android":"levelo://app?vid=e3d0320c-e35f-416b-ad43-5ce549ac2b39","ios":"levelo://app?vid=e3d0320c-e35f-416b-ad43-5ce549ac2b39"},"vehicle_type_id":"4","last_reported":1762877578,"current_range_meters":12800,"station_id":"ce4bhg12rcd13ifvqf70","pricing_plan_id":"cebpf4jnsgd1na2vs0mg"},{"bike_id":"9a7c2dc7-2180-4633-bc7e-23c0c093b3c2","system_id":"levelo_inurba_marseille","lat":43.33029,"lon":5.3905,"is_reserved":false,"is_disabled":false,"rental_uris":{"android":"levelo://app?vid=9a7c2dc7-2180-4633-bc7e-23c0c093b3c2","ios":"levelo://app?vid=9a7c2dc7-2180-4633-bc7e-23c0c093b3c2"},"vehicle_type_id":"4","last_reported":1762877578,"current_range_meters":13600,"station_id":"ce4bhr92rcd13ifvqhrg","pricing_plan_id":"cebpf4jnsgd1na2vs0mg"},{"bike_id":"61abee72-ed22-4a91-8e51-82125a645cd5","system_id":"levelo_inurba_marseille","lat":43.311691,"lon":5.387401,"is_reserved":false,"is_disabled":false,"rental_uris":{"android":"levelo://app?vid=61abee72-ed22-4a91-8e51-82125a645cd5","ios":"levelo://app?vid=61abee72-ed22-4a91-8e51-82125a645cd5"},"vehicle_type_id":"4","last_reported":1762877578,"current_range_meters":13600,"station_id":"ce4bgv12rcd13ifvqcp0","pricing_plan_id":"cebpf4jnsgd1na2vs0mg"},{"bike_id":"8c4f22e8-8f17-4ae5-95d0-b42925f35d5e","system_id":"levelo_inurba_marseille","lat":43.28477,"lon":5.48405,"is_reserved":false,"is_disabled":false,"rental_uris":{"android":"levelo://app?vid=8c4f22e8-8f17-4ae5-95d0-b42925f35d5e","ios":"levelo://app?vid=8c4f22e8-8f17-4ae5-95d0-b42925f35d5e"},"vehicle_type_id":"4","last_reported":1762877578,"current_range_meters":13600,"station_id":"","pricing_plan_id":"cebpf4jnsgd1na2vs0mg"},{"bike_id":"c96cd2c3-1773-4c9c-87e7-eddbfacf9012","system_id":"levelo_inurba_marseille","lat":43.28934,"lon":5.39631,"is_reserved":false,"is_disabled":false,"rental_uris":{"android":"levelo://app?vid=c96cd2c3-1773-4c9c-87e7-eddbfacf9012","ios":"levelo://app?vid=c96cd2c3-1773-4c9c-87e7-eddbfacf9012"},"vehicle_type_id":"4","last_reported":1762877578,"current_range_meters":14000,"station_id":"ce4bh3h2rcd13ifvqdn0","pricing_plan_id":"cebpf4jnsgd1na2vs0mg"},{"bike_id":"28e36cd3-4665-4002-a55e-04a45eaa3992","system_id":"levelo_inurba_marseille","lat":43.331659,"lon":5.376929,"is_reserved":false,"is_disabled":false,"rental_uris":{"android":"levelo://app?vid=28e36cd3-4665-4002-a55e-04a45eaa3992","ios":"levelo://app?vid=28e36cd3-4665-4002-a55e-04a45eaa3992"},"vehicle_type_id":"4","last_reported":1762877578,"current_range_meters":14000,"station_id":"st_d46cu089ee8s73dldbu0","pricing_plan_id":"cebpf4jnsgd1na2vs0mg"},{"bike_id":"51bab4b9-b844-47fd-b05d-c2b54fbd4cae","system_id":"levelo_inurba_marseille","lat":43.28935,"lon":5.36638,"is_reserved":false,"is_disabled":false,"rental_uris":{"android":"levelo://app?vid=51bab4b9-b844-47fd-b05d-c2b54fbd4cae","ios":"levelo://app?vid=51bab4b9-b844-47fd-b05d-c2b54fbd4cae"},"vehicle_type_id":"4","last_reported":1762877578,"current_range_meters":14000,"station_id":"ce4bhap2rcd13ifvqek0","pricing_plan_id":"cebpf4jnsgd1na2vs0mg"},{"bike_id":"54136a75-1b65-49e2-bf0a-c8c60db77a9e","system_id":"levelo_inurba_marseille","lat":43.28851,"lon":5.35851,"is_reserved":false,"is_disabled":false,"rental_uris":{"android":"levelo://app?vid=54136a75-1b65-49e2-bf0a-c8c60db77a9e","ios":"levelo://app?vid=54136a75-1b65-49e2-bf0a-c8c60db77a9e"},"vehicle_type_id":"4","last_reported":1762877578,"current_range_meters":14400,"station_id":"ce4bhb12rcd13ifvqem0","pricing_plan_id":"cebpf4jnsgd1na2vs0mg"},{"bike_id":"44adcb76-c006-4072-ae0e-292678f5813f","system_id":"levelo_inurba_marseille","lat":43.28377,"lon":5.3498,"is_reserved":false,"is_disabled":false,"rental_uris":{"android":"levelo://app?vid=44adcb76-c006-4072-ae0e-292678f5813f","ios":"levelo://app?vid=44adcb76-c006-4072-ae0e-292678f5813f"},"vehicle_type_id":"4","last_reported":1762877578,"current_range_meters":14400,"station_id":"ce4bhbh2rcd13ifvqepg","pricing_plan_id":"cebpf4jnsgd1na2vs0mg"},{"bike_id":"64bb481c-383a-4f12-9b0e-7fa9ff637903","system_id":"levelo_inurba_marseille","lat":43.24803,"lon":5.37454,"is_reserved":false,"is_disabled":false,"rental_uris":{"android":"levelo://app?vid=64bb481c-383a-4f12-9b0e-7fa9ff637903","ios":"levelo://app?vid=64bb481c-383a-4f12-9b0e-7fa9ff637903"},"vehicle_type_id":"4","last_reported":1762877578,"current_range_meters":14400,"station_id":"ce4bhgh2rcd13ifvqfb0","pricing_plan_id":"cebpf4jnsgd1na2vs0mg"},{"bike_id":"2ee5ad5a-d514-4b06-beb7-bf0dafd642af","system_id":"levelo_inurba_marseille","lat":43.2558,"lon":5.38241,"is_reserved":false,"is_disabled":false,"rental_uris":{"android":"levelo://app?vid=2ee5ad5a-d514-4b06-beb7-bf0dafd642af","ios":"levelo://app?vid=2ee5ad5a-d514-4b06-beb7-bf0dafd642af"},"vehicle_type_id":"4","last_reported":1762877578,"current_range_meters":14400,"station_id":"ce4bhih2rcd13ifvqfs0","pricing_plan_id":"cebpf4jnsgd1na2vs0mg"},{"bike_id":"795023e9-9f3d-4def-a691-a38f843fae35","system_id":"levelo_inurba_marseille","lat":43.29633,"lon":5.37243,"is_reserved":false,"is_disabled":false,"rental_uris":{"android":"levelo://app?vid=795023e9-9f3d-4def-a691-a38f843fae35","ios":"levelo://app?vid=795023e9-9f3d-4def-a691-a38f843fae35"},"vehicle_type_id":"4","last_reported":1762877578,"current_range_meters":14400,"station_id":"","pricing_plan_id":"cebpf4jnsgd1na2vs0mg"},{"bike_id":"db0b0614-6530-45e5-b50a-3a6905ded0f1","system_id":"levelo_inurba_marseille","lat":43.29966,"lon":5.38497,"is_reserved":false,"is_disabled":false,"rental_uris":{"android":"levelo://app?vid=db0b0614-6530-45e5-b50a-3a6905ded0f1","ios":"levelo://app?vid=db0b0614-6530-45e5-b50a-3a6905ded0f1"},"vehicle_type_id":"4","last_reported":1762877578,"current_range_meters":14400,"station_id":"ce4bgj92rcd13ifvqbd0","pricing_plan_id":"cebpf4jnsgd1na2vs0mg"},{"bike_id":"84aade2c-4b39-4bce-814f-cfa3d6ed46f7","system_id":"levelo_inurba_marseille","lat":43.28483,"lon":5.48387,"is_reserved":false,"is_disabled":false,"rental_uris":{"android":"levelo://app?vid=84aade2c-4b39-4bce-814f-cfa3d6ed46f7","ios":"levelo://app?vid=84aade2c-4b39-4bce-814f-cfa3d6ed46f7"},"vehicle_type_id":"4","last_reported":1762877578,"current_range_meters":14400,"station_id":"st_d3svhcjqgbts73a3dn0g","pricing_plan_id":"cebpf4jnsgd1na2vs0mg"},{"bike_id":"b259621f-2fe6-4b30-92e0-2292fee32f1f","system_id":"levelo_inurba_marseille","lat":43.28029,"lon":5.36933,"is_reserved":false,"is_disabled":true,"rental_uris":{"android":"levelo://app?vid=b259621f-2fe6-4b30-92e0-2292fee32f1f","ios":"levelo://app?vid=b259621f-2fe6-4b30-92e0-2292fee32f1f"},"vehicle_type_id":"4","last_reported":1762877578,"current_range_meters":14400,"station_id":"ce4bha12rcd13ifvqef0","pricing_plan_id":"cebpf4jnsgd1na2vs0mg"},{"bike_id":"3675fcb9-4257-4c23-936c-1064c6107c79","system_id":"levelo_inurba_marseille","lat":43.28865,"lon":5.425167,"is_reserved":false,"is_disabled":false,"rental_uris":{"android":"levelo://app?vid=3675fcb9-4257-4c23-936c-1064c6107c79","ios":"levelo://app?vid=3675fcb9-4257-4c23-936c-1064c6107c79"},"vehicle_type_id":"4","last_reported":1762877578,"current_range_meters":14400,"station_id":"st_d3b462108ojc7389ooeg","pricing_plan_id":"cebpf4jnsgd1na2vs0mg"},{"bike_id":"213975c6-6e31-4c90-8e15-07f37920929e","system_id":"levelo_inurba_marseille","lat":43.28952,"lon":5.36407,"is_reserved":false,"is_disabled":false,"rental_uris":{"android":"levelo://app?vid=213975c6-6e31-4c90-8e15-07f37920929e","ios":"levelo://app?vid=213975c6-6e31-4c90-8e15-07f37920929e"},"vehicle_type_id":"4","last_reported":1762877578,"current_range_meters":14400,"station_id":"ce4bhc92rcd13ifvqetg","pricing_plan_id":"cebpf4jnsgd1na2vs0mg"},{"bike_id":"e8df7049-0a65-49fb-ada7-c6598bef5a1d","system_id":"levelo_inurba_marseille","lat":43.2894,"lon":5.36638,"is_reserved":false,"is_disabled":false,"rental_uris":{"android":"levelo://app?vid=e8df7049-0a65-49fb-ada7-c6598bef5a1d","ios":"levelo://app?vid=e8df7049-0a65-49fb-ada7-c6598bef5a1d"},"vehicle_type_id":"4","last_reported":1762877578,"current_range_meters":14800,"station_id":"ce4bhap2rcd13ifvqek0","pricing_plan_id":"cebpf4jnsgd1na2vs0mg"},{"bike_id":"801f5440-0a6e-48a5-b490-3460935d1ac2","system_id":"levelo_inurba_marseille","lat":43.28616,"lon":5.35106,"is_reserved":false,"is_disabled":false,"rental_uris":{"android":"levelo://app?vid=801f5440-0a6e-48a5-b490-3460935d1ac2","ios":"levelo://app?vid=801f5440-0a6e-48a5-b490-3460935d1ac2"},"vehicle_type_id":"4","last_reported":1762877578,"current_range_meters":14800,"station_id":"ce4bhch2rcd13ifvqeug","pricing_plan_id":"cebpf4jnsgd1na2vs0mg"},{"bike_id":"9494badb-62fb-4c68-9341-a3c5ce6efee9","system_id":"levelo_inurba_marseille","lat":43.27065,"lon":5.40256,"is_reserved":false,"is_disabled":false,"rental_uris":{"android":"levelo://app?vid=9494badb-62fb-4c68-9341-a3c5ce6efee9","ios":"levelo://app?vid=9494badb-62fb-4c68-9341-a3c5ce6efee9"},"vehicle_type_id":"4","last_reported":1762877578,"current_range_meters":14800,"station_id":"ce4bhk92rcd13ifvqgc0","pricing_plan_id":"cebpf4jnsgd1na2vs0mg"},{"bike_id":"43d98165-dcc3-4647-9225-7d490738e4df","system_id":"levelo_inurba_marseille","lat":43.299404,"lon":5.365585,"is_reserved":false,"is_disabled":false,"rental_uris":{"android":"levelo://app?vid=43d98165-dcc3-4647-9225-7d490738e4df","ios":"levelo://app?vid=43d98165-dcc3-4647-9225-7d490738e4df"},"vehicle_type_id":"4","last_reported":1762877578,"current_range_meters":15200,"station_id":"ce4bgm92rcd13ifvqbr0","pricing_plan_id":"cebpf4jnsgd1na2vs0mg"},{"bike_id":"b8e9ba9e-882c-43da-b21e-068c4a6a0e13","system_id":"levelo_inurba_marseille","lat":43.279058,"lon":5.380091,"is_reserved":false,"is_disabled":false,"rental_uris":{"android":"levelo://app?vid=b8e9ba9e-882c-43da-b21e-068c4a6a0e13","ios":"levelo://app?vid=b8e9ba9e-882c-43da-b21e-068c4a6a0e13"},"vehicle_type_id":"4","last_reported":1762877578,"current_range_meters":15200,"station_id":"ce4bhf92rcd13ifvqf50","pricing_plan_id":"cebpf4jnsgd1na2vs0mg"},{"bike_id":"e13b78db-2231-48a0-b9e0-a153f32a43f4","system_id":"levelo_inurba_marseille","lat":43.230529,"lon":5.354966,"is_reserved":false,"is_disabled":false,"rental_uris":{"android":"levelo://app?vid=e13b78db-2231-48a0-b9e0-a153f32a43f4","ios":"levelo://app?vid=e13b78db-2231-48a0-b9e0-a153f32a43f4"},"vehicle_type_id":"4","last_reported":1762877578,"current_range_meters":15200,"station_id":"cpo3342slgdg3j2ifvpg","pricing_plan_id":"cebpf4jnsgd1na2vs0mg"},{"bike_id":"c47023ab-2905-4a00-af93-ffd0b768cdc9","system_id":"levelo_inurba_marseille","lat":43.28857,"lon":5.42537,"is_reserved":false,"is_disabled":false,"rental_uris":{"android":"levelo://app?vid=c47023ab-2905-4a00-af93-ffd0b768cdc9","ios":"levelo://app?vid=c47023ab-2905-4a00-af93-ffd0b768cdc9"},"vehicle_type_id":"4","last_reported":1762877578,"current_range_meters":15200,"station_id":"st_d3b462108ojc7389ooeg","pricing_plan_id":"cebpf4jnsgd1na2vs0mg"},{"bike_id":"ba7c52bc-5a91-493a-8960-60fa3784bb56","system_id":"levelo_inurba_marseille","lat":43.2861,"lon":5.37062,"is_reserved":false,"is_disabled":false,"rental_uris":{"android":"levelo://app?vid=ba7c52bc-5a91-493a-8960-60fa3784bb56","ios":"levelo://app?vid=ba7c52bc-5a91-493a-8960-60fa3784bb56"},"vehicle_type_id":"4","last_reported":1762877578,"current_range_meters":15200,"station_id":"ce4bht12rcd13ifvqi60","pricing_plan_id":"cebpf4jnsgd1na2vs0mg"},{"bike_id":"644346eb-4995-40d4-839d-eb78cbb8a283","system_id":"levelo_inurba_marseille","lat":43.25016,"lon":5.38917,"is_reserved":false,"is_disabled":false,"rental_uris":{"android":"levelo://app?vid=644346eb-4995-40d4-839d-eb78cbb8a283","ios":"levelo://app?vid=644346eb-4995-40d4-839d-eb78cbb8a283"},"vehicle_type_id":"4","last_reported":1762877578,"current_range_meters":15200,"station_id":"ce4bhgp2rcd13ifvqfd0","pricing_plan_id":"cebpf4jnsgd1na2vs0mg"},{"bike_id":"c6599029-32d3-402b-9e83-2b5fc73b324a","system_id":"levelo_inurba_marseille","lat":43.30208,"lon":5.39467,"is_reserved":false,"is_disabled":false,"rental_uris":{"android":"levelo://app?vid=c6599029-32d3-402b-9e83-2b5fc73b324a","ios":"levelo://app?vid=c6599029-32d3-402b-9e83-2b5fc73b324a"},"vehicle_type_id":"4","last_reported":1762877578,"current_range_meters":16000,"station_id":"ce4bh0p2rcd13ifvqd70","pricing_plan_id":"cebpf4jnsgd1na2vs0mg"},{"bike_id":"95c3e951-5207-4263-b8ca-3fd2ba9f2f9f","system_id":"levelo_inurba_marseille","lat":43.2846,"lon":5.35887,"is_reserved":false,"is_disabled":false,"rental_uris":{"android":"levelo://app?vid=95c3e951-5207-4263-b8ca-3fd2ba9f2f9f","ios":"levelo://app?vid=95c3e951-5207-4263-b8ca-3fd2ba9f2f9f"},"vehicle_type_id":"4","last_reported":1762877578,"current_range_meters":16000,"station_id":"ce4bhah2rcd13ifvqei0","pricing_plan_id":"cebpf4jnsgd1na2vs0mg"},{"bike_id":"f09b69fd-4220-4b51-8365-9a85828617f1","system_id":"levelo_inurba_marseille","lat":43.330268,"lon":5.390397,"is_reserved":false,"is_disabled":false,"rental_uris":{"android":"levelo://app?vid=f09b69fd-4220-4b51-8365-9a85828617f1","ios":"levelo://app?vid=f09b69fd-4220-4b51-8365-9a85828617f1"},"vehicle_type_id":"4","last_reported":1762877578,"current_range_meters":16000,"station_id":"ce4bhr92rcd13ifvqhrg","pricing_plan_id":"cebpf4jnsgd1na2vs0mg"},{"bike_id":"5fc7723c-7ca8-4d64-a051-eb916e0d3b97","system_id":"levelo_inurba_marseille","lat":43.28418,"lon":5.34995,"is_reserved":false,"is_disabled":false,"rental_uris":{"android":"levelo://app?vid=5fc7723c-7ca8-4d64-a051-eb916e0d3b97","ios":"levelo://app?vid=5fc7723c-7ca8-4d64-a051-eb916e0d3b97"},"vehicle_type_id":"4","last_reported":1762877578,"current_range_meters":16000,"station_id":"ce4bhbh2rcd13ifvqepg","pricing_plan_id":"cebpf4jnsgd1na2vs0mg"},{"bike_id":"42e8f21d-5fe2-4ce5-a8c8-14a895a72aa6","system_id":"levelo_inurba_marseille","lat":43.292,"lon":5.358106,"is_reserved":false,"is_disabled":false,"rental_uris":{"android":"levelo://app?vid=42e8f21d-5fe2-4ce5-a8c8-14a895a72aa6","ios":"levelo://app?vid=42e8f21d-5fe2-4ce5-a8c8-14a895a72aa6"},"vehicle_type_id":"4","last_reported":1762877578,"current_range_meters":16000,"station_id":"ce4bhb12rcd13ifvqel0","pricing_plan_id":"cebpf4jnsgd1na2vs0mg"},{"bike_id":"58b54014-709e-4112-96ca-ef51b388b836","system_id":"levelo_inurba_marseille","lat":43.26033,"lon":5.37549,"is_reserved":false,"is_disabled":false,"rental_uris":{"android":"levelo://app?vid=58b54014-709e-4112-96ca-ef51b388b836","ios":"levelo://app?vid=58b54014-709e-4112-96ca-ef51b388b836"},"vehicle_type_id":"4","last_reported":1762877578,"current_range_meters":16000,"station_id":"ce4bhgh2rcd13ifvqfa0","pricing_plan_id":"cebpf4jnsgd1na2vs0mg"},{"bike_id":"8f88193f-cc69-4057-b408-0596a698b4bb","system_id":"levelo_inurba_marseille","lat":43.29006,"lon":5.35617,"is_reserved":false,"is_disabled":false,"rental_uris":{"android":"levelo://app?vid=8f88193f-cc69-4057-b408-0596a698b4bb","ios":"levelo://app?vid=8f88193f-cc69-4057-b408-0596a698b4bb"},"vehicle_type_id":"4","last_reported":1762877578,"current_range_meters":16400,"station_id":"ce4bhb92rcd13ifvqen0","pricing_plan_id":"cebpf4jnsgd1na2vs0mg"},{"bike_id":"14c4c79d-54a2-43ff-b01b-d18f58077d1e","system_id":"levelo_inurba_marseille","lat":43.28601,"lon":5.35025,"is_reserved":false,"is_disabled":false,"rental_uris":{"android":"levelo://app?vid=14c4c79d-54a2-43ff-b01b-d18f58077d1e","ios":"levelo://app?vid=14c4c79d-54a2-43ff-b01b-d18f58077d1e"},"vehicle_type_id":"4","last_reported":1762877578,"current_range_meters":16400,"station_id":"","pricing_plan_id":"cebpf4jnsgd1na2vs0mg"},{"bike_id":"ca3a2b75-55b2-40e8-adc8-1fb82559b342","system_id":"levelo_inurba_marseille","lat":43.29711,"lon":5.36621,"is_reserved":false,"is_disabled":false,"rental_uris":{"android":"levelo://app?vid=ca3a2b75-55b2-40e8-adc8-1fb82559b342","ios":"levelo://app?vid=ca3a2b75-55b2-40e8-adc8-1fb82559b342"},"vehicle_type_id":"4","last_reported":1762877578,"current_range_meters":16400,"station_id":"ce4bgn12rcd13ifvqbt0","pricing_plan_id":"cebpf4jnsgd1na2vs0mg"},{"bike_id":"bd4b4623-5368-4db7-92cf-289789e485c6","system_id":"levelo_inurba_marseille","lat":43.228003,"lon":5.349292,"is_reserved":false,"is_disabled":false,"rental_uris":{"android":"levelo://app?vid=bd4b4623-5368-4db7-92cf-289789e485c6","ios":"levelo://app?vid=bd4b4623-5368-4db7-92cf-289789e485c6"},"vehicle_type_id":"4","last_reported":1762877578,"current_range_meters":16400,"station_id":"","pricing_plan_id":"cebpf4jnsgd1na2vs0mg"},{"bike_id":"32162483-923a-4e23-8738-bf029245f9f0","system_id":"levelo_inurba_marseille","lat":43.28487,"lon":5.38463,"is_reserved":false,"is_disabled":true,"rental_uris":{"android":"levelo://app?vid=32162483-923a-4e23-8738-bf029245f9f0","ios":"levelo://app?vid=32162483-923a-4e23-8738-bf029245f9f0"},"vehicle_type_id":"4","last_reported":1762877578,"current_range_meters":16400,"station_id":"ce4bh512rcd13ifvqe3g","pricing_plan_id":"cebpf4jnsgd1na2vs0mg"},{"bike_id":"2b006df2-adab-42bc-974c-108a0d97979c","system_id":"levelo_inurba_marseille","lat":43.33194,"lon":5.37804,"is_reserved":false,"is_disabled":false,"rental_uris":{"android":"levelo://app?vid=2b006df2-adab-42bc-974c-108a0d97979c","ios":"levelo://app?vid=2b006df2-adab-42bc-974c-108a0d97979c"},"vehicle_type_id":"4","last_reported":1762877578,"current_range_meters":16400,"station_id":"st_d46cu089ee8s73dldbu0","pricing_plan_id":"cebpf4jnsgd1na2vs0mg"},{"bike_id":"b1a2471d-97a3-4c4c-a1ea-2b1be759f8ae","system_id":"levelo_inurba_marseille","lat":43.30529,"lon":5.36694,"is_reserved":false,"is_disabled":false,"rental_uris":{"android":"levelo://app?vid=b1a2471d-97a3-4c4c-a1ea-2b1be759f8ae","ios":"levelo://app?vid=b1a2471d-97a3-4c4c-a1ea-2b1be759f8ae"},"vehicle_type_id":"4","last_reported":1762877578,"current_range_meters":16400,"station_id":"ce4bgrp2rcd13ifvqc9g","pricing_plan_id":"cebpf4jnsgd1na2vs0mg"},{"bike_id":"fd4cf594-0dec-484e-a4c9-befe6fd0568f","system_id":"levelo_inurba_marseille","lat":43.28476,"lon":5.384143,"is_reserved":false,"is_disabled":false,"rental_uris":{"android":"levelo://app?vid=fd4cf594-0dec-484e-a4c9-befe6fd0568f","ios":"levelo://app?vid=fd4cf594-0dec-484e-a4c9-befe6fd0568f"},"vehicle_type_id":"4","last_reported":1762877578,"current_range_meters":16400,"station_id":"ce4bh512rcd13ifvqe3g","pricing_plan_id":"cebpf4jnsgd1na2vs0mg"},{"bike_id":"50b661f0-112f-4780-95bd-167a8c61a238","system_id":"levelo_inurba_marseille","lat":43.21192,"lon":5.35084,"is_reserved":false,"is_disabled":true,"rental_uris":{"android":"levelo://app?vid=50b661f0-112f-4780-95bd-167a8c61a238","ios":"levelo://app?vid=50b661f0-112f-4780-95bd-167a8c61a238"},"vehicle_type_id":"4","last_reported":1762877578,"current_range_meters":16400,"station_id":"st_cvj6sg6p6f1abm77japg","pricing_plan_id":"cebpf4jnsgd1na2vs0mg"},{"bike_id":"85972d1b-b92f-484e-942c-a552245f80f8","system_id":"levelo_inurba_marseille","lat":43.292318,"lon":5.360544,"is_reserved":false,"is_disabled":false,"rental_uris":{"android":"levelo://app?vid=85972d1b-b92f-484e-942c-a552245f80f8","ios":"levelo://app?vid=85972d1b-b92f-484e-942c-a552245f80f8"},"vehicle_type_id":"4","last_reported":1762877578,"current_range_meters":16400,"station_id":"ce4bhbh2rcd13ifvqeqg","pricing_plan_id":"cebpf4jnsgd1na2vs0mg"},{"bike_id":"84e9ddf7-53b7-44c2-8a70-b7fbc68d5119","system_id":"levelo_inurba_marseille","lat":43.28421,"lon":5.34984,"is_reserved":false,"is_disabled":false,"rental_uris":{"android":"levelo://app?vid=84e9ddf7-53b7-44c2-8a70-b7fbc68d5119","ios":"levelo://app?vid=84e9ddf7-53b7-44c2-8a70-b7fbc68d5119"},"vehicle_type_id":"4","last_reported":1762877578,"current_range_meters":16800,"station_id":"ce4bhbh2rcd13ifvqepg","pricing_plan_id":"cebpf4jnsgd1na2vs0mg"},{"bike_id":"59092e0b-8e2c-49e1-8126-64ad7629b05f","system_id":"levelo_inurba_marseille","lat":43.24306,"lon":5.39227,"is_reserved":false,"is_disabled":false,"rental_uris":{"android":"levelo://app?vid=59092e0b-8e2c-49e1-8126-64ad7629b05f","ios":"levelo://app?vid=59092e0b-8e2c-49e1-8126-64ad7629b05f"},"vehicle_type_id":"4","last_reported":1762877578,"current_range_meters":16800,"station_id":"","pricing_plan_id":"cebpf4jnsgd1na2vs0mg"},{"bike_id":"e5072903-b867-4d8e-a478-9934ce296bde","system_id":"levelo_inurba_marseille","lat":43.29109,"lon":5.39042,"is_reserved":false,"is_disabled":false,"rental_uris":{"android":"levelo://app?vid=e5072903-b867-4d8e-a478-9934ce296bde","ios":"levelo://app?vid=e5072903-b867-4d8e-a478-9934ce296bde"},"vehicle_type_id":"4","last_reported":1762877578,"current_range_meters":16800,"station_id":"","pricing_plan_id":"cebpf4jnsgd1na2vs0mg"},{"bike_id":"c211d8ab-a4e4-4857-9cfb-631a6b380950","system_id":"levelo_inurba_marseille","lat":43.28416,"lon":5.34987,"is_reserved":false,"is_disabled":false,"rental_uris":{"android":"levelo://app?vid=c211d8ab-a4e4-4857-9cfb-631a6b380950","ios":"levelo://app?vid=c211d8ab-a4e4-4857-9cfb-631a6b380950"},"vehicle_type_id":"4","last_reported":1762877578,"current_range_meters":16800,"station_id":"ce4bhbh2rcd13ifvqepg","pricing_plan_id":"cebpf4jnsgd1na2vs0mg"},{"bike_id":"90b7b1ac-129d-4f5e-9e36-1417be0b1559","system_id":"levelo_inurba_marseille","lat":43.303719,"lon":5.424845,"is_reserved":false,"is_disabled":true,"rental_uris":{"android":"levelo://app?vid=90b7b1ac-129d-4f5e-9e36-1417be0b1559","ios":"levelo://app?vid=90b7b1ac-129d-4f5e-9e36-1417be0b1559"},"vehicle_type_id":"4","last_reported":1762877578,"current_range_meters":16800,"station_id":"ce4bhoh2rcd13ifvqh6g","pricing_plan_id":"cebpf4jnsgd1na2vs0mg"},{"bike_id":"7bb119d7-3844-4180-bfe5-3937c2fb2faa","system_id":"levelo_inurba_marseille","lat":43.28271,"lon":5.35068,"is_reserved":false,"is_disabled":false,"rental_uris":{"android":"levelo://app?vid=7bb119d7-3844-4180-bfe5-3937c2fb2faa","ios":"levelo://app?vid=7bb119d7-3844-4180-bfe5-3937c2fb2faa"},"vehicle_type_id":"4","last_reported":1762877578,"current_range_meters":16800,"station_id":"ce4bhbp2rcd13ifvqerg","pricing_plan_id":"cebpf4jnsgd1na2vs0mg"},{"bike_id":"bbc98244-66a7-4e03-9b15-7e47553cf9fc","system_id":"levelo_inurba_marseille","lat":43.26686,"lon":5.38275,"is_reserved":false,"is_disabled":false,"rental_uris":{"android":"levelo://app?vid=bbc98244-66a7-4e03-9b15-7e47553cf9fc","ios":"levelo://app?vid=bbc98244-66a7-4e03-9b15-7e47553cf9fc"},"vehicle_type_id":"4","last_reported":1762877578,"current_range_meters":16800,"station_id":"ce4bhg92rcd13ifvqf90","pricing_plan_id":"cebpf4jnsgd1na2vs0mg"},{"bike_id":"138acbc8-a44a-45ec-9d4e-f41258a8778e","system_id":"levelo_inurba_marseille","lat":43.298152,"lon":5.440664,"is_reserved":false,"is_disabled":false,"rental_uris":{"android":"levelo://app?vid=138acbc8-a44a-45ec-9d4e-f41258a8778e","ios":"levelo://app?vid=138acbc8-a44a-45ec-9d4e-f41258a8778e"},"vehicle_type_id":"4","last_reported":1762877578,"current_range_meters":16800,"station_id":"st_d3jp68qikq2c7381ktn0","pricing_plan_id":"cebpf4jnsgd1na2vs0mg"},{"bike_id":"7853a813-0949-48bc-9da8-6f66b0f8768a","system_id":"levelo_inurba_marseille","lat":43.2439,"lon":5.37069,"is_reserved":false,"is_disabled":true,"rental_uris":{"android":"levelo://app?vid=7853a813-0949-48bc-9da8-6f66b0f8768a","ios":"levelo://app?vid=7853a813-0949-48bc-9da8-6f66b0f8768a"},"vehicle_type_id":"4","last_reported":1762877578,"current_range_meters":16800,"station_id":"ce4bhhh2rcd13ifvqfk0","pricing_plan_id":"cebpf4jnsgd1na2vs0mg"},{"bike_id":"237c11ec-73d1-4c65-ad78-23cab7dad0f3","system_id":"levelo_inurba_marseille","lat":43.29694,"lon":5.37701,"is_reserved":false,"is_disabled":false,"rental_uris":{"android":"levelo://app?vid=237c11ec-73d1-4c65-ad78-23cab7dad0f3","ios":"levelo://app?vid=237c11ec-73d1-4c65-ad78-23cab7dad0f3"},"vehicle_type_id":"4","last_reported":1762877578,"current_range_meters":17200,"station_id":"ce4bgkh2rcd13ifvqbl0","pricing_plan_id":"cebpf4jnsgd1na2vs0mg"},{"bike_id":"233af952-60ee-41ed-a100-713e44a6241d","system_id":"levelo_inurba_marseille","lat":43.23186,"lon":5.35555,"is_reserved":false,"is_disabled":false,"rental_uris":{"android":"levelo://app?vid=233af952-60ee-41ed-a100-713e44a6241d","ios":"levelo://app?vid=233af952-60ee-41ed-a100-713e44a6241d"},"vehicle_type_id":"4","last_reported":1762877578,"current_range_meters":17200,"station_id":"ce4bhu92rcd13ifvqi70","pricing_plan_id":"cebpf4jnsgd1na2vs0mg"},{"bike_id":"173ae4c7-2f12-478d-bc22-020590ce9c95","system_id":"levelo_inurba_marseille","lat":43.28613,"lon":5.37066,"is_reserved":false,"is_disabled":false,"rental_uris":{"android":"levelo://app?vid=173ae4c7-2f12-478d-bc22-020590ce9c95","ios":"levelo://app?vid=173ae4c7-2f12-478d-bc22-020590ce9c95"},"vehicle_type_id":"4","last_reported":1762877578,"current_range_meters":17200,"station_id":"ce4bht12rcd13ifvqi60","pricing_plan_id":"cebpf4jnsgd1na2vs0mg"},{"bike_id":"abb0f07d-c804-480e-9ca9-09df1008d554","system_id":"levelo_inurba_marseille","lat":43.2736,"lon":5.36259,"is_reserved":false,"is_disabled":false,"rental_uris":{"android":"levelo://app?vid=abb0f07d-c804-480e-9ca9-09df1008d554","ios":"levelo://app?vid=abb0f07d-c804-480e-9ca9-09df1008d554"},