{"last_updated":1700319986,"ttl":30,"version":"2.2","data":{"bikes":[{"bike_id":"943dfc2f-eec4-44b8-ae3a-bf8f278b58c3","system_id":"levelo_inurba_marseille","lat":43.311493,"lon":5.368926,"is_reserved":false,"is_disabled":false,"rental_uris":{"android":"levelo://app?vid=943dfc2f-eec4-44b8-ae3a-bf8f278b58c3","ios":"levelo://app?vid=943dfc2f-eec4-44b8-ae3a-bf8f278b58c3"},"vehicle_type_id":"4","last_reported":1700319986,"current_range_meters":0,"station_id":"","pricing_plan_id":"free"},{"bike_id":"3475d204-43b6-43d9-b615-ca1d0d58200e","system_id":"levelo_inurba_marseille","lat":43.30679,"lon":5.3679,"is_reserved":false,"is_disabled":false,"rental_uris":{"android":"levelo://app?vid=3475d204-43b6-43d9-b615-ca1d0d58200e","ios":"levelo://app?vid=3475d204-43b6-43d9-b615-ca1d0d58200e"},"vehicle_type_id":"4","last_reported":1700319986,"current_range_meters":14400,"station_id":"","pricing_plan_id":"free"},{"bike_id":"d71c513c-dff1-45f3-85bf-a653d392c6e9","system_id":"levelo_inurba_marseille","lat":43.30539,"lon":5.36706,"is_reserved":false,"is_disabled":false,"rental_uris":{"android":"levelo://app?vid=d71c513c-dff1-45f3-85bf-a653d392c6e9","ios":"levelo://app?vid=d71c513c-dff1-45f3-85bf-a653d392c6e9"},"vehicle_type_id":"4","last_reported":1700319986,"current_range_meters":0,"station_id":"ce4bgrp2rcd13ifvqc9g","pricing_plan_id":"free"},{"bike_id":"c89b6022-0b04-44f0-bb8d-00b8bddaa14f","system_id":"levelo_inurba_marseille","lat":43.31948,"lon":5.37103,"is_reserved":false,"is_disabled":false,"rental_uris":{"android":"levelo://app?vid=c89b6022-0b04-44f0-bb8d-00b8bddaa14f","ios":"levelo://app?vid=c89b6022-0b04-44f0-bb8d-00b8bddaa14f"},"vehicle_type_id":"4","last_reported":1700319986,"current_range_meters":4800,"station_id":"","pricing_plan_id":"free"},{"bike_id":"dd1855db-d68d-4d1b-9a5f-ffa8abeadab9","system_id":"levelo_inurba_marseille","lat":43.305714,"lon":5.365633,"is_reserved":false,"is_disabled":false,"rental_uris":{"android":"levelo://app?vid=dd1855db-d68d-4d1b-9a5f-ffa8abeadab9","ios":"levelo://app?vid=dd1855db-d68d-4d1b-9a5f-ffa8abeadab9"},"vehicle_type_id":"4","last_reported":1700319986,"current_range_meters":0,"station_id":"ce4bgs12rcd13ifvqcag","pricing_plan_id":"free"},{"bike_id":"4d2db5d6-4e75-4edf-9df2-d61d6ebb0498","system_id":"levelo_inurba_marseille","lat":43.305714,"lon":5.365633,"is_reserved":false,"is_disabled":false,"rental_uris":{"android":"levelo://app?vid=4d2db5d6-4e75-4edf-9df2-d61d6ebb0498","ios":"levelo://app?vid=4d2db5d6-4e75-4edf-9df2-d61d6ebb0498"},"vehicle_type_id":"4","last_reported":1700319986,"current_range_meters":16800,"station_id":"ce4bgs12rcd13ifvqcag","pricing_plan_id":"free"},{"bike_id":"a26d3144-83d6-4d17-a1ea-682c07a5b403","system_id":"levelo_inurba_marseille","lat":43.305989,"lon":5.37225,"is_reserved":false,"is_disabled":false,"rental_uris":{"android":"levelo://app?vid=a26d3144-83d6-4d17-a1ea-682c07a5b403","ios":"levelo://app?vid=a26d3144-83d6-4d17-a1ea-682c07a5b403"},"vehicle_type_id":"4","last_reported":1700319986,"current_range_meters":20400,"station_id":"ce4bgqh2rcd13ifvqc4g","pricing_plan_id":"free"},{"bike_id":"71356cb7-1616-4c50-bfcd-acb0d14c1225","system_id":"levelo_inurba_marseille","lat":43.30593,"lon":5.37236,"is_reserved":false,"is_disabled":false,"rental_uris":{"android":"levelo://app?vid=71356cb7-1616-4c50-bfcd-acb0d14c1225","ios":"levelo://app?vid=71356cb7-1616-4c50-bfcd-acb0d14c1225"},"vehicle_type_id":"4","last_reported":1700319986,"current_range_meters":31200,"station_id":"ce4bgqh2rcd13ifvqc4g","pricing_plan_id":"free"},{"bike_id":"83ca5fab-a98d-45ea-96a2-1d50bb15d96d","system_id":"levelo_inurba_marseille","lat":43.305989,"lon":5.37225,"is_reserved":false,"is_disabled":false,"rental_uris":{"android":"levelo://app?vid=83ca5fab-a98d-45ea-96a2-1d50bb15d96d","ios":"levelo://app?vid=83ca5fab-a98d-45ea-96a2-1d50bb15d96d"},"vehicle_type_id":"4","last_reported":1700319986,"current_range_meters":22800,"station_id":"ce4bgqh2rcd13ifvqc4g","pricing_plan_id":"free"},{"bike_id":"14453bc6-820b-496a-91c5-bd1a7f559527","system_id":"levelo_inurba_marseille","lat":43.308257,"lon":5.37649,"is_reserved":false,"is_disabled":false,"rental_uris":{"android":"levelo://app?vid=14453bc6-820b-496a-91c5-bd1a7f559527","ios":"levelo://app?vid=14453bc6-820b-496a-91c5-bd1a7f559527"},"vehicle_type_id":"4","last_reported":1700319986,"current_range_meters":11200,"station_id":"ce4bgv92rcd13ifvqcq0","pricing_plan_id":"free"},{"bike_id":"2d49cb03-7339-4a21-98db-beedb60a2a4c","system_id":"levelo_inurba_marseille","lat":43.304936,"lon":5.37078,"is_reserved":false,"is_disabled":false,"rental_uris":{"android":"levelo://app?vid=2d49cb03-7339-4a21-98db-beedb60a2a4c","ios":"levelo://app?vid=2d49cb03-7339-4a21-98db-beedb60a2a4c"},"vehicle_type_id":"4","last_reported":1700319986,"current_range_meters":0,"station_id":"","pricing_plan_id":"free"},{"bike_id":"dcbf9c93-0758-41cf-8699-4ede01d69428","system_id":"levelo_inurba_marseille","lat":43.308186,"lon":5.376555,"is_reserved":false,"is_disabled":false,"rental_uris":{"android":"levelo://app?vid=dcbf9c93-0758-41cf-8699-4ede01d69428","ios":"levelo://app?vid=dcbf9c93-0758-41cf-8699-4ede01d69428"},"vehicle_type_id":"4","last_reported":1700319986,"current_range_meters":15600,"station_id":"ce4bgv92rcd13ifvqcq0","pricing_plan_id":"free"},{"bike_id":"26a5a493-97c8-4793-8ffb-b6dc49e55096","system_id":"levelo_inurba_marseille","lat":43.30797,"lon":5.38163,"is_reserved":false,"is_disabled":false,"rental_uris":{"android":"levelo://app?vid=26a5a493-97c8-4793-8ffb-b6dc49e55096","ios":"levelo://app?vid=26a5a493-97c8-4793-8ffb-b6dc49e55096"},"vehicle_type_id":"4","last_reported":1700319986,"current_range_meters":22000,"station_id":"ce4bgt12rcd13ifvqce0","pricing_plan_id":"free"},{"bike_id":"8582e63c-68af-4a5e-a41b-a2e2d4df8807","system_id":"levelo_inurba_marseille","lat":43.324771,"lon":5.36557,"is_reserved":false,"is_disabled":false,"rental_uris":{"android":"levelo://app?vid=8582e63c-68af-4a5e-a41b-a2e2d4df8807","ios":"levelo://app?vid=8582e63c-68af-4a5e-a41b-a2e2d4df8807"},"vehicle_type_id":"4","last_reported":1700319986,"current_range_meters":8800,"station_id":"ce4bhs12rcd13ifvqhvg","pricing_plan_id":"free"},{"bike_id":"b07df4dc-5dee-47d2-9384-cdf7d13ef59f","system_id":"levelo_inurba_marseille","lat":43.31635,"lon":5.38325,"is_reserved":false,"is_disabled":false,"rental_uris":{"android":"levelo://app?vid=b07df4dc-5dee-47d2-9384-cdf7d13ef59f","ios":"levelo://app?vid=b07df4dc-5dee-47d2-9384-cdf7d13ef59f"},"vehicle_type_id":"4","last_reported":1700319986,"current_range_meters":23200,"station_id":"","pricing_plan_id":"free"},{"bike_id":"5a6db0fc-cfe2-47a7-ae76-d4e0529428ab","system_id":"levelo_inurba_marseille","lat":43.319895,"lon":5.38111,"is_reserved":false,"is_disabled":false,"rental_uris":{"android":"levelo://app?vid=5a6db0fc-cfe2-47a7-ae76-d4e0529428ab","ios":"levelo://app?vid=5a6db0fc-cfe2-47a7-ae76-d4e0529428ab"},"vehicle_type_id":"4","last_reported":1700319986,"current_range_meters":17600,"station_id":"","pricing_plan_id":"free"},{"bike_id":"f432adad-4bf5-4f20-bad7-2596d23b23b6","system_id":"levelo_inurba_marseille","lat":43.3199,"lon":5.38167,"is_reserved":false,"is_disabled":false,"rental_uris":{"android":"levelo://app?vid=f432adad-4bf5-4f20-bad7-2596d23b23b6","ios":"levelo://app?vid=f432adad-4bf5-4f20-bad7-2596d23b23b6"},"vehicle_type_id":"4","last_reported":1700319986,"current_range_meters":19200,"station_id":"ce4bhr12rcd13ifvqhpg","pricing_plan_id":"free"},{"bike_id":"66963c79-9023-4e40-bef4-709c1b04f449","system_id":"levelo_inurba_marseille","lat":43.311583,"lon":5.386781,"is_reserved":false,"is_disabled":false,"rental_uris":{"android":"levelo://app?vid=66963c79-9023-4e40-bef4-709c1b04f449","ios":"levelo://app?vid=66963c79-9023-4e40-bef4-709c1b04f449"},"vehicle_type_id":"4","last_reported":1700319986,"current_range_meters":3600,"station_id":"ce4bgv12rcd13ifvqcp0","pricing_plan_id":"free"},{"bike_id":"5da9dea2-bd9f-4746-b637-56e44ea9e587","system_id":"levelo_inurba_marseille","lat":43.298489,"lon":5.362942,"is_reserved":false,"is_disabled":false,"rental_uris":{"android":"levelo://app?vid=5da9dea2-bd9f-4746-b637-56e44ea9e587","ios":"levelo://app?vid=5da9dea2-bd9f-4746-b637-56e44ea9e587"},"vehicle_type_id":"4","last_reported":1700319986,"current_range_meters":0,"station_id":"","pricing_plan_id":"free"},{"bike_id":"c70e73b9-e433-4772-8152-35982603db41","system_id":"levelo_inurba_marseille","lat":43.299243,"lon":5.37481,"is_reserved":false,"is_disabled":false,"rental_uris":{"android":"levelo://app?vid=c70e73b9-e433-4772-8152-35982603db41","ios":"levelo://app?vid=c70e73b9-e433-4772-8152-35982603db41"},"vehicle_type_id":"4","last_reported":1700319986,"current_range_meters":15600,"station_id":"ce4bgjh2rcd13ifvqbg0","pricing_plan_id":"free"},{"bike_id":"83b4a712-5deb-4185-a2eb-cf504fb97aa1","system_id":"levelo_inurba_marseille","lat":43.29908,"lon":5.37535,"is_reserved":false,"is_disabled":false,"rental_uris":{"android":"levelo://app?vid=83b4a712-5deb-4185-a2eb-cf504fb97aa1","ios":"levelo://app?vid=83b4a712-5deb-4185-a2eb-cf504fb97aa1"},"vehicle_type_id":"4","last_reported":1700319986,"current_range_meters":17600,"station_id":"ce4bgjh2rcd13ifvqbg0","pricing_plan_id":"free"},{"bike_id":"82f03632-7350-492b-91d0-572f40087c25","system_id":"levelo_inurba_marseille","lat":43.297774,"lon":5.370875,"is_reserved":false,"is_disabled":false,"rental_uris":{"android":"levelo://app?vid=82f03632-7350-492b-91d0-572f40087c25","ios":"levelo://app?vid=82f03632-7350-492b-91d0-572f40087c25"},"vehicle_type_id":"4","last_reported":1700319986,"current_range_meters":13600,"station_id":"ce4bgop2rcd13ifvqc1g","pricing_plan_id":"free"},{"bike_id":"b0bc5a2b-ee52-4745-9049-5d157e365412","system_id":"levelo_inurba_marseille","lat":43.32823,"lon":5.3669,"is_reserved":false,"is_disabled":false,"rental_uris":{"android":"levelo://app?vid=b0bc5a2b-ee52-4745-9049-5d157e365412","ios":"levelo://app?vid=b0bc5a2b-ee52-4745-9049-5d157e365412"},"vehicle_type_id":"4","last_reported":1700319986,"current_range_meters":11600,"station_id":"ce4bhs92rcd13ifvqi0g","pricing_plan_id":"free"},{"bike_id":"31682f68-9f19-4d8f-894c-c25c7ced512b","system_id":"levelo_inurba_marseille","lat":43.32827,"lon":5.36676,"is_reserved":false,"is_disabled":false,"rental_uris":{"android":"levelo://app?vid=31682f68-9f19-4d8f-894c-c25c7ced512b","ios":"levelo://app?vid=31682f68-9f19-4d8f-894c-c25c7ced512b"},"vehicle_type_id":"4","last_reported":1700319986,"current_range_meters":27600,"station_id":"ce4bhs92rcd13ifvqi0g","pricing_plan_id":"free"},{"bike_id":"6f461906-1734-4a2d-9c3e-a93c6064dfd5","system_id":"levelo_inurba_marseille","lat":43.32828,"lon":5.36684,"is_reserved":false,"is_disabled":false,"rental_uris":{"android":"levelo://app?vid=6f461906-1734-4a2d-9c3e-a93c6064dfd5","ios":"levelo://app?vid=6f461906-1734-4a2d-9c3e-a93c6064dfd5"},"vehicle_type_id":"4","last_reported":1700319986,"current_range_meters":24400,"station_id":"ce4bhs92rcd13ifvqi0g","pricing_plan_id":"free"},{"bike_id":"223f66a6-bf6f-4d58-b05e-1ed7a0efc220","system_id":"levelo_inurba_marseille","lat":43.29707,"lon":5.36598,"is_reserved":false,"is_disabled":false,"rental_uris":{"android":"levelo://app?vid=223f66a6-bf6f-4d58-b05e-1ed7a0efc220","ios":"levelo://app?vid=223f66a6-bf6f-4d58-b05e-1ed7a0efc220"},"vehicle_type_id":"4","last_reported":1700319986,"current_range_meters":8000,"station_id":"","pricing_plan_id":"free"},{"bike_id":"d447991a-59b4-4778-a190-7d2b0920a414","system_id":"levelo_inurba_marseille","lat":43.32215,"lon":5.38613,"is_reserved":false,"is_disabled":false,"rental_uris":{"android":"levelo://app?vid=d447991a-59b4-4778-a190-7d2b0920a414","ios":"levelo://app?vid=d447991a-59b4-4778-a190-7d2b0920a414"},"vehicle_type_id":"4","last_reported":1700319986,"current_range_meters":0,"station_id":"","pricing_plan_id":"free"},{"bike_id":"bab6e1e8-0726-4f51-8b18-d54941f080d7","system_id":"levelo_inurba_marseille","lat":43.2966,"lon":5.37463,"is_reserved":false,"is_disabled":false,"rental_uris":{"android":"levelo://app?vid=bab6e1e8-0726-4f51-8b18-d54941f080d7","ios":"levelo://app?vid=bab6e1e8-0726-4f51-8b18-d54941f080d7"},"vehicle_type_id":"4","last_reported":1700319986,"current_range_meters":0,"station_id":"","pricing_plan_id":"free"},{"bike_id":"6fc05636-6eb7-4c81-8b13-e2652a091578","system_id":"levelo_inurba_marseille","lat":43.297133,"lon":5.376907,"is_reserved":false,"is_disabled":false,"rental_uris":{"android":"levelo://app?vid=6fc05636-6eb7-4c81-8b13-e2652a091578","ios":"levelo://app?vid=6fc05636-6eb7-4c81-8b13-e2652a091578"},"vehicle_type_id":"4","last_reported":1700319986,"current_range_meters":26400,"station_id":"ce4bgkh2rcd13ifvqbl0","pricing_plan_id":"free"},{"bike_id":"20b17363-c82e-427f-87c0-2e3509fe1b95","system_id":"levelo_inurba_marseille","lat":43.299028,"lon":5.381509,"is_reserved":false,"is_disabled":false,"rental_uris":{"android":"levelo://app?vid=20b17363-c82e-427f-87c0-2e3509fe1b95","ios":"levelo://app?vid=20b17363-c82e-427f-87c0-2e3509fe1b95"},"vehicle_type_id":"4","last_reported":1700319986,"current_range_meters":8400,"station_id":"ce4bgj12rcd13ifvqbc0","pricing_plan_id":"free"},{"bike_id":"d2dced52-b7fb-4d11-ad33-56be009e3364","system_id":"levelo_inurba_marseille","lat":43.321847,"lon":5.388263,"is_reserved":false,"is_disabled":false,"rental_uris":{"android":"levelo://app?vid=d2dced52-b7fb-4d11-ad33-56be009e3364","ios":"levelo://app?vid=d2dced52-b7fb-4d11-ad33-56be009e3364"},"vehicle_type_id":"4","last_reported":1700319986,"current_range_meters":18400,"station_id":"","pricing_plan_id":"free"},{"bike_id":"67ffd28a-0325-489b-a10f-d90500122751","system_id":"levelo_inurba_marseille","lat":43.295748,"lon":5.37522,"is_reserved":false,"is_disabled":false,"rental_uris":{"android":"levelo://app?vid=67ffd28a-0325-489b-a10f-d90500122751","ios":"levelo://app?vid=67ffd28a-0325-489b-a10f-d90500122751"},"vehicle_type_id":"4","last_reported":1700319986,"current_range_meters":30400,"station_id":"ce4bgh92rcd13ifvqb50","pricing_plan_id":"free"},{"bike_id":"3e3e92fe-39b7-4933-99ff-3747b28b5d69","system_id":"levelo_inurba_marseille","lat":43.328154,"lon":5.380034,"is_reserved":false,"is_disabled":false,"rental_uris":{"android":"levelo://app?vid=3e3e92fe-39b7-4933-99ff-3747b28b5d69","ios":"levelo://app?vid=3e3e92fe-39b7-4933-99ff-3747b28b5d69"},"vehicle_type_id":"4","last_reported":1700319986,"current_range_meters":9600,"station_id":"","pricing_plan_id":"free"},{"bike_id":"6f4cf8ba-e910-4eb7-92b3-f29d1aeb5ac2","system_id":"levelo_inurba_marseille","lat":43.296263,"lon":5.377094,"is_reserved":false,"is_disabled":false,"rental_uris":{"android":"levelo://app?vid=6f4cf8ba-e910-4eb7-92b3-f29d1aeb5ac2","ios":"levelo://app?vid=6f4cf8ba-e910-4eb7-92b3-f29d1aeb5ac2"},"vehicle_type_id":"4","last_reported":1700319986,"current_range_meters":6000,"station_id":"ce4bgi92rcd13ifvqb90","pricing_plan_id":"free"},{"bike_id":"b61fc5a3-f38e-4e00-8ab5-80ad40b4257f","system_id":"levelo_inurba_marseille","lat":43.296263,"lon":5.377094,"is_reserved":false,"is_disabled":false,"rental_uris":{"android":"levelo://app?vid=b61fc5a3-f38e-4e00-8ab5-80ad40b4257f","ios":"levelo://app?vid=b61fc5a3-f38e-4e00-8ab5-80ad40b4257f"},"vehicle_type_id":"4","last_reported":1700319986,"current_range_meters":8000,"station_id":"ce4bgi92rcd13ifvqb90","pricing_plan_id":"free"},{"bike_id":"daa33ca4-2b25-4593-9670-8f28c095afda","system_id":"levelo_inurba_marseille","lat":43.296263,"lon":5.377094,"is_reserved":false,"is_disabled":false,"rental_uris":{"android":"levelo://app?vid=daa33ca4-2b25-4593-9670-8f28c095afda","ios":"levelo://app?vid=daa33ca4-2b25-4593-9670-8f28c095afda"},"vehicle_type_id":"4","last_reported":1700319986,"current_range_meters":9200,"station_id":"ce4bgi92rcd13ifvqb90","pricing_plan_id":"free"},{"bike_id":"84030672-4f5a-4f6f-a7ff-8215f05c0d63","system_id":"levelo_inurba_marseille","lat":43.299707,"lon":5.384859,"is_reserved":false,"is_disabled":false,"rental_uris":{"android":"levelo://app?vid=84030672-4f5a-4f6f-a7ff-8215f05c0d63","ios":"levelo://app?vid=84030672-4f5a-4f6f-a7ff-8215f05c0d63"},"vehicle_type_id":"4","last_reported":1700319986,"current_range_meters":3600,"station_id":"ce4bgj92rcd13ifvqbd0","pricing_plan_id":"free"},{"bike_id":"2333e327-a841-4b33-b849-4559c1b6c2a4","system_id":"levelo_inurba_marseille","lat":43.29521,"lon":5.37506,"is_reserved":false,"is_disabled":false,"rental_uris":{"android":"levelo://app?vid=2333e327-a841-4b33-b849-4559c1b6c2a4","ios":"levelo://app?vid=2333e327-a841-4b33-b849-4559c1b6c2a4"},"vehicle_type_id":"4","last_reported":1700319986,"current_range_meters":4000,"station_id":"ce4bgkp2rcd13ifvqbmg","pricing_plan_id":"free"},{"bike_id":"e145a3f7-00ac-4f8f-bfe5-435bc38ccaf7","system_id":"levelo_inurba_marseille","lat":43.293801,"lon":5.363066,"is_reserved":false,"is_disabled":false,"rental_uris":{"android":"levelo://app?vid=e145a3f7-00ac-4f8f-bfe5-435bc38ccaf7","ios":"levelo://app?vid=e145a3f7-00ac-4f8f-bfe5-435bc38ccaf7"},"vehicle_type_id":"4","last_reported":1700319986,"current_range_meters":27200,"station_id":"","pricing_plan_id":"free"},{"bike_id":"bb8b9678-f9e7-4ae0-b9c1-76d0a011a572","system_id":"levelo_inurba_marseille","lat":43.2936,"lon":5.37835,"is_reserved":false,"is_disabled":false,"rental_uris":{"android":"levelo://app?vid=bb8b9678-f9e7-4ae0-b9c1-76d0a011a572","ios":"levelo://app?vid=bb8b9678-f9e7-4ae0-b9c1-76d0a011a572"},"vehicle_type_id":"4","last_reported":1700319986,"current_range_meters":29600,"station_id":"ce4bgjh2rcd13ifvqbf0","pricing_plan_id":"free"},{"bike_id":"6c51cf97-713b-40dc-bc23-e3c84edc9f16","system_id":"levelo_inurba_marseille","lat":43.300852,"lon":5.390859,"is_reserved":false,"is_disabled":false,"rental_uris":{"android":"levelo://app?vid=6c51cf97-713b-40dc-bc23-e3c84edc9f16","ios":"levelo://app?vid=6c51cf97-713b-40dc-bc23-e3c84edc9f16"},"vehicle_type_id":"4","last_reported":1700319986,"current_range_meters":4000,"station_id":"ce4bh192rcd13ifvqdb0","pricing_plan_id":"free"},{"bike_id":"de1e80bc-0676-4cfd-8ac3-458ea1762efe","system_id":"levelo_inurba_marseille","lat":43.2936,"lon":5.37835,"is_reserved":false,"is_disabled":false,"rental_uris":{"android":"levelo://app?vid=de1e80bc-0676-4cfd-8ac3-458ea1762efe","ios":"levelo://app?vid=de1e80bc-0676-4cfd-8ac3-458ea1762efe"},"vehicle_type_id":"4","last_reported":1700319986,"current_range_meters":16800,"station_id":"ce4bgjh2rcd13ifvqbf0","pricing_plan_id":"free"},{"bike_id":"4eef38cc-64cf-4f4d-8d5b-99bd9d3b1b37","system_id":"levelo_inurba_marseille","lat":43.291675,"lon":5.371583,"is_reserved":false,"is_disabled":false,"rental_uris":{"android":"levelo://app?vid=4eef38cc-64cf-4f4d-8d5b-99bd9d3b1b37","ios":"levelo://app?vid=4eef38cc-64cf-4f4d-8d5b-99bd9d3b1b37"},"vehicle_type_id":"4","last_reported":1700319986,"current_range_meters":27200,"station_id":"ce4bha92rcd13ifvqeh0","pricing_plan_id":"free"},{"bike_id":"59284313-45f4-4e1b-9f8a-17b146016b2c","system_id":"levelo_inurba_marseille","lat":43.298764,"lon":5.388973,"is_reserved":false,"is_disabled":false,"rental_uris":{"android":"levelo://app?vid=59284313-45f4-4e1b-9f8a-17b146016b2c","ios":"levelo://app?vid=59284313-45f4-4e1b-9f8a-17b146016b2c"},"vehicle_type_id":"4","last_reported":1700319986,"current_range_meters":9200,"station_id":"ce4bh392rcd13ifvqdl0","pricing_plan_id":"free"},{"bike_id":"903b379e-b9b8-4f7c-817a-520ac3e520f7","system_id":"levelo_inurba_marseille","lat":43.29197,"lon":5.35797,"is_reserved":false,"is_disabled":false,"rental_uris":{"android":"levelo://app?vid=903b379e-b9b8-4f7c-817a-520ac3e520f7","ios":"levelo://app?vid=903b379e-b9b8-4f7c-817a-520ac3e520f7"},"vehicle_type_id":"4","last_reported":1700319986,"current_range_meters":18800,"station_id":"ce4bhb12rcd13ifvqel0","pricing_plan_id":"free"},{"bike_id":"b4d71117-9819-41d5-81b5-34d71b83ca1d","system_id":"levelo_inurba_marseille","lat":43.313291,"lon":5.396838,"is_reserved":false,"is_disabled":false,"rental_uris":{"android":"levelo://app?vid=b4d71117-9819-41d5-81b5-34d71b83ca1d","ios":"levelo://app?vid=b4d71117-9819-41d5-81b5-34d71b83ca1d"},"vehicle_type_id":"4","last_reported":1700319986,"current_range_meters":0,"station_id":"ce4bgvp2rcd13ifvqcu0","pricing_plan_id":"free"},{"bike_id":"26345630-12b9-4afa-8e6c-c3c4dea05088","system_id":"levelo_inurba_marseille","lat":43.290631,"lon":5.359244,"is_reserved":false,"is_disabled":false,"rental_uris":{"android":"levelo://app?vid=26345630-12b9-4afa-8e6c-c3c4dea05088","ios":"levelo://app?vid=26345630-12b9-4afa-8e6c-c3c4dea05088"},"vehicle_type_id":"4","last_reported":1700319986,"current_range_meters":0,"station_id":"ce4bha92rcd13ifvqeg0","pricing_plan_id":"free"},{"bike_id":"d478cfc9-7182-4f38-926c-1a0b3852eff9","system_id":"levelo_inurba_marseille","lat":43.289184,"lon":5.366408,"is_reserved":false,"is_disabled":false,"rental_uris":{"android":"levelo://app?vid=d478cfc9-7182-4f38-926c-1a0b3852eff9","ios":"levelo://app?vid=d478cfc9-7182-4f38-926c-1a0b3852eff9"},"vehicle_type_id":"4","last_reported":1700319986,"current_range_meters":10400,"station_id":"ce4bhap2rcd13ifvqek0","pricing_plan_id":"free"},{"bike_id":"1ffdc114-c8f4-4026-88a0-c4a09055acae","system_id":"levelo_inurba_marseille","lat":43.289184,"lon":5.366408,"is_reserved":false,"is_disabled":false,"rental_uris":{"android":"levelo://app?vid=1ffdc114-c8f4-4026-88a0-c4a09055acae","ios":"levelo://app?vid=1ffdc114-c8f4-4026-88a0-c4a09055acae"},"vehicle_type_id":"4","last_reported":1700319986,"current_range_meters":26800,"station_id":"ce4bhap2rcd13ifvqek0","pricing_plan_id":"free"},{"bike_id":"591f4c23-eb1f-4e74-a26b-2857d3e6018d","system_id":"levelo_inurba_marseille","lat":43.289468,"lon":5.363719,"is_reserved":false,"is_disabled":false,"rental_uris":{"android":"levelo://app?vid=591f4c23-eb1f-4e74-a26b-2857d3e6018d","ios":"levelo://app?vid=591f4c23-eb1f-4e74-a26b-2857d3e6018d"},"vehicle_type_id":"4","last_reported":1700319986,"current_range_meters":400,"station_id":"ce4bhc92rcd13ifvqetg","pricing_plan_id":"free"},{"bike_id":"0bfea9fb-e54c-48d0-ae94-8127de8dbe9d","system_id":"levelo_inurba_marseille","lat":43.290104,"lon":5.356111,"is_reserved":false,"is_disabled":false,"rental_uris":{"android":"levelo://app?vid=0bfea9fb-e54c-48d0-ae94-8127de8dbe9d","ios":"levelo://app?vid=0bfea9fb-e54c-48d0-ae94-8127de8dbe9d"},"vehicle_type_id":"4","last_reported":1700319986,"current_range_meters":1600,"station_id":"ce4bhb92rcd13ifvqen0","pricing_plan_id":"free"},{"bike_id":"9e4400b8-a319-4ee0-9375-3f46be7f7148","system_id":"levelo_inurba_marseille","lat":43.290995,"lon":5.381361,"is_reserved":false,"is_disabled":false,"rental_uris":{"android":"levelo://app?vid=9e4400b8-a319-4ee0-9375-3f46be7f7148","ios":"levelo://app?vid=9e4400b8-a319-4ee0-9375-3f46be7f7148"},"vehicle_type_id":"4","last_reported":1700319986,"current_range_meters":0,"station_id":"ce4bh512rcd13ifvqe2g","pricing_plan_id":"free"},{"bike_id":"a3d58115-90ac-4fc2-ab20-4c3ed1c81920","system_id":"levelo_inurba_marseille","lat":43.295169,"lon":5.390426,"is_reserved":false,"is_disabled":false,"rental_uris":{"android":"levelo://app?vid=a3d58115-90ac-4fc2-ab20-4c3ed1c81920","ios":"levelo://app?vid=a3d58115-90ac-4fc2-ab20-4c3ed1c81920"},"vehicle_type_id":"4","last_reported":1700319986,"current_range_meters":5200,"station_id":"ce4bh3p2rcd13ifvqdp0","pricing_plan_id":"free"},{"bike_id":"b2e6a23f-6f1b-4620-b6a5-ad92bf5e455d","system_id":"levelo_inurba_marseille","lat":43.290995,"lon":5.381361,"is_reserved":false,"is_disabled":false,"rental_uris":{"android":"levelo://app?vid=b2e6a23f-6f1b-4620-b6a5-ad92bf5e455d","ios":"levelo://app?vid=b2e6a23f-6f1b-4620-b6a5-ad92bf5e455d"},"vehicle_type_id":"4","last_reported":1700319986,"current_range_meters":24800,"station_id":"ce4bh512rcd13ifvqe2g","pricing_plan_id":"free"},{"bike_id":"72431e60-f15e-49c3-a86d-32a7d914ba14","system_id":"levelo_inurba_marseille","lat":43.30727,"lon":5.39974,"is_reserved":false,"is_disabled":false,"rental_uris":{"android":"levelo://app?vid=72431e60-f15e-49c3-a86d-32a7d914ba14","ios":"levelo://app?vid=72431e60-f15e-49c3-a86d-32a7d914ba14"},"vehicle_type_id":"4","last_reported":1700319986,"current_range_meters":21200,"station_id":"","pricing_plan_id":"free"},{"bike_id":"f78c0dd1-d048-434e-8acf-72e1a92ca921","system_id":"levelo_inurba_marseille","lat":43.28856,"lon":5.358371,"is_reserved":false,"is_disabled":false,"rental_uris":{"android":"levelo://app?vid=f78c0dd1-d048-434e-8acf-72e1a92ca921","ios":"levelo://app?vid=f78c0dd1-d048-434e-8acf-72e1a92ca921"},"vehicle_type_id":"4","last_reported":1700319986,"current_range_meters":26000,"station_id":"ce4bhb12rcd13ifvqem0","pricing_plan_id":"free"},{"bike_id":"be7c768a-4f53-4158-8511-a931cbc5954b","system_id":"levelo_inurba_marseille","lat":43.28856,"lon":5.358371,"is_reserved":false,"is_disabled":false,"rental_uris":{"android":"levelo://app?vid=be7c768a-4f53-4158-8511-a931cbc5954b","ios":"levelo://app?vid=be7c768a-4f53-4158-8511-a931cbc5954b"},"vehicle_type_id":"4","last_reported":1700319986,"current_range_meters":13600,"station_id":"ce4bhb12rcd13ifvqem0","pricing_plan_id":"free"},{"bike_id":"07202f70-50d7-46f0-a5bd-59712659d6a0","system_id":"levelo_inurba_marseille","lat":43.31251,"lon":5.40162,"is_reserved":false,"is_disabled":false,"rental_uris":{"android":"levelo://app?vid=07202f70-50d7-46f0-a5bd-59712659d6a0","ios":"levelo://app?vid=07202f70-50d7-46f0-a5bd-59712659d6a0"},"vehicle_type_id":"4","last_reported":1700319986,"current_range_meters":14400,"station_id":"","pricing_plan_id":"free"},{"bike_id":"dd677d89-f872-48b6-9189-ad010113377c","system_id":"levelo_inurba_marseille","lat":43.33743,"lon":5.37432,"is_reserved":false,"is_disabled":false,"rental_uris":{"android":"levelo://app?vid=dd677d89-f872-48b6-9189-ad010113377c","ios":"levelo://app?vid=dd677d89-f872-48b6-9189-ad010113377c"},"vehicle_type_id":"4","last_reported":1700319986,"current_range_meters":30800,"station_id":"","pricing_plan_id":"free"},{"bike_id":"1568334b-0ed4-43f6-821a-bce6ab470079","system_id":"levelo_inurba_marseille","lat":43.3127,"lon":5.40182,"is_reserved":false,"is_disabled":false,"rental_uris":{"android":"levelo://app?vid=1568334b-0ed4-43f6-821a-bce6ab470079","ios":"levelo://app?vid=1568334b-0ed4-43f6-821a-bce6ab470079"},"vehicle_type_id":"4","last_reported":1700319986,"current_range_meters":2000,"station_id":"ce4bh092rcd13ifvqd30","pricing_plan_id":"free"},{"bike_id":"35c2afb3-2a9e-48ae-b4e4-68d7ede7bbfe","system_id":"levelo_inurba_marseille","lat":43.33769,"lon":5.37432,"is_reserved":false,"is_disabled":false,"rental_uris":{"android":"levelo://app?vid=35c2afb3-2a9e-48ae-b4e4-68d7ede7bbfe","ios":"levelo://app?vid=35c2afb3-2a9e-48ae-b4e4-68d7ede7bbfe"},"vehicle_type_id":"4","last_reported":1700319986,"current_range_meters":25200,"station_id":"","pricing_plan_id":"free"},{"bike_id":"bae8470f-cf76-4d95-b1de-1261b4a86f1b","system_id":"levelo_inurba_marseille","lat":43.286591,"lon":5.363346,"is_reserved":false,"is_disabled":false,"rental_uris":{"android":"levelo://app?vid=bae8470f-cf76-4d95-b1de-1261b4a86f1b","ios":"levelo://app?vid=bae8470f-cf76-4d95-b1de-1261b4a86f1b"},"vehicle_type_id":"4","last_reported":1700319986,"current_range_meters":2800,"station_id":"ce4bhah2rcd13ifvqej0","pricing_plan_id":"free"},{"bike_id":"59a570e6-f026-4065-b581-f71b84ead01e","system_id":"levelo_inurba_marseille","lat":43.286591,"lon":5.363346,"is_reserved":false,"is_disabled":false,"rental_uris":{"android":"levelo://app?vid=59a570e6-f026-4065-b581-f71b84ead01e","ios":"levelo://app?vid=59a570e6-f026-4065-b581-f71b84ead01e"},"vehicle_type_id":"4","last_reported":1700319986,"current_range_meters":30400,"station_id":"ce4bhah2rcd13ifvqej0","pricing_plan_id":"free"},{"bike_id":"0aa353a6-abaa-4cae-8024-76790c248414","system_id":"levelo_inurba_marseille","lat":43.286961,"lon":5.373785,"is_reserved":false,"is_disabled":false,"rental_uris":{"android":"levelo://app?vid=0aa353a6-abaa-4cae-8024-76790c248414","ios":"levelo://app?vid=0aa353a6-abaa-4cae-8024-76790c248414"},"vehicle_type_id":"4","last_reported":1700319986,"current_range_meters":13200,"station_id":"ce4bh3p2rcd13ifvqdq0","pricing_plan_id":"free"},{"bike_id":"b846f4a1-0723-4e29-8c16-c1d8a5db6e87","system_id":"levelo_inurba_marseille","lat":43.31642,"lon":5.40443,"is_reserved":false,"is_disabled":false,"rental_uris":{"android":"levelo://app?vid=b846f4a1-0723-4e29-8c16-c1d8a5db6e87","ios":"levelo://app?vid=b846f4a1-0723-4e29-8c16-c1d8a5db6e87"},"vehicle_type_id":"4","last_reported":1700319986,"current_range_meters":21200,"station_id":"ce4bh012rcd13ifvqd00","pricing_plan_id":"free"},{"bike_id":"0b46b1b4-f42b-4e67-9aef-2797da64a2b5","system_id":"levelo_inurba_marseille","lat":43.331515,"lon":5.396945,"is_reserved":false,"is_disabled":false,"rental_uris":{"android":"levelo://app?vid=0b46b1b4-f42b-4e67-9aef-2797da64a2b5","ios":"levelo://app?vid=0b46b1b4-f42b-4e67-9aef-2797da64a2b5"},"vehicle_type_id":"4","last_reported":1700319986,"current_range_meters":18400,"station_id":"","pricing_plan_id":"free"},{"bike_id":"c9853f0d-b06d-477c-afcb-14ed8c3eb011","system_id":"levelo_inurba_marseille","lat":43.283998,"lon":5.375062,"is_reserved":false,"is_disabled":false,"rental_uris":{"android":"levelo://app?vid=c9853f0d-b06d-477c-afcb-14ed8c3eb011","ios":"levelo://app?vid=c9853f0d-b06d-477c-afcb-14ed8c3eb011"},"vehicle_type_id":"4","last_reported":1700319986,"current_range_meters":14800,"station_id":"ce4bh412rcd13ifvqds0","pricing_plan_id":"free"},{"bike_id":"f2e54d64-c8bc-448a-9f15-4c892018103c","system_id":"levelo_inurba_marseille","lat":43.283998,"lon":5.375062,"is_reserved":false,"is_disabled":false,"rental_uris":{"android":"levelo://app?vid=f2e54d64-c8bc-448a-9f15-4c892018103c","ios":"levelo://app?vid=f2e54d64-c8bc-448a-9f15-4c892018103c"},"vehicle_type_id":"4","last_reported":1700319986,"current_range_meters":0,"station_id":"ce4bh412rcd13ifvqds0","pricing_plan_id":"free"},{"bike_id":"32766e57-adff-43e6-b4c3-4acbb4516be2","system_id":"levelo_inurba_marseille","lat":43.295717,"lon":5.399697,"is_reserved":false,"is_disabled":false,"rental_uris":{"android":"levelo://app?vid=32766e57-adff-43e6-b4c3-4acbb4516be2","ios":"levelo://app?vid=32766e57-adff-43e6-b4c3-4acbb4516be2"},"vehicle_type_id":"4","last_reported":1700319986,"current_range_meters":13600,"station_id":"","pricing_plan_id":"free"},{"bike_id":"83817918-40fc-48a0-b4d2-4ca9f198594c","system_id":"levelo_inurba_marseille","lat":43.294538,"lon":5.39855,"is_reserved":false,"is_disabled":false,"rental_uris":{"android":"levelo://app?vid=83817918-40fc-48a0-b4d2-4ca9f198594c","ios":"levelo://app?vid=83817918-40fc-48a0-b4d2-4ca9f198594c"},"vehicle_type_id":"4","last_reported":1700319986,"current_range_meters":0,"station_id":"","pricing_plan_id":"free"},{"bike_id":"a8ef2eee-eec2-4d99-a596-521b9d3773b3","system_id":"levelo_inurba_marseille","lat":43.319179,"lon":5.407725,"is_reserved":false,"is_disabled":false,"rental_uris":{"android":"levelo://app?vid=a8ef2eee-eec2-4d99-a596-521b9d3773b3","ios":"levelo://app?vid=a8ef2eee-eec2-4d99-a596-521b9d3773b3"},"vehicle_type_id":"4","last_reported":1700319986,"current_range_meters":16000,"station_id":"ce4bhq12rcd13ifvqhig","pricing_plan_id":"free"},{"bike_id":"f7a64006-4fde-4ee9-a89c-c0fec9953395","system_id":"levelo_inurba_marseille","lat":43.319179,"lon":5.407725,"is_reserved":false,"is_disabled":false,"rental_uris":{"android":"levelo://app?vid=f7a64006-4fde-4ee9-a89c-c0fec9953395","ios":"levelo://app?vid=f7a64006-4fde-4ee9-a89c-c0fec9953395"},"vehicle_type_id":"4","last_reported":1700319986,"current_range_meters":29200,"station_id":"ce4bhq12rcd13ifvqhig","pricing_plan_id":"free"},{"bike_id":"67acfb15-94c0-4f63-ba3a-07fb6f28fbc6","system_id":"levelo_inurba_marseille","lat":43.2854,"lon":5.38428,"is_reserved":false,"is_disabled":false,"rental_uris":{"android":"levelo://app?vid=67acfb15-94c0-4f63-ba3a-07fb6f28fbc6","ios":"levelo://app?vid=67acfb15-94c0-4f63-ba3a-07fb6f28fbc6"},"vehicle_type_id":"4","last_reported":1700319986,"current_range_meters":29600,"station_id":"","pricing_plan_id":"free"},{"bike_id":"5974ad3b-da81-42ca-a08b-1b3632a47afa","system_id":"levelo_inurba_marseille","lat":43.33237,"lon":5.3985,"is_reserved":false,"is_disabled":false,"rental_uris":{"android":"levelo://app?vid=5974ad3b-da81-42ca-a08b-1b3632a47afa","ios":"levelo://app?vid=5974ad3b-da81-42ca-a08b-1b3632a47afa"},"vehicle_type_id":"4","last_reported":1700319986,"current_range_meters":4800,"station_id":"","pricing_plan_id":"free"},{"bike_id":"14668cc9-211b-437f-9c0e-b8377192c836","system_id":"levelo_inurba_marseille","lat":43.28478,"lon":5.38437,"is_reserved":false,"is_disabled":false,"rental_uris":{"android":"levelo://app?vid=14668cc9-211b-437f-9c0e-b8377192c836","ios":"levelo://app?vid=14668cc9-211b-437f-9c0e-b8377192c836"},"vehicle_type_id":"4","last_reported":1700319986,"current_range_meters":0,"station_id":"ce4bh512rcd13ifvqe3g","pricing_plan_id":"free"},{"bike_id":"555ab138-cb0c-4c77-b4c0-4dab1c108934","system_id":"levelo_inurba_marseille","lat":43.28472,"lon":5.384325,"is_reserved":false,"is_disabled":false,"rental_uris":{"android":"levelo://app?vid=555ab138-cb0c-4c77-b4c0-4dab1c108934","ios":"levelo://app?vid=555ab138-cb0c-4c77-b4c0-4dab1c108934"},"vehicle_type_id":"4","last_reported":1700319986,"current_range_meters":0,"station_id":"ce4bh512rcd13ifvqe3g","pricing_plan_id":"free"},{"bike_id":"d3dd3e3d-57b0-4c9e-949f-fddd56c2349c","system_id":"levelo_inurba_marseille","lat":43.32521,"lon":5.40575,"is_reserved":false,"is_disabled":false,"rental_uris":{"android":"levelo://app?vid=d3dd3e3d-57b0-4c9e-949f-fddd56c2349c","ios":"levelo://app?vid=d3dd3e3d-57b0-4c9e-949f-fddd56c2349c"},"vehicle_type_id":"4","last_reported":1700319986,"current_range_meters":2000,"station_id":"","pricing_plan_id":"free"},{"bike_id":"deba1f81-894e-4abf-a83a-20b793565687","system_id":"levelo_inurba_marseille","lat":43.28423,"lon":5.34992,"is_reserved":false,"is_disabled":false,"rental_uris":{"android":"levelo://app?vid=deba1f81-894e-4abf-a83a-20b793565687","ios":"levelo://app?vid=deba1f81-894e-4abf-a83a-20b793565687"},"vehicle_type_id":"4","last_reported":1700319986,"current_range_meters":0,"station_id":"ce4bhbh2rcd13ifvqepg","pricing_plan_id":"free"},{"bike_id":"d399a8c9-5e56-40d9-aea3-25dad4462298","system_id":"levelo_inurba_marseille","lat":43.284219,"lon":5.3497,"is_reserved":false,"is_disabled":false,"rental_uris":{"android":"levelo://app?vid=d399a8c9-5e56-40d9-aea3-25dad4462298","ios":"levelo://app?vid=d399a8c9-5e56-40d9-aea3-25dad4462298"},"vehicle_type_id":"4","last_reported":1700319986,"current_range_meters":0,"station_id":"ce4bhbh2rcd13ifvqepg","pricing_plan_id":"free"},{"bike_id":"c493ec33-b1f3-451b-91fe-61fefdfa785d","system_id":"levelo_inurba_marseille","lat":43.28415,"lon":5.34987,"is_reserved":false,"is_disabled":false,"rental_uris":{"android":"levelo://app?vid=c493ec33-b1f3-451b-91fe-61fefdfa785d","ios":"levelo://app?vid=c493ec33-b1f3-451b-91fe-61fefdfa785d"},"vehicle_type_id":"4","last_reported":1700319986,"current_range_meters":0,"station_id":"ce4bhbh2rcd13ifvqepg","pricing_plan_id":"free"},{"bike_id":"aabb282c-d9e1-4fdd-9bf0-09d92d9c0a16","system_id":"levelo_inurba_marseille","lat":43.283502,"lon":5.386471,"is_reserved":false,"is_disabled":false,"rental_uris":{"android":"levelo://app?vid=aabb282c-d9e1-4fdd-9bf0-09d92d9c0a16","ios":"levelo://app?vid=aabb282c-d9e1-4fdd-9bf0-09d92d9c0a16"},"vehicle_type_id":"4","last_reported":1700319986,"current_range_meters":9200,"station_id":"ce4bh492rcd13ifvqdvg","pricing_plan_id":"free"},{"bike_id":"c062594f-6087-4204-9bcc-f6d6bbd6089a","system_id":"levelo_inurba_marseille","lat":43.282744,"lon":5.350533,"is_reserved":false,"is_disabled":false,"rental_uris":{"android":"levelo://app?vid=c062594f-6087-4204-9bcc-f6d6bbd6089a","ios":"levelo://app?vid=c062594f-6087-4204-9bcc-f6d6bbd6089a"},"vehicle_type_id":"4","last_reported":1700319986,"current_range_meters":3200,"station_id":"ce4bhbp2rcd13ifvqerg","pricing_plan_id":"free"},{"bike_id":"1c076b2f-f293-4814-8742-d5bbecec7dfc","system_id":"levelo_inurba_marseille","lat":43.28027,"lon":5.36953,"is_reserved":false,"is_disabled":false,"rental_uris":{"android":"levelo://app?vid=1c076b2f-f293-4814-8742-d5bbecec7dfc","ios":"levelo://app?vid=1c076b2f-f293-4814-8742-d5bbecec7dfc"},"vehicle_type_id":"4","last_reported":1700319986,"current_range_meters":21200,"station_id":"ce4bha12rcd13ifvqef0","pricing_plan_id":"free"},{"bike_id":"ccf9b17e-2fb6-47d5-b5cb-73ea08fcb6e5","system_id":"levelo_inurba_marseille","lat":43.28575,"lon":5.39498,"is_reserved":false,"is_disabled":false,"rental_uris":{"android":"levelo://app?vid=ccf9b17e-2fb6-47d5-b5cb-73ea08fcb6e5","ios":"levelo://app?vid=ccf9b17e-2fb6-47d5-b5cb-73ea08fcb6e5"},"vehicle_type_id":"4","last_reported":1700319986,"current_range_meters":800,"station_id":"ce4bh292rcd13ifvqdg0","pricing_plan_id":"free"},{"bike_id":"8b29784a-9080-453f-9592-156054660562","system_id":"levelo_inurba_marseille","lat":43.304188,"lon":5.412904,"is_reserved":false,"is_disabled":false,"rental_uris":{"android":"levelo://app?vid=8b29784a-9080-453f-9592-156054660562","ios":"levelo://app?vid=8b29784a-9080-453f-9592-156054660562"},"vehicle_type_id":"4","last_reported":1700319986,"current_range_meters":14000,"station_id":"ce4bhop2rcd13ifvqh8g","pricing_plan_id":"free"},{"bike_id":"d6a42538-130e-4a83-a5c6-9cb311bd0a53","system_id":"levelo_inurba_marseille","lat":43.279087,"lon":5.380114,"is_reserved":false,"is_disabled":false,"rental_uris":{"android":"levelo://app?vid=d6a42538-130e-4a83-a5c6-9cb311bd0a53","ios":"levelo://app?vid=d6a42538-130e-4a83-a5c6-9cb311bd0a53"},"vehicle_type_id":"4","last_reported":1700319986,"current_range_meters":5200,"station_id":"ce4bhf92rcd13ifvqf50","pricing_plan_id":"free"},{"bike_id":"feca28d2-7019-4e39-96be-d7938cc29597","system_id":"levelo_inurba_marseille","lat":43.32435,"lon":5.4137,"is_reserved":false,"is_disabled":false,"rental_uris":{"android":"levelo://app?vid=feca28d2-7019-4e39-96be-d7938cc29597","ios":"levelo://app?vid=feca28d2-7019-4e39-96be-d7938cc29597"},"vehicle_type_id":"4","last_reported":1700319986,"current_range_meters":0,"station_id":"","pricing_plan_id":"free"},{"bike_id":"3878b492-f07f-4599-991d-7b2c11f8b6eb","system_id":"levelo_inurba_marseille","lat":43.279742,"lon":5.38744,"is_reserved":false,"is_disabled":false,"rental_uris":{"android":"levelo://app?vid=3878b492-f07f-4599-991d-7b2c11f8b6eb","ios":"levelo://app?vid=3878b492-f07f-4599-991d-7b2c11f8b6eb"},"vehicle_type_id":"4","last_reported":1700319986,"current_range_meters":1200,"station_id":"ce4bhg12rcd13ifvqf80","pricing_plan_id":"free"},{"bike_id":"69fb2cd3-8df2-49eb-aa81-81b1fcec5541","system_id":"levelo_inurba_marseille","lat":43.320045,"lon":5.415046,"is_reserved":false,"is_disabled":false,"rental_uris":{"android":"levelo://app?vid=69fb2cd3-8df2-49eb-aa81-81b1fcec5541","ios":"levelo://app?vid=69fb2cd3-8df2-49eb-aa81-81b1fcec5541"},"vehicle_type_id":"4","last_reported":1700319986,"current_range_meters":10000,"station_id":"ce4bhq92rcd13ifvqhkg","pricing_plan_id":"free"},{"bike_id":"b77cd9a6-a7a9-4a8b-9b70-f04157603d03","system_id":"levelo_inurba_marseille","lat":43.29261,"lon":5.40911,"is_reserved":false,"is_disabled":false,"rental_uris":{"android":"levelo://app?vid=b77cd9a6-a7a9-4a8b-9b70-f04157603d03","ios":"levelo://app?vid=b77cd9a6-a7a9-4a8b-9b70-f04157603d03"},"vehicle_type_id":"4","last_reported":1700319986,"current_range_meters":26000,"station_id":"ce4bh192rcd13ifvqdc0","pricing_plan_id":"free"},{"bike_id":"a3e4a60b-7e77-44db-8fe5-a07269580a5a","system_id":"levelo_inurba_marseille","lat":43.273613,"lon":5.362705,"is_reserved":false,"is_disabled":false,"rental_uris":{"android":"levelo://app?vid=a3e4a60b-7e77-44db-8fe5-a07269580a5a","ios":"levelo://app?vid=a3e4a60b-7e77-44db-8fe5-a07269580a5a"},"vehicle_type_id":"4","last_reported":1700319986,"current_range_meters":12800,"station_id":"ce4bhbh2rcd13ifvqeo0","pricing_plan_id":"free"},{"bike_id":"5e797549-0eae-433d-8eb2-8c381eeccef5","system_id":"levelo_inurba_marseille","lat":43.273609,"lon":5.362708,"is_reserved":false,"is_disabled":false,"rental_uris":{"android":"levelo://app?vid=5e797549-0eae-433d-8eb2-8c381eeccef5","ios":"levelo://app?vid=5e797549-0eae-433d-8eb2-8c381eeccef5"},"vehicle_type_id":"4","last_reported":1700319986,"current_range_meters":31600,"station_id":"ce4bhbh2rcd13ifvqeo0","pricing_plan_id":"free"},{"bike_id":"fca120bc-4b82-434a-9778-0eedfed0362b","system_id":"levelo_inurba_marseille","lat":43.273609,"lon":5.362708,"is_reserved":false,"is_disabled":false,"rental_uris":{"android":"levelo://app?vid=fca120bc-4b82-434a-9778-0eedfed0362b","ios":"levelo://app?vid=fca120bc-4b82-434a-9778-0eedfed0362b"},"vehicle_type_id":"4","last_reported":1700319986,"current_range_meters":12800,"station_id":"ce4bhbh2rcd13ifvqeo0","pricing_plan_id":"free"},{"bike_id":"1ad4bac4-5418-4256-8ec1-771af925d1d3","system_id":"levelo_inurba_marseille","lat":43.33612,"lon":5.410321,"is_reserved":false,"is_disabled":false,"rental_uris":{"android":"levelo://app?vid=1ad4bac4-5418-4256-8ec1-771af925d1d3","ios":"levelo://app?vid=1ad4bac4-5418-4256-8ec1-771af925d1d3"},"vehicle_type_id":"4","last_reported":1700319986,"current_range_meters":27600,"station_id":"ce4bhqh2rcd13ifvqhmg","pricing_plan_id":"free"},{"bike_id":"d10fa51c-e6d7-4dca-9949-555b5e907451","system_id":"levelo_inurba_marseille","lat":43.33606,"lon":5.41028,"is_reserved":false,"is_disabled":false,"rental_uris":{"android":"levelo://app?vid=d10fa51c-e6d7-4dca-9949-555b5e907451","ios":"levelo://app?vid=d10fa51c-e6d7-4dca-9949-555b5e907451"},"vehicle_type_id":"4","last_reported":1700319986,"current_range_meters":12400,"station_id":"ce4bhqh2rcd13ifvqhmg","pricing_plan_id":"free"},{"bike_id":"1cb2a7a7-26e8-44e5-894e-0ccc0d8d8cc7","system_id":"levelo_inurba_marseille","lat":43.33602,"lon":5.41035,"is_reserved":false,"is_disabled":false,"rental_uris":{"android":"levelo://app?vid=1cb2a7a7-26e8-44e5-894e-0ccc0d8d8cc7","ios":"levelo://app?vid=1cb2a7a7-26e8-44e5-894e-0ccc0d8d8cc7"},"vehicle_type_id":"4","last_reported":1700319986,"current_range_meters":20800,"station_id":"ce4bhqh2rcd13ifvqhmg","pricing_plan_id":"free"},{"bike_id":"abe1834f-b9b3-4281-b760-4aa0f16a0aeb","system_id":"levelo_inurba_marseille","lat":43.336134,"lon":5.410341,"is_reserved":false,"is_disabled":false,"rental_uris":{"android":"levelo://app?vid=abe1834f-b9b3-4281-b760-4aa0f16a0aeb","ios":"levelo://app?vid=abe1834f-b9b3-4281-b760-4aa0f16a0aeb"},"vehicle_type_id":"4","last_reported":1700319986,"current_range_meters":9600,"station_id":"ce4bhqh2rcd13ifvqhmg","pricing_plan_id":"free"},{"bike_id":"e7b8116b-58de-462b-a330-18bfcf8d2ed9","system_id":"levelo_inurba_marseille","lat":43.279952,"lon":5.400085,"is_reserved":false,"is_disabled":false,"rental_uris":{"android":"levelo://app?vid=e7b8116b-58de-462b-a330-18bfcf8d2ed9","ios":"levelo://app?vid=e7b8116b-58de-462b-a330-18bfcf8d2ed9"},"vehicle_type_id":"4","last_reported":1700319986,"current_range_meters":16400,"station_id":"ce4bho92rcd13ifvqh4g","pricing_plan_id":"free"},{"bike_id":"18d269e8-2e40-4f1f-8cc3-732ff54d70ea","system_id":"levelo_inurba_marseille","lat":43.27998,"lon":5.40011,"is_reserved":false,"is_disabled":false,"rental_uris":{"android":"levelo://app?vid=18d269e8-2e40-4f1f-8cc3-732ff54d70ea","ios":"levelo://app?vid=18d269e8-2e40-4f1f-8cc3-732ff54d70ea"},"vehicle_type_id":"4","last_reported":1700319986,"current_range_meters":2400,"station_id":"ce4bho92rcd13ifvqh4g","pricing_plan_id":"free"},{"bike_id":"1c489e8f-9c52-4563-a1a2-18535a1743aa","system_id":"levelo_inurba_marseille","lat":43.27995,"lon":5.40017,"is_reserved":false,"is_disabled":false,"rental_uris":{"android":"levelo://app?vid=1c489e8f-9c52-4563-a1a2-18535a1743aa","ios":"levelo://app?vid=1c489e8f-9c52-4563-a1a2-18535a1743aa"},"vehicle_type_id":"4","last_reported":1700319986,"current_range_meters":11600,"station_id":"ce4bho92rcd13ifvqh4g","pricing_plan_id":"free"},{"bike_id":"ef1c6620-0330-4606-96e5-6c5e1567f762","system_id":"levelo_inurba_marseille","lat":43.279952,"lon":5.400085,"is_reserved":false,"is_disabled":false,"rental_uris":{"android":"levelo://app?vid=ef1c6620-0330-4606-96e5-6c5e1567f762","ios":"levelo://app?vid=ef1c6620-0330-4606-96e5-6c5e1567f762"},"vehicle_type_id":"4","last_reported":1700319986,"current_range_meters":24000,"station_id":"ce4bho92rcd13ifvqh4g","pricing_plan_id":"free"},{"bike_id":"21a79381-c590-43fa-b57c-d9f763a4b9f0","system_id":"levelo_inurba_marseille","lat":43.279952,"lon":5.400085,"is_reserved":false,"is_disabled":false,"rental_uris":{"android":"levelo://app?vid=21a79381-c590-43fa-b57c-d9f763a4b9f0","ios":"levelo://app?vid=21a79381-c590-43fa-b57c-d9f763a4b9f0"},"vehicle_type_id":"4","last_reported":1700319986,"current_range_meters":30000,"station_id":"ce4bho92rcd13ifvqh4g","pricing_plan_id":"free"},{"bike_id":"2eb9c8ea-eafc-4114-96e5-18995d764647","system_id":"levelo_inurba_marseille","lat":43.31083,"lon":5.4243,"is_reserved":false,"is_disabled":false,"rental_uris":{"android":"levelo://app?vid=2eb9c8ea-eafc-4114-96e5-18995d764647","ios":"levelo://app?vid=2eb9c8ea-eafc-4114-96e5-18995d764647"},"vehicle_type_id":"4","last_reported":1700319986,"current_range_meters":27600,"station_id":"ce4bhp92rcd13ifvqhag","pricing_plan_id":"free"},{"bike_id":"1f675464-1fc9-4eb9-949d-be8a1f26b9d4","system_id":"levelo_inurba_marseille","lat":43.31082,"lon":5.42432,"is_reserved":false,"is_disabled":false,"rental_uris":{"android":"levelo://app?vid=1f675464-1fc9-4eb9-949d-be8a1f26b9d4","ios":"levelo://app?vid=1f675464-1fc9-4eb9-949d-be8a1f26b9d4"},"vehicle_type_id":"4","last_reported":1700319986,"current_range_meters":29200,"station_id":"ce4bhp92rcd13ifvqhag","pricing_plan_id":"free"},{"bike_id":"3a7b98b9-7ee6-4352-b93c-93a226bec689","system_id":"levelo_inurba_marseille","lat":43.27782,"lon":5.39935,"is_reserved":false,"is_disabled":false,"rental_uris":{"android":"levelo://app?vid=3a7b98b9-7ee6-4352-b93c-93a226bec689","ios":"levelo://app?vid=3a7b98b9-7ee6-4352-b93c-93a226bec689"},"vehicle_type_id":"4","last_reported":1700319986,"current_range_meters":0,"station_id":"","pricing_plan_id":"free"},{"bike_id":"1c0ff262-f3e4-48a9-92dc-0003b6949af8","system_id":"levelo_inurba_marseille","lat":43.273129,"lon":5.390725,"is_reserved":false,"is_disabled":false,"rental_uris":{"android":"levelo://app?vid=1c0ff262-f3e4-48a9-92dc-0003b6949af8","ios":"levelo://app?vid=1c0ff262-f3e4-48a9-92dc-0003b6949af8"},"vehicle_type_id":"4","last_reported":1700319986,"current_range_meters":13600,"station_id":"ce4bhgp2rcd13ifvqfe0","pricing_plan_id":"free"},{"bike_id":"5d9f8e37-6031-4eba-a72b-c12ec9df0454","system_id":"levelo_inurba_marseille","lat":43.27315,"lon":5.39088,"is_reserved":false,"is_disabled":false,"rental_uris":{"android":"levelo://app?vid=5d9f8e37-6031-4eba-a72b-c12ec9df0454","ios":"levelo://app?vid=5d9f8e37-6031-4eba-a72b-c12ec9df0454"},"vehicle_type_id":"4","last_reported":1700319986,"current_range_meters":0,"station_id":"ce4bhgp2rcd13ifvqfe0","pricing_plan_id":"free"},{"bike_id":"04bbc38d-7f22-4aba-8f64-3ccd5f9651ac","system_id":"levelo_inurba_marseille","lat":43.27312,"lon":5.39084,"is_reserved":false,"is_disabled":false,"rental_uris":{"android":"levelo://app?vid=04bbc38d-7f22-4aba-8f64-3ccd5f9651ac","ios":"levelo://app?vid=04bbc38d-7f22-4aba-8f64-3ccd5f9651ac"},"vehicle_type_id":"4","last_reported":1700319986,"current_range_meters":5600,"station_id":"ce4bhgp2rcd13ifvqfe0","pricing_plan_id":"free"},{"bike_id":"7d1f97b9-ee6c-4ac2-832f-ccde09d82150","system_id":"levelo_inurba_marseille","lat":43.29555,"lon":5.42293,"is_reserved":false,"is_disabled":false,"rental_uris":{"android":"levelo://app?vid=7d1f97b9-ee6c-4ac2-832f-ccde09d82150","ios":"levelo://app?vid=7d1f97b9-ee6c-4ac2-832f-ccde09d82150"},"vehicle_type_id":"4","last_reported":1700319986,"current_range_meters":12000,"station_id":"ce4bhph2rcd13ifvqhdg","pricing_plan_id":"free"},{"bike_id":"8eca73a7-bce3-4b86-a555-f300db5c54bb","system_id":"levelo_inurba_marseille","lat":43.295523,"lon":5.422926,"is_reserved":false,"is_disabled":false,"rental_uris":{"android":"levelo://app?vid=8eca73a7-bce3-4b86-a555-f300db5c54bb","ios":"levelo://app?vid=8eca73a7-bce3-4b86-a555-f300db5c54bb"},"vehicle_type_id":"4","last_reported":1700319986,"current_range_meters":9200,"station_id":"ce4bhph2rcd13ifvqhdg","pricing_plan_id":"free"},{"bike_id":"bd3eaa02-a284-4ff2-af08-5d3d38e4f9ce","system_id":"levelo_inurba_marseille","lat":43.272116,"lon":5.391763,"is_reserved":false,"is_disabled":false,"rental_uris":{"android":"levelo://app?vid=bd3eaa02-a284-4ff2-af08-5d3d38e4f9ce","ios":"levelo://app?vid=bd3eaa02-a284-4ff2-af08-5d3d38e4f9ce"},"vehicle_type_id":"4","last_reported":1700319986,"current_range_meters":19600,"station_id":"ce4bhhp2rcd13ifvqfm0","pricing_plan_id":"free"},{"bike_id":"f8f5619a-a183-461d-b100-453fb972fcd4","system_id":"levelo_inurba_marseille","lat":43.272118,"lon":5.391758,"is_reserved":false,"is_disabled":false,"rental_uris":{"android":"levelo://app?vid=f8f5619a-a183-461d-b100-453fb972fcd4","ios":"levelo://app?vid=f8f5619a-a183-461d-b100-453fb972fcd4"},"vehicle_type_id":"4","last_reported":1700319986,"current_range_meters":27600,"station_id":"ce4bhhp2rcd13ifvqfm0","pricing_plan_id":"free"},{"bike_id":"139753b1-0b83-4c3a-80f1-5052bac15461","system_id":"levelo_inurba_marseille","lat":43.2722,"lon":5.39237,"is_reserved":false,"is_disabled":false,"rental_uris":{"android":"levelo://app?vid=139753b1-0b83-4c3a-80f1-5052bac15461","ios":"levelo://app?vid=139753b1-0b83-4c3a-80f1-5052bac15461"},"vehicle_type_id":"4","last_reported":1700319986,"current_range_meters":9600,"station_id":"","pricing_plan_id":"free"},{"bike_id":"8e9cebcc-1987-4348-87cf-10365cf07425","system_id":"levelo_inurba_marseille","lat":43.272185,"lon":5.392625,"is_reserved":false,"is_disabled":false,"rental_uris":{"android":"levelo://app?vid=8e9cebcc-1987-4348-87cf-10365cf07425","ios":"levelo://app?vid=8e9cebcc-1987-4348-87cf-10365cf07425"},"vehicle_type_id":"4","last_reported":1700319986,"current_range_meters":3200,"station_id":"","pricing_plan_id":"free"},{"bike_id":"fe139271-7817-4645-9ec4-f7eee743e805","system_id":"levelo_inurba_marseille","lat":43.271896,"lon":5.392307,"is_reserved":false,"is_disabled":false,"rental_uris":{"android":"levelo://app?vid=fe139271-7817-4645-9ec4-f7eee743e805","ios":"levelo://app?vid=fe139271-7817-4645-9ec4-f7eee743e805"},"vehicle_type_id":"4","last_reported":1700319986,"current_range_meters":0,"station_id":"ce4bhhp2rcd13ifvqfm0","pricing_plan_id":"free"},{"bike_id":"f0ed4531-078e-42fb-a007-3ed80505eb54","system_id":"levelo_inurba_marseille","lat":43.271891,"lon":5.392412,"is_reserved":false,"is_disabled":false,"rental_uris":{"android":"levelo://app?vid=f0ed4531-078e-42fb-a007-3ed80505eb54","ios":"levelo://app?vid=f0ed4531-078e-42fb-a007-3ed80505eb54"},"vehicle_type_id":"4","last_reported":1700319986,"current_range_meters":6800,"station_id":"","pricing_plan_id":"free"},{"bike_id":"462126be-b935-4202-aab0-db26edf447e2","system_id":"levelo_inurba_marseille","lat":43.326111,"lon":5.427105,"is_reserved":false,"is_disabled":false,"rental_uris":{"android":"levelo://app?vid=462126be-b935-4202-aab0-db26edf447e2","ios":"levelo://app?vid=462126be-b935-4202-aab0-db26edf447e2"},"vehicle_type_id":"4","last_reported":1700319986,"current_range_meters":11200,"station_id":"","pricing_plan_id":"free"},{"bike_id":"200aa8b9-7f12-4c40-b69d-a34b95a4b632","system_id":"levelo_inurba_marseille","lat":43.261782,"lon":5.374515,"is_reserved":false,"is_disabled":false,"rental_uris":{"android":"levelo://app?vid=200aa8b9-7f12-4c40-b69d-a34b95a4b632","ios":"levelo://app?vid=200aa8b9-7f12-4c40-b69d-a34b95a4b632"},"vehicle_type_id":"4","last_reported":1700319986,"current_range_meters":20400,"station_id":"ce4bhgp2rcd13ifvqfc0","pricing_plan_id":"free"},{"bike_id":"5b48fc7b-065c-4acf-bb12-0dea51574d29","system_id":"levelo_inurba_marseille","lat":43.26681,"lon":5.382694,"is_reserved":false,"is_disabled":false,"rental_uris":{"android":"levelo://app?vid=5b48fc7b-065c-4acf-bb12-0dea51574d29","ios":"levelo://app?vid=5b48fc7b-065c-4acf-bb12-0dea51574d29"},"vehicle_type_id":"4","last_reported":1700319986,"current_range_meters":19600,"station_id":"ce4bhg92rcd13ifvqf90","pricing_plan_id":"free"},{"bike_id":"381a1fda-04c9-4584-b5b8-284c45bbe522","system_id":"levelo_inurba_marseille","lat":43.26551,"lon":5.3729,"is_reserved":false,"is_disabled":false,"rental_uris":{"android":"levelo://app?vid=381a1fda-04c9-4584-b5b8-284c45bbe522","ios":"levelo://app?vid=381a1fda-04c9-4584-b5b8-284c45bbe522"},"vehicle_type_id":"4","last_reported":1700319986,"current_range_meters":31200,"station_id":"ce4bhg12rcd13ifvqf70","pricing_plan_id":"free"},{"bike_id":"431d5e10-0bcd-41f9-bd27-ef6048db312c","system_id":"levelo_inurba_marseille","lat":43.26551,"lon":5.37297,"is_reserved":false,"is_disabled":false,"rental_uris":{"android":"levelo://app?vid=431d5e10-0bcd-41f9-bd27-ef6048db312c","ios":"levelo://app?vid=431d5e10-0bcd-41f9-bd27-ef6048db312c"},"vehicle_type_id":"4","last_reported":1700319986,"current_range_meters":31200,"station_id":"ce4bhg12rcd13ifvqf70","pricing_plan_id":"free"},{"bike_id":"c7758cb2-2a45-4f89-aa5c-0e391d845c76","system_id":"levelo_inurba_marseille","lat":43.326053,"lon":5.429943,"is_reserved":false,"is_disabled":false,"rental_uris":{"android":"levelo://app?vid=c7758cb2-2a45-4f89-aa5c-0e391d845c76","ios":"levelo://app?vid=c7758cb2-2a45-4f89-aa5c-0e391d845c76"},"vehicle_type_id":"4","last_reported":1700319986,"current_range_meters":4000,"station_id":"","pricing_plan_id":"free"},{"bike_id":"42871d3b-8c03-490f-baf1-f4b57c44a331","system_id":"levelo_inurba_marseille","lat":43.326311,"lon":5.430824,"is_reserved":false,"is_disabled":false,"rental_uris":{"android":"levelo://app?vid=42871d3b-8c03-490f-baf1-f4b57c44a331","ios":"levelo://app?vid=42871d3b-8c03-490f-baf1-f4b57c44a331"},"vehicle_type_id":"4","last_reported":1700319986,"current_range_meters":17200,"station_id":"","pricing_plan_id":"free"},{"bike_id":"1fe1c6ed-2ba1-476e-a181-26954fa3da50","system_id":"levelo_inurba_marseille","lat":43.27996,"lon":5.416624,"is_reserved":false,"is_disabled":false,"rental_uris":{"android":"levelo://app?vid=1fe1c6ed-2ba1-476e-a181-26954fa3da50","ios":"levelo://app?vid=1fe1c6ed-2ba1-476e-a181-26954fa3da50"},"vehicle_type_id":"4","last_reported":1700319986,"current_range_meters":21200,"station_id":"ce4bho12rcd13ifvqh1g","pricing_plan_id":"free"},{"bike_id":"7cfda55a-b599-4730-8d98-4a271de9db39","system_id":"levelo_inurba_marseille","lat":43.265714,"lon":5.372891,"is_reserved":false,"is_disabled":false,"rental_uris":{"android":"levelo://app?vid=7cfda55a-b599-4730-8d98-4a271de9db39","ios":"levelo://app?vid=7cfda55a-b599-4730-8d98-4a271de9db39"},"vehicle_type_id":"4","last_reported":1700319986,"current_range_meters":9200,"station_id":"ce4bhg12rcd13ifvqf70","pricing_plan_id":"free"},{"bike_id":"c3538905-a330-4fc9-82ca-1d39b997d948","system_id":"levelo_inurba_marseille","lat":43.267966,"lon":5.393976,"is_reserved":false,"is_disabled":false,"rental_uris":{"android":"levelo://app?vid=c3538905-a330-4fc9-82ca-1d39b997d948","ios":"levelo://app?vid=c3538905-a330-4fc9-82ca-1d39b997d948"},"vehicle_type_id":"4","last_reported":1700319986,"current_range_meters":23200,"station_id":"ce4bhh12rcd13ifvqfg0","pricing_plan_id":"free"},{"bike_id":"5bcb4536-9163-4f4c-876f-f5fabcb1fa59","system_id":"levelo_inurba_marseille","lat":43.267966,"lon":5.393976,"is_reserved":false,"is_disabled":false,"rental_uris":{"android":"levelo://app?vid=5bcb4536-9163-4f4c-876f-f5fabcb1fa59","ios":"levelo://app?vid=5bcb4536-9163-4f4c-876f-f5fabcb1fa59"},"vehicle_type_id":"4","last_reported":1700319986,"current_range_meters":23600,"station_id":"ce4bhh12rcd13ifvqfg0","pricing_plan_id":"free"},{"bike_id":"f7590c1c-df45-40f0-bf0b-62ed9689b376","system_id":"levelo_inurba_marseille","lat":43.26569,"lon":5.39007,"is_reserved":false,"is_disabled":false,"rental_uris":{"android":"levelo://app?vid=f7590c1c-df45-40f0-bf0b-62ed9689b376","ios":"levelo://app?vid=f7590c1c-df45-40f0-bf0b-62ed9689b376"},"vehicle_type_id":"4","last_reported":1700319986,"current_range_meters":23600,"station_id":"ce4bhe12rcd13ifvqf30","pricing_plan_id":"free"},{"bike_id":"9b2736c7-844b-4124-9899-71ee50e6a66e","system_id":"levelo_inurba_marseille","lat":43.26572,"lon":5.39021,"is_reserved":false,"is_disabled":false,"rental_uris":{"android":"levelo://app?vid=9b2736c7-844b-4124-9899-71ee50e6a66e","ios":"levelo://app?vid=9b2736c7-844b-4124-9899-71ee50e6a66e"},"vehicle_type_id":"4","last_reported":1700319986,"current_range_meters":1600,"station_id":"ce4bhe12rcd13ifvqf30","pricing_plan_id":"free"},{"bike_id":"cae60490-d918-45a0-a79d-2e6d3062712e","system_id":"levelo_inurba_marseille","lat":43.26568,"lon":5.39018,"is_reserved":false,"is_disabled":false,"rental_uris":{"android":"levelo://app?vid=cae60490-d918-45a0-a79d-2e6d3062712e","ios":"levelo://app?vid=cae60490-d918-45a0-a79d-2e6d3062712e"},"vehicle_type_id":"4","last_reported":1700319986,"current_range_meters":18400,"station_id":"ce4bhe12rcd13ifvqf30","pricing_plan_id":"free"},{"bike_id":"38611bac-534e-41ce-a432-e4cc344edcf7","system_id":"levelo_inurba_marseille","lat":43.26566,"lon":5.39014,"is_reserved":false,"is_disabled":false,"rental_uris":{"android":"levelo://app?vid=38611bac-534e-41ce-a432-e4cc344edcf7","ios":"levelo://app?vid=38611bac-534e-41ce-a432-e4cc344edcf7"},"vehicle_type_id":"4","last_reported":1700319986,"current_range_meters":17600,"station_id":"ce4bhe12rcd13ifvqf30","pricing_plan_id":"free"},{"bike_id":"3736cb06-5eeb-4062-bf7b-f617074b4e56","system_id":"levelo_inurba_marseille","lat":43.26563,"lon":5.39018,"is_reserved":false,"is_disabled":false,"rental_uris":{"android":"levelo://app?vid=3736cb06-5eeb-4062-bf7b-f617074b4e56","ios":"levelo://app?vid=3736cb06-5eeb-4062-bf7b-f617074b4e56"},"vehicle_type_id":"4","last_reported":1700319986,"current_range_meters":22800,"station_id":"ce4bhe12rcd13ifvqf30","pricing_plan_id":"free"},{"bike_id":"b56a6d6f-8d83-4500-8a42-2e819ea77445","system_id":"levelo_inurba_marseille","lat":43.2656,"lon":5.390163,"is_reserved":false,"is_disabled":false,"rental_uris":{"android":"levelo://app?vid=b56a6d6f-8d83-4500-8a42-2e819ea77445","ios":"levelo://app?vid=b56a6d6f-8d83-4500-8a42-2e819ea77445"},"vehicle_type_id":"4","last_reported":1700319986,"current_range_meters":12400,"station_id":"ce4bhe12rcd13ifvqf30","pricing_plan_id":"free"},{"bike_id":"5c9955c0-8303-4a13-bb91-f6ce1376fcdd","system_id":"levelo_inurba_marseille","lat":43.26949,"lon":5.40262,"is_reserved":false,"is_disabled":false,"rental_uris":{"android":"levelo://app?vid=5c9955c0-8303-4a13-bb91-f6ce1376fcdd","ios":"levelo://app?vid=5c9955c0-8303-4a13-bb91-f6ce1376fcdd"},"vehicle_type_id":"4","last_reported":1700319986,"current_range_meters":3600,"station_id":"cjm6bp8fraef2m0cb0m0","pricing_plan_id":"free"},{"bike_id":"192e7f19-88eb-4015-ab65-259d335c9f91","system_id":"levelo_inurba_marseille","lat":43.26949,"lon":5.40262,"is_reserved":false,"is_disabled":false,"rental_uris":{"android":"levelo://app?vid=192e7f19-88eb-4015-ab65-259d335c9f91","ios":"levelo://app?vid=192e7f19-88eb-4015-ab65-259d335c9f91"},"vehicle_type_id":"4","last_reported":1700319986,"current_range_meters":31200,"station_id":"cjm6bp8fraef2m0cb0m0","pricing_plan_id":"free"},{"bike_id":"313a13de-e8ef-4201-aa39-985e64d13e72","system_id":"levelo_inurba_marseille","lat":43.261782,"lon":5.374515,"is_reserved":false,"is_disabled":false,"rental_uris":{"android":"levelo://app?vid=313a13de-e8ef-4201-aa39-985e64d13e72","ios":"levelo://app?vid=313a13de-e8ef-4201-aa39-985e64d13e72"},"vehicle_type_id":"4","last_reported":1700319986,"current_range_meters":14400,"station_id":"ce4bhgp2rcd13ifvqfc0","pricing_plan_id":"free"},{"bike_id":"c3477432-12d7-412e-b09a-2e7aeefbf5fb","system_id":"levelo_inurba_marseille","lat":43.261782,"lon":5.374515,"is_reserved":false,"is_disabled":false,"rental_uris":{"android":"levelo://app?vid=c3477432-12d7-412e-b09a-2e7aeefbf5fb","ios":"levelo://app?vid=c3477432-12d7-412e-b09a-2e7aeefbf5fb"},"vehicle_type_id":"4","last_reported":1700319986,"current_range_meters":23200,"station_id":"ce4bhgp2rcd13ifvqfc0","pricing_plan_id":"free"},{"bike_id":"b7219626-a533-468b-af2d-e1461ec8c2a3","system_id":"levelo_inurba_marseille","lat":43.261782,"lon":5.374515,"is_reserved":false,"is_disabled":false,"rental_uris":{"android":"levelo://app?vid=b7219626-a533-468b-af2d-e1461ec8c2a3","ios":"levelo://app?vid=b7219626-a533-468b-af2d-e1461ec8c2a3"},"vehicle_type_id":"4","last_reported":1700319986,"current_range_meters":2000,"station_id":"ce4bhgp2rcd13ifvqfc0","pricing_plan_id":"free"},{"bike_id":"bbff91cb-6958-414b-9273-96ea6ecb3f42","system_id":"levelo_inurba_marseille","lat":43.261782,"lon":5.374515,"is_reserved":false,"is_disabled":false,"rental_uris":{"android":"levelo://app?vid=bbff91cb-6958-414b-9273-96ea6ecb3f42","ios":"levelo://app?vid=bbff91cb-6958-414b-9273-96ea6ecb3f42"},"vehicle_type_id":"4","last_reported":1700319986,"current_range_meters":6400,"station_id":"ce4bhgp2rcd13ifvqfc0","pricing_plan_id":"free"},{"bike_id":"d077710c-062f-4bb5-bc07-f925193fbbe9","system_id":"levelo_inurba_marseille","lat":43.31711,"lon":5.43706,"is_reserved":false,"is_disabled":false,"rental_uris":{"android":"levelo://app?vid=d077710c-062f-4bb5-bc07-f925193fbbe9","ios":"levelo://app?vid=d077710c-062f-4bb5-bc07-f925193fbbe9"},"vehicle_type_id":"4","last_reported":1700319986,"current_range_meters":6800,"station_id":"ce4bhp92rcd13ifvqhcg","pricing_plan_id":"free"},{"bike_id":"802ce0a4-d556-447b-bd93-4352fcbc5e24","system_id":"levelo_inurba_marseille","lat":43.317104,"lon":5.436818,"is_reserved":false,"is_disabled":false,"rental_uris":{"android":"levelo://app?vid=802ce0a4-d556-447b-bd93-4352fcbc5e24","ios":"levelo://app?vid=802ce0a4-d556-447b-bd93-4352fcbc5e24"},"vehicle_type_id":"4","last_reported":1700319986,"current_range_meters":30400,"station_id":"ce4bhp92rcd13ifvqhcg","pricing_plan_id":"free"},{"bike_id":"784d80d8-896e-47bd-b3d7-848c15221843","system_id":"levelo_inurba_marseille","lat":43.3171,"lon":5.43708,"is_reserved":false,"is_disabled":false,"rental_uris":{"android":"levelo://app?vid=784d80d8-896e-47bd-b3d7-848c15221843","ios":"levelo://app?vid=784d80d8-896e-47bd-b3d7-848c15221843"},"vehicle_type_id":"4","last_reported":1700319986,"current_range_meters":29200,"station_id":"ce4bhp92rcd13ifvqhcg","pricing_plan_id":"free"},{"bike_id":"bdbdee9f-c418-4cfe-9cb9-ef7968777289","system_id":"levelo_inurba_marseille","lat":43.26202,"lon":5.379299,"is_reserved":false,"is_disabled":false,"rental_uris":{"android":"levelo://app?vid=bdbdee9f-c418-4cfe-9cb9-ef7968777289","ios":"levelo://app?vid=bdbdee9f-c418-4cfe-9cb9-ef7968777289"},"vehicle_type_id":"4","last_reported":1700319986,"current_range_meters":4800,"station_id":"ce4bhjp2rcd13ifvqg90","pricing_plan_id":"free"},{"bike_id":"7f1d05f0-86d6-400b-b366-5f119e4196f5","system_id":"levelo_inurba_marseille","lat":43.26202,"lon":5.379299,"is_reserved":false,"is_disabled":false,"rental_uris":{"android":"levelo://app?vid=7f1d05f0-86d6-400b-b366-5f119e4196f5","ios":"levelo://app?vid=7f1d05f0-86d6-400b-b366-5f119e4196f5"},"vehicle_type_id":"4","last_reported":1700319986,"current_range_meters":6000,"station_id":"ce4bhjp2rcd13ifvqg90","pricing_plan_id":"free"},{"bike_id":"74ce853b-0d8b-42c9-81c8-17a7564a4b34","system_id":"levelo_inurba_marseille","lat":43.31725,"lon":5.43786,"is_reserved":false,"is_disabled":false,"rental_uris":{"android":"levelo://app?vid=74ce853b-0d8b-42c9-81c8-17a7564a4b34","ios":"levelo://app?vid=74ce853b-0d8b-42c9-81c8-17a7564a4b34"},"vehicle_type_id":"4","last_reported":1700319986,"current_range_meters":18000,"station_id":"","pricing_plan_id":"free"},{"bike_id":"efb042c0-b30a-4c20-95b8-f7773f558510","system_id":"levelo_inurba_marseille","lat":43.260225,"lon":5.375455,"is_reserved":false,"is_disabled":false,"rental_uris":{"android":"levelo://app?vid=efb042c0-b30a-4c20-95b8-f7773f558510","ios":"levelo://app?vid=efb042c0-b30a-4c20-95b8-f7773f558510"},"vehicle_type_id":"4","last_reported":1700319986,"current_range_meters":9600,"station_id":"ce4bhgh2rcd13ifvqfa0","pricing_plan_id":"free"},{"bike_id":"dfec672d-31b0-48e1-8faf-d528ac80d7f4","system_id":"levelo_inurba_marseille","lat":43.260219,"lon":5.37546,"is_reserved":false,"is_disabled":false,"rental_uris":{"android":"levelo://app?vid=dfec672d-31b0-48e1-8faf-d528ac80d7f4","ios":"levelo://app?vid=dfec672d-31b0-48e1-8faf-d528ac80d7f4"},"vehicle_type_id":"4","last_reported":1700319986,"current_range_meters":4000,"station_id":"ce4bhgh2rcd13ifvqfa0","pricing_plan_id":"free"},{"bike_id":"4f6880f4-3164-4fc2-9cf7-3c1358040f10","system_id":"levelo_inurba_marseille","lat":43.290501,"lon":5.433305,"is_reserved":false,"is_disabled":false,"rental_uris":{"android":"levelo://app?vid=4f6880f4-3164-4fc2-9cf7-3c1358040f10","ios":"levelo://app?vid=4f6880f4-3164-4fc2-9cf7-3c1358040f10"},"vehicle_type_id":"4","last_reported":1700319986,"current_range_meters":0,"station_id":"","pricing_plan_id":"free"},{"bike_id":"0e7d9356-4c6d-4c5c-b8dd-3be851203d88","system_id":"levelo_inurba_marseille","lat":43.281548,"lon":5.42643,"is_reserved":false,"is_disabled":false,"rental_uris":{"android":"levelo://app?vid=0e7d9356-4c6d-4c5c-b8dd-3be851203d88","ios":"levelo://app?vid=0e7d9356-4c6d-4c5c-b8dd-3be851203d88"},"vehicle_type_id":"4","last_reported":1700319986,"current_range_meters":31600,"station_id":"ce4bhnh2rcd13ifvqgug","pricing_plan_id":"free"},{"bike_id":"c687b984-17d3-4d86-b43e-f65a96a30c7c","system_id":"levelo_inurba_marseille","lat":43.28154,"lon":5.42642,"is_reserved":false,"is_disabled":false,"rental_uris":{"android":"levelo://app?vid=c687b984-17d3-4d86-b43e-f65a96a30c7c","ios":"levelo://app?vid=c687b984-17d3-4d86-b43e-f65a96a30c7c"},"vehicle_type_id":"4","last_reported":1700319986,"current_range_meters":30400,"station_id":"ce4bhnh2rcd13ifvqgug","pricing_plan_id":"free"},{"bike_id":"a0d59a27-45ae-4c52-95c3-c9f8994fc187","system_id":"levelo_inurba_marseille","lat":43.281548,"lon":5.426438,"is_reserved":false,"is_disabled":false,"rental_uris":{"android":"levelo://app?vid=a0d59a27-45ae-4c52-95c3-c9f8994fc187","ios":"levelo://app?vid=a0d59a27-45ae-4c52-95c3-c9f8994fc187"},"vehicle_type_id":"4","last_reported":1700319986,"current_range_meters":18800,"station_id":"ce4bhnh2rcd13ifvqgug","pricing_plan_id":"free"},{"bike_id":"e519433d-e174-46ac-866c-5aa69d990273","system_id":"levelo_inurba_marseille","lat":43.28152,"lon":5.42642,"is_reserved":false,"is_disabled":false,"rental_uris":{"android":"levelo://app?vid=e519433d-e174-46ac-866c-5aa69d990273","ios":"levelo://app?vid=e519433d-e174-46ac-866c-5aa69d990273"},"vehicle_type_id":"4","last_reported":1700319986,"current_range_meters":22800,"station_id":"ce4bhnh2rcd13ifvqgug","pricing_plan_id":"free"},{"bike_id":"8e6f5f20-81b8-452e-8169-214f97831e53","system_id":"levelo_inurba_marseille","lat":43.281548,"lon":5.42643,"is_reserved":false,"is_disabled":false,"rental_uris":{"android":"levelo://app?vid=8e6f5f20-81b8-452e-8169-214f97831e53","ios":"levelo://app?vid=8e6f5f20-81b8-452e-8169-214f97831e53"},"vehicle_type_id":"4","last_reported":1700319986,"current_range_meters":31600,"station_id":"ce4bhnh2rcd13ifvqgug","pricing_plan_id":"free"},{"bike_id":"8e47fb1c-8820-40c2-9716-703cc59fb835","system_id":"levelo_inurba_marseille","lat":43.281538,"lon":5.426469,"is_reserved":false,"is_disabled":false,"rental_uris":{"android":"levelo://app?vid=8e47fb1c-8820-40c2-9716-703cc59fb835","ios":"levelo://app?vid=8e47fb1c-8820-40c2-9716-703cc59fb835"},"vehicle_type_id":"4","last_reported":1700319986,"current_range_meters":31200,"station_id":"ce4bhnh2rcd13ifvqgug","pricing_plan_id":"free"},{"bike_id":"ba343a96-b108-42f1-a93c-b6a851b91747","system_id":"levelo_inurba_marseille","lat":43.281548,"lon":5.42643,"is_reserved":false,"is_disabled":false,"rental_uris":{"android":"levelo://app?vid=ba343a96-b108-42f1-a93c-b6a851b91747","ios":"levelo://app?vid=ba343a96-b108-42f1-a93c-b6a851b91747"},"vehicle_type_id":"4","last_reported":1700319986,"current_range_meters":31600,"station_id":"ce4bhnh2rcd13ifvqgug","pricing_plan_id":"free"},{"bike_id":"d88b6a73-531b-425a-9e55-b97c354f59a2","system_id":"levelo_inurba_marseille","lat":43.32276,"lon":5.43926,"is_reserved":false,"is_disabled":false,"rental_uris":{"android":"levelo://app?vid=d88b6a73-531b-425a-9e55-b97c354f59a2","ios":"levelo://app?vid=d88b6a73-531b-425a-9e55-b97c354f59a2"},"vehicle_type_id":"4","last_reported":1700319986,"current_range_meters":29200,"station_id":"","pricing_plan_id":"free"},{"bike_id":"52c2449e-ba19-42b2-a2b7-5e9532985598","system_id":"levelo_inurba_marseille","lat":43.32279,"lon":5.43926,"is_reserved":false,"is_disabled":false,"rental_uris":{"android":"levelo://app?vid=52c2449e-ba19-42b2-a2b7-5e9532985598","ios":"levelo://app?vid=52c2449e-ba19-42b2-a2b7-5e9532985598"},"vehicle_type_id":"4","last_reported":1700319986,"current_range_meters":16000,"station_id":"","pricing_plan_id":"free"},{"bike_id":"56c54364-216a-4eea-8fce-d6e40fd415c8","system_id":"levelo_inurba_marseille","lat":43.2607,"lon":5.393983,"is_reserved":false,"is_disabled":false,"rental_uris":{"android":"levelo://app?vid=56c54364-216a-4eea-8fce-d6e40fd415c8","ios":"levelo://app?vid=56c54364-216a-4eea-8fce-d6e40fd415c8"},"vehicle_type_id":"4","last_reported":1700319986,"current_range_meters":25200,"station_id":"ce4bhh92rcd13ifvqfj0","pricing_plan_id":"free"},{"bike_id":"3c16f16b-804f-4d0f-9a01-61c7b59e74f6","system_id":"levelo_inurba_marseille","lat":43.2607,"lon":5.393983,"is_reserved":false,"is_disabled":false,"rental_uris":{"android":"levelo://app?vid=3c16f16b-804f-4d0f-9a01-61c7b59e74f6","ios":"levelo://app?vid=3c16f16b-804f-4d0f-9a01-61c7b59e74f6"},"vehicle_type_id":"4","last_reported":1700319986,"current_range_meters":4400,"station_id":"ce4bhh92rcd13ifvqfj0","pricing_plan_id":"free"},{"bike_id":"9a95e6bc-fcda-4506-812d-e368d36f4403","system_id":"levelo_inurba_marseille","lat":43.2607,"lon":5.393983,"is_reserved":false,"is_disabled":false,"rental_uris":{"android":"levelo://app?vid=9a95e6bc-fcda-4506-812d-e368d36f4403","ios":"levelo://app?vid=9a95e6bc-fcda-4506-812d-e368d36f4403"},"vehicle_type_id":"4","last_reported":1700319986,"current_range_meters":30400,"station_id":"ce4bhh92rcd13ifvqfj0","pricing_plan_id":"free"},{"bike_id":"ae9bac39-bbf1-430a-8b51-1eabc82bbb3e","system_id":"levelo_inurba_marseille","lat":43.2607,"lon":5.393983,"is_reserved":false,"is_disabled":false,"rental_uris":{"android":"levelo://app?vid=ae9bac39-bbf1-430a-8b51-1eabc82bbb3e","ios":"levelo://app?vid=ae9bac39-bbf1-430a-8b51-1eabc82bbb3e"},"vehicle_type_id":"4","last_reported":1700319986,"current_range_meters":10800,"station_id":"ce4bhh92rcd13ifvqfj0","pricing_plan_id":"free"},{"bike_id":"ea0812eb-3b2a-4a38-90fd-44e7eaa67156","system_id":"levelo_inurba_marseille","lat":43.27493,"lon":5.42452,"is_reserved":false,"is_disabled":false,"rental_uris":{"android":"levelo://app?vid=ea0812eb-3b2a-4a38-90fd-44e7eaa67156","ios":"levelo://app?vid=ea0812eb-3b2a-4a38-90fd-44e7eaa67156"},"vehicle_type_id":"4","last_reported":1700319986,"current_range_meters":29200,"station_id":"ce4bhn92rcd13ifvqgrg","pricing_plan_id":"free"},{"bike_id":"e7a68780-c3b4-4477-83f3-c50c683b4451","system_id":"levelo_inurba_marseille","lat":43.27492,"lon":5.42463,"is_reserved":false,"is_disabled":false,"rental_uris":{"android":"levelo://app?vid=e7a68780-c3b4-4477-83f3-c50c683b4451","ios":"levelo://app?vid=e7a68780-c3b4-4477-83f3-c50c683b4451"},"vehicle_type_id":"4","last_reported":1700319986,"current_range_meters":31200,"station_id":"ce4bhn92rcd13ifvqgrg","pricing_plan_id":"free"},{"bike_id":"bd40b25a-39e7-4389-b05d-dea13bcc8095","system_id":"levelo_inurba_marseille","lat":43.270721,"lon":5.422764,"is_reserved":false,"is_disabled":false,"rental_uris":{"android":"levelo://app?vid=bd40b25a-39e7-4389-b05d-dea13bcc8095","ios":"levelo://app?vid=bd40b25a-39e7-4389-b05d-dea13bcc8095"},"vehicle_type_id":"4","last_reported":1700319986,"current_range_meters":25600,"station_id":"ce4bhk92rcd13ifvqgb0","pricing_plan_id":"free"},{"bike_id":"0564b0d0-bae0-4f11-822d-9a436272d228","system_id":"levelo_inurba_marseille","lat":43.270721,"lon":5.422764,"is_reserved":false,"is_disabled":false,"rental_uris":{"android":"levelo://app?vid=0564b0d0-bae0-4f11-822d-9a436272d228","ios":"levelo://app?vid=0564b0d0-bae0-4f11-822d-9a436272d228"},"vehicle_type_id":"4","last_reported":1700319986,"current_range_meters":27200,"station_id":"ce4bhk92rcd13ifvqgb0","pricing_plan_id":"free"},{"bike_id":"6d777f2a-1406-48b5-86a3-c3c6a6466486","system_id":"levelo_inurba_marseille","lat":43.270721,"lon":5.422764,"is_reserved":false,"is_disabled":false,"rental_uris":{"android":"levelo://app?vid=6d777f2a-1406-48b5-86a3-c3c6a6466486","ios":"levelo://app?vid=6d777f2a-1406-48b5-86a3-c3c6a6466486"},"vehicle_type_id":"4","last_reported":1700319986,"current_range_meters":26800,"station_id":"ce4bhk92rcd13ifvqgb0","pricing_plan_id":"free"},{"bike_id":"4497bd3f-58b9-4c53-a33e-d23593111a30","system_id":"levelo_inurba_marseille","lat":43.25929,"lon":5.40909,"is_reserved":false,"is_disabled":false,"rental_uris":{"android":"levelo://app?vid=4497bd3f-58b9-4c53-a33e-d23593111a30","ios":"levelo://app?vid=4497bd3f-58b9-4c53-a33e-d23593111a30"},"vehicle_type_id":"4","last_reported":1700319986,"current_range_meters":31200,"station_id":"ce4bhm92rcd13ifvqglg","pricing_plan_id":"free"},{"bike_id":"cd302cf2-bbe8-469b-b7f2-4e723c730cc5","system_id":"levelo_inurba_marseille","lat":43.2593,"lon":5.40914,"is_reserved":false,"is_disabled":false,"rental_uris":{"android":"levelo://app?vid=cd302cf2-bbe8-469b-b7f2-4e723c730cc5","ios":"levelo://app?vid=cd302cf2-bbe8-469b-b7f2-4e723c730cc5"},"vehicle_type_id":"4","last_reported":1700319986,"current_range_meters":31200,"station_id":"ce4bhm92rcd13ifvqglg","pricing_plan_id":"free"},{"bike_id":"b07713ab-8a38-4416-a771-754da87afc04","system_id":"levelo_inurba_marseille","lat":43.257079,"lon":5.411051,"is_reserved":false,"is_disabled":false,"rental_uris":{"android":"levelo://app?vid=b07713ab-8a38-4416-a771-754da87afc04","ios":"levelo://app?vid=b07713ab-8a38-4416-a771-754da87afc04"},"vehicle_type_id":"4","last_reported":1700319986,"current_range_meters":30000,"station_id":"ce4bhkp2rcd13ifvqgd0","pricing_plan_id":"free"},{"bike_id":"32a65864-29ee-4f86-b14c-a2cc1e4765ac","system_id":"levelo_inurba_marseille","lat":43.257079,"lon":5.411051,"is_reserved":false,"is_disabled":false,"rental_uris":{"android":"levelo://app?vid=32a65864-29ee-4f86-b14c-a2cc1e4765ac","ios":"levelo://app?vid=32a65864-29ee-4f86-b14c-a2cc1e4765ac"},"vehicle_type_id":"4","last_reported":1700319986,"current_range_meters":17600,"station_id":"ce4bhkp2rcd13ifvqgd0","pricing_plan_id":"free"},{"bike_id":"7bd9358a-816e-44a3-939c-abea6d156e78","system_id":"levelo_inurba_marseille","lat":43.257079,"lon":5.411051,"is_reserved":false,"is_disabled":false,"rental_uris":{"android":"levelo://app?vid=7bd9358a-816e-44a3-939c-abea6d156e78","ios":"levelo://app?vid=7bd9358a-816e-44a3-939c-abea6d156e78"},"vehicle_type_id":"4","last_reported":1700319986,"current_range_meters":8800,"station_id":"ce4bhkp2rcd13ifvqgd0","pricing_plan_id":"free"},{"bike_id":"51ee53e8-7089-4ff8-9d41-f51e2102918f","system_id":"levelo_inurba_marseille","lat":43.257079,"lon":5.411051,"is_reserved":false,"is_disabled":false,"rental_uris":{"android":"levelo://app?vid=51ee53e8-7089-4ff8-9d41-f51e2102918f","ios":"levelo://app?vid=51ee53e8-7089-4ff8-9d41-f51e2102918f"},"vehicle_type_id":"4","last_reported":1700319986,"current_range_meters":25600,"station_id":"ce4bhkp2rcd13ifvqgd0","pricing_plan_id":"free"},{"bike_id":"d4034abc-f6cf-4e8c-882d-ba54165c7e87","system_id":"levelo_inurba_marseille","lat":43.257079,"lon":5.411051,"is_reserved":false,"is_disabled":false,"rental_uris":{"android":"levelo://app?vid=d4034abc-f6cf-4e8c-882d-ba54165c7e87","ios":"levelo://app?vid=d4034abc-f6cf-4e8c-882d-ba54165c7e87"},"vehicle_type_id":"4","last_reported":1700319986,"current_range_meters":18000,"station_id":"ce4bhkp2rcd13ifvqgd0","pricing_plan_id":"free"},{"bike_id":"50360a10-26f4-4e63-b263-9cfe477dabca","system_id":"levelo_inurba_marseille","lat":43.2479,"lon":5.374457,"is_reserved":false,"is_disabled":false,"rental_uris":{"android":"levelo://app?vid=50360a10-26f4-4e63-b263-9cfe477dabca","ios":"levelo://app?vid=50360a10-26f4-4e63-b263-9cfe477dabca"},"vehicle_type_id":"4","last_reported":1700319986,"current_range_meters":31600,"station_id":"ce4bhgh2rcd13ifvqfb0","pricing_plan_id":"free"},{"bike_id":"e10ccc56-c434-4d97-890f-3b7a87495b93","system_id":"levelo_inurba_marseille","lat":43.2479,"lon":5.374457,"is_reserved":false,"is_disabled":false,"rental_uris":{"android":"levelo://app?vid=e10ccc56-c434-4d97-890f-3b7a87495b93","ios":"levelo://app?vid=e10ccc56-c434-4d97-890f-3b7a87495b93"},"vehicle_type_id":"4","last_reported":1700319986,"current_range_meters":17600,"station_id":"ce4bhgh2rcd13ifvqfb0","pricing_plan_id":"free"},{"bike_id":"a76e997b-7ec2-4665-a52c-dad492e907f6","system_id":"levelo_inurba_marseille","lat":43.24991,"lon":5.38929,"is_reserved":false,"is_disabled":false,"rental_uris":{"android":"levelo://app?vid=a76e997b-7ec2-4665-a52c-dad492e907f6","ios":"levelo://app?vid=a76e997b-7ec2-4665-a52c-dad492e907f6"},"vehicle_type_id":"4","last_reported":1700319986,"current_range_meters":17200,"station_id":"ce4bhgp2rcd13ifvqfd0","pricing_plan_id":"free"},{"bike_id":"d48d89d1-4e92-41f4-8ff2-609ba9e6744e","system_id":"levelo_inurba_marseille","lat":43.2479,"lon":5.374457,"is_reserved":false,"is_disabled":false,"rental_uris":{"android":"levelo://app?vid=d48d89d1-4e92-41f4-8ff2-609ba9e6744e","ios":"levelo://app?vid=d48d89d1-4e92-41f4-8ff2-609ba9e6744e"},"vehicle_type_id":"4","last_reported":1700319986,"current_range_meters":30400,"station_id":"ce4bhgh2rcd13ifvqfb0","pricing_plan_id":"free"},{"bike_id":"bb23dd6c-243f-4336-a04a-41a4343af713","system_id":"levelo_inurba_marseille","lat":43.2479,"lon":5.374457,"is_reserved":false,"is_disabled":false,"rental_uris":{"android":"levelo://app?vid=bb23dd6c-243f-4336-a04a-41a4343af713","ios":"levelo://app?vid=bb23dd6c-243f-4336-a04a-41a4343af713"},"vehicle_type_id":"4","last_reported":1700319986,"current_range_meters":31600,"station_id":"ce4bhgh2rcd13ifvqfb0","pricing_plan_id":"free"},{"bike_id":"0e8478e1-aca6-4ce0-aef6-bc497337bc6e","system_id":"levelo_inurba_marseille","lat":43.2479,"lon":5.374457,"is_reserved":false,"is_disabled":false,"rental_uris":{"android":"levelo://app?vid=0e8478e1-aca6-4ce0-aef6-bc497337bc6e","ios":"levelo://app?vid=0e8478e1-aca6-4ce0-aef6-bc497337bc6e"},"vehicle_type_id":"4","last_reported":1700319986,"current_range_meters":20400,"station_id":"ce4bhgh2rcd13ifvqfb0","pricing_plan_id":"free"},{"bike_id":"d7fda209-a4ed-49da-aeca-165a7f8179ad","system_id":"levelo_inurba_marseille","lat":43.2479,"lon":5.374457,"is_reserved":false,"is_disabled":false,"rental_uris":{"android":"levelo://app?vid=d7fda209-a4ed-49da-aeca-165a7f8179ad","ios":"levelo://app?vid=d7fda209-a4ed-49da-aeca-165a7f8179ad"},"vehicle_type_id":"4","last_reported":1700319986,"current_range_meters":15600,"station_id":"ce4bhgh2rcd13ifvqfb0","pricing_plan_id":"free"},{"bike_id":"0a971f4d-998b-4069-a54f-774336481cee","system_id":"levelo_inurba_marseille","lat":43.25089,"lon":5.39513,"is_reserved":false,"is_disabled":false,"rental_uris":{"android":"levelo://app?vid=0a971f4d-998b-4069-a54f-774336481cee","ios":"levelo://app?vid=0a971f4d-998b-4069-a54f-774336481cee"},"vehicle_type_id":"4","last_reported":1700319986,"current_range_meters":3600,"station_id":"ce4bhm12rcd13ifvqgkg","pricing_plan_id":"free"},{"bike_id":"77134d90-2c70-4097-ac6a-2a2700dc4886","system_id":"levelo_inurba_marseille","lat":43.250966,"lon":5.395186,"is_reserved":false,"is_disabled":false,"rental_uris":{"android":"levelo://app?vid=77134d90-2c70-4097-ac6a-2a2700dc4886","ios":"levelo://app?vid=77134d90-2c70-4097-ac6a-2a2700dc4886"},"vehicle_type_id":"4","last_reported":1700319986,"current_range_meters":4800,"station_id":"ce4bhm12rcd13ifvqgkg","pricing_plan_id":"free"},{"bike_id":"b9044fce-dce8-490f-a02b-21e9c2c238be","system_id":"levelo_inurba_marseille","lat":43.250966,"lon":5.395186,"is_reserved":false,"is_disabled":false,"rental_uris":{"android":"levelo://app?vid=b9044fce-dce8-490f-a02b-21e9c2c238be","ios":"levelo://app?vid=b9044fce-dce8-490f-a02b-21e9c2c238be"},"vehicle_type_id":"4","last_reported":1700319986,"current_range_meters":31600,"station_id":"ce4bhm12rcd13ifvqgkg","pricing_plan_id":"free"},{"bike_id":"721af61d-7ad7-4ba9-a77e-cdee35ed38a9","system_id":"levelo_inurba_marseille","lat":43.250966,"lon":5.395186,"is_reserved":false,"is_disabled":false,"rental_uris":{"android":"levelo://app?vid=721af61d-7ad7-4ba9-a77e-cdee35ed38a9","ios":"levelo://app?vid=721af61d-7ad7-4ba9-a77e-cdee35ed38a9"},"vehicle_type_id":"4","last_reported":1700319986,"current_range_meters":29600,"station_id":"ce4bhm12rcd13ifvqgkg","pricing_plan_id":"free"},{"bike_id":"0e9da155-541b-4223-a420-038767fcc2c7","system_id":"levelo_inurba_marseille","lat":43.246605,"lon":5.38163,"is_reserved":false,"is_disabled":false,"rental_uris":{"android":"levelo://app?vid=0e9da155-541b-4223-a420-038767fcc2c7","ios":"levelo://app?vid=0e9da155-541b-4223-a420-038767fcc2c7"},"vehicle_type_id":"4","last_reported":1700319986,"current_range_meters":800,"station_id":"ce4bhih2rcd13ifvqfr0","pricing_plan_id":"free"},{"bike_id":"50dca430-9b26-4813-b979-c8cc5258b5e5","system_id":"levelo_inurba_marseille","lat":43.25112,"lon":5.40322,"is_reserved":false,"is_disabled":false,"rental_uris":{"android":"levelo://app?vid=50dca430-9b26-4813-b979-c8cc5258b5e5","ios":"levelo://app?vid=50dca430-9b26-4813-b979-c8cc5258b5e5"},"vehicle_type_id":"4","last_reported":1700319986,"current_range_meters":8800,"station_id":"ce4bhlh2rcd13ifvqgig","pricing_plan_id":"free"},{"bike_id":"20e89ea7-1da7-429a-adcf-04082dc5c1b0","system_id":"levelo_inurba_marseille","lat":43.25104,"lon":5.40328,"is_reserved":false,"is_disabled":false,"rental_uris":{"android":"levelo://app?vid=20e89ea7-1da7-429a-adcf-04082dc5c1b0","ios":"levelo://app?vid=20e89ea7-1da7-429a-adcf-04082dc5c1b0"},"vehicle_type_id":"4","last_reported":1700319986,"current_range_meters":16800,"station_id":"ce4bhlh2rcd13ifvqgig","pricing_plan_id":"free"},{"bike_id":"fdc42969-0cc1-4744-b814-431e6891e0c3","system_id":"levelo_inurba_marseille","lat":43.246461,"lon":5.389014,"is_reserved":false,"is_disabled":false,"rental_uris":{"android":"levelo://app?vid=fdc42969-0cc1-4744-b814-431e6891e0c3","ios":"levelo://app?vid=fdc42969-0cc1-4744-b814-431e6891e0c3"},"vehicle_type_id":"4","last_reported":1700319986,"current_range_meters":4800,"station_id":"ce4bhg12rcd13ifvqf60","pricing_plan_id":"free"},{"bike_id":"1e461bed-6ca2-47fa-b9c2-544e42dcae8c","system_id":"levelo_inurba_marseille","lat":43.24389,"lon":5.37071,"is_reserved":false,"is_disabled":false,"rental_uris":{"android":"levelo://app?vid=1e461bed-6ca2-47fa-b9c2-544e42dcae8c","ios":"levelo://app?vid=1e461bed-6ca2-47fa-b9c2-544e42dcae8c"},"vehicle_type_id":"4","last_reported":1700319986,"current_range_meters":31200,"station_id":"ce4bhhh2rcd13ifvqfk0","pricing_plan_id":"free"},{"bike_id":"13543a80-e679-4f1a-83cf-0c053174faf3","system_id":"levelo_inurba_marseille","lat":43.243884,"lon":5.370736,"is_reserved":false,"is_disabled":false,"rental_uris":{"android":"levelo://app?vid=13543a80-e679-4f1a-83cf-0c053174faf3","ios":"levelo://app?vid=13543a80-e679-4f1a-83cf-0c053174faf3"},"vehicle_type_id":"4","last_reported":1700319986,"current_range_meters":31600,"station_id":"ce4bhhh2rcd13ifvqfk0","pricing_plan_id":"free"},{"bike_id":"c9311f28-70e4-415f-8962-60cebf27fcb4","system_id":"levelo_inurba_marseille","lat":43.243884,"lon":5.370736,"is_reserved":false,"is_disabled":false,"rental_uris":{"android":"levelo://app?vid=c9311f28-70e4-415f-8962-60cebf27fcb4","ios":"levelo://app?vid=c9311f28-70e4-415f-8962-60cebf27fcb4"},"vehicle_type_id":"4","last_reported":1700319986,"current_range_meters":14400,"station_id":"ce4bhhh2rcd13ifvqfk0","pricing_plan_id":"free"},{"bike_id":"5a980be7-c7ae-42db-bd64-63cc5cf9e0f6","system_id":"levelo_inurba_marseille","lat":43.240623,"lon":5.377642,"is_reserved":false,"is_disabled":false,"rental_uris":{"android":"levelo://app?vid=5a980be7-c7ae-42db-bd64-63cc5cf9e0f6","ios":"levelo://app?vid=5a980be7-c7ae-42db-bd64-63cc5cf9e0f6"},"vehicle_type_id":"4","last_reported":1700319986,"current_range_meters":31200,"station_id":"ce4bhnp2rcd13ifvqgvg","pricing_plan_id":"free"},{"bike_id":"86a0aa5a-5652-467d-92bf-bfd0f3f5294a","system_id":"levelo_inurba_marseille","lat":43.24073,"lon":5.3777,"is_reserved":false,"is_disabled":false,"rental_uris":{"android":"levelo://app?vid=86a0aa5a-5652-467d-92bf-bfd0f3f5294a","ios":"levelo://app?vid=86a0aa5a-5652-467d-92bf-bfd0f3f5294a"},"vehicle_type_id":"4","last_reported":1700319986,"current_range_meters":30800,"station_id":"ce4bhnp2rcd13ifvqgvg","pricing_plan_id":"free"},{"bike_id":"ed419b13-266f-407c-bf9b-711a3ecbb865","system_id":"levelo_inurba_marseille","lat":43.240623,"lon":5.377642,"is_reserved":false,"is_disabled":false,"rental_uris":{"android":"levelo://app?vid=ed419b13-266f-407c-bf9b-711a3ecbb865","ios":"levelo://app?vid=ed419b13-266f-407c-bf9b-711a3ecbb865"},"vehicle_type_id":"4","last_reported":1700319986,"current_range_meters":24000,"station_id":"ce4bhnp2rcd13ifvqgvg","pricing_plan_id":"free"},{"bike_id":"b17abfb9-7775-45d9-aa1e-bf036e6fdf06","system_id":"levelo_inurba_marseille","lat":43.24071,"lon":5.37759,"is_reserved":false,"is_disabled":false,"rental_uris":{"android":"levelo://app?vid=b17abfb9-7775-45d9-aa1e-bf036e6fdf06","ios":"levelo://app?vid=b17abfb9-7775-45d9-aa1e-bf036e6fdf06"},"vehicle_type_id":"4","last_reported":1700319986,"current_range_meters":27600,"station_id":"ce4bhnp2rcd13ifvqgvg","pricing_plan_id":"free"},{"bike_id":"3406cbe7-36ba-4aa7-88b3-aa3737262bb6","system_id":"levelo_inurba_marseille","lat":43.24071,"lon":5.37762,"is_reserved":false,"is_disabled":false,"rental_uris":{"android":"levelo://app?vid=3406cbe7-36ba-4aa7-88b3-aa3737262bb6","ios":"levelo://app?vid=3406cbe7-36ba-4aa7-88b3-aa3737262bb6"},"vehicle_type_id":"4","last_reported":1700319986,"current_range_meters":22400,"station_id":"ce4bhnp2rcd13ifvqgvg","pricing_plan_id":"free"},{"bike_id":"b726b46a-62c5-4580-9293-9c5460d5922e","system_id":"levelo_inurba_marseille","lat":43.24071,"lon":5.3777,"is_reserved":false,"is_disabled":false,"rental_uris":{"android":"levelo://app?vid=b726b46a-62c5-4580-9293-9c5460d5922e","ios":"levelo://app?vid=b726b46a-62c5-4580-9293-9c5460d5922e"},"vehicle_type_id":"4","last_reported":1700319986,"current_range_meters":30000,"station_id":"ce4bhnp2rcd13ifvqgvg","pricing_plan_id":"free"},{"bike_id":"abebece1-d35d-428e-b450-5f70fc7deb45","system_id":"levelo_inurba_marseille","lat":43.240623,"lon":5.377642,"is_reserved":false,"is_disabled":false,"rental_uris":{"android":"levelo://app?vid=abebece1-d35d-428e-b450-5f70fc7deb45","ios":"levelo://app?vid=abebece1-d35d-428e-b450-5f70fc7deb45"},"vehicle_type_id":"4","last_reported":1700319986,"current_range_meters":21200,"station_id":"ce4bhnp2rcd13ifvqgvg","pricing_plan_id":"free"},{"bike_id":"bbb0cba3-039d-4319-a1a1-60395705f334","system_id":"levelo_inurba_marseille","lat":43.240623,"lon":5.377642,"is_reserved":false,"is_disabled":false,"rental_uris":{"android":"levelo://app?vid=bbb0cba3-039d-4319-a1a1-60395705f334","ios":"levelo://app?vid=bbb0cba3-039d-4319-a1a1-60395705f334"},"vehicle_type_id":"4","last_reported":1700319986,"current_range_meters":19200,"station_id":"ce4bhnp2rcd13ifvqgvg","pricing_plan_id":"free"},{"bike_id":"d965a8cb-7cf6-4658-9ddb-fdb6e9ea0025","system_id":"levelo_inurba_marseille","lat":43.24069,"lon":5.37764,"is_reserved":false,"is_disabled":false,"rental_uris":{"android":"levelo://app?vid=d965a8cb-7cf6-4658-9ddb-fdb6e9ea0025","ios":"levelo://app?vid=d965a8cb-7cf6-4658-9ddb-fdb6e9ea0025"},"vehicle_type_id":"4","last_reported":1700319986,"current_range_meters":22800,"station_id":"ce4bhnp2rcd13ifvqgvg","pricing_plan_id":"free"},{"bike_id":"3c262c6f-8661-491e-bc48-b7580b833189","system_id":"levelo_inurba_marseille","lat":43.24069,"lon":5.37765,"is_reserved":false,"is_disabled":false,"rental_uris":{"android":"levelo://app?vid=3c262c6f-8661-491e-bc48-b7580b833189","ios":"levelo://app?vid=3c262c6f-8661-491e-bc48-b7580b833189"},"vehicle_type_id":"4","last_reported":1700319986,"current_range_meters":25200,"station_id":"ce4bhnp2rcd13ifvqgvg","pricing_plan_id":"free"},{"bike_id":"8f3a5da5-e450-44c1-b7f2-7006197e8e0e","system_id":"levelo_inurba_marseille","lat":43.240623,"lon":5.377642,"is_reserved":false,"is_disabled":false,"rental_uris":{"android":"levelo://app?vid=8f3a5da5-e450-44c1-b7f2-7006197e8e0e","ios":"levelo://app?vid=8f3a5da5-e450-44c1-b7f2-7006197e8e0e"},"vehicle_type_id":"4","last_reported":1700319986,"current_range_meters":31200,"station_id":"ce4bhnp2rcd13ifvqgvg","pricing_plan_id":"free"},{"bike_id":"3cc5da47-2ffd-4e24-8283-b9644a8e09df","system_id":"levelo_inurba_marseille","lat":43.240623,"lon":5.377642,"is_reserved":false,"is_disabled":false,"rental_uris":{"android":"levelo://app?vid=3cc5da47-2ffd-4e24-8283-b9644a8e09df","ios":"levelo://app?vid=3cc5da47-2ffd-4e24-8283-b9644a8e09df"},"vehicle_type_id":"4","last_reported":1700319986,"current_range_meters":26800,"station_id":"ce4bhnp2rcd13ifvqgvg","pricing_plan_id":"free"},{"bike_id":"7ea4132d-953d-4b53-80bf-4f6c6cb003b3","system_id":"levelo_inurba_marseille","lat":43.24176,"lon":5.39724,"is_reserved":false,"is_disabled":false,"rental_uris":{"android":"levelo://app?vid=7ea4132d-953d-4b53-80bf-4f6c6cb003b3","ios":"levelo://app?vid=7ea4132d-953d-4b53-80bf-4f6c6cb003b3"},"vehicle_type_id":"4","last_reported":1700319986,"current_range_meters":30000,"station_id":"ce4bhn12rcd13ifvqgpg","pricing_plan_id":"free"},{"bike_id":"0acd469f-3e5a-44b9-8316-21de9334b067","system_id":"levelo_inurba_marseille","lat":43.241782,"lon":5.397261,"is_reserved":false,"is_disabled":false,"rental_uris":{"android":"levelo://app?vid=0acd469f-3e5a-44b9-8316-21de9334b067","ios":"levelo://app?vid=0acd469f-3e5a-44b9-8316-21de9334b067"},"vehicle_type_id":"4","last_reported":1700319986,"current_range_meters":21600,"station_id":"ce4bhn12rcd13ifvqgpg","pricing_plan_id":"free"},{"bike_id":"a5ce60fa-260f-4f35-9240-c56e5d45ba0e","system_id":"levelo_inurba_marseille","lat":43.24176,"lon":5.39731,"is_reserved":false,"is_disabled":false,"rental_uris":{"android":"levelo://app?vid=a5ce60fa-260f-4f35-9240-c56e5d45ba0e","ios":"levelo://app?vid=a5ce60fa-260f-4f35-9240-c56e5d45ba0e"},"vehicle_type_id":"4","last_reported":1700319986,"current_range_meters":27200,"station_id":"ce4bhn12rcd13ifvqgpg","pricing_plan_id":"free"},{"bike_id":"e087b913-c419-4ee9-b7fa-364958293014","system_id":"levelo_inurba_marseille","lat":43.241782,"lon":5.397261,"is_reserved":false,"is_disabled":false,"rental_uris":{"android":"levelo://app?vid=e087b913-c419-4ee9-b7fa-364958293014","ios":"levelo://app?vid=e087b913-c419-4ee9-b7fa-364958293014"},"vehicle_type_id":"4","last_reported":1700319986,"current_range_meters":16400,"station_id":"ce4bhn12rcd13ifvqgpg","pricing_plan_id":"free"},{"bike_id":"4370869b-0c59-4e1b-b4c7-59bf3a7bc50e","system_id":"levelo_inurba_marseille","lat":43.241782,"lon":5.397264,"is_reserved":false,"is_disabled":false,"rental_uris":{"android":"levelo://app?vid=4370869b-0c59-4e1b-b4c7-59bf3a7bc50e","ios":"levelo://app?vid=4370869b-0c59-4e1b-b4c7-59bf3a7bc50e"},"vehicle_type_id":"4","last_reported":1700319986,"current_range_meters":18400,"station_id":"ce4bhn12rcd13ifvqgpg","pricing_plan_id":"free"},{"bike_id":"4343156f-f762-485a-b725-bd4393bfc855","system_id":"levelo_inurba_marseille","lat":43.23195,"lon":5.35546,"is_reserved":false,"is_disabled":false,"rental_uris":{"android":"levelo://app?vid=4343156f-f762-485a-b725-bd4393bfc855","ios":"levelo://app?vid=4343156f-f762-485a-b725-bd4393bfc855"},"vehicle_type_id":"4","last_reported":1700319986,"current_range_meters":27600,"station_id":"ce4bhu92rcd13ifvqi70","pricing_plan_id":"free"},{"bike_id":"3269c690-256d-4aea-baaa-3e0808e00911","system_id":"levelo_inurba_marseille","lat":43.231919,"lon":5.355532,"is_reserved":false,"is_disabled":false,"rental_uris":{"android":"levelo://app?vid=3269c690-256d-4aea-baaa-3e0808e00911","ios":"levelo://app?vid=3269c690-256d-4aea-baaa-3e0808e00911"},"vehicle_type_id":"4","last_reported":1700319986,"current_range_meters":29600,"station_id":"ce4bhu92rcd13ifvqi70","pricing_plan_id":"free"},{"bike_id":"1b83d734-fa30-461f-8a5f-93b3d935ab2c","system_id":"levelo_inurba_marseille","lat":43.23194,"lon":5.35547,"is_reserved":false,"is_disabled":false,"rental_uris":{"android":"levelo://app?vid=1b83d734-fa30-461f-8a5f-93b3d935ab2c","ios":"levelo://app?vid=1b83d734-fa30-461f-8a5f-93b3d935ab2c"},"vehicle_type_id":"4","last_reported":1700319986,"current_range_meters":30000,"station_id":"ce4bhu92rcd13ifvqi70","pricing_plan_id":"free"},{"bike_id":"ffb77762-5589-4ab4-9369-7b5deaee8cb2","system_id":"levelo_inurba_marseille","lat":43.231919,"lon":5.355532,"is_reserved":false,"is_disabled":false,"rental_uris":{"android":"levelo://app?vid=ffb77762-5589-4ab4-9369-7b5deaee8cb2","ios":"levelo://app?vid=ffb77762-5589-4ab4-9369-7b5deaee8cb2"},"vehicle_type_id":"4","last_reported":1700319986,"current_range_meters":28800,"station_id":"ce4bhu92rcd13ifvqi70","pricing_plan_id":"free"},{"bike_id":"da0bcb51-355e-445f-8d7c-bf009e3b753b","system_id":"levelo_inurba_marseille","lat":43.231919,"lon":5.355532,"is_reserved":false,"is_disabled":false,"rental_uris":{"android":"levelo://app?vid=da0bcb51-355e-445f-8d7c-bf009e3b753b","ios":"levelo://app?vid=da0bcb51-355e-445f-8d7c-bf009e3b753b"},"vehicle_type_id":"4","last_reported":1700319986,"current_range_meters":27600,"station_id":"ce4bhu92rcd13ifvqi70","pricing_plan_id":"free"},{"bike_id":"9a853d43-fb5c-4c1a-9adf-b9a4684fbabf","system_id":"levelo_inurba_marseille","lat":43.23188,"lon":5.35543,"is_reserved":false,"is_disabled":false,"rental_uris":{"android":"levelo://app?vid=9a853d43-fb5c-4c1a-9adf-b9a4684fbabf","ios":"levelo://app?vid=9a853d43-fb5c-4c1a-9adf-b9a4684fbabf"},"vehicle_type_id":"4","last_reported":1700319986,"current_range_meters":28400,"station_id":"ce4bhu92rcd13ifvqi70","pricing_plan_id":"free"},{"bike_id":"4be4b843-5e87-4e35-9ebf-1109a18ff686","system_id":"levelo_inurba_marseille","lat":43.231919,"lon":5.355532,"is_reserved":false,"is_disabled":false,"rental_uris":{"android":"levelo://app?vid=4be4b843-5e87-4e35-9ebf-1109a18ff686","ios":"levelo://app?vid=4be4b843-5e87-4e35-9ebf-1109a18ff686"},"vehicle_type_id":"4","last_reported":1700319986,"current_range_meters":2400,"station_id":"ce4bhu92rcd13ifvqi70","pricing_plan_id":"free"},{"bike_id":"adac1971-5e73-41e6-9ade-b5ded0f026e7","system_id":"levelo_inurba_marseille","lat":43.231793,"lon":5.400044,"is_reserved":false,"is_disabled":false,"rental_uris":{"android":"levelo://app?vid=adac1971-5e73-41e6-9ade-b5ded0f026e7","ios":"levelo://app?vid=adac1971-5e73-41e6-9ade-b5ded0f026e7"},"vehicle_type_id":"4","last_reported":1700319986,"current_range_meters":31200,"station_id":"ce4bhn12rcd13ifvqgqg","pricing_plan_id":"free"},{"bike_id":"fb647ab6-bdfe-4d43-8021-469b840e3f01","system_id":"levelo_inurba_marseille","lat":43.231794,"lon":5.400052,"is_reserved":false,"is_disabled":false,"rental_uris":{"android":"levelo://app?vid=fb647ab6-bdfe-4d43-8021-469b840e3f01","ios":"levelo://app?vid=fb647ab6-bdfe-4d43-8021-469b840e3f01"},"vehicle_type_id":"4","last_reported":1700319986,"current_range_meters":30000,"station_id":"ce4bhn12rcd13ifvqgqg","pricing_plan_id":"free"},{"bike_id":"5d8316f4-9b3b-4f22-8b0a-d975b6faa1c0","system_id":"levelo_inurba_marseille","lat":43.231793,"lon":5.400044,"is_reserved":false,"is_disabled":false,"rental_uris":{"android":"levelo://app?vid=5d8316f4-9b3b-4f22-8b0a-d975b6faa1c0","ios":"levelo://app?vid=5d8316f4-9b3b-4f22-8b0a-d975b6faa1c0"},"vehicle_type_id":"4","last_reported":1700319986,"current_range_meters":19600,"station_id":"ce4bhn12rcd13ifvqgqg","pricing_plan_id":"free"},{"bike_id":"486fecf0-765d-4eee-9a85-898f8aa27175","system_id":"levelo_inurba_marseille","lat":43.231793,"lon":5.400044,"is_reserved":false,"is_disabled":false,"rental_uris":{"android":"levelo://app?vid=486fecf0-765d-4eee-9a85-898f8aa27175","ios":"levelo://app?vid=486fecf0-765d-4eee-9a85-898f8aa27175"},"vehicle_type_id":"4","last_reported":1700319986,"current_range_meters":31600,"station_id":"ce4bhn12rcd13ifvqgqg","pricing_plan_id":"free"},{"bike_id":"21503f80-a737-42c9-80ac-41d5f021fc9e","system_id":"levelo_inurba_marseille","lat":43.231794,"lon":5.400052,"is_reserved":false,"is_disabled":false,"rental_uris":{"android":"levelo://app?vid=21503f80-a737-42c9-80ac-41d5f021fc9e","ios":"levelo://app?vid=21503f80-a737-42c9-80ac-41d5f021fc9e"},"vehicle_type_id":"4","last_reported":1700319986,"current_range_meters":13200,"station_id":"ce4bhn12rcd13ifvqgqg","pricing_plan_id":"free"},{"bike_id":"efc139d5-8bb1-4a6b-b437-01d31830d455","system_id":"levelo_inurba_marseille","lat":43.231794,"lon":5.400052,"is_reserved":false,"is_disabled":false,"rental_uris":{"android":"levelo://app?vid=efc139d5-8bb1-4a6b-b437-01d31830d455","ios":"levelo://app?vid=efc139d5-8bb1-4a6b-b437-01d31830d455"},"vehicle_type_id":"4","last_reported":1700319986,"current_range_meters":30400,"station_id":"ce4bhn12rcd13ifvqgqg","pricing_plan_id":"free"},{"bike_id":"fa9cc91c-c78c-4cb3-ab2e-3cc3c66a937c","system_id":"levelo_inurba_marseille","lat":43.231793,"lon":5.400044,"is_reserved":false,"is_disabled":false,"rental_uris":{"android":"levelo://app?vid=fa9cc91c-c78c-4cb3-ab2e-3cc3c66a937c","ios":"levelo://app?vid=fa9cc91c-c78c-4cb3-ab2e-3cc3c66a937c"},"vehicle_type_id":"4","last_reported":1700319986,"current_range_meters":22800,"station_id":"ce4bhn12rcd13ifvqgqg","pricing_plan_id":"free"},{"bike_id":"7f10c40d-a28f-435c-a517-41012b005fc5","system_id":"levelo_inurba_marseille","lat":43.231794,"lon":5.400052,"is_reserved":false,"is_disabled":false,"rental_uris":{"android":"levelo://app?vid=7f10c40d-a28f-435c-a517-41012b005fc5","ios":"levelo://app?vid=7f10c40d-a28f-435c-a517-41012b005fc5"},"vehicle_type_id":"4","last_reported":1700319986,"current_range_meters":800,"station_id":"ce4bhn12rcd13ifvqgqg","pricing_plan_id":"free"},{"bike_id":"a77536b5-5a4a-4d26-b9d3-350ffe3416bd","system_id":"levelo_inurba_marseille","lat":43.231793,"lon":5.400044,"is_reserved":false,"is_disabled":false,"rental_uris":{"android":"levelo://app?vid=a77536b5-5a4a-4d26-b9d3-350ffe3416bd","ios":"levelo://app?vid=a77536b5-5a4a-4d26-b9d3-350ffe3416bd"},"vehicle_type_id":"4","last_reported":1700319986,"current_range_meters":12000,"station_id":"ce4bhn12rcd13ifvqgqg","pricing_plan_id":"free"},{"bike_id":"5deb8ac0-68a2-4bcb-b80f-37e7814a98f3","system_id":"levelo_inurba_marseille","lat":43.231793,"lon":5.400044,"is_reserved":false,"is_disabled":false,"rental_uris":{"android":"levelo://app?vid=5deb8ac0-68a2-4bcb-b80f-37e7814a98f3","ios":"levelo://app?vid=5deb8ac0-68a2-4bcb-b80f-37e7814a98f3"},"vehicle_type_id":"4","last_reported":1700319986,"current_range_meters":24800,"station_id":"ce4bhn12rcd13ifvqgqg","pricing_plan_id":"free"},{"bike_id":"ad9d26be-fd61-4954-b04a-614ee9d33f7d","system_id":"levelo_inurba_marseille","lat":43.231794,"lon":5.400052,"is_reserved":false,"is_disabled":false,"rental_uris":{"android":"levelo://app?vid=ad9d26be-fd61-4954-b04a-614ee9d33f7d","ios":"levelo://app?vid=ad9d26be-fd61-4954-b04a-614ee9d33f7d"},"vehicle_type_id":"4","last_reported":1700319986,"current_range_meters":31600,"station_id":"ce4bhn12rcd13ifvqgqg","pricing_plan_id":"free"},{"bike_id":"f4a8cd9e-70db-4af1-b4c0-7aa0a7fac3fa","system_id":"levelo_inurba_marseille","lat":43.231793,"lon":5.400044,"is_reserved":false,"is_disabled":false,"rental_uris":{"android":"levelo://app?vid=f4a8cd9e-70db-4af1-b4c0-7aa0a7fac3fa","ios":"levelo://app?vid=f4a8cd9e-70db-4af1-b4c0-7aa0a7fac3fa"},"vehicle_type_id":"4","last_reported":1700319986,"current_range_meters":31600,"station_id":"ce4bhn12rcd13ifvqgqg","pricing_plan_id":"free"},{"bike_id":"7bc95a0e-72f8-4232-b877-46fe8e7f9e0c","system_id":"levelo_inurba_marseille","lat":43.231794,"lon":5.400052,"is_reserved":false,"is_disabled":false,"rental_uris":{"android":"levelo://app?vid=7bc95a0e-72f8-4232-b877-46fe8e7f9e0c","ios":"levelo://app?vid=7bc95a0e-72f8-4232-b877-46fe8e7f9e0c"},