{"last_updated":1747429762,"ttl":60,"version":"2.2","data":{"bikes":[{"bike_id":"c0b9fd4f-e181-46ce-b0bf-f5119973334f","system_id":"levelo_inurba_marseille","lat":43.33771,"lon":5.37424,"is_reserved":false,"is_disabled":false,"rental_uris":{"android":"levelo://app?vid=c0b9fd4f-e181-46ce-b0bf-f5119973334f","ios":"levelo://app?vid=c0b9fd4f-e181-46ce-b0bf-f5119973334f"},"vehicle_type_id":"4","last_reported":1747429762,"current_range_meters":8400,"station_id":"","pricing_plan_id":"cebpf4jnsgd1na2vs0mg"},{"bike_id":"c651a58a-693c-4942-980b-6d1c6ed6a73e","system_id":"levelo_inurba_marseille","lat":43.231923,"lon":5.355509,"is_reserved":false,"is_disabled":true,"rental_uris":{"android":"levelo://app?vid=c651a58a-693c-4942-980b-6d1c6ed6a73e","ios":"levelo://app?vid=c651a58a-693c-4942-980b-6d1c6ed6a73e"},"vehicle_type_id":"4","last_reported":1747429762,"current_range_meters":0,"station_id":"","pricing_plan_id":"cebpf4jnsgd1na2vs0mg"},{"bike_id":"bbcd6e8b-f610-452f-9b22-da46414cb8aa","system_id":"levelo_inurba_marseille","lat":43.30317,"lon":5.42987,"is_reserved":false,"is_disabled":true,"rental_uris":{"android":"levelo://app?vid=bbcd6e8b-f610-452f-9b22-da46414cb8aa","ios":"levelo://app?vid=bbcd6e8b-f610-452f-9b22-da46414cb8aa"},"vehicle_type_id":"4","last_reported":1747429762,"current_range_meters":0,"station_id":"","pricing_plan_id":"cebpf4jnsgd1na2vs0mg"},{"bike_id":"fc2577e7-1497-425b-9d4f-ab8d7dc843c6","system_id":"levelo_inurba_marseille","lat":43.33771,"lon":5.37485,"is_reserved":false,"is_disabled":true,"rental_uris":{"android":"levelo://app?vid=fc2577e7-1497-425b-9d4f-ab8d7dc843c6","ios":"levelo://app?vid=fc2577e7-1497-425b-9d4f-ab8d7dc843c6"},"vehicle_type_id":"4","last_reported":1747429762,"current_range_meters":0,"station_id":"","pricing_plan_id":"cebpf4jnsgd1na2vs0mg"},{"bike_id":"a0075b2d-1ea2-4a9a-b2e7-55564b111af5","system_id":"levelo_inurba_marseille","lat":43.2973,"lon":5.4009,"is_reserved":false,"is_disabled":true,"rental_uris":{"android":"levelo://app?vid=a0075b2d-1ea2-4a9a-b2e7-55564b111af5","ios":"levelo://app?vid=a0075b2d-1ea2-4a9a-b2e7-55564b111af5"},"vehicle_type_id":"4","last_reported":1747429762,"current_range_meters":0,"station_id":"","pricing_plan_id":"cebpf4jnsgd1na2vs0mg"},{"bike_id":"ce4325af-2448-4172-bdec-81d552ee0b62","system_id":"levelo_inurba_marseille","lat":43.26157,"lon":5.42033,"is_reserved":false,"is_disabled":true,"rental_uris":{"android":"levelo://app?vid=ce4325af-2448-4172-bdec-81d552ee0b62","ios":"levelo://app?vid=ce4325af-2448-4172-bdec-81d552ee0b62"},"vehicle_type_id":"4","last_reported":1747429762,"current_range_meters":0,"station_id":"","pricing_plan_id":"cebpf4jnsgd1na2vs0mg"},{"bike_id":"2b8fbf5f-4106-421b-bd48-29543ccb14db","system_id":"levelo_inurba_marseille","lat":43.23702,"lon":5.36302,"is_reserved":false,"is_disabled":true,"rental_uris":{"android":"levelo://app?vid=2b8fbf5f-4106-421b-bd48-29543ccb14db","ios":"levelo://app?vid=2b8fbf5f-4106-421b-bd48-29543ccb14db"},"vehicle_type_id":"4","last_reported":1747429762,"current_range_meters":0,"station_id":"","pricing_plan_id":"cebpf4jnsgd1na2vs0mg"},{"bike_id":"5de4311e-acc0-4747-9be3-06bcfa4d137e","system_id":"levelo_inurba_marseille","lat":43.31981,"lon":5.38706,"is_reserved":false,"is_disabled":true,"rental_uris":{"android":"levelo://app?vid=5de4311e-acc0-4747-9be3-06bcfa4d137e","ios":"levelo://app?vid=5de4311e-acc0-4747-9be3-06bcfa4d137e"},"vehicle_type_id":"4","last_reported":1747429762,"current_range_meters":0,"station_id":"","pricing_plan_id":"cebpf4jnsgd1na2vs0mg"},{"bike_id":"c8a7f21a-f4ae-4ed3-a9d8-9919793dc44f","system_id":"levelo_inurba_marseille","lat":43.29941,"lon":5.40104,"is_reserved":false,"is_disabled":true,"rental_uris":{"android":"levelo://app?vid=c8a7f21a-f4ae-4ed3-a9d8-9919793dc44f","ios":"levelo://app?vid=c8a7f21a-f4ae-4ed3-a9d8-9919793dc44f"},"vehicle_type_id":"4","last_reported":1747429762,"current_range_meters":0,"station_id":"","pricing_plan_id":"cebpf4jnsgd1na2vs0mg"},{"bike_id":"792567c6-0442-4011-aff0-9c05e25deb48","system_id":"levelo_inurba_marseille","lat":43.337444,"lon":5.374475,"is_reserved":false,"is_disabled":true,"rental_uris":{"android":"levelo://app?vid=792567c6-0442-4011-aff0-9c05e25deb48","ios":"levelo://app?vid=792567c6-0442-4011-aff0-9c05e25deb48"},"vehicle_type_id":"4","last_reported":1747429762,"current_range_meters":0,"station_id":"","pricing_plan_id":"cebpf4jnsgd1na2vs0mg"},{"bike_id":"663f585b-783d-47c0-8e55-bd4b1dc68cc8","system_id":"levelo_inurba_marseille","lat":43.31167,"lon":5.38712,"is_reserved":false,"is_disabled":true,"rental_uris":{"android":"levelo://app?vid=663f585b-783d-47c0-8e55-bd4b1dc68cc8","ios":"levelo://app?vid=663f585b-783d-47c0-8e55-bd4b1dc68cc8"},"vehicle_type_id":"4","last_reported":1747429762,"current_range_meters":0,"station_id":"ce4bgv12rcd13ifvqcp0","pricing_plan_id":"cebpf4jnsgd1na2vs0mg"},{"bike_id":"20db08fb-d339-4e24-8817-b085a0fe76fd","system_id":"levelo_inurba_marseille","lat":43.29572,"lon":5.39971,"is_reserved":false,"is_disabled":true,"rental_uris":{"android":"levelo://app?vid=20db08fb-d339-4e24-8817-b085a0fe76fd","ios":"levelo://app?vid=20db08fb-d339-4e24-8817-b085a0fe76fd"},"vehicle_type_id":"4","last_reported":1747429762,"current_range_meters":0,"station_id":"ce4bh312rcd13ifvqdj0","pricing_plan_id":"cebpf4jnsgd1na2vs0mg"},{"bike_id":"4ae599cc-9603-45a9-80ed-b58c0b6d67d1","system_id":"levelo_inurba_marseille","lat":43.29259,"lon":5.38437,"is_reserved":false,"is_disabled":true,"rental_uris":{"android":"levelo://app?vid=4ae599cc-9603-45a9-80ed-b58c0b6d67d1","ios":"levelo://app?vid=4ae599cc-9603-45a9-80ed-b58c0b6d67d1"},"vehicle_type_id":"4","last_reported":1747429762,"current_range_meters":0,"station_id":"ce4bh692rcd13ifvqea0","pricing_plan_id":"cebpf4jnsgd1na2vs0mg"},{"bike_id":"9d9c694e-6339-4dfa-98a8-421944cc4455","system_id":"levelo_inurba_marseille","lat":43.29006,"lon":5.35614,"is_reserved":false,"is_disabled":true,"rental_uris":{"android":"levelo://app?vid=9d9c694e-6339-4dfa-98a8-421944cc4455","ios":"levelo://app?vid=9d9c694e-6339-4dfa-98a8-421944cc4455"},"vehicle_type_id":"4","last_reported":1747429762,"current_range_meters":0,"station_id":"ce4bhb92rcd13ifvqen0","pricing_plan_id":"cebpf4jnsgd1na2vs0mg"},{"bike_id":"ac71b50a-4fa7-4815-ba45-f0603f248a06","system_id":"levelo_inurba_marseille","lat":43.24996,"lon":5.38928,"is_reserved":false,"is_disabled":true,"rental_uris":{"android":"levelo://app?vid=ac71b50a-4fa7-4815-ba45-f0603f248a06","ios":"levelo://app?vid=ac71b50a-4fa7-4815-ba45-f0603f248a06"},"vehicle_type_id":"4","last_reported":1747429762,"current_range_meters":0,"station_id":"ce4bhgp2rcd13ifvqfd0","pricing_plan_id":"cebpf4jnsgd1na2vs0mg"},{"bike_id":"fb6b4991-9007-4102-856c-fac0d9ba1a0f","system_id":"levelo_inurba_marseille","lat":43.25584,"lon":5.38238,"is_reserved":false,"is_disabled":true,"rental_uris":{"android":"levelo://app?vid=fb6b4991-9007-4102-856c-fac0d9ba1a0f","ios":"levelo://app?vid=fb6b4991-9007-4102-856c-fac0d9ba1a0f"},"vehicle_type_id":"4","last_reported":1747429762,"current_range_meters":0,"station_id":"ce4bhih2rcd13ifvqfs0","pricing_plan_id":"cebpf4jnsgd1na2vs0mg"},{"bike_id":"42a1a167-25b1-498d-9876-0addf4921d7e","system_id":"levelo_inurba_marseille","lat":43.23156,"lon":5.43704,"is_reserved":false,"is_disabled":false,"rental_uris":{"android":"levelo://app?vid=42a1a167-25b1-498d-9876-0addf4921d7e","ios":"levelo://app?vid=42a1a167-25b1-498d-9876-0addf4921d7e"},"vehicle_type_id":"4","last_reported":1747429762,"current_range_meters":0,"station_id":"ce4bhmp2rcd13ifvqgog","pricing_plan_id":"cebpf4jnsgd1na2vs0mg"},{"bike_id":"0322f8c0-478a-4036-9bba-8fce70858e9a","system_id":"levelo_inurba_marseille","lat":43.28217,"lon":5.34927,"is_reserved":false,"is_disabled":true,"rental_uris":{"android":"levelo://app?vid=0322f8c0-478a-4036-9bba-8fce70858e9a","ios":"levelo://app?vid=0322f8c0-478a-4036-9bba-8fce70858e9a"},"vehicle_type_id":"4","last_reported":1747429762,"current_range_meters":400,"station_id":"","pricing_plan_id":"cebpf4jnsgd1na2vs0mg"},{"bike_id":"fc4c81c1-d472-4cad-a313-517d54fe18f4","system_id":"levelo_inurba_marseille","lat":43.29333,"lon":5.37112,"is_reserved":false,"is_disabled":true,"rental_uris":{"android":"levelo://app?vid=fc4c81c1-d472-4cad-a313-517d54fe18f4","ios":"levelo://app?vid=fc4c81c1-d472-4cad-a313-517d54fe18f4"},"vehicle_type_id":"4","last_reported":1747429762,"current_range_meters":400,"station_id":"","pricing_plan_id":"cebpf4jnsgd1na2vs0mg"},{"bike_id":"ac8b3a05-f4a1-495a-8603-bcfbbba29c81","system_id":"levelo_inurba_marseille","lat":43.2954,"lon":5.38543,"is_reserved":false,"is_disabled":true,"rental_uris":{"android":"levelo://app?vid=ac8b3a05-f4a1-495a-8603-bcfbbba29c81","ios":"levelo://app?vid=ac8b3a05-f4a1-495a-8603-bcfbbba29c81"},"vehicle_type_id":"4","last_reported":1747429762,"current_range_meters":400,"station_id":"ce4bgih2rcd13ifvqba0","pricing_plan_id":"cebpf4jnsgd1na2vs0mg"},{"bike_id":"8bc59f09-925c-43ab-a1e2-397aabbe4e01","system_id":"levelo_inurba_marseille","lat":43.28276,"lon":5.405,"is_reserved":false,"is_disabled":true,"rental_uris":{"android":"levelo://app?vid=8bc59f09-925c-43ab-a1e2-397aabbe4e01","ios":"levelo://app?vid=8bc59f09-925c-43ab-a1e2-397aabbe4e01"},"vehicle_type_id":"4","last_reported":1747429762,"current_range_meters":800,"station_id":"","pricing_plan_id":"cebpf4jnsgd1na2vs0mg"},{"bike_id":"e6884f86-efe7-4bd8-b136-e02be154130a","system_id":"levelo_inurba_marseille","lat":43.30143,"lon":5.38072,"is_reserved":false,"is_disabled":true,"rental_uris":{"android":"levelo://app?vid=e6884f86-efe7-4bd8-b136-e02be154130a","ios":"levelo://app?vid=e6884f86-efe7-4bd8-b136-e02be154130a"},"vehicle_type_id":"4","last_reported":1747429762,"current_range_meters":800,"station_id":"ce4bgjp2rcd13ifvqbh0","pricing_plan_id":"cebpf4jnsgd1na2vs0mg"},{"bike_id":"3b0e8875-9fdf-4845-9d1a-2da39b6de4a1","system_id":"levelo_inurba_marseille","lat":43.296332,"lon":5.405974,"is_reserved":false,"is_disabled":false,"rental_uris":{"android":"levelo://app?vid=3b0e8875-9fdf-4845-9d1a-2da39b6de4a1","ios":"levelo://app?vid=3b0e8875-9fdf-4845-9d1a-2da39b6de4a1"},"vehicle_type_id":"4","last_reported":1747429762,"current_range_meters":800,"station_id":"ce4bh0h2rcd13ifvqd60","pricing_plan_id":"cebpf4jnsgd1na2vs0mg"},{"bike_id":"46c87330-cba2-4dc4-ab70-0a538ebb1564","system_id":"levelo_inurba_marseille","lat":43.290094,"lon":5.356088,"is_reserved":false,"is_disabled":true,"rental_uris":{"android":"levelo://app?vid=46c87330-cba2-4dc4-ab70-0a538ebb1564","ios":"levelo://app?vid=46c87330-cba2-4dc4-ab70-0a538ebb1564"},"vehicle_type_id":"4","last_reported":1747429762,"current_range_meters":800,"station_id":"ce4bhb92rcd13ifvqen0","pricing_plan_id":"cebpf4jnsgd1na2vs0mg"},{"bike_id":"ec6465ae-fdcc-4c2c-ad52-a32f91145876","system_id":"levelo_inurba_marseille","lat":43.28705,"lon":5.39983,"is_reserved":false,"is_disabled":true,"rental_uris":{"android":"levelo://app?vid=ec6465ae-fdcc-4c2c-ad52-a32f91145876","ios":"levelo://app?vid=ec6465ae-fdcc-4c2c-ad52-a32f91145876"},"vehicle_type_id":"4","last_reported":1747429762,"current_range_meters":800,"station_id":"ce4bho92rcd13ifvqh3g","pricing_plan_id":"cebpf4jnsgd1na2vs0mg"},{"bike_id":"6aad2ac4-467e-4995-8cfd-fc30958b0d2f","system_id":"levelo_inurba_marseille","lat":43.29036,"lon":5.38161,"is_reserved":false,"is_disabled":true,"rental_uris":{"android":"levelo://app?vid=6aad2ac4-467e-4995-8cfd-fc30958b0d2f","ios":"levelo://app?vid=6aad2ac4-467e-4995-8cfd-fc30958b0d2f"},"vehicle_type_id":"4","last_reported":1747429762,"current_range_meters":1200,"station_id":"ce4bh4p2rcd13ifvqe1g","pricing_plan_id":"cebpf4jnsgd1na2vs0mg"},{"bike_id":"d843fc60-e377-41a7-9829-440dd41a5f6c","system_id":"levelo_inurba_marseille","lat":43.28705,"lon":5.37943,"is_reserved":false,"is_disabled":true,"rental_uris":{"android":"levelo://app?vid=d843fc60-e377-41a7-9829-440dd41a5f6c","ios":"levelo://app?vid=d843fc60-e377-41a7-9829-440dd41a5f6c"},"vehicle_type_id":"4","last_reported":1747429762,"current_range_meters":1200,"station_id":"ce4bh9p2rcd13ifvqec0","pricing_plan_id":"cebpf4jnsgd1na2vs0mg"},{"bike_id":"29fb605d-92ce-4b7f-a775-6bc94f8fc33a","system_id":"levelo_inurba_marseille","lat":43.28717,"lon":5.37946,"is_reserved":false,"is_disabled":true,"rental_uris":{"android":"levelo://app?vid=29fb605d-92ce-4b7f-a775-6bc94f8fc33a","ios":"levelo://app?vid=29fb605d-92ce-4b7f-a775-6bc94f8fc33a"},"vehicle_type_id":"4","last_reported":1747429762,"current_range_meters":1200,"station_id":"ce4bh9p2rcd13ifvqec0","pricing_plan_id":"cebpf4jnsgd1na2vs0mg"},{"bike_id":"329b59ed-7053-47c3-a7dc-1355921aad51","system_id":"levelo_inurba_marseille","lat":43.303765,"lon":5.424892,"is_reserved":false,"is_disabled":true,"rental_uris":{"android":"levelo://app?vid=329b59ed-7053-47c3-a7dc-1355921aad51","ios":"levelo://app?vid=329b59ed-7053-47c3-a7dc-1355921aad51"},"vehicle_type_id":"4","last_reported":1747429762,"current_range_meters":1200,"station_id":"ce4bhoh2rcd13ifvqh6g","pricing_plan_id":"cebpf4jnsgd1na2vs0mg"},{"bike_id":"610a7ca5-7649-44e5-913e-926d4d7778bb","system_id":"levelo_inurba_marseille","lat":43.28484,"lon":5.39852,"is_reserved":false,"is_disabled":true,"rental_uris":{"android":"levelo://app?vid=610a7ca5-7649-44e5-913e-926d4d7778bb","ios":"levelo://app?vid=610a7ca5-7649-44e5-913e-926d4d7778bb"},"vehicle_type_id":"4","last_reported":1747429762,"current_range_meters":1600,"station_id":"","pricing_plan_id":"cebpf4jnsgd1na2vs0mg"},{"bike_id":"00957a55-e4f2-4854-8028-cfe2babf9a73","system_id":"levelo_inurba_marseille","lat":43.303771,"lon":5.424844,"is_reserved":false,"is_disabled":true,"rental_uris":{"android":"levelo://app?vid=00957a55-e4f2-4854-8028-cfe2babf9a73","ios":"levelo://app?vid=00957a55-e4f2-4854-8028-cfe2babf9a73"},"vehicle_type_id":"4","last_reported":1747429762,"current_range_meters":1600,"station_id":"","pricing_plan_id":"cebpf4jnsgd1na2vs0mg"},{"bike_id":"98211ede-9f44-4766-b512-897ce6869072","system_id":"levelo_inurba_marseille","lat":43.2962,"lon":5.37716,"is_reserved":false,"is_disabled":true,"rental_uris":{"android":"levelo://app?vid=98211ede-9f44-4766-b512-897ce6869072","ios":"levelo://app?vid=98211ede-9f44-4766-b512-897ce6869072"},"vehicle_type_id":"4","last_reported":1747429762,"current_range_meters":1600,"station_id":"ce4bgi92rcd13ifvqb90","pricing_plan_id":"cebpf4jnsgd1na2vs0mg"},{"bike_id":"964ef926-350a-4f0e-a7b4-a2f0955265d7","system_id":"levelo_inurba_marseille","lat":43.29784,"lon":5.38105,"is_reserved":false,"is_disabled":true,"rental_uris":{"android":"levelo://app?vid=964ef926-350a-4f0e-a7b4-a2f0955265d7","ios":"levelo://app?vid=964ef926-350a-4f0e-a7b4-a2f0955265d7"},"vehicle_type_id":"4","last_reported":1747429762,"current_range_meters":1600,"station_id":"ce4bgip2rcd13ifvqbb0","pricing_plan_id":"cebpf4jnsgd1na2vs0mg"},{"bike_id":"e6eb892c-e8c9-4f08-8945-555e5971b46e","system_id":"levelo_inurba_marseille","lat":43.30291,"lon":5.39232,"is_reserved":false,"is_disabled":true,"rental_uris":{"android":"levelo://app?vid=e6eb892c-e8c9-4f08-8945-555e5971b46e","ios":"levelo://app?vid=e6eb892c-e8c9-4f08-8945-555e5971b46e"},"vehicle_type_id":"4","last_reported":1747429762,"current_range_meters":1600,"station_id":"ce4bgkh2rcd13ifvqbk0","pricing_plan_id":"cebpf4jnsgd1na2vs0mg"},{"bike_id":"c8107b40-4e78-47e4-a23d-10a935f8e353","system_id":"levelo_inurba_marseille","lat":43.26861,"lon":5.37048,"is_reserved":false,"is_disabled":true,"rental_uris":{"android":"levelo://app?vid=c8107b40-4e78-47e4-a23d-10a935f8e353","ios":"levelo://app?vid=c8107b40-4e78-47e4-a23d-10a935f8e353"},"vehicle_type_id":"4","last_reported":1747429762,"current_range_meters":2000,"station_id":"","pricing_plan_id":"cebpf4jnsgd1na2vs0mg"},{"bike_id":"a9d69b23-c024-4e32-bfc5-b303218c821b","system_id":"levelo_inurba_marseille","lat":43.28936,"lon":5.36638,"is_reserved":false,"is_disabled":false,"rental_uris":{"android":"levelo://app?vid=a9d69b23-c024-4e32-bfc5-b303218c821b","ios":"levelo://app?vid=a9d69b23-c024-4e32-bfc5-b303218c821b"},"vehicle_type_id":"4","last_reported":1747429762,"current_range_meters":2000,"station_id":"ce4bhap2rcd13ifvqek0","pricing_plan_id":"cebpf4jnsgd1na2vs0mg"},{"bike_id":"e8402bf7-03e6-42a3-b2bf-db6f3094d2a0","system_id":"levelo_inurba_marseille","lat":43.28447,"lon":5.3589,"is_reserved":false,"is_disabled":false,"rental_uris":{"android":"levelo://app?vid=e8402bf7-03e6-42a3-b2bf-db6f3094d2a0","ios":"levelo://app?vid=e8402bf7-03e6-42a3-b2bf-db6f3094d2a0"},"vehicle_type_id":"4","last_reported":1747429762,"current_range_meters":2800,"station_id":"ce4bhah2rcd13ifvqei0","pricing_plan_id":"cebpf4jnsgd1na2vs0mg"},{"bike_id":"86316fd7-ee10-47b3-b96f-06be3316612a","system_id":"levelo_inurba_marseille","lat":43.27953,"lon":5.38694,"is_reserved":false,"is_disabled":false,"rental_uris":{"android":"levelo://app?vid=86316fd7-ee10-47b3-b96f-06be3316612a","ios":"levelo://app?vid=86316fd7-ee10-47b3-b96f-06be3316612a"},"vehicle_type_id":"4","last_reported":1747429762,"current_range_meters":2800,"station_id":"ce4bhg12rcd13ifvqf80","pricing_plan_id":"cebpf4jnsgd1na2vs0mg"},{"bike_id":"f0ac4959-b382-450b-a3c2-32b2e476fa2d","system_id":"levelo_inurba_marseille","lat":43.29869,"lon":5.39728,"is_reserved":false,"is_disabled":false,"rental_uris":{"android":"levelo://app?vid=f0ac4959-b382-450b-a3c2-32b2e476fa2d","ios":"levelo://app?vid=f0ac4959-b382-450b-a3c2-32b2e476fa2d"},"vehicle_type_id":"4","last_reported":1747429762,"current_range_meters":3200,"station_id":"ce4bh0h2rcd13ifvqd50","pricing_plan_id":"cebpf4jnsgd1na2vs0mg"},{"bike_id":"7c8d35e7-9d1b-4a08-bc78-84a12855942a","system_id":"levelo_inurba_marseille","lat":43.284008,"lon":5.374998,"is_reserved":false,"is_disabled":false,"rental_uris":{"android":"levelo://app?vid=7c8d35e7-9d1b-4a08-bc78-84a12855942a","ios":"levelo://app?vid=7c8d35e7-9d1b-4a08-bc78-84a12855942a"},"vehicle_type_id":"4","last_reported":1747429762,"current_range_meters":3200,"station_id":"ce4bh412rcd13ifvqds0","pricing_plan_id":"cebpf4jnsgd1na2vs0mg"},{"bike_id":"d807f985-768f-4569-af01-df9a4d379c0c","system_id":"levelo_inurba_marseille","lat":43.27322,"lon":5.39066,"is_reserved":false,"is_disabled":false,"rental_uris":{"android":"levelo://app?vid=d807f985-768f-4569-af01-df9a4d379c0c","ios":"levelo://app?vid=d807f985-768f-4569-af01-df9a4d379c0c"},"vehicle_type_id":"4","last_reported":1747429762,"current_range_meters":3200,"station_id":"ce4bhgp2rcd13ifvqfe0","pricing_plan_id":"cebpf4jnsgd1na2vs0mg"},{"bike_id":"6d797a01-a0ac-438d-bec2-5a605af2734b","system_id":"levelo_inurba_marseille","lat":43.27208,"lon":5.39177,"is_reserved":false,"is_disabled":false,"rental_uris":{"android":"levelo://app?vid=6d797a01-a0ac-438d-bec2-5a605af2734b","ios":"levelo://app?vid=6d797a01-a0ac-438d-bec2-5a605af2734b"},"vehicle_type_id":"4","last_reported":1747429762,"current_range_meters":3200,"station_id":"ce4bhhp2rcd13ifvqfm0","pricing_plan_id":"cebpf4jnsgd1na2vs0mg"},{"bike_id":"3e3f47fd-3187-40e8-8dc6-eb3d73be6bf4","system_id":"levelo_inurba_marseille","lat":43.257253,"lon":5.411072,"is_reserved":false,"is_disabled":false,"rental_uris":{"android":"levelo://app?vid=3e3f47fd-3187-40e8-8dc6-eb3d73be6bf4","ios":"levelo://app?vid=3e3f47fd-3187-40e8-8dc6-eb3d73be6bf4"},"vehicle_type_id":"4","last_reported":1747429762,"current_range_meters":3200,"station_id":"ce4bhkp2rcd13ifvqgd0","pricing_plan_id":"cebpf4jnsgd1na2vs0mg"},{"bike_id":"a653d092-b831-4c97-84c6-8b670d798318","system_id":"levelo_inurba_marseille","lat":43.28233,"lon":5.39068,"is_reserved":false,"is_disabled":false,"rental_uris":{"android":"levelo://app?vid=a653d092-b831-4c97-84c6-8b670d798318","ios":"levelo://app?vid=a653d092-b831-4c97-84c6-8b670d798318"},"vehicle_type_id":"4","last_reported":1747429762,"current_range_meters":3600,"station_id":"","pricing_plan_id":"cebpf4jnsgd1na2vs0mg"},{"bike_id":"253e34bb-1074-4c09-84df-3eab82420a57","system_id":"levelo_inurba_marseille","lat":43.2902,"lon":5.38634,"is_reserved":false,"is_disabled":false,"rental_uris":{"android":"levelo://app?vid=253e34bb-1074-4c09-84df-3eab82420a57","ios":"levelo://app?vid=253e34bb-1074-4c09-84df-3eab82420a57"},"vehicle_type_id":"4","last_reported":1747429762,"current_range_meters":3600,"station_id":"ce4bh4p2rcd13ifvqe0g","pricing_plan_id":"cebpf4jnsgd1na2vs0mg"},{"bike_id":"b551a6c2-6f14-4eff-a66f-a08e2ba9af39","system_id":"levelo_inurba_marseille","lat":43.26606,"lon":5.39012,"is_reserved":false,"is_disabled":false,"rental_uris":{"android":"levelo://app?vid=b551a6c2-6f14-4eff-a66f-a08e2ba9af39","ios":"levelo://app?vid=b551a6c2-6f14-4eff-a66f-a08e2ba9af39"},"vehicle_type_id":"4","last_reported":1747429762,"current_range_meters":3600,"station_id":"ce4bhe12rcd13ifvqf30","pricing_plan_id":"cebpf4jnsgd1na2vs0mg"},{"bike_id":"1f5ff55e-9178-4afa-9263-c9da64207d62","system_id":"levelo_inurba_marseille","lat":43.31116,"lon":5.37786,"is_reserved":false,"is_disabled":false,"rental_uris":{"android":"levelo://app?vid=1f5ff55e-9178-4afa-9263-c9da64207d62","ios":"levelo://app?vid=1f5ff55e-9178-4afa-9263-c9da64207d62"},"vehicle_type_id":"4","last_reported":1747429762,"current_range_meters":4000,"station_id":"ce4bgt92rcd13ifvqcg0","pricing_plan_id":"cebpf4jnsgd1na2vs0mg"},{"bike_id":"904c49b4-9e16-4528-82a4-bd8ba0c760fa","system_id":"levelo_inurba_marseille","lat":43.29526,"lon":5.39396,"is_reserved":false,"is_disabled":false,"rental_uris":{"android":"levelo://app?vid=904c49b4-9e16-4528-82a4-bd8ba0c760fa","ios":"levelo://app?vid=904c49b4-9e16-4528-82a4-bd8ba0c760fa"},"vehicle_type_id":"4","last_reported":1747429762,"current_range_meters":4000,"station_id":"ce4bh292rcd13ifvqdf0","pricing_plan_id":"cebpf4jnsgd1na2vs0mg"},{"bike_id":"c38a9817-dfaf-4e3d-a32a-fca3017f0040","system_id":"levelo_inurba_marseille","lat":43.28666,"lon":5.36344,"is_reserved":false,"is_disabled":false,"rental_uris":{"android":"levelo://app?vid=c38a9817-dfaf-4e3d-a32a-fca3017f0040","ios":"levelo://app?vid=c38a9817-dfaf-4e3d-a32a-fca3017f0040"},"vehicle_type_id":"4","last_reported":1747429762,"current_range_meters":4000,"station_id":"ce4bhah2rcd13ifvqej0","pricing_plan_id":"cebpf4jnsgd1na2vs0mg"},{"bike_id":"80d0d83f-909d-4568-b4e7-8a3ef4eed2de","system_id":"levelo_inurba_marseille","lat":43.25398,"lon":5.4189,"is_reserved":false,"is_disabled":false,"rental_uris":{"android":"levelo://app?vid=80d0d83f-909d-4568-b4e7-8a3ef4eed2de","ios":"levelo://app?vid=80d0d83f-909d-4568-b4e7-8a3ef4eed2de"},"vehicle_type_id":"4","last_reported":1747429762,"current_range_meters":4400,"station_id":"","pricing_plan_id":"cebpf4jnsgd1na2vs0mg"},{"bike_id":"efb3474b-f86e-4062-86f5-42b43330722a","system_id":"levelo_inurba_marseille","lat":43.28459,"lon":5.35886,"is_reserved":false,"is_disabled":false,"rental_uris":{"android":"levelo://app?vid=efb3474b-f86e-4062-86f5-42b43330722a","ios":"levelo://app?vid=efb3474b-f86e-4062-86f5-42b43330722a"},"vehicle_type_id":"4","last_reported":1747429762,"current_range_meters":4400,"station_id":"ce4bhah2rcd13ifvqei0","pricing_plan_id":"cebpf4jnsgd1na2vs0mg"},{"bike_id":"78683b89-a50a-4769-a4c6-0da81ccf13df","system_id":"levelo_inurba_marseille","lat":43.27913,"lon":5.39573,"is_reserved":false,"is_disabled":false,"rental_uris":{"android":"levelo://app?vid=78683b89-a50a-4769-a4c6-0da81ccf13df","ios":"levelo://app?vid=78683b89-a50a-4769-a4c6-0da81ccf13df"},"vehicle_type_id":"4","last_reported":1747429762,"current_range_meters":4400,"station_id":"ce4bhf92rcd13ifvqf40","pricing_plan_id":"cebpf4jnsgd1na2vs0mg"},{"bike_id":"738913b9-b6e5-47fe-9e14-55fba01163ef","system_id":"levelo_inurba_marseille","lat":43.28159,"lon":5.42643,"is_reserved":false,"is_disabled":false,"rental_uris":{"android":"levelo://app?vid=738913b9-b6e5-47fe-9e14-55fba01163ef","ios":"levelo://app?vid=738913b9-b6e5-47fe-9e14-55fba01163ef"},"vehicle_type_id":"4","last_reported":1747429762,"current_range_meters":4400,"station_id":"ce4bhnh2rcd13ifvqgug","pricing_plan_id":"cebpf4jnsgd1na2vs0mg"},{"bike_id":"67507c2f-24c6-4ba0-bf75-7714e465b9a6","system_id":"levelo_inurba_marseille","lat":43.2958,"lon":5.39963,"is_reserved":false,"is_disabled":false,"rental_uris":{"android":"levelo://app?vid=67507c2f-24c6-4ba0-bf75-7714e465b9a6","ios":"levelo://app?vid=67507c2f-24c6-4ba0-bf75-7714e465b9a6"},"vehicle_type_id":"4","last_reported":1747429762,"current_range_meters":4800,"station_id":"ce4bh312rcd13ifvqdj0","pricing_plan_id":"cebpf4jnsgd1na2vs0mg"},{"bike_id":"8eb1f58f-aa4f-4974-816f-c27c18b7dfee","system_id":"levelo_inurba_marseille","lat":43.24663,"lon":5.38881,"is_reserved":false,"is_disabled":false,"rental_uris":{"android":"levelo://app?vid=8eb1f58f-aa4f-4974-816f-c27c18b7dfee","ios":"levelo://app?vid=8eb1f58f-aa4f-4974-816f-c27c18b7dfee"},"vehicle_type_id":"4","last_reported":1747429762,"current_range_meters":4800,"station_id":"ce4bhg12rcd13ifvqf60","pricing_plan_id":"cebpf4jnsgd1na2vs0mg"},{"bike_id":"da36a3f9-3171-4d1c-85c5-8d3c32a7bc01","system_id":"levelo_inurba_marseille","lat":43.31127,"lon":5.37763,"is_reserved":false,"is_disabled":false,"rental_uris":{"android":"levelo://app?vid=da36a3f9-3171-4d1c-85c5-8d3c32a7bc01","ios":"levelo://app?vid=da36a3f9-3171-4d1c-85c5-8d3c32a7bc01"},"vehicle_type_id":"4","last_reported":1747429762,"current_range_meters":5600,"station_id":"ce4bgt92rcd13ifvqcg0","pricing_plan_id":"cebpf4jnsgd1na2vs0mg"},{"bike_id":"6bf3393b-2c3f-453a-8ee6-243a0054840f","system_id":"levelo_inurba_marseille","lat":43.299782,"lon":5.384776,"is_reserved":false,"is_disabled":false,"rental_uris":{"android":"levelo://app?vid=6bf3393b-2c3f-453a-8ee6-243a0054840f","ios":"levelo://app?vid=6bf3393b-2c3f-453a-8ee6-243a0054840f"},"vehicle_type_id":"4","last_reported":1747429762,"current_range_meters":5600,"station_id":"ce4bh292rcd13ifvqdg0","pricing_plan_id":"cebpf4jnsgd1na2vs0mg"},{"bike_id":"aec5af64-5758-4d49-b2f9-eff089336aac","system_id":"levelo_inurba_marseille","lat":43.280883,"lon":5.396597,"is_reserved":false,"is_disabled":false,"rental_uris":{"android":"levelo://app?vid=aec5af64-5758-4d49-b2f9-eff089336aac","ios":"levelo://app?vid=aec5af64-5758-4d49-b2f9-eff089336aac"},"vehicle_type_id":"4","last_reported":1747429762,"current_range_meters":5600,"station_id":"ce4bho12rcd13ifvqh2g","pricing_plan_id":"cebpf4jnsgd1na2vs0mg"},{"bike_id":"7eb7be2d-3eec-4648-b495-0d532492ed4d","system_id":"levelo_inurba_marseille","lat":43.23187,"lon":5.35554,"is_reserved":false,"is_disabled":false,"rental_uris":{"android":"levelo://app?vid=7eb7be2d-3eec-4648-b495-0d532492ed4d","ios":"levelo://app?vid=7eb7be2d-3eec-4648-b495-0d532492ed4d"},"vehicle_type_id":"4","last_reported":1747429762,"current_range_meters":5600,"station_id":"ce4bhu92rcd13ifvqi70","pricing_plan_id":"cebpf4jnsgd1na2vs0mg"},{"bike_id":"06e20113-a5f1-4fe5-b188-f647ff408cc7","system_id":"levelo_inurba_marseille","lat":43.27692,"lon":5.41958,"is_reserved":false,"is_disabled":false,"rental_uris":{"android":"levelo://app?vid=06e20113-a5f1-4fe5-b188-f647ff408cc7","ios":"levelo://app?vid=06e20113-a5f1-4fe5-b188-f647ff408cc7"},"vehicle_type_id":"4","last_reported":1747429762,"current_range_meters":6000,"station_id":"","pricing_plan_id":"cebpf4jnsgd1na2vs0mg"},{"bike_id":"44b99538-fb26-4f4c-9469-128b12406ff3","system_id":"levelo_inurba_marseille","lat":43.28672,"lon":5.36343,"is_reserved":false,"is_disabled":false,"rental_uris":{"android":"levelo://app?vid=44b99538-fb26-4f4c-9469-128b12406ff3","ios":"levelo://app?vid=44b99538-fb26-4f4c-9469-128b12406ff3"},"vehicle_type_id":"4","last_reported":1747429762,"current_range_meters":6000,"station_id":"ce4bhah2rcd13ifvqej0","pricing_plan_id":"cebpf4jnsgd1na2vs0mg"},{"bike_id":"8f3e1b73-13b1-41ed-a38e-5ae08ebea216","system_id":"levelo_inurba_marseille","lat":43.25728,"lon":5.41107,"is_reserved":false,"is_disabled":false,"rental_uris":{"android":"levelo://app?vid=8f3e1b73-13b1-41ed-a38e-5ae08ebea216","ios":"levelo://app?vid=8f3e1b73-13b1-41ed-a38e-5ae08ebea216"},"vehicle_type_id":"4","last_reported":1747429762,"current_range_meters":6000,"station_id":"ce4bhkp2rcd13ifvqgd0","pricing_plan_id":"cebpf4jnsgd1na2vs0mg"},{"bike_id":"435018a6-be7f-422b-8207-12f74bd632df","system_id":"levelo_inurba_marseille","lat":43.299,"lon":5.436711,"is_reserved":false,"is_disabled":false,"rental_uris":{"android":"levelo://app?vid=435018a6-be7f-422b-8207-12f74bd632df","ios":"levelo://app?vid=435018a6-be7f-422b-8207-12f74bd632df"},"vehicle_type_id":"4","last_reported":1747429762,"current_range_meters":6000,"station_id":"ce4bhpp2rcd13ifvqhfg","pricing_plan_id":"cebpf4jnsgd1na2vs0mg"},{"bike_id":"cafeaa63-6bfa-41e6-af33-ffbf29992bf0","system_id":"levelo_inurba_marseille","lat":43.307801,"lon":5.376588,"is_reserved":false,"is_disabled":false,"rental_uris":{"android":"levelo://app?vid=cafeaa63-6bfa-41e6-af33-ffbf29992bf0","ios":"levelo://app?vid=cafeaa63-6bfa-41e6-af33-ffbf29992bf0"},"vehicle_type_id":"4","last_reported":1747429762,"current_range_meters":6400,"station_id":"","pricing_plan_id":"cebpf4jnsgd1na2vs0mg"},{"bike_id":"f10110ad-cf70-4060-b045-73e5f3d73419","system_id":"levelo_inurba_marseille","lat":43.30145,"lon":5.38069,"is_reserved":false,"is_disabled":false,"rental_uris":{"android":"levelo://app?vid=f10110ad-cf70-4060-b045-73e5f3d73419","ios":"levelo://app?vid=f10110ad-cf70-4060-b045-73e5f3d73419"},"vehicle_type_id":"4","last_reported":1747429762,"current_range_meters":6400,"station_id":"ce4bgjp2rcd13ifvqbh0","pricing_plan_id":"cebpf4jnsgd1na2vs0mg"},{"bike_id":"4d23ec11-e90f-4111-8515-14c64b36284a","system_id":"levelo_inurba_marseille","lat":43.29614,"lon":5.38106,"is_reserved":false,"is_disabled":false,"rental_uris":{"android":"levelo://app?vid=4d23ec11-e90f-4111-8515-14c64b36284a","ios":"levelo://app?vid=4d23ec11-e90f-4111-8515-14c64b36284a"},"vehicle_type_id":"4","last_reported":1747429762,"current_range_meters":6400,"station_id":"ce4bgl12rcd13ifvqbo0","pricing_plan_id":"cebpf4jnsgd1na2vs0mg"},{"bike_id":"b7f154ba-980a-45a7-8c9e-fae3bad94b54","system_id":"levelo_inurba_marseille","lat":43.2858,"lon":5.39486,"is_reserved":false,"is_disabled":false,"rental_uris":{"android":"levelo://app?vid=b7f154ba-980a-45a7-8c9e-fae3bad94b54","ios":"levelo://app?vid=b7f154ba-980a-45a7-8c9e-fae3bad94b54"},"vehicle_type_id":"4","last_reported":1747429762,"current_range_meters":6400,"station_id":"ce4bh292rcd13ifvqdg0","pricing_plan_id":"cebpf4jnsgd1na2vs0mg"},{"bike_id":"e5fff148-2c4c-42e4-8ea1-58914929ffeb","system_id":"levelo_inurba_marseille","lat":43.27978,"lon":5.38746,"is_reserved":false,"is_disabled":false,"rental_uris":{"android":"levelo://app?vid=e5fff148-2c4c-42e4-8ea1-58914929ffeb","ios":"levelo://app?vid=e5fff148-2c4c-42e4-8ea1-58914929ffeb"},"vehicle_type_id":"4","last_reported":1747429762,"current_range_meters":6400,"station_id":"ce4bhg12rcd13ifvqf80","pricing_plan_id":"cebpf4jnsgd1na2vs0mg"},{"bike_id":"6fa9e772-3d07-48cc-af00-0a04d4ffa1a2","system_id":"levelo_inurba_marseille","lat":43.2516,"lon":5.4035,"is_reserved":false,"is_disabled":false,"rental_uris":{"android":"levelo://app?vid=6fa9e772-3d07-48cc-af00-0a04d4ffa1a2","ios":"levelo://app?vid=6fa9e772-3d07-48cc-af00-0a04d4ffa1a2"},"vehicle_type_id":"4","last_reported":1747429762,"current_range_meters":6400,"station_id":"ce4bhlh2rcd13ifvqgig","pricing_plan_id":"cebpf4jnsgd1na2vs0mg"},{"bike_id":"497ef34d-f9d2-43be-8888-1c3e29812a6e","system_id":"levelo_inurba_marseille","lat":43.28693,"lon":5.39986,"is_reserved":false,"is_disabled":false,"rental_uris":{"android":"levelo://app?vid=497ef34d-f9d2-43be-8888-1c3e29812a6e","ios":"levelo://app?vid=497ef34d-f9d2-43be-8888-1c3e29812a6e"},"vehicle_type_id":"4","last_reported":1747429762,"current_range_meters":6400,"station_id":"ce4bho92rcd13ifvqh3g","pricing_plan_id":"cebpf4jnsgd1na2vs0mg"},{"bike_id":"deb72f86-18c7-4059-b066-9e7105249bc3","system_id":"levelo_inurba_marseille","lat":43.32656,"lon":5.40982,"is_reserved":false,"is_disabled":false,"rental_uris":{"android":"levelo://app?vid=deb72f86-18c7-4059-b066-9e7105249bc3","ios":"levelo://app?vid=deb72f86-18c7-4059-b066-9e7105249bc3"},"vehicle_type_id":"4","last_reported":1747429762,"current_range_meters":6400,"station_id":"ce4bhpp2rcd13ifvqhgg","pricing_plan_id":"cebpf4jnsgd1na2vs0mg"},{"bike_id":"f768f02c-a770-46ed-b9fb-ed1e435a3c0f","system_id":"levelo_inurba_marseille","lat":43.32892,"lon":5.39052,"is_reserved":false,"is_disabled":false,"rental_uris":{"android":"levelo://app?vid=f768f02c-a770-46ed-b9fb-ed1e435a3c0f","ios":"levelo://app?vid=f768f02c-a770-46ed-b9fb-ed1e435a3c0f"},"vehicle_type_id":"4","last_reported":1747429762,"current_range_meters":6800,"station_id":"","pricing_plan_id":"cebpf4jnsgd1na2vs0mg"},{"bike_id":"770e5e16-de24-4200-8062-b84849f44714","system_id":"levelo_inurba_marseille","lat":43.27072,"lon":5.42275,"is_reserved":false,"is_disabled":false,"rental_uris":{"android":"levelo://app?vid=770e5e16-de24-4200-8062-b84849f44714","ios":"levelo://app?vid=770e5e16-de24-4200-8062-b84849f44714"},"vehicle_type_id":"4","last_reported":1747429762,"current_range_meters":6800,"station_id":"ce4bhk92rcd13ifvqgb0","pricing_plan_id":"cebpf4jnsgd1na2vs0mg"},{"bike_id":"ec2cf44a-d2ce-40ed-aaeb-ddb24e07b8b0","system_id":"levelo_inurba_marseille","lat":43.23187,"lon":5.39979,"is_reserved":false,"is_disabled":false,"rental_uris":{"android":"levelo://app?vid=ec2cf44a-d2ce-40ed-aaeb-ddb24e07b8b0","ios":"levelo://app?vid=ec2cf44a-d2ce-40ed-aaeb-ddb24e07b8b0"},"vehicle_type_id":"4","last_reported":1747429762,"current_range_meters":6800,"station_id":"ce4bhn12rcd13ifvqgqg","pricing_plan_id":"cebpf4jnsgd1na2vs0mg"},{"bike_id":"51f297bc-777b-4d37-b798-77fe30c8264a","system_id":"levelo_inurba_marseille","lat":43.287,"lon":5.39991,"is_reserved":false,"is_disabled":false,"rental_uris":{"android":"levelo://app?vid=51f297bc-777b-4d37-b798-77fe30c8264a","ios":"levelo://app?vid=51f297bc-777b-4d37-b798-77fe30c8264a"},"vehicle_type_id":"4","last_reported":1747429762,"current_range_meters":6800,"station_id":"ce4bho92rcd13ifvqh3g","pricing_plan_id":"cebpf4jnsgd1na2vs0mg"},{"bike_id":"d93d0c6d-be90-4a1f-bc81-4d02d1453c4b","system_id":"levelo_inurba_marseille","lat":43.22518,"lon":5.34778,"is_reserved":false,"is_disabled":false,"rental_uris":{"android":"levelo://app?vid=d93d0c6d-be90-4a1f-bc81-4d02d1453c4b","ios":"levelo://app?vid=d93d0c6d-be90-4a1f-bc81-4d02d1453c4b"},"vehicle_type_id":"4","last_reported":1747429762,"current_range_meters":6800,"station_id":"st_cvj5dfep6f1abm77gieg","pricing_plan_id":"cebpf4jnsgd1na2vs0mg"},{"bike_id":"b15acf99-a4c0-4a0e-8ffe-93213d16b527","system_id":"levelo_inurba_marseille","lat":43.35494,"lon":5.35723,"is_reserved":false,"is_disabled":false,"rental_uris":{"android":"levelo://app?vid=b15acf99-a4c0-4a0e-8ffe-93213d16b527","ios":"levelo://app?vid=b15acf99-a4c0-4a0e-8ffe-93213d16b527"},"vehicle_type_id":"4","last_reported":1747429762,"current_range_meters":7200,"station_id":"","pricing_plan_id":"cebpf4jnsgd1na2vs0mg"},{"bike_id":"a56ec710-457d-46fb-90e7-b84e2bffe9ab","system_id":"levelo_inurba_marseille","lat":43.29849,"lon":5.36286,"is_reserved":false,"is_disabled":false,"rental_uris":{"android":"levelo://app?vid=a56ec710-457d-46fb-90e7-b84e2bffe9ab","ios":"levelo://app?vid=a56ec710-457d-46fb-90e7-b84e2bffe9ab"},"vehicle_type_id":"4","last_reported":1747429762,"current_range_meters":7200,"station_id":"ce4bgpp2rcd13ifvqc3g","pricing_plan_id":"cebpf4jnsgd1na2vs0mg"},{"bike_id":"b89a24e6-5078-471a-88fa-2c70cdf078ca","system_id":"levelo_inurba_marseille","lat":43.31036,"lon":5.37531,"is_reserved":false,"is_disabled":false,"rental_uris":{"android":"levelo://app?vid=b89a24e6-5078-471a-88fa-2c70cdf078ca","ios":"levelo://app?vid=b89a24e6-5078-471a-88fa-2c70cdf078ca"},"vehicle_type_id":"4","last_reported":1747429762,"current_range_meters":8000,"station_id":"","pricing_plan_id":"cebpf4jnsgd1na2vs0mg"},{"bike_id":"8ba304a2-7748-493f-b499-b5d2a7072e38","system_id":"levelo_inurba_marseille","lat":43.295273,"lon":5.385443,"is_reserved":false,"is_disabled":false,"rental_uris":{"android":"levelo://app?vid=8ba304a2-7748-493f-b499-b5d2a7072e38","ios":"levelo://app?vid=8ba304a2-7748-493f-b499-b5d2a7072e38"},"vehicle_type_id":"4","last_reported":1747429762,"current_range_meters":8000,"station_id":"ce4bgih2rcd13ifvqba0","pricing_plan_id":"cebpf4jnsgd1na2vs0mg"},{"bike_id":"fb45721c-8c73-4139-a8f6-6624c565b3fc","system_id":"levelo_inurba_marseille","lat":43.26794,"lon":5.39411,"is_reserved":false,"is_disabled":false,"rental_uris":{"android":"levelo://app?vid=fb45721c-8c73-4139-a8f6-6624c565b3fc","ios":"levelo://app?vid=fb45721c-8c73-4139-a8f6-6624c565b3fc"},"vehicle_type_id":"4","last_reported":1747429762,"current_range_meters":8000,"station_id":"ce4bhh12rcd13ifvqfg0","pricing_plan_id":"cebpf4jnsgd1na2vs0mg"},{"bike_id":"aafe78a6-692c-4e55-8bb8-4da8ee7b3518","system_id":"levelo_inurba_marseille","lat":43.28701,"lon":5.39988,"is_reserved":false,"is_disabled":false,"rental_uris":{"android":"levelo://app?vid=aafe78a6-692c-4e55-8bb8-4da8ee7b3518","ios":"levelo://app?vid=aafe78a6-692c-4e55-8bb8-4da8ee7b3518"},"vehicle_type_id":"4","last_reported":1747429762,"current_range_meters":8000,"station_id":"ce4bho92rcd13ifvqh3g","pricing_plan_id":"cebpf4jnsgd1na2vs0mg"},{"bike_id":"e64e4484-2db6-41f4-beb8-e0c0ae1263cd","system_id":"levelo_inurba_marseille","lat":43.285197,"lon":5.430293,"is_reserved":false,"is_disabled":false,"rental_uris":{"android":"levelo://app?vid=e64e4484-2db6-41f4-beb8-e0c0ae1263cd","ios":"levelo://app?vid=e64e4484-2db6-41f4-beb8-e0c0ae1263cd"},"vehicle_type_id":"4","last_reported":1747429762,"current_range_meters":8400,"station_id":"","pricing_plan_id":"cebpf4jnsgd1na2vs0mg"},{"bike_id":"f8e4732a-2ecf-431c-8f66-abc7aabb8aa1","system_id":"levelo_inurba_marseille","lat":43.3296,"lon":5.39019,"is_reserved":false,"is_disabled":false,"rental_uris":{"android":"levelo://app?vid=f8e4732a-2ecf-431c-8f66-abc7aabb8aa1","ios":"levelo://app?vid=f8e4732a-2ecf-431c-8f66-abc7aabb8aa1"},"vehicle_type_id":"4","last_reported":1747429762,"current_range_meters":8400,"station_id":"","pricing_plan_id":"cebpf4jnsgd1na2vs0mg"},{"bike_id":"af4d8ae5-b5e3-4ba4-bb1f-49c4a5ed79fd","system_id":"levelo_inurba_marseille","lat":43.28928,"lon":5.44996,"is_reserved":false,"is_disabled":false,"rental_uris":{"android":"levelo://app?vid=af4d8ae5-b5e3-4ba4-bb1f-49c4a5ed79fd","ios":"levelo://app?vid=af4d8ae5-b5e3-4ba4-bb1f-49c4a5ed79fd"},"vehicle_type_id":"4","last_reported":1747429762,"current_range_meters":8400,"station_id":"","pricing_plan_id":"cebpf4jnsgd1na2vs0mg"},{"bike_id":"6dd57cf4-65e0-489e-905f-ab0dc1fdf6dd","system_id":"levelo_inurba_marseille","lat":43.32995,"lon":5.39363,"is_reserved":false,"is_disabled":false,"rental_uris":{"android":"levelo://app?vid=6dd57cf4-65e0-489e-905f-ab0dc1fdf6dd","ios":"levelo://app?vid=6dd57cf4-65e0-489e-905f-ab0dc1fdf6dd"},"vehicle_type_id":"4","last_reported":1747429762,"current_range_meters":8400,"station_id":"","pricing_plan_id":"cebpf4jnsgd1na2vs0mg"},{"bike_id":"695a63d9-be6f-4584-83cd-2bd1d0de1629","system_id":"levelo_inurba_marseille","lat":43.29527,"lon":5.385456,"is_reserved":false,"is_disabled":false,"rental_uris":{"android":"levelo://app?vid=695a63d9-be6f-4584-83cd-2bd1d0de1629","ios":"levelo://app?vid=695a63d9-be6f-4584-83cd-2bd1d0de1629"},"vehicle_type_id":"4","last_reported":1747429762,"current_range_meters":8400,"station_id":"ce4bgih2rcd13ifvqba0","pricing_plan_id":"cebpf4jnsgd1na2vs0mg"},{"bike_id":"5f14d8d4-b38d-423a-bb8c-0b0c0d3e9505","system_id":"levelo_inurba_marseille","lat":43.30438,"lon":5.39742,"is_reserved":false,"is_disabled":false,"rental_uris":{"android":"levelo://app?vid=5f14d8d4-b38d-423a-bb8c-0b0c0d3e9505","ios":"levelo://app?vid=5f14d8d4-b38d-423a-bb8c-0b0c0d3e9505"},"vehicle_type_id":"4","last_reported":1747429762,"current_range_meters":8400,"station_id":"ce4bh092rcd13ifvqd20","pricing_plan_id":"cebpf4jnsgd1na2vs0mg"},{"bike_id":"61c2ee91-abd4-4caa-9512-d60d7c186a8b","system_id":"levelo_inurba_marseille","lat":43.29263,"lon":5.40911,"is_reserved":false,"is_disabled":false,"rental_uris":{"android":"levelo://app?vid=61c2ee91-abd4-4caa-9512-d60d7c186a8b","ios":"levelo://app?vid=61c2ee91-abd4-4caa-9512-d60d7c186a8b"},"vehicle_type_id":"4","last_reported":1747429762,"current_range_meters":8400,"station_id":"ce4bh192rcd13ifvqdc0","pricing_plan_id":"cebpf4jnsgd1na2vs0mg"},{"bike_id":"13302bee-f815-4369-81f7-9966c09f11d0","system_id":"levelo_inurba_marseille","lat":43.30394,"lon":5.42459,"is_reserved":false,"is_disabled":false,"rental_uris":{"android":"levelo://app?vid=13302bee-f815-4369-81f7-9966c09f11d0","ios":"levelo://app?vid=13302bee-f815-4369-81f7-9966c09f11d0"},"vehicle_type_id":"4","last_reported":1747429762,"current_range_meters":8400,"station_id":"ce4bhoh2rcd13ifvqh6g","pricing_plan_id":"cebpf4jnsgd1na2vs0mg"},{"bike_id":"6d485413-0a5b-4296-862c-2c19c83ee78f","system_id":"levelo_inurba_marseille","lat":43.3234,"lon":5.40622,"is_reserved":false,"is_disabled":false,"rental_uris":{"android":"levelo://app?vid=6d485413-0a5b-4296-862c-2c19c83ee78f","ios":"levelo://app?vid=6d485413-0a5b-4296-862c-2c19c83ee78f"},"vehicle_type_id":"4","last_reported":1747429762,"current_range_meters":8400,"station_id":"ce4bhq92rcd13ifvqhjg","pricing_plan_id":"cebpf4jnsgd1na2vs0mg"},{"bike_id":"6d36ce03-b344-4b5e-9465-9800cf819cb5","system_id":"levelo_inurba_marseille","lat":43.21194,"lon":5.35065,"is_reserved":false,"is_disabled":false,"rental_uris":{"android":"levelo://app?vid=6d36ce03-b344-4b5e-9465-9800cf819cb5","ios":"levelo://app?vid=6d36ce03-b344-4b5e-9465-9800cf819cb5"},"vehicle_type_id":"4","last_reported":1747429762,"current_range_meters":8400,"station_id":"st_cvj6sg6p6f1abm77japg","pricing_plan_id":"cebpf4jnsgd1na2vs0mg"},{"bike_id":"02288632-79f4-483c-92bd-91cd61a950da","system_id":"levelo_inurba_marseille","lat":43.296417,"lon":5.36215,"is_reserved":false,"is_disabled":false,"rental_uris":{"android":"levelo://app?vid=02288632-79f4-483c-92bd-91cd61a950da","ios":"levelo://app?vid=02288632-79f4-483c-92bd-91cd61a950da"},"vehicle_type_id":"4","last_reported":1747429762,"current_range_meters":8800,"station_id":"","pricing_plan_id":"cebpf4jnsgd1na2vs0mg"},{"bike_id":"e52ee94a-953d-46f3-ab16-35f5688bcb54","system_id":"levelo_inurba_marseille","lat":43.28407,"lon":5.3752,"is_reserved":false,"is_disabled":false,"rental_uris":{"android":"levelo://app?vid=e52ee94a-953d-46f3-ab16-35f5688bcb54","ios":"levelo://app?vid=e52ee94a-953d-46f3-ab16-35f5688bcb54"},"vehicle_type_id":"4","last_reported":1747429762,"current_range_meters":8800,"station_id":"ce4bh412rcd13ifvqds0","pricing_plan_id":"cebpf4jnsgd1na2vs0mg"},{"bike_id":"8de39a32-abfb-4669-82f1-2ab8c356b893","system_id":"levelo_inurba_marseille","lat":43.28734,"lon":5.37948,"is_reserved":false,"is_disabled":false,"rental_uris":{"android":"levelo://app?vid=8de39a32-abfb-4669-82f1-2ab8c356b893","ios":"levelo://app?vid=8de39a32-abfb-4669-82f1-2ab8c356b893"},"vehicle_type_id":"4","last_reported":1747429762,"current_range_meters":8800,"station_id":"ce4bh9p2rcd13ifvqec0","pricing_plan_id":"cebpf4jnsgd1na2vs0mg"},{"bike_id":"64ec22aa-bdd2-49d0-ba9d-e14be9bb19ba","system_id":"levelo_inurba_marseille","lat":43.24804,"lon":5.37452,"is_reserved":false,"is_disabled":false,"rental_uris":{"android":"levelo://app?vid=64ec22aa-bdd2-49d0-ba9d-e14be9bb19ba","ios":"levelo://app?vid=64ec22aa-bdd2-49d0-ba9d-e14be9bb19ba"},"vehicle_type_id":"4","last_reported":1747429762,"current_range_meters":8800,"station_id":"ce4bhgh2rcd13ifvqfb0","pricing_plan_id":"cebpf4jnsgd1na2vs0mg"},{"bike_id":"caa60b47-a02a-42e1-95d7-678109642ffd","system_id":"levelo_inurba_marseille","lat":43.25583,"lon":5.38229,"is_reserved":false,"is_disabled":false,"rental_uris":{"android":"levelo://app?vid=caa60b47-a02a-42e1-95d7-678109642ffd","ios":"levelo://app?vid=caa60b47-a02a-42e1-95d7-678109642ffd"},"vehicle_type_id":"4","last_reported":1747429762,"current_range_meters":8800,"station_id":"ce4bhih2rcd13ifvqfs0","pricing_plan_id":"cebpf4jnsgd1na2vs0mg"},{"bike_id":"4a07484a-afe5-412c-b3c0-444a3bb6c3c7","system_id":"levelo_inurba_marseille","lat":43.32663,"lon":5.40979,"is_reserved":false,"is_disabled":false,"rental_uris":{"android":"levelo://app?vid=4a07484a-afe5-412c-b3c0-444a3bb6c3c7","ios":"levelo://app?vid=4a07484a-afe5-412c-b3c0-444a3bb6c3c7"},"vehicle_type_id":"4","last_reported":1747429762,"current_range_meters":8800,"station_id":"ce4bhpp2rcd13ifvqhgg","pricing_plan_id":"cebpf4jnsgd1na2vs0mg"},{"bike_id":"2781ef4e-3651-4ce5-9a2e-f1d46595d329","system_id":"levelo_inurba_marseille","lat":43.321058,"lon":5.367769,"is_reserved":false,"is_disabled":false,"rental_uris":{"android":"levelo://app?vid=2781ef4e-3651-4ce5-9a2e-f1d46595d329","ios":"levelo://app?vid=2781ef4e-3651-4ce5-9a2e-f1d46595d329"},"vehicle_type_id":"4","last_reported":1747429762,"current_range_meters":8800,"station_id":"ce4bhrh2rcd13ifvqhug","pricing_plan_id":"cebpf4jnsgd1na2vs0mg"},{"bike_id":"d65be1e0-eb3c-4026-9992-99249b1238e1","system_id":"levelo_inurba_marseille","lat":43.295298,"lon":5.385461,"is_reserved":false,"is_disabled":false,"rental_uris":{"android":"levelo://app?vid=d65be1e0-eb3c-4026-9992-99249b1238e1","ios":"levelo://app?vid=d65be1e0-eb3c-4026-9992-99249b1238e1"},"vehicle_type_id":"4","last_reported":1747429762,"current_range_meters":9200,"station_id":"ce4bgih2rcd13ifvqba0","pricing_plan_id":"cebpf4jnsgd1na2vs0mg"},{"bike_id":"a0ac4423-715a-40c9-bc6f-79593492d236","system_id":"levelo_inurba_marseille","lat":43.31327,"lon":5.39688,"is_reserved":false,"is_disabled":false,"rental_uris":{"android":"levelo://app?vid=a0ac4423-715a-40c9-bc6f-79593492d236","ios":"levelo://app?vid=a0ac4423-715a-40c9-bc6f-79593492d236"},"vehicle_type_id":"4","last_reported":1747429762,"current_range_meters":9200,"station_id":"ce4bgvp2rcd13ifvqcu0","pricing_plan_id":"cebpf4jnsgd1na2vs0mg"},{"bike_id":"1daf21ba-43f4-4e87-990c-9001f473fc9a","system_id":"levelo_inurba_marseille","lat":43.296335,"lon":5.405971,"is_reserved":false,"is_disabled":false,"rental_uris":{"android":"levelo://app?vid=1daf21ba-43f4-4e87-990c-9001f473fc9a","ios":"levelo://app?vid=1daf21ba-43f4-4e87-990c-9001f473fc9a"},"vehicle_type_id":"4","last_reported":1747429762,"current_range_meters":9200,"station_id":"ce4bh0h2rcd13ifvqd60","pricing_plan_id":"cebpf4jnsgd1na2vs0mg"},{"bike_id":"c690320c-04c1-4a80-9ca9-3a118dda0e9a","system_id":"levelo_inurba_marseille","lat":43.289966,"lon":5.386718,"is_reserved":false,"is_disabled":false,"rental_uris":{"android":"levelo://app?vid=c690320c-04c1-4a80-9ca9-3a118dda0e9a","ios":"levelo://app?vid=c690320c-04c1-4a80-9ca9-3a118dda0e9a"},"vehicle_type_id":"4","last_reported":1747429762,"current_range_meters":9200,"station_id":"ce4bh4p2rcd13ifvqe0g","pricing_plan_id":"cebpf4jnsgd1na2vs0mg"},{"bike_id":"8e1eb183-c00d-4646-a924-2a4f9123def5","system_id":"levelo_inurba_marseille","lat":43.32107,"lon":5.36767,"is_reserved":false,"is_disabled":false,"rental_uris":{"android":"levelo://app?vid=8e1eb183-c00d-4646-a924-2a4f9123def5","ios":"levelo://app?vid=8e1eb183-c00d-4646-a924-2a4f9123def5"},"vehicle_type_id":"4","last_reported":1747429762,"current_range_meters":9200,"station_id":"ce4bhrh2rcd13ifvqhug","pricing_plan_id":"cebpf4jnsgd1na2vs0mg"},{"bike_id":"ff3450a2-7698-4419-9b13-57ded09c7def","system_id":"levelo_inurba_marseille","lat":43.24168,"lon":5.36397,"is_reserved":false,"is_disabled":false,"rental_uris":{"android":"levelo://app?vid=ff3450a2-7698-4419-9b13-57ded09c7def","ios":"levelo://app?vid=ff3450a2-7698-4419-9b13-57ded09c7def"},"vehicle_type_id":"4","last_reported":1747429762,"current_range_meters":9200,"station_id":"cpo36qri1sfpv3e86is0","pricing_plan_id":"cebpf4jnsgd1na2vs0mg"},{"bike_id":"a35ef56b-63be-4a96-9de7-814693a5818a","system_id":"levelo_inurba_marseille","lat":43.31751,"lon":5.37329,"is_reserved":false,"is_disabled":false,"rental_uris":{"android":"levelo://app?vid=a35ef56b-63be-4a96-9de7-814693a5818a","ios":"levelo://app?vid=a35ef56b-63be-4a96-9de7-814693a5818a"},"vehicle_type_id":"4","last_reported":1747429762,"current_range_meters":9600,"station_id":"","pricing_plan_id":"cebpf4jnsgd1na2vs0mg"},{"bike_id":"a488853e-8708-42f9-a9f1-40f4dc62e03d","system_id":"levelo_inurba_marseille","lat":43.305722,"lon":5.373058,"is_reserved":false,"is_disabled":false,"rental_uris":{"android":"levelo://app?vid=a488853e-8708-42f9-a9f1-40f4dc62e03d","ios":"levelo://app?vid=a488853e-8708-42f9-a9f1-40f4dc62e03d"},"vehicle_type_id":"4","last_reported":1747429762,"current_range_meters":9600,"station_id":"","pricing_plan_id":"cebpf4jnsgd1na2vs0mg"},{"bike_id":"34ce6d0a-1579-4af5-9462-9fa698ed4444","system_id":"levelo_inurba_marseille","lat":43.29789,"lon":5.38103,"is_reserved":false,"is_disabled":false,"rental_uris":{"android":"levelo://app?vid=34ce6d0a-1579-4af5-9462-9fa698ed4444","ios":"levelo://app?vid=34ce6d0a-1579-4af5-9462-9fa698ed4444"},"vehicle_type_id":"4","last_reported":1747429762,"current_range_meters":9600,"station_id":"ce4bgip2rcd13ifvqbb0","pricing_plan_id":"cebpf4jnsgd1na2vs0mg"},{"bike_id":"288f89f4-8eed-4a41-a712-962b892f85ce","system_id":"levelo_inurba_marseille","lat":43.29199,"lon":5.3932,"is_reserved":false,"is_disabled":false,"rental_uris":{"android":"levelo://app?vid=288f89f4-8eed-4a41-a712-962b892f85ce","ios":"levelo://app?vid=288f89f4-8eed-4a41-a712-962b892f85ce"},"vehicle_type_id":"4","last_reported":1747429762,"current_range_meters":9600,"station_id":"ce4bh192rcd13ifvqdd0","pricing_plan_id":"cebpf4jnsgd1na2vs0mg"},{"bike_id":"5deb8060-b584-45ba-8ee7-be227a41b5a4","system_id":"levelo_inurba_marseille","lat":43.24659,"lon":5.38153,"is_reserved":false,"is_disabled":false,"rental_uris":{"android":"levelo://app?vid=5deb8060-b584-45ba-8ee7-be227a41b5a4","ios":"levelo://app?vid=5deb8060-b584-45ba-8ee7-be227a41b5a4"},"vehicle_type_id":"4","last_reported":1747429762,"current_range_meters":9600,"station_id":"ce4bhih2rcd13ifvqfr0","pricing_plan_id":"cebpf4jnsgd1na2vs0mg"},{"bike_id":"1661604a-9bca-4039-8b7f-16a7fdafdd90","system_id":"levelo_inurba_marseille","lat":43.25726,"lon":5.41108,"is_reserved":false,"is_disabled":false,"rental_uris":{"android":"levelo://app?vid=1661604a-9bca-4039-8b7f-16a7fdafdd90","ios":"levelo://app?vid=1661604a-9bca-4039-8b7f-16a7fdafdd90"},"vehicle_type_id":"4","last_reported":1747429762,"current_range_meters":9600,"station_id":"ce4bhkp2rcd13ifvqgd0","pricing_plan_id":"cebpf4jnsgd1na2vs0mg"},{"bike_id":"5bd7c68d-bffc-45e6-bca1-d02bf7a1c1bb","system_id":"levelo_inurba_marseille","lat":43.25871,"lon":5.39895,"is_reserved":false,"is_disabled":false,"rental_uris":{"android":"levelo://app?vid=5bd7c68d-bffc-45e6-bca1-d02bf7a1c1bb","ios":"levelo://app?vid=5bd7c68d-bffc-45e6-bca1-d02bf7a1c1bb"},"vehicle_type_id":"4","last_reported":1747429762,"current_range_meters":9600,"station_id":"ce4bhl92rcd13ifvqghg","pricing_plan_id":"cebpf4jnsgd1na2vs0mg"},{"bike_id":"f0f7ca87-7ffb-46bd-ab65-ff44d1578193","system_id":"levelo_inurba_marseille","lat":43.32345,"lon":5.40625,"is_reserved":false,"is_disabled":false,"rental_uris":{"android":"levelo://app?vid=f0f7ca87-7ffb-46bd-ab65-ff44d1578193","ios":"levelo://app?vid=f0f7ca87-7ffb-46bd-ab65-ff44d1578193"},"vehicle_type_id":"4","last_reported":1747429762,"current_range_meters":9600,"station_id":"ce4bhq92rcd13ifvqhjg","pricing_plan_id":"cebpf4jnsgd1na2vs0mg"},{"bike_id":"5c5d81ba-e757-422b-aa48-fc437b750e95","system_id":"levelo_inurba_marseille","lat":43.29793,"lon":5.39353,"is_reserved":false,"is_disabled":false,"rental_uris":{"android":"levelo://app?vid=5c5d81ba-e757-422b-aa48-fc437b750e95","ios":"levelo://app?vid=5c5d81ba-e757-422b-aa48-fc437b750e95"},"vehicle_type_id":"4","last_reported":1747429762,"current_range_meters":9600,"station_id":"chh1huq6cuj3fo74tm60","pricing_plan_id":"cebpf4jnsgd1na2vs0mg"},{"bike_id":"3d6b5b36-a314-45fa-8bc0-68e5f98a5dde","system_id":"levelo_inurba_marseille","lat":43.2293,"lon":5.353838,"is_reserved":false,"is_disabled":false,"rental_uris":{"android":"levelo://app?vid=3d6b5b36-a314-45fa-8bc0-68e5f98a5dde","ios":"levelo://app?vid=3d6b5b36-a314-45fa-8bc0-68e5f98a5dde"},"vehicle_type_id":"4","last_reported":1747429762,"current_range_meters":9600,"station_id":"cpo3532slgdg3j2ikp40","pricing_plan_id":"cebpf4jnsgd1na2vs0mg"},{"bike_id":"5e9e0bb9-5018-4c68-9f01-834d10a0a67c","system_id":"levelo_inurba_marseille","lat":43.29312,"lon":5.37171,"is_reserved":false,"is_disabled":false,"rental_uris":{"android":"levelo://app?vid=5e9e0bb9-5018-4c68-9f01-834d10a0a67c","ios":"levelo://app?vid=5e9e0bb9-5018-4c68-9f01-834d10a0a67c"},"vehicle_type_id":"4","last_reported":1747429762,"current_range_meters":10000,"station_id":"ce4bgh92rcd13ifvqb40","pricing_plan_id":"cebpf4jnsgd1na2vs0mg"},{"bike_id":"71abf16d-0037-4503-8336-9084f9a4a4ec","system_id":"levelo_inurba_marseille","lat":43.30929,"lon":5.40112,"is_reserved":false,"is_disabled":false,"rental_uris":{"android":"levelo://app?vid=71abf16d-0037-4503-8336-9084f9a4a4ec","ios":"levelo://app?vid=71abf16d-0037-4503-8336-9084f9a4a4ec"},"vehicle_type_id":"4","last_reported":1747429762,"current_range_meters":10000,"station_id":"ce4bgvp2rcd13ifvqct0","pricing_plan_id":"cebpf4jnsgd1na2vs0mg"},{"bike_id":"a3b2fee4-954a-4fd0-98f9-9089692ec109","system_id":"levelo_inurba_marseille","lat":43.2952,"lon":5.39045,"is_reserved":false,"is_disabled":false,"rental_uris":{"android":"levelo://app?vid=a3b2fee4-954a-4fd0-98f9-9089692ec109","ios":"levelo://app?vid=a3b2fee4-954a-4fd0-98f9-9089692ec109"},"vehicle_type_id":"4","last_reported":1747429762,"current_range_meters":10000,"station_id":"ce4bh3p2rcd13ifvqdp0","pricing_plan_id":"cebpf4jnsgd1na2vs0mg"},{"bike_id":"cc997091-761a-4004-b43e-d05e1c15efff","system_id":"levelo_inurba_marseille","lat":43.2319,"lon":5.39983,"is_reserved":false,"is_disabled":false,"rental_uris":{"android":"levelo://app?vid=cc997091-761a-4004-b43e-d05e1c15efff","ios":"levelo://app?vid=cc997091-761a-4004-b43e-d05e1c15efff"},"vehicle_type_id":"4","last_reported":1747429762,"current_range_meters":10000,"station_id":"ce4bhn12rcd13ifvqgqg","pricing_plan_id":"cebpf4jnsgd1na2vs0mg"},{"bike_id":"5cf74a5b-3237-4306-8708-835ce896cf40","system_id":"levelo_inurba_marseille","lat":43.319974,"lon":5.381466,"is_reserved":false,"is_disabled":false,"rental_uris":{"android":"levelo://app?vid=5cf74a5b-3237-4306-8708-835ce896cf40","ios":"levelo://app?vid=5cf74a5b-3237-4306-8708-835ce896cf40"},"vehicle_type_id":"4","last_reported":1747429762,"current_range_meters":10000,"station_id":"ce4bhr12rcd13ifvqhpg","pricing_plan_id":"cebpf4jnsgd1na2vs0mg"},{"bike_id":"62856c45-a396-410b-a10c-5800a7a531fb","system_id":"levelo_inurba_marseille","lat":43.29409,"lon":5.38629,"is_reserved":false,"is_disabled":false,"rental_uris":{"android":"levelo://app?vid=62856c45-a396-410b-a10c-5800a7a531fb","ios":"levelo://app?vid=62856c45-a396-410b-a10c-5800a7a531fb"},"vehicle_type_id":"4","last_reported":1747429762,"current_range_meters":10800,"station_id":"ce4bh2h2rcd13ifvqdh0","pricing_plan_id":"cebpf4jnsgd1na2vs0mg"},{"bike_id":"d1282c04-75ce-4158-8c49-6d0af504ef45","system_id":"levelo_inurba_marseille","lat":43.29065,"lon":5.3716,"is_reserved":false,"is_disabled":false,"rental_uris":{"android":"levelo://app?vid=d1282c04-75ce-4158-8c49-6d0af504ef45","ios":"levelo://app?vid=d1282c04-75ce-4158-8c49-6d0af504ef45"},"vehicle_type_id":"4","last_reported":1747429762,"current_range_meters":10800,"station_id":"ce4bh5p2rcd13ifvqe4g","pricing_plan_id":"cebpf4jnsgd1na2vs0mg"},{"bike_id":"cfa48ad5-460a-45b8-833e-58d236bbbe7a","system_id":"levelo_inurba_marseille","lat":43.28157,"lon":5.42638,"is_reserved":false,"is_disabled":false,"rental_uris":{"android":"levelo://app?vid=cfa48ad5-460a-45b8-833e-58d236bbbe7a","ios":"levelo://app?vid=cfa48ad5-460a-45b8-833e-58d236bbbe7a"},"vehicle_type_id":"4","last_reported":1747429762,"current_range_meters":10800,"station_id":"ce4bhnh2rcd13ifvqgug","pricing_plan_id":"cebpf4jnsgd1na2vs0mg"},{"bike_id":"8a61a1bc-5a2c-4409-b911-e09287002183","system_id":"levelo_inurba_marseille","lat":43.31033,"lon":5.37946,"is_reserved":false,"is_disabled":false,"rental_uris":{"android":"levelo://app?vid=8a61a1bc-5a2c-4409-b911-e09287002183","ios":"levelo://app?vid=8a61a1bc-5a2c-4409-b911-e09287002183"},"vehicle_type_id":"4","last_reported":1747429762,"current_range_meters":11200,"station_id":"","pricing_plan_id":"cebpf4jnsgd1na2vs0mg"},{"bike_id":"3524435a-5404-4adb-b07c-351261b25ed2","system_id":"levelo_inurba_marseille","lat":43.29603,"lon":5.381,"is_reserved":false,"is_disabled":false,"rental_uris":{"android":"levelo://app?vid=3524435a-5404-4adb-b07c-351261b25ed2","ios":"levelo://app?vid=3524435a-5404-4adb-b07c-351261b25ed2"},"vehicle_type_id":"4","last_reported":1747429762,"current_range_meters":11200,"station_id":"ce4bgl12rcd13ifvqbo0","pricing_plan_id":"cebpf4jnsgd1na2vs0mg"},{"bike_id":"42561034-2cb0-4438-b150-2c99ff01a45c","system_id":"levelo_inurba_marseille","lat":43.2927,"lon":5.38432,"is_reserved":false,"is_disabled":false,"rental_uris":{"android":"levelo://app?vid=42561034-2cb0-4438-b150-2c99ff01a45c","ios":"levelo://app?vid=42561034-2cb0-4438-b150-2c99ff01a45c"},"vehicle_type_id":"4","last_reported":1747429762,"current_range_meters":11200,"station_id":"ce4bh692rcd13ifvqea0","pricing_plan_id":"cebpf4jnsgd1na2vs0mg"},{"bike_id":"fd36f2b2-ab3f-4773-a649-0c532c529c78","system_id":"levelo_inurba_marseille","lat":43.26558,"lon":5.37281,"is_reserved":false,"is_disabled":false,"rental_uris":{"android":"levelo://app?vid=fd36f2b2-ab3f-4773-a649-0c532c529c78","ios":"levelo://app?vid=fd36f2b2-ab3f-4773-a649-0c532c529c78"},"vehicle_type_id":"4","last_reported":1747429762,"current_range_meters":11200,"station_id":"ce4bhg12rcd13ifvqf70","pricing_plan_id":"cebpf4jnsgd1na2vs0mg"},{"bike_id":"4bb33cf8-ba2b-4943-9e07-00506ea3cdca","system_id":"levelo_inurba_marseille","lat":43.24795,"lon":5.37428,"is_reserved":false,"is_disabled":false,"rental_uris":{"android":"levelo://app?vid=4bb33cf8-ba2b-4943-9e07-00506ea3cdca","ios":"levelo://app?vid=4bb33cf8-ba2b-4943-9e07-00506ea3cdca"},"vehicle_type_id":"4","last_reported":1747429762,"current_range_meters":11200,"station_id":"ce4bhgh2rcd13ifvqfb0","pricing_plan_id":"cebpf4jnsgd1na2vs0mg"},{"bike_id":"6b22d085-5486-4c2f-8819-3b8733106875","system_id":"levelo_inurba_marseille","lat":43.29276,"lon":5.40101,"is_reserved":false,"is_disabled":false,"rental_uris":{"android":"levelo://app?vid=6b22d085-5486-4c2f-8819-3b8733106875","ios":"levelo://app?vid=6b22d085-5486-4c2f-8819-3b8733106875"},"vehicle_type_id":"4","last_reported":1747429762,"current_range_meters":12000,"station_id":"ce4bh312rcd13ifvqdk0","pricing_plan_id":"cebpf4jnsgd1na2vs0mg"},{"bike_id":"e5a2b069-efb7-48e5-8628-944f65ddff23","system_id":"levelo_inurba_marseille","lat":43.28435,"lon":5.37518,"is_reserved":false,"is_disabled":false,"rental_uris":{"android":"levelo://app?vid=e5a2b069-efb7-48e5-8628-944f65ddff23","ios":"levelo://app?vid=e5a2b069-efb7-48e5-8628-944f65ddff23"},"vehicle_type_id":"4","last_reported":1747429762,"current_range_meters":12400,"station_id":"ce4bh412rcd13ifvqds0","pricing_plan_id":"cebpf4jnsgd1na2vs0mg"},{"bike_id":"f25fbb4e-ed21-436e-870e-98f400d15677","system_id":"levelo_inurba_marseille","lat":43.28918,"lon":5.38405,"is_reserved":false,"is_disabled":false,"rental_uris":{"android":"levelo://app?vid=f25fbb4e-ed21-436e-870e-98f400d15677","ios":"levelo://app?vid=f25fbb4e-ed21-436e-870e-98f400d15677"},"vehicle_type_id":"4","last_reported":1747429762,"current_range_meters":12400,"station_id":"ce4bh612rcd13ifvqe6g","pricing_plan_id":"cebpf4jnsgd1na2vs0mg"},{"bike_id":"74220e9c-8275-4052-aa7b-c441c2679162","system_id":"levelo_inurba_marseille","lat":43.29259,"lon":5.38443,"is_reserved":false,"is_disabled":false,"rental_uris":{"android":"levelo://app?vid=74220e9c-8275-4052-aa7b-c441c2679162","ios":"levelo://app?vid=74220e9c-8275-4052-aa7b-c441c2679162"},"vehicle_type_id":"4","last_reported":1747429762,"current_range_meters":12400,"station_id":"ce4bh692rcd13ifvqea0","pricing_plan_id":"cebpf4jnsgd1na2vs0mg"},{"bike_id":"f29a82b1-b1c6-469a-ad31-486669e75362","system_id":"levelo_inurba_marseille","lat":43.28234,"lon":5.39072,"is_reserved":false,"is_disabled":false,"rental_uris":{"android":"levelo://app?vid=f29a82b1-b1c6-469a-ad31-486669e75362","ios":"levelo://app?vid=f29a82b1-b1c6-469a-ad31-486669e75362"},"vehicle_type_id":"4","last_reported":1747429762,"current_range_meters":12800,"station_id":"","pricing_plan_id":"cebpf4jnsgd1na2vs0mg"},{"bike_id":"a0ede921-9d63-4af5-a54d-8e49e3f14d23","system_id":"levelo_inurba_marseille","lat":43.2509,"lon":5.39523,"is_reserved":false,"is_disabled":false,"rental_uris":{"android":"levelo://app?vid=a0ede921-9d63-4af5-a54d-8e49e3f14d23","ios":"levelo://app?vid=a0ede921-9d63-4af5-a54d-8e49e3f14d23"},"vehicle_type_id":"4","last_reported":1747429762,"current_range_meters":12800,"station_id":"ce4bhm12rcd13ifvqgkg","pricing_plan_id":"cebpf4jnsgd1na2vs0mg"},{"bike_id":"57eabd6e-779e-48f8-8b94-7a5b5f9c918d","system_id":"levelo_inurba_marseille","lat":43.27616,"lon":5.36108,"is_reserved":false,"is_disabled":false,"rental_uris":{"android":"levelo://app?vid=57eabd6e-779e-48f8-8b94-7a5b5f9c918d","ios":"levelo://app?vid=57eabd6e-779e-48f8-8b94-7a5b5f9c918d"},"vehicle_type_id":"4","last_reported":1747429762,"current_range_meters":13600,"station_id":"ce4bgj92rcd13ifvqbe0","pricing_plan_id":"cebpf4jnsgd1na2vs0mg"},{"bike_id":"98b17607-c20a-43ca-bb86-16da538378fa","system_id":"levelo_inurba_marseille","lat":43.28572,"lon":5.39492,"is_reserved":false,"is_disabled":false,"rental_uris":{"android":"levelo://app?vid=98b17607-c20a-43ca-bb86-16da538378fa","ios":"levelo://app?vid=98b17607-c20a-43ca-bb86-16da538378fa"},"vehicle_type_id":"4","last_reported":1747429762,"current_range_meters":13600,"station_id":"ce4bh292rcd13ifvqdg0","pricing_plan_id":"cebpf4jnsgd1na2vs0mg"},{"bike_id":"82b7f3c8-dea6-48c1-b56d-44ccfd095576","system_id":"levelo_inurba_marseille","lat":43.27686,"lon":5.389,"is_reserved":false,"is_disabled":false,"rental_uris":{"android":"levelo://app?vid=82b7f3c8-dea6-48c1-b56d-44ccfd095576","ios":"levelo://app?vid=82b7f3c8-dea6-48c1-b56d-44ccfd095576"},"vehicle_type_id":"4","last_reported":1747429762,"current_range_meters":13600,"station_id":"ce4bhi12rcd13ifvqfo0","pricing_plan_id":"cebpf4jnsgd1na2vs0mg"},{"bike_id":"098aa5fd-a4b1-4678-8da3-e20bdd9e87a4","system_id":"levelo_inurba_marseille","lat":43.27671,"lon":5.38887,"is_reserved":false,"is_disabled":false,"rental_uris":{"android":"levelo://app?vid=098aa5fd-a4b1-4678-8da3-e20bdd9e87a4","ios":"levelo://app?vid=098aa5fd-a4b1-4678-8da3-e20bdd9e87a4"},"vehicle_type_id":"4","last_reported":1747429762,"current_range_meters":13600,"station_id":"ce4bhi12rcd13ifvqfo0","pricing_plan_id":"cebpf4jnsgd1na2vs0mg"},{"bike_id":"0920a5a7-28aa-4cdb-991a-2eb0dd8f1f56","system_id":"levelo_inurba_marseille","lat":43.26488,"lon":5.39546,"is_reserved":false,"is_disabled":false,"rental_uris":{"android":"levelo://app?vid=0920a5a7-28aa-4cdb-991a-2eb0dd8f1f56","ios":"levelo://app?vid=0920a5a7-28aa-4cdb-991a-2eb0dd8f1f56"},"vehicle_type_id":"4","last_reported":1747429762,"current_range_meters":13600,"station_id":"ce4bhi12rcd13ifvqfq0","pricing_plan_id":"cebpf4jnsgd1na2vs0mg"},{"bike_id":"4dc0fee0-21fe-47d4-9724-7453771c3879","system_id":"levelo_inurba_marseille","lat":43.27825,"lon":5.39208,"is_reserved":false,"is_disabled":false,"rental_uris":{"android":"levelo://app?vid=4dc0fee0-21fe-47d4-9724-7453771c3879","ios":"levelo://app?vid=4dc0fee0-21fe-47d4-9724-7453771c3879"},"vehicle_type_id":"4","last_reported":1747429762,"current_range_meters":13600,"station_id":"ce4bhjp2rcd13ifvqga0","pricing_plan_id":"cebpf4jnsgd1na2vs0mg"},{"bike_id":"ea0f1347-e44f-441b-92ab-c6214413c0cc","system_id":"levelo_inurba_marseille","lat":43.321103,"lon":5.367664,"is_reserved":false,"is_disabled":false,"rental_uris":{"android":"levelo://app?vid=ea0f1347-e44f-441b-92ab-c6214413c0cc","ios":"levelo://app?vid=ea0f1347-e44f-441b-92ab-c6214413c0cc"},"vehicle_type_id":"4","last_reported":1747429762,"current_range_meters":13600,"station_id":"ce4bhrh2rcd13ifvqhug","pricing_plan_id":"cebpf4jnsgd1na2vs0mg"},{"bike_id":"17d6c4d9-0f3e-4f3d-a439-c9db01dc8e24","system_id":"levelo_inurba_marseille","lat":43.29252,"lon":5.38441,"is_reserved":false,"is_disabled":false,"rental_uris":{"android":"levelo://app?vid=17d6c4d9-0f3e-4f3d-a439-c9db01dc8e24","ios":"levelo://app?vid=17d6c4d9-0f3e-4f3d-a439-c9db01dc8e24"},"vehicle_type_id":"4","last_reported":1747429762,"current_range_meters":14000,"station_id":"ce4bh692rcd13ifvqea0","pricing_plan_id":"cebpf4jnsgd1na2vs0mg"},{"bike_id":"6da655b8-0421-4e8a-ae32-6637af746f6a","system_id":"levelo_inurba_marseille","lat":43.268335,"lon":5.411123,"is_reserved":false,"is_disabled":false,"rental_uris":{"android":"levelo://app?vid=6da655b8-0421-4e8a-ae32-6637af746f6a","ios":"levelo://app?vid=6da655b8-0421-4e8a-ae32-6637af746f6a"},"vehicle_type_id":"4","last_reported":1747429762,"current_range_meters":14400,"station_id":"","pricing_plan_id":"cebpf4jnsgd1na2vs0mg"},{"bike_id":"6daf2f90-9b1f-412c-9cda-72e0924ae0dd","system_id":"levelo_inurba_marseille","lat":43.28378,"lon":5.38628,"is_reserved":false,"is_disabled":false,"rental_uris":{"android":"levelo://app?vid=6daf2f90-9b1f-412c-9cda-72e0924ae0dd","ios":"levelo://app?vid=6daf2f90-9b1f-412c-9cda-72e0924ae0dd"},"vehicle_type_id":"4","last_reported":1747429762,"current_range_meters":14400,"station_id":"ce4bh492rcd13ifvqdvg","pricing_plan_id":"cebpf4jnsgd1na2vs0mg"},{"bike_id":"dc1a4320-d970-4b65-8803-27efe096ec11","system_id":"levelo_inurba_marseille","lat":43.28705,"lon":5.39984,"is_reserved":false,"is_disabled":false,"rental_uris":{"android":"levelo://app?vid=dc1a4320-d970-4b65-8803-27efe096ec11","ios":"levelo://app?vid=dc1a4320-d970-4b65-8803-27efe096ec11"},"vehicle_type_id":"4","last_reported":1747429762,"current_range_meters":14400,"station_id":"ce4bho92rcd13ifvqh3g","pricing_plan_id":"cebpf4jnsgd1na2vs0mg"},{"bike_id":"7f0f0eb1-eb6a-48f0-b4c4-ba8877209c3a","system_id":"levelo_inurba_marseille","lat":43.27211,"lon":5.36504,"is_reserved":false,"is_disabled":false,"rental_uris":{"android":"levelo://app?vid=7f0f0eb1-eb6a-48f0-b4c4-ba8877209c3a","ios":"levelo://app?vid=7f0f0eb1-eb6a-48f0-b4c4-ba8877209c3a"},"vehicle_type_id":"4","last_reported":1747429762,"current_range_meters":14800,"station_id":"","pricing_plan_id":"cebpf4jnsgd1na2vs0mg"},{"bike_id":"3b375b1a-9b37-4cc4-9e61-3a949373c459","system_id":"levelo_inurba_marseille","lat":43.29314,"lon":5.37159,"is_reserved":false,"is_disabled":false,"rental_uris":{"android":"levelo://app?vid=3b375b1a-9b37-4cc4-9e61-3a949373c459","ios":"levelo://app?vid=3b375b1a-9b37-4cc4-9e61-3a949373c459"},"vehicle_type_id":"4","last_reported":1747429762,"current_range_meters":14800,"station_id":"ce4bgh92rcd13ifvqb40","pricing_plan_id":"cebpf4jnsgd1na2vs0mg"},{"bike_id":"8381ab4f-71ae-49f8-89b7-a2487fbc6c3f","system_id":"levelo_inurba_marseille","lat":43.30903,"lon":5.36842,"is_reserved":false,"is_disabled":false,"rental_uris":{"android":"levelo://app?vid=8381ab4f-71ae-49f8-89b7-a2487fbc6c3f","ios":"levelo://app?vid=8381ab4f-71ae-49f8-89b7-a2487fbc6c3f"},"vehicle_type_id":"4","last_reported":1747429762,"current_range_meters":14800,"station_id":"ce4bgn92rcd13ifvqbvg","pricing_plan_id":"cebpf4jnsgd1na2vs0mg"},{"bike_id":"dbdda790-f7b7-439e-9cf7-e393675b5dfd","system_id":"levelo_inurba_marseille","lat":43.27576,"lon":5.38415,"is_reserved":false,"is_disabled":false,"rental_uris":{"android":"levelo://app?vid=dbdda790-f7b7-439e-9cf7-e393675b5dfd","ios":"levelo://app?vid=dbdda790-f7b7-439e-9cf7-e393675b5dfd"},"vehicle_type_id":"4","last_reported":1747429762,"current_range_meters":14800,"station_id":"ce4bhh92rcd13ifvqfi0","pricing_plan_id":"cebpf4jnsgd1na2vs0mg"},{"bike_id":"852ea9ac-6507-488a-87c5-b27d54b34b2e","system_id":"levelo_inurba_marseille","lat":43.28148,"lon":5.42627,"is_reserved":false,"is_disabled":false,"rental_uris":{"android":"levelo://app?vid=852ea9ac-6507-488a-87c5-b27d54b34b2e","ios":"levelo://app?vid=852ea9ac-6507-488a-87c5-b27d54b34b2e"},"vehicle_type_id":"4","last_reported":1747429762,"current_range_meters":14800,"station_id":"ce4bhnh2rcd13ifvqgug","pricing_plan_id":"cebpf4jnsgd1na2vs0mg"},{"bike_id":"d0ce8271-bce2-423a-97f3-78d8c714841e","system_id":"levelo_inurba_marseille","lat":43.29365,"lon":5.37836,"is_reserved":false,"is_disabled":false,"rental_uris":{"android":"levelo://app?vid=d0ce8271-bce2-423a-97f3-78d8c714841e","ios":"levelo://app?vid=d0ce8271-bce2-423a-97f3-78d8c714841e"},"vehicle_type_id":"4","last_reported":1747429762,"current_range_meters":15200,"station_id":"ce4bgjh2rcd13ifvqbf0","pricing_plan_id":"cebpf4jnsgd1na2vs0mg"},{"bike_id":"1d112126-9107-408f-b476-5dd6e8f7b0c1","system_id":"levelo_inurba_marseille","lat":43.25085,"lon":5.39507,"is_reserved":false,"is_disabled":false,"rental_uris":{"android":"levelo://app?vid=1d112126-9107-408f-b476-5dd6e8f7b0c1","ios":"levelo://app?vid=1d112126-9107-408f-b476-5dd6e8f7b0c1"},"vehicle_type_id":"4","last_reported":1747429762,"current_range_meters":15200,"station_id":"ce4bhm12rcd13ifvqgkg","pricing_plan_id":"cebpf4jnsgd1na2vs0mg"},{"bike_id":"c96873c1-07ae-4fa5-9d39-77223fea8e8c","system_id":"levelo_inurba_marseille","lat":43.24068,"lon":5.37764,"is_reserved":false,"is_disabled":false,"rental_uris":{"android":"levelo://app?vid=c96873c1-07ae-4fa5-9d39-77223fea8e8c","ios":"levelo://app?vid=c96873c1-07ae-4fa5-9d39-77223fea8e8c"},"vehicle_type_id":"4","last_reported":1747429762,"current_range_meters":15200,"station_id":"ce4bhnp2rcd13ifvqgvg","pricing_plan_id":"cebpf4jnsgd1na2vs0mg"},{"bike_id":"2a9d0bc3-deae-4a39-b85c-52d709abed2e","system_id":"levelo_inurba_marseille","lat":43.30941,"lon":5.37831,"is_reserved":false,"is_disabled":false,"rental_uris":{"android":"levelo://app?vid=2a9d0bc3-deae-4a39-b85c-52d709abed2e","ios":"levelo://app?vid=2a9d0bc3-deae-4a39-b85c-52d709abed2e"},"vehicle_type_id":"4","last_reported":1747429762,"current_range_meters":16000,"station_id":"","pricing_plan_id":"cebpf4jnsgd1na2vs0mg"},{"bike_id":"eebf0417-4098-4672-a6ae-d82fc3dc3062","system_id":"levelo_inurba_marseille","lat":43.29729,"lon":5.37687,"is_reserved":false,"is_disabled":false,"rental_uris":{"android":"levelo://app?vid=eebf0417-4098-4672-a6ae-d82fc3dc3062","ios":"levelo://app?vid=eebf0417-4098-4672-a6ae-d82fc3dc3062"},"vehicle_type_id":"4","last_reported":1747429762,"current_range_meters":16000,"station_id":"ce4bgkh2rcd13ifvqbl0","pricing_plan_id":"cebpf4jnsgd1na2vs0mg"},{"bike_id":"5d48371b-6b96-4c68-9312-b692d66827c9","system_id":"levelo_inurba_marseille","lat":43.30929,"lon":5.40148,"is_reserved":false,"is_disabled":false,"rental_uris":{"android":"levelo://app?vid=5d48371b-6b96-4c68-9312-b692d66827c9","ios":"levelo://app?vid=5d48371b-6b96-4c68-9312-b692d66827c9"},"vehicle_type_id":"4","last_reported":1747429762,"current_range_meters":16000,"station_id":"ce4bgvp2rcd13ifvqct0","pricing_plan_id":"cebpf4jnsgd1na2vs0mg"},{"bike_id":"ad569e94-3c58-4cd8-b6c3-629beb328090","system_id":"levelo_inurba_marseille","lat":43.2797,"lon":5.38753,"is_reserved":false,"is_disabled":false,"rental_uris":{"android":"levelo://app?vid=ad569e94-3c58-4cd8-b6c3-629beb328090","ios":"levelo://app?vid=ad569e94-3c58-4cd8-b6c3-629beb328090"},"vehicle_type_id":"4","last_reported":1747429762,"current_range_meters":16000,"station_id":"ce4bhg12rcd13ifvqf80","pricing_plan_id":"cebpf4jnsgd1na2vs0mg"},{"bike_id":"f2f46bc3-e1b0-4b3c-a4c7-7d598166fcb0","system_id":"levelo_inurba_marseille","lat":43.27982,"lon":5.38768,"is_reserved":false,"is_disabled":false,"rental_uris":{"android":"levelo://app?vid=f2f46bc3-e1b0-4b3c-a4c7-7d598166fcb0","ios":"levelo://app?vid=f2f46bc3-e1b0-4b3c-a4c7-7d598166fcb0"},"vehicle_type_id":"4","last_reported":1747429762,"current_range_meters":16000,"station_id":"ce4bhg12rcd13ifvqf80","pricing_plan_id":"cebpf4jnsgd1na2vs0mg"},{"bike_id":"45b43396-6ec7-4949-919d-8349409d2af8","system_id":"levelo_inurba_marseille","lat":43.248036,"lon":5.374548,"is_reserved":false,"is_disabled":false,"rental_uris":{"android":"levelo://app?vid=45b43396-6ec7-4949-919d-8349409d2af8","ios":"levelo://app?vid=45b43396-6ec7-4949-919d-8349409d2af8"},"vehicle_type_id":"4","last_reported":1747429762,"current_range_meters":16000,"station_id":"ce4bhgh2rcd13ifvqfb0","pricing_plan_id":"cebpf4jnsgd1na2vs0mg"},{"bike_id":"44920842-5f7b-410c-a439-fbad7ded78ae","system_id":"levelo_inurba_marseille","lat":43.23203,"lon":5.35551,"is_reserved":false,"is_disabled":false,"rental_uris":{"android":"levelo://app?vid=44920842-5f7b-410c-a439-fbad7ded78ae","ios":"levelo://app?vid=44920842-5f7b-410c-a439-fbad7ded78ae"},"vehicle_type_id":"4","last_reported":1747429762,"current_range_meters":16000,"station_id":"ce4bhu92rcd13ifvqi70","pricing_plan_id":"cebpf4jnsgd1na2vs0mg"},{"bike_id":"298cac2c-9391-4006-b0e0-b854915dd3cb","system_id":"levelo_inurba_marseille","lat":43.29535,"lon":5.3854,"is_reserved":false,"is_disabled":false,"rental_uris":{"android":"levelo://app?vid=298cac2c-9391-4006-b0e0-b854915dd3cb","ios":"levelo://app?vid=298cac2c-9391-4006-b0e0-b854915dd3cb"},"vehicle_type_id":"4","last_reported":1747429762,"current_range_meters":16400,"station_id":"ce4bgih2rcd13ifvqba0","pricing_plan_id":"cebpf4jnsgd1na2vs0mg"},{"bike_id":"b8e6468b-87db-4ff6-8122-ef13bf5b7c8c","system_id":"levelo_inurba_marseille","lat":43.306091,"lon":5.372397,"is_reserved":false,"is_disabled":false,"rental_uris":{"android":"levelo://app?vid=b8e6468b-87db-4ff6-8122-ef13bf5b7c8c","ios":"levelo://app?vid=b8e6468b-87db-4ff6-8122-ef13bf5b7c8c"},"vehicle_type_id":"4","last_reported":1747429762,"current_range_meters":16400,"station_id":"ce4bgqh2rcd13ifvqc4g","pricing_plan_id":"cebpf4jnsgd1na2vs0mg"},{"bike_id":"160f1012-9558-4585-8427-59d4d87be8fb","system_id":"levelo_inurba_marseille","lat":43.292603,"lon":5.379968,"is_reserved":false,"is_disabled":false,"rental_uris":{"android":"levelo://app?vid=160f1012-9558-4585-8427-59d4d87be8fb","ios":"levelo://app?vid=160f1012-9558-4585-8427-59d4d87be8fb"},"vehicle_type_id":"4","last_reported":1747429762,"current_range_meters":16400,"station_id":"ce4bgqh2rcd13ifvqc4g","pricing_plan_id":"cebpf4jnsgd1na2vs0mg"},{"bike_id":"3302f222-b20e-4f68-b98f-e0cb10ee9201","system_id":"levelo_inurba_marseille","lat":43.27835,"lon":5.39218,"is_reserved":false,"is_disabled":false,"rental_uris":{"android":"levelo://app?vid=3302f222-b20e-4f68-b98f-e0cb10ee9201","ios":"levelo://app?vid=3302f222-b20e-4f68-b98f-e0cb10ee9201"},"vehicle_type_id":"4","last_reported":1747429762,"current_range_meters":16400,"station_id":"ce4bhjp2rcd13ifvqga0","pricing_plan_id":"cebpf4jnsgd1na2vs0mg"},{"bike_id":"d9b504ee-8007-4760-a4a1-f54f52b040ce","system_id":"levelo_inurba_marseille","lat":43.302738,"lon":5.372848,"is_reserved":false,"is_disabled":false,"rental_uris":{"android":"levelo://app?vid=d9b504ee-8007-4760-a4a1-f54f52b040ce","ios":"levelo://app?vid=d9b504ee-8007-4760-a4a1-f54f52b040ce"},"vehicle_type_id":"4","last_reported":1747429762,"current_range_meters":16800,"station_id":"","pricing_plan_id":"cebpf4jnsgd1na2vs0mg"},{"bike_id":"db7d8d78-e9ee-438a-9d96-7b8a24cd5b5d","system_id":"levelo_inurba_marseille","lat":43.29419,"lon":5.38625,"is_reserved":false,"is_disabled":false,"rental_uris":{"android":"levelo://app?vid=db7d8d78-e9ee-438a-9d96-7b8a24cd5b5d","ios":"levelo://app?vid=db7d8d78-e9ee-438a-9d96-7b8a24cd5b5d"},"vehicle_type_id":"4","last_reported":1747429762,"current_range_meters":16800,"station_id":"ce4bh2h2rcd13ifvqdh0","pricing_plan_id":"cebpf4jnsgd1na2vs0mg"},{"bike_id":"2d3ae33e-4fa1-422d-874c-5fe22438c5ea","system_id":"levelo_inurba_marseille","lat":43.2942,"lon":5.38634,"is_reserved":false,"is_disabled":false,"rental_uris":{"android":"levelo://app?vid=2d3ae33e-4fa1-422d-874c-5fe22438c5ea","ios":"levelo://app?vid=2d3ae33e-4fa1-422d-874c-5fe22438c5ea"},"vehicle_type_id":"4","last_reported":1747429762,"current_range_meters":16800,"station_id":"ce4bh2h2rcd13ifvqdh0","pricing_plan_id":"cebpf4jnsgd1na2vs0mg"},{"bike_id":"80eaa82f-8c9d-458a-9a75-5662bdee1dee","system_id":"levelo_inurba_marseille","lat":43.28933,"lon":5.38388,"is_reserved":false,"is_disabled":false,"rental_uris":{"android":"levelo://app?vid=80eaa82f-8c9d-458a-9a75-5662bdee1dee","ios":"levelo://app?vid=80eaa82f-8c9d-458a-9a75-5662bdee1dee"},"vehicle_type_id":"4","last_reported":1747429762,"current_range_meters":16800,"station_id":"ce4bh612rcd13ifvqe6g","pricing_plan_id":"cebpf4jnsgd1na2vs0mg"},{"bike_id":"d2c445e1-c445-4dca-99d4-f7360eefaeb9","system_id":"levelo_inurba_marseille","lat":43.29268,"lon":5.38443,"is_reserved":false,"is_disabled":false,"rental_uris":{"android":"levelo://app?vid=d2c445e1-c445-4dca-99d4-f7360eefaeb9","ios":"levelo://app?vid=d2c445e1-c445-4dca-99d4-f7360eefaeb9"},"vehicle_type_id":"4","last_reported":1747429762,"current_range_meters":16800,"station_id":"ce4bh692rcd13ifvqea0","pricing_plan_id":"cebpf4jnsgd1na2vs0mg"},{"bike_id":"ff73f50f-d4f6-452f-b8c5-c3e016c11039","system_id":"levelo_inurba_marseille","lat":43.26577,"lon":5.38998,"is_reserved":false,"is_disabled":false,"rental_uris":{"android":"levelo://app?vid=ff73f50f-d4f6-452f-b8c5-c3e016c11039","ios":"levelo://app?vid=ff73f50f-d4f6-452f-b8c5-c3e016c11039"},"vehicle_type_id":"4","last_reported":1747429762,"current_range_meters":16800,"station_id":"ce4bhe12rcd13ifvqf30","pricing_plan_id":"cebpf4jnsgd1na2vs0mg"},{"bike_id":"6fe716ec-3e66-40a0-90cd-a86ee2fdef59","system_id":"levelo_inurba_marseille","lat":43.321104,"lon":5.367654,"is_reserved":false,"is_disabled":false,"rental_uris":{"android":"levelo://app?vid=6fe716ec-3e66-40a0-90cd-a86ee2fdef59","ios":"levelo://app?vid=6fe716ec-3e66-40a0-90cd-a86ee2fdef59"},"vehicle_type_id":"4","last_reported":1747429762,"current_range_meters":16800,"station_id":"ce4bhrh2rcd13ifvqhug","pricing_plan_id":"cebpf4jnsgd1na2vs0mg"},{"bike_id":"ecd78c01-7474-4bb4-88d7-5ad624aa5e29","system_id":"levelo_inurba_marseille","lat":43.30881,"lon":5.39642,"is_reserved":false,"is_disabled":false,"rental_uris":{"android":"levelo://app?vid=ecd78c01-7474-4bb4-88d7-5ad624aa5e29","ios":"levelo://app?vid=ecd78c01-7474-4bb4-88d7-5ad624aa5e29"},"vehicle_type_id":"4","last_reported":1747429762,"current_range_meters":17200,"station_id":"ce4bh012rcd13ifvqcv0","pricing_plan_id":"cebpf4jnsgd1na2vs0mg"},{"bike_id":"17826430-ac07-43bd-8c4c-99bcb4447782","system_id":"levelo_inurba_marseille","lat":43.31713,"lon":5.43703,"is_reserved":false,"is_disabled":false,"rental_uris":{"android":"levelo://app?vid=17826430-ac07-43bd-8c4c-99bcb4447782","ios":"levelo://app?vid=17826430-ac07-43bd-8c4c-99bcb4447782"},"vehicle_type_id":"4","last_reported":1747429762,"current_range_meters":17200,"station_id":"ce4bhp92rcd13ifvqhcg","pricing_plan_id":"cebpf4jnsgd1na2vs0mg"},{"bike_id":"8f600fbf-ec68-4624-9822-6cce2bd50be5","system_id":"levelo_inurba_marseille","lat":43.32558,"lon":5.42849,"is_reserved":false,"is_disabled":false,"rental_uris":{"android":"levelo://app?vid=8f600fbf-ec68-4624-9822-6cce2bd50be5","ios":"levelo://app?vid=8f600fbf-ec68-4624-9822-6cce2bd50be5"},"vehicle_type_id":"4","last_reported":1747429762,"current_range_meters":17600,"station_id":"","pricing_plan_id":"cebpf4jnsgd1na2vs0mg"},{"bike_id":"c10184a0-7467-4592-952f-14b5c01dfbb9","system_id":"levelo_inurba_marseille","lat":43.3148,"lon":5.3686,"is_reserved":false,"is_disabled":false,"rental_uris":{"android":"levelo://app?vid=c10184a0-7467-4592-952f-14b5c01dfbb9","ios":"levelo://app?vid=c10184a0-7467-4592-952f-14b5c01dfbb9"},"vehicle_type_id":"4","last_reported":1747429762,"current_range_meters":17600,"station_id":"","pricing_plan_id":"cebpf4jnsgd1na2vs0mg"},{"bike_id":"194f17c8-93f0-4ff7-9d7b-60238225a3ec","system_id":"levelo_inurba_marseille","lat":43.261614,"lon":5.420677,"is_reserved":false,"is_disabled":false,"rental_uris":{"android":"levelo://app?vid=194f17c8-93f0-4ff7-9d7b-60238225a3ec","ios":"levelo://app?vid=194f17c8-93f0-4ff7-9d7b-60238225a3ec"},"vehicle_type_id":"4","last_reported":1747429762,"current_range_meters":17600,"station_id":"","pricing_plan_id":"cebpf4jnsgd1na2vs0mg"},{"bike_id":"8adb3f28-62bc-482b-8ac3-ab34c6c425e2","system_id":"levelo_inurba_marseille","lat":43.2931,"lon":5.37172,"is_reserved":false,"is_disabled":false,"rental_uris":{"android":"levelo://app?vid=8adb3f28-62bc-482b-8ac3-ab34c6c425e2","ios":"levelo://app?vid=8adb3f28-62bc-482b-8ac3-ab34c6c425e2"},"vehicle_type_id":"4","last_reported":1747429762,"current_range_meters":17600,"station_id":"ce4bgh92rcd13ifvqb40","pricing_plan_id":"cebpf4jnsgd1na2vs0mg"},{"bike_id":"e0141a16-b684-4b87-b24f-2ac2aa11137f","system_id":"levelo_inurba_marseille","lat":43.30426,"lon":5.39753,"is_reserved":false,"is_disabled":false,"rental_uris":{"android":"levelo://app?vid=e0141a16-b684-4b87-b24f-2ac2aa11137f","ios":"levelo://app?vid=e0141a16-b684-4b87-b24f-2ac2aa11137f"},"vehicle_type_id":"4","last_reported":1747429762,"current_range_meters":17600,"station_id":"ce4bh092rcd13ifvqd20","pricing_plan_id":"cebpf4jnsgd1na2vs0mg"},{"bike_id":"09faf491-5bc6-43bb-a867-ba376f64d781","system_id":"levelo_inurba_marseille","lat":43.29255,"lon":5.38448,"is_reserved":false,"is_disabled":false,"rental_uris":{"android":"levelo://app?vid=09faf491-5bc6-43bb-a867-ba376f64d781","ios":"levelo://app?vid=09faf491-5bc6-43bb-a867-ba376f64d781"},"vehicle_type_id":"4","last_reported":1747429762,"current_range_meters":17600,"station_id":"ce4bh692rcd13ifvqea0","pricing_plan_id":"cebpf4jnsgd1na2vs0mg"},{"bike_id":"75adaec3-de8d-4e50-b246-3cd272ef3ef4","system_id":"levelo_inurba_marseille","lat":43.29272,"lon":5.38439,"is_reserved":false,"is_disabled":false,"rental_uris":{"android":"levelo://app?vid=75adaec3-de8d-4e50-b246-3cd272ef3ef4","ios":"levelo://app?vid=75adaec3-de8d-4e50-b246-3cd272ef3ef4"},"vehicle_type_id":"4","last_reported":1747429762,"current_range_meters":17600,"station_id":"ce4bh692rcd13ifvqea0","pricing_plan_id":"cebpf4jnsgd1na2vs0mg"},{"bike_id":"3d41c79d-2717-46f0-a742-c47a74757de5","system_id":"levelo_inurba_marseille","lat":43.27916,"lon":5.39576,"is_reserved":false,"is_disabled":false,"rental_uris":{"android":"levelo://app?vid=3d41c79d-2717-46f0-a742-c47a74757de5","ios":"levelo://app?vid=3d41c79d-2717-46f0-a742-c47a74757de5"},"vehicle_type_id":"4","last_reported":1747429762,"current_range_meters":17600,"station_id":"ce4bhf92rcd13ifvqf40","pricing_plan_id":"cebpf4jnsgd1na2vs0mg"},{"bike_id":"ac7e4de9-3be5-4737-bcef-658caef20f45","system_id":"levelo_inurba_marseille","lat":43.27968,"lon":5.38718,"is_reserved":false,"is_disabled":false,"rental_uris":{"android":"levelo://app?vid=ac7e4de9-3be5-4737-bcef-658caef20f45","ios":"levelo://app?vid=ac7e4de9-3be5-4737-bcef-658caef20f45"},"vehicle_type_id":"4","last_reported":1747429762,"current_range_meters":17600,"station_id":"ce4bhg12rcd13ifvqf80","pricing_plan_id":"cebpf4jnsgd1na2vs0mg"},{"bike_id":"156afe18-42f0-44e8-b4c2-b028026abff6","system_id":"levelo_inurba_marseille","lat":43.2731,"lon":5.39069,"is_reserved":false,"is_disabled":false,"rental_uris":{"android":"levelo://app?vid=156afe18-42f0-44e8-b4c2-b028026abff6","ios":"levelo://app?vid=156afe18-42f0-44e8-b4c2-b028026abff6"},"vehicle_type_id":"4","last_reported":1747429762,"current_range_meters":17600,"station_id":"ce4bhgp2rcd13ifvqfe0","pricing_plan_id":"cebpf4jnsgd1na2vs0mg"},{"bike_id":"c721b5a3-2e8c-48be-86db-c2b48bfbe8c0","system_id":"levelo_inurba_marseille","lat":43.23206,"lon":5.3997,"is_reserved":false,"is_disabled":false,"rental_uris":{"android":"levelo://app?vid=c721b5a3-2e8c-48be-86db-c2b48bfbe8c0","ios":"levelo://app?vid=c721b5a3-2e8c-48be-86db-c2b48bfbe8c0"},"vehicle_type_id":"4","last_reported":1747429762,"current_range_meters":17600,"station_id":"ce4bhn12rcd13ifvqgqg","pricing_plan_id":"cebpf4jnsgd1na2vs0mg"},{"bike_id":"0f4090f7-86ec-4f25-9e84-17e2db4b6a46","system_id":"levelo_inurba_marseille","lat":43.31726,"lon":5.42393,"is_reserved":false,"is_disabled":false,"rental_uris":{"android":"levelo://app?vid=0f4090f7-86ec-4f25-9e84-17e2db4b6a46","ios":"levelo://app?vid=0f4090f7-86ec-4f25-9e84-17e2db4b6a46"},"vehicle_type_id":"4","last_reported":1747429762,"current_range_meters":17600,"station_id":"ce4bhp92rcd13ifvqhbg","pricing_plan_id":"cebpf4jnsgd1na2vs0mg"},{"bike_id":"512db903-9559-40c7-8902-6a98e3c8c53c","system_id":"levelo_inurba_marseille","lat":43.32937,"lon":5.38997,"is_reserved":false,"is_disabled":false,"rental_uris":{"android":"levelo://app?vid=512db903-9559-40c7-8902-6a98e3c8c53c","ios":"levelo://app?vid=512db903-9559-40c7-8902-6a98e3c8c53c"},"vehicle_type_id":"4","last_reported":1747429762,"current_range_meters":18000,"station_id":"","pricing_plan_id":"cebpf4jnsgd1na2vs0mg"},{"bike_id":"694033af-e52d-408d-bab5-848bd118aec5","system_id":"levelo_inurba_marseille","lat":43.27615,"lon":5.36113,"is_reserved":false,"is_disabled":false,"rental_uris":{"android":"levelo://app?vid=694033af-e52d-408d-bab5-848bd118aec5","ios":"levelo://app?vid=694033af-e52d-408d-bab5-848bd118aec5"},"vehicle_type_id":"4","last_reported":1747429762,"current_range_meters":18000,"station_id":"ce4bgj92rcd13ifvqbe0","pricing_plan_id":"cebpf4jnsgd1na2vs0mg"},{"bike_id":"92daedc9-997e-4e51-a6a7-8556d4714f07","system_id":"levelo_inurba_marseille","lat":43.30137,"lon":5.39868,"is_reserved":false,"is_disabled":false,"rental_uris":{"android":"levelo://app?vid=92daedc9-997e-4e51-a6a7-8556d4714f07","ios":"levelo://app?vid=92daedc9-997e-4e51-a6a7-8556d4714f07"},"vehicle_type_id":"4","last_reported":1747429762,"current_range_meters":18000,"station_id":"ce4bh0h2rcd13ifvqd40","pricing_plan_id":"cebpf4jnsgd1na2vs0mg"},{"bike_id":"e242502b-7ca2-4ab0-ae7f-7fe9cd9f77f1","system_id":"levelo_inurba_marseille","lat":43.29258,"lon":5.38431,"is_reserved":false,"is_disabled":false,"rental_uris":{"android":"levelo://app?vid=e242502b-7ca2-4ab0-ae7f-7fe9cd9f77f1","ios":"levelo://app?vid=e242502b-7ca2-4ab0-ae7f-7fe9cd9f77f1"},"vehicle_type_id":"4","last_reported":1747429762,"current_range_meters":18000,"station_id":"ce4bh692rcd13ifvqea0","pricing_plan_id":"cebpf4jnsgd1na2vs0mg"},{"bike_id":"3f1f80f2-74b8-4b50-8e33-883290c5e268","system_id":"levelo_inurba_marseille","lat":43.23195,"lon":5.39959,"is_reserved":false,"is_disabled":false,"rental_uris":{"android":"levelo://app?vid=3f1f80f2-74b8-4b50-8e33-883290c5e268","ios":"levelo://app?vid=3f1f80f2-74b8-4b50-8e33-883290c5e268"},"vehicle_type_id":"4","last_reported":1747429762,"current_range_meters":18000,"station_id":"ce4bhn12rcd13ifvqgqg","pricing_plan_id":"cebpf4jnsgd1na2vs0mg"},{"bike_id":"6959522a-bd59-4233-a378-b798da685450","system_id":"levelo_inurba_marseille","lat":43.24158,"lon":5.36395,"is_reserved":false,"is_disabled":false,"rental_uris":{"android":"levelo://app?vid=6959522a-bd59-4233-a378-b798da685450","ios":"levelo://app?vid=6959522a-bd59-4233-a378-b798da685450"},"vehicle_type_id":"4","last_reported":1747429762,"current_range_meters":18000,"station_id":"cpo36qri1sfpv3e86is0","pricing_plan_id":"cebpf4jnsgd1na2vs0mg"},{"bike_id":"7a69b1f2-d140-44fe-815b-2a2c906491bf","system_id":"levelo_inurba_marseille","lat":43.30642,"lon":5.40064,"is_reserved":false,"is_disabled":false,"rental_uris":{"android":"levelo://app?vid=7a69b1f2-d140-44fe-815b-2a2c906491bf","ios":"levelo://app?vid=7a69b1f2-d140-44fe-815b-2a2c906491bf"},"vehicle_type_id":"4","last_reported":1747429762,"current_range_meters":18800,"station_id":"ce4bh112rcd13ifvqda0","pricing_plan_id":"cebpf4jnsgd1na2vs0mg"},{"bike_id":"5be532b7-33df-4806-96e9-0484f0dc30b3","system_id":"levelo_inurba_marseille","lat":43.292609,"lon":5.384321,"is_reserved":false,"is_disabled":false,"rental_uris":{"android":"levelo://app?vid=5be532b7-33df-4806-96e9-0484f0dc30b3","ios":"levelo://app?vid=5be532b7-33df-4806-96e9-0484f0dc30b3"},"vehicle_type_id":"4","last_reported":1747429762,"current_range_meters":18800,"station_id":"ce4bh692rcd13ifvqea0","pricing_plan_id":"cebpf4jnsgd1na2vs0mg"},{"bike_id":"4eafee09-44c7-4798-951b-631df3d89494","system_id":"levelo_inurba_marseille","lat":43.28692,"lon":5.37931,"is_reserved":false,"is_disabled":false,"rental_uris":{"android":"levelo://app?vid=4eafee09-44c7-4798-951b-631df3d89494","ios":"levelo://app?vid=4eafee09-44c7-4798-951b-631df3d89494"},"vehicle_type_id":"4","last_reported":1747429762,"current_range_meters":18800,"station_id":"ce4bh9p2rcd13ifvqec0","pricing_plan_id":"cebpf4jnsgd1na2vs0mg"},{"bike_id":"8e056ffe-bcc3-4cfa-bd3f-ab0666143657","system_id":"levelo_inurba_marseille","lat":43.28663,"lon":5.36346,"is_reserved":false,"is_disabled":false,"rental_uris":{"android":"levelo://app?vid=8e056ffe-bcc3-4cfa-bd3f-ab0666143657","ios":"levelo://app?vid=8e056ffe-bcc3-4cfa-bd3f-ab0666143657"},"vehicle_type_id":"4","last_reported":1747429762,"current_range_meters":18800,"station_id":"ce4bhah2rcd13ifvqej0","pricing_plan_id":"cebpf4jnsgd1na2vs0mg"},{"bike_id":"30fc6e1e-0bb4-46bc-8221-5882e47689f0","system_id":"levelo_inurba_marseille","lat":43.2549,"lon":5.37649,"is_reserved":false,"is_disabled":false,"rental_uris":{"android":"levelo://app?vid=30fc6e1e-0bb4-46bc-8221-5882e47689f0","ios":"levelo://app?vid=30fc6e1e-0bb4-46bc-8221-5882e47689f0"},"vehicle_type_id":"4","last_reported":1747429762,"current_range_meters":18800,"station_id":"ce4bhh12rcd13ifvqff0","pricing_plan_id":"cebpf4jnsgd1na2vs0mg"},{"bike_id":"213e04a9-4f18-4a24-bf2d-c73302d6dd17","system_id":"levelo_inurba_marseille","lat":43.26958,"lon":5.38628,"is_reserved":false,"is_disabled":false,"rental_uris":{"android":"levelo://app?vid=213e04a9-4f18-4a24-bf2d-c73302d6dd17","ios":"levelo://app?vid=213e04a9-4f18-4a24-bf2d-c73302d6dd17"},"vehicle_type_id":"4","last_reported":1747429762,"current_range_meters":18800,"station_id":"ce4bhh92rcd13ifvqfh0","pricing_plan_id":"cebpf4jnsgd1na2vs0mg"},{"bike_id":"712f1c4d-f153-4002-ad59-f4eda49ba117","system_id":"levelo_inurba_marseille","lat":43.23186,"lon":5.39982,"is_reserved":false,"is_disabled":false,"rental_uris":{"android":"levelo://app?vid=712f1c4d-f153-4002-ad59-f4eda49ba117","ios":"levelo://app?vid=712f1c4d-f153-4002-ad59-f4eda49ba117"},"vehicle_type_id":"4","last_reported":1747429762,"current_range_meters":18800,"station_id":"ce4bhn12rcd13ifvqgqg","pricing_plan_id":"cebpf4jnsgd1na2vs0mg"},{"bike_id":"54bb5cff-3a0c-47d7-84fb-50c6b62fd77d","system_id":"levelo_inurba_marseille","lat":43.28079,"lon":5.396397,"is_reserved":false,"is_disabled":false,"rental_uris":{"android":"levelo://app?vid=54bb5cff-3a0c-47d7-84fb-50c6b62fd77d","ios":"levelo://app?vid=54bb5cff-3a0c-47d7-84fb-50c6b62fd77d"},"vehicle_type_id":"4","last_reported":1747429762,"current_range_meters":18800,"station_id":"ce4bho12rcd13ifvqh2g","pricing_plan_id":"cebpf4jnsgd1na2vs0mg"},{"bike_id":"3d756cb0-d857-419e-b53e-6486c43324ff","system_id":"levelo_inurba_marseille","lat":43.293036,"lon":5.369894,"is_reserved":false,"is_disabled":false,"rental_uris":{"android":"levelo://app?vid=3d756cb0-d857-419e-b53e-6486c43324ff","ios":"levelo://app?vid=3d756cb0-d857-419e-b53e-6486c43324ff"},"vehicle_type_id":"4","last_reported":1747429762,"current_range_meters":19200,"station_id":"ce4bgh92rcd13ifvqb40","pricing_plan_id":"cebpf4jnsgd1na2vs0mg"},{"bike_id":"faade6d4-aad6-4c89-9e17-c020d1e9856e","system_id":"levelo_inurba_marseille","lat":43.29588,"lon":5.38094,"is_reserved":false,"is_disabled":false,"rental_uris":{"android":"levelo://app?vid=faade6d4-aad6-4c89-9e17-c020d1e9856e","ios":"levelo://app?vid=faade6d4-aad6-4c89-9e17-c020d1e9856e"},"vehicle_type_id":"4","last_reported":1747429762,"current_range_meters":19200,"station_id":"ce4bgl12rcd13ifvqbo0","pricing_plan_id":"cebpf4jnsgd1na2vs0mg"},{"bike_id":"03b812ef-6e42-40cc-a62f-6710c57e1ec0","system_id":"levelo_inurba_marseille","lat":43.29611,"lon":5.38102,"is_reserved":false,"is_disabled":false,"rental_uris":{"android":"levelo://app?vid=03b812ef-6e42-40cc-a62f-6710c57e1ec0","ios":"levelo://app?vid=03b812ef-6e42-40cc-a62f-6710c57e1ec0"},"vehicle_type_id":"4","last_reported":1747429762,"current_range_meters":19200,"station_id":"ce4bgl12rcd13ifvqbo0","pricing_plan_id":"cebpf4jnsgd1na2vs0mg"},{"bike_id":"4b405524-c33f-40da-a4a3-4997b261ca59","system_id":"levelo_inurba_marseille","lat":43.30801,"lon":5.3816,"is_reserved":false,"is_disabled":false,"rental_uris":{"android":"levelo://app?vid=4b405524-c33f-40da-a4a3-4997b261ca59","ios":"levelo://app?vid=4b405524-c33f-40da-a4a3-4997b261ca59"},"vehicle_type_id":"4","last_reported":1747429762,"current_range_meters":19200,"station_id":"ce4bgt12rcd13ifvqce0","pricing_plan_id":"cebpf4jnsgd1na2vs0mg"},{"bike_id":"29dad2c9-fd2d-47d8-aab8-efa95ed2c5ea","system_id":"levelo_inurba_marseille","lat":43.2942,"lon":5.38623,"is_reserved":false,"is_disabled":false,"rental_uris":{"android":"levelo://app?vid=29dad2c9-fd2d-47d8-aab8-efa95ed2c5ea","ios":"levelo://app?vid=29dad2c9-fd2d-47d8-aab8-efa95ed2c5ea"},"vehicle_type_id":"4","last_reported":1747429762,"current_range_meters":19200,"station_id":"ce4bh2h2rcd13ifvqdh0","pricing_plan_id":"cebpf4jnsgd1na2vs0mg"},{"bike_id":"e4ac6e3e-fba5-4367-a755-53f04941a18e","system_id":"levelo_inurba_marseille","lat":43.28695,"lon":5.38659,"is_reserved":false,"is_disabled":false,"rental_uris":{"android":"levelo://app?vid=e4ac6e3e-fba5-4367-a755-53f04941a18e","ios":"levelo://app?vid=e4ac6e3e-fba5-4367-a755-53f04941a18e"},"vehicle_type_id":"4","last_reported":1747429762,"current_range_meters":19200,"station_id":"ce4bh492rcd13ifvqdug","pricing_plan_id":"cebpf4jnsgd1na2vs0mg"},{"bike_id":"386c7031-2256-424f-8cc5-7a04f4b822a9","system_id":"levelo_inurba_marseille","lat":43.2782,"lon":5.40715,"is_reserved":false,"is_disabled":false,"rental_uris":{"android":"levelo://app?vid=386c7031-2256-424f-8cc5-7a04f4b822a9","ios":"levelo://app?vid=386c7031-2256-424f-8cc5-7a04f4b822a9"},"vehicle_type_id":"4","last_reported":1747429762,"current_range_meters":19200,"station_id":"ce4bhnh2rcd13ifvqgtg","pricing_plan_id":"cebpf4jnsgd1na2vs0mg"},{"bike_id":"17f4f955-c65c-4212-8cdd-ea247389f6d5","system_id":"levelo_inurba_marseille","lat":43.27974,"lon":5.41667,"is_reserved":false,"is_disabled":false,"rental_uris":{"android":"levelo://app?vid=17f4f955-c65c-4212-8cdd-ea247389f6d5","ios":"levelo://app?vid=17f4f955-c65c-4212-8cdd-ea247389f6d5"},"vehicle_type_id":"4","last_reported":1747429762,"current_range_meters":19200,"station_id":"ce4bho12rcd13ifvqh1g","pricing_plan_id":"cebpf4jnsgd1na2vs0mg"},{"bike_id":"13964df2-f86e-42bb-93f0-592e25243511","system_id":"levelo_inurba_marseille","lat":43.30749,"lon":5.37491,"is_reserved":false,"is_disabled":false,"rental_uris":{"android":"levelo://app?vid=13964df2-f86e-42bb-93f0-592e25243511","ios":"levelo://app?vid=13964df2-f86e-42bb-93f0-592e25243511"},"vehicle_type_id":"4","last_reported":1747429762,"current_range_meters":19600,"station_id":"","pricing_plan_id":"cebpf4jnsgd1na2vs0mg"},{"bike_id":"b26a0dd7-cbdc-4ab7-8def-31c4b88b224a","system_id":"levelo_inurba_marseille","lat":43.31213,"lon":5.392534,"is_reserved":false,"is_disabled":false,"rental_uris":{"android":"levelo://app?vid=b26a0dd7-cbdc-4ab7-8def-31c4b88b224a","ios":"levelo://app?vid=b26a0dd7-cbdc-4ab7-8def-31c4b88b224a"},"vehicle_type_id":"4","last_reported":1747429762,"current_range_meters":19600,"station_id":"","pricing_plan_id":"cebpf4jnsgd1na2vs0mg"},{"bike_id":"d7380490-b425-4ecd-b21b-fddddabc92e7","system_id":"levelo_inurba_marseille","lat":43.307922,"lon":5.3764,"is_reserved":false,"is_disabled":false,"rental_uris":{"android":"levelo://app?vid=d7380490-b425-4ecd-b21b-fddddabc92e7","ios":"levelo://app?vid=d7380490-b425-4ecd-b21b-fddddabc92e7"},"vehicle_type_id":"4","last_reported":1747429762,"current_range_meters":19600,"station_id":"ce4bgv92rcd13ifvqcq0","pricing_plan_id":"cebpf4jnsgd1na2vs0mg"},{"bike_id":"7ddc5ae5-0605-48bc-a96b-06fd3ca2b933","system_id":"levelo_inurba_marseille","lat":43.3133,"lon":5.39687,"is_reserved":false,"is_disabled":false,"rental_uris":{"android":"levelo://app?vid=7ddc5ae5-0605-48bc-a96b-06fd3ca2b933","ios":"levelo://app?vid=7ddc5ae5-0605-48bc-a96b-06fd3ca2b933"},"vehicle_type_id":"4","last_reported":1747429762,"current_range_meters":19600,"station_id":"ce4bgvp2rcd13ifvqcu0","pricing_plan_id":"cebpf4jnsgd1na2vs0mg"},{"bike_id":"addf8331-0598-4a50-9cc7-5ace89a03eb6","system_id":"levelo_inurba_marseille","lat":43.29878,"lon":5.3891,"is_reserved":false,"is_disabled":false,"rental_uris":{"android":"levelo://app?vid=addf8331-0598-4a50-9cc7-5ace89a03eb6","ios":"levelo://app?vid=addf8331-0598-4a50-9cc7-5ace89a03eb6"},"vehicle_type_id":"4","last_reported":1747429762,"current_range_meters":19600,"station_id":"ce4bh392rcd13ifvqdl0","pricing_plan_id":"cebpf4jnsgd1na2vs0mg"},{"bike_id":"f20e2ce6-3cfd-4a5c-b253-e351c61d4fb6","system_id":"levelo_inurba_marseille","lat":43.28354,"lon":5.38637,"is_reserved":false,"is_disabled":false,"rental_uris":{"android":"levelo://app?vid=f20e2ce6-3cfd-4a5c-b253-e351c61d4fb6","ios":"levelo://app?vid=f20e2ce6-3cfd-4a5c-b253-e351c61d4fb6"},"vehicle_type_id":"4","last_reported":1747429762,"current_range_meters":19600,"station_id":"ce4bh492rcd13ifvqdvg","pricing_plan_id":"cebpf4jnsgd1na2vs0mg"},{"bike_id":"d432a1c6-196d-43d4-ac4b-2764b8a29a43","system_id":"levelo_inurba_marseille","lat":43.29068,"lon":5.37166,"is_reserved":false,"is_disabled":false,"rental_uris":{"android":"levelo://app?vid=d432a1c6-196d-43d4-ac4b-2764b8a29a43","ios":"levelo://app?vid=d432a1c6-196d-43d4-ac4b-2764b8a29a43"},"vehicle_type_id":"4","last_reported":1747429762,"current_range_meters":19600,"station_id":"ce4bh5p2rcd13ifvqe4g","pricing_plan_id":"cebpf4jnsgd1na2vs0mg"},{"bike_id":"5550b56f-4572-4024-abca-7de66bda3cb3","system_id":"levelo_inurba_marseille","lat":43.29165,"lon":5.37159,"is_reserved":false,"is_disabled":false,"rental_uris":{"android":"levelo://app?vid=5550b56f-4572-4024-abca-7de66bda3cb3","ios":"levelo://app?vid=5550b56f-4572-4024-abca-7de66bda3cb3"},"vehicle_type_id":"4","last_reported":1747429762,"current_range_meters":19600,"station_id":"ce4bha92rcd13ifvqeh0","pricing_plan_id":"cebpf4jnsgd1na2vs0mg"},{"bike_id":"89052c1b-e95c-422c-8ad1-9f017da0c226","system_id":"levelo_inurba_marseille","lat":43.28681,"lon":5.36352,"is_reserved":false,"is_disabled":false,"rental_uris":{"android":"levelo://app?vid=89052c1b-e95c-422c-8ad1-9f017da0c226","ios":"levelo://app?vid=89052c1b-e95c-422c-8ad1-9f017da0c226"},"vehicle_type_id":"4","last_reported":1747429762,"current_range_meters":19600,"station_id":"ce4bhah2rcd13ifvqej0","pricing_plan_id":"cebpf4jnsgd1na2vs0mg"},{"bike_id":"f821e2a0-fd4a-41e7-8a26-c977558ea037","system_id":"levelo_inurba_marseille","lat":43.32549,"lon":5.4142,"is_reserved":false,"is_disabled":false,"rental_uris":{"android":"levelo://app?vid=f821e2a0-fd4a-41e7-8a26-c977558ea037","ios":"levelo://app?vid=f821e2a0-fd4a-41e7-8a26-c977558ea037"},"vehicle_type_id":"4","last_reported":1747429762,"current_range_meters":19600,"station_id":"ce4bhq12rcd13ifvqhhg","pricing_plan_id":"cebpf4jnsgd1na2vs0mg"},{"bike_id":"ddd28679-08f9-440a-940d-08217ae9ada2","system_id":"levelo_inurba_marseille","lat":43.23192,"lon":5.35552,"is_reserved":false,"is_disabled":false,"rental_uris":{"android":"levelo://app?vid=ddd28679-08f9-440a-940d-08217ae9ada2","ios":"levelo://app?vid=ddd28679-08f9-440a-940d-08217ae9ada2"},"vehicle_type_id":"4","last_reported":1747429762,"current_range_meters":19600,"station_id":"ce4bhu92rcd13ifvqi70","pricing_plan_id":"cebpf4jnsgd1na2vs0mg"},{"bike_id":"efbe1ffe-5387-4ac9-a703-e2018a46fde6","system_id":"levelo_inurba_marseille","lat":43.21768,"lon":5.34583,"is_reserved":false,"is_disabled":false,"rental_uris":{"android":"levelo://app?vid=efbe1ffe-5387-4ac9-a703-e2018a46fde6","ios":"levelo://app?vid=efbe1ffe-5387-4ac9-a703-e2018a46fde6"},"vehicle_type_id":"4","last_reported":1747429762,"current_range_meters":19600,"station_id":"st_cvj6r9ubvosntc0bgbag","pricing_plan_id":"cebpf4jnsgd1na2vs0mg"},{"bike_id":"326024df-b4d6-43eb-9a37-4466557c94e2","system_id":"levelo_inurba_marseille","lat":43.30291,"lon":5.3923,"is_reserved":false,"is_disabled":false,"rental_uris":{"android":"levelo://app?vid=326024df-b4d6-43eb-9a37-4466557c94e2","ios":"levelo://app?vid=326024df-b4d6-43eb-9a37-4466557c94e2"},"vehicle_type_id":"4","last_reported":1747429762,"current_range_meters":20000,"station_id":"ce4bgkh2rcd13ifvqbk0","pricing_plan_id":"cebpf4jnsgd1na2vs0mg"},{"bike_id":"adf8c8a4-a7e5-4909-b7aa-f271c24006ff","system_id":"levelo_inurba_marseille","lat":43.29254,"lon":5.3845,"is_reserved":false,"is_disabled":false,"rental_uris":{"android":"levelo://app?vid=adf8c8a4-a7e5-4909-b7aa-f271c24006ff","ios":"levelo://app?vid=adf8c8a4-a7e5-4909-b7aa-f271c24006ff"},