{"last_updated":1751396866,"ttl":60,"version":"2.2","data":{"bikes":[{"bike_id":"3da29fb8-fc97-44c6-b9ac-31dd456b2fd4","system_id":"levelo_inurba_marseille","lat":43.33771,"lon":5.37424,"is_reserved":false,"is_disabled":true,"rental_uris":{"android":"levelo://app?vid=3da29fb8-fc97-44c6-b9ac-31dd456b2fd4","ios":"levelo://app?vid=3da29fb8-fc97-44c6-b9ac-31dd456b2fd4"},"vehicle_type_id":"4","last_reported":1751396867,"current_range_meters":0,"station_id":"","pricing_plan_id":"cebpf4jnsgd1na2vs0mg"},{"bike_id":"01861ad8-a8d7-4be6-816e-651927c87584","system_id":"levelo_inurba_marseille","lat":43.33751,"lon":5.37456,"is_reserved":false,"is_disabled":true,"rental_uris":{"android":"levelo://app?vid=01861ad8-a8d7-4be6-816e-651927c87584","ios":"levelo://app?vid=01861ad8-a8d7-4be6-816e-651927c87584"},"vehicle_type_id":"4","last_reported":1751396867,"current_range_meters":0,"station_id":"","pricing_plan_id":"cebpf4jnsgd1na2vs0mg"},{"bike_id":"aacf0286-b8b3-4dcc-99df-3c0d92efa356","system_id":"levelo_inurba_marseille","lat":43.3262,"lon":5.37506,"is_reserved":false,"is_disabled":true,"rental_uris":{"android":"levelo://app?vid=aacf0286-b8b3-4dcc-99df-3c0d92efa356","ios":"levelo://app?vid=aacf0286-b8b3-4dcc-99df-3c0d92efa356"},"vehicle_type_id":"4","last_reported":1751396867,"current_range_meters":0,"station_id":"","pricing_plan_id":"cebpf4jnsgd1na2vs0mg"},{"bike_id":"f3bb54e5-5710-469b-95d1-519f2df26e28","system_id":"levelo_inurba_marseille","lat":43.3026,"lon":5.38196,"is_reserved":false,"is_disabled":true,"rental_uris":{"android":"levelo://app?vid=f3bb54e5-5710-469b-95d1-519f2df26e28","ios":"levelo://app?vid=f3bb54e5-5710-469b-95d1-519f2df26e28"},"vehicle_type_id":"4","last_reported":1751396867,"current_range_meters":0,"station_id":"","pricing_plan_id":"cebpf4jnsgd1na2vs0mg"},{"bike_id":"3168b9fb-97d2-4a0e-b7ee-673bb8cf7525","system_id":"levelo_inurba_marseille","lat":43.277667,"lon":5.355794,"is_reserved":false,"is_disabled":true,"rental_uris":{"android":"levelo://app?vid=3168b9fb-97d2-4a0e-b7ee-673bb8cf7525","ios":"levelo://app?vid=3168b9fb-97d2-4a0e-b7ee-673bb8cf7525"},"vehicle_type_id":"4","last_reported":1751396867,"current_range_meters":0,"station_id":"","pricing_plan_id":"cebpf4jnsgd1na2vs0mg"},{"bike_id":"1d934d30-6a85-4b30-9a35-9bb4ad4cb2ca","system_id":"levelo_inurba_marseille","lat":43.32737,"lon":5.42348,"is_reserved":false,"is_disabled":true,"rental_uris":{"android":"levelo://app?vid=1d934d30-6a85-4b30-9a35-9bb4ad4cb2ca","ios":"levelo://app?vid=1d934d30-6a85-4b30-9a35-9bb4ad4cb2ca"},"vehicle_type_id":"4","last_reported":1751396867,"current_range_meters":0,"station_id":"","pricing_plan_id":"cebpf4jnsgd1na2vs0mg"},{"bike_id":"3378c13c-e4e0-45be-9bfe-f3a4bc2c600e","system_id":"levelo_inurba_marseille","lat":43.2976,"lon":5.46,"is_reserved":false,"is_disabled":true,"rental_uris":{"android":"levelo://app?vid=3378c13c-e4e0-45be-9bfe-f3a4bc2c600e","ios":"levelo://app?vid=3378c13c-e4e0-45be-9bfe-f3a4bc2c600e"},"vehicle_type_id":"4","last_reported":1751396867,"current_range_meters":0,"station_id":"","pricing_plan_id":"cebpf4jnsgd1na2vs0mg"},{"bike_id":"2ccccc82-c8a9-4c3b-909d-52c0bf697aa3","system_id":"levelo_inurba_marseille","lat":43.27604,"lon":5.358605,"is_reserved":false,"is_disabled":true,"rental_uris":{"android":"levelo://app?vid=2ccccc82-c8a9-4c3b-909d-52c0bf697aa3","ios":"levelo://app?vid=2ccccc82-c8a9-4c3b-909d-52c0bf697aa3"},"vehicle_type_id":"4","last_reported":1751396867,"current_range_meters":0,"station_id":"","pricing_plan_id":"cebpf4jnsgd1na2vs0mg"},{"bike_id":"c9700359-7f1e-4ea5-8eb5-d9c4ea1b8ef7","system_id":"levelo_inurba_marseille","lat":43.263199,"lon":5.373959,"is_reserved":false,"is_disabled":true,"rental_uris":{"android":"levelo://app?vid=c9700359-7f1e-4ea5-8eb5-d9c4ea1b8ef7","ios":"levelo://app?vid=c9700359-7f1e-4ea5-8eb5-d9c4ea1b8ef7"},"vehicle_type_id":"4","last_reported":1751396867,"current_range_meters":0,"station_id":"","pricing_plan_id":"cebpf4jnsgd1na2vs0mg"},{"bike_id":"95c69415-2845-4124-9fbc-8e2f89cb3a35","system_id":"levelo_inurba_marseille","lat":43.293091,"lon":5.371784,"is_reserved":false,"is_disabled":true,"rental_uris":{"android":"levelo://app?vid=95c69415-2845-4124-9fbc-8e2f89cb3a35","ios":"levelo://app?vid=95c69415-2845-4124-9fbc-8e2f89cb3a35"},"vehicle_type_id":"4","last_reported":1751396867,"current_range_meters":0,"station_id":"","pricing_plan_id":"cebpf4jnsgd1na2vs0mg"},{"bike_id":"3035be0e-7c3d-4f7d-a1cb-7a1af59e497b","system_id":"levelo_inurba_marseille","lat":43.296755,"lon":5.36004,"is_reserved":false,"is_disabled":true,"rental_uris":{"android":"levelo://app?vid=3035be0e-7c3d-4f7d-a1cb-7a1af59e497b","ios":"levelo://app?vid=3035be0e-7c3d-4f7d-a1cb-7a1af59e497b"},"vehicle_type_id":"4","last_reported":1751396867,"current_range_meters":0,"station_id":"","pricing_plan_id":"cebpf4jnsgd1na2vs0mg"},{"bike_id":"46ed2b9f-1912-466e-b039-bc4b03b9c281","system_id":"levelo_inurba_marseille","lat":43.23781,"lon":5.36169,"is_reserved":false,"is_disabled":true,"rental_uris":{"android":"levelo://app?vid=46ed2b9f-1912-466e-b039-bc4b03b9c281","ios":"levelo://app?vid=46ed2b9f-1912-466e-b039-bc4b03b9c281"},"vehicle_type_id":"4","last_reported":1751396867,"current_range_meters":0,"station_id":"","pricing_plan_id":"cebpf4jnsgd1na2vs0mg"},{"bike_id":"fc922827-a560-40b3-a464-7d96a560fe74","system_id":"levelo_inurba_marseille","lat":43.31367,"lon":5.38489,"is_reserved":false,"is_disabled":true,"rental_uris":{"android":"levelo://app?vid=fc922827-a560-40b3-a464-7d96a560fe74","ios":"levelo://app?vid=fc922827-a560-40b3-a464-7d96a560fe74"},"vehicle_type_id":"4","last_reported":1751396867,"current_range_meters":0,"station_id":"ce4bgt92rcd13ifvqcf0","pricing_plan_id":"cebpf4jnsgd1na2vs0mg"},{"bike_id":"9eff3269-9c2f-4a40-83f5-38db3b98552c","system_id":"levelo_inurba_marseille","lat":43.2919,"lon":5.35768,"is_reserved":false,"is_disabled":true,"rental_uris":{"android":"levelo://app?vid=9eff3269-9c2f-4a40-83f5-38db3b98552c","ios":"levelo://app?vid=9eff3269-9c2f-4a40-83f5-38db3b98552c"},"vehicle_type_id":"4","last_reported":1751396867,"current_range_meters":0,"station_id":"ce4bhb12rcd13ifvqel0","pricing_plan_id":"cebpf4jnsgd1na2vs0mg"},{"bike_id":"4fb5ef5d-c051-429c-ba1f-26b3489d9af5","system_id":"levelo_inurba_marseille","lat":43.27537,"lon":5.38416,"is_reserved":false,"is_disabled":true,"rental_uris":{"android":"levelo://app?vid=4fb5ef5d-c051-429c-ba1f-26b3489d9af5","ios":"levelo://app?vid=4fb5ef5d-c051-429c-ba1f-26b3489d9af5"},"vehicle_type_id":"4","last_reported":1751396867,"current_range_meters":0,"station_id":"ce4bhh92rcd13ifvqfi0","pricing_plan_id":"cebpf4jnsgd1na2vs0mg"},{"bike_id":"de1988bc-a9c8-4b00-9533-fbec8ecf6830","system_id":"levelo_inurba_marseille","lat":43.32102,"lon":5.36778,"is_reserved":false,"is_disabled":true,"rental_uris":{"android":"levelo://app?vid=de1988bc-a9c8-4b00-9533-fbec8ecf6830","ios":"levelo://app?vid=de1988bc-a9c8-4b00-9533-fbec8ecf6830"},"vehicle_type_id":"4","last_reported":1751396867,"current_range_meters":0,"station_id":"ce4bhrh2rcd13ifvqhug","pricing_plan_id":"cebpf4jnsgd1na2vs0mg"},{"bike_id":"9ea9b2f2-da6c-427c-b4f4-742ad87b4a40","system_id":"levelo_inurba_marseille","lat":43.32367,"lon":5.36715,"is_reserved":false,"is_disabled":true,"rental_uris":{"android":"levelo://app?vid=9ea9b2f2-da6c-427c-b4f4-742ad87b4a40","ios":"levelo://app?vid=9ea9b2f2-da6c-427c-b4f4-742ad87b4a40"},"vehicle_type_id":"4","last_reported":1751396867,"current_range_meters":0,"station_id":"ce4bhsh2rcd13ifvqi2g","pricing_plan_id":"cebpf4jnsgd1na2vs0mg"},{"bike_id":"5535b375-88a8-48f2-9bbe-c408367e409a","system_id":"levelo_inurba_marseille","lat":43.31363,"lon":5.38357,"is_reserved":false,"is_disabled":true,"rental_uris":{"android":"levelo://app?vid=5535b375-88a8-48f2-9bbe-c408367e409a","ios":"levelo://app?vid=5535b375-88a8-48f2-9bbe-c408367e409a"},"vehicle_type_id":"4","last_reported":1751396867,"current_range_meters":400,"station_id":"","pricing_plan_id":"cebpf4jnsgd1na2vs0mg"},{"bike_id":"b20bd3e0-ea69-444b-ae2d-7024333ef28f","system_id":"levelo_inurba_marseille","lat":43.29301,"lon":5.37173,"is_reserved":false,"is_disabled":true,"rental_uris":{"android":"levelo://app?vid=b20bd3e0-ea69-444b-ae2d-7024333ef28f","ios":"levelo://app?vid=b20bd3e0-ea69-444b-ae2d-7024333ef28f"},"vehicle_type_id":"4","last_reported":1751396867,"current_range_meters":400,"station_id":"ce4bgh92rcd13ifvqb40","pricing_plan_id":"cebpf4jnsgd1na2vs0mg"},{"bike_id":"51f93386-23e4-450b-946b-bce75b800e2e","system_id":"levelo_inurba_marseille","lat":43.31709,"lon":5.37734,"is_reserved":false,"is_disabled":true,"rental_uris":{"android":"levelo://app?vid=51f93386-23e4-450b-946b-bce75b800e2e","ios":"levelo://app?vid=51f93386-23e4-450b-946b-bce75b800e2e"},"vehicle_type_id":"4","last_reported":1751396867,"current_range_meters":400,"station_id":"ce4bgth2rcd13ifvqch0","pricing_plan_id":"cebpf4jnsgd1na2vs0mg"},{"bike_id":"88fb58c9-0bf3-417f-85c4-de6ea164b794","system_id":"levelo_inurba_marseille","lat":43.25729,"lon":5.41104,"is_reserved":false,"is_disabled":true,"rental_uris":{"android":"levelo://app?vid=88fb58c9-0bf3-417f-85c4-de6ea164b794","ios":"levelo://app?vid=88fb58c9-0bf3-417f-85c4-de6ea164b794"},"vehicle_type_id":"4","last_reported":1751396867,"current_range_meters":400,"station_id":"ce4bhkp2rcd13ifvqgd0","pricing_plan_id":"cebpf4jnsgd1na2vs0mg"},{"bike_id":"391b3aa7-cc65-468c-938b-ba5f52749d09","system_id":"levelo_inurba_marseille","lat":43.24183,"lon":5.39731,"is_reserved":false,"is_disabled":true,"rental_uris":{"android":"levelo://app?vid=391b3aa7-cc65-468c-938b-ba5f52749d09","ios":"levelo://app?vid=391b3aa7-cc65-468c-938b-ba5f52749d09"},"vehicle_type_id":"4","last_reported":1751396867,"current_range_meters":400,"station_id":"ce4bhn12rcd13ifvqgpg","pricing_plan_id":"cebpf4jnsgd1na2vs0mg"},{"bike_id":"3599db9b-cf2d-4760-a65a-d84cee311ad8","system_id":"levelo_inurba_marseille","lat":43.30545,"lon":5.36693,"is_reserved":false,"is_disabled":true,"rental_uris":{"android":"levelo://app?vid=3599db9b-cf2d-4760-a65a-d84cee311ad8","ios":"levelo://app?vid=3599db9b-cf2d-4760-a65a-d84cee311ad8"},"vehicle_type_id":"4","last_reported":1751396867,"current_range_meters":800,"station_id":"ce4bgrp2rcd13ifvqc9g","pricing_plan_id":"cebpf4jnsgd1na2vs0mg"},{"bike_id":"6346854d-967c-470e-9bcf-0ee9cbb31745","system_id":"levelo_inurba_marseille","lat":43.269228,"lon":5.420206,"is_reserved":false,"is_disabled":true,"rental_uris":{"android":"levelo://app?vid=6346854d-967c-470e-9bcf-0ee9cbb31745","ios":"levelo://app?vid=6346854d-967c-470e-9bcf-0ee9cbb31745"},"vehicle_type_id":"4","last_reported":1751396867,"current_range_meters":1200,"station_id":"","pricing_plan_id":"cebpf4jnsgd1na2vs0mg"},{"bike_id":"82522992-39cd-4cc1-bf11-bf1394360248","system_id":"levelo_inurba_marseille","lat":43.31536,"lon":5.37455,"is_reserved":false,"is_disabled":true,"rental_uris":{"android":"levelo://app?vid=82522992-39cd-4cc1-bf11-bf1394360248","ios":"levelo://app?vid=82522992-39cd-4cc1-bf11-bf1394360248"},"vehicle_type_id":"4","last_reported":1751396867,"current_range_meters":1600,"station_id":"","pricing_plan_id":"cebpf4jnsgd1na2vs0mg"},{"bike_id":"effc7a03-10c8-4f0b-819a-26d3b584c3a4","system_id":"levelo_inurba_marseille","lat":43.29371,"lon":5.3784,"is_reserved":false,"is_disabled":true,"rental_uris":{"android":"levelo://app?vid=effc7a03-10c8-4f0b-819a-26d3b584c3a4","ios":"levelo://app?vid=effc7a03-10c8-4f0b-819a-26d3b584c3a4"},"vehicle_type_id":"4","last_reported":1751396867,"current_range_meters":1600,"station_id":"ce4bgjh2rcd13ifvqbf0","pricing_plan_id":"cebpf4jnsgd1na2vs0mg"},{"bike_id":"05c3df65-8ec2-41ef-bb41-006f33135cc9","system_id":"levelo_inurba_marseille","lat":43.33084,"lon":5.39,"is_reserved":false,"is_disabled":true,"rental_uris":{"android":"levelo://app?vid=05c3df65-8ec2-41ef-bb41-006f33135cc9","ios":"levelo://app?vid=05c3df65-8ec2-41ef-bb41-006f33135cc9"},"vehicle_type_id":"4","last_reported":1751396867,"current_range_meters":2000,"station_id":"","pricing_plan_id":"cebpf4jnsgd1na2vs0mg"},{"bike_id":"0b553146-0d27-4dc8-83c8-3e8fccc63ff2","system_id":"levelo_inurba_marseille","lat":43.29203,"lon":5.37508,"is_reserved":false,"is_disabled":true,"rental_uris":{"android":"levelo://app?vid=0b553146-0d27-4dc8-83c8-3e8fccc63ff2","ios":"levelo://app?vid=0b553146-0d27-4dc8-83c8-3e8fccc63ff2"},"vehicle_type_id":"4","last_reported":1751396867,"current_range_meters":2000,"station_id":"","pricing_plan_id":"cebpf4jnsgd1na2vs0mg"},{"bike_id":"7547e1e4-2d85-4907-971d-6c8e5c4cb529","system_id":"levelo_inurba_marseille","lat":43.25371,"lon":5.37497,"is_reserved":false,"is_disabled":true,"rental_uris":{"android":"levelo://app?vid=7547e1e4-2d85-4907-971d-6c8e5c4cb529","ios":"levelo://app?vid=7547e1e4-2d85-4907-971d-6c8e5c4cb529"},"vehicle_type_id":"4","last_reported":1751396867,"current_range_meters":2000,"station_id":"","pricing_plan_id":"cebpf4jnsgd1na2vs0mg"},{"bike_id":"e5a91c12-a9d1-463a-8abe-d0dd37cf3197","system_id":"levelo_inurba_marseille","lat":43.29796,"lon":5.37729,"is_reserved":false,"is_disabled":true,"rental_uris":{"android":"levelo://app?vid=e5a91c12-a9d1-463a-8abe-d0dd37cf3197","ios":"levelo://app?vid=e5a91c12-a9d1-463a-8abe-d0dd37cf3197"},"vehicle_type_id":"4","last_reported":1751396867,"current_range_meters":2000,"station_id":"","pricing_plan_id":"cebpf4jnsgd1na2vs0mg"},{"bike_id":"15f1c207-0eff-4464-a506-3b5586227454","system_id":"levelo_inurba_marseille","lat":43.27373,"lon":5.36258,"is_reserved":false,"is_disabled":true,"rental_uris":{"android":"levelo://app?vid=15f1c207-0eff-4464-a506-3b5586227454","ios":"levelo://app?vid=15f1c207-0eff-4464-a506-3b5586227454"},"vehicle_type_id":"4","last_reported":1751396867,"current_range_meters":2000,"station_id":"ce4bhbh2rcd13ifvqeo0","pricing_plan_id":"cebpf4jnsgd1na2vs0mg"},{"bike_id":"8d3718a5-39e3-46bc-a8cd-2dbf67d69d6c","system_id":"levelo_inurba_marseille","lat":43.29786,"lon":5.37099,"is_reserved":false,"is_disabled":false,"rental_uris":{"android":"levelo://app?vid=8d3718a5-39e3-46bc-a8cd-2dbf67d69d6c","ios":"levelo://app?vid=8d3718a5-39e3-46bc-a8cd-2dbf67d69d6c"},"vehicle_type_id":"4","last_reported":1751396867,"current_range_meters":2800,"station_id":"ce4bgop2rcd13ifvqc1g","pricing_plan_id":"cebpf4jnsgd1na2vs0mg"},{"bike_id":"b80adc8a-da9d-4306-99ff-b0582a6f9a42","system_id":"levelo_inurba_marseille","lat":43.262154,"lon":5.374475,"is_reserved":false,"is_disabled":false,"rental_uris":{"android":"levelo://app?vid=b80adc8a-da9d-4306-99ff-b0582a6f9a42","ios":"levelo://app?vid=b80adc8a-da9d-4306-99ff-b0582a6f9a42"},"vehicle_type_id":"4","last_reported":1751396867,"current_range_meters":2800,"station_id":"ce4bhb12rcd13ifvqel0","pricing_plan_id":"cebpf4jnsgd1na2vs0mg"},{"bike_id":"bb302622-9649-4e7c-ae61-13f1be5fe686","system_id":"levelo_inurba_marseille","lat":43.29488,"lon":5.3869,"is_reserved":false,"is_disabled":false,"rental_uris":{"android":"levelo://app?vid=bb302622-9649-4e7c-ae61-13f1be5fe686","ios":"levelo://app?vid=bb302622-9649-4e7c-ae61-13f1be5fe686"},"vehicle_type_id":"4","last_reported":1751396867,"current_range_meters":3200,"station_id":"","pricing_plan_id":"cebpf4jnsgd1na2vs0mg"},{"bike_id":"fda7f14b-14c8-40a4-b3aa-c26b2d004bd7","system_id":"levelo_inurba_marseille","lat":43.29168,"lon":5.37152,"is_reserved":false,"is_disabled":false,"rental_uris":{"android":"levelo://app?vid=fda7f14b-14c8-40a4-b3aa-c26b2d004bd7","ios":"levelo://app?vid=fda7f14b-14c8-40a4-b3aa-c26b2d004bd7"},"vehicle_type_id":"4","last_reported":1751396867,"current_range_meters":3200,"station_id":"ce4bha92rcd13ifvqeh0","pricing_plan_id":"cebpf4jnsgd1na2vs0mg"},{"bike_id":"858db878-cd7f-4484-acd7-c1106480fbe0","system_id":"levelo_inurba_marseille","lat":43.30138,"lon":5.38763,"is_reserved":false,"is_disabled":false,"rental_uris":{"android":"levelo://app?vid=858db878-cd7f-4484-acd7-c1106480fbe0","ios":"levelo://app?vid=858db878-cd7f-4484-acd7-c1106480fbe0"},"vehicle_type_id":"4","last_reported":1751396867,"current_range_meters":4400,"station_id":"ce4bghh2rcd13ifvqb60","pricing_plan_id":"cebpf4jnsgd1na2vs0mg"},{"bike_id":"b4db1546-eb72-4a6d-8886-9e7f4d3bbde7","system_id":"levelo_inurba_marseille","lat":43.30182,"lon":5.36604,"is_reserved":false,"is_disabled":false,"rental_uris":{"android":"levelo://app?vid=b4db1546-eb72-4a6d-8886-9e7f4d3bbde7","ios":"levelo://app?vid=b4db1546-eb72-4a6d-8886-9e7f4d3bbde7"},"vehicle_type_id":"4","last_reported":1751396867,"current_range_meters":4400,"station_id":"ce4bgrh2rcd13ifvqc8g","pricing_plan_id":"cebpf4jnsgd1na2vs0mg"},{"bike_id":"09126cdf-8803-4180-a679-c2c73d42a61a","system_id":"levelo_inurba_marseille","lat":43.27179,"lon":5.40998,"is_reserved":false,"is_disabled":false,"rental_uris":{"android":"levelo://app?vid=09126cdf-8803-4180-a679-c2c73d42a61a","ios":"levelo://app?vid=09126cdf-8803-4180-a679-c2c73d42a61a"},"vehicle_type_id":"4","last_reported":1751396867,"current_range_meters":4400,"station_id":"ce4bhl12rcd13ifvqgf0","pricing_plan_id":"cebpf4jnsgd1na2vs0mg"},{"bike_id":"51f451e9-cfa6-41bf-9221-7d01fee83aaa","system_id":"levelo_inurba_marseille","lat":43.28702,"lon":5.39992,"is_reserved":false,"is_disabled":false,"rental_uris":{"android":"levelo://app?vid=51f451e9-cfa6-41bf-9221-7d01fee83aaa","ios":"levelo://app?vid=51f451e9-cfa6-41bf-9221-7d01fee83aaa"},"vehicle_type_id":"4","last_reported":1751396867,"current_range_meters":4400,"station_id":"ce4bho92rcd13ifvqh3g","pricing_plan_id":"cebpf4jnsgd1na2vs0mg"},{"bike_id":"162af4e6-d224-4240-aeac-6cb0ae06de53","system_id":"levelo_inurba_marseille","lat":43.2991,"lon":5.37857,"is_reserved":false,"is_disabled":false,"rental_uris":{"android":"levelo://app?vid=162af4e6-d224-4240-aeac-6cb0ae06de53","ios":"levelo://app?vid=162af4e6-d224-4240-aeac-6cb0ae06de53"},"vehicle_type_id":"4","last_reported":1751396867,"current_range_meters":4800,"station_id":"","pricing_plan_id":"cebpf4jnsgd1na2vs0mg"},{"bike_id":"eeeef851-11b9-4245-b505-4e8c5d5ceefc","system_id":"levelo_inurba_marseille","lat":43.3117,"lon":5.38711,"is_reserved":false,"is_disabled":false,"rental_uris":{"android":"levelo://app?vid=eeeef851-11b9-4245-b505-4e8c5d5ceefc","ios":"levelo://app?vid=eeeef851-11b9-4245-b505-4e8c5d5ceefc"},"vehicle_type_id":"4","last_reported":1751396867,"current_range_meters":4800,"station_id":"ce4bgv12rcd13ifvqcp0","pricing_plan_id":"cebpf4jnsgd1na2vs0mg"},{"bike_id":"ecde08d2-735f-420c-a322-f5e3ee257179","system_id":"levelo_inurba_marseille","lat":43.24679,"lon":5.38146,"is_reserved":false,"is_disabled":false,"rental_uris":{"android":"levelo://app?vid=ecde08d2-735f-420c-a322-f5e3ee257179","ios":"levelo://app?vid=ecde08d2-735f-420c-a322-f5e3ee257179"},"vehicle_type_id":"4","last_reported":1751396867,"current_range_meters":4800,"station_id":"ce4bhih2rcd13ifvqfr0","pricing_plan_id":"cebpf4jnsgd1na2vs0mg"},{"bike_id":"7af00c7f-8b3d-4e18-9a68-56f2a1307ad9","system_id":"levelo_inurba_marseille","lat":43.251102,"lon":5.4033,"is_reserved":false,"is_disabled":false,"rental_uris":{"android":"levelo://app?vid=7af00c7f-8b3d-4e18-9a68-56f2a1307ad9","ios":"levelo://app?vid=7af00c7f-8b3d-4e18-9a68-56f2a1307ad9"},"vehicle_type_id":"4","last_reported":1751396867,"current_range_meters":5600,"station_id":"ce4bhlh2rcd13ifvqgig","pricing_plan_id":"cebpf4jnsgd1na2vs0mg"},{"bike_id":"ca5d6aa8-97b4-47fe-b37d-2113ba9730c1","system_id":"levelo_inurba_marseille","lat":43.28622,"lon":5.35093,"is_reserved":false,"is_disabled":false,"rental_uris":{"android":"levelo://app?vid=ca5d6aa8-97b4-47fe-b37d-2113ba9730c1","ios":"levelo://app?vid=ca5d6aa8-97b4-47fe-b37d-2113ba9730c1"},"vehicle_type_id":"4","last_reported":1751396867,"current_range_meters":6000,"station_id":"ce4bhch2rcd13ifvqeug","pricing_plan_id":"cebpf4jnsgd1na2vs0mg"},{"bike_id":"71031ca0-8ea9-4cbc-baa2-858058ce4da1","system_id":"levelo_inurba_marseille","lat":43.25106,"lon":5.40329,"is_reserved":false,"is_disabled":false,"rental_uris":{"android":"levelo://app?vid=71031ca0-8ea9-4cbc-baa2-858058ce4da1","ios":"levelo://app?vid=71031ca0-8ea9-4cbc-baa2-858058ce4da1"},"vehicle_type_id":"4","last_reported":1751396867,"current_range_meters":6000,"station_id":"ce4bhlh2rcd13ifvqgig","pricing_plan_id":"cebpf4jnsgd1na2vs0mg"},{"bike_id":"dfd578c6-3028-47d8-bab5-a52655cbc8c2","system_id":"levelo_inurba_marseille","lat":43.21766,"lon":5.34579,"is_reserved":false,"is_disabled":false,"rental_uris":{"android":"levelo://app?vid=dfd578c6-3028-47d8-bab5-a52655cbc8c2","ios":"levelo://app?vid=dfd578c6-3028-47d8-bab5-a52655cbc8c2"},"vehicle_type_id":"4","last_reported":1751396867,"current_range_meters":6000,"station_id":"st_cvj6r9ubvosntc0bgbag","pricing_plan_id":"cebpf4jnsgd1na2vs0mg"},{"bike_id":"f5c16f07-bc6f-4121-91a7-5ad90eec4f34","system_id":"levelo_inurba_marseille","lat":43.312567,"lon":5.373227,"is_reserved":false,"is_disabled":false,"rental_uris":{"android":"levelo://app?vid=f5c16f07-bc6f-4121-91a7-5ad90eec4f34","ios":"levelo://app?vid=f5c16f07-bc6f-4121-91a7-5ad90eec4f34"},"vehicle_type_id":"4","last_reported":1751396867,"current_range_meters":6400,"station_id":"","pricing_plan_id":"cebpf4jnsgd1na2vs0mg"},{"bike_id":"9a052d6b-499c-4825-8006-505ce6d27825","system_id":"levelo_inurba_marseille","lat":43.305648,"lon":5.399301,"is_reserved":false,"is_disabled":false,"rental_uris":{"android":"levelo://app?vid=9a052d6b-499c-4825-8006-505ce6d27825","ios":"levelo://app?vid=9a052d6b-499c-4825-8006-505ce6d27825"},"vehicle_type_id":"4","last_reported":1751396867,"current_range_meters":6400,"station_id":"ce4bh012rcd13ifvqd00","pricing_plan_id":"cebpf4jnsgd1na2vs0mg"},{"bike_id":"b1534e2c-63cd-416a-b0be-9a6dd195407d","system_id":"levelo_inurba_marseille","lat":43.28617,"lon":5.35108,"is_reserved":false,"is_disabled":false,"rental_uris":{"android":"levelo://app?vid=b1534e2c-63cd-416a-b0be-9a6dd195407d","ios":"levelo://app?vid=b1534e2c-63cd-416a-b0be-9a6dd195407d"},"vehicle_type_id":"4","last_reported":1751396867,"current_range_meters":6400,"station_id":"ce4bhch2rcd13ifvqeug","pricing_plan_id":"cebpf4jnsgd1na2vs0mg"},{"bike_id":"5a124bb1-3994-4924-a0c5-936fd6d2ae7b","system_id":"levelo_inurba_marseille","lat":43.31886,"lon":5.40724,"is_reserved":false,"is_disabled":false,"rental_uris":{"android":"levelo://app?vid=5a124bb1-3994-4924-a0c5-936fd6d2ae7b","ios":"levelo://app?vid=5a124bb1-3994-4924-a0c5-936fd6d2ae7b"},"vehicle_type_id":"4","last_reported":1751396867,"current_range_meters":6400,"station_id":"ce4bhq12rcd13ifvqhig","pricing_plan_id":"cebpf4jnsgd1na2vs0mg"},{"bike_id":"43fcb430-53f7-4349-b49c-62f8e6ea8db4","system_id":"levelo_inurba_marseille","lat":43.28457,"lon":5.43684,"is_reserved":false,"is_disabled":false,"rental_uris":{"android":"levelo://app?vid=43fcb430-53f7-4349-b49c-62f8e6ea8db4","ios":"levelo://app?vid=43fcb430-53f7-4349-b49c-62f8e6ea8db4"},"vehicle_type_id":"4","last_reported":1751396867,"current_range_meters":6800,"station_id":"","pricing_plan_id":"cebpf4jnsgd1na2vs0mg"},{"bike_id":"f5dc943c-3e90-4ff4-b87f-fc374c52bd1c","system_id":"levelo_inurba_marseille","lat":43.28369,"lon":5.38626,"is_reserved":false,"is_disabled":false,"rental_uris":{"android":"levelo://app?vid=f5dc943c-3e90-4ff4-b87f-fc374c52bd1c","ios":"levelo://app?vid=f5dc943c-3e90-4ff4-b87f-fc374c52bd1c"},"vehicle_type_id":"4","last_reported":1751396867,"current_range_meters":6800,"station_id":"ce4bh492rcd13ifvqdvg","pricing_plan_id":"cebpf4jnsgd1na2vs0mg"},{"bike_id":"df5858b0-15af-4ac0-831b-855f712ce1a3","system_id":"levelo_inurba_marseille","lat":43.25107,"lon":5.4032,"is_reserved":false,"is_disabled":false,"rental_uris":{"android":"levelo://app?vid=df5858b0-15af-4ac0-831b-855f712ce1a3","ios":"levelo://app?vid=df5858b0-15af-4ac0-831b-855f712ce1a3"},"vehicle_type_id":"4","last_reported":1751396867,"current_range_meters":6800,"station_id":"ce4bhlh2rcd13ifvqgig","pricing_plan_id":"cebpf4jnsgd1na2vs0mg"},{"bike_id":"11590693-8f59-403f-8233-36266dcb0ddf","system_id":"levelo_inurba_marseille","lat":43.21753,"lon":5.34574,"is_reserved":false,"is_disabled":false,"rental_uris":{"android":"levelo://app?vid=11590693-8f59-403f-8233-36266dcb0ddf","ios":"levelo://app?vid=11590693-8f59-403f-8233-36266dcb0ddf"},"vehicle_type_id":"4","last_reported":1751396867,"current_range_meters":6800,"station_id":"st_cvj6r9ubvosntc0bgbag","pricing_plan_id":"cebpf4jnsgd1na2vs0mg"},{"bike_id":"5683d2b4-d960-4ce6-8162-df1a4f7e1426","system_id":"levelo_inurba_marseille","lat":43.31076,"lon":5.38344,"is_reserved":false,"is_disabled":false,"rental_uris":{"android":"levelo://app?vid=5683d2b4-d960-4ce6-8162-df1a4f7e1426","ios":"levelo://app?vid=5683d2b4-d960-4ce6-8162-df1a4f7e1426"},"vehicle_type_id":"4","last_reported":1751396867,"current_range_meters":7200,"station_id":"ce4bgv92rcd13ifvqcr0","pricing_plan_id":"cebpf4jnsgd1na2vs0mg"},{"bike_id":"ff4f7e8d-7313-49fa-811f-90d960faaaaf","system_id":"levelo_inurba_marseille","lat":43.2926,"lon":5.40901,"is_reserved":false,"is_disabled":false,"rental_uris":{"android":"levelo://app?vid=ff4f7e8d-7313-49fa-811f-90d960faaaaf","ios":"levelo://app?vid=ff4f7e8d-7313-49fa-811f-90d960faaaaf"},"vehicle_type_id":"4","last_reported":1751396867,"current_range_meters":7200,"station_id":"ce4bh192rcd13ifvqdc0","pricing_plan_id":"cebpf4jnsgd1na2vs0mg"},{"bike_id":"79b5e2fd-a905-485f-9994-22e80451facc","system_id":"levelo_inurba_marseille","lat":43.265,"lon":5.3954,"is_reserved":false,"is_disabled":false,"rental_uris":{"android":"levelo://app?vid=79b5e2fd-a905-485f-9994-22e80451facc","ios":"levelo://app?vid=79b5e2fd-a905-485f-9994-22e80451facc"},"vehicle_type_id":"4","last_reported":1751396867,"current_range_meters":7200,"station_id":"ce4bhi12rcd13ifvqfq0","pricing_plan_id":"cebpf4jnsgd1na2vs0mg"},{"bike_id":"8188e16a-647b-4126-a684-4fd9c69b6177","system_id":"levelo_inurba_marseille","lat":43.24165,"lon":5.36391,"is_reserved":false,"is_disabled":false,"rental_uris":{"android":"levelo://app?vid=8188e16a-647b-4126-a684-4fd9c69b6177","ios":"levelo://app?vid=8188e16a-647b-4126-a684-4fd9c69b6177"},"vehicle_type_id":"4","last_reported":1751396867,"current_range_meters":7200,"station_id":"cpo36qri1sfpv3e86is0","pricing_plan_id":"cebpf4jnsgd1na2vs0mg"},{"bike_id":"a2017121-8342-439c-9853-789b6ff0806f","system_id":"levelo_inurba_marseille","lat":43.21202,"lon":5.35054,"is_reserved":false,"is_disabled":false,"rental_uris":{"android":"levelo://app?vid=a2017121-8342-439c-9853-789b6ff0806f","ios":"levelo://app?vid=a2017121-8342-439c-9853-789b6ff0806f"},"vehicle_type_id":"4","last_reported":1751396867,"current_range_meters":7200,"station_id":"st_cvj6sg6p6f1abm77japg","pricing_plan_id":"cebpf4jnsgd1na2vs0mg"},{"bike_id":"700f356a-f724-40f4-8e59-7c8f93ae3f72","system_id":"levelo_inurba_marseille","lat":43.32426,"lon":5.36991,"is_reserved":false,"is_disabled":false,"rental_uris":{"android":"levelo://app?vid=700f356a-f724-40f4-8e59-7c8f93ae3f72","ios":"levelo://app?vid=700f356a-f724-40f4-8e59-7c8f93ae3f72"},"vehicle_type_id":"4","last_reported":1751396867,"current_range_meters":8000,"station_id":"","pricing_plan_id":"cebpf4jnsgd1na2vs0mg"},{"bike_id":"528c96a0-c895-42dc-9cb3-689fcbb509fc","system_id":"levelo_inurba_marseille","lat":43.31539,"lon":5.38014,"is_reserved":false,"is_disabled":false,"rental_uris":{"android":"levelo://app?vid=528c96a0-c895-42dc-9cb3-689fcbb509fc","ios":"levelo://app?vid=528c96a0-c895-42dc-9cb3-689fcbb509fc"},"vehicle_type_id":"4","last_reported":1751396867,"current_range_meters":8000,"station_id":"ce4bhsp2rcd13ifvqi50","pricing_plan_id":"cebpf4jnsgd1na2vs0mg"},{"bike_id":"fbcb5fbd-b346-4748-847b-725af6b166bd","system_id":"levelo_inurba_marseille","lat":43.26942,"lon":5.40252,"is_reserved":false,"is_disabled":false,"rental_uris":{"android":"levelo://app?vid=fbcb5fbd-b346-4748-847b-725af6b166bd","ios":"levelo://app?vid=fbcb5fbd-b346-4748-847b-725af6b166bd"},"vehicle_type_id":"4","last_reported":1751396867,"current_range_meters":8000,"station_id":"cjm6bp8fraef2m0cb0m0","pricing_plan_id":"cebpf4jnsgd1na2vs0mg"},{"bike_id":"ce8a265d-e545-4c2c-878c-da8c5d826814","system_id":"levelo_inurba_marseille","lat":43.29515,"lon":5.37494,"is_reserved":false,"is_disabled":false,"rental_uris":{"android":"levelo://app?vid=ce8a265d-e545-4c2c-878c-da8c5d826814","ios":"levelo://app?vid=ce8a265d-e545-4c2c-878c-da8c5d826814"},"vehicle_type_id":"4","last_reported":1751396867,"current_range_meters":8400,"station_id":"ce4bgkp2rcd13ifvqbmg","pricing_plan_id":"cebpf4jnsgd1na2vs0mg"},{"bike_id":"8252b44a-d048-4379-9209-2efa2e627825","system_id":"levelo_inurba_marseille","lat":43.292326,"lon":5.405705,"is_reserved":false,"is_disabled":false,"rental_uris":{"android":"levelo://app?vid=8252b44a-d048-4379-9209-2efa2e627825","ios":"levelo://app?vid=8252b44a-d048-4379-9209-2efa2e627825"},"vehicle_type_id":"4","last_reported":1751396867,"current_range_meters":8800,"station_id":"","pricing_plan_id":"cebpf4jnsgd1na2vs0mg"},{"bike_id":"3f0d1be3-df8c-406a-874a-8ed33449ff76","system_id":"levelo_inurba_marseille","lat":43.28617,"lon":5.35111,"is_reserved":false,"is_disabled":false,"rental_uris":{"android":"levelo://app?vid=3f0d1be3-df8c-406a-874a-8ed33449ff76","ios":"levelo://app?vid=3f0d1be3-df8c-406a-874a-8ed33449ff76"},"vehicle_type_id":"4","last_reported":1751396867,"current_range_meters":8800,"station_id":"","pricing_plan_id":"cebpf4jnsgd1na2vs0mg"},{"bike_id":"860ecc02-a6d5-4fbe-ada6-b9197deada15","system_id":"levelo_inurba_marseille","lat":43.32549,"lon":5.38964,"is_reserved":false,"is_disabled":false,"rental_uris":{"android":"levelo://app?vid=860ecc02-a6d5-4fbe-ada6-b9197deada15","ios":"levelo://app?vid=860ecc02-a6d5-4fbe-ada6-b9197deada15"},"vehicle_type_id":"4","last_reported":1751396867,"current_range_meters":8800,"station_id":"","pricing_plan_id":"cebpf4jnsgd1na2vs0mg"},{"bike_id":"28477ccc-cb48-44f2-8ac3-dc21d395da4f","system_id":"levelo_inurba_marseille","lat":43.22733,"lon":5.36577,"is_reserved":false,"is_disabled":false,"rental_uris":{"android":"levelo://app?vid=28477ccc-cb48-44f2-8ac3-dc21d395da4f","ios":"levelo://app?vid=28477ccc-cb48-44f2-8ac3-dc21d395da4f"},"vehicle_type_id":"4","last_reported":1751396867,"current_range_meters":8800,"station_id":"","pricing_plan_id":"cebpf4jnsgd1na2vs0mg"},{"bike_id":"671885ab-6872-4890-8856-f51ff0b03432","system_id":"levelo_inurba_marseille","lat":43.29592,"lon":5.38093,"is_reserved":false,"is_disabled":false,"rental_uris":{"android":"levelo://app?vid=671885ab-6872-4890-8856-f51ff0b03432","ios":"levelo://app?vid=671885ab-6872-4890-8856-f51ff0b03432"},"vehicle_type_id":"4","last_reported":1751396867,"current_range_meters":8800,"station_id":"ce4bgl12rcd13ifvqbo0","pricing_plan_id":"cebpf4jnsgd1na2vs0mg"},{"bike_id":"bcd6d41f-31a3-433a-998d-29f8d12fe903","system_id":"levelo_inurba_marseille","lat":43.31687,"lon":5.40473,"is_reserved":false,"is_disabled":false,"rental_uris":{"android":"levelo://app?vid=bcd6d41f-31a3-433a-998d-29f8d12fe903","ios":"levelo://app?vid=bcd6d41f-31a3-433a-998d-29f8d12fe903"},"vehicle_type_id":"4","last_reported":1751396867,"current_range_meters":9200,"station_id":"ce4bh012rcd13ifvqd00","pricing_plan_id":"cebpf4jnsgd1na2vs0mg"},{"bike_id":"306eb33e-8f50-4c2b-8c1d-e3c1d1d6a295","system_id":"levelo_inurba_marseille","lat":43.31544,"lon":5.38047,"is_reserved":false,"is_disabled":false,"rental_uris":{"android":"levelo://app?vid=306eb33e-8f50-4c2b-8c1d-e3c1d1d6a295","ios":"levelo://app?vid=306eb33e-8f50-4c2b-8c1d-e3c1d1d6a295"},"vehicle_type_id":"4","last_reported":1751396867,"current_range_meters":9200,"station_id":"ce4bhsp2rcd13ifvqi50","pricing_plan_id":"cebpf4jnsgd1na2vs0mg"},{"bike_id":"5fba6177-aa78-4856-9366-e4781b44d7ab","system_id":"levelo_inurba_marseille","lat":43.232,"lon":5.35542,"is_reserved":false,"is_disabled":false,"rental_uris":{"android":"levelo://app?vid=5fba6177-aa78-4856-9366-e4781b44d7ab","ios":"levelo://app?vid=5fba6177-aa78-4856-9366-e4781b44d7ab"},"vehicle_type_id":"4","last_reported":1751396867,"current_range_meters":9200,"station_id":"ce4bhu92rcd13ifvqi70","pricing_plan_id":"cebpf4jnsgd1na2vs0mg"},{"bike_id":"b2ec7371-4e1a-4f7b-ae6c-60c5a54c237b","system_id":"levelo_inurba_marseille","lat":43.212346,"lon":5.350683,"is_reserved":false,"is_disabled":false,"rental_uris":{"android":"levelo://app?vid=b2ec7371-4e1a-4f7b-ae6c-60c5a54c237b","ios":"levelo://app?vid=b2ec7371-4e1a-4f7b-ae6c-60c5a54c237b"},"vehicle_type_id":"4","last_reported":1751396867,"current_range_meters":9600,"station_id":"","pricing_plan_id":"cebpf4jnsgd1na2vs0mg"},{"bike_id":"9c43c2a1-13e7-4215-aef8-c2642ea3c6ef","system_id":"levelo_inurba_marseille","lat":43.30187,"lon":5.36605,"is_reserved":false,"is_disabled":false,"rental_uris":{"android":"levelo://app?vid=9c43c2a1-13e7-4215-aef8-c2642ea3c6ef","ios":"levelo://app?vid=9c43c2a1-13e7-4215-aef8-c2642ea3c6ef"},"vehicle_type_id":"4","last_reported":1751396867,"current_range_meters":9600,"station_id":"ce4bgrh2rcd13ifvqc8g","pricing_plan_id":"cebpf4jnsgd1na2vs0mg"},{"bike_id":"29e25bb2-3064-4ae1-9d44-dbcb35808fba","system_id":"levelo_inurba_marseille","lat":43.29007,"lon":5.35616,"is_reserved":false,"is_disabled":false,"rental_uris":{"android":"levelo://app?vid=29e25bb2-3064-4ae1-9d44-dbcb35808fba","ios":"levelo://app?vid=29e25bb2-3064-4ae1-9d44-dbcb35808fba"},"vehicle_type_id":"4","last_reported":1751396867,"current_range_meters":9600,"station_id":"ce4bhb92rcd13ifvqen0","pricing_plan_id":"cebpf4jnsgd1na2vs0mg"},{"bike_id":"a0ffdf28-d659-45dc-b870-b2d591eeef83","system_id":"levelo_inurba_marseille","lat":43.25729,"lon":5.41107,"is_reserved":false,"is_disabled":false,"rental_uris":{"android":"levelo://app?vid=a0ffdf28-d659-45dc-b870-b2d591eeef83","ios":"levelo://app?vid=a0ffdf28-d659-45dc-b870-b2d591eeef83"},"vehicle_type_id":"4","last_reported":1751396867,"current_range_meters":10000,"station_id":"ce4bhkp2rcd13ifvqgd0","pricing_plan_id":"cebpf4jnsgd1na2vs0mg"},{"bike_id":"db5e1108-3b00-40de-a042-0ca28d4d5d91","system_id":"levelo_inurba_marseille","lat":43.3243,"lon":5.37001,"is_reserved":false,"is_disabled":false,"rental_uris":{"android":"levelo://app?vid=db5e1108-3b00-40de-a042-0ca28d4d5d91","ios":"levelo://app?vid=db5e1108-3b00-40de-a042-0ca28d4d5d91"},"vehicle_type_id":"4","last_reported":1751396867,"current_range_meters":11200,"station_id":"","pricing_plan_id":"cebpf4jnsgd1na2vs0mg"},{"bike_id":"2bf234e8-f2d6-4875-860b-92e97b9eb47b","system_id":"levelo_inurba_marseille","lat":43.29598,"lon":5.38104,"is_reserved":false,"is_disabled":false,"rental_uris":{"android":"levelo://app?vid=2bf234e8-f2d6-4875-860b-92e97b9eb47b","ios":"levelo://app?vid=2bf234e8-f2d6-4875-860b-92e97b9eb47b"},"vehicle_type_id":"4","last_reported":1751396867,"current_range_meters":11200,"station_id":"ce4bgl12rcd13ifvqbo0","pricing_plan_id":"cebpf4jnsgd1na2vs0mg"},{"bike_id":"dfa55bdb-3f0c-420e-8dc0-80bb0cf84b34","system_id":"levelo_inurba_marseille","lat":43.30949,"lon":5.39053,"is_reserved":false,"is_disabled":false,"rental_uris":{"android":"levelo://app?vid=dfa55bdb-3f0c-420e-8dc0-80bb0cf84b34","ios":"levelo://app?vid=dfa55bdb-3f0c-420e-8dc0-80bb0cf84b34"},"vehicle_type_id":"4","last_reported":1751396867,"current_range_meters":11200,"station_id":"ce4bgup2rcd13ifvqco0","pricing_plan_id":"cebpf4jnsgd1na2vs0mg"},{"bike_id":"697363f6-1935-47ec-86f5-fd982ceca93e","system_id":"levelo_inurba_marseille","lat":43.30246,"lon":5.400655,"is_reserved":false,"is_disabled":false,"rental_uris":{"android":"levelo://app?vid=697363f6-1935-47ec-86f5-fd982ceca93e","ios":"levelo://app?vid=697363f6-1935-47ec-86f5-fd982ceca93e"},"vehicle_type_id":"4","last_reported":1751396867,"current_range_meters":11200,"station_id":"ce4bgvh2rcd13ifvqcs0","pricing_plan_id":"cebpf4jnsgd1na2vs0mg"},{"bike_id":"4a3359fd-b4d9-41d8-8479-e8ac093ea6e3","system_id":"levelo_inurba_marseille","lat":43.296929,"lon":5.393542,"is_reserved":false,"is_disabled":false,"rental_uris":{"android":"levelo://app?vid=4a3359fd-b4d9-41d8-8479-e8ac093ea6e3","ios":"levelo://app?vid=4a3359fd-b4d9-41d8-8479-e8ac093ea6e3"},"vehicle_type_id":"4","last_reported":1751396867,"current_range_meters":11200,"station_id":"ce4bh392rcd13ifvqdm0","pricing_plan_id":"cebpf4jnsgd1na2vs0mg"},{"bike_id":"3522b5fa-04f1-4639-bee8-dce946564556","system_id":"levelo_inurba_marseille","lat":43.25116,"lon":5.40298,"is_reserved":false,"is_disabled":false,"rental_uris":{"android":"levelo://app?vid=3522b5fa-04f1-4639-bee8-dce946564556","ios":"levelo://app?vid=3522b5fa-04f1-4639-bee8-dce946564556"},"vehicle_type_id":"4","last_reported":1751396867,"current_range_meters":11200,"station_id":"ce4bhlh2rcd13ifvqgig","pricing_plan_id":"cebpf4jnsgd1na2vs0mg"},{"bike_id":"bdc9577e-e8fa-4f06-963d-d64236829630","system_id":"levelo_inurba_marseille","lat":43.30377,"lon":5.4249,"is_reserved":false,"is_disabled":false,"rental_uris":{"android":"levelo://app?vid=bdc9577e-e8fa-4f06-963d-d64236829630","ios":"levelo://app?vid=bdc9577e-e8fa-4f06-963d-d64236829630"},"vehicle_type_id":"4","last_reported":1751396867,"current_range_meters":11200,"station_id":"ce4bhoh2rcd13ifvqh6g","pricing_plan_id":"cebpf4jnsgd1na2vs0mg"},{"bike_id":"2726f14f-8d32-4e17-9b3e-62cc809675e1","system_id":"levelo_inurba_marseille","lat":43.32096,"lon":5.36788,"is_reserved":false,"is_disabled":false,"rental_uris":{"android":"levelo://app?vid=2726f14f-8d32-4e17-9b3e-62cc809675e1","ios":"levelo://app?vid=2726f14f-8d32-4e17-9b3e-62cc809675e1"},"vehicle_type_id":"4","last_reported":1751396867,"current_range_meters":11200,"station_id":"ce4bhrh2rcd13ifvqhug","pricing_plan_id":"cebpf4jnsgd1na2vs0mg"},{"bike_id":"b28aa0a0-791c-4a08-9a16-c7bf6ea0ed5a","system_id":"levelo_inurba_marseille","lat":43.22508,"lon":5.34784,"is_reserved":false,"is_disabled":false,"rental_uris":{"android":"levelo://app?vid=b28aa0a0-791c-4a08-9a16-c7bf6ea0ed5a","ios":"levelo://app?vid=b28aa0a0-791c-4a08-9a16-c7bf6ea0ed5a"},"vehicle_type_id":"4","last_reported":1751396867,"current_range_meters":11200,"station_id":"st_cvj5dfep6f1abm77gieg","pricing_plan_id":"cebpf4jnsgd1na2vs0mg"},{"bike_id":"8f10a9ab-b2d1-48a1-84c5-75424f1b18f7","system_id":"levelo_inurba_marseille","lat":43.21191,"lon":5.35076,"is_reserved":false,"is_disabled":false,"rental_uris":{"android":"levelo://app?vid=8f10a9ab-b2d1-48a1-84c5-75424f1b18f7","ios":"levelo://app?vid=8f10a9ab-b2d1-48a1-84c5-75424f1b18f7"},"vehicle_type_id":"4","last_reported":1751396867,"current_range_meters":11200,"station_id":"st_cvj6sg6p6f1abm77japg","pricing_plan_id":"cebpf4jnsgd1na2vs0mg"},{"bike_id":"c2b72fe0-bae6-4c7b-ad48-9e771b203dc8","system_id":"levelo_inurba_marseille","lat":43.31371,"lon":5.38423,"is_reserved":false,"is_disabled":false,"rental_uris":{"android":"levelo://app?vid=c2b72fe0-bae6-4c7b-ad48-9e771b203dc8","ios":"levelo://app?vid=c2b72fe0-bae6-4c7b-ad48-9e771b203dc8"},"vehicle_type_id":"4","last_reported":1751396867,"current_range_meters":11600,"station_id":"","pricing_plan_id":"cebpf4jnsgd1na2vs0mg"},{"bike_id":"2b051b97-cd2b-4c4b-99f1-42c2f572b63e","system_id":"levelo_inurba_marseille","lat":43.27378,"lon":5.36245,"is_reserved":false,"is_disabled":false,"rental_uris":{"android":"levelo://app?vid=2b051b97-cd2b-4c4b-99f1-42c2f572b63e","ios":"levelo://app?vid=2b051b97-cd2b-4c4b-99f1-42c2f572b63e"},"vehicle_type_id":"4","last_reported":1751396867,"current_range_meters":11600,"station_id":"ce4bhbh2rcd13ifvqeo0","pricing_plan_id":"cebpf4jnsgd1na2vs0mg"},{"bike_id":"27e3b2c9-110a-4b9f-ab6b-cabab85b55cf","system_id":"levelo_inurba_marseille","lat":43.27375,"lon":5.36248,"is_reserved":false,"is_disabled":false,"rental_uris":{"android":"levelo://app?vid=27e3b2c9-110a-4b9f-ab6b-cabab85b55cf","ios":"levelo://app?vid=27e3b2c9-110a-4b9f-ab6b-cabab85b55cf"},"vehicle_type_id":"4","last_reported":1751396867,"current_range_meters":11600,"station_id":"ce4bhbh2rcd13ifvqeo0","pricing_plan_id":"cebpf4jnsgd1na2vs0mg"},{"bike_id":"c8d22af3-962c-4207-92a8-4bbce068467f","system_id":"levelo_inurba_marseille","lat":43.28415,"lon":5.34982,"is_reserved":false,"is_disabled":false,"rental_uris":{"android":"levelo://app?vid=c8d22af3-962c-4207-92a8-4bbce068467f","ios":"levelo://app?vid=c8d22af3-962c-4207-92a8-4bbce068467f"},"vehicle_type_id":"4","last_reported":1751396867,"current_range_meters":11600,"station_id":"ce4bhbh2rcd13ifvqepg","pricing_plan_id":"cebpf4jnsgd1na2vs0mg"},{"bike_id":"b58fcd9c-f51e-487c-9cf1-49362eb3ef58","system_id":"levelo_inurba_marseille","lat":43.26205,"lon":5.37421,"is_reserved":false,"is_disabled":false,"rental_uris":{"android":"levelo://app?vid=b58fcd9c-f51e-487c-9cf1-49362eb3ef58","ios":"levelo://app?vid=b58fcd9c-f51e-487c-9cf1-49362eb3ef58"},"vehicle_type_id":"4","last_reported":1751396867,"current_range_meters":11600,"station_id":"ce4bhgp2rcd13ifvqfc0","pricing_plan_id":"cebpf4jnsgd1na2vs0mg"},{"bike_id":"5631c7ea-fb56-4ee9-8df0-6e0aa2f0ff30","system_id":"levelo_inurba_marseille","lat":43.24179,"lon":5.36384,"is_reserved":false,"is_disabled":false,"rental_uris":{"android":"levelo://app?vid=5631c7ea-fb56-4ee9-8df0-6e0aa2f0ff30","ios":"levelo://app?vid=5631c7ea-fb56-4ee9-8df0-6e0aa2f0ff30"},"vehicle_type_id":"4","last_reported":1751396867,"current_range_meters":11600,"station_id":"cpo36qri1sfpv3e86is0","pricing_plan_id":"cebpf4jnsgd1na2vs0mg"},{"bike_id":"2fb02197-08a7-470a-8a78-9b9aa3b942b5","system_id":"levelo_inurba_marseille","lat":43.2885,"lon":5.39304,"is_reserved":false,"is_disabled":false,"rental_uris":{"android":"levelo://app?vid=2fb02197-08a7-470a-8a78-9b9aa3b942b5","ios":"levelo://app?vid=2fb02197-08a7-470a-8a78-9b9aa3b942b5"},"vehicle_type_id":"4","last_reported":1751396867,"current_range_meters":12000,"station_id":"ce4bh2p2rcd13ifvqdi0","pricing_plan_id":"cebpf4jnsgd1na2vs0mg"},{"bike_id":"8d169524-5b51-4b2e-a7cc-3d9e28add8e0","system_id":"levelo_inurba_marseille","lat":43.29783,"lon":5.39342,"is_reserved":false,"is_disabled":false,"rental_uris":{"android":"levelo://app?vid=8d169524-5b51-4b2e-a7cc-3d9e28add8e0","ios":"levelo://app?vid=8d169524-5b51-4b2e-a7cc-3d9e28add8e0"},"vehicle_type_id":"4","last_reported":1751396867,"current_range_meters":12000,"station_id":"chh1huq6cuj3fo74tm60","pricing_plan_id":"cebpf4jnsgd1na2vs0mg"},{"bike_id":"34ef8d19-abd3-418b-af23-9942dadb071a","system_id":"levelo_inurba_marseille","lat":43.211909,"lon":5.350684,"is_reserved":false,"is_disabled":false,"rental_uris":{"android":"levelo://app?vid=34ef8d19-abd3-418b-af23-9942dadb071a","ios":"levelo://app?vid=34ef8d19-abd3-418b-af23-9942dadb071a"},"vehicle_type_id":"4","last_reported":1751396867,"current_range_meters":12000,"station_id":"st_cvj6sg6p6f1abm77japg","pricing_plan_id":"cebpf4jnsgd1na2vs0mg"},{"bike_id":"19e92e89-599e-4d80-bd9a-08a9ae5167a7","system_id":"levelo_inurba_marseille","lat":43.28415,"lon":5.34973,"is_reserved":false,"is_disabled":false,"rental_uris":{"android":"levelo://app?vid=19e92e89-599e-4d80-bd9a-08a9ae5167a7","ios":"levelo://app?vid=19e92e89-599e-4d80-bd9a-08a9ae5167a7"},"vehicle_type_id":"4","last_reported":1751396867,"current_range_meters":12400,"station_id":"","pricing_plan_id":"cebpf4jnsgd1na2vs0mg"},{"bike_id":"df4497a6-5211-44f9-b40a-6baa3ffbdc6c","system_id":"levelo_inurba_marseille","lat":43.286133,"lon":5.351145,"is_reserved":false,"is_disabled":false,"rental_uris":{"android":"levelo://app?vid=df4497a6-5211-44f9-b40a-6baa3ffbdc6c","ios":"levelo://app?vid=df4497a6-5211-44f9-b40a-6baa3ffbdc6c"},"vehicle_type_id":"4","last_reported":1751396867,"current_range_meters":12400,"station_id":"ce4bhch2rcd13ifvqeug","pricing_plan_id":"cebpf4jnsgd1na2vs0mg"},{"bike_id":"c8888005-1a11-4ff3-a914-5330d050040e","system_id":"levelo_inurba_marseille","lat":43.28622,"lon":5.35084,"is_reserved":false,"is_disabled":false,"rental_uris":{"android":"levelo://app?vid=c8888005-1a11-4ff3-a914-5330d050040e","ios":"levelo://app?vid=c8888005-1a11-4ff3-a914-5330d050040e"},"vehicle_type_id":"4","last_reported":1751396867,"current_range_meters":12400,"station_id":"ce4bhch2rcd13ifvqeug","pricing_plan_id":"cebpf4jnsgd1na2vs0mg"},{"bike_id":"56d3de08-12a7-4dea-a817-9cf3afdd62f6","system_id":"levelo_inurba_marseille","lat":43.25494,"lon":5.37656,"is_reserved":false,"is_disabled":false,"rental_uris":{"android":"levelo://app?vid=56d3de08-12a7-4dea-a817-9cf3afdd62f6","ios":"levelo://app?vid=56d3de08-12a7-4dea-a817-9cf3afdd62f6"},"vehicle_type_id":"4","last_reported":1751396867,"current_range_meters":12400,"station_id":"ce4bhh12rcd13ifvqff0","pricing_plan_id":"cebpf4jnsgd1na2vs0mg"},{"bike_id":"90ce7e90-95bd-4081-9891-d55c2be6138a","system_id":"levelo_inurba_marseille","lat":43.25502,"lon":5.37646,"is_reserved":false,"is_disabled":false,"rental_uris":{"android":"levelo://app?vid=90ce7e90-95bd-4081-9891-d55c2be6138a","ios":"levelo://app?vid=90ce7e90-95bd-4081-9891-d55c2be6138a"},"vehicle_type_id":"4","last_reported":1751396867,"current_range_meters":12400,"station_id":"ce4bhh12rcd13ifvqff0","pricing_plan_id":"cebpf4jnsgd1na2vs0mg"},{"bike_id":"252598c3-3c4a-4eff-a16e-1ef0af2219e3","system_id":"levelo_inurba_marseille","lat":43.28149,"lon":5.42666,"is_reserved":false,"is_disabled":false,"rental_uris":{"android":"levelo://app?vid=252598c3-3c4a-4eff-a16e-1ef0af2219e3","ios":"levelo://app?vid=252598c3-3c4a-4eff-a16e-1ef0af2219e3"},"vehicle_type_id":"4","last_reported":1751396867,"current_range_meters":12800,"station_id":"ce4bhnh2rcd13ifvqgug","pricing_plan_id":"cebpf4jnsgd1na2vs0mg"},{"bike_id":"c0228700-5312-4a39-89af-ec53a5d729c5","system_id":"levelo_inurba_marseille","lat":43.28297,"lon":5.43255,"is_reserved":false,"is_disabled":false,"rental_uris":{"android":"levelo://app?vid=c0228700-5312-4a39-89af-ec53a5d729c5","ios":"levelo://app?vid=c0228700-5312-4a39-89af-ec53a5d729c5"},"vehicle_type_id":"4","last_reported":1751396867,"current_range_meters":13600,"station_id":"","pricing_plan_id":"cebpf4jnsgd1na2vs0mg"},{"bike_id":"c61036a9-1a66-4480-8bd4-cd2fb585b287","system_id":"levelo_inurba_marseille","lat":43.2699,"lon":5.40546,"is_reserved":false,"is_disabled":false,"rental_uris":{"android":"levelo://app?vid=c61036a9-1a66-4480-8bd4-cd2fb585b287","ios":"levelo://app?vid=c61036a9-1a66-4480-8bd4-cd2fb585b287"},"vehicle_type_id":"4","last_reported":1751396867,"current_range_meters":13600,"station_id":"","pricing_plan_id":"cebpf4jnsgd1na2vs0mg"},{"bike_id":"8b73520d-2f9c-47bc-809a-5ab2b3c2a068","system_id":"levelo_inurba_marseille","lat":43.29805,"lon":5.38112,"is_reserved":false,"is_disabled":false,"rental_uris":{"android":"levelo://app?vid=8b73520d-2f9c-47bc-809a-5ab2b3c2a068","ios":"levelo://app?vid=8b73520d-2f9c-47bc-809a-5ab2b3c2a068"},"vehicle_type_id":"4","last_reported":1751396867,"current_range_meters":13600,"station_id":"ce4bgip2rcd13ifvqbb0","pricing_plan_id":"cebpf4jnsgd1na2vs0mg"},{"bike_id":"42fb00dd-3753-4073-8935-341299bd67a6","system_id":"levelo_inurba_marseille","lat":43.29443,"lon":5.39748,"is_reserved":false,"is_disabled":false,"rental_uris":{"android":"levelo://app?vid=42fb00dd-3753-4073-8935-341299bd67a6","ios":"levelo://app?vid=42fb00dd-3753-4073-8935-341299bd67a6"},"vehicle_type_id":"4","last_reported":1751396867,"current_range_meters":13600,"station_id":"ce4bh3h2rcd13ifvqdo0","pricing_plan_id":"cebpf4jnsgd1na2vs0mg"},{"bike_id":"b52d6b86-9077-4452-89c5-b3a84ca0a422","system_id":"levelo_inurba_marseille","lat":43.28842,"lon":5.35851,"is_reserved":false,"is_disabled":false,"rental_uris":{"android":"levelo://app?vid=b52d6b86-9077-4452-89c5-b3a84ca0a422","ios":"levelo://app?vid=b52d6b86-9077-4452-89c5-b3a84ca0a422"},"vehicle_type_id":"4","last_reported":1751396867,"current_range_meters":13600,"station_id":"ce4bhb12rcd13ifvqem0","pricing_plan_id":"cebpf4jnsgd1na2vs0mg"},{"bike_id":"81992fe8-b1ca-4291-86c6-3056f2675e75","system_id":"levelo_inurba_marseille","lat":43.28437,"lon":5.34983,"is_reserved":false,"is_disabled":false,"rental_uris":{"android":"levelo://app?vid=81992fe8-b1ca-4291-86c6-3056f2675e75","ios":"levelo://app?vid=81992fe8-b1ca-4291-86c6-3056f2675e75"},"vehicle_type_id":"4","last_reported":1751396867,"current_range_meters":13600,"station_id":"ce4bhbh2rcd13ifvqepg","pricing_plan_id":"cebpf4jnsgd1na2vs0mg"},{"bike_id":"eaa743bb-1442-4775-b2ce-e6736935a0bb","system_id":"levelo_inurba_marseille","lat":43.2408,"lon":5.37751,"is_reserved":false,"is_disabled":false,"rental_uris":{"android":"levelo://app?vid=eaa743bb-1442-4775-b2ce-e6736935a0bb","ios":"levelo://app?vid=eaa743bb-1442-4775-b2ce-e6736935a0bb"},"vehicle_type_id":"4","last_reported":1751396867,"current_range_meters":13600,"station_id":"ce4bhnp2rcd13ifvqgvg","pricing_plan_id":"cebpf4jnsgd1na2vs0mg"},{"bike_id":"65945ded-d469-47d4-bf97-e782bb88d6cf","system_id":"levelo_inurba_marseille","lat":43.23199,"lon":5.35531,"is_reserved":false,"is_disabled":false,"rental_uris":{"android":"levelo://app?vid=65945ded-d469-47d4-bf97-e782bb88d6cf","ios":"levelo://app?vid=65945ded-d469-47d4-bf97-e782bb88d6cf"},"vehicle_type_id":"4","last_reported":1751396867,"current_range_meters":13600,"station_id":"ce4bhu92rcd13ifvqi70","pricing_plan_id":"cebpf4jnsgd1na2vs0mg"},{"bike_id":"05a46e58-dffa-4150-b434-a50556785ed5","system_id":"levelo_inurba_marseille","lat":43.27617,"lon":5.36106,"is_reserved":false,"is_disabled":false,"rental_uris":{"android":"levelo://app?vid=05a46e58-dffa-4150-b434-a50556785ed5","ios":"levelo://app?vid=05a46e58-dffa-4150-b434-a50556785ed5"},"vehicle_type_id":"4","last_reported":1751396867,"current_range_meters":14000,"station_id":"ce4bgj92rcd13ifvqbe0","pricing_plan_id":"cebpf4jnsgd1na2vs0mg"},{"bike_id":"35571d05-0931-4d45-a152-9c35b7482126","system_id":"levelo_inurba_marseille","lat":43.28568,"lon":5.39487,"is_reserved":false,"is_disabled":false,"rental_uris":{"android":"levelo://app?vid=35571d05-0931-4d45-a152-9c35b7482126","ios":"levelo://app?vid=35571d05-0931-4d45-a152-9c35b7482126"},"vehicle_type_id":"4","last_reported":1751396867,"current_range_meters":14000,"station_id":"ce4bh292rcd13ifvqdg0","pricing_plan_id":"cebpf4jnsgd1na2vs0mg"},{"bike_id":"5ff643b2-ceaf-4da3-974c-bb84c287f26e","system_id":"levelo_inurba_marseille","lat":43.27368,"lon":5.36248,"is_reserved":false,"is_disabled":false,"rental_uris":{"android":"levelo://app?vid=5ff643b2-ceaf-4da3-974c-bb84c287f26e","ios":"levelo://app?vid=5ff643b2-ceaf-4da3-974c-bb84c287f26e"},"vehicle_type_id":"4","last_reported":1751396867,"current_range_meters":14000,"station_id":"ce4bhbh2rcd13ifvqeo0","pricing_plan_id":"cebpf4jnsgd1na2vs0mg"},{"bike_id":"aae11252-3d45-45e5-a32a-3cde8805070e","system_id":"levelo_inurba_marseille","lat":43.28415,"lon":5.34973,"is_reserved":false,"is_disabled":false,"rental_uris":{"android":"levelo://app?vid=aae11252-3d45-45e5-a32a-3cde8805070e","ios":"levelo://app?vid=aae11252-3d45-45e5-a32a-3cde8805070e"},"vehicle_type_id":"4","last_reported":1751396867,"current_range_meters":14000,"station_id":"ce4bhbh2rcd13ifvqepg","pricing_plan_id":"cebpf4jnsgd1na2vs0mg"},{"bike_id":"c9c105f9-0237-44ff-ba3a-0e13e99086a3","system_id":"levelo_inurba_marseille","lat":43.28437,"lon":5.34944,"is_reserved":false,"is_disabled":false,"rental_uris":{"android":"levelo://app?vid=c9c105f9-0237-44ff-ba3a-0e13e99086a3","ios":"levelo://app?vid=c9c105f9-0237-44ff-ba3a-0e13e99086a3"},"vehicle_type_id":"4","last_reported":1751396867,"current_range_meters":14000,"station_id":"ce4bhbh2rcd13ifvqepg","pricing_plan_id":"cebpf4jnsgd1na2vs0mg"},{"bike_id":"d35201d9-b996-4862-9184-10cc9ccbfabd","system_id":"levelo_inurba_marseille","lat":43.28268,"lon":5.35054,"is_reserved":false,"is_disabled":false,"rental_uris":{"android":"levelo://app?vid=d35201d9-b996-4862-9184-10cc9ccbfabd","ios":"levelo://app?vid=d35201d9-b996-4862-9184-10cc9ccbfabd"},"vehicle_type_id":"4","last_reported":1751396867,"current_range_meters":14000,"station_id":"ce4bhbp2rcd13ifvqerg","pricing_plan_id":"cebpf4jnsgd1na2vs0mg"},{"bike_id":"54d07b9c-15ee-4d3e-a003-17a1d66cb9b0","system_id":"levelo_inurba_marseille","lat":43.24804,"lon":5.37454,"is_reserved":false,"is_disabled":false,"rental_uris":{"android":"levelo://app?vid=54d07b9c-15ee-4d3e-a003-17a1d66cb9b0","ios":"levelo://app?vid=54d07b9c-15ee-4d3e-a003-17a1d66cb9b0"},"vehicle_type_id":"4","last_reported":1751396867,"current_range_meters":14000,"station_id":"ce4bhgh2rcd13ifvqfb0","pricing_plan_id":"cebpf4jnsgd1na2vs0mg"},{"bike_id":"ce999047-75d2-4c6e-a917-50a5c955c153","system_id":"levelo_inurba_marseille","lat":43.25499,"lon":5.37649,"is_reserved":false,"is_disabled":false,"rental_uris":{"android":"levelo://app?vid=ce999047-75d2-4c6e-a917-50a5c955c153","ios":"levelo://app?vid=ce999047-75d2-4c6e-a917-50a5c955c153"},"vehicle_type_id":"4","last_reported":1751396867,"current_range_meters":14000,"station_id":"ce4bhh12rcd13ifvqff0","pricing_plan_id":"cebpf4jnsgd1na2vs0mg"},{"bike_id":"bbe4ccb3-7aa4-4da0-9051-c7c2900e028d","system_id":"levelo_inurba_marseille","lat":43.31531,"lon":5.38031,"is_reserved":false,"is_disabled":false,"rental_uris":{"android":"levelo://app?vid=bbe4ccb3-7aa4-4da0-9051-c7c2900e028d","ios":"levelo://app?vid=bbe4ccb3-7aa4-4da0-9051-c7c2900e028d"},"vehicle_type_id":"4","last_reported":1751396867,"current_range_meters":14000,"station_id":"ce4bhsp2rcd13ifvqi50","pricing_plan_id":"cebpf4jnsgd1na2vs0mg"},{"bike_id":"86fa6ce7-8cbe-47ff-b5d3-c2b4938fd05c","system_id":"levelo_inurba_marseille","lat":43.21144,"lon":5.35169,"is_reserved":false,"is_disabled":false,"rental_uris":{"android":"levelo://app?vid=86fa6ce7-8cbe-47ff-b5d3-c2b4938fd05c","ios":"levelo://app?vid=86fa6ce7-8cbe-47ff-b5d3-c2b4938fd05c"},"vehicle_type_id":"4","last_reported":1751396867,"current_range_meters":14400,"station_id":"","pricing_plan_id":"cebpf4jnsgd1na2vs0mg"},{"bike_id":"6f5b38b0-c8b7-42ab-a114-d904ae4095f5","system_id":"levelo_inurba_marseille","lat":43.27623,"lon":5.36085,"is_reserved":false,"is_disabled":false,"rental_uris":{"android":"levelo://app?vid=6f5b38b0-c8b7-42ab-a114-d904ae4095f5","ios":"levelo://app?vid=6f5b38b0-c8b7-42ab-a114-d904ae4095f5"},"vehicle_type_id":"4","last_reported":1751396867,"current_range_meters":14400,"station_id":"ce4bgj92rcd13ifvqbe0","pricing_plan_id":"cebpf4jnsgd1na2vs0mg"},{"bike_id":"9eb07496-515a-424d-a1b3-7c6177672a79","system_id":"levelo_inurba_marseille","lat":43.27374,"lon":5.36256,"is_reserved":false,"is_disabled":false,"rental_uris":{"android":"levelo://app?vid=9eb07496-515a-424d-a1b3-7c6177672a79","ios":"levelo://app?vid=9eb07496-515a-424d-a1b3-7c6177672a79"},"vehicle_type_id":"4","last_reported":1751396867,"current_range_meters":14400,"station_id":"ce4bhbh2rcd13ifvqeo0","pricing_plan_id":"cebpf4jnsgd1na2vs0mg"},{"bike_id":"6d2dafdb-3fed-4910-a6db-83a1227c7e5c","system_id":"levelo_inurba_marseille","lat":43.28403,"lon":5.34977,"is_reserved":false,"is_disabled":false,"rental_uris":{"android":"levelo://app?vid=6d2dafdb-3fed-4910-a6db-83a1227c7e5c","ios":"levelo://app?vid=6d2dafdb-3fed-4910-a6db-83a1227c7e5c"},"vehicle_type_id":"4","last_reported":1751396867,"current_range_meters":14400,"station_id":"ce4bhbh2rcd13ifvqepg","pricing_plan_id":"cebpf4jnsgd1na2vs0mg"},{"bike_id":"8fb72fa9-b78e-4af6-82f5-d33e8af1b452","system_id":"levelo_inurba_marseille","lat":43.24805,"lon":5.37444,"is_reserved":false,"is_disabled":false,"rental_uris":{"android":"levelo://app?vid=8fb72fa9-b78e-4af6-82f5-d33e8af1b452","ios":"levelo://app?vid=8fb72fa9-b78e-4af6-82f5-d33e8af1b452"},"vehicle_type_id":"4","last_reported":1751396867,"current_range_meters":14400,"station_id":"ce4bhgh2rcd13ifvqfb0","pricing_plan_id":"cebpf4jnsgd1na2vs0mg"},{"bike_id":"6335e18e-9829-4571-82f7-23b6ce10fe5e","system_id":"levelo_inurba_marseille","lat":43.24178,"lon":5.36385,"is_reserved":false,"is_disabled":false,"rental_uris":{"android":"levelo://app?vid=6335e18e-9829-4571-82f7-23b6ce10fe5e","ios":"levelo://app?vid=6335e18e-9829-4571-82f7-23b6ce10fe5e"},"vehicle_type_id":"4","last_reported":1751396867,"current_range_meters":14400,"station_id":"cpo36qri1sfpv3e86is0","pricing_plan_id":"cebpf4jnsgd1na2vs0mg"},{"bike_id":"d88c62f7-4031-47e8-af99-cd6fa34c8f67","system_id":"levelo_inurba_marseille","lat":43.293766,"lon":5.375087,"is_reserved":false,"is_disabled":false,"rental_uris":{"android":"levelo://app?vid=d88c62f7-4031-47e8-af99-cd6fa34c8f67","ios":"levelo://app?vid=d88c62f7-4031-47e8-af99-cd6fa34c8f67"},"vehicle_type_id":"4","last_reported":1751396867,"current_range_meters":14800,"station_id":"ce4bgjh2rcd13ifvqbf0","pricing_plan_id":"cebpf4jnsgd1na2vs0mg"},{"bike_id":"69ccb601-0626-403c-bb47-ad2a0197e32c","system_id":"levelo_inurba_marseille","lat":43.31477,"lon":5.37278,"is_reserved":false,"is_disabled":false,"rental_uris":{"android":"levelo://app?vid=69ccb601-0626-403c-bb47-ad2a0197e32c","ios":"levelo://app?vid=69ccb601-0626-403c-bb47-ad2a0197e32c"},"vehicle_type_id":"4","last_reported":1751396867,"current_range_meters":14800,"station_id":"ce4bgt12rcd13ifvqcd0","pricing_plan_id":"cebpf4jnsgd1na2vs0mg"},{"bike_id":"a90b8d7c-37fd-48a3-b51c-c6f4ab67fafd","system_id":"levelo_inurba_marseille","lat":43.25727,"lon":5.41105,"is_reserved":false,"is_disabled":false,"rental_uris":{"android":"levelo://app?vid=a90b8d7c-37fd-48a3-b51c-c6f4ab67fafd","ios":"levelo://app?vid=a90b8d7c-37fd-48a3-b51c-c6f4ab67fafd"},"vehicle_type_id":"4","last_reported":1751396867,"current_range_meters":14800,"station_id":"ce4bhkp2rcd13ifvqgd0","pricing_plan_id":"cebpf4jnsgd1na2vs0mg"},{"bike_id":"433157f3-83a0-4d8e-8e82-55672158873a","system_id":"levelo_inurba_marseille","lat":43.26228,"lon":5.4045,"is_reserved":false,"is_disabled":false,"rental_uris":{"android":"levelo://app?vid=433157f3-83a0-4d8e-8e82-55672158873a","ios":"levelo://app?vid=433157f3-83a0-4d8e-8e82-55672158873a"},"vehicle_type_id":"4","last_reported":1751396867,"current_range_meters":14800,"station_id":"ce4bhmh2rcd13ifvqgmg","pricing_plan_id":"cebpf4jnsgd1na2vs0mg"},{"bike_id":"67987346-74b7-4d7a-a0b0-a5b639073d23","system_id":"levelo_inurba_marseille","lat":43.23154,"lon":5.43713,"is_reserved":false,"is_disabled":false,"rental_uris":{"android":"levelo://app?vid=67987346-74b7-4d7a-a0b0-a5b639073d23","ios":"levelo://app?vid=67987346-74b7-4d7a-a0b0-a5b639073d23"},"vehicle_type_id":"4","last_reported":1751396867,"current_range_meters":14800,"station_id":"ce4bhmp2rcd13ifvqgog","pricing_plan_id":"cebpf4jnsgd1na2vs0mg"},{"bike_id":"9f572d31-1cc8-4b74-9794-4de6b1619f10","system_id":"levelo_inurba_marseille","lat":43.29959,"lon":5.41322,"is_reserved":false,"is_disabled":false,"rental_uris":{"android":"levelo://app?vid=9f572d31-1cc8-4b74-9794-4de6b1619f10","ios":"levelo://app?vid=9f572d31-1cc8-4b74-9794-4de6b1619f10"},"vehicle_type_id":"4","last_reported":1751396867,"current_range_meters":14800,"station_id":"ce4bhp12rcd13ifvqh9g","pricing_plan_id":"cebpf4jnsgd1na2vs0mg"},{"bike_id":"39b6888d-58e4-4d91-b73c-294945f07694","system_id":"levelo_inurba_marseille","lat":43.27599,"lon":5.36123,"is_reserved":false,"is_disabled":false,"rental_uris":{"android":"levelo://app?vid=39b6888d-58e4-4d91-b73c-294945f07694","ios":"levelo://app?vid=39b6888d-58e4-4d91-b73c-294945f07694"},"vehicle_type_id":"4","last_reported":1751396867,"current_range_meters":15200,"station_id":"ce4bgj92rcd13ifvqbe0","pricing_plan_id":"cebpf4jnsgd1na2vs0mg"},{"bike_id":"da264ec6-9ee6-4d15-b6d2-f884412a1d9f","system_id":"levelo_inurba_marseille","lat":43.298737,"lon":5.389145,"is_reserved":false,"is_disabled":false,"rental_uris":{"android":"levelo://app?vid=da264ec6-9ee6-4d15-b6d2-f884412a1d9f","ios":"levelo://app?vid=da264ec6-9ee6-4d15-b6d2-f884412a1d9f"},"vehicle_type_id":"4","last_reported":1751396867,"current_range_meters":15200,"station_id":"ce4bh392rcd13ifvqdl0","pricing_plan_id":"cebpf4jnsgd1na2vs0mg"},{"bike_id":"d8bf671c-fe52-40f5-8928-9706614a426b","system_id":"levelo_inurba_marseille","lat":43.29516,"lon":5.39036,"is_reserved":false,"is_disabled":false,"rental_uris":{"android":"levelo://app?vid=d8bf671c-fe52-40f5-8928-9706614a426b","ios":"levelo://app?vid=d8bf671c-fe52-40f5-8928-9706614a426b"},"vehicle_type_id":"4","last_reported":1751396867,"current_range_meters":15200,"station_id":"ce4bh3p2rcd13ifvqdp0","pricing_plan_id":"cebpf4jnsgd1na2vs0mg"},{"bike_id":"b1994596-3991-480c-a6ce-f7e39a4fb1b5","system_id":"levelo_inurba_marseille","lat":43.292887,"lon":5.384618,"is_reserved":false,"is_disabled":false,"rental_uris":{"android":"levelo://app?vid=b1994596-3991-480c-a6ce-f7e39a4fb1b5","ios":"levelo://app?vid=b1994596-3991-480c-a6ce-f7e39a4fb1b5"},"vehicle_type_id":"4","last_reported":1751396867,"current_range_meters":15200,"station_id":"ce4bhb12rcd13ifvqel0","pricing_plan_id":"cebpf4jnsgd1na2vs0mg"},{"bike_id":"8d7ceb5e-34f7-4569-acba-5c3b948bbbcd","system_id":"levelo_inurba_marseille","lat":43.31769,"lon":5.38999,"is_reserved":false,"is_disabled":false,"rental_uris":{"android":"levelo://app?vid=8d7ceb5e-34f7-4569-acba-5c3b948bbbcd","ios":"levelo://app?vid=8d7ceb5e-34f7-4569-acba-5c3b948bbbcd"},"vehicle_type_id":"4","last_reported":1751396867,"current_range_meters":15200,"station_id":"ce4bhqp2rcd13ifvqhng","pricing_plan_id":"cebpf4jnsgd1na2vs0mg"},{"bike_id":"4885ce13-1691-4ab1-8f84-23edfb3318ba","system_id":"levelo_inurba_marseille","lat":43.23198,"lon":5.35536,"is_reserved":false,"is_disabled":false,"rental_uris":{"android":"levelo://app?vid=4885ce13-1691-4ab1-8f84-23edfb3318ba","ios":"levelo://app?vid=4885ce13-1691-4ab1-8f84-23edfb3318ba"},"vehicle_type_id":"4","last_reported":1751396867,"current_range_meters":15200,"station_id":"ce4bhu92rcd13ifvqi70","pricing_plan_id":"cebpf4jnsgd1na2vs0mg"},{"bike_id":"539ed013-9e80-448a-999f-a7819f54786a","system_id":"levelo_inurba_marseille","lat":43.290309,"lon":5.375668,"is_reserved":false,"is_disabled":false,"rental_uris":{"android":"levelo://app?vid=539ed013-9e80-448a-999f-a7819f54786a","ios":"levelo://app?vid=539ed013-9e80-448a-999f-a7819f54786a"},"vehicle_type_id":"4","last_reported":1751396867,"current_range_meters":16000,"station_id":"","pricing_plan_id":"cebpf4jnsgd1na2vs0mg"},{"bike_id":"a0cef316-ad95-4855-8f78-a31341a2b90e","system_id":"levelo_inurba_marseille","lat":43.31213,"lon":5.37857,"is_reserved":false,"is_disabled":false,"rental_uris":{"android":"levelo://app?vid=a0cef316-ad95-4855-8f78-a31341a2b90e","ios":"levelo://app?vid=a0cef316-ad95-4855-8f78-a31341a2b90e"},"vehicle_type_id":"4","last_reported":1751396867,"current_range_meters":16000,"station_id":"","pricing_plan_id":"cebpf4jnsgd1na2vs0mg"},{"bike_id":"0c875ca2-b595-4bce-992b-05cd47004c56","system_id":"levelo_inurba_marseille","lat":43.29967,"lon":5.38495,"is_reserved":false,"is_disabled":false,"rental_uris":{"android":"levelo://app?vid=0c875ca2-b595-4bce-992b-05cd47004c56","ios":"levelo://app?vid=0c875ca2-b595-4bce-992b-05cd47004c56"},"vehicle_type_id":"4","last_reported":1751396867,"current_range_meters":16000,"station_id":"ce4bgj92rcd13ifvqbd0","pricing_plan_id":"cebpf4jnsgd1na2vs0mg"},{"bike_id":"71ca88b7-a791-414e-9907-e36aaceb23e6","system_id":"levelo_inurba_marseille","lat":43.29012,"lon":5.35616,"is_reserved":false,"is_disabled":false,"rental_uris":{"android":"levelo://app?vid=71ca88b7-a791-414e-9907-e36aaceb23e6","ios":"levelo://app?vid=71ca88b7-a791-414e-9907-e36aaceb23e6"},"vehicle_type_id":"4","last_reported":1751396867,"current_range_meters":16000,"station_id":"ce4bhb92rcd13ifvqen0","pricing_plan_id":"cebpf4jnsgd1na2vs0mg"},{"bike_id":"1bd133a6-32c5-4068-8cff-ddbe80fd0c31","system_id":"levelo_inurba_marseille","lat":43.273753,"lon":5.36257,"is_reserved":false,"is_disabled":false,"rental_uris":{"android":"levelo://app?vid=1bd133a6-32c5-4068-8cff-ddbe80fd0c31","ios":"levelo://app?vid=1bd133a6-32c5-4068-8cff-ddbe80fd0c31"},"vehicle_type_id":"4","last_reported":1751396867,"current_range_meters":16000,"station_id":"ce4bhbh2rcd13ifvqeo0","pricing_plan_id":"cebpf4jnsgd1na2vs0mg"},{"bike_id":"13cfaeb4-4a0c-4726-a045-850c28fdddcf","system_id":"levelo_inurba_marseille","lat":43.28417,"lon":5.34965,"is_reserved":false,"is_disabled":false,"rental_uris":{"android":"levelo://app?vid=13cfaeb4-4a0c-4726-a045-850c28fdddcf","ios":"levelo://app?vid=13cfaeb4-4a0c-4726-a045-850c28fdddcf"},"vehicle_type_id":"4","last_reported":1751396867,"current_range_meters":16000,"station_id":"ce4bhbh2rcd13ifvqepg","pricing_plan_id":"cebpf4jnsgd1na2vs0mg"},{"bike_id":"60aed5b4-04a7-4930-a9c4-5540cdbcfb8b","system_id":"levelo_inurba_marseille","lat":43.33772,"lon":5.37442,"is_reserved":false,"is_disabled":false,"rental_uris":{"android":"levelo://app?vid=60aed5b4-04a7-4930-a9c4-5540cdbcfb8b","ios":"levelo://app?vid=60aed5b4-04a7-4930-a9c4-5540cdbcfb8b"},"vehicle_type_id":"4","last_reported":1751396867,"current_range_meters":16400,"station_id":"","pricing_plan_id":"cebpf4jnsgd1na2vs0mg"},{"bike_id":"8a74f5cd-9efa-4362-bea7-a32db4dcc85c","system_id":"levelo_inurba_marseille","lat":43.21202,"lon":5.35031,"is_reserved":false,"is_disabled":false,"rental_uris":{"android":"levelo://app?vid=8a74f5cd-9efa-4362-bea7-a32db4dcc85c","ios":"levelo://app?vid=8a74f5cd-9efa-4362-bea7-a32db4dcc85c"},"vehicle_type_id":"4","last_reported":1751396867,"current_range_meters":16400,"station_id":"","pricing_plan_id":"cebpf4jnsgd1na2vs0mg"},{"bike_id":"f1b6bdd0-6e44-43a0-a0d1-4c967470767c","system_id":"levelo_inurba_marseille","lat":43.27615,"lon":5.36093,"is_reserved":false,"is_disabled":false,"rental_uris":{"android":"levelo://app?vid=f1b6bdd0-6e44-43a0-a0d1-4c967470767c","ios":"levelo://app?vid=f1b6bdd0-6e44-43a0-a0d1-4c967470767c"},"vehicle_type_id":"4","last_reported":1751396867,"current_range_meters":16400,"station_id":"ce4bgj92rcd13ifvqbe0","pricing_plan_id":"cebpf4jnsgd1na2vs0mg"},{"bike_id":"edd3f5ea-c0b4-44a7-96c4-f5251efb23ed","system_id":"levelo_inurba_marseille","lat":43.2841,"lon":5.34986,"is_reserved":false,"is_disabled":false,"rental_uris":{"android":"levelo://app?vid=edd3f5ea-c0b4-44a7-96c4-f5251efb23ed","ios":"levelo://app?vid=edd3f5ea-c0b4-44a7-96c4-f5251efb23ed"},"vehicle_type_id":"4","last_reported":1751396867,"current_range_meters":16400,"station_id":"ce4bhbh2rcd13ifvqepg","pricing_plan_id":"cebpf4jnsgd1na2vs0mg"},{"bike_id":"4a9ff1bf-13ad-4c04-9a23-a0f501234339","system_id":"levelo_inurba_marseille","lat":43.29788,"lon":5.39342,"is_reserved":false,"is_disabled":false,"rental_uris":{"android":"levelo://app?vid=4a9ff1bf-13ad-4c04-9a23-a0f501234339","ios":"levelo://app?vid=4a9ff1bf-13ad-4c04-9a23-a0f501234339"},"vehicle_type_id":"4","last_reported":1751396867,"current_range_meters":16400,"station_id":"chh1huq6cuj3fo74tm60","pricing_plan_id":"cebpf4jnsgd1na2vs0mg"},{"bike_id":"6c124b47-0683-47f1-b3b4-7281f296c87c","system_id":"levelo_inurba_marseille","lat":43.30735,"lon":5.42439,"is_reserved":false,"is_disabled":false,"rental_uris":{"android":"levelo://app?vid=6c124b47-0683-47f1-b3b4-7281f296c87c","ios":"levelo://app?vid=6c124b47-0683-47f1-b3b4-7281f296c87c"},"vehicle_type_id":"4","last_reported":1751396867,"current_range_meters":16400,"station_id":"st_cvj6ca6bvosntc0bfgr0","pricing_plan_id":"cebpf4jnsgd1na2vs0mg"},{"bike_id":"0c1b4f74-5294-4b59-932d-b742ce647d9e","system_id":"levelo_inurba_marseille","lat":43.21196,"lon":5.35071,"is_reserved":false,"is_disabled":false,"rental_uris":{"android":"levelo://app?vid=0c1b4f74-5294-4b59-932d-b742ce647d9e","ios":"levelo://app?vid=0c1b4f74-5294-4b59-932d-b742ce647d9e"},"vehicle_type_id":"4","last_reported":1751396867,"current_range_meters":16400,"station_id":"st_cvj6sg6p6f1abm77japg","pricing_plan_id":"cebpf4jnsgd1na2vs0mg"},{"bike_id":"ea6b2da3-f476-4100-b9d0-3df0062383e4","system_id":"levelo_inurba_marseille","lat":43.31323,"lon":5.39677,"is_reserved":false,"is_disabled":false,"rental_uris":{"android":"levelo://app?vid=ea6b2da3-f476-4100-b9d0-3df0062383e4","ios":"levelo://app?vid=ea6b2da3-f476-4100-b9d0-3df0062383e4"},"vehicle_type_id":"4","last_reported":1751396867,"current_range_meters":16800,"station_id":"ce4bgvp2rcd13ifvqcu0","pricing_plan_id":"cebpf4jnsgd1na2vs0mg"},{"bike_id":"b8c91516-b548-4a73-9681-e305426bcf4d","system_id":"levelo_inurba_marseille","lat":43.294109,"lon":5.386367,"is_reserved":false,"is_disabled":false,"rental_uris":{"android":"levelo://app?vid=b8c91516-b548-4a73-9681-e305426bcf4d","ios":"levelo://app?vid=b8c91516-b548-4a73-9681-e305426bcf4d"},"vehicle_type_id":"4","last_reported":1751396867,"current_range_meters":16800,"station_id":"ce4bh2h2rcd13ifvqdh0","pricing_plan_id":"cebpf4jnsgd1na2vs0mg"},{"bike_id":"c2cc3873-3136-4ba7-984d-6514f2a6bcc2","system_id":"levelo_inurba_marseille","lat":43.26692,"lon":5.3827,"is_reserved":false,"is_disabled":false,"rental_uris":{"android":"levelo://app?vid=c2cc3873-3136-4ba7-984d-6514f2a6bcc2","ios":"levelo://app?vid=c2cc3873-3136-4ba7-984d-6514f2a6bcc2"},"vehicle_type_id":"4","last_reported":1751396867,"current_range_meters":16800,"station_id":"ce4bhg92rcd13ifvqf90","pricing_plan_id":"cebpf4jnsgd1na2vs0mg"},{"bike_id":"5b98455f-b23d-4aa7-bdf8-9d5b2fcb61f9","system_id":"levelo_inurba_marseille","lat":43.26214,"lon":5.37439,"is_reserved":false,"is_disabled":false,"rental_uris":{"android":"levelo://app?vid=5b98455f-b23d-4aa7-bdf8-9d5b2fcb61f9","ios":"levelo://app?vid=5b98455f-b23d-4aa7-bdf8-9d5b2fcb61f9"},"vehicle_type_id":"4","last_reported":1751396867,"current_range_meters":16800,"station_id":"ce4bhgp2rcd13ifvqfc0","pricing_plan_id":"cebpf4jnsgd1na2vs0mg"},{"bike_id":"79731cb3-beca-4911-967f-e759b6fe8234","system_id":"levelo_inurba_marseille","lat":43.24165,"lon":5.36387,"is_reserved":false,"is_disabled":false,"rental_uris":{"android":"levelo://app?vid=79731cb3-beca-4911-967f-e759b6fe8234","ios":"levelo://app?vid=79731cb3-beca-4911-967f-e759b6fe8234"},"vehicle_type_id":"4","last_reported":1751396867,"current_range_meters":16800,"station_id":"cpo36qri1sfpv3e86is0","pricing_plan_id":"cebpf4jnsgd1na2vs0mg"},{"bike_id":"1e6b9f52-da41-4d6b-90e7-4aee7cbf4f90","system_id":"levelo_inurba_marseille","lat":43.28539,"lon":5.35233,"is_reserved":false,"is_disabled":false,"rental_uris":{"android":"levelo://app?vid=1e6b9f52-da41-4d6b-90e7-4aee7cbf4f90","ios":"levelo://app?vid=1e6b9f52-da41-4d6b-90e7-4aee7cbf4f90"},"vehicle_type_id":"4","last_reported":1751396867,"current_range_meters":17200,"station_id":"","pricing_plan_id":"cebpf4jnsgd1na2vs0mg"},{"bike_id":"f2f4d984-5460-4e1e-a60d-14e2b345a288","system_id":"levelo_inurba_marseille","lat":43.276217,"lon":5.360963,"is_reserved":false,"is_disabled":false,"rental_uris":{"android":"levelo://app?vid=f2f4d984-5460-4e1e-a60d-14e2b345a288","ios":"levelo://app?vid=f2f4d984-5460-4e1e-a60d-14e2b345a288"},"vehicle_type_id":"4","last_reported":1751396867,"current_range_meters":17200,"station_id":"ce4bgj92rcd13ifvqbe0","pricing_plan_id":"cebpf4jnsgd1na2vs0mg"},{"bike_id":"3e68e6b5-f7dd-4895-96d4-76eb7d1dfe2b","system_id":"levelo_inurba_marseille","lat":43.27369,"lon":5.36254,"is_reserved":false,"is_disabled":false,"rental_uris":{"android":"levelo://app?vid=3e68e6b5-f7dd-4895-96d4-76eb7d1dfe2b","ios":"levelo://app?vid=3e68e6b5-f7dd-4895-96d4-76eb7d1dfe2b"},"vehicle_type_id":"4","last_reported":1751396867,"current_range_meters":17200,"station_id":"ce4bhbh2rcd13ifvqeo0","pricing_plan_id":"cebpf4jnsgd1na2vs0mg"},{"bike_id":"27ee8c69-20b9-425a-ae6a-518170670268","system_id":"levelo_inurba_marseille","lat":43.28411,"lon":5.3499,"is_reserved":false,"is_disabled":false,"rental_uris":{"android":"levelo://app?vid=27ee8c69-20b9-425a-ae6a-518170670268","ios":"levelo://app?vid=27ee8c69-20b9-425a-ae6a-518170670268"},"vehicle_type_id":"4","last_reported":1751396867,"current_range_meters":17200,"station_id":"ce4bhbh2rcd13ifvqepg","pricing_plan_id":"cebpf4jnsgd1na2vs0mg"},{"bike_id":"fdcc33b3-b27b-4fd9-90cb-c9421efe9db6","system_id":"levelo_inurba_marseille","lat":43.27816,"lon":5.41436,"is_reserved":false,"is_disabled":false,"rental_uris":{"android":"levelo://app?vid=fdcc33b3-b27b-4fd9-90cb-c9421efe9db6","ios":"levelo://app?vid=fdcc33b3-b27b-4fd9-90cb-c9421efe9db6"},"vehicle_type_id":"4","last_reported":1751396867,"current_range_meters":17600,"station_id":"","pricing_plan_id":"cebpf4jnsgd1na2vs0mg"},{"bike_id":"f00e3044-9bd1-48b5-b342-151af21b34fa","system_id":"levelo_inurba_marseille","lat":43.29972,"lon":5.37413,"is_reserved":false,"is_disabled":false,"rental_uris":{"android":"levelo://app?vid=f00e3044-9bd1-48b5-b342-151af21b34fa","ios":"levelo://app?vid=f00e3044-9bd1-48b5-b342-151af21b34fa"},"vehicle_type_id":"4","last_reported":1751396867,"current_range_meters":17600,"station_id":"","pricing_plan_id":"cebpf4jnsgd1na2vs0mg"},{"bike_id":"4fabd3a5-7463-4683-b2f9-bddf7890ef73","system_id":"levelo_inurba_marseille","lat":43.297045,"lon":5.366069,"is_reserved":false,"is_disabled":false,"rental_uris":{"android":"levelo://app?vid=4fabd3a5-7463-4683-b2f9-bddf7890ef73","ios":"levelo://app?vid=4fabd3a5-7463-4683-b2f9-bddf7890ef73"},"vehicle_type_id":"4","last_reported":1751396867,"current_range_meters":17600,"station_id":"ce4bgn12rcd13ifvqbt0","pricing_plan_id":"cebpf4jnsgd1na2vs0mg"},{"bike_id":"f1ce4e11-602a-4e34-a29a-09d78ef1e202","system_id":"levelo_inurba_marseille","lat":43.27374,"lon":5.36253,"is_reserved":false,"is_disabled":false,"rental_uris":{"android":"levelo://app?vid=f1ce4e11-602a-4e34-a29a-09d78ef1e202","ios":"levelo://app?vid=f1ce4e11-602a-4e34-a29a-09d78ef1e202"},"vehicle_type_id":"4","last_reported":1751396867,"current_range_meters":17600,"station_id":"ce4bhbh2rcd13ifvqeo0","pricing_plan_id":"cebpf4jnsgd1na2vs0mg"},{"bike_id":"7602910a-4b6c-416a-9775-c22c923f55d8","system_id":"levelo_inurba_marseille","lat":43.28403,"lon":5.34983,"is_reserved":false,"is_disabled":false,"rental_uris":{"android":"levelo://app?vid=7602910a-4b6c-416a-9775-c22c923f55d8","ios":"levelo://app?vid=7602910a-4b6c-416a-9775-c22c923f55d8"},"vehicle_type_id":"4","last_reported":1751396867,"current_range_meters":17600,"station_id":"ce4bhbh2rcd13ifvqepg","pricing_plan_id":"cebpf4jnsgd1na2vs0mg"},{"bike_id":"06582479-ddab-442b-aa48-7598470b3769","system_id":"levelo_inurba_marseille","lat":43.28428,"lon":5.34957,"is_reserved":false,"is_disabled":false,"rental_uris":{"android":"levelo://app?vid=06582479-ddab-442b-aa48-7598470b3769","ios":"levelo://app?vid=06582479-ddab-442b-aa48-7598470b3769"},"vehicle_type_id":"4","last_reported":1751396867,"current_range_meters":17600,"station_id":"ce4bhbh2rcd13ifvqepg","pricing_plan_id":"cebpf4jnsgd1na2vs0mg"},{"bike_id":"d0f90c24-dd03-411b-9731-55305f76b7c8","system_id":"levelo_inurba_marseille","lat":43.21189,"lon":5.35077,"is_reserved":false,"is_disabled":false,"rental_uris":{"android":"levelo://app?vid=d0f90c24-dd03-411b-9731-55305f76b7c8","ios":"levelo://app?vid=d0f90c24-dd03-411b-9731-55305f76b7c8"},"vehicle_type_id":"4","last_reported":1751396867,"current_range_meters":17600,"station_id":"st_cvj6sg6p6f1abm77japg","pricing_plan_id":"cebpf4jnsgd1na2vs0mg"},{"bike_id":"19a21bdb-bd56-4b04-a136-b58308a07980","system_id":"levelo_inurba_marseille","lat":43.30931,"lon":5.40142,"is_reserved":false,"is_disabled":false,"rental_uris":{"android":"levelo://app?vid=19a21bdb-bd56-4b04-a136-b58308a07980","ios":"levelo://app?vid=19a21bdb-bd56-4b04-a136-b58308a07980"},"vehicle_type_id":"4","last_reported":1751396867,"current_range_meters":18000,"station_id":"ce4bgvp2rcd13ifvqct0","pricing_plan_id":"cebpf4jnsgd1na2vs0mg"},{"bike_id":"9e44a7d5-a7c5-4ce2-95ba-4430822fc248","system_id":"levelo_inurba_marseille","lat":43.29006,"lon":5.35602,"is_reserved":false,"is_disabled":false,"rental_uris":{"android":"levelo://app?vid=9e44a7d5-a7c5-4ce2-95ba-4430822fc248","ios":"levelo://app?vid=9e44a7d5-a7c5-4ce2-95ba-4430822fc248"},"vehicle_type_id":"4","last_reported":1751396867,"current_range_meters":18000,"station_id":"ce4bhb92rcd13ifvqen0","pricing_plan_id":"cebpf4jnsgd1na2vs0mg"},{"bike_id":"336949c2-8153-44fd-9fba-b021979430ac","system_id":"levelo_inurba_marseille","lat":43.28418,"lon":5.34976,"is_reserved":false,"is_disabled":false,"rental_uris":{"android":"levelo://app?vid=336949c2-8153-44fd-9fba-b021979430ac","ios":"levelo://app?vid=336949c2-8153-44fd-9fba-b021979430ac"},"vehicle_type_id":"4","last_reported":1751396867,"current_range_meters":18000,"station_id":"ce4bhbh2rcd13ifvqepg","pricing_plan_id":"cebpf4jnsgd1na2vs0mg"},{"bike_id":"81c8180c-fbb4-475e-b542-ebaf0d473aaa","system_id":"levelo_inurba_marseille","lat":43.28609,"lon":5.35117,"is_reserved":false,"is_disabled":false,"rental_uris":{"android":"levelo://app?vid=81c8180c-fbb4-475e-b542-ebaf0d473aaa","ios":"levelo://app?vid=81c8180c-fbb4-475e-b542-ebaf0d473aaa"},"vehicle_type_id":"4","last_reported":1751396867,"current_range_meters":18000,"station_id":"ce4bhch2rcd13ifvqeug","pricing_plan_id":"cebpf4jnsgd1na2vs0mg"},{"bike_id":"a27ff6b4-e899-4c5e-8bea-60a658eb8afc","system_id":"levelo_inurba_marseille","lat":43.28612,"lon":5.35075,"is_reserved":false,"is_disabled":false,"rental_uris":{"android":"levelo://app?vid=a27ff6b4-e899-4c5e-8bea-60a658eb8afc","ios":"levelo://app?vid=a27ff6b4-e899-4c5e-8bea-60a658eb8afc"},"vehicle_type_id":"4","last_reported":1751396867,"current_range_meters":18000,"station_id":"ce4bhch2rcd13ifvqeug","pricing_plan_id":"cebpf4jnsgd1na2vs0mg"},{"bike_id":"2162e21f-e598-43bd-8af6-121c9398e7b4","system_id":"levelo_inurba_marseille","lat":43.26208,"lon":5.37441,"is_reserved":false,"is_disabled":false,"rental_uris":{"android":"levelo://app?vid=2162e21f-e598-43bd-8af6-121c9398e7b4","ios":"levelo://app?vid=2162e21f-e598-43bd-8af6-121c9398e7b4"},"vehicle_type_id":"4","last_reported":1751396867,"current_range_meters":18000,"station_id":"ce4bhgp2rcd13ifvqfc0","pricing_plan_id":"cebpf4jnsgd1na2vs0mg"},{"bike_id":"d8f4e68a-05c3-4caa-aa92-c12d8cb440f9","system_id":"levelo_inurba_marseille","lat":43.23952,"lon":5.36641,"is_reserved":false,"is_disabled":false,"rental_uris":{"android":"levelo://app?vid=d8f4e68a-05c3-4caa-aa92-c12d8cb440f9","ios":"levelo://app?vid=d8f4e68a-05c3-4caa-aa92-c12d8cb440f9"},"vehicle_type_id":"4","last_reported":1751396867,"current_range_meters":18000,"station_id":"ce4bhi12rcd13ifvqfp0","pricing_plan_id":"cebpf4jnsgd1na2vs0mg"},{"bike_id":"bb928a7e-9a48-4b41-bcfa-365470219d12","system_id":"levelo_inurba_marseille","lat":43.25825,"lon":5.39439,"is_reserved":false,"is_disabled":false,"rental_uris":{"android":"levelo://app?vid=bb928a7e-9a48-4b41-bcfa-365470219d12","ios":"levelo://app?vid=bb928a7e-9a48-4b41-bcfa-365470219d12"},"vehicle_type_id":"4","last_reported":1751396867,"current_range_meters":18000,"station_id":"ce4bhip2rcd13ifvqft0","pricing_plan_id":"cebpf4jnsgd1na2vs0mg"},{"bike_id":"81b9753f-aa28-4513-89a4-3ee72628d38d","system_id":"levelo_inurba_marseille","lat":43.32104,"lon":5.36766,"is_reserved":false,"is_disabled":false,"rental_uris":{"android":"levelo://app?vid=81b9753f-aa28-4513-89a4-3ee72628d38d","ios":"levelo://app?vid=81b9753f-aa28-4513-89a4-3ee72628d38d"},"vehicle_type_id":"4","last_reported":1751396867,"current_range_meters":18000,"station_id":"ce4bhrh2rcd13ifvqhug","pricing_plan_id":"cebpf4jnsgd1na2vs0mg"},{"bike_id":"cfc0aa67-590a-4038-b894-cb7b8f074cc7","system_id":"levelo_inurba_marseille","lat":43.21749,"lon":5.34596,"is_reserved":false,"is_disabled":false,"rental_uris":{"android":"levelo://app?vid=cfc0aa67-590a-4038-b894-cb7b8f074cc7","ios":"levelo://app?vid=cfc0aa67-590a-4038-b894-cb7b8f074cc7"},"vehicle_type_id":"4","last_reported":1751396867,"current_range_meters":18000,"station_id":"st_cvj6r9ubvosntc0bgbag","pricing_plan_id":"cebpf4jnsgd1na2vs0mg"},{"bike_id":"dbe6a7d8-6edc-4015-8658-f68eeb46a661","system_id":"levelo_inurba_marseille","lat":43.33576,"lon":5.39862,"is_reserved":false,"is_disabled":false,"rental_uris":{"android":"levelo://app?vid=dbe6a7d8-6edc-4015-8658-f68eeb46a661","ios":"levelo://app?vid=dbe6a7d8-6edc-4015-8658-f68eeb46a661"},"vehicle_type_id":"4","last_reported":1751396867,"current_range_meters":18800,"station_id":"","pricing_plan_id":"cebpf4jnsgd1na2vs0mg"},{"bike_id":"7e62b058-a7ed-4634-80f1-04d3de596de7","system_id":"levelo_inurba_marseille","lat":43.29862,"lon":5.36803,"is_reserved":false,"is_disabled":false,"rental_uris":{"android":"levelo://app?vid=7e62b058-a7ed-4634-80f1-04d3de596de7","ios":"levelo://app?vid=7e62b058-a7ed-4634-80f1-04d3de596de7"},"vehicle_type_id":"4","last_reported":1751396867,"current_range_meters":18800,"station_id":"","pricing_plan_id":"cebpf4jnsgd1na2vs0mg"},{"bike_id":"97fa710a-eace-45ba-95d5-2ef2f80c9f05","system_id":"levelo_inurba_marseille","lat":43.29003,"lon":5.35604,"is_reserved":false,"is_disabled":false,"rental_uris":{"android":"levelo://app?vid=97fa710a-eace-45ba-95d5-2ef2f80c9f05","ios":"levelo://app?vid=97fa710a-eace-45ba-95d5-2ef2f80c9f05"},"vehicle_type_id":"4","last_reported":1751396867,"current_range_meters":18800,"station_id":"ce4bhb92rcd13ifvqen0","pricing_plan_id":"cebpf4jnsgd1na2vs0mg"},{"bike_id":"77dbff9d-b090-48f7-a3f3-8d26a3c274c1","system_id":"levelo_inurba_marseille","lat":43.27378,"lon":5.36248,"is_reserved":false,"is_disabled":false,"rental_uris":{"android":"levelo://app?vid=77dbff9d-b090-48f7-a3f3-8d26a3c274c1","ios":"levelo://app?vid=77dbff9d-b090-48f7-a3f3-8d26a3c274c1"},"vehicle_type_id":"4","last_reported":1751396867,"current_range_meters":18800,"station_id":"ce4bhbh2rcd13ifvqeo0","pricing_plan_id":"cebpf4jnsgd1na2vs0mg"},{"bike_id":"32e95b8a-2368-4221-8e36-d2eb0c4c23b7","system_id":"levelo_inurba_marseille","lat":43.27362,"lon":5.36248,"is_reserved":false,"is_disabled":false,"rental_uris":{"android":"levelo://app?vid=32e95b8a-2368-4221-8e36-d2eb0c4c23b7","ios":"levelo://app?vid=32e95b8a-2368-4221-8e36-d2eb0c4c23b7"},"vehicle_type_id":"4","last_reported":1751396867,"current_range_meters":18800,"station_id":"ce4bhbh2rcd13ifvqeo0","pricing_plan_id":"cebpf4jnsgd1na2vs0mg"},{"bike_id":"dc4251f3-81b6-4e41-b5a5-62a769c36411","system_id":"levelo_inurba_marseille","lat":43.24193,"lon":5.36383,"is_reserved":false,"is_disabled":false,"rental_uris":{"android":"levelo://app?vid=dc4251f3-81b6-4e41-b5a5-62a769c36411","ios":"levelo://app?vid=dc4251f3-81b6-4e41-b5a5-62a769c36411"},"vehicle_type_id":"4","last_reported":1751396867,"current_range_meters":18800,"station_id":"cpo36qri1sfpv3e86is0","pricing_plan_id":"cebpf4jnsgd1na2vs0mg"},{"bike_id":"ae1c182d-0a5a-4871-b62e-0240f515d4fd","system_id":"levelo_inurba_marseille","lat":43.21749,"lon":5.346013,"is_reserved":false,"is_disabled":false,"rental_uris":{"android":"levelo://app?vid=ae1c182d-0a5a-4871-b62e-0240f515d4fd","ios":"levelo://app?vid=ae1c182d-0a5a-4871-b62e-0240f515d4fd"},"vehicle_type_id":"4","last_reported":1751396867,"current_range_meters":18800,"station_id":"st_cvj6r9ubvosntc0bgbag","pricing_plan_id":"cebpf4jnsgd1na2vs0mg"},{"bike_id":"0e030323-4386-4e72-9a0d-0f6a2ff539de","system_id":"levelo_inurba_marseille","lat":43.29614,"lon":5.40546,"is_reserved":false,"is_disabled":false,"rental_uris":{"android":"levelo://app?vid=0e030323-4386-4e72-9a0d-0f6a2ff539de","ios":"levelo://app?vid=0e030323-4386-4e72-9a0d-0f6a2ff539de"},"vehicle_type_id":"4","last_reported":1751396867,"current_range_meters":19200,"station_id":"ce4bh0h2rcd13ifvqd60","pricing_plan_id":"cebpf4jnsgd1na2vs0mg"},{"bike_id":"8c6eefb4-1bf6-474c-9605-25863bcc8a5d","system_id":"levelo_inurba_marseille","lat":43.28422,"lon":5.3497,"is_reserved":false,"is_disabled":false,"rental_uris":{"android":"levelo://app?vid=8c6eefb4-1bf6-474c-9605-25863bcc8a5d","ios":"levelo://app?vid=8c6eefb4-1bf6-474c-9605-25863bcc8a5d"},"vehicle_type_id":"4","last_reported":1751396867,"current_range_meters":19200,"station_id":"ce4bhbh2rcd13ifvqepg","pricing_plan_id":"cebpf4jnsgd1na2vs0mg"},{"bike_id":"50b82030-7151-4ba0-a981-9eb0853b7d5d","system_id":"levelo_inurba_marseille","lat":43.28609,"lon":5.3508,"is_reserved":false,"is_disabled":false,"rental_uris":{"android":"levelo://app?vid=50b82030-7151-4ba0-a981-9eb0853b7d5d","ios":"levelo://app?vid=50b82030-7151-4ba0-a981-9eb0853b7d5d"},"vehicle_type_id":"4","last_reported":1751396867,"current_range_meters":19200,"station_id":"ce4bhch2rcd13ifvqeug","pricing_plan_id":"cebpf4jnsgd1na2vs0mg"},{"bike_id":"df9ecd7f-0000-4b5a-88bb-cca2b3f25bf8","system_id":"levelo_inurba_marseille","lat":43.24665,"lon":5.38902,"is_reserved":false,"is_disabled":false,"rental_uris":{"android":"levelo://app?vid=df9ecd7f-0000-4b5a-88bb-cca2b3f25bf8","ios":"levelo://app?vid=df9ecd7f-0000-4b5a-88bb-cca2b3f25bf8"},"vehicle_type_id":"4","last_reported":1751396867,"current_range_meters":19200,"station_id":"ce4bhg12rcd13ifvqf60","pricing_plan_id":"cebpf4jnsgd1na2vs0mg"},{"bike_id":"a9c84572-7f9c-4fe2-af34-9288548a808b","system_id":"levelo_inurba_marseille","lat":43.25499,"lon":5.37647,"is_reserved":false,"is_disabled":false,"rental_uris":{"android":"levelo://app?vid=a9c84572-7f9c-4fe2-af34-9288548a808b","ios":"levelo://app?vid=a9c84572-7f9c-4fe2-af34-9288548a808b"},"vehicle_type_id":"4","last_reported":1751396867,"current_range_meters":19200,"station_id":"ce4bhh12rcd13ifvqff0","pricing_plan_id":"cebpf4jnsgd1na2vs0mg"},{"bike_id":"c1b68901-0d39-4f0c-8212-90b65249b4bf","system_id":"levelo_inurba_marseille","lat":43.25106,"lon":5.40321,"is_reserved":false,"is_disabled":false,"rental_uris":{"android":"levelo://app?vid=c1b68901-0d39-4f0c-8212-90b65249b4bf","ios":"levelo://app?vid=c1b68901-0d39-4f0c-8212-90b65249b4bf"},"vehicle_type_id":"4","last_reported":1751396867,"current_range_meters":19200,"station_id":"ce4bhlh2rcd13ifvqgig","pricing_plan_id":"cebpf4jnsgd1na2vs0mg"},{"bike_id":"bcfd0eda-b9ab-4bec-9ca3-3f2b86617415","system_id":"levelo_inurba_marseille","lat":43.21192,"lon":5.35069,"is_reserved":false,"is_disabled":false,"rental_uris":{"android":"levelo://app?vid=bcfd0eda-b9ab-4bec-9ca3-3f2b86617415","ios":"levelo://app?vid=bcfd0eda-b9ab-4bec-9ca3-3f2b86617415"},"vehicle_type_id":"4","last_reported":1751396867,"current_range_meters":19200,"station_id":"st_cvj6sg6p6f1abm77japg","pricing_plan_id":"cebpf4jnsgd1na2vs0mg"},{"bike_id":"d4c73a67-6ae9-4da7-86b1-c540a417377a","system_id":"levelo_inurba_marseille","lat":43.32553,"lon":5.41053,"is_reserved":false,"is_disabled":false,"rental_uris":{"android":"levelo://app?vid=d4c73a67-6ae9-4da7-86b1-c540a417377a","ios":"levelo://app?vid=d4c73a67-6ae9-4da7-86b1-c540a417377a"},"vehicle_type_id":"4","last_reported":1751396867,"current_range_meters":19600,"station_id":"","pricing_plan_id":"cebpf4jnsgd1na2vs0mg"},{"bike_id":"16a8afe6-e43e-4d1b-a7bd-ed83d113735a","system_id":"levelo_inurba_marseille","lat":43.32436,"lon":5.41185,"is_reserved":false,"is_disabled":false,"rental_uris":{"android":"levelo://app?vid=16a8afe6-e43e-4d1b-a7bd-ed83d113735a","ios":"levelo://app?vid=16a8afe6-e43e-4d1b-a7bd-ed83d113735a"},"vehicle_type_id":"4","last_reported":1751396867,"current_range_meters":19600,"station_id":"","pricing_plan_id":"cebpf4jnsgd1na2vs0mg"},{"bike_id":"218fa6d1-1e97-4166-a65e-f7f93691c393","system_id":"levelo_inurba_marseille","lat":43.27383,"lon":5.36238,"is_reserved":false,"is_disabled":false,"rental_uris":{"android":"levelo://app?vid=218fa6d1-1e97-4166-a65e-f7f93691c393","ios":"levelo://app?vid=218fa6d1-1e97-4166-a65e-f7f93691c393"},"vehicle_type_id":"4","last_reported":1751396867,"current_range_meters":19600,"station_id":"ce4bhbh2rcd13ifvqeo0","pricing_plan_id":"cebpf4jnsgd1na2vs0mg"},{"bike_id":"d4fb4850-343f-4ba0-b38e-bff6d3d7ea5a","system_id":"levelo_inurba_marseille","lat":43.292148,"lon":5.360354,"is_reserved":false,"is_disabled":false,"rental_uris":{"android":"levelo://app?vid=d4fb4850-343f-4ba0-b38e-bff6d3d7ea5a","ios":"levelo://app?vid=d4fb4850-343f-4ba0-b38e-bff6d3d7ea5a"},"vehicle_type_id":"4","last_reported":1751396867,"current_range_meters":19600,"station_id":"ce4bhbh2rcd13ifvqeqg","pricing_plan_id":"cebpf4jnsgd1na2vs0mg"},{"bike_id":"70e86ccf-9ce4-469c-bb23-0fa7747821d0","system_id":"levelo_inurba_marseille","lat":43.32621,"lon":5.40982,"is_reserved":false,"is_disabled":false,"rental_uris":{"android":"levelo://app?vid=70e86ccf-9ce4-469c-bb23-0fa7747821d0","ios":"levelo://app?vid=70e86ccf-9ce4-469c-bb23-0fa7747821d0"},"vehicle_type_id":"4","last_reported":1751396867,"current_range_meters":19600,"station_id":"ce4bhpp2rcd13ifvqhgg","pricing_plan_id":"cebpf4jnsgd1na2vs0mg"},{"bike_id":"110be0f7-19b6-4419-935c-8afdb1f29359","system_id":"levelo_inurba_marseille","lat":43.21182,"lon":5.35073,"is_reserved":false,"is_disabled":false,"rental_uris":{"android":"levelo://app?vid=110be0f7-19b6-4419-935c-8afdb1f29359","ios":"levelo://app?vid=110be0f7-19b6-4419-935c-8afdb1f29359"},"vehicle_type_id":"4","last_reported":1751396867,"current_range_meters":19600,"station_id":"st_cvj6sg6p6f1abm77japg","pricing_plan_id":"cebpf4jnsgd1na2vs0mg"},{"bike_id":"09a94feb-8911-4d3d-9f22-a7f611710ea1","system_id":"levelo_inurba_marseille","lat":43.21188,"lon":5.35069,"is_reserved":false,"is_disabled":false,"rental_uris":{"android":"levelo://app?vid=09a94feb-8911-4d3d-9f22-a7f611710ea1","ios":"levelo://app?vid=09a94feb-8911-4d3d-9f22-a7f611710ea1"},"vehicle_type_id":"4","last_reported":1751396867,"current_range_meters":19600,"station_id":"st_cvj6sg6p6f1abm77japg","pricing_plan_id":"cebpf4jnsgd1na2vs0mg"},{"bike_id":"8bf0d992-d2a0-428e-940a-091ee9b7c2a4","system_id":"levelo_inurba_marseille","lat":43.21129,"lon":5.35175,"is_reserved":false,"is_disabled":false,"rental_uris":{"android":"levelo://app?vid=8bf0d992-d2a0-428e-940a-091ee9b7c2a4","ios":"levelo://app?vid=8bf0d992-d2a0-428e-940a-091ee9b7c2a4"},"vehicle_type_id":"4","last_reported":1751396867,"current_range_meters":20000,"station_id":"","pricing_plan_id":"cebpf4jnsgd1na2vs0mg"},{"bike_id":"7af5e197-322b-43a2-9736-5526f18f7b63","system_id":"levelo_inurba_marseille","lat":43.29303,"lon":5.37159,"is_reserved":false,"is_disabled":false,"rental_uris":{"android":"levelo://app?vid=7af5e197-322b-43a2-9736-5526f18f7b63","ios":"levelo://app?vid=7af5e197-322b-43a2-9736-5526f18f7b63"},"vehicle_type_id":"4","last_reported":1751396867,"current_range_meters":20000,"station_id":"ce4bgh92rcd13ifvqb40","pricing_plan_id":"cebpf4jnsgd1na2vs0mg"},{"bike_id":"94aa68a2-d73e-40f1-8f7b-384822921f25","system_id":"levelo_inurba_marseille","lat":43.29596,"lon":5.38092,"is_reserved":false,"is_disabled":false,"rental_uris":{"android":"levelo://app?vid=94aa68a2-d73e-40f1-8f7b-384822921f25","ios":"levelo://app?vid=94aa68a2-d73e-40f1-8f7b-384822921f25"},"vehicle_type_id":"4","last_reported":1751396867,"current_range_meters":20000,"station_id":"ce4bgl12rcd13ifvqbo0","pricing_plan_id":"cebpf4jnsgd1na2vs0mg"},{"bike_id":"5c91b562-7fbb-472e-9d03-451b79a8750e","system_id":"levelo_inurba_marseille","lat":43.29196,"lon":5.35797,"is_reserved":false,"is_disabled":false,"rental_uris":{"android":"levelo://app?vid=5c91b562-7fbb-472e-9d03-451b79a8750e","ios":"levelo://app?vid=5c91b562-7fbb-472e-9d03-451b79a8750e"},"vehicle_type_id":"4","last_reported":1751396867,"current_range_meters":20000,"station_id":"ce4bhb12rcd13ifvqel0","pricing_plan_id":"cebpf4jnsgd1na2vs0mg"},{"bike_id":"eec7b02a-461b-41f7-b40b-680625481db1","system_id":"levelo_inurba_marseille","lat":43.245697,"lon":5.395089,"is_reserved":false,"is_disabled":false,"rental_uris":{"android":"levelo://app?vid=eec7b02a-461b-41f7-b40b-680625481db1","ios":"levelo://app?vid=eec7b02a-461b-41f7-b40b-680625481db1"},"vehicle_type_id":"4","last_reported":1751396867,"current_range_meters":20000,"station_id":"ce4bhlp2rcd13ifvqgjg","pricing_plan_id":"cebpf4jnsgd1na2vs0mg"},{"bike_id":"fe9ae489-5638-4995-88c4-f830a2fa5b0c","system_id":"levelo_inurba_marseille","lat":43.28159,"lon":5.42636,"is_reserved":false,"is_disabled":false,"rental_uris":{"android":"levelo://app?vid=fe9ae489-5638-4995-88c4-f830a2fa5b0c","ios":"levelo://app?vid=fe9ae489-5638-4995-88c4-f830a2fa5b0c"},"vehicle_type_id":"4","last_reported":1751396867,"current_range_meters":20000,"station_id":"ce4bhnh2rcd13ifvqgug","pricing_plan_id":"cebpf4jnsgd1na2vs0mg"},{"bike_id":"46788b59-bc2d-4d0f-a0ac-a82aee39c101","system_id":"levelo_inurba_marseille","lat":43.28151,"lon":5.42647,"is_reserved":false,"is_disabled":false,"rental_uris":{"android":"levelo://app?vid=46788b59-bc2d-4d0f-a0ac-a82aee39c101","ios":"levelo://app?vid=46788b59-bc2d-4d0f-a0ac-a82aee39c101"},"vehicle_type_id":"4","last_reported":1751396867,"current_range_meters":20000,"station_id":"ce4bhnh2rcd13ifvqgug","pricing_plan_id":"cebpf4jnsgd1na2vs0mg"},{"bike_id":"8e35fc35-dbd1-4387-8dcc-c4cb07b610fb","system_id":"levelo_inurba_marseille","lat":43.31988,"lon":5.38139,"is_reserved":false,"is_disabled":false,"rental_uris":{"android":"levelo://app?vid=8e35fc35-dbd1-4387-8dcc-c4cb07b610fb","ios":"levelo://app?vid=8e35fc35-dbd1-4387-8dcc-c4cb07b610fb"},"vehicle_type_id":"4","last_reported":1751396867,"current_range_meters":20000,"station_id":"ce4bhr12rcd13ifvqhpg","pricing_plan_id":"cebpf4jnsgd1na2vs0mg"},{"bike_id":"959e6f20-8ed0-4d36-bc1d-3efb82d6190b","system_id":"levelo_inurba_marseille","lat":43.21207,"lon":5.35038,"is_reserved":false,"is_disabled":false,"rental_uris":{"android":"levelo://app?vid=959e6f20-8ed0-4d36-bc1d-3efb82d6190b","ios":"levelo://app?vid=959e6f20-8ed0-4d36-bc1d-3efb82d6190b"},"vehicle_type_id":"4","last_reported":1751396867,"current_range_meters":20000,"station_id":"st_cvj6sg6p6f1abm77japg","pricing_plan_id":"cebpf4jnsgd1na2vs0mg"},{"bike_id":"6d2da863-a742-45db-855b-55a94467cfa4","system_id":"levelo_inurba_marseille","lat":43.32595,"lon":5.42749,"is_reserved":false,"is_disabled":false,"rental_uris":{"android":"levelo://app?vid=6d2da863-a742-45db-855b-55a94467cfa4","ios":"levelo://app?vid=6d2da863-a742-45db-855b-55a94467cfa4"},"vehicle_type_id":"4","last_reported":1751396867,"current_range_meters":20400,"station_id":"","pricing_plan_id":"cebpf4jnsgd1na2vs0mg"},{"bike_id":"359a62cf-d7b2-4c0d-a169-0eea2204cf34","system_id":"levelo_inurba_marseille","lat":43.25274,"lon":5.42041,"is_reserved":false,"is_disabled":false,"rental_uris":{"android":"levelo://app?vid=359a62cf-d7b2-4c0d-a169-0eea2204cf34","ios":"levelo://app?vid=359a62cf-d7b2-4c0d-a169-0eea2204cf34"},"vehicle_type_id":"4","last_reported":1751396867,"current_range_meters":20400,"station_id":"","pricing_plan_id":"cebpf4jnsgd1na2vs0mg"},{"bike_id":"e4fa7d9d-7bf3-4501-bef4-84b09be2c5c0","system_id":"levelo_inurba_marseille","lat":43.31173,"lon":5.38718,"is_reserved":false,"is_disabled":false,"rental_uris":{"android":"levelo://app?vid=e4fa7d9d-7bf3-4501-bef4-84b09be2c5c0","ios":"levelo://app?vid=e4fa7d9d-7bf3-4501-bef4-84b09be2c5c0"},"vehicle_type_id":"4","last_reported":1751396867,"current_range_meters":20400,"station_id":"ce4bgv12rcd13ifvqcp0","pricing_plan_id":"cebpf4jnsgd1na2vs0mg"},{"bike_id":"c85fb055-f29f-4d80-9f56-684258f9011e","system_id":"levelo_inurba_marseille","lat":43.28421,"lon":5.34949,"is_reserved":false,"is_disabled":false,"rental_uris":{"android":"levelo://app?vid=c85fb055-f29f-4d80-9f56-684258f9011e","ios":"levelo://app?vid=c85fb055-f29f-4d80-9f56-684258f9011e"},"vehicle_type_id":"4","last_reported":1751396867,"current_range_meters":20400,"station_id":"ce4bhbh2rcd13ifvqepg","pricing_plan_id":"cebpf4jnsgd1na2vs0mg"},{"bike_id":"4468e22d-87a7-482e-91fb-42e804693516","system_id":"levelo_inurba_marseille","lat":43.27426,"lon":5.39418,"is_reserved":false,"is_disabled":false,"rental_uris":{"android":"levelo://app?vid=4468e22d-87a7-482e-91fb-42e804693516","ios":"levelo://app?vid=4468e22d-87a7-482e-91fb-42e804693516"},"vehicle_type_id":"4","last_reported":1751396867,"current_range_meters":20400,"station_id":"ce4bhdp2rcd13ifvqf20","pricing_plan_id":"cebpf4jnsgd1na2vs0mg"},{"bike_id":"a3da8f72-804a-4507-94f0-c6928d78ec9c","system_id":"levelo_inurba_marseille","lat":43.26553,"lon":5.37312,"is_reserved":false,"is_disabled":false,"rental_uris":{"android":"levelo://app?vid=a3da8f72-804a-4507-94f0-c6928d78ec9c","ios":"levelo://app?vid=a3da8f72-804a-4507-94f0-c6928d78ec9c"},"vehicle_type_id":"4","last_reported":1751396867,"current_range_meters":20400,"station_id":"ce4bhg12rcd13ifvqf70","pricing_plan_id":"cebpf4jnsgd1na2vs0mg"},{"bike_id":"53357e14-8322-41ce-9b6a-e5c7b975dff4","system_id":"levelo_inurba_marseille","lat":43.26225,"lon":5.40448,"is_reserved":false,"is_disabled":false,"rental_uris":{"android":"levelo://app?vid=53357e14-8322-41ce-9b6a-e5c7b975dff4","ios":"levelo://app?vid=53357e14-8322-41ce-9b6a-e5c7b975dff4"},"vehicle_type_id":"4","last_reported":1751396867,"current_range_meters":20400,"station_id":"ce4bhmh2rcd13ifvqgmg","pricing_plan_id":"cebpf4jnsgd1na2vs0mg"},{"bike_id":"2b855a6c-42a7-4e90-8687-8bb69f94374c","system_id":"levelo_inurba_marseille","lat":43.26219,"lon":5.40432,"is_reserved":false,"is_disabled":false,"rental_uris":{"android":"levelo://app?vid=2b855a6c-42a7-4e90-8687-8bb69f94374c","ios":"levelo://app?vid=2b855a6c-42a7-4e90-8687-8bb69f94374c"},"vehicle_type_id":"4","last_reported":1751396867,"current_range_meters":20400,"station_id":"ce4bhmh2rcd13ifvqgmg","pricing_plan_id":"cebpf4jnsgd1na2vs0mg"},{"bike_id":"542b9ada-b71a-4ccd-9453-1b22b04f41bf","system_id":"levelo_inurba_marseille","lat":43.27627,"lon":5.36111,"is_reserved":false,"is_disabled":false,"rental_uris":{"android":"levelo://app?vid=542b9ada-b71a-4ccd-9453-1b22b04f41bf","ios":"levelo://app?vid=542b9ada-b71a-4ccd-9453-1b22b04f41bf"},"vehicle_type_id":"4","last_reported":1751396867,"current_range_meters":20800,"station_id":"ce4bgj92rcd13ifvqbe0","pricing_plan_id":"cebpf4jnsgd1na2vs0mg"},{"bike_id":"8e4147e3-1b40-4975-a726-63764f255202","system_id":"levelo_inurba_marseille","lat":43.2763,"lon":5.36082,"is_reserved":false,"is_disabled":false,"rental_uris":{"android":"levelo://app?vid=8e4147e3-1b40-4975-a726-63764f255202","ios":"levelo://app?vid=8e4147e3-1b40-4975-a726-63764f255202"},"vehicle_type_id":"4","last_reported":1751396867,"current_range_meters":20800,"station_id":"ce4bgj92rcd13ifvqbe0","pricing_plan_id":"cebpf4jnsgd1na2vs0mg"},{"bike_id":"dad8ac5f-d204-43ac-b635-02c478b613ca","system_id":"levelo_inurba_marseille","lat":43.28417,"lon":5.3498,"is_reserved":false,"is_disabled":false,"rental_uris":{"android":"levelo://app?vid=dad8ac5f-d204-43ac-b635-02c478b613ca","ios":"levelo://app?vid=dad8ac5f-d204-43ac-b635-02c478b613ca"},"vehicle_type_id":"4","last_reported":1751396867,"current_range_meters":20800,"station_id":"ce4bhbh2rcd13ifvqepg","pricing_plan_id":"cebpf4jnsgd1na2vs0mg"},{"bike_id":"c10a4283-320d-4e64-8d75-ff83e94026ba","system_id":"levelo_inurba_marseille","lat":43.21199,"lon":5.35093,"is_reserved":false,"is_disabled":false,"rental_uris":{"android":"levelo://app?vid=c10a4283-320d-4e64-8d75-ff83e94026ba","ios":"levelo://app?vid=c10a4283-320d-4e64-8d75-ff83e94026ba"},"vehicle_type_id":"4","last_reported":1751396867,"current_range_meters":20800,"station_id":"st_cvj6sg6p6f1abm77japg","pricing_plan_id":"cebpf4jnsgd1na2vs0mg"},{"bike_id":"12968da4-6587-4337-b41d-8c292aea852f","system_id":"levelo_inurba_marseille","lat":43.319831,"lon":5.371101,"is_reserved":false,"is_disabled":false,"rental_uris":{"android":"levelo://app?vid=12968da4-6587-4337-b41d-8c292aea852f","ios":"levelo://app?vid=12968da4-6587-4337-b41d-8c292aea852f"},"vehicle_type_id":"4","last_reported":1751396867,"current_range_meters":21600,"station_id":"","pricing_plan_id":"cebpf4jnsgd1na2vs0mg"},{"bike_id":"0c440be9-908d-4c3b-b44b-4e0240b21789","system_id":"levelo_inurba_marseille","lat":43.29973,"lon":5.38493,"is_reserved":false,"is_disabled":false,"rental_uris":{"android":"levelo://app?vid=0c440be9-908d-4c3b-b44b-4e0240b21789","ios":"levelo://app?vid=0c440be9-908d-4c3b-b44b-4e0240b21789"},"vehicle_type_id":"4","last_reported":1751396867,"current_range_meters":21600,"station_id":"ce4bgj92rcd13ifvqbd0","pricing_plan_id":"cebpf4jnsgd1na2vs0mg"},{"bike_id":"2cefc2ba-e259-458d-85cc-159ad06a4226","system_id":"levelo_inurba_marseille","lat":43.30928,"lon":5.40146,"is_reserved":false,"is_disabled":false,"rental_uris":{"android":"levelo://app?vid=2cefc2ba-e259-458d-85cc-159ad06a4226","ios":"levelo://app?vid=2cefc2ba-e259-458d-85cc-159ad06a4226"},"vehicle_type_id":"4","last_reported":1751396867,"current_range_meters":21600,"station_id":"ce4bgvp2rcd13ifvqct0","pricing_plan_id":"cebpf4jnsgd1na2vs0mg"},{"bike_id":"88bd4823-a926-4353-af6f-52cf1de18966","system_id":"levelo_inurba_marseille","lat":43.28637,"lon":5.35086,"is_reserved":false,"is_disabled":false,"rental_uris":{"android":"levelo://app?vid=88bd4823-a926-4353-af6f-52cf1de18966","ios":"levelo://app?vid=88bd4823-a926-4353-af6f-52cf1de18966"},"vehicle_type_id":"4","last_reported":1751396867,"current_range_meters":21600,"station_id":"ce4bhch2rcd13ifvqeug","pricing_plan_id":"cebpf4jnsgd1na2vs0mg"},{"bike_id":"468c3bc2-d246-4fb4-89df-526f375eedee","system_id":"levelo_inurba_marseille","lat":43.26027,"lon":5.37548,"is_reserved":false,"is_disabled":false,"rental_uris":{"android":"levelo://app?vid=468c3bc2-d246-4fb4-89df-526f375eedee","ios":"levelo://app?vid=468c3bc2-d246-4fb4-89df-526f375eedee"},"vehicle_type_id":"4","last_reported":1751396867,"current_range_meters":21600,"station_id":"ce4bhgh2rcd13ifvqfa0","pricing_plan_id":"cebpf4jnsgd1na2vs0mg"},