{"last_updated":1746601871,"ttl":60,"version":"2.2","data":{"bikes":[{"bike_id":"545631c8-05b7-4070-95e3-52dc096addb5","system_id":"levelo_inurba_marseille","lat":43.27205,"lon":5.36479,"is_reserved":false,"is_disabled":true,"rental_uris":{"android":"levelo://app?vid=545631c8-05b7-4070-95e3-52dc096addb5","ios":"levelo://app?vid=545631c8-05b7-4070-95e3-52dc096addb5"},"vehicle_type_id":"4","last_reported":1746601871,"current_range_meters":0,"station_id":"","pricing_plan_id":"cebpf4jnsgd1na2vs0mg"},{"bike_id":"b56eeeb9-9ded-4dd2-9efa-c8d4f8a5e387","system_id":"levelo_inurba_marseille","lat":43.27363,"lon":5.42227,"is_reserved":false,"is_disabled":true,"rental_uris":{"android":"levelo://app?vid=b56eeeb9-9ded-4dd2-9efa-c8d4f8a5e387","ios":"levelo://app?vid=b56eeeb9-9ded-4dd2-9efa-c8d4f8a5e387"},"vehicle_type_id":"4","last_reported":1746601871,"current_range_meters":0,"station_id":"","pricing_plan_id":"cebpf4jnsgd1na2vs0mg"},{"bike_id":"88c3c6c1-a33a-48ed-b2a4-48c16332184c","system_id":"levelo_inurba_marseille","lat":43.27943,"lon":5.37399,"is_reserved":false,"is_disabled":true,"rental_uris":{"android":"levelo://app?vid=88c3c6c1-a33a-48ed-b2a4-48c16332184c","ios":"levelo://app?vid=88c3c6c1-a33a-48ed-b2a4-48c16332184c"},"vehicle_type_id":"4","last_reported":1746601871,"current_range_meters":0,"station_id":"","pricing_plan_id":"cebpf4jnsgd1na2vs0mg"},{"bike_id":"2d251c8d-e9d0-476f-8622-cb88831f30c3","system_id":"levelo_inurba_marseille","lat":43.27007,"lon":5.38783,"is_reserved":false,"is_disabled":true,"rental_uris":{"android":"levelo://app?vid=2d251c8d-e9d0-476f-8622-cb88831f30c3","ios":"levelo://app?vid=2d251c8d-e9d0-476f-8622-cb88831f30c3"},"vehicle_type_id":"4","last_reported":1746601871,"current_range_meters":0,"station_id":"","pricing_plan_id":"cebpf4jnsgd1na2vs0mg"},{"bike_id":"b692a0cc-b85f-4bf4-a05e-501603831294","system_id":"levelo_inurba_marseille","lat":43.30539,"lon":5.38413,"is_reserved":false,"is_disabled":true,"rental_uris":{"android":"levelo://app?vid=b692a0cc-b85f-4bf4-a05e-501603831294","ios":"levelo://app?vid=b692a0cc-b85f-4bf4-a05e-501603831294"},"vehicle_type_id":"4","last_reported":1746601871,"current_range_meters":0,"station_id":"ce4bgg92rcd13ifvqb30","pricing_plan_id":"cebpf4jnsgd1na2vs0mg"},{"bike_id":"3fd9372a-a3b2-4bb0-9e3e-1442d0d30787","system_id":"levelo_inurba_marseille","lat":43.29265,"lon":5.37614,"is_reserved":false,"is_disabled":true,"rental_uris":{"android":"levelo://app?vid=3fd9372a-a3b2-4bb0-9e3e-1442d0d30787","ios":"levelo://app?vid=3fd9372a-a3b2-4bb0-9e3e-1442d0d30787"},"vehicle_type_id":"4","last_reported":1746601871,"current_range_meters":0,"station_id":"ce4bgi12rcd13ifvqb80","pricing_plan_id":"cebpf4jnsgd1na2vs0mg"},{"bike_id":"b95dc831-5967-4b6e-a95e-f97daad4406f","system_id":"levelo_inurba_marseille","lat":43.30957,"lon":5.39044,"is_reserved":false,"is_disabled":true,"rental_uris":{"android":"levelo://app?vid=b95dc831-5967-4b6e-a95e-f97daad4406f","ios":"levelo://app?vid=b95dc831-5967-4b6e-a95e-f97daad4406f"},"vehicle_type_id":"4","last_reported":1746601871,"current_range_meters":0,"station_id":"ce4bgup2rcd13ifvqco0","pricing_plan_id":"cebpf4jnsgd1na2vs0mg"},{"bike_id":"423c4e4f-12d4-4d6e-938b-cdd05770482a","system_id":"levelo_inurba_marseille","lat":43.28616,"lon":5.35104,"is_reserved":false,"is_disabled":true,"rental_uris":{"android":"levelo://app?vid=423c4e4f-12d4-4d6e-938b-cdd05770482a","ios":"levelo://app?vid=423c4e4f-12d4-4d6e-938b-cdd05770482a"},"vehicle_type_id":"4","last_reported":1746601871,"current_range_meters":0,"station_id":"ce4bhch2rcd13ifvqeug","pricing_plan_id":"cebpf4jnsgd1na2vs0mg"},{"bike_id":"38d322a6-8cb1-4ffe-9b3a-35822b5c9078","system_id":"levelo_inurba_marseille","lat":43.22939,"lon":5.35376,"is_reserved":false,"is_disabled":true,"rental_uris":{"android":"levelo://app?vid=38d322a6-8cb1-4ffe-9b3a-35822b5c9078","ios":"levelo://app?vid=38d322a6-8cb1-4ffe-9b3a-35822b5c9078"},"vehicle_type_id":"4","last_reported":1746601871,"current_range_meters":0,"station_id":"cpo3532slgdg3j2ikp40","pricing_plan_id":"cebpf4jnsgd1na2vs0mg"},{"bike_id":"66b646b3-6352-44bb-9bfb-21570512e3e5","system_id":"levelo_inurba_marseille","lat":43.28122,"lon":5.40402,"is_reserved":false,"is_disabled":true,"rental_uris":{"android":"levelo://app?vid=66b646b3-6352-44bb-9bfb-21570512e3e5","ios":"levelo://app?vid=66b646b3-6352-44bb-9bfb-21570512e3e5"},"vehicle_type_id":"4","last_reported":1746601871,"current_range_meters":400,"station_id":"","pricing_plan_id":"cebpf4jnsgd1na2vs0mg"},{"bike_id":"e8c7c407-6364-4781-afd3-228e13b38541","system_id":"levelo_inurba_marseille","lat":43.31345,"lon":5.36732,"is_reserved":false,"is_disabled":true,"rental_uris":{"android":"levelo://app?vid=e8c7c407-6364-4781-afd3-228e13b38541","ios":"levelo://app?vid=e8c7c407-6364-4781-afd3-228e13b38541"},"vehicle_type_id":"4","last_reported":1746601871,"current_range_meters":400,"station_id":"ce4bgr92rcd13ifvqc6g","pricing_plan_id":"cebpf4jnsgd1na2vs0mg"},{"bike_id":"1ae346ec-7bef-434d-9027-0f053644c6a5","system_id":"levelo_inurba_marseille","lat":43.27375,"lon":5.36264,"is_reserved":false,"is_disabled":true,"rental_uris":{"android":"levelo://app?vid=1ae346ec-7bef-434d-9027-0f053644c6a5","ios":"levelo://app?vid=1ae346ec-7bef-434d-9027-0f053644c6a5"},"vehicle_type_id":"4","last_reported":1746601871,"current_range_meters":400,"station_id":"ce4bhbh2rcd13ifvqeo0","pricing_plan_id":"cebpf4jnsgd1na2vs0mg"},{"bike_id":"5c8e5760-6e7c-40f9-95c5-83ac7dc72caa","system_id":"levelo_inurba_marseille","lat":43.304887,"lon":5.365759,"is_reserved":false,"is_disabled":true,"rental_uris":{"android":"levelo://app?vid=5c8e5760-6e7c-40f9-95c5-83ac7dc72caa","ios":"levelo://app?vid=5c8e5760-6e7c-40f9-95c5-83ac7dc72caa"},"vehicle_type_id":"4","last_reported":1746601871,"current_range_meters":800,"station_id":"ce4bgr92rcd13ifvqc6g","pricing_plan_id":"cebpf4jnsgd1na2vs0mg"},{"bike_id":"a219421d-d090-4c02-8c2b-3e0cbfdd69ba","system_id":"levelo_inurba_marseille","lat":43.30954,"lon":5.39034,"is_reserved":false,"is_disabled":true,"rental_uris":{"android":"levelo://app?vid=a219421d-d090-4c02-8c2b-3e0cbfdd69ba","ios":"levelo://app?vid=a219421d-d090-4c02-8c2b-3e0cbfdd69ba"},"vehicle_type_id":"4","last_reported":1746601871,"current_range_meters":800,"station_id":"ce4bgup2rcd13ifvqco0","pricing_plan_id":"cebpf4jnsgd1na2vs0mg"},{"bike_id":"da1c4a48-8376-487c-aa98-1b3d20bbb668","system_id":"levelo_inurba_marseille","lat":43.25006,"lon":5.38934,"is_reserved":false,"is_disabled":true,"rental_uris":{"android":"levelo://app?vid=da1c4a48-8376-487c-aa98-1b3d20bbb668","ios":"levelo://app?vid=da1c4a48-8376-487c-aa98-1b3d20bbb668"},"vehicle_type_id":"4","last_reported":1746601871,"current_range_meters":800,"station_id":"ce4bhgp2rcd13ifvqfd0","pricing_plan_id":"cebpf4jnsgd1na2vs0mg"},{"bike_id":"07279b5f-51d6-4d72-8baa-03cbedf122cb","system_id":"levelo_inurba_marseille","lat":43.231485,"lon":5.43717,"is_reserved":false,"is_disabled":true,"rental_uris":{"android":"levelo://app?vid=07279b5f-51d6-4d72-8baa-03cbedf122cb","ios":"levelo://app?vid=07279b5f-51d6-4d72-8baa-03cbedf122cb"},"vehicle_type_id":"4","last_reported":1746601871,"current_range_meters":1200,"station_id":"ce4bhmp2rcd13ifvqgog","pricing_plan_id":"cebpf4jnsgd1na2vs0mg"},{"bike_id":"9489bce2-c32b-4f4b-9db4-5f1ea31c2660","system_id":"levelo_inurba_marseille","lat":43.24076,"lon":5.37757,"is_reserved":false,"is_disabled":true,"rental_uris":{"android":"levelo://app?vid=9489bce2-c32b-4f4b-9db4-5f1ea31c2660","ios":"levelo://app?vid=9489bce2-c32b-4f4b-9db4-5f1ea31c2660"},"vehicle_type_id":"4","last_reported":1746601871,"current_range_meters":1200,"station_id":"ce4bhnp2rcd13ifvqgvg","pricing_plan_id":"cebpf4jnsgd1na2vs0mg"},{"bike_id":"6ca51e79-ae9b-4804-9e4a-b9bf05bd10f3","system_id":"levelo_inurba_marseille","lat":43.28854,"lon":5.35874,"is_reserved":false,"is_disabled":true,"rental_uris":{"android":"levelo://app?vid=6ca51e79-ae9b-4804-9e4a-b9bf05bd10f3","ios":"levelo://app?vid=6ca51e79-ae9b-4804-9e4a-b9bf05bd10f3"},"vehicle_type_id":"4","last_reported":1746601871,"current_range_meters":1600,"station_id":"ce4bhb12rcd13ifvqem0","pricing_plan_id":"cebpf4jnsgd1na2vs0mg"},{"bike_id":"416f578b-a76d-4698-b5ca-69135ef4b579","system_id":"levelo_inurba_marseille","lat":43.24161,"lon":5.36408,"is_reserved":false,"is_disabled":true,"rental_uris":{"android":"levelo://app?vid=416f578b-a76d-4698-b5ca-69135ef4b579","ios":"levelo://app?vid=416f578b-a76d-4698-b5ca-69135ef4b579"},"vehicle_type_id":"4","last_reported":1746601871,"current_range_meters":1600,"station_id":"cpo36qri1sfpv3e86is0","pricing_plan_id":"cebpf4jnsgd1na2vs0mg"},{"bike_id":"9afdaa32-5437-40bb-b5dc-0e42f55a33ee","system_id":"levelo_inurba_marseille","lat":43.253968,"lon":5.418569,"is_reserved":false,"is_disabled":true,"rental_uris":{"android":"levelo://app?vid=9afdaa32-5437-40bb-b5dc-0e42f55a33ee","ios":"levelo://app?vid=9afdaa32-5437-40bb-b5dc-0e42f55a33ee"},"vehicle_type_id":"4","last_reported":1746601871,"current_range_meters":2000,"station_id":"","pricing_plan_id":"cebpf4jnsgd1na2vs0mg"},{"bike_id":"2abfa4c1-f999-4481-b63b-a4cd267a5cdf","system_id":"levelo_inurba_marseille","lat":43.3183,"lon":5.37475,"is_reserved":false,"is_disabled":true,"rental_uris":{"android":"levelo://app?vid=2abfa4c1-f999-4481-b63b-a4cd267a5cdf","ios":"levelo://app?vid=2abfa4c1-f999-4481-b63b-a4cd267a5cdf"},"vehicle_type_id":"4","last_reported":1746601871,"current_range_meters":2000,"station_id":"","pricing_plan_id":"cebpf4jnsgd1na2vs0mg"},{"bike_id":"93d71e66-925f-44cc-a9ff-90a1987b6600","system_id":"levelo_inurba_marseille","lat":43.29713,"lon":5.37701,"is_reserved":false,"is_disabled":true,"rental_uris":{"android":"levelo://app?vid=93d71e66-925f-44cc-a9ff-90a1987b6600","ios":"levelo://app?vid=93d71e66-925f-44cc-a9ff-90a1987b6600"},"vehicle_type_id":"4","last_reported":1746601871,"current_range_meters":2000,"station_id":"ce4bgkh2rcd13ifvqbl0","pricing_plan_id":"cebpf4jnsgd1na2vs0mg"},{"bike_id":"3de326e6-d94b-44f3-8c59-4064a870950e","system_id":"levelo_inurba_marseille","lat":43.3093,"lon":5.40141,"is_reserved":false,"is_disabled":false,"rental_uris":{"android":"levelo://app?vid=3de326e6-d94b-44f3-8c59-4064a870950e","ios":"levelo://app?vid=3de326e6-d94b-44f3-8c59-4064a870950e"},"vehicle_type_id":"4","last_reported":1746601871,"current_range_meters":2000,"station_id":"ce4bgvp2rcd13ifvqct0","pricing_plan_id":"cebpf4jnsgd1na2vs0mg"},{"bike_id":"5a597cfc-6cba-4c5e-89e9-669683504268","system_id":"levelo_inurba_marseille","lat":43.28418,"lon":5.37514,"is_reserved":false,"is_disabled":false,"rental_uris":{"android":"levelo://app?vid=5a597cfc-6cba-4c5e-89e9-669683504268","ios":"levelo://app?vid=5a597cfc-6cba-4c5e-89e9-669683504268"},"vehicle_type_id":"4","last_reported":1746601871,"current_range_meters":2000,"station_id":"ce4bh412rcd13ifvqds0","pricing_plan_id":"cebpf4jnsgd1na2vs0mg"},{"bike_id":"ecc8eb8a-7faa-4924-8fad-34539933db3e","system_id":"levelo_inurba_marseille","lat":43.28851,"lon":5.35859,"is_reserved":false,"is_disabled":true,"rental_uris":{"android":"levelo://app?vid=ecc8eb8a-7faa-4924-8fad-34539933db3e","ios":"levelo://app?vid=ecc8eb8a-7faa-4924-8fad-34539933db3e"},"vehicle_type_id":"4","last_reported":1746601871,"current_range_meters":2000,"station_id":"ce4bhb12rcd13ifvqem0","pricing_plan_id":"cebpf4jnsgd1na2vs0mg"},{"bike_id":"5307eab6-9edb-45ca-9f0c-895810882ebd","system_id":"levelo_inurba_marseille","lat":43.25579,"lon":5.38247,"is_reserved":false,"is_disabled":true,"rental_uris":{"android":"levelo://app?vid=5307eab6-9edb-45ca-9f0c-895810882ebd","ios":"levelo://app?vid=5307eab6-9edb-45ca-9f0c-895810882ebd"},"vehicle_type_id":"4","last_reported":1746601871,"current_range_meters":2000,"station_id":"ce4bhih2rcd13ifvqfs0","pricing_plan_id":"cebpf4jnsgd1na2vs0mg"},{"bike_id":"7de83f95-aad7-4ead-96c1-723c7e365f46","system_id":"levelo_inurba_marseille","lat":43.25927,"lon":5.40913,"is_reserved":false,"is_disabled":true,"rental_uris":{"android":"levelo://app?vid=7de83f95-aad7-4ead-96c1-723c7e365f46","ios":"levelo://app?vid=7de83f95-aad7-4ead-96c1-723c7e365f46"},"vehicle_type_id":"4","last_reported":1746601871,"current_range_meters":2000,"station_id":"ce4bhm92rcd13ifvqglg","pricing_plan_id":"cebpf4jnsgd1na2vs0mg"},{"bike_id":"a38c2d49-7988-4ef8-83e8-42a2504085da","system_id":"levelo_inurba_marseille","lat":43.24521,"lon":5.41209,"is_reserved":false,"is_disabled":false,"rental_uris":{"android":"levelo://app?vid=a38c2d49-7988-4ef8-83e8-42a2504085da","ios":"levelo://app?vid=a38c2d49-7988-4ef8-83e8-42a2504085da"},"vehicle_type_id":"4","last_reported":1746601871,"current_range_meters":2800,"station_id":"","pricing_plan_id":"cebpf4jnsgd1na2vs0mg"},{"bike_id":"83cc1842-773c-46bc-8be1-caa63d83c3c2","system_id":"levelo_inurba_marseille","lat":43.25902,"lon":5.39544,"is_reserved":false,"is_disabled":false,"rental_uris":{"android":"levelo://app?vid=83cc1842-773c-46bc-8be1-caa63d83c3c2","ios":"levelo://app?vid=83cc1842-773c-46bc-8be1-caa63d83c3c2"},"vehicle_type_id":"4","last_reported":1746601871,"current_range_meters":2800,"station_id":"","pricing_plan_id":"cebpf4jnsgd1na2vs0mg"},{"bike_id":"78d79f2a-65e9-42bc-9f9e-1c1032cb6ded","system_id":"levelo_inurba_marseille","lat":43.29233,"lon":5.3608,"is_reserved":false,"is_disabled":false,"rental_uris":{"android":"levelo://app?vid=78d79f2a-65e9-42bc-9f9e-1c1032cb6ded","ios":"levelo://app?vid=78d79f2a-65e9-42bc-9f9e-1c1032cb6ded"},"vehicle_type_id":"4","last_reported":1746601871,"current_range_meters":2800,"station_id":"ce4bhbh2rcd13ifvqeqg","pricing_plan_id":"cebpf4jnsgd1na2vs0mg"},{"bike_id":"1c171d4c-514a-4c08-8ea1-016e6ff17a0b","system_id":"levelo_inurba_marseille","lat":43.325365,"lon":5.414329,"is_reserved":false,"is_disabled":false,"rental_uris":{"android":"levelo://app?vid=1c171d4c-514a-4c08-8ea1-016e6ff17a0b","ios":"levelo://app?vid=1c171d4c-514a-4c08-8ea1-016e6ff17a0b"},"vehicle_type_id":"4","last_reported":1746601871,"current_range_meters":2800,"station_id":"ce4bhq12rcd13ifvqhhg","pricing_plan_id":"cebpf4jnsgd1na2vs0mg"},{"bike_id":"1f563d19-c9b5-426b-bb29-d8dbd2aa4133","system_id":"levelo_inurba_marseille","lat":43.336064,"lon":5.410331,"is_reserved":false,"is_disabled":false,"rental_uris":{"android":"levelo://app?vid=1f563d19-c9b5-426b-bb29-d8dbd2aa4133","ios":"levelo://app?vid=1f563d19-c9b5-426b-bb29-d8dbd2aa4133"},"vehicle_type_id":"4","last_reported":1746601871,"current_range_meters":2800,"station_id":"ce4bhqh2rcd13ifvqhmg","pricing_plan_id":"cebpf4jnsgd1na2vs0mg"},{"bike_id":"bf32dc02-a3dd-4c02-97ff-8324c69678bd","system_id":"levelo_inurba_marseille","lat":43.31473,"lon":5.37303,"is_reserved":false,"is_disabled":false,"rental_uris":{"android":"levelo://app?vid=bf32dc02-a3dd-4c02-97ff-8324c69678bd","ios":"levelo://app?vid=bf32dc02-a3dd-4c02-97ff-8324c69678bd"},"vehicle_type_id":"4","last_reported":1746601871,"current_range_meters":3200,"station_id":"ce4bgt12rcd13ifvqcd0","pricing_plan_id":"cebpf4jnsgd1na2vs0mg"},{"bike_id":"c319c3fd-0535-4684-aaee-b87868137d5b","system_id":"levelo_inurba_marseille","lat":43.29215,"lon":5.40027,"is_reserved":false,"is_disabled":false,"rental_uris":{"android":"levelo://app?vid=c319c3fd-0535-4684-aaee-b87868137d5b","ios":"levelo://app?vid=c319c3fd-0535-4684-aaee-b87868137d5b"},"vehicle_type_id":"4","last_reported":1746601871,"current_range_meters":3600,"station_id":"","pricing_plan_id":"cebpf4jnsgd1na2vs0mg"},{"bike_id":"2a565639-65d6-4beb-93c0-7dbd91eb8dfb","system_id":"levelo_inurba_marseille","lat":43.3026,"lon":5.37713,"is_reserved":false,"is_disabled":false,"rental_uris":{"android":"levelo://app?vid=2a565639-65d6-4beb-93c0-7dbd91eb8dfb","ios":"levelo://app?vid=2a565639-65d6-4beb-93c0-7dbd91eb8dfb"},"vehicle_type_id":"4","last_reported":1746601871,"current_range_meters":3600,"station_id":"ce4bguh2rcd13ifvqcj0","pricing_plan_id":"cebpf4jnsgd1na2vs0mg"},{"bike_id":"840c8d41-3d59-43a8-85b3-f1c3d1830983","system_id":"levelo_inurba_marseille","lat":43.27486,"lon":5.42431,"is_reserved":false,"is_disabled":false,"rental_uris":{"android":"levelo://app?vid=840c8d41-3d59-43a8-85b3-f1c3d1830983","ios":"levelo://app?vid=840c8d41-3d59-43a8-85b3-f1c3d1830983"},"vehicle_type_id":"4","last_reported":1746601871,"current_range_meters":3600,"station_id":"ce4bhn92rcd13ifvqgrg","pricing_plan_id":"cebpf4jnsgd1na2vs0mg"},{"bike_id":"011bc717-af3c-4529-af64-4a0e09081512","system_id":"levelo_inurba_marseille","lat":43.24077,"lon":5.37761,"is_reserved":false,"is_disabled":false,"rental_uris":{"android":"levelo://app?vid=011bc717-af3c-4529-af64-4a0e09081512","ios":"levelo://app?vid=011bc717-af3c-4529-af64-4a0e09081512"},"vehicle_type_id":"4","last_reported":1746601871,"current_range_meters":3600,"station_id":"ce4bhnp2rcd13ifvqgvg","pricing_plan_id":"cebpf4jnsgd1na2vs0mg"},{"bike_id":"72b7a544-35e6-4bbc-927f-dd083a2b5018","system_id":"levelo_inurba_marseille","lat":43.32357,"lon":5.36747,"is_reserved":false,"is_disabled":false,"rental_uris":{"android":"levelo://app?vid=72b7a544-35e6-4bbc-927f-dd083a2b5018","ios":"levelo://app?vid=72b7a544-35e6-4bbc-927f-dd083a2b5018"},"vehicle_type_id":"4","last_reported":1746601871,"current_range_meters":3600,"station_id":"ce4bhsh2rcd13ifvqi2g","pricing_plan_id":"cebpf4jnsgd1na2vs0mg"},{"bike_id":"a96ecb1d-8c22-42e8-8e19-f6f3aa9dac63","system_id":"levelo_inurba_marseille","lat":43.31897,"lon":5.36983,"is_reserved":false,"is_disabled":false,"rental_uris":{"android":"levelo://app?vid=a96ecb1d-8c22-42e8-8e19-f6f3aa9dac63","ios":"levelo://app?vid=a96ecb1d-8c22-42e8-8e19-f6f3aa9dac63"},"vehicle_type_id":"4","last_reported":1746601871,"current_range_meters":4000,"station_id":"","pricing_plan_id":"cebpf4jnsgd1na2vs0mg"},{"bike_id":"5072bbfb-edb8-4e67-9111-e51e94e28bbf","system_id":"levelo_inurba_marseille","lat":43.309052,"lon":5.368442,"is_reserved":false,"is_disabled":false,"rental_uris":{"android":"levelo://app?vid=5072bbfb-edb8-4e67-9111-e51e94e28bbf","ios":"levelo://app?vid=5072bbfb-edb8-4e67-9111-e51e94e28bbf"},"vehicle_type_id":"4","last_reported":1746601871,"current_range_meters":4800,"station_id":"ce4bgn92rcd13ifvqbvg","pricing_plan_id":"cebpf4jnsgd1na2vs0mg"},{"bike_id":"46def5d4-8ca5-4522-ba61-dbf0c8375671","system_id":"levelo_inurba_marseille","lat":43.31338,"lon":5.36721,"is_reserved":false,"is_disabled":false,"rental_uris":{"android":"levelo://app?vid=46def5d4-8ca5-4522-ba61-dbf0c8375671","ios":"levelo://app?vid=46def5d4-8ca5-4522-ba61-dbf0c8375671"},"vehicle_type_id":"4","last_reported":1746601871,"current_range_meters":4800,"station_id":"ce4bgr92rcd13ifvqc6g","pricing_plan_id":"cebpf4jnsgd1na2vs0mg"},{"bike_id":"3f629c2a-b5b1-42ca-b6ea-812ffafba766","system_id":"levelo_inurba_marseille","lat":43.28735,"lon":5.37927,"is_reserved":false,"is_disabled":false,"rental_uris":{"android":"levelo://app?vid=3f629c2a-b5b1-42ca-b6ea-812ffafba766","ios":"levelo://app?vid=3f629c2a-b5b1-42ca-b6ea-812ffafba766"},"vehicle_type_id":"4","last_reported":1746601871,"current_range_meters":4800,"station_id":"ce4bh9p2rcd13ifvqec0","pricing_plan_id":"cebpf4jnsgd1na2vs0mg"},{"bike_id":"19aac90a-3fb3-4e88-8da9-871bacda63cd","system_id":"levelo_inurba_marseille","lat":43.2594,"lon":5.40898,"is_reserved":false,"is_disabled":false,"rental_uris":{"android":"levelo://app?vid=19aac90a-3fb3-4e88-8da9-871bacda63cd","ios":"levelo://app?vid=19aac90a-3fb3-4e88-8da9-871bacda63cd"},"vehicle_type_id":"4","last_reported":1746601871,"current_range_meters":4800,"station_id":"ce4bhm92rcd13ifvqglg","pricing_plan_id":"cebpf4jnsgd1na2vs0mg"},{"bike_id":"a76ed20f-d073-4c41-9cb1-9ea1b0737c69","system_id":"levelo_inurba_marseille","lat":43.31305,"lon":5.39019,"is_reserved":false,"is_disabled":false,"rental_uris":{"android":"levelo://app?vid=a76ed20f-d073-4c41-9cb1-9ea1b0737c69","ios":"levelo://app?vid=a76ed20f-d073-4c41-9cb1-9ea1b0737c69"},"vehicle_type_id":"4","last_reported":1746601871,"current_range_meters":5600,"station_id":"","pricing_plan_id":"cebpf4jnsgd1na2vs0mg"},{"bike_id":"17e2fef3-80ab-442d-855e-4418e1f7015f","system_id":"levelo_inurba_marseille","lat":43.24993,"lon":5.38933,"is_reserved":false,"is_disabled":false,"rental_uris":{"android":"levelo://app?vid=17e2fef3-80ab-442d-855e-4418e1f7015f","ios":"levelo://app?vid=17e2fef3-80ab-442d-855e-4418e1f7015f"},"vehicle_type_id":"4","last_reported":1746601871,"current_range_meters":5600,"station_id":"ce4bhgp2rcd13ifvqfd0","pricing_plan_id":"cebpf4jnsgd1na2vs0mg"},{"bike_id":"9d8f73eb-df09-4699-86a7-d631e2319093","system_id":"levelo_inurba_marseille","lat":43.26261,"lon":5.37419,"is_reserved":false,"is_disabled":false,"rental_uris":{"android":"levelo://app?vid=9d8f73eb-df09-4699-86a7-d631e2319093","ios":"levelo://app?vid=9d8f73eb-df09-4699-86a7-d631e2319093"},"vehicle_type_id":"4","last_reported":1746601871,"current_range_meters":6000,"station_id":"","pricing_plan_id":"cebpf4jnsgd1na2vs0mg"},{"bike_id":"ed1288b8-ca5a-45c9-a778-7e933614233f","system_id":"levelo_inurba_marseille","lat":43.29963,"lon":5.38494,"is_reserved":false,"is_disabled":false,"rental_uris":{"android":"levelo://app?vid=ed1288b8-ca5a-45c9-a778-7e933614233f","ios":"levelo://app?vid=ed1288b8-ca5a-45c9-a778-7e933614233f"},"vehicle_type_id":"4","last_reported":1746601871,"current_range_meters":6400,"station_id":"ce4bgj92rcd13ifvqbd0","pricing_plan_id":"cebpf4jnsgd1na2vs0mg"},{"bike_id":"e2aa3390-9741-4494-868a-5f3f9f7a4b90","system_id":"levelo_inurba_marseille","lat":43.28494,"lon":5.38574,"is_reserved":false,"is_disabled":false,"rental_uris":{"android":"levelo://app?vid=e2aa3390-9741-4494-868a-5f3f9f7a4b90","ios":"levelo://app?vid=e2aa3390-9741-4494-868a-5f3f9f7a4b90"},"vehicle_type_id":"4","last_reported":1746601871,"current_range_meters":6400,"station_id":"ce4bh8p2rcd13ifvqeb0","pricing_plan_id":"cebpf4jnsgd1na2vs0mg"},{"bike_id":"80cd4040-5f85-4fb1-a356-07ddafcbcbfc","system_id":"levelo_inurba_marseille","lat":43.27577,"lon":5.38419,"is_reserved":false,"is_disabled":false,"rental_uris":{"android":"levelo://app?vid=80cd4040-5f85-4fb1-a356-07ddafcbcbfc","ios":"levelo://app?vid=80cd4040-5f85-4fb1-a356-07ddafcbcbfc"},"vehicle_type_id":"4","last_reported":1746601871,"current_range_meters":6400,"station_id":"ce4bhh92rcd13ifvqfi0","pricing_plan_id":"cebpf4jnsgd1na2vs0mg"},{"bike_id":"ac59816b-fbef-40e9-b39e-2542a991d4a7","system_id":"levelo_inurba_marseille","lat":43.32535,"lon":5.41428,"is_reserved":false,"is_disabled":false,"rental_uris":{"android":"levelo://app?vid=ac59816b-fbef-40e9-b39e-2542a991d4a7","ios":"levelo://app?vid=ac59816b-fbef-40e9-b39e-2542a991d4a7"},"vehicle_type_id":"4","last_reported":1746601871,"current_range_meters":6400,"station_id":"ce4bhq12rcd13ifvqhhg","pricing_plan_id":"cebpf4jnsgd1na2vs0mg"},{"bike_id":"ce4b8159-c0b3-4a1f-8d63-28fbe483f5b1","system_id":"levelo_inurba_marseille","lat":43.33721,"lon":5.39184,"is_reserved":false,"is_disabled":false,"rental_uris":{"android":"levelo://app?vid=ce4b8159-c0b3-4a1f-8d63-28fbe483f5b1","ios":"levelo://app?vid=ce4b8159-c0b3-4a1f-8d63-28fbe483f5b1"},"vehicle_type_id":"4","last_reported":1746601871,"current_range_meters":6400,"station_id":"ce4bhr92rcd13ifvqhsg","pricing_plan_id":"cebpf4jnsgd1na2vs0mg"},{"bike_id":"099c0da2-7d68-4ff6-a775-50bcbfeab94e","system_id":"levelo_inurba_marseille","lat":43.33581,"lon":5.40986,"is_reserved":false,"is_disabled":false,"rental_uris":{"android":"levelo://app?vid=099c0da2-7d68-4ff6-a775-50bcbfeab94e","ios":"levelo://app?vid=099c0da2-7d68-4ff6-a775-50bcbfeab94e"},"vehicle_type_id":"4","last_reported":1746601871,"current_range_meters":6800,"station_id":"","pricing_plan_id":"cebpf4jnsgd1na2vs0mg"},{"bike_id":"19d30189-a44d-4945-babe-39f8d7109f60","system_id":"levelo_inurba_marseille","lat":43.30895,"lon":5.37176,"is_reserved":false,"is_disabled":false,"rental_uris":{"android":"levelo://app?vid=19d30189-a44d-4945-babe-39f8d7109f60","ios":"levelo://app?vid=19d30189-a44d-4945-babe-39f8d7109f60"},"vehicle_type_id":"4","last_reported":1746601871,"current_range_meters":6800,"station_id":"ce4bguh2rcd13ifvqckg","pricing_plan_id":"cebpf4jnsgd1na2vs0mg"},{"bike_id":"aa809531-3685-4177-b181-409857286075","system_id":"levelo_inurba_marseille","lat":43.30666,"lon":5.40102,"is_reserved":false,"is_disabled":false,"rental_uris":{"android":"levelo://app?vid=aa809531-3685-4177-b181-409857286075","ios":"levelo://app?vid=aa809531-3685-4177-b181-409857286075"},"vehicle_type_id":"4","last_reported":1746601871,"current_range_meters":6800,"station_id":"ce4bh112rcd13ifvqda0","pricing_plan_id":"cebpf4jnsgd1na2vs0mg"},{"bike_id":"7735f831-86a3-46b0-8e7b-1ab594c8e639","system_id":"levelo_inurba_marseille","lat":43.25922,"lon":5.40893,"is_reserved":false,"is_disabled":false,"rental_uris":{"android":"levelo://app?vid=7735f831-86a3-46b0-8e7b-1ab594c8e639","ios":"levelo://app?vid=7735f831-86a3-46b0-8e7b-1ab594c8e639"},"vehicle_type_id":"4","last_reported":1746601871,"current_range_meters":6800,"station_id":"ce4bhm92rcd13ifvqglg","pricing_plan_id":"cebpf4jnsgd1na2vs0mg"},{"bike_id":"b8ba9dca-0397-45e4-8072-35543cb93954","system_id":"levelo_inurba_marseille","lat":43.33606,"lon":5.41036,"is_reserved":false,"is_disabled":false,"rental_uris":{"android":"levelo://app?vid=b8ba9dca-0397-45e4-8072-35543cb93954","ios":"levelo://app?vid=b8ba9dca-0397-45e4-8072-35543cb93954"},"vehicle_type_id":"4","last_reported":1746601871,"current_range_meters":6800,"station_id":"ce4bhqh2rcd13ifvqhmg","pricing_plan_id":"cebpf4jnsgd1na2vs0mg"},{"bike_id":"503569af-07db-461f-918e-29f89d0c1c24","system_id":"levelo_inurba_marseille","lat":43.22512,"lon":5.34781,"is_reserved":false,"is_disabled":false,"rental_uris":{"android":"levelo://app?vid=503569af-07db-461f-918e-29f89d0c1c24","ios":"levelo://app?vid=503569af-07db-461f-918e-29f89d0c1c24"},"vehicle_type_id":"4","last_reported":1746601871,"current_range_meters":6800,"station_id":"st_cvj5dfep6f1abm77gieg","pricing_plan_id":"cebpf4jnsgd1na2vs0mg"},{"bike_id":"c2fff035-6128-402a-b38b-ebc94261b3d8","system_id":"levelo_inurba_marseille","lat":43.21181,"lon":5.35052,"is_reserved":false,"is_disabled":false,"rental_uris":{"android":"levelo://app?vid=c2fff035-6128-402a-b38b-ebc94261b3d8","ios":"levelo://app?vid=c2fff035-6128-402a-b38b-ebc94261b3d8"},"vehicle_type_id":"4","last_reported":1746601871,"current_range_meters":6800,"station_id":"st_cvj6sg6p6f1abm77japg","pricing_plan_id":"cebpf4jnsgd1na2vs0mg"},{"bike_id":"13562a33-814e-41c1-92c6-02931adafbf7","system_id":"levelo_inurba_marseille","lat":43.30488,"lon":5.37914,"is_reserved":false,"is_disabled":false,"rental_uris":{"android":"levelo://app?vid=13562a33-814e-41c1-92c6-02931adafbf7","ios":"levelo://app?vid=13562a33-814e-41c1-92c6-02931adafbf7"},"vehicle_type_id":"4","last_reported":1746601871,"current_range_meters":7200,"station_id":"ce4bgup2rcd13ifvqcn0","pricing_plan_id":"cebpf4jnsgd1na2vs0mg"},{"bike_id":"c9592205-9409-4f74-aed1-7c4141a58caa","system_id":"levelo_inurba_marseille","lat":43.27133,"lon":5.36357,"is_reserved":false,"is_disabled":false,"rental_uris":{"android":"levelo://app?vid=c9592205-9409-4f74-aed1-7c4141a58caa","ios":"levelo://app?vid=c9592205-9409-4f74-aed1-7c4141a58caa"},"vehicle_type_id":"4","last_reported":1746601871,"current_range_meters":8000,"station_id":"","pricing_plan_id":"cebpf4jnsgd1na2vs0mg"},{"bike_id":"5a684592-94dd-449f-b4dc-914c2afe6916","system_id":"levelo_inurba_marseille","lat":43.31389,"lon":5.36691,"is_reserved":false,"is_disabled":false,"rental_uris":{"android":"levelo://app?vid=5a684592-94dd-449f-b4dc-914c2afe6916","ios":"levelo://app?vid=5a684592-94dd-449f-b4dc-914c2afe6916"},"vehicle_type_id":"4","last_reported":1746601871,"current_range_meters":8000,"station_id":"","pricing_plan_id":"cebpf4jnsgd1na2vs0mg"},{"bike_id":"d5dfd137-cf61-45e4-8b7e-20c47647b6c9","system_id":"levelo_inurba_marseille","lat":43.30146,"lon":5.37424,"is_reserved":false,"is_disabled":false,"rental_uris":{"android":"levelo://app?vid=d5dfd137-cf61-45e4-8b7e-20c47647b6c9","ios":"levelo://app?vid=d5dfd137-cf61-45e4-8b7e-20c47647b6c9"},"vehicle_type_id":"4","last_reported":1746601871,"current_range_meters":8000,"station_id":"ce4bgs92rcd13ifvqcc0","pricing_plan_id":"cebpf4jnsgd1na2vs0mg"},{"bike_id":"9813ef8f-feb3-4058-8b11-3210972a06b1","system_id":"levelo_inurba_marseille","lat":43.30891,"lon":5.37189,"is_reserved":false,"is_disabled":false,"rental_uris":{"android":"levelo://app?vid=9813ef8f-feb3-4058-8b11-3210972a06b1","ios":"levelo://app?vid=9813ef8f-feb3-4058-8b11-3210972a06b1"},"vehicle_type_id":"4","last_reported":1746601871,"current_range_meters":8000,"station_id":"ce4bguh2rcd13ifvqckg","pricing_plan_id":"cebpf4jnsgd1na2vs0mg"},{"bike_id":"bab57e29-1b43-40e7-87ee-968e5ea56319","system_id":"levelo_inurba_marseille","lat":43.3233,"lon":5.38947,"is_reserved":false,"is_disabled":false,"rental_uris":{"android":"levelo://app?vid=bab57e29-1b43-40e7-87ee-968e5ea56319","ios":"levelo://app?vid=bab57e29-1b43-40e7-87ee-968e5ea56319"},"vehicle_type_id":"4","last_reported":1746601871,"current_range_meters":8000,"station_id":"ce4bhqp2rcd13ifvqhog","pricing_plan_id":"cebpf4jnsgd1na2vs0mg"},{"bike_id":"943d0601-5d73-468b-922c-7ef604961a21","system_id":"levelo_inurba_marseille","lat":43.21187,"lon":5.35088,"is_reserved":false,"is_disabled":false,"rental_uris":{"android":"levelo://app?vid=943d0601-5d73-468b-922c-7ef604961a21","ios":"levelo://app?vid=943d0601-5d73-468b-922c-7ef604961a21"},"vehicle_type_id":"4","last_reported":1746601871,"current_range_meters":8000,"station_id":"st_cvj6sg6p6f1abm77japg","pricing_plan_id":"cebpf4jnsgd1na2vs0mg"},{"bike_id":"5e64a698-d714-4d99-8261-db4d12b9f278","system_id":"levelo_inurba_marseille","lat":43.3075,"lon":5.37216,"is_reserved":false,"is_disabled":false,"rental_uris":{"android":"levelo://app?vid=5e64a698-d714-4d99-8261-db4d12b9f278","ios":"levelo://app?vid=5e64a698-d714-4d99-8261-db4d12b9f278"},"vehicle_type_id":"4","last_reported":1746601871,"current_range_meters":8400,"station_id":"","pricing_plan_id":"cebpf4jnsgd1na2vs0mg"},{"bike_id":"ded9bd18-bc9a-4e74-9959-ea6270ccd83d","system_id":"levelo_inurba_marseille","lat":43.30542,"lon":5.36552,"is_reserved":false,"is_disabled":false,"rental_uris":{"android":"levelo://app?vid=ded9bd18-bc9a-4e74-9959-ea6270ccd83d","ios":"levelo://app?vid=ded9bd18-bc9a-4e74-9959-ea6270ccd83d"},"vehicle_type_id":"4","last_reported":1746601871,"current_range_meters":8400,"station_id":"ce4bgs12rcd13ifvqcag","pricing_plan_id":"cebpf4jnsgd1na2vs0mg"},{"bike_id":"041f3aff-926d-4945-9e42-97d8b9d8f1f4","system_id":"levelo_inurba_marseille","lat":43.26686,"lon":5.38275,"is_reserved":false,"is_disabled":false,"rental_uris":{"android":"levelo://app?vid=041f3aff-926d-4945-9e42-97d8b9d8f1f4","ios":"levelo://app?vid=041f3aff-926d-4945-9e42-97d8b9d8f1f4"},"vehicle_type_id":"4","last_reported":1746601871,"current_range_meters":8400,"station_id":"ce4bhg92rcd13ifvqf90","pricing_plan_id":"cebpf4jnsgd1na2vs0mg"},{"bike_id":"fcb77055-0818-4794-a5df-97d1db0c3477","system_id":"levelo_inurba_marseille","lat":43.23964,"lon":5.3664,"is_reserved":false,"is_disabled":false,"rental_uris":{"android":"levelo://app?vid=fcb77055-0818-4794-a5df-97d1db0c3477","ios":"levelo://app?vid=fcb77055-0818-4794-a5df-97d1db0c3477"},"vehicle_type_id":"4","last_reported":1746601871,"current_range_meters":8400,"station_id":"ce4bhi12rcd13ifvqfp0","pricing_plan_id":"cebpf4jnsgd1na2vs0mg"},{"bike_id":"10dc4be1-62fc-4eaf-8255-c64f1594c8ce","system_id":"levelo_inurba_marseille","lat":43.27498,"lon":5.42457,"is_reserved":false,"is_disabled":false,"rental_uris":{"android":"levelo://app?vid=10dc4be1-62fc-4eaf-8255-c64f1594c8ce","ios":"levelo://app?vid=10dc4be1-62fc-4eaf-8255-c64f1594c8ce"},"vehicle_type_id":"4","last_reported":1746601871,"current_range_meters":8400,"station_id":"ce4bhn92rcd13ifvqgrg","pricing_plan_id":"cebpf4jnsgd1na2vs0mg"},{"bike_id":"b4bac287-3615-423a-bca2-a11fb80cb066","system_id":"levelo_inurba_marseille","lat":43.230508,"lon":5.354949,"is_reserved":false,"is_disabled":false,"rental_uris":{"android":"levelo://app?vid=b4bac287-3615-423a-bca2-a11fb80cb066","ios":"levelo://app?vid=b4bac287-3615-423a-bca2-a11fb80cb066"},"vehicle_type_id":"4","last_reported":1746601871,"current_range_meters":8400,"station_id":"cpo3342slgdg3j2ifvpg","pricing_plan_id":"cebpf4jnsgd1na2vs0mg"},{"bike_id":"3f84d55c-f7b3-443f-a8ba-1f83ba8291a2","system_id":"levelo_inurba_marseille","lat":43.21193,"lon":5.35077,"is_reserved":false,"is_disabled":false,"rental_uris":{"android":"levelo://app?vid=3f84d55c-f7b3-443f-a8ba-1f83ba8291a2","ios":"levelo://app?vid=3f84d55c-f7b3-443f-a8ba-1f83ba8291a2"},"vehicle_type_id":"4","last_reported":1746601871,"current_range_meters":8400,"station_id":"st_cvj6sg6p6f1abm77japg","pricing_plan_id":"cebpf4jnsgd1na2vs0mg"},{"bike_id":"eb5d602e-a3ab-4f37-972a-9b57ce940f3b","system_id":"levelo_inurba_marseille","lat":43.31348,"lon":5.36724,"is_reserved":false,"is_disabled":false,"rental_uris":{"android":"levelo://app?vid=eb5d602e-a3ab-4f37-972a-9b57ce940f3b","ios":"levelo://app?vid=eb5d602e-a3ab-4f37-972a-9b57ce940f3b"},"vehicle_type_id":"4","last_reported":1746601871,"current_range_meters":8800,"station_id":"ce4bgr92rcd13ifvqc6g","pricing_plan_id":"cebpf4jnsgd1na2vs0mg"},{"bike_id":"2370bbbd-549c-4595-8698-dadbdc6d67e4","system_id":"levelo_inurba_marseille","lat":43.299881,"lon":5.371813,"is_reserved":false,"is_disabled":false,"rental_uris":{"android":"levelo://app?vid=2370bbbd-549c-4595-8698-dadbdc6d67e4","ios":"levelo://app?vid=2370bbbd-549c-4595-8698-dadbdc6d67e4"},"vehicle_type_id":"4","last_reported":1746601871,"current_range_meters":8800,"station_id":"ce4bgr92rcd13ifvqc7g","pricing_plan_id":"cebpf4jnsgd1na2vs0mg"},{"bike_id":"b570dcdd-d47e-496a-ad8f-0af8f0cc9c6d","system_id":"levelo_inurba_marseille","lat":43.30465,"lon":5.37909,"is_reserved":false,"is_disabled":false,"rental_uris":{"android":"levelo://app?vid=b570dcdd-d47e-496a-ad8f-0af8f0cc9c6d","ios":"levelo://app?vid=b570dcdd-d47e-496a-ad8f-0af8f0cc9c6d"},"vehicle_type_id":"4","last_reported":1746601871,"current_range_meters":8800,"station_id":"ce4bgup2rcd13ifvqcn0","pricing_plan_id":"cebpf4jnsgd1na2vs0mg"},{"bike_id":"9581cd2d-e0ba-4873-b741-8faaa40de818","system_id":"levelo_inurba_marseille","lat":43.29168,"lon":5.37162,"is_reserved":false,"is_disabled":false,"rental_uris":{"android":"levelo://app?vid=9581cd2d-e0ba-4873-b741-8faaa40de818","ios":"levelo://app?vid=9581cd2d-e0ba-4873-b741-8faaa40de818"},"vehicle_type_id":"4","last_reported":1746601871,"current_range_meters":8800,"station_id":"ce4bha92rcd13ifvqeh0","pricing_plan_id":"cebpf4jnsgd1na2vs0mg"},{"bike_id":"7f785bca-da55-47c7-9bd4-9bec97d565db","system_id":"levelo_inurba_marseille","lat":43.26671,"lon":5.38282,"is_reserved":false,"is_disabled":false,"rental_uris":{"android":"levelo://app?vid=7f785bca-da55-47c7-9bd4-9bec97d565db","ios":"levelo://app?vid=7f785bca-da55-47c7-9bd4-9bec97d565db"},"vehicle_type_id":"4","last_reported":1746601871,"current_range_meters":8800,"station_id":"ce4bhg92rcd13ifvqf90","pricing_plan_id":"cebpf4jnsgd1na2vs0mg"},{"bike_id":"f909d878-88c2-447a-bc4f-82f1db2e243c","system_id":"levelo_inurba_marseille","lat":43.31218,"lon":5.36834,"is_reserved":false,"is_disabled":false,"rental_uris":{"android":"levelo://app?vid=f909d878-88c2-447a-bc4f-82f1db2e243c","ios":"levelo://app?vid=f909d878-88c2-447a-bc4f-82f1db2e243c"},"vehicle_type_id":"4","last_reported":1746601871,"current_range_meters":9200,"station_id":"ce4bgl92rcd13ifvqbq0","pricing_plan_id":"cebpf4jnsgd1na2vs0mg"},{"bike_id":"bd3b2178-bd6a-4801-b79f-10fa8392d3d4","system_id":"levelo_inurba_marseille","lat":43.312429,"lon":5.368749,"is_reserved":false,"is_disabled":false,"rental_uris":{"android":"levelo://app?vid=bd3b2178-bd6a-4801-b79f-10fa8392d3d4","ios":"levelo://app?vid=bd3b2178-bd6a-4801-b79f-10fa8392d3d4"},"vehicle_type_id":"4","last_reported":1746601871,"current_range_meters":9200,"station_id":"ce4bgl92rcd13ifvqbq0","pricing_plan_id":"cebpf4jnsgd1na2vs0mg"},{"bike_id":"b0d61114-314b-423b-8f2f-8683b3d4c79e","system_id":"levelo_inurba_marseille","lat":43.25588,"lon":5.38239,"is_reserved":false,"is_disabled":false,"rental_uris":{"android":"levelo://app?vid=b0d61114-314b-423b-8f2f-8683b3d4c79e","ios":"levelo://app?vid=b0d61114-314b-423b-8f2f-8683b3d4c79e"},"vehicle_type_id":"4","last_reported":1746601871,"current_range_meters":9200,"station_id":"ce4bhih2rcd13ifvqfs0","pricing_plan_id":"cebpf4jnsgd1na2vs0mg"},{"bike_id":"5fe2cbfb-c030-478f-a49f-f2d8130ddcdc","system_id":"levelo_inurba_marseille","lat":43.27488,"lon":5.42476,"is_reserved":false,"is_disabled":false,"rental_uris":{"android":"levelo://app?vid=5fe2cbfb-c030-478f-a49f-f2d8130ddcdc","ios":"levelo://app?vid=5fe2cbfb-c030-478f-a49f-f2d8130ddcdc"},"vehicle_type_id":"4","last_reported":1746601871,"current_range_meters":9200,"station_id":"ce4bhn92rcd13ifvqgrg","pricing_plan_id":"cebpf4jnsgd1na2vs0mg"},{"bike_id":"f3019fac-f851-4f7d-815e-8efdf328682a","system_id":"levelo_inurba_marseille","lat":43.309021,"lon":5.368437,"is_reserved":false,"is_disabled":false,"rental_uris":{"android":"levelo://app?vid=f3019fac-f851-4f7d-815e-8efdf328682a","ios":"levelo://app?vid=f3019fac-f851-4f7d-815e-8efdf328682a"},"vehicle_type_id":"4","last_reported":1746601871,"current_range_meters":9600,"station_id":"ce4bgn92rcd13ifvqbvg","pricing_plan_id":"cebpf4jnsgd1na2vs0mg"},{"bike_id":"e4dc0bd1-1c5f-421f-87ef-8a9369b10d51","system_id":"levelo_inurba_marseille","lat":43.3135,"lon":5.36726,"is_reserved":false,"is_disabled":false,"rental_uris":{"android":"levelo://app?vid=e4dc0bd1-1c5f-421f-87ef-8a9369b10d51","ios":"levelo://app?vid=e4dc0bd1-1c5f-421f-87ef-8a9369b10d51"},"vehicle_type_id":"4","last_reported":1746601871,"current_range_meters":9600,"station_id":"ce4bgr92rcd13ifvqc6g","pricing_plan_id":"cebpf4jnsgd1na2vs0mg"},{"bike_id":"d5fee40b-76d8-41c5-92b0-bc3427530055","system_id":"levelo_inurba_marseille","lat":43.33599,"lon":5.41,"is_reserved":false,"is_disabled":false,"rental_uris":{"android":"levelo://app?vid=d5fee40b-76d8-41c5-92b0-bc3427530055","ios":"levelo://app?vid=d5fee40b-76d8-41c5-92b0-bc3427530055"},"vehicle_type_id":"4","last_reported":1746601871,"current_range_meters":9600,"station_id":"ce4bhqh2rcd13ifvqhmg","pricing_plan_id":"cebpf4jnsgd1na2vs0mg"},{"bike_id":"0cdf9bc0-af21-479b-abeb-1be5ccb5d92d","system_id":"levelo_inurba_marseille","lat":43.2912,"lon":5.38115,"is_reserved":false,"is_disabled":false,"rental_uris":{"android":"levelo://app?vid=0cdf9bc0-af21-479b-abeb-1be5ccb5d92d","ios":"levelo://app?vid=0cdf9bc0-af21-479b-abeb-1be5ccb5d92d"},"vehicle_type_id":"4","last_reported":1746601871,"current_range_meters":10000,"station_id":"ce4bh512rcd13ifvqe2g","pricing_plan_id":"cebpf4jnsgd1na2vs0mg"},{"bike_id":"b684db1e-9f3a-470e-a552-af8b992d141f","system_id":"levelo_inurba_marseille","lat":43.25866,"lon":5.39894,"is_reserved":false,"is_disabled":false,"rental_uris":{"android":"levelo://app?vid=b684db1e-9f3a-470e-a552-af8b992d141f","ios":"levelo://app?vid=b684db1e-9f3a-470e-a552-af8b992d141f"},"vehicle_type_id":"4","last_reported":1746601871,"current_range_meters":10000,"station_id":"ce4bhl92rcd13ifvqghg","pricing_plan_id":"cebpf4jnsgd1na2vs0mg"},{"bike_id":"255c88e1-0c7c-411f-9a8f-d0cbadac3170","system_id":"levelo_inurba_marseille","lat":43.2623,"lon":5.40453,"is_reserved":false,"is_disabled":false,"rental_uris":{"android":"levelo://app?vid=255c88e1-0c7c-411f-9a8f-d0cbadac3170","ios":"levelo://app?vid=255c88e1-0c7c-411f-9a8f-d0cbadac3170"},"vehicle_type_id":"4","last_reported":1746601871,"current_range_meters":10000,"station_id":"ce4bhmh2rcd13ifvqgmg","pricing_plan_id":"cebpf4jnsgd1na2vs0mg"},{"bike_id":"289b2c86-e69e-4d0e-8893-3a3b12076290","system_id":"levelo_inurba_marseille","lat":43.27941,"lon":5.41046,"is_reserved":false,"is_disabled":false,"rental_uris":{"android":"levelo://app?vid=289b2c86-e69e-4d0e-8893-3a3b12076290","ios":"levelo://app?vid=289b2c86-e69e-4d0e-8893-3a3b12076290"},"vehicle_type_id":"4","last_reported":1746601871,"current_range_meters":10000,"station_id":"ce4bhnp2rcd13ifvqh0g","pricing_plan_id":"cebpf4jnsgd1na2vs0mg"},{"bike_id":"9f2da385-aaba-4737-b0f9-207b345341bf","system_id":"levelo_inurba_marseille","lat":43.33605,"lon":5.41024,"is_reserved":false,"is_disabled":false,"rental_uris":{"android":"levelo://app?vid=9f2da385-aaba-4737-b0f9-207b345341bf","ios":"levelo://app?vid=9f2da385-aaba-4737-b0f9-207b345341bf"},"vehicle_type_id":"4","last_reported":1746601871,"current_range_meters":10000,"station_id":"ce4bhqh2rcd13ifvqhmg","pricing_plan_id":"cebpf4jnsgd1na2vs0mg"},{"bike_id":"8a5554a2-b62f-4371-8d49-519ad97fb9f1","system_id":"levelo_inurba_marseille","lat":43.33058,"lon":5.39049,"is_reserved":false,"is_disabled":false,"rental_uris":{"android":"levelo://app?vid=8a5554a2-b62f-4371-8d49-519ad97fb9f1","ios":"levelo://app?vid=8a5554a2-b62f-4371-8d49-519ad97fb9f1"},"vehicle_type_id":"4","last_reported":1746601871,"current_range_meters":10000,"station_id":"ce4bhr92rcd13ifvqhrg","pricing_plan_id":"cebpf4jnsgd1na2vs0mg"},{"bike_id":"17616a2b-7660-4f92-a213-fb06bfd905e7","system_id":"levelo_inurba_marseille","lat":43.33588,"lon":5.40975,"is_reserved":false,"is_disabled":false,"rental_uris":{"android":"levelo://app?vid=17616a2b-7660-4f92-a213-fb06bfd905e7","ios":"levelo://app?vid=17616a2b-7660-4f92-a213-fb06bfd905e7"},"vehicle_type_id":"4","last_reported":1746601871,"current_range_meters":10800,"station_id":"","pricing_plan_id":"cebpf4jnsgd1na2vs0mg"},{"bike_id":"ee29f23e-0694-4951-ac0d-e036719619d4","system_id":"levelo_inurba_marseille","lat":43.31354,"lon":5.36698,"is_reserved":false,"is_disabled":false,"rental_uris":{"android":"levelo://app?vid=ee29f23e-0694-4951-ac0d-e036719619d4","ios":"levelo://app?vid=ee29f23e-0694-4951-ac0d-e036719619d4"},"vehicle_type_id":"4","last_reported":1746601871,"current_range_meters":10800,"station_id":"ce4bgr92rcd13ifvqc6g","pricing_plan_id":"cebpf4jnsgd1na2vs0mg"},{"bike_id":"c472387c-1128-4c57-aad9-9a7bbb7b7251","system_id":"levelo_inurba_marseille","lat":43.25115,"lon":5.40322,"is_reserved":false,"is_disabled":false,"rental_uris":{"android":"levelo://app?vid=c472387c-1128-4c57-aad9-9a7bbb7b7251","ios":"levelo://app?vid=c472387c-1128-4c57-aad9-9a7bbb7b7251"},"vehicle_type_id":"4","last_reported":1746601871,"current_range_meters":10800,"station_id":"ce4bhlh2rcd13ifvqgig","pricing_plan_id":"cebpf4jnsgd1na2vs0mg"},{"bike_id":"3209d499-36e2-42ef-b4ee-17d943c836e3","system_id":"levelo_inurba_marseille","lat":43.2623,"lon":5.40453,"is_reserved":false,"is_disabled":false,"rental_uris":{"android":"levelo://app?vid=3209d499-36e2-42ef-b4ee-17d943c836e3","ios":"levelo://app?vid=3209d499-36e2-42ef-b4ee-17d943c836e3"},"vehicle_type_id":"4","last_reported":1746601871,"current_range_meters":10800,"station_id":"ce4bhmh2rcd13ifvqgmg","pricing_plan_id":"cebpf4jnsgd1na2vs0mg"},{"bike_id":"741922f7-49ff-4751-a228-5a73f2c8c24d","system_id":"levelo_inurba_marseille","lat":43.24169,"lon":5.364,"is_reserved":false,"is_disabled":false,"rental_uris":{"android":"levelo://app?vid=741922f7-49ff-4751-a228-5a73f2c8c24d","ios":"levelo://app?vid=741922f7-49ff-4751-a228-5a73f2c8c24d"},"vehicle_type_id":"4","last_reported":1746601871,"current_range_meters":10800,"station_id":"cpo36qri1sfpv3e86is0","pricing_plan_id":"cebpf4jnsgd1na2vs0mg"},{"bike_id":"c65b64f5-a38f-4b33-a48f-6bb6c6b32a53","system_id":"levelo_inurba_marseille","lat":43.2123,"lon":5.35058,"is_reserved":false,"is_disabled":false,"rental_uris":{"android":"levelo://app?vid=c65b64f5-a38f-4b33-a48f-6bb6c6b32a53","ios":"levelo://app?vid=c65b64f5-a38f-4b33-a48f-6bb6c6b32a53"},"vehicle_type_id":"4","last_reported":1746601871,"current_range_meters":11200,"station_id":"","pricing_plan_id":"cebpf4jnsgd1na2vs0mg"},{"bike_id":"8e6de374-7e07-47cf-a8c0-9b1a411738b5","system_id":"levelo_inurba_marseille","lat":43.33793,"lon":5.37442,"is_reserved":false,"is_disabled":false,"rental_uris":{"android":"levelo://app?vid=8e6de374-7e07-47cf-a8c0-9b1a411738b5","ios":"levelo://app?vid=8e6de374-7e07-47cf-a8c0-9b1a411738b5"},"vehicle_type_id":"4","last_reported":1746601871,"current_range_meters":11200,"station_id":"","pricing_plan_id":"cebpf4jnsgd1na2vs0mg"},{"bike_id":"9739ff23-d55e-44ff-8581-885be180b096","system_id":"levelo_inurba_marseille","lat":43.30478,"lon":5.37881,"is_reserved":false,"is_disabled":false,"rental_uris":{"android":"levelo://app?vid=9739ff23-d55e-44ff-8581-885be180b096","ios":"levelo://app?vid=9739ff23-d55e-44ff-8581-885be180b096"},"vehicle_type_id":"4","last_reported":1746601871,"current_range_meters":11200,"station_id":"ce4bgup2rcd13ifvqcn0","pricing_plan_id":"cebpf4jnsgd1na2vs0mg"},{"bike_id":"3575a82b-5947-422b-ad31-6852a9e855be","system_id":"levelo_inurba_marseille","lat":43.24068,"lon":5.37758,"is_reserved":false,"is_disabled":false,"rental_uris":{"android":"levelo://app?vid=3575a82b-5947-422b-ad31-6852a9e855be","ios":"levelo://app?vid=3575a82b-5947-422b-ad31-6852a9e855be"},"vehicle_type_id":"4","last_reported":1746601871,"current_range_meters":11200,"station_id":"ce4bhnp2rcd13ifvqgvg","pricing_plan_id":"cebpf4jnsgd1na2vs0mg"},{"bike_id":"7d6d1671-1f6d-46a4-b758-baa582e2e2aa","system_id":"levelo_inurba_marseille","lat":43.24995,"lon":5.38938,"is_reserved":false,"is_disabled":false,"rental_uris":{"android":"levelo://app?vid=7d6d1671-1f6d-46a4-b758-baa582e2e2aa","ios":"levelo://app?vid=7d6d1671-1f6d-46a4-b758-baa582e2e2aa"},"vehicle_type_id":"4","last_reported":1746601871,"current_range_meters":11600,"station_id":"ce4bhgp2rcd13ifvqfd0","pricing_plan_id":"cebpf4jnsgd1na2vs0mg"},{"bike_id":"a43278df-4e81-4b9f-addd-f05b442cbaa5","system_id":"levelo_inurba_marseille","lat":43.25944,"lon":5.409,"is_reserved":false,"is_disabled":false,"rental_uris":{"android":"levelo://app?vid=a43278df-4e81-4b9f-addd-f05b442cbaa5","ios":"levelo://app?vid=a43278df-4e81-4b9f-addd-f05b442cbaa5"},"vehicle_type_id":"4","last_reported":1746601871,"current_range_meters":11600,"station_id":"ce4bhm92rcd13ifvqglg","pricing_plan_id":"cebpf4jnsgd1na2vs0mg"},{"bike_id":"5b24df75-82e0-48c3-9792-2617424d8995","system_id":"levelo_inurba_marseille","lat":43.31687,"lon":5.40472,"is_reserved":false,"is_disabled":false,"rental_uris":{"android":"levelo://app?vid=5b24df75-82e0-48c3-9792-2617424d8995","ios":"levelo://app?vid=5b24df75-82e0-48c3-9792-2617424d8995"},"vehicle_type_id":"4","last_reported":1746601871,"current_range_meters":12000,"station_id":"ce4bh012rcd13ifvqd00","pricing_plan_id":"cebpf4jnsgd1na2vs0mg"},{"bike_id":"094230f9-ac4a-4f9a-be9f-3d663df8ba55","system_id":"levelo_inurba_marseille","lat":43.27491,"lon":5.42449,"is_reserved":false,"is_disabled":false,"rental_uris":{"android":"levelo://app?vid=094230f9-ac4a-4f9a-be9f-3d663df8ba55","ios":"levelo://app?vid=094230f9-ac4a-4f9a-be9f-3d663df8ba55"},"vehicle_type_id":"4","last_reported":1746601871,"current_range_meters":12800,"station_id":"ce4bhn92rcd13ifvqgrg","pricing_plan_id":"cebpf4jnsgd1na2vs0mg"},{"bike_id":"2714f713-c769-4f6a-ac44-441a635e9cba","system_id":"levelo_inurba_marseille","lat":43.21623,"lon":5.34207,"is_reserved":false,"is_disabled":false,"rental_uris":{"android":"levelo://app?vid=2714f713-c769-4f6a-ac44-441a635e9cba","ios":"levelo://app?vid=2714f713-c769-4f6a-ac44-441a635e9cba"},"vehicle_type_id":"4","last_reported":1746601871,"current_range_meters":13600,"station_id":"","pricing_plan_id":"cebpf4jnsgd1na2vs0mg"},{"bike_id":"041af1b4-ef6c-4ed3-943b-d5ce18fbe9c1","system_id":"levelo_inurba_marseille","lat":43.30151,"lon":5.38082,"is_reserved":false,"is_disabled":false,"rental_uris":{"android":"levelo://app?vid=041af1b4-ef6c-4ed3-943b-d5ce18fbe9c1","ios":"levelo://app?vid=041af1b4-ef6c-4ed3-943b-d5ce18fbe9c1"},"vehicle_type_id":"4","last_reported":1746601871,"current_range_meters":13600,"station_id":"ce4bgjp2rcd13ifvqbh0","pricing_plan_id":"cebpf4jnsgd1na2vs0mg"},{"bike_id":"4470e3db-6fa1-4cb1-98a8-1fcc59d0a0c1","system_id":"levelo_inurba_marseille","lat":43.31372,"lon":5.38496,"is_reserved":false,"is_disabled":false,"rental_uris":{"android":"levelo://app?vid=4470e3db-6fa1-4cb1-98a8-1fcc59d0a0c1","ios":"levelo://app?vid=4470e3db-6fa1-4cb1-98a8-1fcc59d0a0c1"},"vehicle_type_id":"4","last_reported":1746601871,"current_range_meters":14000,"station_id":"ce4bgt92rcd13ifvqcf0","pricing_plan_id":"cebpf4jnsgd1na2vs0mg"},{"bike_id":"6cce1156-f773-4808-ad62-c8ccf484b6ea","system_id":"levelo_inurba_marseille","lat":43.3122,"lon":5.36838,"is_reserved":false,"is_disabled":false,"rental_uris":{"android":"levelo://app?vid=6cce1156-f773-4808-ad62-c8ccf484b6ea","ios":"levelo://app?vid=6cce1156-f773-4808-ad62-c8ccf484b6ea"},"vehicle_type_id":"4","last_reported":1746601871,"current_range_meters":14400,"station_id":"ce4bgl92rcd13ifvqbq0","pricing_plan_id":"cebpf4jnsgd1na2vs0mg"},{"bike_id":"12d25d0a-4fe4-4ec6-8a91-2c2bf9fc2504","system_id":"levelo_inurba_marseille","lat":43.3135,"lon":5.36705,"is_reserved":false,"is_disabled":false,"rental_uris":{"android":"levelo://app?vid=12d25d0a-4fe4-4ec6-8a91-2c2bf9fc2504","ios":"levelo://app?vid=12d25d0a-4fe4-4ec6-8a91-2c2bf9fc2504"},"vehicle_type_id":"4","last_reported":1746601871,"current_range_meters":14400,"station_id":"ce4bgr92rcd13ifvqc6g","pricing_plan_id":"cebpf4jnsgd1na2vs0mg"},{"bike_id":"41bacc15-c7ae-4ade-a615-62f6eb806896","system_id":"levelo_inurba_marseille","lat":43.28944,"lon":5.38394,"is_reserved":false,"is_disabled":false,"rental_uris":{"android":"levelo://app?vid=41bacc15-c7ae-4ade-a615-62f6eb806896","ios":"levelo://app?vid=41bacc15-c7ae-4ade-a615-62f6eb806896"},"vehicle_type_id":"4","last_reported":1746601871,"current_range_meters":14400,"station_id":"ce4bh612rcd13ifvqe6g","pricing_plan_id":"cebpf4jnsgd1na2vs0mg"},{"bike_id":"16dbae56-30b3-495d-8c1f-641b331f8345","system_id":"levelo_inurba_marseille","lat":43.24098,"lon":5.37757,"is_reserved":false,"is_disabled":false,"rental_uris":{"android":"levelo://app?vid=16dbae56-30b3-495d-8c1f-641b331f8345","ios":"levelo://app?vid=16dbae56-30b3-495d-8c1f-641b331f8345"},"vehicle_type_id":"4","last_reported":1746601871,"current_range_meters":14400,"station_id":"ce4bhnp2rcd13ifvqgvg","pricing_plan_id":"cebpf4jnsgd1na2vs0mg"},{"bike_id":"f149ab83-f685-4443-a41e-24fdbb73d7f2","system_id":"levelo_inurba_marseille","lat":43.24086,"lon":5.37746,"is_reserved":false,"is_disabled":false,"rental_uris":{"android":"levelo://app?vid=f149ab83-f685-4443-a41e-24fdbb73d7f2","ios":"levelo://app?vid=f149ab83-f685-4443-a41e-24fdbb73d7f2"},"vehicle_type_id":"4","last_reported":1746601871,"current_range_meters":14800,"station_id":"ce4bhnp2rcd13ifvqgvg","pricing_plan_id":"cebpf4jnsgd1na2vs0mg"},{"bike_id":"48983f4e-aa70-4705-b021-6ffd7b3f1c76","system_id":"levelo_inurba_marseille","lat":43.30141,"lon":5.37418,"is_reserved":false,"is_disabled":false,"rental_uris":{"android":"levelo://app?vid=48983f4e-aa70-4705-b021-6ffd7b3f1c76","ios":"levelo://app?vid=48983f4e-aa70-4705-b021-6ffd7b3f1c76"},"vehicle_type_id":"4","last_reported":1746601871,"current_range_meters":15200,"station_id":"ce4bgs92rcd13ifvqcc0","pricing_plan_id":"cebpf4jnsgd1na2vs0mg"},{"bike_id":"735c70a2-4887-4a52-ab8a-cd30f0800409","system_id":"levelo_inurba_marseille","lat":43.30461,"lon":5.37908,"is_reserved":false,"is_disabled":false,"rental_uris":{"android":"levelo://app?vid=735c70a2-4887-4a52-ab8a-cd30f0800409","ios":"levelo://app?vid=735c70a2-4887-4a52-ab8a-cd30f0800409"},"vehicle_type_id":"4","last_reported":1746601871,"current_range_meters":15200,"station_id":"ce4bgup2rcd13ifvqcn0","pricing_plan_id":"cebpf4jnsgd1na2vs0mg"},{"bike_id":"90384ce3-0cb2-4a43-91e2-44d97efa93de","system_id":"levelo_inurba_marseille","lat":43.25931,"lon":5.40912,"is_reserved":false,"is_disabled":false,"rental_uris":{"android":"levelo://app?vid=90384ce3-0cb2-4a43-91e2-44d97efa93de","ios":"levelo://app?vid=90384ce3-0cb2-4a43-91e2-44d97efa93de"},"vehicle_type_id":"4","last_reported":1746601871,"current_range_meters":15200,"station_id":"ce4bhm92rcd13ifvqglg","pricing_plan_id":"cebpf4jnsgd1na2vs0mg"},{"bike_id":"b9e3f2a3-41e4-447b-ad2c-5930cbff250b","system_id":"levelo_inurba_marseille","lat":43.261735,"lon":5.36991,"is_reserved":false,"is_disabled":false,"rental_uris":{"android":"levelo://app?vid=b9e3f2a3-41e4-447b-ad2c-5930cbff250b","ios":"levelo://app?vid=b9e3f2a3-41e4-447b-ad2c-5930cbff250b"},"vehicle_type_id":"4","last_reported":1746601871,"current_range_meters":16000,"station_id":"ce4bhhh2rcd13ifvqfk0","pricing_plan_id":"cebpf4jnsgd1na2vs0mg"},{"bike_id":"5ae9086d-f7b1-4fad-859d-22a2c850dda7","system_id":"levelo_inurba_marseille","lat":43.24177,"lon":5.39732,"is_reserved":false,"is_disabled":false,"rental_uris":{"android":"levelo://app?vid=5ae9086d-f7b1-4fad-859d-22a2c850dda7","ios":"levelo://app?vid=5ae9086d-f7b1-4fad-859d-22a2c850dda7"},"vehicle_type_id":"4","last_reported":1746601871,"current_range_meters":16000,"station_id":"ce4bhn12rcd13ifvqgpg","pricing_plan_id":"cebpf4jnsgd1na2vs0mg"},{"bike_id":"4fa44a4d-c738-41bc-9022-213fbeae4065","system_id":"levelo_inurba_marseille","lat":43.23192,"lon":5.40015,"is_reserved":false,"is_disabled":false,"rental_uris":{"android":"levelo://app?vid=4fa44a4d-c738-41bc-9022-213fbeae4065","ios":"levelo://app?vid=4fa44a4d-c738-41bc-9022-213fbeae4065"},"vehicle_type_id":"4","last_reported":1746601871,"current_range_meters":16000,"station_id":"ce4bhn12rcd13ifvqgqg","pricing_plan_id":"cebpf4jnsgd1na2vs0mg"},{"bike_id":"542c0938-98d0-4bc8-9796-cc1d34a5f9b0","system_id":"levelo_inurba_marseille","lat":43.24074,"lon":5.37756,"is_reserved":false,"is_disabled":false,"rental_uris":{"android":"levelo://app?vid=542c0938-98d0-4bc8-9796-cc1d34a5f9b0","ios":"levelo://app?vid=542c0938-98d0-4bc8-9796-cc1d34a5f9b0"},"vehicle_type_id":"4","last_reported":1746601871,"current_range_meters":16000,"station_id":"ce4bhnp2rcd13ifvqgvg","pricing_plan_id":"cebpf4jnsgd1na2vs0mg"},{"bike_id":"e67227a9-b904-4b1f-a0bf-b2e3a0b18e07","system_id":"levelo_inurba_marseille","lat":43.34146,"lon":5.40898,"is_reserved":false,"is_disabled":false,"rental_uris":{"android":"levelo://app?vid=e67227a9-b904-4b1f-a0bf-b2e3a0b18e07","ios":"levelo://app?vid=e67227a9-b904-4b1f-a0bf-b2e3a0b18e07"},"vehicle_type_id":"4","last_reported":1746601871,"current_range_meters":16000,"station_id":"ce4bhqh2rcd13ifvqhlg","pricing_plan_id":"cebpf4jnsgd1na2vs0mg"},{"bike_id":"f45321ad-a54b-404d-981b-802d3c9e0607","system_id":"levelo_inurba_marseille","lat":43.21195,"lon":5.35075,"is_reserved":false,"is_disabled":false,"rental_uris":{"android":"levelo://app?vid=f45321ad-a54b-404d-981b-802d3c9e0607","ios":"levelo://app?vid=f45321ad-a54b-404d-981b-802d3c9e0607"},"vehicle_type_id":"4","last_reported":1746601871,"current_range_meters":16000,"station_id":"st_cvj6sg6p6f1abm77japg","pricing_plan_id":"cebpf4jnsgd1na2vs0mg"},{"bike_id":"ac700e2e-c129-4f82-a3c3-f628077933a6","system_id":"levelo_inurba_marseille","lat":43.2119,"lon":5.35072,"is_reserved":false,"is_disabled":false,"rental_uris":{"android":"levelo://app?vid=ac700e2e-c129-4f82-a3c3-f628077933a6","ios":"levelo://app?vid=ac700e2e-c129-4f82-a3c3-f628077933a6"},"vehicle_type_id":"4","last_reported":1746601871,"current_range_meters":16000,"station_id":"st_cvj6sg6p6f1abm77japg","pricing_plan_id":"cebpf4jnsgd1na2vs0mg"},{"bike_id":"bd92e776-b809-4bd1-9463-5d3510f3ecb2","system_id":"levelo_inurba_marseille","lat":43.26687,"lon":5.38265,"is_reserved":false,"is_disabled":false,"rental_uris":{"android":"levelo://app?vid=bd92e776-b809-4bd1-9463-5d3510f3ecb2","ios":"levelo://app?vid=bd92e776-b809-4bd1-9463-5d3510f3ecb2"},"vehicle_type_id":"4","last_reported":1746601871,"current_range_meters":16400,"station_id":"ce4bhg92rcd13ifvqf90","pricing_plan_id":"cebpf4jnsgd1na2vs0mg"},{"bike_id":"7a8e09de-94dc-4686-af72-b1a9a4439d14","system_id":"levelo_inurba_marseille","lat":43.24992,"lon":5.3893,"is_reserved":false,"is_disabled":false,"rental_uris":{"android":"levelo://app?vid=7a8e09de-94dc-4686-af72-b1a9a4439d14","ios":"levelo://app?vid=7a8e09de-94dc-4686-af72-b1a9a4439d14"},"vehicle_type_id":"4","last_reported":1746601871,"current_range_meters":16400,"station_id":"ce4bhgp2rcd13ifvqfd0","pricing_plan_id":"cebpf4jnsgd1na2vs0mg"},{"bike_id":"fd0419a1-7f6c-4486-9e4d-d407f18370f4","system_id":"levelo_inurba_marseille","lat":43.23961,"lon":5.36629,"is_reserved":false,"is_disabled":false,"rental_uris":{"android":"levelo://app?vid=fd0419a1-7f6c-4486-9e4d-d407f18370f4","ios":"levelo://app?vid=fd0419a1-7f6c-4486-9e4d-d407f18370f4"},"vehicle_type_id":"4","last_reported":1746601871,"current_range_meters":16400,"station_id":"ce4bhi12rcd13ifvqfp0","pricing_plan_id":"cebpf4jnsgd1na2vs0mg"},{"bike_id":"d7079968-4b53-4fc5-bb4d-ce9174e57ac2","system_id":"levelo_inurba_marseille","lat":43.24065,"lon":5.3775,"is_reserved":false,"is_disabled":false,"rental_uris":{"android":"levelo://app?vid=d7079968-4b53-4fc5-bb4d-ce9174e57ac2","ios":"levelo://app?vid=d7079968-4b53-4fc5-bb4d-ce9174e57ac2"},"vehicle_type_id":"4","last_reported":1746601871,"current_range_meters":16400,"station_id":"ce4bhnp2rcd13ifvqgvg","pricing_plan_id":"cebpf4jnsgd1na2vs0mg"},{"bike_id":"ca527f91-f658-47d5-8514-70166b7da12b","system_id":"levelo_inurba_marseille","lat":43.3362,"lon":5.41017,"is_reserved":false,"is_disabled":false,"rental_uris":{"android":"levelo://app?vid=ca527f91-f658-47d5-8514-70166b7da12b","ios":"levelo://app?vid=ca527f91-f658-47d5-8514-70166b7da12b"},"vehicle_type_id":"4","last_reported":1746601871,"current_range_meters":16400,"station_id":"ce4bhqh2rcd13ifvqhmg","pricing_plan_id":"cebpf4jnsgd1na2vs0mg"},{"bike_id":"b648dbc3-947b-453c-bbb0-81d8eb11aebc","system_id":"levelo_inurba_marseille","lat":43.33601,"lon":5.41028,"is_reserved":false,"is_disabled":false,"rental_uris":{"android":"levelo://app?vid=b648dbc3-947b-453c-bbb0-81d8eb11aebc","ios":"levelo://app?vid=b648dbc3-947b-453c-bbb0-81d8eb11aebc"},"vehicle_type_id":"4","last_reported":1746601871,"current_range_meters":16400,"station_id":"ce4bhqh2rcd13ifvqhmg","pricing_plan_id":"cebpf4jnsgd1na2vs0mg"},{"bike_id":"347a3392-58ad-4ce7-a2b4-a47536424879","system_id":"levelo_inurba_marseille","lat":43.304612,"lon":5.379044,"is_reserved":false,"is_disabled":false,"rental_uris":{"android":"levelo://app?vid=347a3392-58ad-4ce7-a2b4-a47536424879","ios":"levelo://app?vid=347a3392-58ad-4ce7-a2b4-a47536424879"},"vehicle_type_id":"4","last_reported":1746601871,"current_range_meters":16800,"station_id":"ce4bgup2rcd13ifvqcn0","pricing_plan_id":"cebpf4jnsgd1na2vs0mg"},{"bike_id":"7da2f943-0350-4989-959c-b8b9b612967a","system_id":"levelo_inurba_marseille","lat":43.302113,"lon":5.394621,"is_reserved":false,"is_disabled":false,"rental_uris":{"android":"levelo://app?vid=7da2f943-0350-4989-959c-b8b9b612967a","ios":"levelo://app?vid=7da2f943-0350-4989-959c-b8b9b612967a"},"vehicle_type_id":"4","last_reported":1746601871,"current_range_meters":16800,"station_id":"ce4bh0p2rcd13ifvqd70","pricing_plan_id":"cebpf4jnsgd1na2vs0mg"},{"bike_id":"16279447-1b19-4a07-9baf-fc30ac557fdc","system_id":"levelo_inurba_marseille","lat":43.26229,"lon":5.4045,"is_reserved":false,"is_disabled":false,"rental_uris":{"android":"levelo://app?vid=16279447-1b19-4a07-9baf-fc30ac557fdc","ios":"levelo://app?vid=16279447-1b19-4a07-9baf-fc30ac557fdc"},"vehicle_type_id":"4","last_reported":1746601871,"current_range_meters":16800,"station_id":"ce4bhmh2rcd13ifvqgmg","pricing_plan_id":"cebpf4jnsgd1na2vs0mg"},{"bike_id":"22ae0d8f-2359-4684-a693-4132403fc60a","system_id":"levelo_inurba_marseille","lat":43.24076,"lon":5.37756,"is_reserved":false,"is_disabled":false,"rental_uris":{"android":"levelo://app?vid=22ae0d8f-2359-4684-a693-4132403fc60a","ios":"levelo://app?vid=22ae0d8f-2359-4684-a693-4132403fc60a"},"vehicle_type_id":"4","last_reported":1746601871,"current_range_meters":16800,"station_id":"ce4bhnp2rcd13ifvqgvg","pricing_plan_id":"cebpf4jnsgd1na2vs0mg"},{"bike_id":"fd76d4ca-f3ad-4fc8-b8d8-1513582aff5f","system_id":"levelo_inurba_marseille","lat":43.22902,"lon":5.35249,"is_reserved":false,"is_disabled":false,"rental_uris":{"android":"levelo://app?vid=fd76d4ca-f3ad-4fc8-b8d8-1513582aff5f","ios":"levelo://app?vid=fd76d4ca-f3ad-4fc8-b8d8-1513582aff5f"},"vehicle_type_id":"4","last_reported":1746601871,"current_range_meters":16800,"station_id":"cpo3532slgdg3j2ikp40","pricing_plan_id":"cebpf4jnsgd1na2vs0mg"},{"bike_id":"92a4e4c5-89b5-414c-a85e-a0e402e1a0eb","system_id":"levelo_inurba_marseille","lat":43.23966,"lon":5.3663,"is_reserved":false,"is_disabled":false,"rental_uris":{"android":"levelo://app?vid=92a4e4c5-89b5-414c-a85e-a0e402e1a0eb","ios":"levelo://app?vid=92a4e4c5-89b5-414c-a85e-a0e402e1a0eb"},"vehicle_type_id":"4","last_reported":1746601871,"current_range_meters":17200,"station_id":"ce4bhi12rcd13ifvqfp0","pricing_plan_id":"cebpf4jnsgd1na2vs0mg"},{"bike_id":"acc23c10-5d7f-4326-8fbb-631591e48669","system_id":"levelo_inurba_marseille","lat":43.31881,"lon":5.4074,"is_reserved":false,"is_disabled":false,"rental_uris":{"android":"levelo://app?vid=acc23c10-5d7f-4326-8fbb-631591e48669","ios":"levelo://app?vid=acc23c10-5d7f-4326-8fbb-631591e48669"},"vehicle_type_id":"4","last_reported":1746601871,"current_range_meters":17200,"station_id":"ce4bhq12rcd13ifvqhig","pricing_plan_id":"cebpf4jnsgd1na2vs0mg"},{"bike_id":"70303da5-9e50-4694-b300-db2256150310","system_id":"levelo_inurba_marseille","lat":43.30466,"lon":5.37907,"is_reserved":false,"is_disabled":false,"rental_uris":{"android":"levelo://app?vid=70303da5-9e50-4694-b300-db2256150310","ios":"levelo://app?vid=70303da5-9e50-4694-b300-db2256150310"},"vehicle_type_id":"4","last_reported":1746601871,"current_range_meters":17600,"station_id":"ce4bgup2rcd13ifvqcn0","pricing_plan_id":"cebpf4jnsgd1na2vs0mg"},{"bike_id":"af8bd9b9-657c-497f-aa24-c58b3ced6a70","system_id":"levelo_inurba_marseille","lat":43.31081,"lon":5.4243,"is_reserved":false,"is_disabled":false,"rental_uris":{"android":"levelo://app?vid=af8bd9b9-657c-497f-aa24-c58b3ced6a70","ios":"levelo://app?vid=af8bd9b9-657c-497f-aa24-c58b3ced6a70"},"vehicle_type_id":"4","last_reported":1746601871,"current_range_meters":17600,"station_id":"ce4bhp92rcd13ifvqhag","pricing_plan_id":"cebpf4jnsgd1na2vs0mg"},{"bike_id":"61773464-18ea-4477-b785-2b5e8184d3c2","system_id":"levelo_inurba_marseille","lat":43.32535,"lon":5.41421,"is_reserved":false,"is_disabled":false,"rental_uris":{"android":"levelo://app?vid=61773464-18ea-4477-b785-2b5e8184d3c2","ios":"levelo://app?vid=61773464-18ea-4477-b785-2b5e8184d3c2"},"vehicle_type_id":"4","last_reported":1746601871,"current_range_meters":17600,"station_id":"ce4bhq12rcd13ifvqhhg","pricing_plan_id":"cebpf4jnsgd1na2vs0mg"},{"bike_id":"94a3f5fb-60a0-4ba4-8b3e-3759629e9c4a","system_id":"levelo_inurba_marseille","lat":43.335988,"lon":5.410238,"is_reserved":false,"is_disabled":false,"rental_uris":{"android":"levelo://app?vid=94a3f5fb-60a0-4ba4-8b3e-3759629e9c4a","ios":"levelo://app?vid=94a3f5fb-60a0-4ba4-8b3e-3759629e9c4a"},"vehicle_type_id":"4","last_reported":1746601871,"current_range_meters":17600,"station_id":"ce4bhqh2rcd13ifvqhmg","pricing_plan_id":"cebpf4jnsgd1na2vs0mg"},{"bike_id":"2ef2ebd1-bdfa-4679-8156-f62d2ffdfb1d","system_id":"levelo_inurba_marseille","lat":43.29268,"lon":5.37629,"is_reserved":false,"is_disabled":false,"rental_uris":{"android":"levelo://app?vid=2ef2ebd1-bdfa-4679-8156-f62d2ffdfb1d","ios":"levelo://app?vid=2ef2ebd1-bdfa-4679-8156-f62d2ffdfb1d"},"vehicle_type_id":"4","last_reported":1746601871,"current_range_meters":18000,"station_id":"ce4bgi12rcd13ifvqb80","pricing_plan_id":"cebpf4jnsgd1na2vs0mg"},{"bike_id":"4c9bb4da-cc30-484e-9487-b835aea729f1","system_id":"levelo_inurba_marseille","lat":43.29611,"lon":5.37743,"is_reserved":false,"is_disabled":false,"rental_uris":{"android":"levelo://app?vid=4c9bb4da-cc30-484e-9487-b835aea729f1","ios":"levelo://app?vid=4c9bb4da-cc30-484e-9487-b835aea729f1"},"vehicle_type_id":"4","last_reported":1746601871,"current_range_meters":18000,"station_id":"ce4bgi92rcd13ifvqb90","pricing_plan_id":"cebpf4jnsgd1na2vs0mg"},{"bike_id":"96f188de-2cd6-4a3b-962e-3957a53c5bee","system_id":"levelo_inurba_marseille","lat":43.30588,"lon":5.37228,"is_reserved":false,"is_disabled":false,"rental_uris":{"android":"levelo://app?vid=96f188de-2cd6-4a3b-962e-3957a53c5bee","ios":"levelo://app?vid=96f188de-2cd6-4a3b-962e-3957a53c5bee"},"vehicle_type_id":"4","last_reported":1746601871,"current_range_meters":18000,"station_id":"ce4bgqh2rcd13ifvqc4g","pricing_plan_id":"cebpf4jnsgd1na2vs0mg"},{"bike_id":"d83e795f-8896-435f-9062-62b434af6dad","system_id":"levelo_inurba_marseille","lat":43.30521,"lon":5.36715,"is_reserved":false,"is_disabled":false,"rental_uris":{"android":"levelo://app?vid=d83e795f-8896-435f-9062-62b434af6dad","ios":"levelo://app?vid=d83e795f-8896-435f-9062-62b434af6dad"},"vehicle_type_id":"4","last_reported":1746601871,"current_range_meters":18000,"station_id":"ce4bgrp2rcd13ifvqc9g","pricing_plan_id":"cebpf4jnsgd1na2vs0mg"},{"bike_id":"f779a167-9717-43cb-91b8-fb8187db2ab5","system_id":"levelo_inurba_marseille","lat":43.29052,"lon":5.38118,"is_reserved":false,"is_disabled":false,"rental_uris":{"android":"levelo://app?vid=f779a167-9717-43cb-91b8-fb8187db2ab5","ios":"levelo://app?vid=f779a167-9717-43cb-91b8-fb8187db2ab5"},"vehicle_type_id":"4","last_reported":1746601871,"current_range_meters":18000,"station_id":"ce4bh4p2rcd13ifvqe1g","pricing_plan_id":"cebpf4jnsgd1na2vs0mg"},{"bike_id":"b8bb0d6d-d682-4df7-80c5-da64e9c95891","system_id":"levelo_inurba_marseille","lat":43.25926,"lon":5.40898,"is_reserved":false,"is_disabled":false,"rental_uris":{"android":"levelo://app?vid=b8bb0d6d-d682-4df7-80c5-da64e9c95891","ios":"levelo://app?vid=b8bb0d6d-d682-4df7-80c5-da64e9c95891"},"vehicle_type_id":"4","last_reported":1746601871,"current_range_meters":18000,"station_id":"ce4bhm92rcd13ifvqglg","pricing_plan_id":"cebpf4jnsgd1na2vs0mg"},{"bike_id":"d1c7bc16-5baa-42e8-9ff6-662cbfaa0e67","system_id":"levelo_inurba_marseille","lat":43.24053,"lon":5.37718,"is_reserved":false,"is_disabled":false,"rental_uris":{"android":"levelo://app?vid=d1c7bc16-5baa-42e8-9ff6-662cbfaa0e67","ios":"levelo://app?vid=d1c7bc16-5baa-42e8-9ff6-662cbfaa0e67"},"vehicle_type_id":"4","last_reported":1746601871,"current_range_meters":18000,"station_id":"ce4bhnp2rcd13ifvqgvg","pricing_plan_id":"cebpf4jnsgd1na2vs0mg"},{"bike_id":"63af6f78-57d5-4f3d-9494-a6d72ff84dc1","system_id":"levelo_inurba_marseille","lat":43.211883,"lon":5.35072,"is_reserved":false,"is_disabled":false,"rental_uris":{"android":"levelo://app?vid=63af6f78-57d5-4f3d-9494-a6d72ff84dc1","ios":"levelo://app?vid=63af6f78-57d5-4f3d-9494-a6d72ff84dc1"},"vehicle_type_id":"4","last_reported":1746601871,"current_range_meters":18000,"station_id":"st_cvj6sg6p6f1abm77japg","pricing_plan_id":"cebpf4jnsgd1na2vs0mg"},{"bike_id":"caa6fd07-36d5-4eea-b528-9734e84e8de0","system_id":"levelo_inurba_marseille","lat":43.30559,"lon":5.36552,"is_reserved":false,"is_disabled":false,"rental_uris":{"android":"levelo://app?vid=caa6fd07-36d5-4eea-b528-9734e84e8de0","ios":"levelo://app?vid=caa6fd07-36d5-4eea-b528-9734e84e8de0"},"vehicle_type_id":"4","last_reported":1746601871,"current_range_meters":18800,"station_id":"ce4bgs12rcd13ifvqcag","pricing_plan_id":"cebpf4jnsgd1na2vs0mg"},{"bike_id":"9b370469-414d-46f1-91b7-0f436f989310","system_id":"levelo_inurba_marseille","lat":43.309386,"lon":5.390341,"is_reserved":false,"is_disabled":false,"rental_uris":{"android":"levelo://app?vid=9b370469-414d-46f1-91b7-0f436f989310","ios":"levelo://app?vid=9b370469-414d-46f1-91b7-0f436f989310"},"vehicle_type_id":"4","last_reported":1746601871,"current_range_meters":18800,"station_id":"ce4bgup2rcd13ifvqco0","pricing_plan_id":"cebpf4jnsgd1na2vs0mg"},{"bike_id":"ce14542e-8e3f-462b-9b3e-e3c0cf7006d2","system_id":"levelo_inurba_marseille","lat":43.2695,"lon":5.38649,"is_reserved":false,"is_disabled":false,"rental_uris":{"android":"levelo://app?vid=ce14542e-8e3f-462b-9b3e-e3c0cf7006d2","ios":"levelo://app?vid=ce14542e-8e3f-462b-9b3e-e3c0cf7006d2"},"vehicle_type_id":"4","last_reported":1746601871,"current_range_meters":18800,"station_id":"ce4bhh92rcd13ifvqfh0","pricing_plan_id":"cebpf4jnsgd1na2vs0mg"},{"bike_id":"51f8d892-ccce-4ec6-af18-7a2b030636c3","system_id":"levelo_inurba_marseille","lat":43.27491,"lon":5.42456,"is_reserved":false,"is_disabled":false,"rental_uris":{"android":"levelo://app?vid=51f8d892-ccce-4ec6-af18-7a2b030636c3","ios":"levelo://app?vid=51f8d892-ccce-4ec6-af18-7a2b030636c3"},"vehicle_type_id":"4","last_reported":1746601871,"current_range_meters":18800,"station_id":"ce4bhn92rcd13ifvqgrg","pricing_plan_id":"cebpf4jnsgd1na2vs0mg"},{"bike_id":"ac30bbae-ff6d-4a9c-b636-87a6cbf4f9f1","system_id":"levelo_inurba_marseille","lat":43.29618,"lon":5.37713,"is_reserved":false,"is_disabled":false,"rental_uris":{"android":"levelo://app?vid=ac30bbae-ff6d-4a9c-b636-87a6cbf4f9f1","ios":"levelo://app?vid=ac30bbae-ff6d-4a9c-b636-87a6cbf4f9f1"},"vehicle_type_id":"4","last_reported":1746601871,"current_range_meters":19200,"station_id":"ce4bgi92rcd13ifvqb90","pricing_plan_id":"cebpf4jnsgd1na2vs0mg"},{"bike_id":"37317911-464d-426b-a6e5-fce4961666d6","system_id":"levelo_inurba_marseille","lat":43.27809,"lon":5.40706,"is_reserved":false,"is_disabled":false,"rental_uris":{"android":"levelo://app?vid=37317911-464d-426b-a6e5-fce4961666d6","ios":"levelo://app?vid=37317911-464d-426b-a6e5-fce4961666d6"},"vehicle_type_id":"4","last_reported":1746601871,"current_range_meters":19200,"station_id":"ce4bhnh2rcd13ifvqgtg","pricing_plan_id":"cebpf4jnsgd1na2vs0mg"},{"bike_id":"3acad722-b9e6-4a97-bac7-9e77ac209184","system_id":"levelo_inurba_marseille","lat":43.336,"lon":5.41024,"is_reserved":false,"is_disabled":false,"rental_uris":{"android":"levelo://app?vid=3acad722-b9e6-4a97-bac7-9e77ac209184","ios":"levelo://app?vid=3acad722-b9e6-4a97-bac7-9e77ac209184"},"vehicle_type_id":"4","last_reported":1746601871,"current_range_meters":19200,"station_id":"ce4bhqh2rcd13ifvqhmg","pricing_plan_id":"cebpf4jnsgd1na2vs0mg"},{"bike_id":"34362b94-e474-4729-9c92-4545de989ea1","system_id":"levelo_inurba_marseille","lat":43.27904,"lon":5.39579,"is_reserved":false,"is_disabled":false,"rental_uris":{"android":"levelo://app?vid=34362b94-e474-4729-9c92-4545de989ea1","ios":"levelo://app?vid=34362b94-e474-4729-9c92-4545de989ea1"},"vehicle_type_id":"4","last_reported":1746601871,"current_range_meters":19600,"station_id":"ce4bhf92rcd13ifvqf40","pricing_plan_id":"cebpf4jnsgd1na2vs0mg"},{"bike_id":"06125fce-cb65-4f8b-a2e4-e1d1c12228b3","system_id":"levelo_inurba_marseille","lat":43.257177,"lon":5.411133,"is_reserved":false,"is_disabled":false,"rental_uris":{"android":"levelo://app?vid=06125fce-cb65-4f8b-a2e4-e1d1c12228b3","ios":"levelo://app?vid=06125fce-cb65-4f8b-a2e4-e1d1c12228b3"},"vehicle_type_id":"4","last_reported":1746601871,"current_range_meters":19600,"station_id":"ce4bhkp2rcd13ifvqgd0","pricing_plan_id":"cebpf4jnsgd1na2vs0mg"},{"bike_id":"c7dc3326-9dd8-496c-9ee9-c7875646460b","system_id":"levelo_inurba_marseille","lat":43.27484,"lon":5.4241,"is_reserved":false,"is_disabled":false,"rental_uris":{"android":"levelo://app?vid=c7dc3326-9dd8-496c-9ee9-c7875646460b","ios":"levelo://app?vid=c7dc3326-9dd8-496c-9ee9-c7875646460b"},"vehicle_type_id":"4","last_reported":1746601871,"current_range_meters":19600,"station_id":"ce4bhn92rcd13ifvqgrg","pricing_plan_id":"cebpf4jnsgd1na2vs0mg"},{"bike_id":"a8b556c4-5bfe-4a3c-8f1c-fe03e7041ef8","system_id":"levelo_inurba_marseille","lat":43.24089,"lon":5.3774,"is_reserved":false,"is_disabled":false,"rental_uris":{"android":"levelo://app?vid=a8b556c4-5bfe-4a3c-8f1c-fe03e7041ef8","ios":"levelo://app?vid=a8b556c4-5bfe-4a3c-8f1c-fe03e7041ef8"},"vehicle_type_id":"4","last_reported":1746601871,"current_range_meters":19600,"station_id":"ce4bhnp2rcd13ifvqgvg","pricing_plan_id":"cebpf4jnsgd1na2vs0mg"},{"bike_id":"04e54ba0-5fea-4083-b676-1ec16a471605","system_id":"levelo_inurba_marseille","lat":43.24815,"lon":5.3744,"is_reserved":false,"is_disabled":false,"rental_uris":{"android":"levelo://app?vid=04e54ba0-5fea-4083-b676-1ec16a471605","ios":"levelo://app?vid=04e54ba0-5fea-4083-b676-1ec16a471605"},"vehicle_type_id":"4","last_reported":1746601871,"current_range_meters":20000,"station_id":"ce4bhgh2rcd13ifvqfb0","pricing_plan_id":"cebpf4jnsgd1na2vs0mg"},{"bike_id":"e0b9bd6b-1f24-4e65-b825-ce700bd3dfc6","system_id":"levelo_inurba_marseille","lat":43.25105,"lon":5.40323,"is_reserved":false,"is_disabled":false,"rental_uris":{"android":"levelo://app?vid=e0b9bd6b-1f24-4e65-b825-ce700bd3dfc6","ios":"levelo://app?vid=e0b9bd6b-1f24-4e65-b825-ce700bd3dfc6"},"vehicle_type_id":"4","last_reported":1746601871,"current_range_meters":20000,"station_id":"ce4bhlh2rcd13ifvqgig","pricing_plan_id":"cebpf4jnsgd1na2vs0mg"},{"bike_id":"74dfcb2f-a38e-46fd-a9a4-88a9c0d71f4a","system_id":"levelo_inurba_marseille","lat":43.25932,"lon":5.4091,"is_reserved":false,"is_disabled":false,"rental_uris":{"android":"levelo://app?vid=74dfcb2f-a38e-46fd-a9a4-88a9c0d71f4a","ios":"levelo://app?vid=74dfcb2f-a38e-46fd-a9a4-88a9c0d71f4a"},"vehicle_type_id":"4","last_reported":1746601871,"current_range_meters":20000,"station_id":"ce4bhm92rcd13ifvqglg","pricing_plan_id":"cebpf4jnsgd1na2vs0mg"},{"bike_id":"4175df44-b0a0-443d-975e-08c01e2ab4bd","system_id":"levelo_inurba_marseille","lat":43.2749,"lon":5.42453,"is_reserved":false,"is_disabled":false,"rental_uris":{"android":"levelo://app?vid=4175df44-b0a0-443d-975e-08c01e2ab4bd","ios":"levelo://app?vid=4175df44-b0a0-443d-975e-08c01e2ab4bd"},"vehicle_type_id":"4","last_reported":1746601871,"current_range_meters":20000,"station_id":"ce4bhn92rcd13ifvqgrg","pricing_plan_id":"cebpf4jnsgd1na2vs0mg"},{"bike_id":"c0cd3821-e87c-44a2-9ec4-f941c33073f4","system_id":"levelo_inurba_marseille","lat":43.30526,"lon":5.36536,"is_reserved":false,"is_disabled":false,"rental_uris":{"android":"levelo://app?vid=c0cd3821-e87c-44a2-9ec4-f941c33073f4","ios":"levelo://app?vid=c0cd3821-e87c-44a2-9ec4-f941c33073f4"},"vehicle_type_id":"4","last_reported":1746601871,"current_range_meters":20400,"station_id":"ce4bgs12rcd13ifvqcag","pricing_plan_id":"cebpf4jnsgd1na2vs0mg"},{"bike_id":"ed0d0bcd-b3e2-4dd8-b7d9-bc8784b3e4e6","system_id":"levelo_inurba_marseille","lat":43.28611,"lon":5.35103,"is_reserved":false,"is_disabled":false,"rental_uris":{"android":"levelo://app?vid=ed0d0bcd-b3e2-4dd8-b7d9-bc8784b3e4e6","ios":"levelo://app?vid=ed0d0bcd-b3e2-4dd8-b7d9-bc8784b3e4e6"},"vehicle_type_id":"4","last_reported":1746601871,"current_range_meters":20400,"station_id":"ce4bhch2rcd13ifvqeug","pricing_plan_id":"cebpf4jnsgd1na2vs0mg"},{"bike_id":"67a540a8-6eb5-49f7-b795-4cef3405eb5a","system_id":"levelo_inurba_marseille","lat":43.25926,"lon":5.40913,"is_reserved":false,"is_disabled":false,"rental_uris":{"android":"levelo://app?vid=67a540a8-6eb5-49f7-b795-4cef3405eb5a","ios":"levelo://app?vid=67a540a8-6eb5-49f7-b795-4cef3405eb5a"},"vehicle_type_id":"4","last_reported":1746601871,"current_range_meters":20400,"station_id":"ce4bhm92rcd13ifvqglg","pricing_plan_id":"cebpf4jnsgd1na2vs0mg"},{"bike_id":"cbdd16a3-85ef-4b70-8323-0d2f7883461c","system_id":"levelo_inurba_marseille","lat":43.24065,"lon":5.37737,"is_reserved":false,"is_disabled":false,"rental_uris":{"android":"levelo://app?vid=cbdd16a3-85ef-4b70-8323-0d2f7883461c","ios":"levelo://app?vid=cbdd16a3-85ef-4b70-8323-0d2f7883461c"},"vehicle_type_id":"4","last_reported":1746601871,"current_range_meters":20400,"station_id":"ce4bhnp2rcd13ifvqgvg","pricing_plan_id":"cebpf4jnsgd1na2vs0mg"},{"bike_id":"2952c29e-32ac-4ad6-9fbd-482b735014b9","system_id":"levelo_inurba_marseille","lat":43.24084,"lon":5.3775,"is_reserved":false,"is_disabled":false,"rental_uris":{"android":"levelo://app?vid=2952c29e-32ac-4ad6-9fbd-482b735014b9","ios":"levelo://app?vid=2952c29e-32ac-4ad6-9fbd-482b735014b9"},"vehicle_type_id":"4","last_reported":1746601871,"current_range_meters":20400,"station_id":"ce4bhnp2rcd13ifvqgvg","pricing_plan_id":"cebpf4jnsgd1na2vs0mg"},{"bike_id":"e5401d68-eac2-492e-9113-2f9588f85793","system_id":"levelo_inurba_marseille","lat":43.24076,"lon":5.37698,"is_reserved":false,"is_disabled":false,"rental_uris":{"android":"levelo://app?vid=e5401d68-eac2-492e-9113-2f9588f85793","ios":"levelo://app?vid=e5401d68-eac2-492e-9113-2f9588f85793"},"vehicle_type_id":"4","last_reported":1746601871,"current_range_meters":20400,"station_id":"ce4bhnp2rcd13ifvqgvg","pricing_plan_id":"cebpf4jnsgd1na2vs0mg"},{"bike_id":"69e277e0-aa39-44fa-a0b3-c364cb219f4f","system_id":"levelo_inurba_marseille","lat":43.24111,"lon":5.37752,"is_reserved":false,"is_disabled":false,"rental_uris":{"android":"levelo://app?vid=69e277e0-aa39-44fa-a0b3-c364cb219f4f","ios":"levelo://app?vid=69e277e0-aa39-44fa-a0b3-c364cb219f4f"},"vehicle_type_id":"4","last_reported":1746601871,"current_range_meters":20400,"station_id":"ce4bhnp2rcd13ifvqgvg","pricing_plan_id":"cebpf4jnsgd1na2vs0mg"},{"bike_id":"61b7bf8c-00ae-4280-9015-f0af790fa2b1","system_id":"levelo_inurba_marseille","lat":43.336,"lon":5.40987,"is_reserved":false,"is_disabled":false,"rental_uris":{"android":"levelo://app?vid=61b7bf8c-00ae-4280-9015-f0af790fa2b1","ios":"levelo://app?vid=61b7bf8c-00ae-4280-9015-f0af790fa2b1"},"vehicle_type_id":"4","last_reported":1746601871,"current_range_meters":20400,"station_id":"ce4bhqh2rcd13ifvqhmg","pricing_plan_id":"cebpf4jnsgd1na2vs0mg"},{"bike_id":"be14af02-7701-4605-b2d6-5fd0439029d8","system_id":"levelo_inurba_marseille","lat":43.21193,"lon":5.35062,"is_reserved":false,"is_disabled":false,"rental_uris":{"android":"levelo://app?vid=be14af02-7701-4605-b2d6-5fd0439029d8","ios":"levelo://app?vid=be14af02-7701-4605-b2d6-5fd0439029d8"},"vehicle_type_id":"4","last_reported":1746601871,"current_range_meters":20400,"station_id":"st_cvj6sg6p6f1abm77japg","pricing_plan_id":"cebpf4jnsgd1na2vs0mg"},{"bike_id":"709cd06e-720e-4468-a08a-45b37454a42f","system_id":"levelo_inurba_marseille","lat":43.28904,"lon":5.39599,"is_reserved":false,"is_disabled":false,"rental_uris":{"android":"levelo://app?vid=709cd06e-720e-4468-a08a-45b37454a42f","ios":"levelo://app?vid=709cd06e-720e-4468-a08a-45b37454a42f"},"vehicle_type_id":"4","last_reported":1746601871,"current_range_meters":20800,"station_id":"ce4bh3h2rcd13ifvqdn0","pricing_plan_id":"cebpf4jnsgd1na2vs0mg"},{"bike_id":"595560d5-0f77-4da0-baf2-35b69f0d90e5","system_id":"levelo_inurba_marseille","lat":43.29167,"lon":5.37144,"is_reserved":false,"is_disabled":false,"rental_uris":{"android":"levelo://app?vid=595560d5-0f77-4da0-baf2-35b69f0d90e5","ios":"levelo://app?vid=595560d5-0f77-4da0-baf2-35b69f0d90e5"},"vehicle_type_id":"4","last_reported":1746601871,"current_range_meters":20800,"station_id":"ce4bha92rcd13ifvqeh0","pricing_plan_id":"cebpf4jnsgd1na2vs0mg"},{"bike_id":"7c3c5923-7f62-461c-8f51-bee60c279213","system_id":"levelo_inurba_marseille","lat":43.25579,"lon":5.38233,"is_reserved":false,"is_disabled":false,"rental_uris":{"android":"levelo://app?vid=7c3c5923-7f62-461c-8f51-bee60c279213","ios":"levelo://app?vid=7c3c5923-7f62-461c-8f51-bee60c279213"},"vehicle_type_id":"4","last_reported":1746601871,"current_range_meters":20800,"station_id":"ce4bhih2rcd13ifvqfs0","pricing_plan_id":"cebpf4jnsgd1na2vs0mg"},{"bike_id":"7ed4d79c-fea0-483b-b680-5391d366640e","system_id":"levelo_inurba_marseille","lat":43.24083,"lon":5.37765,"is_reserved":false,"is_disabled":false,"rental_uris":{"android":"levelo://app?vid=7ed4d79c-fea0-483b-b680-5391d366640e","ios":"levelo://app?vid=7ed4d79c-fea0-483b-b680-5391d366640e"},"vehicle_type_id":"4","last_reported":1746601871,"current_range_meters":20800,"station_id":"ce4bhnp2rcd13ifvqgvg","pricing_plan_id":"cebpf4jnsgd1na2vs0mg"},{"bike_id":"f5c17d49-f73b-4dde-9340-173f8c8d708f","system_id":"levelo_inurba_marseille","lat":43.27472,"lon":5.42385,"is_reserved":false,"is_disabled":false,"rental_uris":{"android":"levelo://app?vid=f5c17d49-f73b-4dde-9340-173f8c8d708f","ios":"levelo://app?vid=f5c17d49-f73b-4dde-9340-173f8c8d708f"},"vehicle_type_id":"4","last_reported":1746601871,"current_range_meters":21600,"station_id":"","pricing_plan_id":"cebpf4jnsgd1na2vs0mg"},{"bike_id":"145198fb-f96e-43e9-be75-7f863a6ecdd3","system_id":"levelo_inurba_marseille","lat":43.24072,"lon":5.37763,"is_reserved":false,"is_disabled":false,"rental_uris":{"android":"levelo://app?vid=145198fb-f96e-43e9-be75-7f863a6ecdd3","ios":"levelo://app?vid=145198fb-f96e-43e9-be75-7f863a6ecdd3"},"vehicle_type_id":"4","last_reported":1746601871,"current_range_meters":21600,"station_id":"ce4bhnp2rcd13ifvqgvg","pricing_plan_id":"cebpf4jnsgd1na2vs0mg"},{"bike_id":"89bb4c04-2bc0-4007-915c-290fdb0062cb","system_id":"levelo_inurba_marseille","lat":43.24078,"lon":5.37754,"is_reserved":false,"is_disabled":false,"rental_uris":{"android":"levelo://app?vid=89bb4c04-2bc0-4007-915c-290fdb0062cb","ios":"levelo://app?vid=89bb4c04-2bc0-4007-915c-290fdb0062cb"},"vehicle_type_id":"4","last_reported":1746601871,"current_range_meters":21600,"station_id":"ce4bhnp2rcd13ifvqgvg","pricing_plan_id":"cebpf4jnsgd1na2vs0mg"},{"bike_id":"b3e8fde0-f5ac-40e3-8855-ba2827628547","system_id":"levelo_inurba_marseille","lat":43.25818,"lon":5.39434,"is_reserved":false,"is_disabled":false,"rental_uris":{"android":"levelo://app?vid=b3e8fde0-f5ac-40e3-8855-ba2827628547","ios":"levelo://app?vid=b3e8fde0-f5ac-40e3-8855-ba2827628547"},"vehicle_type_id":"4","last_reported":1746601871,"current_range_meters":22000,"station_id":"","pricing_plan_id":"cebpf4jnsgd1na2vs0mg"},{"bike_id":"a259a314-71ae-48cb-acd5-d319749d44b5","system_id":"levelo_inurba_marseille","lat":43.28419,"lon":5.3497,"is_reserved":false,"is_disabled":false,"rental_uris":{"android":"levelo://app?vid=a259a314-71ae-48cb-acd5-d319749d44b5","ios":"levelo://app?vid=a259a314-71ae-48cb-acd5-d319749d44b5"},"vehicle_type_id":"4","last_reported":1746601871,"current_range_meters":22000,"station_id":"ce4bhbh2rcd13ifvqepg","pricing_plan_id":"cebpf4jnsgd1na2vs0mg"},{"bike_id":"c067b112-c4c9-4155-a055-006007566721","system_id":"levelo_inurba_marseille","lat":43.27484,"lon":5.42449,"is_reserved":false,"is_disabled":false,"rental_uris":{"android":"levelo://app?vid=c067b112-c4c9-4155-a055-006007566721","ios":"levelo://app?vid=c067b112-c4c9-4155-a055-006007566721"},"vehicle_type_id":"4","last_reported":1746601871,"current_range_meters":22000,"station_id":"ce4bhn92rcd13ifvqgrg","pricing_plan_id":"cebpf4jnsgd1na2vs0mg"},{"bike_id":"adcf30b0-d5f1-44b3-9733-72ae13d9e8b5","system_id":"levelo_inurba_marseille","lat":43.30135,"lon":5.38775,"is_reserved":false,"is_disabled":false,"rental_uris":{"android":"levelo://app?vid=adcf30b0-d5f1-44b3-9733-72ae13d9e8b5","ios":"levelo://app?vid=adcf30b0-d5f1-44b3-9733-72ae13d9e8b5"},"vehicle_type_id":"4","last_reported":1746601871,"current_range_meters":22400,"station_id":"ce4bghh2rcd13ifvqb60","pricing_plan_id":"cebpf4jnsgd1na2vs0mg"},{"bike_id":"96807fab-53a4-4e67-82ed-d73ce1829fe1","system_id":"levelo_inurba_marseille","lat":43.31346,"lon":5.36733,"is_reserved":false,"is_disabled":false,"rental_uris":{"android":"levelo://app?vid=96807fab-53a4-4e67-82ed-d73ce1829fe1","ios":"levelo://app?vid=96807fab-53a4-4e67-82ed-d73ce1829fe1"},"vehicle_type_id":"4","last_reported":1746601871,"current_range_meters":22400,"station_id":"ce4bgr92rcd13ifvqc6g","pricing_plan_id":"cebpf4jnsgd1na2vs0mg"},{"bike_id":"1453c58e-75e3-4a9f-8fd1-59f11bfb559b","system_id":"levelo_inurba_marseille","lat":43.241782,"lon":5.397301,"is_reserved":false,"is_disabled":false,"rental_uris":{"android":"levelo://app?vid=1453c58e-75e3-4a9f-8fd1-59f11bfb559b","ios":"levelo://app?vid=1453c58e-75e3-4a9f-8fd1-59f11bfb559b"},"vehicle_type_id":"4","last_reported":1746601871,"current_range_meters":22400,"station_id":"ce4bhn12rcd13ifvqgpg","pricing_plan_id":"cebpf4jnsgd1na2vs0mg"},{"bike_id":"70a29a45-574c-4ff1-aca3-740aa0e705be","system_id":"levelo_inurba_marseille","lat":43.24206,"lon":5.36383,"is_reserved":false,"is_disabled":false,"rental_uris":{"android":"levelo://app?vid=70a29a45-574c-4ff1-aca3-740aa0e705be","ios":"levelo://app?vid=70a29a45-574c-4ff1-aca3-740aa0e705be"},"vehicle_type_id":"4","last_reported":1746601871,"current_range_meters":22400,"station_id":"cpo36qri1sfpv3e86is0","pricing_plan_id":"cebpf4jnsgd1na2vs0mg"},{"bike_id":"1961a939-950f-4c82-90d1-412b7506a752","system_id":"levelo_inurba_marseille","lat":43.28476,"lon":5.38571,"is_reserved":false,"is_disabled":false,"rental_uris":{"android":"levelo://app?vid=1961a939-950f-4c82-90d1-412b7506a752","ios":"levelo://app?vid=1961a939-950f-4c82-90d1-412b7506a752"},"vehicle_type_id":"4","last_reported":1746601871,"current_range_meters":22800,"station_id":"ce4bh8p2rcd13ifvqeb0","pricing_plan_id":"cebpf4jnsgd1na2vs0mg"},{"bike_id":"aaad2336-2ad8-412d-ae48-070f832e292f","system_id":"levelo_inurba_marseille","lat":43.27497,"lon":5.42457,"is_reserved":false,"is_disabled":false,"rental_uris":{"android":"levelo://app?vid=aaad2336-2ad8-412d-ae48-070f832e292f","ios":"levelo://app?vid=aaad2336-2ad8-412d-ae48-070f832e292f"},"vehicle_type_id":"4","last_reported":1746601871,"current_range_meters":22800,"station_id":"ce4bhn92rcd13ifvqgrg","pricing_plan_id":"cebpf4jnsgd1na2vs0mg"},{"bike_id":"5f5b89c5-21a8-4bba-ba83-7152e4063234","system_id":"levelo_inurba_marseille","lat":43.28075,"lon":5.3966,"is_reserved":false,"is_disabled":false,"rental_uris":{"android":"levelo://app?vid=5f5b89c5-21a8-4bba-ba83-7152e4063234","ios":"levelo://app?vid=5f5b89c5-21a8-4bba-ba83-7152e4063234"},"vehicle_type_id":"4","last_reported":1746601871,"current_range_meters":22800,"station_id":"ce4bho12rcd13ifvqh2g","pricing_plan_id":"cebpf4jnsgd1na2vs0mg"},{"bike_id":"31f028e1-4848-4d01-bfda-e1a802e026be","system_id":"levelo_inurba_marseille","lat":43.33611,"lon":5.4103,"is_reserved":false,"is_disabled":false,"rental_uris":{"android":"levelo://app?vid=31f028e1-4848-4d01-bfda-e1a802e026be","ios":"levelo://app?vid=31f028e1-4848-4d01-bfda-e1a802e026be"},"vehicle_type_id":"4","last_reported":1746601871,"current_range_meters":22800,"station_id":"ce4bhqh2rcd13ifvqhmg","pricing_plan_id":"cebpf4jnsgd1na2vs0mg"},{"bike_id":"db7282b4-81ab-4a37-bad5-9d4589e9fd77","system_id":"levelo_inurba_marseille","lat":43.3091,"lon":5.3687,"is_reserved":false,"is_disabled":false,"rental_uris":{"android":"levelo://app?vid=db7282b4-81ab-4a37-bad5-9d4589e9fd77","ios":"levelo://app?vid=db7282b4-81ab-4a37-bad5-9d4589e9fd77"},"vehicle_type_id":"4","last_reported":1746601871,"current_range_meters":23200,"station_id":"ce4bgn92rcd13ifvqbvg","pricing_plan_id":"cebpf4jnsgd1na2vs0mg"},{"bike_id":"f4566610-9752-4d3c-aff3-eef05d06c32c","system_id":"levelo_inurba_marseille","lat":43.31336,"lon":5.36707,"is_reserved":false,"is_disabled":false,"rental_uris":{"android":"levelo://app?vid=f4566610-9752-4d3c-aff3-eef05d06c32c","ios":"levelo://app?vid=f4566610-9752-4d3c-aff3-eef05d06c32c"},"vehicle_type_id":"4","last_reported":1746601871,"current_range_meters":23200,"station_id":"ce4bgr92rcd13ifvqc6g","pricing_plan_id":"cebpf4jnsgd1na2vs0mg"},{"bike_id":"36f00b2b-3db1-4655-828a-21c395c88540","system_id":"levelo_inurba_marseille","lat":43.30891,"lon":5.3718,"is_reserved":false,"is_disabled":false,"rental_uris":{"android":"levelo://app?vid=36f00b2b-3db1-4655-828a-21c395c88540","ios":"levelo://app?vid=36f00b2b-3db1-4655-828a-21c395c88540"},"vehicle_type_id":"4","last_reported":1746601871,"current_range_meters":23200,"station_id":"ce4bguh2rcd13ifvqckg","pricing_plan_id":"cebpf4jnsgd1na2vs0mg"},{"bike_id":"e88cb130-7219-4319-b156-0af0709c3a8b","system_id":"levelo_inurba_marseille","lat":43.29254,"lon":5.40904,"is_reserved":false,"is_disabled":false,"rental_uris":{"android":"levelo://app?vid=e88cb130-7219-4319-b156-0af0709c3a8b","ios":"levelo://app?vid=e88cb130-7219-4319-b156-0af0709c3a8b"},"vehicle_type_id":"4","last_reported":1746601871,"current_range_meters":23200,"station_id":"ce4bh192rcd13ifvqdc0","pricing_plan_id":"cebpf4jnsgd1na2vs0mg"},{"bike_id":"ee60b47f-1ff3-4493-addd-64d42c1a5ff6","system_id":"levelo_inurba_marseille","lat":43.27226,"lon":5.39198,"is_reserved":false,"is_disabled":false,"rental_uris":{"android":"levelo://app?vid=ee60b47f-1ff3-4493-addd-64d42c1a5ff6","ios":"levelo://app?vid=ee60b47f-1ff3-4493-addd-64d42c1a5ff6"},"vehicle_type_id":"4","last_reported":1746601871,"current_range_meters":23200,"station_id":"ce4bhhp2rcd13ifvqfm0","pricing_plan_id":"cebpf4jnsgd1na2vs0mg"},{"bike_id":"5545e5f3-6379-4d16-8527-ea6f67b4fa46","system_id":"levelo_inurba_marseille","lat":43.2594,"lon":5.40914,"is_reserved":false,"is_disabled":false,"rental_uris":{"android":"levelo://app?vid=5545e5f3-6379-4d16-8527-ea6f67b4fa46","ios":"levelo://app?vid=5545e5f3-6379-4d16-8527-ea6f67b4fa46"},"vehicle_type_id":"4","last_reported":1746601871,"current_range_meters":23200,"station_id":"ce4bhm92rcd13ifvqglg","pricing_plan_id":"cebpf4jnsgd1na2vs0mg"},{"bike_id":"812c23d8-55b6-4f59-a5fa-e692a3285c66","system_id":"levelo_inurba_marseille","lat":43.23162,"lon":5.43726,"is_reserved":false,"is_disabled":false,"rental_uris":{"android":"levelo://app?vid=812c23d8-55b6-4f59-a5fa-e692a3285c66","ios":"levelo://app?vid=812c23d8-55b6-4f59-a5fa-e692a3285c66"},"vehicle_type_id":"4","last_reported":1746601871,"current_range_meters":23200,"station_id":"ce4bhmp2rcd13ifvqgog","pricing_plan_id":"cebpf4jnsgd1na2vs0mg"},{"bike_id":"3807f7ae-0aed-467b-bf60-f75e20d0c938","system_id":"levelo_inurba_marseille","lat":43.27496,"lon":5.42474,"is_reserved":false,"is_disabled":false,"rental_uris":{"android":"levelo://app?vid=3807f7ae-0aed-467b-bf60-f75e20d0c938","ios":"levelo://app?vid=3807f7ae-0aed-467b-bf60-f75e20d0c938"},"vehicle_type_id":"4","last_reported":1746601871,"current_range_meters":23200,"station_id":"ce4bhn92rcd13ifvqgrg","pricing_plan_id":"cebpf4jnsgd1na2vs0mg"},{"bike_id":"2d60fc77-0789-4aa5-ae17-49c387a82783","system_id":"levelo_inurba_marseille","lat":43.21245,"lon":5.35054,"is_reserved":false,"is_disabled":false,"rental_uris":{"android":"levelo://app?vid=2d60fc77-0789-4aa5-ae17-49c387a82783","ios":"levelo://app?vid=2d60fc77-0789-4aa5-ae17-49c387a82783"},"vehicle_type_id":"4","last_reported":1746601871,"current_range_meters":24000,"station_id":"","pricing_plan_id":"cebpf4jnsgd1na2vs0mg"},{"bike_id":"ff807334-3ad3-4e40-bbde-648eb2b1c45b","system_id":"levelo_inurba_marseille","lat":43.21236,"lon":5.35055,"is_reserved":false,"is_disabled":false,"rental_uris":{"android":"levelo://app?vid=ff807334-3ad3-4e40-bbde-648eb2b1c45b","ios":"levelo://app?vid=ff807334-3ad3-4e40-bbde-648eb2b1c45b"},"vehicle_type_id":"4","last_reported":1746601871,"current_range_meters":24000,"station_id":"","pricing_plan_id":"cebpf4jnsgd1na2vs0mg"},{"bike_id":"3a1bfc2c-636f-4579-bde5-5f8a95c4c9f4","system_id":"levelo_inurba_marseille","lat":43.29682,"lon":5.37286,"is_reserved":false,"is_disabled":false,"rental_uris":{"android":"levelo://app?vid=3a1bfc2c-636f-4579-bde5-5f8a95c4c9f4","ios":"levelo://app?vid=3a1bfc2c-636f-4579-bde5-5f8a95c4c9f4"},"vehicle_type_id":"4","last_reported":1746601871,"current_range_meters":24000,"station_id":"ce4bgk12rcd13ifvqbj0","pricing_plan_id":"cebpf4jnsgd1na2vs0mg"},{"bike_id":"70a576ca-d174-4f91-9c54-aa0e357f1ba9","system_id":"levelo_inurba_marseille","lat":43.3096,"lon":5.36868,"is_reserved":false,"is_disabled":false,"rental_uris":{"android":"levelo://app?vid=70a576ca-d174-4f91-9c54-aa0e357f1ba9","ios":"levelo://app?vid=70a576ca-d174-4f91-9c54-aa0e357f1ba9"},"vehicle_type_id":"4","last_reported":1746601871,"current_range_meters":24000,"station_id":"ce4bgn92rcd13ifvqbvg","pricing_plan_id":"cebpf4jnsgd1na2vs0mg"},{"bike_id":"6563d26c-2ac5-487d-9f89-bea177e6edc6","system_id":"levelo_inurba_marseille","lat":43.3029,"lon":5.36879,"is_reserved":false,"is_disabled":false,"rental_uris":{"android":"levelo://app?vid=6563d26c-2ac5-487d-9f89-bea177e6edc6","ios":"levelo://app?vid=6563d26c-2ac5-487d-9f89-bea177e6edc6"},"vehicle_type_id":"4","last_reported":1746601871,"current_range_meters":24000,"station_id":"ce4bgqh2rcd13ifvqc5g","pricing_plan_id":"cebpf4jnsgd1na2vs0mg"},{"bike_id":"db61a63d-552d-4971-87ef-78100064a426","system_id":"levelo_inurba_marseille","lat":43.29101,"lon":5.38144,"is_reserved":false,"is_disabled":false,"rental_uris":{"android":"levelo://app?vid=db61a63d-552d-4971-87ef-78100064a426","ios":"levelo://app?vid=db61a63d-552d-4971-87ef-78100064a426"},"vehicle_type_id":"4","last_reported":1746601871,"current_range_meters":24000,"station_id":"ce4bh512rcd13ifvqe2g","pricing_plan_id":"cebpf4jnsgd1na2vs0mg"},{"bike_id":"cfc86f61-18bc-40e2-84c1-9063b1c0c60b","system_id":"levelo_inurba_marseille","lat":43.249686,"lon":5.389635,"is_reserved":false,"is_disabled":false,"rental_uris":{"android":"levelo://app?vid=cfc86f61-18bc-40e2-84c1-9063b1c0c60b","ios":"levelo://app?vid=cfc86f61-18bc-40e2-84c1-9063b1c0c60b"},"vehicle_type_id":"4","last_reported":1746601871,"current_range_meters":24000,"station_id":"ce4bhgp2rcd13ifvqfd0","pricing_plan_id":"cebpf4jnsgd1na2vs0mg"},{"bike_id":"b2bfaa95-537b-4195-9a0d-840ec9565f73","system_id":"levelo_inurba_marseille","lat":43.25113,"lon":5.40319,"is_reserved":false,"is_disabled":false,"rental_uris":{"android":"levelo://app?vid=b2bfaa95-537b-4195-9a0d-840ec9565f73","ios":"levelo://app?vid=b2bfaa95-537b-4195-9a0d-840ec9565f73"},"vehicle_type_id":"4","last_reported":1746601871,"current_range_meters":24000,"station_id":"ce4bhlh2rcd13ifvqgig","pricing_plan_id":"cebpf4jnsgd1na2vs0mg"},{"bike_id":"ee28b82d-4040-4f62-9897-5c866ee16043","system_id":"levelo_inurba_marseille","lat":43.24074,"lon":5.37763,"is_reserved":false,"is_disabled":false,"rental_uris":{"android":"levelo://app?vid=ee28b82d-4040-4f62-9897-5c866ee16043","ios":"levelo://app?vid=ee28b82d-4040-4f62-9897-5c866ee16043"},"vehicle_type_id":"4","last_reported":1746601871,"current_range_meters":24000,"station_id":"ce4bhnp2rcd13ifvqgvg","pricing_plan_id":"cebpf4jnsgd1na2vs0mg"},{"bike_id":"e3bc37b9-c189-46d6-b65d-9ee5ad4f521f","system_id":"levelo_inurba_marseille","lat":43.3089,"lon":5.36834,"is_reserved":false,"is_disabled":false,"rental_uris":{"android":"levelo://app?vid=e3bc37b9-c189-46d6-b65d-9ee5ad4f521f","ios":"levelo://app?vid=e3bc37b9-c189-46d6-b65d-9ee5ad4f521f"},"vehicle_type_id":"4","last_reported":1746601871,"current_range_meters":24400,"station_id":"ce4bgn92rcd13ifvqbvg","pricing_plan_id":"cebpf4jnsgd1na2vs0mg"},{"bike_id":"0d9ef74a-dc72-47a2-97cb-176f30d4c43d","system_id":"levelo_inurba_marseille","lat":43.30908,"lon":5.36836,"is_reserved":false,"is_disabled":false,"rental_uris":{"android":"levelo://app?vid=0d9ef74a-dc72-47a2-97cb-176f30d4c43d","ios":"levelo://app?vid=0d9ef74a-dc72-47a2-97cb-176f30d4c43d"},"vehicle_type_id":"4","last_reported":1746601871,"current_range_meters":24400,"station_id":"ce4bgn92rcd13ifvqbvg","pricing_plan_id":"cebpf4jnsgd1na2vs0mg"},{"bike_id":"10f9297d-7dcd-4169-a091-ba5d621e46a4","system_id":"levelo_inurba_marseille","lat":43.31351,"lon":5.36723,"is_reserved":false,"is_disabled":false,"rental_uris":{"android":"levelo://app?vid=10f9297d-7dcd-4169-a091-ba5d621e46a4","ios":"levelo://app?vid=10f9297d-7dcd-4169-a091-ba5d621e46a4"},"vehicle_type_id":"4","last_reported":1746601871,"current_range_meters":24400,"station_id":"ce4bgr92rcd13ifvqc6g","pricing_plan_id":"cebpf4jnsgd1na2vs0mg"},{"bike_id":"8ac5ac42-2ce0-4667-96a4-fa3f21cb8774","system_id":"levelo_inurba_marseille","lat":43.30213,"lon":5.36621,"is_reserved":false,"is_disabled":false,"rental_uris":{"android":"levelo://app?vid=8ac5ac42-2ce0-4667-96a4-fa3f21cb8774","ios":"levelo://app?vid=8ac5ac42-2ce0-4667-96a4-fa3f21cb8774"},"vehicle_type_id":"4","last_reported":1746601871,"current_range_meters":24400,"station_id":"ce4bgrh2rcd13ifvqc8g","pricing_plan_id":"cebpf4jnsgd1na2vs0mg"},{"bike_id":"f946e8b0-4cc6-4044-8cdb-26522c0f01c3","system_id":"levelo_inurba_marseille","lat":43.30145,"lon":5.3742,"is_reserved":false,"is_disabled":false,"rental_uris":{"android":"levelo://app?vid=f946e8b0-4cc6-4044-8cdb-26522c0f01c3","ios":"levelo://app?vid=f946e8b0-4cc6-4044-8cdb-26522c0f01c3"},"vehicle_type_id":"4","last_reported":1746601871,"current_range_meters":24400,"station_id":"ce4bgs92rcd13ifvqcc0","pricing_plan_id":"cebpf4jnsgd1na2vs0mg"},{"bike_id":"d8c9dc9e-20b1-4afe-9d66-380a6267d260","system_id":"levelo_inurba_marseille","lat":43.30874,"lon":5.37192,"is_reserved":false,"is_disabled":false,"rental_uris":{"android":"levelo://app?vid=d8c9dc9e-20b1-4afe-9d66-380a6267d260","ios":"levelo://app?vid=d8c9dc9e-20b1-4afe-9d66-380a6267d260"},"vehicle_type_id":"4","last_reported":1746601871,"current_range_meters":24400,"station_id":"ce4bguh2rcd13ifvqckg","pricing_plan_id":"cebpf4jnsgd1na2vs0mg"},{"bike_id":"0b4768f5-eff7-4811-ada7-e1138dcdb437","system_id":"levelo_inurba_marseille","lat":43.25933,"lon":5.40897,"is_reserved":false,"is_disabled":false,"rental_uris":{"android":"levelo://app?vid=0b4768f5-eff7-4811-ada7-e1138dcdb437","ios":"levelo://app?vid=0b4768f5-eff7-4811-ada7-e1138dcdb437"},"vehicle_type_id":"4","last_reported":1746601871,"current_range_meters":24400,"station_id":"ce4bhm92rcd13ifvqglg","pricing_plan_id":"cebpf4jnsgd1na2vs0mg"},{"bike_id":"70bbc8a1-4a57-4721-bc86-7b199943ef1f","system_id":"levelo_inurba_marseille","lat":43.24079,"lon":5.37759,"is_reserved":false,"is_disabled":false,"rental_uris":{"android":"levelo://app?vid=70bbc8a1-4a57-4721-bc86-7b199943ef1f","ios":"levelo://app?vid=70bbc8a1-4a57-4721-bc86-7b199943ef1f"},"vehicle_type_id":"4","last_reported":1746601871,"current_range_meters":24400,"station_id":"ce4bhnp2rcd13ifvqgvg","pricing_plan_id":"cebpf4jnsgd1na2vs0mg"},{"bike_id":"12c1ddf1-31dc-4c99-a27d-54b7b409e272","system_id":"levelo_inurba_marseille","lat":43.24081,"lon":5.37754,"is_reserved":false,"is_disabled":false,"rental_uris":{"android":"levelo://app?vid=12c1ddf1-31dc-4c99-a27d-54b7b409e272","ios":"levelo://app?vid=12c1ddf1-31dc-4c99-a27d-54b7b409e272"},"vehicle_type_id":"4","last_reported":1746601871,"current_range_meters":24400,"station_id":"ce4bhnp2rcd13ifvqgvg","pricing_plan_id":"cebpf4jnsgd1na2vs0mg"},{"bike_id":"dcbb820a-08f7-4027-94e6-5df620082d70","system_id":"levelo_inurba_marseille","lat":43.26236,"lon":5.38803,"is_reserved":false,"is_disabled":false,"rental_uris":{"android":"levelo://app?vid=dcbb820a-08f7-4027-94e6-5df620082d70","ios":"levelo://app?vid=dcbb820a-08f7-4027-94e6-5df620082d70"},"vehicle_type_id":"4","last_reported":1746601871,"current_range_meters":24800,"station_id":"","pricing_plan_id":"cebpf4jnsgd1na2vs0mg"},{"bike_id":"6f10f711-89e9-4298-a792-fc929d7a01de","system_id":"levelo_inurba_marseille","lat":43.30873,"lon":5.36764,"is_reserved":false,"is_disabled":false,"rental_uris":{"android":"levelo://app?vid=6f10f711-89e9-4298-a792-fc929d7a01de","ios":"levelo://app?vid=6f10f711-89e9-4298-a792-fc929d7a01de"},"vehicle_type_id":"4","last_reported":1746601871,"current_range_meters":24800,"station_id":"ce4bgn92rcd13ifvqbvg","pricing_plan_id":"cebpf4jnsgd1na2vs0mg"},{"bike_id":"c54bf8eb-07b3-4341-bb68-7c918d04487d","system_id":"levelo_inurba_marseille","lat":43.30918,"lon":5.36852,"is_reserved":false,"is_disabled":false,"rental_uris":{"android":"levelo://app?vid=c54bf8eb-07b3-4341-bb68-7c918d04487d","ios":"levelo://app?vid=c54bf8eb-07b3-4341-bb68-7c918d04487d"},"vehicle_type_id":"4","last_reported":1746601871,"current_range_meters":24800,"station_id":"ce4bgn92rcd13ifvqbvg","pricing_plan_id":"cebpf4jnsgd1na2vs0mg"},{"bike_id":"ea24b8b0-c527-40b0-afd1-e53441cb456e","system_id":"levelo_inurba_marseille","lat":43.30542,"lon":5.36544,"is_reserved":false,"is_disabled":false,"rental_uris":{"android":"levelo://app?vid=ea24b8b0-c527-40b0-afd1-e53441cb456e","ios":"levelo://app?vid=ea24b8b0-c527-40b0-afd1-e53441cb456e"},"vehicle_type_id":"4","last_reported":1746601871,"current_range_meters":24800,"station_id":"ce4bgs12rcd13ifvqcag","pricing_plan_id":"cebpf4jnsgd1na2vs0mg"},{"bike_id":"4e86ad4f-8977-4387-8cf3-1c6a8bdf0308","system_id":"levelo_inurba_marseille","lat":43.30894,"lon":5.37194,"is_reserved":false,"is_disabled":false,"rental_uris":{"android":"levelo://app?vid=4e86ad4f-8977-4387-8cf3-1c6a8bdf0308","ios":"levelo://app?vid=4e86ad4f-8977-4387-8cf3-1c6a8bdf0308"},"vehicle_type_id":"4","last_reported":1746601871,"current_range_meters":24800,"station_id":"ce4bguh2rcd13ifvqckg","pricing_plan_id":"cebpf4jnsgd1na2vs0mg"},{"bike_id":"8c803408-f959-4761-a8b5-34482918cf89","system_id":"levelo_inurba_marseille","lat":43.246368,"lon":5.388935,"is_reserved":false,"is_disabled":false,"rental_uris":{"android":"levelo://app?vid=8c803408-f959-4761-a8b5-34482918cf89","ios":"levelo://app?vid=8c803408-f959-4761-a8b5-34482918cf89"},"vehicle_type_id":"4","last_reported":1746601871,"current_range_meters":24800,"station_id":"ce4bhg12rcd13ifvqf60","pricing_plan_id":"cebpf4jnsgd1na2vs0mg"},