{"last_updated":1741964971,"ttl":60,"version":"2.2","data":{"bikes":[{"bike_id":"3a23b3e1-1856-4b36-a48f-29a5879d7136","system_id":"levelo_inurba_marseille","lat":43.28369,"lon":5.38633,"is_reserved":false,"is_disabled":false,"rental_uris":{"android":"levelo://app?vid=3a23b3e1-1856-4b36-a48f-29a5879d7136","ios":"levelo://app?vid=3a23b3e1-1856-4b36-a48f-29a5879d7136"},"vehicle_type_id":"4","last_reported":1741964971,"current_range_meters":2800,"station_id":"ce4bh492rcd13ifvqdvg","pricing_plan_id":"cebpf4jnsgd1na2vs0mg"},{"bike_id":"aa4d135a-d4ab-44eb-8120-f39b1e6438a4","system_id":"levelo_inurba_marseille","lat":43.30893,"lon":5.37191,"is_reserved":false,"is_disabled":false,"rental_uris":{"android":"levelo://app?vid=aa4d135a-d4ab-44eb-8120-f39b1e6438a4","ios":"levelo://app?vid=aa4d135a-d4ab-44eb-8120-f39b1e6438a4"},"vehicle_type_id":"4","last_reported":1741964971,"current_range_meters":2800,"station_id":"ce4bguh2rcd13ifvqckg","pricing_plan_id":"cebpf4jnsgd1na2vs0mg"},{"bike_id":"90c7c372-898e-4a29-82b8-58985707882d","system_id":"levelo_inurba_marseille","lat":43.31756,"lon":5.3902,"is_reserved":false,"is_disabled":false,"rental_uris":{"android":"levelo://app?vid=90c7c372-898e-4a29-82b8-58985707882d","ios":"levelo://app?vid=90c7c372-898e-4a29-82b8-58985707882d"},"vehicle_type_id":"4","last_reported":1741964971,"current_range_meters":2800,"station_id":"ce4bhqp2rcd13ifvqhng","pricing_plan_id":"cebpf4jnsgd1na2vs0mg"},{"bike_id":"d9d7de5a-3944-40ce-a433-78232317c3d2","system_id":"levelo_inurba_marseille","lat":43.29908,"lon":5.38133,"is_reserved":false,"is_disabled":false,"rental_uris":{"android":"levelo://app?vid=d9d7de5a-3944-40ce-a433-78232317c3d2","ios":"levelo://app?vid=d9d7de5a-3944-40ce-a433-78232317c3d2"},"vehicle_type_id":"4","last_reported":1741964971,"current_range_meters":3200,"station_id":"ce4bgj12rcd13ifvqbc0","pricing_plan_id":"cebpf4jnsgd1na2vs0mg"},{"bike_id":"1a2029f8-4584-4da2-b5ee-21bea7833ad9","system_id":"levelo_inurba_marseille","lat":43.32656,"lon":5.40994,"is_reserved":false,"is_disabled":false,"rental_uris":{"android":"levelo://app?vid=1a2029f8-4584-4da2-b5ee-21bea7833ad9","ios":"levelo://app?vid=1a2029f8-4584-4da2-b5ee-21bea7833ad9"},"vehicle_type_id":"4","last_reported":1741964971,"current_range_meters":3200,"station_id":"ce4bhpp2rcd13ifvqhgg","pricing_plan_id":"cebpf4jnsgd1na2vs0mg"},{"bike_id":"9b1d3f78-a44d-40d7-a100-0b7e6f65032a","system_id":"levelo_inurba_marseille","lat":43.3373,"lon":5.3919,"is_reserved":false,"is_disabled":false,"rental_uris":{"android":"levelo://app?vid=9b1d3f78-a44d-40d7-a100-0b7e6f65032a","ios":"levelo://app?vid=9b1d3f78-a44d-40d7-a100-0b7e6f65032a"},"vehicle_type_id":"4","last_reported":1741964971,"current_range_meters":3200,"station_id":"ce4bhr92rcd13ifvqhsg","pricing_plan_id":"cebpf4jnsgd1na2vs0mg"},{"bike_id":"4f759320-c97c-4dcd-8db0-a5370e5d456e","system_id":"levelo_inurba_marseille","lat":43.30951,"lon":5.40174,"is_reserved":false,"is_disabled":false,"rental_uris":{"android":"levelo://app?vid=4f759320-c97c-4dcd-8db0-a5370e5d456e","ios":"levelo://app?vid=4f759320-c97c-4dcd-8db0-a5370e5d456e"},"vehicle_type_id":"4","last_reported":1741964971,"current_range_meters":3600,"station_id":"ce4bgvp2rcd13ifvqct0","pricing_plan_id":"cebpf4jnsgd1na2vs0mg"},{"bike_id":"a0d6136f-c546-4dd7-a0f0-69eaacede449","system_id":"levelo_inurba_marseille","lat":43.31222,"lon":5.36873,"is_reserved":false,"is_disabled":false,"rental_uris":{"android":"levelo://app?vid=a0d6136f-c546-4dd7-a0f0-69eaacede449","ios":"levelo://app?vid=a0d6136f-c546-4dd7-a0f0-69eaacede449"},"vehicle_type_id":"4","last_reported":1741964971,"current_range_meters":3600,"station_id":"ce4bgl92rcd13ifvqbq0","pricing_plan_id":"cebpf4jnsgd1na2vs0mg"},{"bike_id":"2fa0046f-4c6e-4301-b7df-14c0bbb04bdb","system_id":"levelo_inurba_marseille","lat":43.31368,"lon":5.36718,"is_reserved":false,"is_disabled":false,"rental_uris":{"android":"levelo://app?vid=2fa0046f-4c6e-4301-b7df-14c0bbb04bdb","ios":"levelo://app?vid=2fa0046f-4c6e-4301-b7df-14c0bbb04bdb"},"vehicle_type_id":"4","last_reported":1741964971,"current_range_meters":3600,"station_id":"ce4bgr92rcd13ifvqc6g","pricing_plan_id":"cebpf4jnsgd1na2vs0mg"},{"bike_id":"fd25b6e1-4a16-4b07-a5e1-29d0d3908acc","system_id":"levelo_inurba_marseille","lat":43.29414,"lon":5.38615,"is_reserved":false,"is_disabled":false,"rental_uris":{"android":"levelo://app?vid=fd25b6e1-4a16-4b07-a5e1-29d0d3908acc","ios":"levelo://app?vid=fd25b6e1-4a16-4b07-a5e1-29d0d3908acc"},"vehicle_type_id":"4","last_reported":1741964971,"current_range_meters":4000,"station_id":"ce4bh2h2rcd13ifvqdh0","pricing_plan_id":"cebpf4jnsgd1na2vs0mg"},{"bike_id":"4296bdb7-bbcd-4a68-b12e-021db52c4c32","system_id":"levelo_inurba_marseille","lat":43.29265,"lon":5.38439,"is_reserved":false,"is_disabled":false,"rental_uris":{"android":"levelo://app?vid=4296bdb7-bbcd-4a68-b12e-021db52c4c32","ios":"levelo://app?vid=4296bdb7-bbcd-4a68-b12e-021db52c4c32"},"vehicle_type_id":"4","last_reported":1741964971,"current_range_meters":4000,"station_id":"ce4bh692rcd13ifvqea0","pricing_plan_id":"cebpf4jnsgd1na2vs0mg"},{"bike_id":"e4b142f5-73cb-4f77-b183-2c9583d76b66","system_id":"levelo_inurba_marseille","lat":43.29622,"lon":5.37165,"is_reserved":false,"is_disabled":false,"rental_uris":{"android":"levelo://app?vid=e4b142f5-73cb-4f77-b183-2c9583d76b66","ios":"levelo://app?vid=e4b142f5-73cb-4f77-b183-2c9583d76b66"},"vehicle_type_id":"4","last_reported":1741964971,"current_range_meters":4000,"station_id":"ce4bgnh2rcd13ifvqc0g","pricing_plan_id":"cebpf4jnsgd1na2vs0mg"},{"bike_id":"7fa8e408-4c75-4ff4-9602-2e32e7bf4d23","system_id":"levelo_inurba_marseille","lat":43.29425,"lon":5.38627,"is_reserved":false,"is_disabled":false,"rental_uris":{"android":"levelo://app?vid=7fa8e408-4c75-4ff4-9602-2e32e7bf4d23","ios":"levelo://app?vid=7fa8e408-4c75-4ff4-9602-2e32e7bf4d23"},"vehicle_type_id":"4","last_reported":1741964971,"current_range_meters":4000,"station_id":"ce4bh2h2rcd13ifvqdh0","pricing_plan_id":"cebpf4jnsgd1na2vs0mg"},{"bike_id":"7ede5137-2e1f-44e6-ac4e-62e726d08520","system_id":"levelo_inurba_marseille","lat":43.2656,"lon":5.39003,"is_reserved":false,"is_disabled":true,"rental_uris":{"android":"levelo://app?vid=7ede5137-2e1f-44e6-ac4e-62e726d08520","ios":"levelo://app?vid=7ede5137-2e1f-44e6-ac4e-62e726d08520"},"vehicle_type_id":"4","last_reported":1741964971,"current_range_meters":4400,"station_id":"","pricing_plan_id":"cebpf4jnsgd1na2vs0mg"},{"bike_id":"3e052f78-610f-4c3b-8bb7-3204cf1ee4e4","system_id":"levelo_inurba_marseille","lat":43.31369,"lon":5.36768,"is_reserved":false,"is_disabled":false,"rental_uris":{"android":"levelo://app?vid=3e052f78-610f-4c3b-8bb7-3204cf1ee4e4","ios":"levelo://app?vid=3e052f78-610f-4c3b-8bb7-3204cf1ee4e4"},"vehicle_type_id":"4","last_reported":1741964971,"current_range_meters":4400,"station_id":"","pricing_plan_id":"cebpf4jnsgd1na2vs0mg"},{"bike_id":"27ec84fa-056a-4a97-bbf2-b42d1ed24021","system_id":"levelo_inurba_marseille","lat":43.30103,"lon":5.39883,"is_reserved":false,"is_disabled":false,"rental_uris":{"android":"levelo://app?vid=27ec84fa-056a-4a97-bbf2-b42d1ed24021","ios":"levelo://app?vid=27ec84fa-056a-4a97-bbf2-b42d1ed24021"},"vehicle_type_id":"4","last_reported":1741964971,"current_range_meters":4400,"station_id":"ce4bh0h2rcd13ifvqd40","pricing_plan_id":"cebpf4jnsgd1na2vs0mg"},{"bike_id":"3308de68-b93e-4d3a-9bef-439058271cc8","system_id":"levelo_inurba_marseille","lat":43.28485,"lon":5.38428,"is_reserved":false,"is_disabled":false,"rental_uris":{"android":"levelo://app?vid=3308de68-b93e-4d3a-9bef-439058271cc8","ios":"levelo://app?vid=3308de68-b93e-4d3a-9bef-439058271cc8"},"vehicle_type_id":"4","last_reported":1741964971,"current_range_meters":4800,"station_id":"ce4bh512rcd13ifvqe3g","pricing_plan_id":"cebpf4jnsgd1na2vs0mg"},{"bike_id":"2c4521a4-aa82-40c1-9b5d-fb95a8425037","system_id":"levelo_inurba_marseille","lat":43.26551,"lon":5.38999,"is_reserved":false,"is_disabled":false,"rental_uris":{"android":"levelo://app?vid=2c4521a4-aa82-40c1-9b5d-fb95a8425037","ios":"levelo://app?vid=2c4521a4-aa82-40c1-9b5d-fb95a8425037"},"vehicle_type_id":"4","last_reported":1741964971,"current_range_meters":5600,"station_id":"ce4bhe12rcd13ifvqf30","pricing_plan_id":"cebpf4jnsgd1na2vs0mg"},{"bike_id":"6044815a-d60b-451a-93a6-a330b5f0e3b8","system_id":"levelo_inurba_marseille","lat":43.27621,"lon":5.36113,"is_reserved":false,"is_disabled":false,"rental_uris":{"android":"levelo://app?vid=6044815a-d60b-451a-93a6-a330b5f0e3b8","ios":"levelo://app?vid=6044815a-d60b-451a-93a6-a330b5f0e3b8"},"vehicle_type_id":"4","last_reported":1741964971,"current_range_meters":5600,"station_id":"ce4bgj92rcd13ifvqbe0","pricing_plan_id":"cebpf4jnsgd1na2vs0mg"},{"bike_id":"154d0f4a-7cf1-4b4a-8919-807104d462e1","system_id":"levelo_inurba_marseille","lat":43.26653,"lon":5.38662,"is_reserved":false,"is_disabled":false,"rental_uris":{"android":"levelo://app?vid=154d0f4a-7cf1-4b4a-8919-807104d462e1","ios":"levelo://app?vid=154d0f4a-7cf1-4b4a-8919-807104d462e1"},"vehicle_type_id":"4","last_reported":1741964971,"current_range_meters":5600,"station_id":"","pricing_plan_id":"cebpf4jnsgd1na2vs0mg"},{"bike_id":"bea0aaa1-1e1b-4a71-a5e8-fd09480beefb","system_id":"levelo_inurba_marseille","lat":43.29041,"lon":5.37573,"is_reserved":false,"is_disabled":false,"rental_uris":{"android":"levelo://app?vid=bea0aaa1-1e1b-4a71-a5e8-fd09480beefb","ios":"levelo://app?vid=bea0aaa1-1e1b-4a71-a5e8-fd09480beefb"},"vehicle_type_id":"4","last_reported":1741964971,"current_range_meters":6000,"station_id":"ce4bh692rcd13ifvqe90","pricing_plan_id":"cebpf4jnsgd1na2vs0mg"},{"bike_id":"67414d52-13ce-4025-b386-e9b3544f5ad5","system_id":"levelo_inurba_marseille","lat":43.26672,"lon":5.38268,"is_reserved":false,"is_disabled":false,"rental_uris":{"android":"levelo://app?vid=67414d52-13ce-4025-b386-e9b3544f5ad5","ios":"levelo://app?vid=67414d52-13ce-4025-b386-e9b3544f5ad5"},"vehicle_type_id":"4","last_reported":1741964971,"current_range_meters":6000,"station_id":"ce4bhg92rcd13ifvqf90","pricing_plan_id":"cebpf4jnsgd1na2vs0mg"},{"bike_id":"83aa7ab2-d352-459f-bd36-67e70fb4a7aa","system_id":"levelo_inurba_marseille","lat":43.259382,"lon":5.409039,"is_reserved":false,"is_disabled":false,"rental_uris":{"android":"levelo://app?vid=83aa7ab2-d352-459f-bd36-67e70fb4a7aa","ios":"levelo://app?vid=83aa7ab2-d352-459f-bd36-67e70fb4a7aa"},"vehicle_type_id":"4","last_reported":1741964971,"current_range_meters":6400,"station_id":"ce4bhm92rcd13ifvqglg","pricing_plan_id":"cebpf4jnsgd1na2vs0mg"},{"bike_id":"7b35ad81-591c-4cc8-b125-1210315faf0d","system_id":"levelo_inurba_marseille","lat":43.2315,"lon":5.43716,"is_reserved":false,"is_disabled":false,"rental_uris":{"android":"levelo://app?vid=7b35ad81-591c-4cc8-b125-1210315faf0d","ios":"levelo://app?vid=7b35ad81-591c-4cc8-b125-1210315faf0d"},"vehicle_type_id":"4","last_reported":1741964971,"current_range_meters":6400,"station_id":"ce4bhmp2rcd13ifvqgog","pricing_plan_id":"cebpf4jnsgd1na2vs0mg"},{"bike_id":"e350ce66-a995-469c-b4d1-ba6658fe49e2","system_id":"levelo_inurba_marseille","lat":43.27818,"lon":5.4073,"is_reserved":false,"is_disabled":false,"rental_uris":{"android":"levelo://app?vid=e350ce66-a995-469c-b4d1-ba6658fe49e2","ios":"levelo://app?vid=e350ce66-a995-469c-b4d1-ba6658fe49e2"},"vehicle_type_id":"4","last_reported":1741964971,"current_range_meters":6400,"station_id":"ce4bhnh2rcd13ifvqgtg","pricing_plan_id":"cebpf4jnsgd1na2vs0mg"},{"bike_id":"39df283f-35a5-4c44-9f0d-6dd6923a19a4","system_id":"levelo_inurba_marseille","lat":43.321117,"lon":5.367821,"is_reserved":false,"is_disabled":false,"rental_uris":{"android":"levelo://app?vid=39df283f-35a5-4c44-9f0d-6dd6923a19a4","ios":"levelo://app?vid=39df283f-35a5-4c44-9f0d-6dd6923a19a4"},"vehicle_type_id":"4","last_reported":1741964971,"current_range_meters":6400,"station_id":"ce4bhrh2rcd13ifvqhug","pricing_plan_id":"cebpf4jnsgd1na2vs0mg"},{"bike_id":"9bf4b961-809e-4e01-a167-1fdf5f1fc6f4","system_id":"levelo_inurba_marseille","lat":43.29009,"lon":5.35606,"is_reserved":false,"is_disabled":false,"rental_uris":{"android":"levelo://app?vid=9bf4b961-809e-4e01-a167-1fdf5f1fc6f4","ios":"levelo://app?vid=9bf4b961-809e-4e01-a167-1fdf5f1fc6f4"},"vehicle_type_id":"4","last_reported":1741964971,"current_range_meters":6800,"station_id":"ce4bhb92rcd13ifvqen0","pricing_plan_id":"cebpf4jnsgd1na2vs0mg"},{"bike_id":"27a9a62b-6368-4179-8f2c-f6dd6040539e","system_id":"levelo_inurba_marseille","lat":43.26223,"lon":5.37459,"is_reserved":false,"is_disabled":false,"rental_uris":{"android":"levelo://app?vid=27a9a62b-6368-4179-8f2c-f6dd6040539e","ios":"levelo://app?vid=27a9a62b-6368-4179-8f2c-f6dd6040539e"},"vehicle_type_id":"4","last_reported":1741964971,"current_range_meters":6800,"station_id":"ce4bhgp2rcd13ifvqfc0","pricing_plan_id":"cebpf4jnsgd1na2vs0mg"},{"bike_id":"f426e1e1-6a35-4d57-bc62-e89b051d4ed8","system_id":"levelo_inurba_marseille","lat":43.24079,"lon":5.37762,"is_reserved":false,"is_disabled":false,"rental_uris":{"android":"levelo://app?vid=f426e1e1-6a35-4d57-bc62-e89b051d4ed8","ios":"levelo://app?vid=f426e1e1-6a35-4d57-bc62-e89b051d4ed8"},"vehicle_type_id":"4","last_reported":1741964971,"current_range_meters":6800,"station_id":"ce4bhnp2rcd13ifvqgvg","pricing_plan_id":"cebpf4jnsgd1na2vs0mg"},{"bike_id":"ab3b3273-086b-4458-b5bf-fb61a149b41e","system_id":"levelo_inurba_marseille","lat":43.26224,"lon":5.40476,"is_reserved":false,"is_disabled":false,"rental_uris":{"android":"levelo://app?vid=ab3b3273-086b-4458-b5bf-fb61a149b41e","ios":"levelo://app?vid=ab3b3273-086b-4458-b5bf-fb61a149b41e"},"vehicle_type_id":"4","last_reported":1741964971,"current_range_meters":6800,"station_id":"ce4bhmh2rcd13ifvqgmg","pricing_plan_id":"cebpf4jnsgd1na2vs0mg"},{"bike_id":"af5df027-9916-41a5-8ab7-db2182f63a1a","system_id":"levelo_inurba_marseille","lat":43.29276,"lon":5.37447,"is_reserved":false,"is_disabled":false,"rental_uris":{"android":"levelo://app?vid=af5df027-9916-41a5-8ab7-db2182f63a1a","ios":"levelo://app?vid=af5df027-9916-41a5-8ab7-db2182f63a1a"},"vehicle_type_id":"4","last_reported":1741964971,"current_range_meters":6800,"station_id":"ce4bgi12rcd13ifvqb70","pricing_plan_id":"cebpf4jnsgd1na2vs0mg"},{"bike_id":"1cbeb49c-8d51-46f2-ad03-8af78ea79d9a","system_id":"levelo_inurba_marseille","lat":43.24166,"lon":5.39718,"is_reserved":false,"is_disabled":false,"rental_uris":{"android":"levelo://app?vid=1cbeb49c-8d51-46f2-ad03-8af78ea79d9a","ios":"levelo://app?vid=1cbeb49c-8d51-46f2-ad03-8af78ea79d9a"},"vehicle_type_id":"4","last_reported":1741964971,"current_range_meters":6800,"station_id":"ce4bhn12rcd13ifvqgpg","pricing_plan_id":"cebpf4jnsgd1na2vs0mg"},{"bike_id":"9660dc48-862d-4b47-b820-fb425a6ad2ce","system_id":"levelo_inurba_marseille","lat":43.31238,"lon":5.36845,"is_reserved":false,"is_disabled":false,"rental_uris":{"android":"levelo://app?vid=9660dc48-862d-4b47-b820-fb425a6ad2ce","ios":"levelo://app?vid=9660dc48-862d-4b47-b820-fb425a6ad2ce"},"vehicle_type_id":"4","last_reported":1741964971,"current_range_meters":6800,"station_id":"ce4bgl92rcd13ifvqbq0","pricing_plan_id":"cebpf4jnsgd1na2vs0mg"},{"bike_id":"45dce5d6-fdd9-43b7-8cb1-c7832923b7a4","system_id":"levelo_inurba_marseille","lat":43.270567,"lon":5.402645,"is_reserved":false,"is_disabled":false,"rental_uris":{"android":"levelo://app?vid=45dce5d6-fdd9-43b7-8cb1-c7832923b7a4","ios":"levelo://app?vid=45dce5d6-fdd9-43b7-8cb1-c7832923b7a4"},"vehicle_type_id":"4","last_reported":1741964971,"current_range_meters":6800,"station_id":"ce4bhk92rcd13ifvqgc0","pricing_plan_id":"cebpf4jnsgd1na2vs0mg"},{"bike_id":"90f263ed-f955-44be-aa34-2a284417f95a","system_id":"levelo_inurba_marseille","lat":43.32996,"lon":5.39077,"is_reserved":false,"is_disabled":false,"rental_uris":{"android":"levelo://app?vid=90f263ed-f955-44be-aa34-2a284417f95a","ios":"levelo://app?vid=90f263ed-f955-44be-aa34-2a284417f95a"},"vehicle_type_id":"4","last_reported":1741964971,"current_range_meters":7200,"station_id":"ce4bhr92rcd13ifvqhrg","pricing_plan_id":"cebpf4jnsgd1na2vs0mg"},{"bike_id":"b81c21fd-c902-470d-a4c8-53e97987bea2","system_id":"levelo_inurba_marseille","lat":43.28916,"lon":5.38406,"is_reserved":false,"is_disabled":false,"rental_uris":{"android":"levelo://app?vid=b81c21fd-c902-470d-a4c8-53e97987bea2","ios":"levelo://app?vid=b81c21fd-c902-470d-a4c8-53e97987bea2"},"vehicle_type_id":"4","last_reported":1741964971,"current_range_meters":7200,"station_id":"ce4bh612rcd13ifvqe6g","pricing_plan_id":"cebpf4jnsgd1na2vs0mg"},{"bike_id":"8e824da1-37b2-4e11-9c99-bb2e507552f6","system_id":"levelo_inurba_marseille","lat":43.23147,"lon":5.43723,"is_reserved":false,"is_disabled":false,"rental_uris":{"android":"levelo://app?vid=8e824da1-37b2-4e11-9c99-bb2e507552f6","ios":"levelo://app?vid=8e824da1-37b2-4e11-9c99-bb2e507552f6"},"vehicle_type_id":"4","last_reported":1741964971,"current_range_meters":7200,"station_id":"ce4bhmp2rcd13ifvqgog","pricing_plan_id":"cebpf4jnsgd1na2vs0mg"},{"bike_id":"1179ea35-4831-4438-984a-d67269a5255b","system_id":"levelo_inurba_marseille","lat":43.232008,"lon":5.355451,"is_reserved":false,"is_disabled":false,"rental_uris":{"android":"levelo://app?vid=1179ea35-4831-4438-984a-d67269a5255b","ios":"levelo://app?vid=1179ea35-4831-4438-984a-d67269a5255b"},"vehicle_type_id":"4","last_reported":1741964971,"current_range_meters":7200,"station_id":"ce4bhu92rcd13ifvqi70","pricing_plan_id":"cebpf4jnsgd1na2vs0mg"},{"bike_id":"aba0ccbf-6f6e-4589-b839-ce3d491b68b5","system_id":"levelo_inurba_marseille","lat":43.31504,"lon":5.37308,"is_reserved":false,"is_disabled":false,"rental_uris":{"android":"levelo://app?vid=aba0ccbf-6f6e-4589-b839-ce3d491b68b5","ios":"levelo://app?vid=aba0ccbf-6f6e-4589-b839-ce3d491b68b5"},"vehicle_type_id":"4","last_reported":1741964971,"current_range_meters":7200,"station_id":"ce4bgt12rcd13ifvqcd0","pricing_plan_id":"cebpf4jnsgd1na2vs0mg"},{"bike_id":"8939fbba-2fc8-450a-9027-04db4f4e697a","system_id":"levelo_inurba_marseille","lat":43.31425,"lon":5.4043,"is_reserved":false,"is_disabled":false,"rental_uris":{"android":"levelo://app?vid=8939fbba-2fc8-450a-9027-04db4f4e697a","ios":"levelo://app?vid=8939fbba-2fc8-450a-9027-04db4f4e697a"},"vehicle_type_id":"4","last_reported":1741964971,"current_range_meters":8000,"station_id":"","pricing_plan_id":"cebpf4jnsgd1na2vs0mg"},{"bike_id":"4ec3cf3f-76b3-4d22-9205-b762399d4c04","system_id":"levelo_inurba_marseille","lat":43.3042,"lon":5.41283,"is_reserved":false,"is_disabled":false,"rental_uris":{"android":"levelo://app?vid=4ec3cf3f-76b3-4d22-9205-b762399d4c04","ios":"levelo://app?vid=4ec3cf3f-76b3-4d22-9205-b762399d4c04"},"vehicle_type_id":"4","last_reported":1741964971,"current_range_meters":8000,"station_id":"ce4bhop2rcd13ifvqh8g","pricing_plan_id":"cebpf4jnsgd1na2vs0mg"},{"bike_id":"150b3b69-cce0-417e-b078-1fb5ce62bcdb","system_id":"levelo_inurba_marseille","lat":43.24071,"lon":5.37766,"is_reserved":false,"is_disabled":false,"rental_uris":{"android":"levelo://app?vid=150b3b69-cce0-417e-b078-1fb5ce62bcdb","ios":"levelo://app?vid=150b3b69-cce0-417e-b078-1fb5ce62bcdb"},"vehicle_type_id":"4","last_reported":1741964971,"current_range_meters":8000,"station_id":"ce4bhnp2rcd13ifvqgvg","pricing_plan_id":"cebpf4jnsgd1na2vs0mg"},{"bike_id":"d2c1304d-c6de-4e19-a363-2c0c4bdd9fb1","system_id":"levelo_inurba_marseille","lat":43.24644,"lon":5.38924,"is_reserved":false,"is_disabled":false,"rental_uris":{"android":"levelo://app?vid=d2c1304d-c6de-4e19-a363-2c0c4bdd9fb1","ios":"levelo://app?vid=d2c1304d-c6de-4e19-a363-2c0c4bdd9fb1"},"vehicle_type_id":"4","last_reported":1741964971,"current_range_meters":8000,"station_id":"ce4bhg12rcd13ifvqf60","pricing_plan_id":"cebpf4jnsgd1na2vs0mg"},{"bike_id":"089fd0c2-e3cb-4833-91fc-ba7d50c7aabf","system_id":"levelo_inurba_marseille","lat":43.28675,"lon":5.38667,"is_reserved":false,"is_disabled":false,"rental_uris":{"android":"levelo://app?vid=089fd0c2-e3cb-4833-91fc-ba7d50c7aabf","ios":"levelo://app?vid=089fd0c2-e3cb-4833-91fc-ba7d50c7aabf"},"vehicle_type_id":"4","last_reported":1741964971,"current_range_meters":8400,"station_id":"ce4bh492rcd13ifvqdug","pricing_plan_id":"cebpf4jnsgd1na2vs0mg"},{"bike_id":"e48b5189-9d09-49fd-bc00-62268902f308","system_id":"levelo_inurba_marseille","lat":43.25009,"lon":5.38925,"is_reserved":false,"is_disabled":true,"rental_uris":{"android":"levelo://app?vid=e48b5189-9d09-49fd-bc00-62268902f308","ios":"levelo://app?vid=e48b5189-9d09-49fd-bc00-62268902f308"},"vehicle_type_id":"4","last_reported":1741964971,"current_range_meters":8400,"station_id":"ce4bhgp2rcd13ifvqfd0","pricing_plan_id":"cebpf4jnsgd1na2vs0mg"},{"bike_id":"fcf60bfc-7f3f-44de-812a-9ecfc93cd966","system_id":"levelo_inurba_marseille","lat":43.27439,"lon":5.39411,"is_reserved":false,"is_disabled":false,"rental_uris":{"android":"levelo://app?vid=fcf60bfc-7f3f-44de-812a-9ecfc93cd966","ios":"levelo://app?vid=fcf60bfc-7f3f-44de-812a-9ecfc93cd966"},"vehicle_type_id":"4","last_reported":1741964971,"current_range_meters":8400,"station_id":"ce4bhdp2rcd13ifvqf20","pricing_plan_id":"cebpf4jnsgd1na2vs0mg"},{"bike_id":"6cec560f-8635-4801-8462-637e6f2c72c5","system_id":"levelo_inurba_marseille","lat":43.23198,"lon":5.35549,"is_reserved":false,"is_disabled":false,"rental_uris":{"android":"levelo://app?vid=6cec560f-8635-4801-8462-637e6f2c72c5","ios":"levelo://app?vid=6cec560f-8635-4801-8462-637e6f2c72c5"},"vehicle_type_id":"4","last_reported":1741964971,"current_range_meters":8400,"station_id":"ce4bhu92rcd13ifvqi70","pricing_plan_id":"cebpf4jnsgd1na2vs0mg"},{"bike_id":"5b16d8da-96c7-421d-acd1-307a64238af3","system_id":"levelo_inurba_marseille","lat":43.3013,"lon":5.39859,"is_reserved":false,"is_disabled":false,"rental_uris":{"android":"levelo://app?vid=5b16d8da-96c7-421d-acd1-307a64238af3","ios":"levelo://app?vid=5b16d8da-96c7-421d-acd1-307a64238af3"},"vehicle_type_id":"4","last_reported":1741964971,"current_range_meters":8400,"station_id":"ce4bh0h2rcd13ifvqd40","pricing_plan_id":"cebpf4jnsgd1na2vs0mg"},{"bike_id":"01e25889-3bfd-4c2b-b309-d66c58f42e18","system_id":"levelo_inurba_marseille","lat":43.31689,"lon":5.40479,"is_reserved":false,"is_disabled":false,"rental_uris":{"android":"levelo://app?vid=01e25889-3bfd-4c2b-b309-d66c58f42e18","ios":"levelo://app?vid=01e25889-3bfd-4c2b-b309-d66c58f42e18"},"vehicle_type_id":"4","last_reported":1741964971,"current_range_meters":8400,"station_id":"ce4bh012rcd13ifvqd00","pricing_plan_id":"cebpf4jnsgd1na2vs0mg"},{"bike_id":"6944bb06-8a8c-4cf4-86a1-ca9561cf4ee4","system_id":"levelo_inurba_marseille","lat":43.23058,"lon":5.35496,"is_reserved":false,"is_disabled":false,"rental_uris":{"android":"levelo://app?vid=6944bb06-8a8c-4cf4-86a1-ca9561cf4ee4","ios":"levelo://app?vid=6944bb06-8a8c-4cf4-86a1-ca9561cf4ee4"},"vehicle_type_id":"4","last_reported":1741964971,"current_range_meters":8400,"station_id":"cpo3342slgdg3j2ifvpg","pricing_plan_id":"cebpf4jnsgd1na2vs0mg"},{"bike_id":"b88b244a-1dbc-4f6b-94dd-514dee297746","system_id":"levelo_inurba_marseille","lat":43.29857,"lon":5.36283,"is_reserved":false,"is_disabled":false,"rental_uris":{"android":"levelo://app?vid=b88b244a-1dbc-4f6b-94dd-514dee297746","ios":"levelo://app?vid=b88b244a-1dbc-4f6b-94dd-514dee297746"},"vehicle_type_id":"4","last_reported":1741964971,"current_range_meters":8400,"station_id":"ce4bgpp2rcd13ifvqc3g","pricing_plan_id":"cebpf4jnsgd1na2vs0mg"},{"bike_id":"36ec5a15-215b-4367-a3ca-336aadd9a251","system_id":"levelo_inurba_marseille","lat":43.33746,"lon":5.3745,"is_reserved":false,"is_disabled":false,"rental_uris":{"android":"levelo://app?vid=36ec5a15-215b-4367-a3ca-336aadd9a251","ios":"levelo://app?vid=36ec5a15-215b-4367-a3ca-336aadd9a251"},"vehicle_type_id":"4","last_reported":1741964971,"current_range_meters":8400,"station_id":"","pricing_plan_id":"cebpf4jnsgd1na2vs0mg"},{"bike_id":"436bf6fd-98f0-4c70-968c-7fcac8f398a5","system_id":"levelo_inurba_marseille","lat":43.25095,"lon":5.41071,"is_reserved":false,"is_disabled":false,"rental_uris":{"android":"levelo://app?vid=436bf6fd-98f0-4c70-968c-7fcac8f398a5","ios":"levelo://app?vid=436bf6fd-98f0-4c70-968c-7fcac8f398a5"},"vehicle_type_id":"4","last_reported":1741964971,"current_range_meters":8800,"station_id":"","pricing_plan_id":"cebpf4jnsgd1na2vs0mg"},{"bike_id":"c9bd92af-ffb5-4eb1-a755-cb523ab505a3","system_id":"levelo_inurba_marseille","lat":43.29852,"lon":5.36285,"is_reserved":false,"is_disabled":false,"rental_uris":{"android":"levelo://app?vid=c9bd92af-ffb5-4eb1-a755-cb523ab505a3","ios":"levelo://app?vid=c9bd92af-ffb5-4eb1-a755-cb523ab505a3"},"vehicle_type_id":"4","last_reported":1741964971,"current_range_meters":8800,"station_id":"ce4bgpp2rcd13ifvqc3g","pricing_plan_id":"cebpf4jnsgd1na2vs0mg"},{"bike_id":"7121d818-13e2-43ed-b445-7134fefdd64f","system_id":"levelo_inurba_marseille","lat":43.23198,"lon":5.35542,"is_reserved":false,"is_disabled":false,"rental_uris":{"android":"levelo://app?vid=7121d818-13e2-43ed-b445-7134fefdd64f","ios":"levelo://app?vid=7121d818-13e2-43ed-b445-7134fefdd64f"},"vehicle_type_id":"4","last_reported":1741964971,"current_range_meters":8800,"station_id":"ce4bhu92rcd13ifvqi70","pricing_plan_id":"cebpf4jnsgd1na2vs0mg"},{"bike_id":"05b19951-05c7-4551-b80d-21c23f5b8eea","system_id":"levelo_inurba_marseille","lat":43.2991,"lon":5.38137,"is_reserved":false,"is_disabled":false,"rental_uris":{"android":"levelo://app?vid=05b19951-05c7-4551-b80d-21c23f5b8eea","ios":"levelo://app?vid=05b19951-05c7-4551-b80d-21c23f5b8eea"},"vehicle_type_id":"4","last_reported":1741964971,"current_range_meters":8800,"station_id":"ce4bgj12rcd13ifvqbc0","pricing_plan_id":"cebpf4jnsgd1na2vs0mg"},{"bike_id":"38f1a354-f3c8-4968-be9f-a898a7ff7f6b","system_id":"levelo_inurba_marseille","lat":43.29207,"lon":5.35805,"is_reserved":false,"is_disabled":false,"rental_uris":{"android":"levelo://app?vid=38f1a354-f3c8-4968-be9f-a898a7ff7f6b","ios":"levelo://app?vid=38f1a354-f3c8-4968-be9f-a898a7ff7f6b"},"vehicle_type_id":"4","last_reported":1741964971,"current_range_meters":8800,"station_id":"ce4bhb12rcd13ifvqel0","pricing_plan_id":"cebpf4jnsgd1na2vs0mg"},{"bike_id":"703a27ab-78c1-4da2-9977-9c24f54834c8","system_id":"levelo_inurba_marseille","lat":43.32481,"lon":5.36581,"is_reserved":false,"is_disabled":false,"rental_uris":{"android":"levelo://app?vid=703a27ab-78c1-4da2-9977-9c24f54834c8","ios":"levelo://app?vid=703a27ab-78c1-4da2-9977-9c24f54834c8"},"vehicle_type_id":"4","last_reported":1741964971,"current_range_meters":8800,"station_id":"ce4bhs12rcd13ifvqhvg","pricing_plan_id":"cebpf4jnsgd1na2vs0mg"},{"bike_id":"de27148c-9139-4b87-b73a-06e43af57146","system_id":"levelo_inurba_marseille","lat":43.30909,"lon":5.36866,"is_reserved":false,"is_disabled":false,"rental_uris":{"android":"levelo://app?vid=de27148c-9139-4b87-b73a-06e43af57146","ios":"levelo://app?vid=de27148c-9139-4b87-b73a-06e43af57146"},"vehicle_type_id":"4","last_reported":1741964971,"current_range_meters":8800,"station_id":"ce4bgn92rcd13ifvqbvg","pricing_plan_id":"cebpf4jnsgd1na2vs0mg"},{"bike_id":"b634fcd7-4303-4fed-a2f8-fcd04ed2a4dd","system_id":"levelo_inurba_marseille","lat":43.23061,"lon":5.35509,"is_reserved":false,"is_disabled":false,"rental_uris":{"android":"levelo://app?vid=b634fcd7-4303-4fed-a2f8-fcd04ed2a4dd","ios":"levelo://app?vid=b634fcd7-4303-4fed-a2f8-fcd04ed2a4dd"},"vehicle_type_id":"4","last_reported":1741964971,"current_range_meters":8800,"station_id":"cpo3342slgdg3j2ifvpg","pricing_plan_id":"cebpf4jnsgd1na2vs0mg"},{"bike_id":"3363e5ed-aafd-4c83-9f97-12270e6ffcf4","system_id":"levelo_inurba_marseille","lat":43.24866,"lon":5.40649,"is_reserved":false,"is_disabled":false,"rental_uris":{"android":"levelo://app?vid=3363e5ed-aafd-4c83-9f97-12270e6ffcf4","ios":"levelo://app?vid=3363e5ed-aafd-4c83-9f97-12270e6ffcf4"},"vehicle_type_id":"4","last_reported":1741964971,"current_range_meters":8800,"station_id":"","pricing_plan_id":"cebpf4jnsgd1na2vs0mg"},{"bike_id":"22eef8e9-28d0-4055-9740-16ced5bd43fc","system_id":"levelo_inurba_marseille","lat":43.246709,"lon":5.381722,"is_reserved":false,"is_disabled":false,"rental_uris":{"android":"levelo://app?vid=22eef8e9-28d0-4055-9740-16ced5bd43fc","ios":"levelo://app?vid=22eef8e9-28d0-4055-9740-16ced5bd43fc"},"vehicle_type_id":"4","last_reported":1741964971,"current_range_meters":8800,"station_id":"ce4bhih2rcd13ifvqfr0","pricing_plan_id":"cebpf4jnsgd1na2vs0mg"},{"bike_id":"f31f319a-968c-4ed2-a017-589a4960b2a3","system_id":"levelo_inurba_marseille","lat":43.28367,"lon":5.38634,"is_reserved":false,"is_disabled":false,"rental_uris":{"android":"levelo://app?vid=f31f319a-968c-4ed2-a017-589a4960b2a3","ios":"levelo://app?vid=f31f319a-968c-4ed2-a017-589a4960b2a3"},"vehicle_type_id":"4","last_reported":1741964971,"current_range_meters":9200,"station_id":"ce4bh492rcd13ifvqdvg","pricing_plan_id":"cebpf4jnsgd1na2vs0mg"},{"bike_id":"48f968e9-2670-450c-9a50-b12a7ac1907f","system_id":"levelo_inurba_marseille","lat":43.25725,"lon":5.41118,"is_reserved":false,"is_disabled":false,"rental_uris":{"android":"levelo://app?vid=48f968e9-2670-450c-9a50-b12a7ac1907f","ios":"levelo://app?vid=48f968e9-2670-450c-9a50-b12a7ac1907f"},"vehicle_type_id":"4","last_reported":1741964971,"current_range_meters":9200,"station_id":"ce4bhkp2rcd13ifvqgd0","pricing_plan_id":"cebpf4jnsgd1na2vs0mg"},{"bike_id":"2505a81e-c9a9-4720-9f61-760fdaddd3be","system_id":"levelo_inurba_marseille","lat":43.24663,"lon":5.38167,"is_reserved":false,"is_disabled":false,"rental_uris":{"android":"levelo://app?vid=2505a81e-c9a9-4720-9f61-760fdaddd3be","ios":"levelo://app?vid=2505a81e-c9a9-4720-9f61-760fdaddd3be"},"vehicle_type_id":"4","last_reported":1741964971,"current_range_meters":9200,"station_id":"ce4bhih2rcd13ifvqfr0","pricing_plan_id":"cebpf4jnsgd1na2vs0mg"},{"bike_id":"6d69bcb3-9f1f-47de-bcf3-40d0e4d7bc71","system_id":"levelo_inurba_marseille","lat":43.27819,"lon":5.40707,"is_reserved":false,"is_disabled":false,"rental_uris":{"android":"levelo://app?vid=6d69bcb3-9f1f-47de-bcf3-40d0e4d7bc71","ios":"levelo://app?vid=6d69bcb3-9f1f-47de-bcf3-40d0e4d7bc71"},"vehicle_type_id":"4","last_reported":1741964971,"current_range_meters":9200,"station_id":"ce4bhnh2rcd13ifvqgtg","pricing_plan_id":"cebpf4jnsgd1na2vs0mg"},{"bike_id":"c11b1d6c-4bf5-4eaa-bca4-e93fc42cb77c","system_id":"levelo_inurba_marseille","lat":43.29202,"lon":5.35802,"is_reserved":false,"is_disabled":false,"rental_uris":{"android":"levelo://app?vid=c11b1d6c-4bf5-4eaa-bca4-e93fc42cb77c","ios":"levelo://app?vid=c11b1d6c-4bf5-4eaa-bca4-e93fc42cb77c"},"vehicle_type_id":"4","last_reported":1741964971,"current_range_meters":9200,"station_id":"ce4bhb12rcd13ifvqel0","pricing_plan_id":"cebpf4jnsgd1na2vs0mg"},{"bike_id":"594a33ea-5c85-49b0-893b-48b1f5e1011a","system_id":"levelo_inurba_marseille","lat":43.30935,"lon":5.40165,"is_reserved":false,"is_disabled":true,"rental_uris":{"android":"levelo://app?vid=594a33ea-5c85-49b0-893b-48b1f5e1011a","ios":"levelo://app?vid=594a33ea-5c85-49b0-893b-48b1f5e1011a"},"vehicle_type_id":"4","last_reported":1741964971,"current_range_meters":9200,"station_id":"ce4bgvp2rcd13ifvqct0","pricing_plan_id":"cebpf4jnsgd1na2vs0mg"},{"bike_id":"e3c88671-f2ba-4638-b6f4-aacaca026dd2","system_id":"levelo_inurba_marseille","lat":43.3266,"lon":5.40994,"is_reserved":false,"is_disabled":false,"rental_uris":{"android":"levelo://app?vid=e3c88671-f2ba-4638-b6f4-aacaca026dd2","ios":"levelo://app?vid=e3c88671-f2ba-4638-b6f4-aacaca026dd2"},"vehicle_type_id":"4","last_reported":1741964971,"current_range_meters":9600,"station_id":"ce4bhpp2rcd13ifvqhgg","pricing_plan_id":"cebpf4jnsgd1na2vs0mg"},{"bike_id":"91b12a37-f477-4c10-ad1a-c6fc1ad2db69","system_id":"levelo_inurba_marseille","lat":43.27959,"lon":5.42489,"is_reserved":false,"is_disabled":false,"rental_uris":{"android":"levelo://app?vid=91b12a37-f477-4c10-ad1a-c6fc1ad2db69","ios":"levelo://app?vid=91b12a37-f477-4c10-ad1a-c6fc1ad2db69"},"vehicle_type_id":"4","last_reported":1741964971,"current_range_meters":9600,"station_id":"","pricing_plan_id":"cebpf4jnsgd1na2vs0mg"},{"bike_id":"d4802dd8-6315-4aea-8d07-1183e2e2cf95","system_id":"levelo_inurba_marseille","lat":43.28483,"lon":5.38577,"is_reserved":false,"is_disabled":false,"rental_uris":{"android":"levelo://app?vid=d4802dd8-6315-4aea-8d07-1183e2e2cf95","ios":"levelo://app?vid=d4802dd8-6315-4aea-8d07-1183e2e2cf95"},"vehicle_type_id":"4","last_reported":1741964971,"current_range_meters":9600,"station_id":"ce4bh8p2rcd13ifvqeb0","pricing_plan_id":"cebpf4jnsgd1na2vs0mg"},{"bike_id":"ba9cc7f5-dd49-47bb-91bd-a50b83b5e6eb","system_id":"levelo_inurba_marseille","lat":43.30877,"lon":5.39643,"is_reserved":false,"is_disabled":false,"rental_uris":{"android":"levelo://app?vid=ba9cc7f5-dd49-47bb-91bd-a50b83b5e6eb","ios":"levelo://app?vid=ba9cc7f5-dd49-47bb-91bd-a50b83b5e6eb"},"vehicle_type_id":"4","last_reported":1741964971,"current_range_meters":9600,"station_id":"ce4bh012rcd13ifvqcv0","pricing_plan_id":"cebpf4jnsgd1na2vs0mg"},{"bike_id":"0bf512a5-cbb2-43e3-828f-6e3069062b11","system_id":"levelo_inurba_marseille","lat":43.30156,"lon":5.37404,"is_reserved":false,"is_disabled":false,"rental_uris":{"android":"levelo://app?vid=0bf512a5-cbb2-43e3-828f-6e3069062b11","ios":"levelo://app?vid=0bf512a5-cbb2-43e3-828f-6e3069062b11"},"vehicle_type_id":"4","last_reported":1741964971,"current_range_meters":9600,"station_id":"ce4bgs92rcd13ifvqcc0","pricing_plan_id":"cebpf4jnsgd1na2vs0mg"},{"bike_id":"52d68e86-6c62-45d0-985d-9b756c149940","system_id":"levelo_inurba_marseille","lat":43.28945,"lon":5.36402,"is_reserved":false,"is_disabled":false,"rental_uris":{"android":"levelo://app?vid=52d68e86-6c62-45d0-985d-9b756c149940","ios":"levelo://app?vid=52d68e86-6c62-45d0-985d-9b756c149940"},"vehicle_type_id":"4","last_reported":1741964971,"current_range_meters":10000,"station_id":"ce4bhc92rcd13ifvqetg","pricing_plan_id":"cebpf4jnsgd1na2vs0mg"},{"bike_id":"4199ce46-adf7-4c71-9619-4b35f8fcb808","system_id":"levelo_inurba_marseille","lat":43.31172,"lon":5.38738,"is_reserved":false,"is_disabled":false,"rental_uris":{"android":"levelo://app?vid=4199ce46-adf7-4c71-9619-4b35f8fcb808","ios":"levelo://app?vid=4199ce46-adf7-4c71-9619-4b35f8fcb808"},"vehicle_type_id":"4","last_reported":1741964971,"current_range_meters":10000,"station_id":"ce4bgv12rcd13ifvqcp0","pricing_plan_id":"cebpf4jnsgd1na2vs0mg"},{"bike_id":"e6710280-bd86-46cd-80e3-b715c7f5659b","system_id":"levelo_inurba_marseille","lat":43.24406,"lon":5.37085,"is_reserved":false,"is_disabled":false,"rental_uris":{"android":"levelo://app?vid=e6710280-bd86-46cd-80e3-b715c7f5659b","ios":"levelo://app?vid=e6710280-bd86-46cd-80e3-b715c7f5659b"},"vehicle_type_id":"4","last_reported":1741964971,"current_range_meters":10000,"station_id":"ce4bhhh2rcd13ifvqfk0","pricing_plan_id":"cebpf4jnsgd1na2vs0mg"},{"bike_id":"2ec0f046-4e68-4150-a618-5c892d6b2cb5","system_id":"levelo_inurba_marseille","lat":43.26233,"lon":5.4046,"is_reserved":false,"is_disabled":false,"rental_uris":{"android":"levelo://app?vid=2ec0f046-4e68-4150-a618-5c892d6b2cb5","ios":"levelo://app?vid=2ec0f046-4e68-4150-a618-5c892d6b2cb5"},"vehicle_type_id":"4","last_reported":1741964971,"current_range_meters":10000,"station_id":"ce4bhmh2rcd13ifvqgmg","pricing_plan_id":"cebpf4jnsgd1na2vs0mg"},{"bike_id":"a11f0d64-d0dc-44ca-a3d0-8a6abc001819","system_id":"levelo_inurba_marseille","lat":43.27201,"lon":5.39197,"is_reserved":false,"is_disabled":false,"rental_uris":{"android":"levelo://app?vid=a11f0d64-d0dc-44ca-a3d0-8a6abc001819","ios":"levelo://app?vid=a11f0d64-d0dc-44ca-a3d0-8a6abc001819"},"vehicle_type_id":"4","last_reported":1741964971,"current_range_meters":10800,"station_id":"ce4bhhp2rcd13ifvqfm0","pricing_plan_id":"cebpf4jnsgd1na2vs0mg"},{"bike_id":"c00de636-fb2c-49b9-8c19-0ce088140454","system_id":"levelo_inurba_marseille","lat":43.25937,"lon":5.4091,"is_reserved":false,"is_disabled":false,"rental_uris":{"android":"levelo://app?vid=c00de636-fb2c-49b9-8c19-0ce088140454","ios":"levelo://app?vid=c00de636-fb2c-49b9-8c19-0ce088140454"},"vehicle_type_id":"4","last_reported":1741964971,"current_range_meters":10800,"station_id":"ce4bhm92rcd13ifvqglg","pricing_plan_id":"cebpf4jnsgd1na2vs0mg"},{"bike_id":"dc2dc920-7061-4611-9ad3-02d4898aaa15","system_id":"levelo_inurba_marseille","lat":43.23186,"lon":5.39979,"is_reserved":false,"is_disabled":false,"rental_uris":{"android":"levelo://app?vid=dc2dc920-7061-4611-9ad3-02d4898aaa15","ios":"levelo://app?vid=dc2dc920-7061-4611-9ad3-02d4898aaa15"},"vehicle_type_id":"4","last_reported":1741964971,"current_range_meters":10800,"station_id":"ce4bhn12rcd13ifvqgqg","pricing_plan_id":"cebpf4jnsgd1na2vs0mg"},{"bike_id":"48f3a40e-658c-443b-8908-cf181e5627b0","system_id":"levelo_inurba_marseille","lat":43.30177,"lon":5.37431,"is_reserved":false,"is_disabled":false,"rental_uris":{"android":"levelo://app?vid=48f3a40e-658c-443b-8908-cf181e5627b0","ios":"levelo://app?vid=48f3a40e-658c-443b-8908-cf181e5627b0"},"vehicle_type_id":"4","last_reported":1741964971,"current_range_meters":10800,"station_id":"ce4bgs92rcd13ifvqcc0","pricing_plan_id":"cebpf4jnsgd1na2vs0mg"},{"bike_id":"92a4b2de-1a40-47de-8941-8583c8b587d4","system_id":"levelo_inurba_marseille","lat":43.27665,"lon":5.38916,"is_reserved":false,"is_disabled":true,"rental_uris":{"android":"levelo://app?vid=92a4b2de-1a40-47de-8941-8583c8b587d4","ios":"levelo://app?vid=92a4b2de-1a40-47de-8941-8583c8b587d4"},"vehicle_type_id":"4","last_reported":1741964971,"current_range_meters":10800,"station_id":"ce4bhi12rcd13ifvqfo0","pricing_plan_id":"cebpf4jnsgd1na2vs0mg"},{"bike_id":"9d2d752e-416c-49e5-a687-1caacbda7dcb","system_id":"levelo_inurba_marseille","lat":43.281,"lon":5.39667,"is_reserved":false,"is_disabled":true,"rental_uris":{"android":"levelo://app?vid=9d2d752e-416c-49e5-a687-1caacbda7dcb","ios":"levelo://app?vid=9d2d752e-416c-49e5-a687-1caacbda7dcb"},"vehicle_type_id":"4","last_reported":1741964971,"current_range_meters":10800,"station_id":"ce4bho12rcd13ifvqh2g","pricing_plan_id":"cebpf4jnsgd1na2vs0mg"},{"bike_id":"accb5d03-5b4c-4725-aab6-b7db83936d09","system_id":"levelo_inurba_marseille","lat":43.28564,"lon":5.39492,"is_reserved":false,"is_disabled":false,"rental_uris":{"android":"levelo://app?vid=accb5d03-5b4c-4725-aab6-b7db83936d09","ios":"levelo://app?vid=accb5d03-5b4c-4725-aab6-b7db83936d09"},"vehicle_type_id":"4","last_reported":1741964971,"current_range_meters":11200,"station_id":"ce4bh292rcd13ifvqdg0","pricing_plan_id":"cebpf4jnsgd1na2vs0mg"},{"bike_id":"59822710-2d10-4517-868b-42cfab329759","system_id":"levelo_inurba_marseille","lat":43.231941,"lon":5.355561,"is_reserved":false,"is_disabled":false,"rental_uris":{"android":"levelo://app?vid=59822710-2d10-4517-868b-42cfab329759","ios":"levelo://app?vid=59822710-2d10-4517-868b-42cfab329759"},"vehicle_type_id":"4","last_reported":1741964971,"current_range_meters":11200,"station_id":"ce4bhu92rcd13ifvqi70","pricing_plan_id":"cebpf4jnsgd1na2vs0mg"},{"bike_id":"f8fc6d5f-bfb4-4482-b5c5-d55d5539e732","system_id":"levelo_inurba_marseille","lat":43.28611,"lon":5.37067,"is_reserved":false,"is_disabled":false,"rental_uris":{"android":"levelo://app?vid=f8fc6d5f-bfb4-4482-b5c5-d55d5539e732","ios":"levelo://app?vid=f8fc6d5f-bfb4-4482-b5c5-d55d5539e732"},"vehicle_type_id":"4","last_reported":1741964971,"current_range_meters":11200,"station_id":"ce4bht12rcd13ifvqi60","pricing_plan_id":"cebpf4jnsgd1na2vs0mg"},{"bike_id":"8dc42479-6992-4b99-b468-59290103b348","system_id":"levelo_inurba_marseille","lat":43.28852,"lon":5.39308,"is_reserved":false,"is_disabled":false,"rental_uris":{"android":"levelo://app?vid=8dc42479-6992-4b99-b468-59290103b348","ios":"levelo://app?vid=8dc42479-6992-4b99-b468-59290103b348"},"vehicle_type_id":"4","last_reported":1741964971,"current_range_meters":11200,"station_id":"ce4bh2p2rcd13ifvqdi0","pricing_plan_id":"cebpf4jnsgd1na2vs0mg"},{"bike_id":"bd7fb638-a561-41df-90ca-f32685780427","system_id":"levelo_inurba_marseille","lat":43.229236,"lon":5.353769,"is_reserved":false,"is_disabled":false,"rental_uris":{"android":"levelo://app?vid=bd7fb638-a561-41df-90ca-f32685780427","ios":"levelo://app?vid=bd7fb638-a561-41df-90ca-f32685780427"},"vehicle_type_id":"4","last_reported":1741964971,"current_range_meters":11200,"station_id":"cpo3532slgdg3j2ikp40","pricing_plan_id":"cebpf4jnsgd1na2vs0mg"},{"bike_id":"92bfcc8d-041c-467c-bfbe-19b4007c22c4","system_id":"levelo_inurba_marseille","lat":43.3013,"lon":5.37422,"is_reserved":false,"is_disabled":false,"rental_uris":{"android":"levelo://app?vid=92bfcc8d-041c-467c-bfbe-19b4007c22c4","ios":"levelo://app?vid=92bfcc8d-041c-467c-bfbe-19b4007c22c4"},"vehicle_type_id":"4","last_reported":1741964971,"current_range_meters":11200,"station_id":"ce4bgs92rcd13ifvqcc0","pricing_plan_id":"cebpf4jnsgd1na2vs0mg"},{"bike_id":"97a33746-5370-4d96-9a94-9c9d4ba754f2","system_id":"levelo_inurba_marseille","lat":43.32273,"lon":5.38292,"is_reserved":false,"is_disabled":false,"rental_uris":{"android":"levelo://app?vid=97a33746-5370-4d96-9a94-9c9d4ba754f2","ios":"levelo://app?vid=97a33746-5370-4d96-9a94-9c9d4ba754f2"},"vehicle_type_id":"4","last_reported":1741964971,"current_range_meters":11600,"station_id":"ce4bhr12rcd13ifvqhqg","pricing_plan_id":"cebpf4jnsgd1na2vs0mg"},{"bike_id":"b27f1eab-ba5c-42e6-a66f-00d9e67d5178","system_id":"levelo_inurba_marseille","lat":43.30273,"lon":5.37718,"is_reserved":false,"is_disabled":false,"rental_uris":{"android":"levelo://app?vid=b27f1eab-ba5c-42e6-a66f-00d9e67d5178","ios":"levelo://app?vid=b27f1eab-ba5c-42e6-a66f-00d9e67d5178"},"vehicle_type_id":"4","last_reported":1741964971,"current_range_meters":11600,"station_id":"ce4bguh2rcd13ifvqcj0","pricing_plan_id":"cebpf4jnsgd1na2vs0mg"},{"bike_id":"ac9829db-5826-4bcf-b26b-4776553d00ba","system_id":"levelo_inurba_marseille","lat":43.31703,"lon":5.40449,"is_reserved":false,"is_disabled":false,"rental_uris":{"android":"levelo://app?vid=ac9829db-5826-4bcf-b26b-4776553d00ba","ios":"levelo://app?vid=ac9829db-5826-4bcf-b26b-4776553d00ba"},"vehicle_type_id":"4","last_reported":1741964971,"current_range_meters":11600,"station_id":"ce4bh012rcd13ifvqd00","pricing_plan_id":"cebpf4jnsgd1na2vs0mg"},{"bike_id":"52c9a29f-71a6-47ca-b4ee-1301cb338e0c","system_id":"levelo_inurba_marseille","lat":43.30545,"lon":5.36523,"is_reserved":false,"is_disabled":false,"rental_uris":{"android":"levelo://app?vid=52c9a29f-71a6-47ca-b4ee-1301cb338e0c","ios":"levelo://app?vid=52c9a29f-71a6-47ca-b4ee-1301cb338e0c"},"vehicle_type_id":"4","last_reported":1741964971,"current_range_meters":11600,"station_id":"ce4bgs12rcd13ifvqcag","pricing_plan_id":"cebpf4jnsgd1na2vs0mg"},{"bike_id":"f31c7e9f-4848-4e4a-88d2-c26dfa0a32c6","system_id":"levelo_inurba_marseille","lat":43.29267,"lon":5.3742,"is_reserved":false,"is_disabled":false,"rental_uris":{"android":"levelo://app?vid=f31c7e9f-4848-4e4a-88d2-c26dfa0a32c6","ios":"levelo://app?vid=f31c7e9f-4848-4e4a-88d2-c26dfa0a32c6"},"vehicle_type_id":"4","last_reported":1741964971,"current_range_meters":12000,"station_id":"ce4bgi12rcd13ifvqb70","pricing_plan_id":"cebpf4jnsgd1na2vs0mg"},{"bike_id":"51b71709-66e2-4c83-8ce6-a5ca4256e6ff","system_id":"levelo_inurba_marseille","lat":43.23144,"lon":5.43718,"is_reserved":false,"is_disabled":false,"rental_uris":{"android":"levelo://app?vid=51b71709-66e2-4c83-8ce6-a5ca4256e6ff","ios":"levelo://app?vid=51b71709-66e2-4c83-8ce6-a5ca4256e6ff"},"vehicle_type_id":"4","last_reported":1741964971,"current_range_meters":12000,"station_id":"ce4bhmp2rcd13ifvqgog","pricing_plan_id":"cebpf4jnsgd1na2vs0mg"},{"bike_id":"b4efbd95-9524-4841-87eb-50f5727e7b72","system_id":"levelo_inurba_marseille","lat":43.30882,"lon":5.39642,"is_reserved":false,"is_disabled":false,"rental_uris":{"android":"levelo://app?vid=b4efbd95-9524-4841-87eb-50f5727e7b72","ios":"levelo://app?vid=b4efbd95-9524-4841-87eb-50f5727e7b72"},"vehicle_type_id":"4","last_reported":1741964971,"current_range_meters":12000,"station_id":"ce4bh012rcd13ifvqcv0","pricing_plan_id":"cebpf4jnsgd1na2vs0mg"},{"bike_id":"cb256735-523d-45d3-9c1c-b9c7b6320183","system_id":"levelo_inurba_marseille","lat":43.31576,"lon":5.40395,"is_reserved":false,"is_disabled":false,"rental_uris":{"android":"levelo://app?vid=cb256735-523d-45d3-9c1c-b9c7b6320183","ios":"levelo://app?vid=cb256735-523d-45d3-9c1c-b9c7b6320183"},"vehicle_type_id":"4","last_reported":1741964971,"current_range_meters":12000,"station_id":"","pricing_plan_id":"cebpf4jnsgd1na2vs0mg"},{"bike_id":"bafc54a5-4047-4ec9-ac2e-c8f05d0f4a2c","system_id":"levelo_inurba_marseille","lat":43.29957,"lon":5.41322,"is_reserved":false,"is_disabled":false,"rental_uris":{"android":"levelo://app?vid=bafc54a5-4047-4ec9-ac2e-c8f05d0f4a2c","ios":"levelo://app?vid=bafc54a5-4047-4ec9-ac2e-c8f05d0f4a2c"},"vehicle_type_id":"4","last_reported":1741964971,"current_range_meters":12000,"station_id":"ce4bhp12rcd13ifvqh9g","pricing_plan_id":"cebpf4jnsgd1na2vs0mg"},{"bike_id":"a1fbfbd8-f4b8-485d-9eb8-0c711df84f78","system_id":"levelo_inurba_marseille","lat":43.2981,"lon":5.36204,"is_reserved":false,"is_disabled":false,"rental_uris":{"android":"levelo://app?vid=a1fbfbd8-f4b8-485d-9eb8-0c711df84f78","ios":"levelo://app?vid=a1fbfbd8-f4b8-485d-9eb8-0c711df84f78"},"vehicle_type_id":"4","last_reported":1741964971,"current_range_meters":12000,"station_id":"ce4bgpp2rcd13ifvqc3g","pricing_plan_id":"cebpf4jnsgd1na2vs0mg"},{"bike_id":"49ff3ec6-a81d-4e13-a4b1-44ea045859b2","system_id":"levelo_inurba_marseille","lat":43.26218,"lon":5.37437,"is_reserved":false,"is_disabled":false,"rental_uris":{"android":"levelo://app?vid=49ff3ec6-a81d-4e13-a4b1-44ea045859b2","ios":"levelo://app?vid=49ff3ec6-a81d-4e13-a4b1-44ea045859b2"},"vehicle_type_id":"4","last_reported":1741964971,"current_range_meters":12000,"station_id":"ce4bhgp2rcd13ifvqfc0","pricing_plan_id":"cebpf4jnsgd1na2vs0mg"},{"bike_id":"7fcb76a1-b09e-48bd-8665-d4ae109a8483","system_id":"levelo_inurba_marseille","lat":43.24653,"lon":5.38172,"is_reserved":false,"is_disabled":false,"rental_uris":{"android":"levelo://app?vid=7fcb76a1-b09e-48bd-8665-d4ae109a8483","ios":"levelo://app?vid=7fcb76a1-b09e-48bd-8665-d4ae109a8483"},"vehicle_type_id":"4","last_reported":1741964971,"current_range_meters":12400,"station_id":"ce4bhih2rcd13ifvqfr0","pricing_plan_id":"cebpf4jnsgd1na2vs0mg"},{"bike_id":"8a5bd971-61c1-4475-933b-dffdb284dd01","system_id":"levelo_inurba_marseille","lat":43.25003,"lon":5.3892,"is_reserved":false,"is_disabled":false,"rental_uris":{"android":"levelo://app?vid=8a5bd971-61c1-4475-933b-dffdb284dd01","ios":"levelo://app?vid=8a5bd971-61c1-4475-933b-dffdb284dd01"},"vehicle_type_id":"4","last_reported":1741964971,"current_range_meters":12400,"station_id":"ce4bhgp2rcd13ifvqfd0","pricing_plan_id":"cebpf4jnsgd1na2vs0mg"},{"bike_id":"165c703f-a86f-4cf0-92d7-f7491d24af28","system_id":"levelo_inurba_marseille","lat":43.30134,"lon":5.43129,"is_reserved":false,"is_disabled":false,"rental_uris":{"android":"levelo://app?vid=165c703f-a86f-4cf0-92d7-f7491d24af28","ios":"levelo://app?vid=165c703f-a86f-4cf0-92d7-f7491d24af28"},"vehicle_type_id":"4","last_reported":1741964971,"current_range_meters":12400,"station_id":"","pricing_plan_id":"cebpf4jnsgd1na2vs0mg"},{"bike_id":"4044ff71-a862-4b39-b2cc-96e6b2cea5db","system_id":"levelo_inurba_marseille","lat":43.28495,"lon":5.38433,"is_reserved":false,"is_disabled":false,"rental_uris":{"android":"levelo://app?vid=4044ff71-a862-4b39-b2cc-96e6b2cea5db","ios":"levelo://app?vid=4044ff71-a862-4b39-b2cc-96e6b2cea5db"},"vehicle_type_id":"4","last_reported":1741964971,"current_range_meters":12400,"station_id":"ce4bh512rcd13ifvqe3g","pricing_plan_id":"cebpf4jnsgd1na2vs0mg"},{"bike_id":"08b2f5fe-3bef-421d-b540-455ace3a9075","system_id":"levelo_inurba_marseille","lat":43.301299,"lon":5.380753,"is_reserved":false,"is_disabled":false,"rental_uris":{"android":"levelo://app?vid=08b2f5fe-3bef-421d-b540-455ace3a9075","ios":"levelo://app?vid=08b2f5fe-3bef-421d-b540-455ace3a9075"},"vehicle_type_id":"4","last_reported":1741964971,"current_range_meters":12800,"station_id":"ce4bhn92rcd13ifvqgrg","pricing_plan_id":"cebpf4jnsgd1na2vs0mg"},{"bike_id":"328f9a9f-cbef-4dbb-b7c4-89c8019abc8f","system_id":"levelo_inurba_marseille","lat":43.25918,"lon":5.40891,"is_reserved":false,"is_disabled":false,"rental_uris":{"android":"levelo://app?vid=328f9a9f-cbef-4dbb-b7c4-89c8019abc8f","ios":"levelo://app?vid=328f9a9f-cbef-4dbb-b7c4-89c8019abc8f"},"vehicle_type_id":"4","last_reported":1741964971,"current_range_meters":12800,"station_id":"ce4bhm92rcd13ifvqglg","pricing_plan_id":"cebpf4jnsgd1na2vs0mg"},{"bike_id":"8e43fd70-66e1-4c23-a821-30a94fd5acc4","system_id":"levelo_inurba_marseille","lat":43.27906,"lon":5.38014,"is_reserved":false,"is_disabled":false,"rental_uris":{"android":"levelo://app?vid=8e43fd70-66e1-4c23-a821-30a94fd5acc4","ios":"levelo://app?vid=8e43fd70-66e1-4c23-a821-30a94fd5acc4"},"vehicle_type_id":"4","last_reported":1741964971,"current_range_meters":12800,"station_id":"ce4bhf92rcd13ifvqf50","pricing_plan_id":"cebpf4jnsgd1na2vs0mg"},{"bike_id":"441146ec-c2e7-45f1-b6bc-e65405bbf9fd","system_id":"levelo_inurba_marseille","lat":43.27619,"lon":5.36107,"is_reserved":false,"is_disabled":false,"rental_uris":{"android":"levelo://app?vid=441146ec-c2e7-45f1-b6bc-e65405bbf9fd","ios":"levelo://app?vid=441146ec-c2e7-45f1-b6bc-e65405bbf9fd"},"vehicle_type_id":"4","last_reported":1741964971,"current_range_meters":12800,"station_id":"ce4bgj92rcd13ifvqbe0","pricing_plan_id":"cebpf4jnsgd1na2vs0mg"},{"bike_id":"04f149c6-a120-4218-b435-a952d9eb67d0","system_id":"levelo_inurba_marseille","lat":43.24868,"lon":5.40643,"is_reserved":false,"is_disabled":false,"rental_uris":{"android":"levelo://app?vid=04f149c6-a120-4218-b435-a952d9eb67d0","ios":"levelo://app?vid=04f149c6-a120-4218-b435-a952d9eb67d0"},"vehicle_type_id":"4","last_reported":1741964971,"current_range_meters":12800,"station_id":"","pricing_plan_id":"cebpf4jnsgd1na2vs0mg"},{"bike_id":"e4a294d9-c5da-4708-8e77-cc23bb34c69e","system_id":"levelo_inurba_marseille","lat":43.30545,"lon":5.36531,"is_reserved":false,"is_disabled":false,"rental_uris":{"android":"levelo://app?vid=e4a294d9-c5da-4708-8e77-cc23bb34c69e","ios":"levelo://app?vid=e4a294d9-c5da-4708-8e77-cc23bb34c69e"},"vehicle_type_id":"4","last_reported":1741964971,"current_range_meters":12800,"station_id":"ce4bgs12rcd13ifvqcag","pricing_plan_id":"cebpf4jnsgd1na2vs0mg"},{"bike_id":"f2feb363-3982-4bb2-8c65-9ce15c8828a6","system_id":"levelo_inurba_marseille","lat":43.28699,"lon":5.39989,"is_reserved":false,"is_disabled":false,"rental_uris":{"android":"levelo://app?vid=f2feb363-3982-4bb2-8c65-9ce15c8828a6","ios":"levelo://app?vid=f2feb363-3982-4bb2-8c65-9ce15c8828a6"},"vehicle_type_id":"4","last_reported":1741964971,"current_range_meters":13600,"station_id":"ce4bho92rcd13ifvqh3g","pricing_plan_id":"cebpf4jnsgd1na2vs0mg"},{"bike_id":"fe869085-eb69-4a02-8dd5-214bc8bd8c5f","system_id":"levelo_inurba_marseille","lat":43.30529,"lon":5.36511,"is_reserved":false,"is_disabled":false,"rental_uris":{"android":"levelo://app?vid=fe869085-eb69-4a02-8dd5-214bc8bd8c5f","ios":"levelo://app?vid=fe869085-eb69-4a02-8dd5-214bc8bd8c5f"},"vehicle_type_id":"4","last_reported":1741964971,"current_range_meters":13600,"station_id":"","pricing_plan_id":"cebpf4jnsgd1na2vs0mg"},{"bike_id":"676e66c6-8e50-404c-b512-5f94c7d6a8fc","system_id":"levelo_inurba_marseille","lat":43.24156,"lon":5.36417,"is_reserved":false,"is_disabled":false,"rental_uris":{"android":"levelo://app?vid=676e66c6-8e50-404c-b512-5f94c7d6a8fc","ios":"levelo://app?vid=676e66c6-8e50-404c-b512-5f94c7d6a8fc"},"vehicle_type_id":"4","last_reported":1741964971,"current_range_meters":13600,"station_id":"cpo36qri1sfpv3e86is0","pricing_plan_id":"cebpf4jnsgd1na2vs0mg"},{"bike_id":"142cf1b3-ee1c-487c-bc1f-c2d0a95a5d4b","system_id":"levelo_inurba_marseille","lat":43.28153,"lon":5.42637,"is_reserved":false,"is_disabled":false,"rental_uris":{"android":"levelo://app?vid=142cf1b3-ee1c-487c-bc1f-c2d0a95a5d4b","ios":"levelo://app?vid=142cf1b3-ee1c-487c-bc1f-c2d0a95a5d4b"},"vehicle_type_id":"4","last_reported":1741964971,"current_range_meters":13600,"station_id":"ce4bhnh2rcd13ifvqgug","pricing_plan_id":"cebpf4jnsgd1na2vs0mg"},{"bike_id":"248290b8-2703-4edf-9efc-568f34b1e4fe","system_id":"levelo_inurba_marseille","lat":43.30295,"lon":5.39218,"is_reserved":false,"is_disabled":false,"rental_uris":{"android":"levelo://app?vid=248290b8-2703-4edf-9efc-568f34b1e4fe","ios":"levelo://app?vid=248290b8-2703-4edf-9efc-568f34b1e4fe"},"vehicle_type_id":"4","last_reported":1741964971,"current_range_meters":13600,"station_id":"ce4bgkh2rcd13ifvqbk0","pricing_plan_id":"cebpf4jnsgd1na2vs0mg"},{"bike_id":"184492ce-9f5c-47e4-a3e5-d0eccfcef42b","system_id":"levelo_inurba_marseille","lat":43.27616,"lon":5.36118,"is_reserved":false,"is_disabled":false,"rental_uris":{"android":"levelo://app?vid=184492ce-9f5c-47e4-a3e5-d0eccfcef42b","ios":"levelo://app?vid=184492ce-9f5c-47e4-a3e5-d0eccfcef42b"},"vehicle_type_id":"4","last_reported":1741964971,"current_range_meters":13600,"station_id":"ce4bgj92rcd13ifvqbe0","pricing_plan_id":"cebpf4jnsgd1na2vs0mg"},{"bike_id":"531f3787-cddd-4298-8d43-eeb740d3c021","system_id":"levelo_inurba_marseille","lat":43.30132,"lon":5.39879,"is_reserved":false,"is_disabled":false,"rental_uris":{"android":"levelo://app?vid=531f3787-cddd-4298-8d43-eeb740d3c021","ios":"levelo://app?vid=531f3787-cddd-4298-8d43-eeb740d3c021"},"vehicle_type_id":"4","last_reported":1741964971,"current_range_meters":13600,"station_id":"ce4bh0h2rcd13ifvqd40","pricing_plan_id":"cebpf4jnsgd1na2vs0mg"},{"bike_id":"af474046-e400-4ac9-a0d2-80fc69b95ff7","system_id":"levelo_inurba_marseille","lat":43.30532,"lon":5.36547,"is_reserved":false,"is_disabled":false,"rental_uris":{"android":"levelo://app?vid=af474046-e400-4ac9-a0d2-80fc69b95ff7","ios":"levelo://app?vid=af474046-e400-4ac9-a0d2-80fc69b95ff7"},"vehicle_type_id":"4","last_reported":1741964971,"current_range_meters":13600,"station_id":"ce4bgs12rcd13ifvqcag","pricing_plan_id":"cebpf4jnsgd1na2vs0mg"},{"bike_id":"65bea2c5-78a7-4fbf-92b5-f338edebb748","system_id":"levelo_inurba_marseille","lat":43.26119,"lon":5.41466,"is_reserved":false,"is_disabled":false,"rental_uris":{"android":"levelo://app?vid=65bea2c5-78a7-4fbf-92b5-f338edebb748","ios":"levelo://app?vid=65bea2c5-78a7-4fbf-92b5-f338edebb748"},"vehicle_type_id":"4","last_reported":1741964971,"current_range_meters":13600,"station_id":"","pricing_plan_id":"cebpf4jnsgd1na2vs0mg"},{"bike_id":"385ae15c-2c3c-4490-a507-5eb20fb883a5","system_id":"levelo_inurba_marseille","lat":43.25937,"lon":5.40907,"is_reserved":false,"is_disabled":false,"rental_uris":{"android":"levelo://app?vid=385ae15c-2c3c-4490-a507-5eb20fb883a5","ios":"levelo://app?vid=385ae15c-2c3c-4490-a507-5eb20fb883a5"},"vehicle_type_id":"4","last_reported":1741964971,"current_range_meters":13600,"station_id":"ce4bhm92rcd13ifvqglg","pricing_plan_id":"cebpf4jnsgd1na2vs0mg"},{"bike_id":"8bf23a11-a06c-467d-ad13-997f90e1efac","system_id":"levelo_inurba_marseille","lat":43.30101,"lon":5.39082,"is_reserved":false,"is_disabled":false,"rental_uris":{"android":"levelo://app?vid=8bf23a11-a06c-467d-ad13-997f90e1efac","ios":"levelo://app?vid=8bf23a11-a06c-467d-ad13-997f90e1efac"},"vehicle_type_id":"4","last_reported":1741964971,"current_range_meters":13600,"station_id":"ce4bh192rcd13ifvqdb0","pricing_plan_id":"cebpf4jnsgd1na2vs0mg"},{"bike_id":"e212c6ee-127e-48a1-bc80-715d52ad33e6","system_id":"levelo_inurba_marseille","lat":43.27566,"lon":5.38431,"is_reserved":false,"is_disabled":false,"rental_uris":{"android":"levelo://app?vid=e212c6ee-127e-48a1-bc80-715d52ad33e6","ios":"levelo://app?vid=e212c6ee-127e-48a1-bc80-715d52ad33e6"},"vehicle_type_id":"4","last_reported":1741964971,"current_range_meters":13600,"station_id":"ce4bhh92rcd13ifvqfi0","pricing_plan_id":"cebpf4jnsgd1na2vs0mg"},{"bike_id":"f98d4757-88e2-4cdf-805c-6e518464c7f0","system_id":"levelo_inurba_marseille","lat":43.28717,"lon":5.37947,"is_reserved":false,"is_disabled":false,"rental_uris":{"android":"levelo://app?vid=f98d4757-88e2-4cdf-805c-6e518464c7f0","ios":"levelo://app?vid=f98d4757-88e2-4cdf-805c-6e518464c7f0"},"vehicle_type_id":"4","last_reported":1741964971,"current_range_meters":14000,"station_id":"ce4bh9p2rcd13ifvqec0","pricing_plan_id":"cebpf4jnsgd1na2vs0mg"},{"bike_id":"56c5e86f-d919-4412-96f3-cbfb7b6ab9dc","system_id":"levelo_inurba_marseille","lat":43.29307,"lon":5.37171,"is_reserved":false,"is_disabled":false,"rental_uris":{"android":"levelo://app?vid=56c5e86f-d919-4412-96f3-cbfb7b6ab9dc","ios":"levelo://app?vid=56c5e86f-d919-4412-96f3-cbfb7b6ab9dc"},"vehicle_type_id":"4","last_reported":1741964971,"current_range_meters":14000,"station_id":"ce4bgh92rcd13ifvqb40","pricing_plan_id":"cebpf4jnsgd1na2vs0mg"},{"bike_id":"a50186f5-acd1-49e8-8bb8-eb7cf98ffcda","system_id":"levelo_inurba_marseille","lat":43.27217,"lon":5.39201,"is_reserved":false,"is_disabled":false,"rental_uris":{"android":"levelo://app?vid=a50186f5-acd1-49e8-8bb8-eb7cf98ffcda","ios":"levelo://app?vid=a50186f5-acd1-49e8-8bb8-eb7cf98ffcda"},"vehicle_type_id":"4","last_reported":1741964971,"current_range_meters":14000,"station_id":"ce4bhhp2rcd13ifvqfm0","pricing_plan_id":"cebpf4jnsgd1na2vs0mg"},{"bike_id":"e0f00ea1-5190-455d-8f01-943045ce62ae","system_id":"levelo_inurba_marseille","lat":43.31173,"lon":5.37734,"is_reserved":false,"is_disabled":false,"rental_uris":{"android":"levelo://app?vid=e0f00ea1-5190-455d-8f01-943045ce62ae","ios":"levelo://app?vid=e0f00ea1-5190-455d-8f01-943045ce62ae"},"vehicle_type_id":"4","last_reported":1741964971,"current_range_meters":14000,"station_id":"","pricing_plan_id":"cebpf4jnsgd1na2vs0mg"},{"bike_id":"689f3d2c-4847-4516-a642-86888fc86b8d","system_id":"levelo_inurba_marseille","lat":43.24642,"lon":5.38911,"is_reserved":false,"is_disabled":false,"rental_uris":{"android":"levelo://app?vid=689f3d2c-4847-4516-a642-86888fc86b8d","ios":"levelo://app?vid=689f3d2c-4847-4516-a642-86888fc86b8d"},"vehicle_type_id":"4","last_reported":1741964971,"current_range_meters":14400,"station_id":"ce4bhg12rcd13ifvqf60","pricing_plan_id":"cebpf4jnsgd1na2vs0mg"},{"bike_id":"41e8c346-011f-4103-8b72-028d393e5a25","system_id":"levelo_inurba_marseille","lat":43.29165,"lon":5.37172,"is_reserved":false,"is_disabled":false,"rental_uris":{"android":"levelo://app?vid=41e8c346-011f-4103-8b72-028d393e5a25","ios":"levelo://app?vid=41e8c346-011f-4103-8b72-028d393e5a25"},"vehicle_type_id":"4","last_reported":1741964971,"current_range_meters":14400,"station_id":"ce4bha92rcd13ifvqeh0","pricing_plan_id":"cebpf4jnsgd1na2vs0mg"},{"bike_id":"af44b34a-ef1e-45cf-9ec3-d9c292615a7c","system_id":"levelo_inurba_marseille","lat":43.29265,"lon":5.38454,"is_reserved":false,"is_disabled":false,"rental_uris":{"android":"levelo://app?vid=af44b34a-ef1e-45cf-9ec3-d9c292615a7c","ios":"levelo://app?vid=af44b34a-ef1e-45cf-9ec3-d9c292615a7c"},"vehicle_type_id":"4","last_reported":1741964971,"current_range_meters":14400,"station_id":"ce4bh692rcd13ifvqea0","pricing_plan_id":"cebpf4jnsgd1na2vs0mg"},{"bike_id":"4f40e8b1-1d2d-4b41-8fb4-f7f4b3a308bc","system_id":"levelo_inurba_marseille","lat":43.23152,"lon":5.43718,"is_reserved":false,"is_disabled":false,"rental_uris":{"android":"levelo://app?vid=4f40e8b1-1d2d-4b41-8fb4-f7f4b3a308bc","ios":"levelo://app?vid=4f40e8b1-1d2d-4b41-8fb4-f7f4b3a308bc"},"vehicle_type_id":"4","last_reported":1741964971,"current_range_meters":14800,"station_id":"ce4bhmp2rcd13ifvqgog","pricing_plan_id":"cebpf4jnsgd1na2vs0mg"},{"bike_id":"cabd3d2d-330e-43b2-8d0b-3e86699f79e1","system_id":"levelo_inurba_marseille","lat":43.24181,"lon":5.36399,"is_reserved":false,"is_disabled":false,"rental_uris":{"android":"levelo://app?vid=cabd3d2d-330e-43b2-8d0b-3e86699f79e1","ios":"levelo://app?vid=cabd3d2d-330e-43b2-8d0b-3e86699f79e1"},"vehicle_type_id":"4","last_reported":1741964971,"current_range_meters":14800,"station_id":"cpo36qri1sfpv3e86is0","pricing_plan_id":"cebpf4jnsgd1na2vs0mg"},{"bike_id":"269491db-b98a-49e3-a3b5-e04159ff8cbf","system_id":"levelo_inurba_marseille","lat":43.26943,"lon":5.40252,"is_reserved":false,"is_disabled":false,"rental_uris":{"android":"levelo://app?vid=269491db-b98a-49e3-a3b5-e04159ff8cbf","ios":"levelo://app?vid=269491db-b98a-49e3-a3b5-e04159ff8cbf"},"vehicle_type_id":"4","last_reported":1741964971,"current_range_meters":14800,"station_id":"cjm6bp8fraef2m0cb0m0","pricing_plan_id":"cebpf4jnsgd1na2vs0mg"},{"bike_id":"8c8cfd86-1fab-4b34-9543-0c31621c9111","system_id":"levelo_inurba_marseille","lat":43.29303,"lon":5.37157,"is_reserved":false,"is_disabled":false,"rental_uris":{"android":"levelo://app?vid=8c8cfd86-1fab-4b34-9543-0c31621c9111","ios":"levelo://app?vid=8c8cfd86-1fab-4b34-9543-0c31621c9111"},"vehicle_type_id":"4","last_reported":1741964971,"current_range_meters":14800,"station_id":"ce4bgh92rcd13ifvqb40","pricing_plan_id":"cebpf4jnsgd1na2vs0mg"},{"bike_id":"a5c03e8d-963a-4cef-ae0b-5196ab18a6c6","system_id":"levelo_inurba_marseille","lat":43.29522,"lon":5.38575,"is_reserved":false,"is_disabled":false,"rental_uris":{"android":"levelo://app?vid=a5c03e8d-963a-4cef-ae0b-5196ab18a6c6","ios":"levelo://app?vid=a5c03e8d-963a-4cef-ae0b-5196ab18a6c6"},"vehicle_type_id":"4","last_reported":1741964971,"current_range_meters":14800,"station_id":"ce4bgih2rcd13ifvqba0","pricing_plan_id":"cebpf4jnsgd1na2vs0mg"},{"bike_id":"919010b8-b4a9-44d0-95a1-3151dcde223b","system_id":"levelo_inurba_marseille","lat":43.26191,"lon":5.37458,"is_reserved":false,"is_disabled":false,"rental_uris":{"android":"levelo://app?vid=919010b8-b4a9-44d0-95a1-3151dcde223b","ios":"levelo://app?vid=919010b8-b4a9-44d0-95a1-3151dcde223b"},"vehicle_type_id":"4","last_reported":1741964971,"current_range_meters":15200,"station_id":"ce4bhgp2rcd13ifvqfc0","pricing_plan_id":"cebpf4jnsgd1na2vs0mg"},{"bike_id":"2897a06f-1197-4156-842d-693276d19327","system_id":"levelo_inurba_marseille","lat":43.337444,"lon":5.374475,"is_reserved":false,"is_disabled":false,"rental_uris":{"android":"levelo://app?vid=2897a06f-1197-4156-842d-693276d19327","ios":"levelo://app?vid=2897a06f-1197-4156-842d-693276d19327"},"vehicle_type_id":"4","last_reported":1741964971,"current_range_meters":15200,"station_id":"ce4bhk92rcd13ifvqgb0","pricing_plan_id":"cebpf4jnsgd1na2vs0mg"},{"bike_id":"70e74811-5755-462b-971a-5a64a80bde0b","system_id":"levelo_inurba_marseille","lat":43.3108,"lon":5.42435,"is_reserved":false,"is_disabled":false,"rental_uris":{"android":"levelo://app?vid=70e74811-5755-462b-971a-5a64a80bde0b","ios":"levelo://app?vid=70e74811-5755-462b-971a-5a64a80bde0b"},"vehicle_type_id":"4","last_reported":1741964971,"current_range_meters":15200,"station_id":"ce4bhp92rcd13ifvqhag","pricing_plan_id":"cebpf4jnsgd1na2vs0mg"},{"bike_id":"64986549-2c9e-4b9f-8464-f74cc2571bf2","system_id":"levelo_inurba_marseille","lat":43.24079,"lon":5.37738,"is_reserved":false,"is_disabled":false,"rental_uris":{"android":"levelo://app?vid=64986549-2c9e-4b9f-8464-f74cc2571bf2","ios":"levelo://app?vid=64986549-2c9e-4b9f-8464-f74cc2571bf2"},"vehicle_type_id":"4","last_reported":1741964971,"current_range_meters":15200,"station_id":"ce4bhnp2rcd13ifvqgvg","pricing_plan_id":"cebpf4jnsgd1na2vs0mg"},{"bike_id":"76b5d343-6624-4366-8e6e-f702d50ae492","system_id":"levelo_inurba_marseille","lat":43.23198,"lon":5.35542,"is_reserved":false,"is_disabled":false,"rental_uris":{"android":"levelo://app?vid=76b5d343-6624-4366-8e6e-f702d50ae492","ios":"levelo://app?vid=76b5d343-6624-4366-8e6e-f702d50ae492"},"vehicle_type_id":"4","last_reported":1741964971,"current_range_meters":16000,"station_id":"ce4bhu92rcd13ifvqi70","pricing_plan_id":"cebpf4jnsgd1na2vs0mg"},{"bike_id":"11316385-16ff-44f4-9c5b-887b8e41cb3e","system_id":"levelo_inurba_marseille","lat":43.24074,"lon":5.37764,"is_reserved":false,"is_disabled":false,"rental_uris":{"android":"levelo://app?vid=11316385-16ff-44f4-9c5b-887b8e41cb3e","ios":"levelo://app?vid=11316385-16ff-44f4-9c5b-887b8e41cb3e"},"vehicle_type_id":"4","last_reported":1741964971,"current_range_meters":16000,"station_id":"ce4bhnp2rcd13ifvqgvg","pricing_plan_id":"cebpf4jnsgd1na2vs0mg"},{"bike_id":"08d7ad39-29b9-4d1d-ab44-5a56dd13dd34","system_id":"levelo_inurba_marseille","lat":43.24081,"lon":5.37746,"is_reserved":false,"is_disabled":false,"rental_uris":{"android":"levelo://app?vid=08d7ad39-29b9-4d1d-ab44-5a56dd13dd34","ios":"levelo://app?vid=08d7ad39-29b9-4d1d-ab44-5a56dd13dd34"},"vehicle_type_id":"4","last_reported":1741964971,"current_range_meters":16000,"station_id":"ce4bhnp2rcd13ifvqgvg","pricing_plan_id":"cebpf4jnsgd1na2vs0mg"},{"bike_id":"0b7bfdb8-fd03-4687-9225-8085184f929c","system_id":"levelo_inurba_marseille","lat":43.32353,"lon":5.36759,"is_reserved":false,"is_disabled":false,"rental_uris":{"android":"levelo://app?vid=0b7bfdb8-fd03-4687-9225-8085184f929c","ios":"levelo://app?vid=0b7bfdb8-fd03-4687-9225-8085184f929c"},"vehicle_type_id":"4","last_reported":1741964971,"current_range_meters":16000,"station_id":"ce4bhsh2rcd13ifvqi2g","pricing_plan_id":"cebpf4jnsgd1na2vs0mg"},{"bike_id":"d13948ce-2eca-438f-a242-2e61e54403de","system_id":"levelo_inurba_marseille","lat":43.2667,"lon":5.3826,"is_reserved":false,"is_disabled":false,"rental_uris":{"android":"levelo://app?vid=d13948ce-2eca-438f-a242-2e61e54403de","ios":"levelo://app?vid=d13948ce-2eca-438f-a242-2e61e54403de"},"vehicle_type_id":"4","last_reported":1741964971,"current_range_meters":16000,"station_id":"ce4bhg92rcd13ifvqf90","pricing_plan_id":"cebpf4jnsgd1na2vs0mg"},{"bike_id":"25274a25-b64b-423d-8515-597b4f6d1008","system_id":"levelo_inurba_marseille","lat":43.29297,"lon":5.3745,"is_reserved":false,"is_disabled":false,"rental_uris":{"android":"levelo://app?vid=25274a25-b64b-423d-8515-597b4f6d1008","ios":"levelo://app?vid=25274a25-b64b-423d-8515-597b4f6d1008"},"vehicle_type_id":"4","last_reported":1741964971,"current_range_meters":16000,"station_id":"ce4bgi12rcd13ifvqb70","pricing_plan_id":"cebpf4jnsgd1na2vs0mg"},{"bike_id":"83783ead-721f-4d82-86e9-a8ac641b2edd","system_id":"levelo_inurba_marseille","lat":43.26213,"lon":5.40436,"is_reserved":false,"is_disabled":false,"rental_uris":{"android":"levelo://app?vid=83783ead-721f-4d82-86e9-a8ac641b2edd","ios":"levelo://app?vid=83783ead-721f-4d82-86e9-a8ac641b2edd"},"vehicle_type_id":"4","last_reported":1741964971,"current_range_meters":16000,"station_id":"ce4bhmh2rcd13ifvqgmg","pricing_plan_id":"cebpf4jnsgd1na2vs0mg"},{"bike_id":"1b04eda7-7b67-4fdf-b254-05f635ae0cbe","system_id":"levelo_inurba_marseille","lat":43.29962,"lon":5.38502,"is_reserved":false,"is_disabled":false,"rental_uris":{"android":"levelo://app?vid=1b04eda7-7b67-4fdf-b254-05f635ae0cbe","ios":"levelo://app?vid=1b04eda7-7b67-4fdf-b254-05f635ae0cbe"},"vehicle_type_id":"4","last_reported":1741964971,"current_range_meters":16000,"station_id":"ce4bgj92rcd13ifvqbd0","pricing_plan_id":"cebpf4jnsgd1na2vs0mg"},{"bike_id":"682479d1-e45a-4038-bd3f-31460899f944","system_id":"levelo_inurba_marseille","lat":43.24807,"lon":5.37459,"is_reserved":false,"is_disabled":false,"rental_uris":{"android":"levelo://app?vid=682479d1-e45a-4038-bd3f-31460899f944","ios":"levelo://app?vid=682479d1-e45a-4038-bd3f-31460899f944"},"vehicle_type_id":"4","last_reported":1741964971,"current_range_meters":16000,"station_id":"ce4bhgh2rcd13ifvqfb0","pricing_plan_id":"cebpf4jnsgd1na2vs0mg"},{"bike_id":"4af29538-008b-4da5-ae4d-345722e42a00","system_id":"levelo_inurba_marseille","lat":43.31075,"lon":5.38356,"is_reserved":false,"is_disabled":false,"rental_uris":{"android":"levelo://app?vid=4af29538-008b-4da5-ae4d-345722e42a00","ios":"levelo://app?vid=4af29538-008b-4da5-ae4d-345722e42a00"},"vehicle_type_id":"4","last_reported":1741964971,"current_range_meters":16000,"station_id":"ce4bgv92rcd13ifvqcr0","pricing_plan_id":"cebpf4jnsgd1na2vs0mg"},{"bike_id":"3fbdbed3-81eb-4ebd-99e8-fe7ae5272906","system_id":"levelo_inurba_marseille","lat":43.25822,"lon":5.39444,"is_reserved":false,"is_disabled":false,"rental_uris":{"android":"levelo://app?vid=3fbdbed3-81eb-4ebd-99e8-fe7ae5272906","ios":"levelo://app?vid=3fbdbed3-81eb-4ebd-99e8-fe7ae5272906"},"vehicle_type_id":"4","last_reported":1741964971,"current_range_meters":16000,"station_id":"ce4bhip2rcd13ifvqft0","pricing_plan_id":"cebpf4jnsgd1na2vs0mg"},{"bike_id":"4ea9cd95-0e42-4ba2-958b-e32edec4e080","system_id":"levelo_inurba_marseille","lat":43.3123,"lon":5.36855,"is_reserved":false,"is_disabled":false,"rental_uris":{"android":"levelo://app?vid=4ea9cd95-0e42-4ba2-958b-e32edec4e080","ios":"levelo://app?vid=4ea9cd95-0e42-4ba2-958b-e32edec4e080"},"vehicle_type_id":"4","last_reported":1741964971,"current_range_meters":16400,"station_id":"ce4bgl92rcd13ifvqbq0","pricing_plan_id":"cebpf4jnsgd1na2vs0mg"},{"bike_id":"78df4038-21de-480b-b36a-09ba76e94cf3","system_id":"levelo_inurba_marseille","lat":43.30181,"lon":5.36618,"is_reserved":false,"is_disabled":false,"rental_uris":{"android":"levelo://app?vid=78df4038-21de-480b-b36a-09ba76e94cf3","ios":"levelo://app?vid=78df4038-21de-480b-b36a-09ba76e94cf3"},"vehicle_type_id":"4","last_reported":1741964971,"current_range_meters":16400,"station_id":"ce4bgrh2rcd13ifvqc8g","pricing_plan_id":"cebpf4jnsgd1na2vs0mg"},{"bike_id":"6db88707-00ce-4c37-ae7a-00ca1d72f3b1","system_id":"levelo_inurba_marseille","lat":43.28976,"lon":5.37827,"is_reserved":false,"is_disabled":false,"rental_uris":{"android":"levelo://app?vid=6db88707-00ce-4c37-ae7a-00ca1d72f3b1","ios":"levelo://app?vid=6db88707-00ce-4c37-ae7a-00ca1d72f3b1"},"vehicle_type_id":"4","last_reported":1741964971,"current_range_meters":16400,"station_id":"ce4bh9p2rcd13ifvqed0","pricing_plan_id":"cebpf4jnsgd1na2vs0mg"},{"bike_id":"7e809cf9-4d16-4e10-88b0-f3e27f97828a","system_id":"levelo_inurba_marseille","lat":43.25006,"lon":5.38933,"is_reserved":false,"is_disabled":false,"rental_uris":{"android":"levelo://app?vid=7e809cf9-4d16-4e10-88b0-f3e27f97828a","ios":"levelo://app?vid=7e809cf9-4d16-4e10-88b0-f3e27f97828a"},"vehicle_type_id":"4","last_reported":1741964971,"current_range_meters":16400,"station_id":"ce4bhgp2rcd13ifvqfd0","pricing_plan_id":"cebpf4jnsgd1na2vs0mg"},{"bike_id":"e52b41b5-52df-4c67-a85c-3cebb3bf7504","system_id":"levelo_inurba_marseille","lat":43.32362,"lon":5.36765,"is_reserved":false,"is_disabled":false,"rental_uris":{"android":"levelo://app?vid=e52b41b5-52df-4c67-a85c-3cebb3bf7504","ios":"levelo://app?vid=e52b41b5-52df-4c67-a85c-3cebb3bf7504"},"vehicle_type_id":"4","last_reported":1741964971,"current_range_meters":16400,"station_id":"ce4bhsh2rcd13ifvqi2g","pricing_plan_id":"cebpf4jnsgd1na2vs0mg"},{"bike_id":"291a50ce-dbab-4ccb-b2a0-f7335c7e8d81","system_id":"levelo_inurba_marseille","lat":43.31711,"lon":5.40447,"is_reserved":false,"is_disabled":false,"rental_uris":{"android":"levelo://app?vid=291a50ce-dbab-4ccb-b2a0-f7335c7e8d81","ios":"levelo://app?vid=291a50ce-dbab-4ccb-b2a0-f7335c7e8d81"},"vehicle_type_id":"4","last_reported":1741964971,"current_range_meters":16400,"station_id":"ce4bh012rcd13ifvqd00","pricing_plan_id":"cebpf4jnsgd1na2vs0mg"},{"bike_id":"7275ac19-f926-4d23-9e9d-7142ec2c130c","system_id":"levelo_inurba_marseille","lat":43.31368,"lon":5.38489,"is_reserved":false,"is_disabled":false,"rental_uris":{"android":"levelo://app?vid=7275ac19-f926-4d23-9e9d-7142ec2c130c","ios":"levelo://app?vid=7275ac19-f926-4d23-9e9d-7142ec2c130c"},"vehicle_type_id":"4","last_reported":1741964971,"current_range_meters":16400,"station_id":"ce4bgt92rcd13ifvqcf0","pricing_plan_id":"cebpf4jnsgd1na2vs0mg"},{"bike_id":"3bbc4828-5e6a-45a6-ba63-14cbb0d43a4e","system_id":"levelo_inurba_marseille","lat":43.25825,"lon":5.39436,"is_reserved":false,"is_disabled":false,"rental_uris":{"android":"levelo://app?vid=3bbc4828-5e6a-45a6-ba63-14cbb0d43a4e","ios":"levelo://app?vid=3bbc4828-5e6a-45a6-ba63-14cbb0d43a4e"},"vehicle_type_id":"4","last_reported":1741964971,"current_range_meters":16400,"station_id":"ce4bhip2rcd13ifvqft0","pricing_plan_id":"cebpf4jnsgd1na2vs0mg"},{"bike_id":"c06fab40-7e28-4b99-b155-9d73931b896a","system_id":"levelo_inurba_marseille","lat":43.2319,"lon":5.35558,"is_reserved":false,"is_disabled":false,"rental_uris":{"android":"levelo://app?vid=c06fab40-7e28-4b99-b155-9d73931b896a","ios":"levelo://app?vid=c06fab40-7e28-4b99-b155-9d73931b896a"},"vehicle_type_id":"4","last_reported":1741964971,"current_range_meters":16800,"station_id":"ce4bhu92rcd13ifvqi70","pricing_plan_id":"cebpf4jnsgd1na2vs0mg"},{"bike_id":"11ddd1d3-a05b-4cdc-afeb-43708c4bb4d8","system_id":"levelo_inurba_marseille","lat":43.27934,"lon":5.38718,"is_reserved":false,"is_disabled":false,"rental_uris":{"android":"levelo://app?vid=11ddd1d3-a05b-4cdc-afeb-43708c4bb4d8","ios":"levelo://app?vid=11ddd1d3-a05b-4cdc-afeb-43708c4bb4d8"},"vehicle_type_id":"4","last_reported":1741964971,"current_range_meters":16800,"station_id":"ce4bhg12rcd13ifvqf80","pricing_plan_id":"cebpf4jnsgd1na2vs0mg"},{"bike_id":"7d24174d-d10b-414c-be10-a866c2e24646","system_id":"levelo_inurba_marseille","lat":43.30548,"lon":5.36741,"is_reserved":false,"is_disabled":false,"rental_uris":{"android":"levelo://app?vid=7d24174d-d10b-414c-be10-a866c2e24646","ios":"levelo://app?vid=7d24174d-d10b-414c-be10-a866c2e24646"},"vehicle_type_id":"4","last_reported":1741964971,"current_range_meters":16800,"station_id":"ce4bgrp2rcd13ifvqc9g","pricing_plan_id":"cebpf4jnsgd1na2vs0mg"},{"bike_id":"d9a1cca8-ee8b-47f2-9d56-964a9b7f03bf","system_id":"levelo_inurba_marseille","lat":43.31329,"lon":5.39695,"is_reserved":false,"is_disabled":true,"rental_uris":{"android":"levelo://app?vid=d9a1cca8-ee8b-47f2-9d56-964a9b7f03bf","ios":"levelo://app?vid=d9a1cca8-ee8b-47f2-9d56-964a9b7f03bf"},"vehicle_type_id":"4","last_reported":1741964971,"current_range_meters":16800,"station_id":"ce4bgvp2rcd13ifvqcu0","pricing_plan_id":"cebpf4jnsgd1na2vs0mg"},{"bike_id":"1d922b09-e4dd-43f4-a4ec-389c38fbbe94","system_id":"levelo_inurba_marseille","lat":43.2895,"lon":5.37811,"is_reserved":false,"is_disabled":false,"rental_uris":{"android":"levelo://app?vid=1d922b09-e4dd-43f4-a4ec-389c38fbbe94","ios":"levelo://app?vid=1d922b09-e4dd-43f4-a4ec-389c38fbbe94"},"vehicle_type_id":"4","last_reported":1741964971,"current_range_meters":16800,"station_id":"ce4bh9p2rcd13ifvqed0","pricing_plan_id":"cebpf4jnsgd1na2vs0mg"},{"bike_id":"6f3bcd9d-9152-40ca-af8c-b206e6cfc50d","system_id":"levelo_inurba_marseille","lat":43.31123,"lon":5.37764,"is_reserved":false,"is_disabled":false,"rental_uris":{"android":"levelo://app?vid=6f3bcd9d-9152-40ca-af8c-b206e6cfc50d","ios":"levelo://app?vid=6f3bcd9d-9152-40ca-af8c-b206e6cfc50d"},"vehicle_type_id":"4","last_reported":1741964971,"current_range_meters":16800,"station_id":"ce4bgt92rcd13ifvqcg0","pricing_plan_id":"cebpf4jnsgd1na2vs0mg"},{"bike_id":"c327bc49-13c0-4c92-a710-10b5cc0d3101","system_id":"levelo_inurba_marseille","lat":43.29808,"lon":5.38113,"is_reserved":false,"is_disabled":false,"rental_uris":{"android":"levelo://app?vid=c327bc49-13c0-4c92-a710-10b5cc0d3101","ios":"levelo://app?vid=c327bc49-13c0-4c92-a710-10b5cc0d3101"},"vehicle_type_id":"4","last_reported":1741964971,"current_range_meters":16800,"station_id":"ce4bgip2rcd13ifvqbb0","pricing_plan_id":"cebpf4jnsgd1na2vs0mg"},{"bike_id":"dc871934-39af-4ccf-8a15-4b167036d60a","system_id":"levelo_inurba_marseille","lat":43.28101,"lon":5.37834,"is_reserved":false,"is_disabled":false,"rental_uris":{"android":"levelo://app?vid=dc871934-39af-4ccf-8a15-4b167036d60a","ios":"levelo://app?vid=dc871934-39af-4ccf-8a15-4b167036d60a"},"vehicle_type_id":"4","last_reported":1741964971,"current_range_meters":16800,"station_id":"ce4bha12rcd13ifvqee0","pricing_plan_id":"cebpf4jnsgd1na2vs0mg"},{"bike_id":"77bd3baa-7495-4992-ac0c-bac0808e0e22","system_id":"levelo_inurba_marseille","lat":43.306519,"lon":5.382928,"is_reserved":false,"is_disabled":false,"rental_uris":{"android":"levelo://app?vid=77bd3baa-7495-4992-ac0c-bac0808e0e22","ios":"levelo://app?vid=77bd3baa-7495-4992-ac0c-bac0808e0e22"},"vehicle_type_id":"4","last_reported":1741964971,"current_range_meters":16800,"station_id":"ce4bgt12rcd13ifvqce0","pricing_plan_id":"cebpf4jnsgd1na2vs0mg"},{"bike_id":"4b8534d1-d617-4833-892b-ac62eb21570e","system_id":"levelo_inurba_marseille","lat":43.28728,"lon":5.36089,"is_reserved":false,"is_disabled":false,"rental_uris":{"android":"levelo://app?vid=4b8534d1-d617-4833-892b-ac62eb21570e","ios":"levelo://app?vid=4b8534d1-d617-4833-892b-ac62eb21570e"},"vehicle_type_id":"4","last_reported":1741964971,"current_range_meters":17200,"station_id":"cki0cbj6b192h4jlfktg","pricing_plan_id":"cebpf4jnsgd1na2vs0mg"},{"bike_id":"9263b6cb-c2a9-4ade-a7b8-aa3e2867317d","system_id":"levelo_inurba_marseille","lat":43.27317,"lon":5.39099,"is_reserved":false,"is_disabled":false,"rental_uris":{"android":"levelo://app?vid=9263b6cb-c2a9-4ade-a7b8-aa3e2867317d","ios":"levelo://app?vid=9263b6cb-c2a9-4ade-a7b8-aa3e2867317d"},"vehicle_type_id":"4","last_reported":1741964971,"current_range_meters":17200,"station_id":"ce4bhgp2rcd13ifvqfe0","pricing_plan_id":"cebpf4jnsgd1na2vs0mg"},{"bike_id":"67ba5532-a4de-45d0-bd2d-aa06a7264fb6","system_id":"levelo_inurba_marseille","lat":43.3089,"lon":5.3718,"is_reserved":false,"is_disabled":false,"rental_uris":{"android":"levelo://app?vid=67ba5532-a4de-45d0-bd2d-aa06a7264fb6","ios":"levelo://app?vid=67ba5532-a4de-45d0-bd2d-aa06a7264fb6"},"vehicle_type_id":"4","last_reported":1741964971,"current_range_meters":17200,"station_id":"ce4bguh2rcd13ifvqckg","pricing_plan_id":"cebpf4jnsgd1na2vs0mg"},{"bike_id":"4c44f0ea-6e26-4154-9a68-d9cf2e4fa40f","system_id":"levelo_inurba_marseille","lat":43.3054,"lon":5.38433,"is_reserved":false,"is_disabled":false,"rental_uris":{"android":"levelo://app?vid=4c44f0ea-6e26-4154-9a68-d9cf2e4fa40f","ios":"levelo://app?vid=4c44f0ea-6e26-4154-9a68-d9cf2e4fa40f"},"vehicle_type_id":"4","last_reported":1741964971,"current_range_meters":17200,"station_id":"ce4bgg92rcd13ifvqb30","pricing_plan_id":"cebpf4jnsgd1na2vs0mg"},{"bike_id":"f7f2f88b-303c-44ee-bb12-c2619889553e","system_id":"levelo_inurba_marseille","lat":43.28477,"lon":5.38419,"is_reserved":false,"is_disabled":false,"rental_uris":{"android":"levelo://app?vid=f7f2f88b-303c-44ee-bb12-c2619889553e","ios":"levelo://app?vid=f7f2f88b-303c-44ee-bb12-c2619889553e"},"vehicle_type_id":"4","last_reported":1741964971,"current_range_meters":17200,"station_id":"ce4bh512rcd13ifvqe3g","pricing_plan_id":"cebpf4jnsgd1na2vs0mg"},{"bike_id":"87b7f147-0ac2-4b35-8bcc-3f02f503bd7c","system_id":"levelo_inurba_marseille","lat":43.26205,"lon":5.37925,"is_reserved":false,"is_disabled":false,"rental_uris":{"android":"levelo://app?vid=87b7f147-0ac2-4b35-8bcc-3f02f503bd7c","ios":"levelo://app?vid=87b7f147-0ac2-4b35-8bcc-3f02f503bd7c"},"vehicle_type_id":"4","last_reported":1741964971,"current_range_meters":17200,"station_id":"ce4bhjp2rcd13ifvqg90","pricing_plan_id":"cebpf4jnsgd1na2vs0mg"},{"bike_id":"de52a284-b920-461f-93cb-3dfbd4c13027","system_id":"levelo_inurba_marseille","lat":43.29732,"lon":5.37693,"is_reserved":false,"is_disabled":false,"rental_uris":{"android":"levelo://app?vid=de52a284-b920-461f-93cb-3dfbd4c13027","ios":"levelo://app?vid=de52a284-b920-461f-93cb-3dfbd4c13027"},"vehicle_type_id":"4","last_reported":1741964971,"current_range_meters":17600,"station_id":"ce4bgkh2rcd13ifvqbl0","pricing_plan_id":"cebpf4jnsgd1na2vs0mg"},{"bike_id":"72fe4211-136e-488e-9061-f6d73fb7ebbf","system_id":"levelo_inurba_marseille","lat":43.279474,"lon":5.41038,"is_reserved":false,"is_disabled":false,"rental_uris":{"android":"levelo://app?vid=72fe4211-136e-488e-9061-f6d73fb7ebbf","ios":"levelo://app?vid=72fe4211-136e-488e-9061-f6d73fb7ebbf"},"vehicle_type_id":"4","last_reported":1741964971,"current_range_meters":17600,"station_id":"ce4bhnp2rcd13ifvqh0g","pricing_plan_id":"cebpf4jnsgd1na2vs0mg"},{"bike_id":"e8ceb681-ef67-4d43-92d5-8ea8d50bff55","system_id":"levelo_inurba_marseille","lat":43.27771,"lon":5.40759,"is_reserved":false,"is_disabled":false,"rental_uris":{"android":"levelo://app?vid=e8ceb681-ef67-4d43-92d5-8ea8d50bff55","ios":"levelo://app?vid=e8ceb681-ef67-4d43-92d5-8ea8d50bff55"},"vehicle_type_id":"4","last_reported":1741964971,"current_range_meters":17600,"station_id":"","pricing_plan_id":"cebpf4jnsgd1na2vs0mg"},{"bike_id":"d9cb7650-491e-4958-a9a5-008e530a3647","system_id":"levelo_inurba_marseille","lat":43.28668,"lon":5.36357,"is_reserved":false,"is_disabled":false,"rental_uris":{"android":"levelo://app?vid=d9cb7650-491e-4958-a9a5-008e530a3647","ios":"levelo://app?vid=d9cb7650-491e-4958-a9a5-008e530a3647"},"vehicle_type_id":"4","last_reported":1741964971,"current_range_meters":17200,"station_id":"ce4bhah2rcd13ifvqej0","pricing_plan_id":"cebpf4jnsgd1na2vs0mg"},{"bike_id":"6528949f-81a3-41ad-a3bf-0ac6d373bce6","system_id":"levelo_inurba_marseille","lat":43.31494,"lon":5.37542,"is_reserved":false,"is_disabled":false,"rental_uris":{"android":"levelo://app?vid=6528949f-81a3-41ad-a3bf-0ac6d373bce6","ios":"levelo://app?vid=6528949f-81a3-41ad-a3bf-0ac6d373bce6"},"vehicle_type_id":"4","last_reported":1741964971,"current_range_meters":17600,"station_id":"","pricing_plan_id":"cebpf4jnsgd1na2vs0mg"},{"bike_id":"c9fcf6ca-eb9a-4745-ae75-0839938c01aa","system_id":"levelo_inurba_marseille","lat":43.23958,"lon":5.36634,"is_reserved":false,"is_disabled":false,"rental_uris":{"android":"levelo://app?vid=c9fcf6ca-eb9a-4745-ae75-0839938c01aa","ios":"levelo://app?vid=c9fcf6ca-eb9a-4745-ae75-0839938c01aa"},"vehicle_type_id":"4","last_reported":1741964971,"current_range_meters":17600,"station_id":"ce4bhi12rcd13ifvqfp0","pricing_plan_id":"cebpf4jnsgd1na2vs0mg"},{"bike_id":"036dd0a3-41d9-4705-a6e4-2b6c394a0c70","system_id":"levelo_inurba_marseille","lat":43.33619,"lon":5.41055,"is_reserved":false,"is_disabled":false,"rental_uris":{"android":"levelo://app?vid=036dd0a3-41d9-4705-a6e4-2b6c394a0c70","ios":"levelo://app?vid=036dd0a3-41d9-4705-a6e4-2b6c394a0c70"},"vehicle_type_id":"4","last_reported":1741964971,"current_range_meters":17600,"station_id":"ce4bhqh2rcd13ifvqhmg","pricing_plan_id":"cebpf4jnsgd1na2vs0mg"},{"bike_id":"facd0111-f58f-4e0c-9760-5482ea77fd91","system_id":"levelo_inurba_marseille","lat":43.26799,"lon":5.40267,"is_reserved":false,"is_disabled":false,"rental_uris":{"android":"levelo://app?vid=facd0111-f58f-4e0c-9760-5482ea77fd91","ios":"levelo://app?vid=facd0111-f58f-4e0c-9760-5482ea77fd91"},"vehicle_type_id":"4","last_reported":1741964971,"current_range_meters":17600,"station_id":"ce501612rcd8frsf0b60","pricing_plan_id":"cebpf4jnsgd1na2vs0mg"},{"bike_id":"35170032-9fbd-466b-b080-21388ed7720a","system_id":"levelo_inurba_marseille","lat":43.25087,"lon":5.3952,"is_reserved":false,"is_disabled":false,"rental_uris":{"android":"levelo://app?vid=35170032-9fbd-466b-b080-21388ed7720a","ios":"levelo://app?vid=35170032-9fbd-466b-b080-21388ed7720a"},"vehicle_type_id":"4","last_reported":1741964971,"current_range_meters":18000,"station_id":"ce4bhm12rcd13ifvqgkg","pricing_plan_id":"cebpf4jnsgd1na2vs0mg"},{"bike_id":"83d4b479-f47e-443b-a89a-5c0e1354c90b","system_id":"levelo_inurba_marseille","lat":43.2927,"lon":5.38446,"is_reserved":false,"is_disabled":false,"rental_uris":{"android":"levelo://app?vid=83d4b479-f47e-443b-a89a-5c0e1354c90b","ios":"levelo://app?vid=83d4b479-f47e-443b-a89a-5c0e1354c90b"},"vehicle_type_id":"4","last_reported":1741964971,"current_range_meters":18000,"station_id":"ce4bh692rcd13ifvqea0","pricing_plan_id":"cebpf4jnsgd1na2vs0mg"},{"bike_id":"dcf42fcb-51d3-452c-b7db-ca4aa6edc4ad","system_id":"levelo_inurba_marseille","lat":43.2926,"lon":5.38445,"is_reserved":false,"is_disabled":false,"rental_uris":{"android":"levelo://app?vid=dcf42fcb-51d3-452c-b7db-ca4aa6edc4ad","ios":"levelo://app?vid=dcf42fcb-51d3-452c-b7db-ca4aa6edc4ad"},"vehicle_type_id":"4","last_reported":1741964971,"current_range_meters":18000,"station_id":"ce4bh692rcd13ifvqea0","pricing_plan_id":"cebpf4jnsgd1na2vs0mg"},{"bike_id":"fc071de1-2cc0-488a-a43e-f8037a5a9a49","system_id":"levelo_inurba_marseille","lat":43.23079,"lon":5.35494,"is_reserved":false,"is_disabled":false,"rental_uris":{"android":"levelo://app?vid=fc071de1-2cc0-488a-a43e-f8037a5a9a49","ios":"levelo://app?vid=fc071de1-2cc0-488a-a43e-f8037a5a9a49"},"vehicle_type_id":"4","last_reported":1741964971,"current_range_meters":18000,"station_id":"cpo3342slgdg3j2ifvpg","pricing_plan_id":"cebpf4jnsgd1na2vs0mg"},{"bike_id":"d751a31e-a518-44cc-8641-315d036d1e06","system_id":"levelo_inurba_marseille","lat":43.2988,"lon":5.39743,"is_reserved":false,"is_disabled":true,"rental_uris":{"android":"levelo://app?vid=d751a31e-a518-44cc-8641-315d036d1e06","ios":"levelo://app?vid=d751a31e-a518-44cc-8641-315d036d1e06"},"vehicle_type_id":"4","last_reported":1741964971,"current_range_meters":18000,"station_id":"ce4bh0h2rcd13ifvqd50","pricing_plan_id":"cebpf4jnsgd1na2vs0mg"},{"bike_id":"287f2444-c106-4909-91c8-54e340ef2d98","system_id":"levelo_inurba_marseille","lat":43.25724,"lon":5.41108,"is_reserved":false,"is_disabled":false,"rental_uris":{"android":"levelo://app?vid=287f2444-c106-4909-91c8-54e340ef2d98","ios":"levelo://app?vid=287f2444-c106-4909-91c8-54e340ef2d98"},"vehicle_type_id":"4","last_reported":1741964971,"current_range_meters":18000,"station_id":"ce4bhkp2rcd13ifvqgd0","pricing_plan_id":"cebpf4jnsgd1na2vs0mg"},{"bike_id":"51075c7d-27ce-490b-804b-534db5319712","system_id":"levelo_inurba_marseille","lat":43.29038,"lon":5.36929,"is_reserved":false,"is_disabled":false,"rental_uris":{"android":"levelo://app?vid=51075c7d-27ce-490b-804b-534db5319712","ios":"levelo://app?vid=51075c7d-27ce-490b-804b-534db5319712"},"vehicle_type_id":"4","last_reported":1741964971,"current_range_meters":18000,"station_id":"ce4bgjp2rcd13ifvqbh0","pricing_plan_id":"cebpf4jnsgd1na2vs0mg"},{"bike_id":"79eb3517-f8ff-47bb-aac6-632292c8fab4","system_id":"levelo_inurba_marseille","lat":43.30137,"lon":5.3743,"is_reserved":false,"is_disabled":false,"rental_uris":{"android":"levelo://app?vid=79eb3517-f8ff-47bb-aac6-632292c8fab4","ios":"levelo://app?vid=79eb3517-f8ff-47bb-aac6-632292c8fab4"},"vehicle_type_id":"4","last_reported":1741964971,"current_range_meters":18000,"station_id":"ce4bgs92rcd13ifvqcc0","pricing_plan_id":"cebpf4jnsgd1na2vs0mg"},{"bike_id":"e1bc5517-89cc-4fbd-afdb-e8d3c61b8e55","system_id":"levelo_inurba_marseille","lat":43.32355,"lon":5.36757,"is_reserved":false,"is_disabled":false,"rental_uris":{"android":"levelo://app?vid=e1bc5517-89cc-4fbd-afdb-e8d3c61b8e55","ios":"levelo://app?vid=e1bc5517-89cc-4fbd-afdb-e8d3c61b8e55"},"vehicle_type_id":"4","last_reported":1741964971,"current_range_meters":18000,"station_id":"ce4bhsh2rcd13ifvqi2g","pricing_plan_id":"cebpf4jnsgd1na2vs0mg"},{"bike_id":"70fc4a2e-ce78-498d-85cb-db3ea2b71833","system_id":"levelo_inurba_marseille","lat":43.31079,"lon":5.38357,"is_reserved":false,"is_disabled":false,"rental_uris":{"android":"levelo://app?vid=70fc4a2e-ce78-498d-85cb-db3ea2b71833","ios":"levelo://app?vid=70fc4a2e-ce78-498d-85cb-db3ea2b71833"},"vehicle_type_id":"4","last_reported":1741964971,"current_range_meters":18000,"station_id":"ce4bgv92rcd13ifvqcr0","pricing_plan_id":"cebpf4jnsgd1na2vs0mg"},{"bike_id":"dfa5ffb0-2592-4eeb-a336-71e60318d065","system_id":"levelo_inurba_marseille","lat":43.29612,"lon":5.37736,"is_reserved":false,"is_disabled":false,"rental_uris":{"android":"levelo://app?vid=dfa5ffb0-2592-4eeb-a336-71e60318d065","ios":"levelo://app?vid=dfa5ffb0-2592-4eeb-a336-71e60318d065"},"vehicle_type_id":"4","last_reported":1741964971,"current_range_meters":18000,"station_id":"ce4bgi92rcd13ifvqb90","pricing_plan_id":"cebpf4jnsgd1na2vs0mg"},{"bike_id":"7c88e5e6-ab2c-4474-b03d-17818151ba41","system_id":"levelo_inurba_marseille","lat":43.27194,"lon":5.39158,"is_reserved":false,"is_disabled":false,"rental_uris":{"android":"levelo://app?vid=7c88e5e6-ab2c-4474-b03d-17818151ba41","ios":"levelo://app?vid=7c88e5e6-ab2c-4474-b03d-17818151ba41"},"vehicle_type_id":"4","last_reported":1741964971,"current_range_meters":18000,"station_id":"ce4bhhp2rcd13ifvqfm0","pricing_plan_id":"cebpf4jnsgd1na2vs0mg"},{"bike_id":"3a89315b-62de-4a2c-a0ba-c40dd86a913d","system_id":"levelo_inurba_marseille","lat":43.2706,"lon":5.40267,"is_reserved":false,"is_disabled":false,"rental_uris":{"android":"levelo://app?vid=3a89315b-62de-4a2c-a0ba-c40dd86a913d","ios":"levelo://app?vid=3a89315b-62de-4a2c-a0ba-c40dd86a913d"},"vehicle_type_id":"4","last_reported":1741964971,"current_range_meters":18000,"station_id":"ce4bhk92rcd13ifvqgc0","pricing_plan_id":"cebpf4jnsgd1na2vs0mg"},{"bike_id":"05382370-5578-4d0a-94fd-cedafa967f5e","system_id":"levelo_inurba_marseille","lat":43.29615,"lon":5.3718,"is_reserved":false,"is_disabled":false,"rental_uris":{"android":"levelo://app?vid=05382370-5578-4d0a-94fd-cedafa967f5e","ios":"levelo://app?vid=05382370-5578-4d0a-94fd-cedafa967f5e"},"vehicle_type_id":"4","last_reported":1741964971,"current_range_meters":18800,"station_id":"ce4bgnh2rcd13ifvqc0g","pricing_plan_id":"cebpf4jnsgd1na2vs0mg"},{"bike_id":"71b342b8-694b-40d5-99e8-310baf77a970","system_id":"levelo_inurba_marseille","lat":43.23075,"lon":5.35487,"is_reserved":false,"is_disabled":false,"rental_uris":{"android":"levelo://app?vid=71b342b8-694b-40d5-99e8-310baf77a970","ios":"levelo://app?vid=71b342b8-694b-40d5-99e8-310baf77a970"},"vehicle_type_id":"4","last_reported":1741964971,"current_range_meters":18800,"station_id":"cpo3342slgdg3j2ifvpg","pricing_plan_id":"cebpf4jnsgd1na2vs0mg"},{"bike_id":"90c707aa-0edc-4e94-a911-252e6bd4d4c2","system_id":"levelo_inurba_marseille","lat":43.28625,"lon":5.35097,"is_reserved":false,"is_disabled":false,"rental_uris":{"android":"levelo://app?vid=90c707aa-0edc-4e94-a911-252e6bd4d4c2","ios":"levelo://app?vid=90c707aa-0edc-4e94-a911-252e6bd4d4c2"},"vehicle_type_id":"4","last_reported":1741964971,"current_range_meters":18800,"station_id":"ce4bhch2rcd13ifvqeug","pricing_plan_id":"cebpf4jnsgd1na2vs0mg"},{"bike_id":"6580dd12-0fa5-4863-828b-b7b45eb7eca2","system_id":"levelo_inurba_marseille","lat":43.31075,"lon":5.38362,"is_reserved":false,"is_disabled":false,"rental_uris":{"android":"levelo://app?vid=6580dd12-0fa5-4863-828b-b7b45eb7eca2","ios":"levelo://app?vid=6580dd12-0fa5-4863-828b-b7b45eb7eca2"},"vehicle_type_id":"4","last_reported":1741964971,"current_range_meters":18800,"station_id":"ce4bgv92rcd13ifvqcr0","pricing_plan_id":"cebpf4jnsgd1na2vs0mg"},{"bike_id":"a4f2e058-dd7d-4531-8f36-d7cc8d3862b3","system_id":"levelo_inurba_marseille","lat":43.278343,"lon":5.391996,"is_reserved":false,"is_disabled":false,"rental_uris":{"android":"levelo://app?vid=a4f2e058-dd7d-4531-8f36-d7cc8d3862b3","ios":"levelo://app?vid=a4f2e058-dd7d-4531-8f36-d7cc8d3862b3"},"vehicle_type_id":"4","last_reported":1741964971,"current_range_meters":18800,"station_id":"ce4bh692rcd13ifvqe90","pricing_plan_id":"cebpf4jnsgd1na2vs0mg"},{"bike_id":"13631438-5c77-460f-bad8-02d30380847c","system_id":"levelo_inurba_marseille","lat":43.2407,"lon":5.37766,"is_reserved":false,"is_disabled":false,"rental_uris":{"android":"levelo://app?vid=13631438-5c77-460f-bad8-02d30380847c","ios":"levelo://app?vid=13631438-5c77-460f-bad8-02d30380847c"},"vehicle_type_id":"4","last_reported":1741964971,"current_range_meters":18800,"station_id":"ce4bhnp2rcd13ifvqgvg","pricing_plan_id":"cebpf4jnsgd1na2vs0mg"},{"bike_id":"cf074f65-a36e-4f38-b1b9-78bc16980a0d","system_id":"levelo_inurba_marseille","lat":43.27941,"lon":5.41051,"is_reserved":false,"is_disabled":false,"rental_uris":{"android":"levelo://app?vid=cf074f65-a36e-4f38-b1b9-78bc16980a0d","ios":"levelo://app?vid=cf074f65-a36e-4f38-b1b9-78bc16980a0d"},"vehicle_type_id":"4","last_reported":1741964971,"current_range_meters":18800,"station_id":"ce4bhnp2rcd13ifvqh0g","pricing_plan_id":"cebpf4jnsgd1na2vs0mg"},{"bike_id":"0176af73-410c-49e1-8018-cd4ffb925c75","system_id":"levelo_inurba_marseille","lat":43.299,"lon":5.43677,"is_reserved":false,"is_disabled":false,"rental_uris":{"android":"levelo://app?vid=0176af73-410c-49e1-8018-cd4ffb925c75","ios":"levelo://app?vid=0176af73-410c-49e1-8018-cd4ffb925c75"},"vehicle_type_id":"4","last_reported":1741964971,"current_range_meters":18800,"station_id":"ce4bhpp2rcd13ifvqhfg","pricing_plan_id":"cebpf4jnsgd1na2vs0mg"},{"bike_id":"72977fa7-7343-4cff-8728-965991106263","system_id":"levelo_inurba_marseille","lat":43.29628,"lon":5.37154,"is_reserved":false,"is_disabled":false,"rental_uris":{"android":"levelo://app?vid=72977fa7-7343-4cff-8728-965991106263","ios":"levelo://app?vid=72977fa7-7343-4cff-8728-965991106263"},"vehicle_type_id":"4","last_reported":1741964971,"current_range_meters":18800,"station_id":"ce4bgnh2rcd13ifvqc0g","pricing_plan_id":"cebpf4jnsgd1na2vs0mg"},{"bike_id":"78ba85a3-6fb9-4cd4-b0a1-e2faa2fc41ce","system_id":"levelo_inurba_marseille","lat":43.25009,"lon":5.38933,"is_reserved":false,"is_disabled":false,"rental_uris":{"android":"levelo://app?vid=78ba85a3-6fb9-4cd4-b0a1-e2faa2fc41ce","ios":"levelo://app?vid=78ba85a3-6fb9-4cd4-b0a1-e2faa2fc41ce"},"vehicle_type_id":"4","last_reported":1741964971,"current_range_meters":18800,"station_id":"ce4bhgp2rcd13ifvqfd0","pricing_plan_id":"cebpf4jnsgd1na2vs0mg"},{"bike_id":"4f88f8d3-52a8-4398-8451-da646558ef04","system_id":"levelo_inurba_marseille","lat":43.30142,"lon":5.37418,"is_reserved":false,"is_disabled":false,"rental_uris":{"android":"levelo://app?vid=4f88f8d3-52a8-4398-8451-da646558ef04","ios":"levelo://app?vid=4f88f8d3-52a8-4398-8451-da646558ef04"},"vehicle_type_id":"4","last_reported":1741964971,"current_range_meters":18800,"station_id":"ce4bgs92rcd13ifvqcc0","pricing_plan_id":"cebpf4jnsgd1na2vs0mg"},{"bike_id":"395136b3-e3fb-47b3-8e87-ed628b5ec438","system_id":"levelo_inurba_marseille","lat":43.24386,"lon":5.37047,"is_reserved":false,"is_disabled":false,"rental_uris":{"android":"levelo://app?vid=395136b3-e3fb-47b3-8e87-ed628b5ec438","ios":"levelo://app?vid=395136b3-e3fb-47b3-8e87-ed628b5ec438"},"vehicle_type_id":"4","last_reported":1741964971,"current_range_meters":18800,"station_id":"ce4bhhh2rcd13ifvqfk0","pricing_plan_id":"cebpf4jnsgd1na2vs0mg"},{"bike_id":"9da37667-2a3e-43ef-848e-d55ddbc42b81","system_id":"levelo_inurba_marseille","lat":43.29882,"lon":5.39739,"is_reserved":false,"is_disabled":false,"rental_uris":{"android":"levelo://app?vid=9da37667-2a3e-43ef-848e-d55ddbc42b81","ios":"levelo://app?vid=9da37667-2a3e-43ef-848e-d55ddbc42b81"},"vehicle_type_id":"4","last_reported":1741964971,"current_range_meters":18800,"station_id":"ce4bh0h2rcd13ifvqd50","pricing_plan_id":"cebpf4jnsgd1na2vs0mg"},{"bike_id":"be34e346-6cd0-49dc-bc60-f4bbfdaefa50","system_id":"levelo_inurba_marseille","lat":43.27982,"lon":5.39612,"is_reserved":false,"is_disabled":false,"rental_uris":{"android":"levelo://app?vid=be34e346-6cd0-49dc-bc60-f4bbfdaefa50","ios":"levelo://app?vid=be34e346-6cd0-49dc-bc60-f4bbfdaefa50"},"vehicle_type_id":"4","last_reported":1741964971,"current_range_meters":18800,"station_id":"","pricing_plan_id":"cebpf4jnsgd1na2vs0mg"},{"bike_id":"90dcec24-dde0-4456-a503-25938a622c19","system_id":"levelo_inurba_marseille","lat":43.28724,"lon":5.37952,"is_reserved":false,"is_disabled":false,"rental_uris":{"android":"levelo://app?vid=90dcec24-dde0-4456-a503-25938a622c19","ios":"levelo://app?vid=90dcec24-dde0-4456-a503-25938a622c19"},"vehicle_type_id":"4","last_reported":1741964971,"current_range_meters":18800,"station_id":"ce4bh9p2rcd13ifvqec0","pricing_plan_id":"cebpf4jnsgd1na2vs0mg"},{"bike_id":"538cf22a-9e32-4b58-bbb6-037ac3526cd8","system_id":"levelo_inurba_marseille","lat":43.29574,"lon":5.37513,"is_reserved":false,"is_disabled":false,"rental_uris":{"android":"levelo://app?vid=538cf22a-9e32-4b58-bbb6-037ac3526cd8","ios":"levelo://app?vid=538cf22a-9e32-4b58-bbb6-037ac3526cd8"},"vehicle_type_id":"4","last_reported":1741964971,"current_range_meters":18800,"station_id":"ce4bgh92rcd13ifvqb50","pricing_plan_id":"cebpf4jnsgd1na2vs0mg"},{"bike_id":"b37a60ed-4b5f-4ddb-9355-5674bc4b1491","system_id":"levelo_inurba_marseille","lat":43.28702,"lon":5.39981,"is_reserved":false,"is_disabled":false,"rental_uris":{"android":"levelo://app?vid=b37a60ed-4b5f-4ddb-9355-5674bc4b1491","ios":"levelo://app?vid=b37a60ed-4b5f-4ddb-9355-5674bc4b1491"},"vehicle_type_id":"4","last_reported":1741964971,"current_range_meters":18800,"station_id":"ce4bho92rcd13ifvqh3g","pricing_plan_id":"cebpf4jnsgd1na2vs0mg"},{"bike_id":"c0e185b0-e289-4274-ac1f-4091eeb32a60","system_id":"levelo_inurba_marseille","lat":43.30931,"lon":5.40149,"is_reserved":false,"is_disabled":false,"rental_uris":{"android":"levelo://app?vid=c0e185b0-e289-4274-ac1f-4091eeb32a60","ios":"levelo://app?vid=c0e185b0-e289-4274-ac1f-4091eeb32a60"},"vehicle_type_id":"4","last_reported":1741964971,"current_range_meters":19200,"station_id":"ce4bgvp2rcd13ifvqct0","pricing_plan_id":"cebpf4jnsgd1na2vs0mg"},{"bike_id":"a5028821-6a81-4bbb-94ca-b7ac127e2028","system_id":"levelo_inurba_marseille","lat":43.28609,"lon":5.37067,"is_reserved":false,"is_disabled":false,"rental_uris":{"android":"levelo://app?vid=a5028821-6a81-4bbb-94ca-b7ac127e2028","ios":"levelo://app?vid=a5028821-6a81-4bbb-94ca-b7ac127e2028"},"vehicle_type_id":"4","last_reported":1741964971,"current_range_meters":19200,"station_id":"ce4bht12rcd13ifvqi60","pricing_plan_id":"cebpf4jnsgd1na2vs0mg"},{"bike_id":"1bd604d4-07ef-4f53-8850-3220ccf56a96","system_id":"levelo_inurba_marseille","lat":43.31369,"lon":5.36757,"is_reserved":false,"is_disabled":false,"rental_uris":{"android":"levelo://app?vid=1bd604d4-07ef-4f53-8850-3220ccf56a96","ios":"levelo://app?vid=1bd604d4-07ef-4f53-8850-3220ccf56a96"},"vehicle_type_id":"4","last_reported":1741964971,"current_range_meters":19200,"station_id":"ce4bgr92rcd13ifvqc6g","pricing_plan_id":"cebpf4jnsgd1na2vs0mg"},{"bike_id":"1c750f7f-5287-4913-81c2-6c58a6eac373","system_id":"levelo_inurba_marseille","lat":43.28929,"lon":5.36646,"is_reserved":false,"is_disabled":false,"rental_uris":{"android":"levelo://app?vid=1c750f7f-5287-4913-81c2-6c58a6eac373","ios":"levelo://app?vid=1c750f7f-5287-4913-81c2-6c58a6eac373"},"vehicle_type_id":"4","last_reported":1741964971,"current_range_meters":19200,"station_id":"ce4bhap2rcd13ifvqek0","pricing_plan_id":"cebpf4jnsgd1na2vs0mg"},{"bike_id":"14c06552-2844-40f8-963d-3dedffcab250","system_id":"levelo_inurba_marseille","lat":43.2964,"lon":5.37169,"is_reserved":false,"is_disabled":false,"rental_uris":{"android":"levelo://app?vid=14c06552-2844-40f8-963d-3dedffcab250","ios":"levelo://app?vid=14c06552-2844-40f8-963d-3dedffcab250"},"vehicle_type_id":"4","last_reported":1741964971,"current_range_meters":19200,"station_id":"ce4bgnh2rcd13ifvqc0g","pricing_plan_id":"cebpf4jnsgd1na2vs0mg"},{"bike_id":"f238c0df-d3c9-4577-a186-a5d3f05e229a","system_id":"levelo_inurba_marseille","lat":43.25836,"lon":5.39445,"is_reserved":false,"is_disabled":false,"rental_uris":{"android":"levelo://app?vid=f238c0df-d3c9-4577-a186-a5d3f05e229a","ios":"levelo://app?vid=f238c0df-d3c9-4577-a186-a5d3f05e229a"},"vehicle_type_id":"4","last_reported":1741964971,"current_range_meters":19200,"station_id":"ce4bhip2rcd13ifvqft0","pricing_plan_id":"cebpf4jnsgd1na2vs0mg"},{"bike_id":"08bb6fff-8743-426f-b405-139aead89ccf","system_id":"levelo_inurba_marseille","lat":43.31272,"lon":5.37763,"is_reserved":false,"is_disabled":false,"rental_uris":{"android":"levelo://app?vid=08bb6fff-8743-426f-b405-139aead89ccf","ios":"levelo://app?vid=08bb6fff-8743-426f-b405-139aead89ccf"},"vehicle_type_id":"4","last_reported":1741964971,"current_range_meters":19200,"station_id":"","pricing_plan_id":"cebpf4jnsgd1na2vs0mg"},{"bike_id":"8b8961c2-d7f2-4c87-a406-386479dfddbb","system_id":"levelo_inurba_marseille","lat":43.33008,"lon":5.39075,"is_reserved":false,"is_disabled":false,"rental_uris":{"android":"levelo://app?vid=8b8961c2-d7f2-4c87-a406-386479dfddbb","ios":"levelo://app?vid=8b8961c2-d7f2-4c87-a406-386479dfddbb"},"vehicle_type_id":"4","last_reported":1741964971,"current_range_meters":19200,"station_id":"ce4bhr92rcd13ifvqhrg","pricing_plan_id":"cebpf4jnsgd1na2vs0mg"},{"bike_id":"d20b1ea1-68d8-4d84-b2b2-7af425a1c02d","system_id":"levelo_inurba_marseille","lat":43.269424,"lon":5.402586,"is_reserved":false,"is_disabled":false,"rental_uris":{"android":"levelo://app?vid=d20b1ea1-68d8-4d84-b2b2-7af425a1c02d","ios":"levelo://app?vid=d20b1ea1-68d8-4d84-b2b2-7af425a1c02d"},"vehicle_type_id":"4","last_reported":1741964971,"current_range_meters":19200,"station_id":"cjm6bp8fraef2m0cb0m0","pricing_plan_id":"cebpf4jnsgd1na2vs0mg"},{"bike_id":"78df367a-4264-4241-a94f-f890135b7404","system_id":"levelo_inurba_marseille","lat":43.33615,"lon":5.41031,"is_reserved":false,"is_disabled":false,"rental_uris":{"android":"levelo://app?vid=78df367a-4264-4241-a94f-f890135b7404","ios":"levelo://app?vid=78df367a-4264-4241-a94f-f890135b7404"},