{"last_updated":1698419204,"ttl":30,"version":"2.2","data":{"bikes":[{"bike_id":"cf951168-8bd2-4cf2-8d08-0f7e90c346d0","system_id":"levelo_inurba_marseille","lat":43.31241,"lon":5.36875,"is_reserved":false,"is_disabled":false,"rental_uris":{"android":"levelo://app?vid=cf951168-8bd2-4cf2-8d08-0f7e90c346d0","ios":"levelo://app?vid=cf951168-8bd2-4cf2-8d08-0f7e90c346d0"},"vehicle_type_id":"4","last_reported":1698419204,"current_range_meters":3600,"station_id":"ce4bgl92rcd13ifvqbq0","pricing_plan_id":"free"},{"bike_id":"dbbdea51-7e3d-4271-bd96-c3aabecbd7e2","system_id":"levelo_inurba_marseille","lat":43.315783,"lon":5.372523,"is_reserved":false,"is_disabled":false,"rental_uris":{"android":"levelo://app?vid=dbbdea51-7e3d-4271-bd96-c3aabecbd7e2","ios":"levelo://app?vid=dbbdea51-7e3d-4271-bd96-c3aabecbd7e2"},"vehicle_type_id":"4","last_reported":1698419204,"current_range_meters":11600,"station_id":"","pricing_plan_id":"free"},{"bike_id":"32679260-2831-4b03-b28a-7bced04750f1","system_id":"levelo_inurba_marseille","lat":43.309039,"lon":5.371797,"is_reserved":false,"is_disabled":false,"rental_uris":{"android":"levelo://app?vid=32679260-2831-4b03-b28a-7bced04750f1","ios":"levelo://app?vid=32679260-2831-4b03-b28a-7bced04750f1"},"vehicle_type_id":"4","last_reported":1698419204,"current_range_meters":4000,"station_id":"ce4bguh2rcd13ifvqckg","pricing_plan_id":"free"},{"bike_id":"a9df170e-15f1-4f90-9f99-573f7ac3bc34","system_id":"levelo_inurba_marseille","lat":43.309039,"lon":5.371797,"is_reserved":false,"is_disabled":false,"rental_uris":{"android":"levelo://app?vid=a9df170e-15f1-4f90-9f99-573f7ac3bc34","ios":"levelo://app?vid=a9df170e-15f1-4f90-9f99-573f7ac3bc34"},"vehicle_type_id":"4","last_reported":1698419204,"current_range_meters":16000,"station_id":"ce4bguh2rcd13ifvqckg","pricing_plan_id":"free"},{"bike_id":"8829e7e0-1c46-4412-b00d-f24185acd4a7","system_id":"levelo_inurba_marseille","lat":43.309039,"lon":5.371797,"is_reserved":false,"is_disabled":false,"rental_uris":{"android":"levelo://app?vid=8829e7e0-1c46-4412-b00d-f24185acd4a7","ios":"levelo://app?vid=8829e7e0-1c46-4412-b00d-f24185acd4a7"},"vehicle_type_id":"4","last_reported":1698419204,"current_range_meters":0,"station_id":"ce4bguh2rcd13ifvqckg","pricing_plan_id":"free"},{"bike_id":"0fae9ab3-c53a-4a59-b47c-f3b2810c7272","system_id":"levelo_inurba_marseille","lat":43.30545,"lon":5.36527,"is_reserved":false,"is_disabled":false,"rental_uris":{"android":"levelo://app?vid=0fae9ab3-c53a-4a59-b47c-f3b2810c7272","ios":"levelo://app?vid=0fae9ab3-c53a-4a59-b47c-f3b2810c7272"},"vehicle_type_id":"4","last_reported":1698419204,"current_range_meters":0,"station_id":"ce4bgs12rcd13ifvqcag","pricing_plan_id":"free"},{"bike_id":"72b65ce6-b541-4f93-a2fe-abc8c452a1d0","system_id":"levelo_inurba_marseille","lat":43.305368,"lon":5.367343,"is_reserved":false,"is_disabled":false,"rental_uris":{"android":"levelo://app?vid=72b65ce6-b541-4f93-a2fe-abc8c452a1d0","ios":"levelo://app?vid=72b65ce6-b541-4f93-a2fe-abc8c452a1d0"},"vehicle_type_id":"4","last_reported":1698419204,"current_range_meters":19600,"station_id":"ce4bgrp2rcd13ifvqc9g","pricing_plan_id":"free"},{"bike_id":"f252b071-dddd-4e5f-ad07-506846af6d1a","system_id":"levelo_inurba_marseille","lat":43.30537,"lon":5.36527,"is_reserved":false,"is_disabled":false,"rental_uris":{"android":"levelo://app?vid=f252b071-dddd-4e5f-ad07-506846af6d1a","ios":"levelo://app?vid=f252b071-dddd-4e5f-ad07-506846af6d1a"},"vehicle_type_id":"4","last_reported":1698419204,"current_range_meters":24400,"station_id":"ce4bgs12rcd13ifvqcag","pricing_plan_id":"free"},{"bike_id":"6f790946-1b50-48b4-aef1-5cf5a6fa62e4","system_id":"levelo_inurba_marseille","lat":43.305368,"lon":5.367343,"is_reserved":false,"is_disabled":false,"rental_uris":{"android":"levelo://app?vid=6f790946-1b50-48b4-aef1-5cf5a6fa62e4","ios":"levelo://app?vid=6f790946-1b50-48b4-aef1-5cf5a6fa62e4"},"vehicle_type_id":"4","last_reported":1698419204,"current_range_meters":21600,"station_id":"ce4bgrp2rcd13ifvqc9g","pricing_plan_id":"free"},{"bike_id":"2fe6addf-3f28-4e18-9be7-8e324eee151f","system_id":"levelo_inurba_marseille","lat":43.305653,"lon":5.370353,"is_reserved":false,"is_disabled":false,"rental_uris":{"android":"levelo://app?vid=2fe6addf-3f28-4e18-9be7-8e324eee151f","ios":"levelo://app?vid=2fe6addf-3f28-4e18-9be7-8e324eee151f"},"vehicle_type_id":"4","last_reported":1698419204,"current_range_meters":2800,"station_id":"","pricing_plan_id":"free"},{"bike_id":"858b0454-f600-4bf0-a050-77ffb90eed69","system_id":"levelo_inurba_marseille","lat":43.306086,"lon":5.372141,"is_reserved":false,"is_disabled":false,"rental_uris":{"android":"levelo://app?vid=858b0454-f600-4bf0-a050-77ffb90eed69","ios":"levelo://app?vid=858b0454-f600-4bf0-a050-77ffb90eed69"},"vehicle_type_id":"4","last_reported":1698419204,"current_range_meters":12000,"station_id":"","pricing_plan_id":"free"},{"bike_id":"fd9eb119-7c60-4320-b4c1-5a1d30143bf4","system_id":"levelo_inurba_marseille","lat":43.299724,"lon":5.371829,"is_reserved":false,"is_disabled":false,"rental_uris":{"android":"levelo://app?vid=fd9eb119-7c60-4320-b4c1-5a1d30143bf4","ios":"levelo://app?vid=fd9eb119-7c60-4320-b4c1-5a1d30143bf4"},"vehicle_type_id":"4","last_reported":1698419204,"current_range_meters":22000,"station_id":"ce4bgr92rcd13ifvqc7g","pricing_plan_id":"free"},{"bike_id":"e0f2c637-ead8-469f-bac8-634778de7f40","system_id":"levelo_inurba_marseille","lat":43.307945,"lon":5.376487,"is_reserved":false,"is_disabled":false,"rental_uris":{"android":"levelo://app?vid=e0f2c637-ead8-469f-bac8-634778de7f40","ios":"levelo://app?vid=e0f2c637-ead8-469f-bac8-634778de7f40"},"vehicle_type_id":"4","last_reported":1698419204,"current_range_meters":0,"station_id":"ce4bgv92rcd13ifvqcq0","pricing_plan_id":"free"},{"bike_id":"178f73b5-ddec-4e0f-ae00-6707f77bdb31","system_id":"levelo_inurba_marseille","lat":43.303046,"lon":5.368981,"is_reserved":false,"is_disabled":false,"rental_uris":{"android":"levelo://app?vid=178f73b5-ddec-4e0f-ae00-6707f77bdb31","ios":"levelo://app?vid=178f73b5-ddec-4e0f-ae00-6707f77bdb31"},"vehicle_type_id":"4","last_reported":1698419204,"current_range_meters":28800,"station_id":"ce4bgqh2rcd13ifvqc5g","pricing_plan_id":"free"},{"bike_id":"c484ed22-47aa-49aa-bd49-8a36e126f4b5","system_id":"levelo_inurba_marseille","lat":43.31539,"lon":5.38028,"is_reserved":false,"is_disabled":false,"rental_uris":{"android":"levelo://app?vid=c484ed22-47aa-49aa-bd49-8a36e126f4b5","ios":"levelo://app?vid=c484ed22-47aa-49aa-bd49-8a36e126f4b5"},"vehicle_type_id":"4","last_reported":1698419204,"current_range_meters":16400,"station_id":"ce4bhsp2rcd13ifvqi50","pricing_plan_id":"free"},{"bike_id":"a243c9e7-44a3-409f-bab7-e7dad398c8fb","system_id":"levelo_inurba_marseille","lat":43.301939,"lon":5.366286,"is_reserved":false,"is_disabled":false,"rental_uris":{"android":"levelo://app?vid=a243c9e7-44a3-409f-bab7-e7dad398c8fb","ios":"levelo://app?vid=a243c9e7-44a3-409f-bab7-e7dad398c8fb"},"vehicle_type_id":"4","last_reported":1698419204,"current_range_meters":30800,"station_id":"ce4bgrh2rcd13ifvqc8g","pricing_plan_id":"free"},{"bike_id":"2e90724b-5eed-48c8-ac43-ee14604c59c9","system_id":"levelo_inurba_marseille","lat":43.304606,"lon":5.379026,"is_reserved":false,"is_disabled":false,"rental_uris":{"android":"levelo://app?vid=2e90724b-5eed-48c8-ac43-ee14604c59c9","ios":"levelo://app?vid=2e90724b-5eed-48c8-ac43-ee14604c59c9"},"vehicle_type_id":"4","last_reported":1698419204,"current_range_meters":19600,"station_id":"ce4bgup2rcd13ifvqcn0","pricing_plan_id":"free"},{"bike_id":"33ee12c1-bfff-4ae7-ad6d-77b569898cd1","system_id":"levelo_inurba_marseille","lat":43.324753,"lon":5.365711,"is_reserved":false,"is_disabled":false,"rental_uris":{"android":"levelo://app?vid=33ee12c1-bfff-4ae7-ad6d-77b569898cd1","ios":"levelo://app?vid=33ee12c1-bfff-4ae7-ad6d-77b569898cd1"},"vehicle_type_id":"4","last_reported":1698419204,"current_range_meters":20000,"station_id":"","pricing_plan_id":"free"},{"bike_id":"1047bcc5-10ff-460b-bd6f-eac1d4a67db4","system_id":"levelo_inurba_marseille","lat":43.31745,"lon":5.382537,"is_reserved":false,"is_disabled":false,"rental_uris":{"android":"levelo://app?vid=1047bcc5-10ff-460b-bd6f-eac1d4a67db4","ios":"levelo://app?vid=1047bcc5-10ff-460b-bd6f-eac1d4a67db4"},"vehicle_type_id":"4","last_reported":1698419204,"current_range_meters":0,"station_id":"","pricing_plan_id":"free"},{"bike_id":"c783f2fc-e96e-48ea-baad-e0cafdb38da8","system_id":"levelo_inurba_marseille","lat":43.30143,"lon":5.37413,"is_reserved":false,"is_disabled":false,"rental_uris":{"android":"levelo://app?vid=c783f2fc-e96e-48ea-baad-e0cafdb38da8","ios":"levelo://app?vid=c783f2fc-e96e-48ea-baad-e0cafdb38da8"},"vehicle_type_id":"4","last_reported":1698419204,"current_range_meters":30400,"station_id":"ce4bgs92rcd13ifvqcc0","pricing_plan_id":"free"},{"bike_id":"9f7840ff-fe92-4d4f-be1e-4ac96e6e57d0","system_id":"levelo_inurba_marseille","lat":43.299405,"lon":5.365523,"is_reserved":false,"is_disabled":false,"rental_uris":{"android":"levelo://app?vid=9f7840ff-fe92-4d4f-be1e-4ac96e6e57d0","ios":"levelo://app?vid=9f7840ff-fe92-4d4f-be1e-4ac96e6e57d0"},"vehicle_type_id":"4","last_reported":1698419204,"current_range_meters":24000,"station_id":"ce4bhbp2rcd13ifvqerg","pricing_plan_id":"free"},{"bike_id":"9cf3549c-22f4-44f4-8725-1e09ced7a5de","system_id":"levelo_inurba_marseille","lat":43.29931,"lon":5.36551,"is_reserved":false,"is_disabled":false,"rental_uris":{"android":"levelo://app?vid=9cf3549c-22f4-44f4-8725-1e09ced7a5de","ios":"levelo://app?vid=9cf3549c-22f4-44f4-8725-1e09ced7a5de"},"vehicle_type_id":"4","last_reported":1698419204,"current_range_meters":31200,"station_id":"ce4bgm92rcd13ifvqbr0","pricing_plan_id":"free"},{"bike_id":"97997ef7-b347-4148-ba57-9a15ecc4912d","system_id":"levelo_inurba_marseille","lat":43.320945,"lon":5.38306,"is_reserved":false,"is_disabled":false,"rental_uris":{"android":"levelo://app?vid=97997ef7-b347-4148-ba57-9a15ecc4912d","ios":"levelo://app?vid=97997ef7-b347-4148-ba57-9a15ecc4912d"},"vehicle_type_id":"4","last_reported":1698419204,"current_range_meters":0,"station_id":"","pricing_plan_id":"free"},{"bike_id":"cbe83954-e150-479c-ac48-05cb4c882685","system_id":"levelo_inurba_marseille","lat":43.29856,"lon":5.36282,"is_reserved":false,"is_disabled":false,"rental_uris":{"android":"levelo://app?vid=cbe83954-e150-479c-ac48-05cb4c882685","ios":"levelo://app?vid=cbe83954-e150-479c-ac48-05cb4c882685"},"vehicle_type_id":"4","last_reported":1698419204,"current_range_meters":31200,"station_id":"ce4bgpp2rcd13ifvqc3g","pricing_plan_id":"free"},{"bike_id":"f778a122-c683-426e-98e7-8d791aeda501","system_id":"levelo_inurba_marseille","lat":43.298543,"lon":5.362832,"is_reserved":false,"is_disabled":false,"rental_uris":{"android":"levelo://app?vid=f778a122-c683-426e-98e7-8d791aeda501","ios":"levelo://app?vid=f778a122-c683-426e-98e7-8d791aeda501"},"vehicle_type_id":"4","last_reported":1698419204,"current_range_meters":31200,"station_id":"ce4bgpp2rcd13ifvqc3g","pricing_plan_id":"free"},{"bike_id":"9af32a99-f776-494a-b774-6c430dfaefd6","system_id":"levelo_inurba_marseille","lat":43.298433,"lon":5.362774,"is_reserved":false,"is_disabled":false,"rental_uris":{"android":"levelo://app?vid=9af32a99-f776-494a-b774-6c430dfaefd6","ios":"levelo://app?vid=9af32a99-f776-494a-b774-6c430dfaefd6"},"vehicle_type_id":"4","last_reported":1698419204,"current_range_meters":25200,"station_id":"ce4bgpp2rcd13ifvqc3g","pricing_plan_id":"free"},{"bike_id":"8a37710e-b73f-439d-8ccd-cfc0718e2b9a","system_id":"levelo_inurba_marseille","lat":43.29852,"lon":5.36289,"is_reserved":false,"is_disabled":false,"rental_uris":{"android":"levelo://app?vid=8a37710e-b73f-439d-8ccd-cfc0718e2b9a","ios":"levelo://app?vid=8a37710e-b73f-439d-8ccd-cfc0718e2b9a"},"vehicle_type_id":"4","last_reported":1698419204,"current_range_meters":6000,"station_id":"ce4bgpp2rcd13ifvqc3g","pricing_plan_id":"free"},{"bike_id":"8f1e4a18-18f4-4166-9095-ae1d8b4245cf","system_id":"levelo_inurba_marseille","lat":43.29852,"lon":5.36288,"is_reserved":false,"is_disabled":false,"rental_uris":{"android":"levelo://app?vid=8f1e4a18-18f4-4166-9095-ae1d8b4245cf","ios":"levelo://app?vid=8f1e4a18-18f4-4166-9095-ae1d8b4245cf"},"vehicle_type_id":"4","last_reported":1698419204,"current_range_meters":19600,"station_id":"ce4bgpp2rcd13ifvqc3g","pricing_plan_id":"free"},{"bike_id":"c45610ee-7528-41f7-9121-69cc6fcea219","system_id":"levelo_inurba_marseille","lat":43.2985,"lon":5.36288,"is_reserved":false,"is_disabled":false,"rental_uris":{"android":"levelo://app?vid=c45610ee-7528-41f7-9121-69cc6fcea219","ios":"levelo://app?vid=c45610ee-7528-41f7-9121-69cc6fcea219"},"vehicle_type_id":"4","last_reported":1698419204,"current_range_meters":31200,"station_id":"ce4bgpp2rcd13ifvqc3g","pricing_plan_id":"free"},{"bike_id":"43226fd7-4432-4d71-9cea-37130c457c73","system_id":"levelo_inurba_marseille","lat":43.298433,"lon":5.362774,"is_reserved":false,"is_disabled":false,"rental_uris":{"android":"levelo://app?vid=43226fd7-4432-4d71-9cea-37130c457c73","ios":"levelo://app?vid=43226fd7-4432-4d71-9cea-37130c457c73"},"vehicle_type_id":"4","last_reported":1698419204,"current_range_meters":31200,"station_id":"ce4bgpp2rcd13ifvqc3g","pricing_plan_id":"free"},{"bike_id":"ebf72b35-39ec-4e20-aba9-67adc27b8ead","system_id":"levelo_inurba_marseille","lat":43.298433,"lon":5.362774,"is_reserved":false,"is_disabled":false,"rental_uris":{"android":"levelo://app?vid=ebf72b35-39ec-4e20-aba9-67adc27b8ead","ios":"levelo://app?vid=ebf72b35-39ec-4e20-aba9-67adc27b8ead"},"vehicle_type_id":"4","last_reported":1698419204,"current_range_meters":31200,"station_id":"ce4bgpp2rcd13ifvqc3g","pricing_plan_id":"free"},{"bike_id":"dcda1973-b1e0-48bb-b340-ba07b8e64a20","system_id":"levelo_inurba_marseille","lat":43.298433,"lon":5.362774,"is_reserved":false,"is_disabled":false,"rental_uris":{"android":"levelo://app?vid=dcda1973-b1e0-48bb-b340-ba07b8e64a20","ios":"levelo://app?vid=dcda1973-b1e0-48bb-b340-ba07b8e64a20"},"vehicle_type_id":"4","last_reported":1698419204,"current_range_meters":31200,"station_id":"ce4bgpp2rcd13ifvqc3g","pricing_plan_id":"free"},{"bike_id":"6ef3c932-365d-434f-8240-453f5b7cb526","system_id":"levelo_inurba_marseille","lat":43.298433,"lon":5.362774,"is_reserved":false,"is_disabled":false,"rental_uris":{"android":"levelo://app?vid=6ef3c932-365d-434f-8240-453f5b7cb526","ios":"levelo://app?vid=6ef3c932-365d-434f-8240-453f5b7cb526"},"vehicle_type_id":"4","last_reported":1698419204,"current_range_meters":31200,"station_id":"ce4bgpp2rcd13ifvqc3g","pricing_plan_id":"free"},{"bike_id":"7bb159c4-f211-4ee5-a93f-f917f45fcbb4","system_id":"levelo_inurba_marseille","lat":43.305364,"lon":5.384119,"is_reserved":false,"is_disabled":false,"rental_uris":{"android":"levelo://app?vid=7bb159c4-f211-4ee5-a93f-f917f45fcbb4","ios":"levelo://app?vid=7bb159c4-f211-4ee5-a93f-f917f45fcbb4"},"vehicle_type_id":"4","last_reported":1698419204,"current_range_meters":11200,"station_id":"ce4bgg92rcd13ifvqb30","pricing_plan_id":"free"},{"bike_id":"eb0c9504-a0a1-4106-a622-423de2298f7a","system_id":"levelo_inurba_marseille","lat":43.298466,"lon":5.362659,"is_reserved":false,"is_disabled":false,"rental_uris":{"android":"levelo://app?vid=eb0c9504-a0a1-4106-a622-423de2298f7a","ios":"levelo://app?vid=eb0c9504-a0a1-4106-a622-423de2298f7a"},"vehicle_type_id":"4","last_reported":1698419204,"current_range_meters":24000,"station_id":"ce4bgpp2rcd13ifvqc3g","pricing_plan_id":"free"},{"bike_id":"9b12dd15-5e18-4f13-8fd3-aa2638263564","system_id":"levelo_inurba_marseille","lat":43.298433,"lon":5.362774,"is_reserved":false,"is_disabled":false,"rental_uris":{"android":"levelo://app?vid=9b12dd15-5e18-4f13-8fd3-aa2638263564","ios":"levelo://app?vid=9b12dd15-5e18-4f13-8fd3-aa2638263564"},"vehicle_type_id":"4","last_reported":1698419204,"current_range_meters":31200,"station_id":"ce4bgpp2rcd13ifvqc3g","pricing_plan_id":"free"},{"bike_id":"7e41cfff-b4d9-486d-85e6-50f89acb1aca","system_id":"levelo_inurba_marseille","lat":43.29845,"lon":5.36269,"is_reserved":false,"is_disabled":false,"rental_uris":{"android":"levelo://app?vid=7e41cfff-b4d9-486d-85e6-50f89acb1aca","ios":"levelo://app?vid=7e41cfff-b4d9-486d-85e6-50f89acb1aca"},"vehicle_type_id":"4","last_reported":1698419204,"current_range_meters":26000,"station_id":"ce4bgpp2rcd13ifvqc3g","pricing_plan_id":"free"},{"bike_id":"2b0fbb21-f906-4c28-a422-fb291ade2a84","system_id":"levelo_inurba_marseille","lat":43.29845,"lon":5.36267,"is_reserved":false,"is_disabled":false,"rental_uris":{"android":"levelo://app?vid=2b0fbb21-f906-4c28-a422-fb291ade2a84","ios":"levelo://app?vid=2b0fbb21-f906-4c28-a422-fb291ade2a84"},"vehicle_type_id":"4","last_reported":1698419204,"current_range_meters":22800,"station_id":"ce4bgpp2rcd13ifvqc3g","pricing_plan_id":"free"},{"bike_id":"0ec72a90-aebc-485f-88e1-543e94aa7608","system_id":"levelo_inurba_marseille","lat":43.298433,"lon":5.362774,"is_reserved":false,"is_disabled":false,"rental_uris":{"android":"levelo://app?vid=0ec72a90-aebc-485f-88e1-543e94aa7608","ios":"levelo://app?vid=0ec72a90-aebc-485f-88e1-543e94aa7608"},"vehicle_type_id":"4","last_reported":1698419204,"current_range_meters":28800,"station_id":"ce4bgpp2rcd13ifvqc3g","pricing_plan_id":"free"},{"bike_id":"246bc270-c207-4123-ba8e-ae75237fbdb8","system_id":"levelo_inurba_marseille","lat":43.298433,"lon":5.362774,"is_reserved":false,"is_disabled":false,"rental_uris":{"android":"levelo://app?vid=246bc270-c207-4123-ba8e-ae75237fbdb8","ios":"levelo://app?vid=246bc270-c207-4123-ba8e-ae75237fbdb8"},"vehicle_type_id":"4","last_reported":1698419204,"current_range_meters":31200,"station_id":"ce4bgpp2rcd13ifvqc3g","pricing_plan_id":"free"},{"bike_id":"8127c54b-e756-40b5-b097-e205fe57aeb1","system_id":"levelo_inurba_marseille","lat":43.2984,"lon":5.36268,"is_reserved":false,"is_disabled":false,"rental_uris":{"android":"levelo://app?vid=8127c54b-e756-40b5-b097-e205fe57aeb1","ios":"levelo://app?vid=8127c54b-e756-40b5-b097-e205fe57aeb1"},"vehicle_type_id":"4","last_reported":1698419204,"current_range_meters":24800,"station_id":"ce4bgpp2rcd13ifvqc3g","pricing_plan_id":"free"},{"bike_id":"c3b08581-7cea-4283-ab14-b52a44c5c11a","system_id":"levelo_inurba_marseille","lat":43.30258,"lon":5.381564,"is_reserved":false,"is_disabled":false,"rental_uris":{"android":"levelo://app?vid=c3b08581-7cea-4283-ab14-b52a44c5c11a","ios":"levelo://app?vid=c3b08581-7cea-4283-ab14-b52a44c5c11a"},"vehicle_type_id":"4","last_reported":1698419204,"current_range_meters":11200,"station_id":"","pricing_plan_id":"free"},{"bike_id":"833a0712-69e0-45b5-8917-189d768118d7","system_id":"levelo_inurba_marseille","lat":43.298433,"lon":5.362774,"is_reserved":false,"is_disabled":false,"rental_uris":{"android":"levelo://app?vid=833a0712-69e0-45b5-8917-189d768118d7","ios":"levelo://app?vid=833a0712-69e0-45b5-8917-189d768118d7"},"vehicle_type_id":"4","last_reported":1698419204,"current_range_meters":31200,"station_id":"ce4bgpp2rcd13ifvqc3g","pricing_plan_id":"free"},{"bike_id":"8df1198a-921a-4b6e-82c3-7018336ce5f0","system_id":"levelo_inurba_marseille","lat":43.299102,"lon":5.374656,"is_reserved":false,"is_disabled":false,"rental_uris":{"android":"levelo://app?vid=8df1198a-921a-4b6e-82c3-7018336ce5f0","ios":"levelo://app?vid=8df1198a-921a-4b6e-82c3-7018336ce5f0"},"vehicle_type_id":"4","last_reported":1698419204,"current_range_meters":13600,"station_id":"ce4bgjh2rcd13ifvqbg0","pricing_plan_id":"free"},{"bike_id":"9688240c-769d-4c55-bd63-23cc5f18a51b","system_id":"levelo_inurba_marseille","lat":43.29775,"lon":5.37118,"is_reserved":false,"is_disabled":false,"rental_uris":{"android":"levelo://app?vid=9688240c-769d-4c55-bd63-23cc5f18a51b","ios":"levelo://app?vid=9688240c-769d-4c55-bd63-23cc5f18a51b"},"vehicle_type_id":"4","last_reported":1698419204,"current_range_meters":12800,"station_id":"ce4bgop2rcd13ifvqc1g","pricing_plan_id":"free"},{"bike_id":"b0917c46-bb5c-4696-87f9-d3a0eca3a650","system_id":"levelo_inurba_marseille","lat":43.297794,"lon":5.370888,"is_reserved":false,"is_disabled":false,"rental_uris":{"android":"levelo://app?vid=b0917c46-bb5c-4696-87f9-d3a0eca3a650","ios":"levelo://app?vid=b0917c46-bb5c-4696-87f9-d3a0eca3a650"},"vehicle_type_id":"4","last_reported":1698419204,"current_range_meters":20800,"station_id":"ce4bgop2rcd13ifvqc1g","pricing_plan_id":"free"},{"bike_id":"7c721af1-a5b0-41f9-a74b-effa6685822a","system_id":"levelo_inurba_marseille","lat":43.323127,"lon":5.382856,"is_reserved":false,"is_disabled":false,"rental_uris":{"android":"levelo://app?vid=7c721af1-a5b0-41f9-a74b-effa6685822a","ios":"levelo://app?vid=7c721af1-a5b0-41f9-a74b-effa6685822a"},"vehicle_type_id":"4","last_reported":1698419204,"current_range_meters":11200,"station_id":"ce4bhr12rcd13ifvqhqg","pricing_plan_id":"free"},{"bike_id":"2bf09692-7151-4aba-9fa7-8ce1d6106004","system_id":"levelo_inurba_marseille","lat":43.328303,"lon":5.366873,"is_reserved":false,"is_disabled":false,"rental_uris":{"android":"levelo://app?vid=2bf09692-7151-4aba-9fa7-8ce1d6106004","ios":"levelo://app?vid=2bf09692-7151-4aba-9fa7-8ce1d6106004"},"vehicle_type_id":"4","last_reported":1698419204,"current_range_meters":16400,"station_id":"","pricing_plan_id":"free"},{"bike_id":"b3e63496-ef57-4fe7-9649-3ee98b2a4e91","system_id":"levelo_inurba_marseille","lat":43.32831,"lon":5.36697,"is_reserved":false,"is_disabled":false,"rental_uris":{"android":"levelo://app?vid=b3e63496-ef57-4fe7-9649-3ee98b2a4e91","ios":"levelo://app?vid=b3e63496-ef57-4fe7-9649-3ee98b2a4e91"},"vehicle_type_id":"4","last_reported":1698419204,"current_range_meters":13200,"station_id":"","pricing_plan_id":"free"},{"bike_id":"4e7c11df-5013-4d01-9ed6-bdc691d5b5cc","system_id":"levelo_inurba_marseille","lat":43.328371,"lon":5.366912,"is_reserved":false,"is_disabled":false,"rental_uris":{"android":"levelo://app?vid=4e7c11df-5013-4d01-9ed6-bdc691d5b5cc","ios":"levelo://app?vid=4e7c11df-5013-4d01-9ed6-bdc691d5b5cc"},"vehicle_type_id":"4","last_reported":1698419204,"current_range_meters":0,"station_id":"ce4bhs92rcd13ifvqi0g","pricing_plan_id":"free"},{"bike_id":"5d32f20f-641e-4428-ab69-ad0e8ba78fee","system_id":"levelo_inurba_marseille","lat":43.297163,"lon":5.365866,"is_reserved":false,"is_disabled":false,"rental_uris":{"android":"levelo://app?vid=5d32f20f-641e-4428-ab69-ad0e8ba78fee","ios":"levelo://app?vid=5d32f20f-641e-4428-ab69-ad0e8ba78fee"},"vehicle_type_id":"4","last_reported":1698419204,"current_range_meters":19600,"station_id":"ce4bgn12rcd13ifvqbt0","pricing_plan_id":"free"},{"bike_id":"3f4b2ebe-57d5-4a91-b6ec-a846594e4a44","system_id":"levelo_inurba_marseille","lat":43.296129,"lon":5.370777,"is_reserved":false,"is_disabled":false,"rental_uris":{"android":"levelo://app?vid=3f4b2ebe-57d5-4a91-b6ec-a846594e4a44","ios":"levelo://app?vid=3f4b2ebe-57d5-4a91-b6ec-a846594e4a44"},"vehicle_type_id":"4","last_reported":1698419204,"current_range_meters":16800,"station_id":"ce4bgnh2rcd13ifvqc0g","pricing_plan_id":"free"},{"bike_id":"874b5f87-f259-4cde-9904-e80f7be5d8e9","system_id":"levelo_inurba_marseille","lat":43.29573,"lon":5.367355,"is_reserved":false,"is_disabled":false,"rental_uris":{"android":"levelo://app?vid=874b5f87-f259-4cde-9904-e80f7be5d8e9","ios":"levelo://app?vid=874b5f87-f259-4cde-9904-e80f7be5d8e9"},"vehicle_type_id":"4","last_reported":1698419204,"current_range_meters":27600,"station_id":"ce4bgph2rcd13ifvqc2g","pricing_plan_id":"free"},{"bike_id":"f3d0381f-7a2d-409e-a12f-bd3d9095653d","system_id":"levelo_inurba_marseille","lat":43.329673,"lon":5.365468,"is_reserved":false,"is_disabled":false,"rental_uris":{"android":"levelo://app?vid=f3d0381f-7a2d-409e-a12f-bd3d9095653d","ios":"levelo://app?vid=f3d0381f-7a2d-409e-a12f-bd3d9095653d"},"vehicle_type_id":"4","last_reported":1698419204,"current_range_meters":8800,"station_id":"","pricing_plan_id":"free"},{"bike_id":"c9d76dc3-0d80-43f0-82b0-96912c88d9ad","system_id":"levelo_inurba_marseille","lat":43.299028,"lon":5.381509,"is_reserved":false,"is_disabled":false,"rental_uris":{"android":"levelo://app?vid=c9d76dc3-0d80-43f0-82b0-96912c88d9ad","ios":"levelo://app?vid=c9d76dc3-0d80-43f0-82b0-96912c88d9ad"},"vehicle_type_id":"4","last_reported":1698419204,"current_range_meters":21200,"station_id":"ce4bgj12rcd13ifvqbc0","pricing_plan_id":"free"},{"bike_id":"12ca9fcd-e9af-4498-ad7a-bc86fb7b71ce","system_id":"levelo_inurba_marseille","lat":43.297896,"lon":5.38092,"is_reserved":false,"is_disabled":false,"rental_uris":{"android":"levelo://app?vid=12ca9fcd-e9af-4498-ad7a-bc86fb7b71ce","ios":"levelo://app?vid=12ca9fcd-e9af-4498-ad7a-bc86fb7b71ce"},"vehicle_type_id":"4","last_reported":1698419204,"current_range_meters":14400,"station_id":"ce4bgip2rcd13ifvqbb0","pricing_plan_id":"free"},{"bike_id":"611b363a-388f-47e9-84b6-b9dee61eb85b","system_id":"levelo_inurba_marseille","lat":43.304274,"lon":5.388873,"is_reserved":false,"is_disabled":false,"rental_uris":{"android":"levelo://app?vid=611b363a-388f-47e9-84b6-b9dee61eb85b","ios":"levelo://app?vid=611b363a-388f-47e9-84b6-b9dee61eb85b"},"vehicle_type_id":"4","last_reported":1698419204,"current_range_meters":5200,"station_id":"ce4bgk12rcd13ifvqbi0","pricing_plan_id":"free"},{"bike_id":"07e85f5f-ba20-44d9-8f2d-2f3902d3b756","system_id":"levelo_inurba_marseille","lat":43.304274,"lon":5.388873,"is_reserved":false,"is_disabled":false,"rental_uris":{"android":"levelo://app?vid=07e85f5f-ba20-44d9-8f2d-2f3902d3b756","ios":"levelo://app?vid=07e85f5f-ba20-44d9-8f2d-2f3902d3b756"},"vehicle_type_id":"4","last_reported":1698419204,"current_range_meters":11600,"station_id":"ce4bgk12rcd13ifvqbi0","pricing_plan_id":"free"},{"bike_id":"9417dc2d-094f-44f8-b3fd-f3cb405c3316","system_id":"levelo_inurba_marseille","lat":43.304278,"lon":5.388868,"is_reserved":false,"is_disabled":false,"rental_uris":{"android":"levelo://app?vid=9417dc2d-094f-44f8-b3fd-f3cb405c3316","ios":"levelo://app?vid=9417dc2d-094f-44f8-b3fd-f3cb405c3316"},"vehicle_type_id":"4","last_reported":1698419204,"current_range_meters":16400,"station_id":"ce4bgk12rcd13ifvqbi0","pricing_plan_id":"free"},{"bike_id":"9caaa8ee-a8ba-465e-97f1-7bda4777809a","system_id":"levelo_inurba_marseille","lat":43.304278,"lon":5.388868,"is_reserved":false,"is_disabled":false,"rental_uris":{"android":"levelo://app?vid=9caaa8ee-a8ba-465e-97f1-7bda4777809a","ios":"levelo://app?vid=9caaa8ee-a8ba-465e-97f1-7bda4777809a"},"vehicle_type_id":"4","last_reported":1698419204,"current_range_meters":18400,"station_id":"ce4bgk12rcd13ifvqbi0","pricing_plan_id":"free"},{"bike_id":"da815fa3-ec0a-4ffc-b263-4610836a80f5","system_id":"levelo_inurba_marseille","lat":43.299707,"lon":5.384859,"is_reserved":false,"is_disabled":false,"rental_uris":{"android":"levelo://app?vid=da815fa3-ec0a-4ffc-b263-4610836a80f5","ios":"levelo://app?vid=da815fa3-ec0a-4ffc-b263-4610836a80f5"},"vehicle_type_id":"4","last_reported":1698419204,"current_range_meters":0,"station_id":"ce4bgj92rcd13ifvqbd0","pricing_plan_id":"free"},{"bike_id":"de1ffa08-7650-4cbd-af3c-f0b1350db77c","system_id":"levelo_inurba_marseille","lat":43.29972,"lon":5.38487,"is_reserved":false,"is_disabled":false,"rental_uris":{"android":"levelo://app?vid=de1ffa08-7650-4cbd-af3c-f0b1350db77c","ios":"levelo://app?vid=de1ffa08-7650-4cbd-af3c-f0b1350db77c"},"vehicle_type_id":"4","last_reported":1698419204,"current_range_meters":24800,"station_id":"ce4bgj92rcd13ifvqbd0","pricing_plan_id":"free"},{"bike_id":"37bfe52d-51f4-4ff6-8c44-9d38ba6a9488","system_id":"levelo_inurba_marseille","lat":43.299717,"lon":5.384845,"is_reserved":false,"is_disabled":false,"rental_uris":{"android":"levelo://app?vid=37bfe52d-51f4-4ff6-8c44-9d38ba6a9488","ios":"levelo://app?vid=37bfe52d-51f4-4ff6-8c44-9d38ba6a9488"},"vehicle_type_id":"4","last_reported":1698419204,"current_range_meters":28400,"station_id":"ce4bgj92rcd13ifvqbd0","pricing_plan_id":"free"},{"bike_id":"7d0f8f5c-2a0b-4088-9b6f-1a18ab087739","system_id":"levelo_inurba_marseille","lat":43.299717,"lon":5.384845,"is_reserved":false,"is_disabled":false,"rental_uris":{"android":"levelo://app?vid=7d0f8f5c-2a0b-4088-9b6f-1a18ab087739","ios":"levelo://app?vid=7d0f8f5c-2a0b-4088-9b6f-1a18ab087739"},"vehicle_type_id":"4","last_reported":1698419204,"current_range_meters":0,"station_id":"ce4bgj92rcd13ifvqbd0","pricing_plan_id":"free"},{"bike_id":"50ba0a4e-dc52-4b36-bbea-ef74378b458b","system_id":"levelo_inurba_marseille","lat":43.29698,"lon":5.3812,"is_reserved":false,"is_disabled":false,"rental_uris":{"android":"levelo://app?vid=50ba0a4e-dc52-4b36-bbea-ef74378b458b","ios":"levelo://app?vid=50ba0a4e-dc52-4b36-bbea-ef74378b458b"},"vehicle_type_id":"4","last_reported":1698419204,"current_range_meters":0,"station_id":"","pricing_plan_id":"free"},{"bike_id":"dd53f42d-32f3-4d00-b5fd-d6ea44bf49ee","system_id":"levelo_inurba_marseille","lat":43.323723,"lon":5.389272,"is_reserved":false,"is_disabled":false,"rental_uris":{"android":"levelo://app?vid=dd53f42d-32f3-4d00-b5fd-d6ea44bf49ee","ios":"levelo://app?vid=dd53f42d-32f3-4d00-b5fd-d6ea44bf49ee"},"vehicle_type_id":"4","last_reported":1698419204,"current_range_meters":26800,"station_id":"ce4bhqp2rcd13ifvqhog","pricing_plan_id":"free"},{"bike_id":"0db18ab9-11fb-4cb9-a722-8c8d30640b3c","system_id":"levelo_inurba_marseille","lat":43.293,"lon":5.368428,"is_reserved":false,"is_disabled":false,"rental_uris":{"android":"levelo://app?vid=0db18ab9-11fb-4cb9-a722-8c8d30640b3c","ios":"levelo://app?vid=0db18ab9-11fb-4cb9-a722-8c8d30640b3c"},"vehicle_type_id":"4","last_reported":1698419204,"current_range_meters":16000,"station_id":"ce4bhbp2rcd13ifvqesg","pricing_plan_id":"free"},{"bike_id":"bbab7e28-ee01-4080-b12e-dd8baccd43d0","system_id":"levelo_inurba_marseille","lat":43.32394,"lon":5.389747,"is_reserved":false,"is_disabled":false,"rental_uris":{"android":"levelo://app?vid=bbab7e28-ee01-4080-b12e-dd8baccd43d0","ios":"levelo://app?vid=bbab7e28-ee01-4080-b12e-dd8baccd43d0"},"vehicle_type_id":"4","last_reported":1698419204,"current_range_meters":12800,"station_id":"","pricing_plan_id":"free"},{"bike_id":"3b1c73c8-3c39-40bf-99a0-f9e500fe5de5","system_id":"levelo_inurba_marseille","lat":43.292974,"lon":5.374498,"is_reserved":false,"is_disabled":false,"rental_uris":{"android":"levelo://app?vid=3b1c73c8-3c39-40bf-99a0-f9e500fe5de5","ios":"levelo://app?vid=3b1c73c8-3c39-40bf-99a0-f9e500fe5de5"},"vehicle_type_id":"4","last_reported":1698419204,"current_range_meters":0,"station_id":"ce4bgi12rcd13ifvqb70","pricing_plan_id":"free"},{"bike_id":"bcb69065-2771-425a-b46f-cc07e4f07f71","system_id":"levelo_inurba_marseille","lat":43.3248,"lon":5.38978,"is_reserved":false,"is_disabled":false,"rental_uris":{"android":"levelo://app?vid=bcb69065-2771-425a-b46f-cc07e4f07f71","ios":"levelo://app?vid=bcb69065-2771-425a-b46f-cc07e4f07f71"},"vehicle_type_id":"4","last_reported":1698419204,"current_range_meters":16400,"station_id":"","pricing_plan_id":"free"},{"bike_id":"3db8b77b-291d-4d02-8017-e6f05caf8e0f","system_id":"levelo_inurba_marseille","lat":43.299707,"lon":5.384859,"is_reserved":false,"is_disabled":false,"rental_uris":{"android":"levelo://app?vid=3db8b77b-291d-4d02-8017-e6f05caf8e0f","ios":"levelo://app?vid=3db8b77b-291d-4d02-8017-e6f05caf8e0f"},"vehicle_type_id":"4","last_reported":1698419204,"current_range_meters":1200,"station_id":"ce4bgj92rcd13ifvqbd0","pricing_plan_id":"free"},{"bike_id":"5f29ad74-19ab-45b4-a31e-37cd2e461ae6","system_id":"levelo_inurba_marseille","lat":43.2936,"lon":5.37835,"is_reserved":false,"is_disabled":false,"rental_uris":{"android":"levelo://app?vid=5f29ad74-19ab-45b4-a31e-37cd2e461ae6","ios":"levelo://app?vid=5f29ad74-19ab-45b4-a31e-37cd2e461ae6"},"vehicle_type_id":"4","last_reported":1698419204,"current_range_meters":8800,"station_id":"ce4bgjh2rcd13ifvqbf0","pricing_plan_id":"free"},{"bike_id":"e85e9eb5-1a6a-4c49-a9ca-d3bd21acd6e6","system_id":"levelo_inurba_marseille","lat":43.293726,"lon":5.378489,"is_reserved":false,"is_disabled":false,"rental_uris":{"android":"levelo://app?vid=e85e9eb5-1a6a-4c49-a9ca-d3bd21acd6e6","ios":"levelo://app?vid=e85e9eb5-1a6a-4c49-a9ca-d3bd21acd6e6"},"vehicle_type_id":"4","last_reported":1698419204,"current_range_meters":0,"station_id":"ce4bgjh2rcd13ifvqbf0","pricing_plan_id":"free"},{"bike_id":"ee7b66b2-339f-46cf-9ccc-219f3dbdd05b","system_id":"levelo_inurba_marseille","lat":43.300852,"lon":5.390859,"is_reserved":false,"is_disabled":false,"rental_uris":{"android":"levelo://app?vid=ee7b66b2-339f-46cf-9ccc-219f3dbdd05b","ios":"levelo://app?vid=ee7b66b2-339f-46cf-9ccc-219f3dbdd05b"},"vehicle_type_id":"4","last_reported":1698419204,"current_range_meters":800,"station_id":"ce4bh192rcd13ifvqdb0","pricing_plan_id":"free"},{"bike_id":"bd2e79c6-d372-47e6-a5ae-ee3e24534a99","system_id":"levelo_inurba_marseille","lat":43.300852,"lon":5.390859,"is_reserved":false,"is_disabled":false,"rental_uris":{"android":"levelo://app?vid=bd2e79c6-d372-47e6-a5ae-ee3e24534a99","ios":"levelo://app?vid=bd2e79c6-d372-47e6-a5ae-ee3e24534a99"},"vehicle_type_id":"4","last_reported":1698419204,"current_range_meters":22400,"station_id":"ce4bh192rcd13ifvqdb0","pricing_plan_id":"free"},{"bike_id":"49180640-656f-4772-ad31-9ae803ccf7d9","system_id":"levelo_inurba_marseille","lat":43.298764,"lon":5.388973,"is_reserved":false,"is_disabled":false,"rental_uris":{"android":"levelo://app?vid=49180640-656f-4772-ad31-9ae803ccf7d9","ios":"levelo://app?vid=49180640-656f-4772-ad31-9ae803ccf7d9"},"vehicle_type_id":"4","last_reported":1698419204,"current_range_meters":22000,"station_id":"ce4bh392rcd13ifvqdl0","pricing_plan_id":"free"},{"bike_id":"e7f87067-a344-45c5-bbee-d78b2543be43","system_id":"levelo_inurba_marseille","lat":43.29199,"lon":5.35814,"is_reserved":false,"is_disabled":false,"rental_uris":{"android":"levelo://app?vid=e7f87067-a344-45c5-bbee-d78b2543be43","ios":"levelo://app?vid=e7f87067-a344-45c5-bbee-d78b2543be43"},"vehicle_type_id":"4","last_reported":1698419204,"current_range_meters":14000,"station_id":"ce4bhb12rcd13ifvqel0","pricing_plan_id":"free"},{"bike_id":"9395d638-bc74-4456-acd2-e7abce3e2203","system_id":"levelo_inurba_marseille","lat":43.291994,"lon":5.357886,"is_reserved":false,"is_disabled":false,"rental_uris":{"android":"levelo://app?vid=9395d638-bc74-4456-acd2-e7abce3e2203","ios":"levelo://app?vid=9395d638-bc74-4456-acd2-e7abce3e2203"},"vehicle_type_id":"4","last_reported":1698419204,"current_range_meters":31200,"station_id":"ce4bhb12rcd13ifvqel0","pricing_plan_id":"free"},{"bike_id":"fb447238-9a5b-4a4f-81d7-b096abe1a265","system_id":"levelo_inurba_marseille","lat":43.29201,"lon":5.35802,"is_reserved":false,"is_disabled":false,"rental_uris":{"android":"levelo://app?vid=fb447238-9a5b-4a4f-81d7-b096abe1a265","ios":"levelo://app?vid=fb447238-9a5b-4a4f-81d7-b096abe1a265"},"vehicle_type_id":"4","last_reported":1698419204,"current_range_meters":18400,"station_id":"ce4bhb12rcd13ifvqel0","pricing_plan_id":"free"},{"bike_id":"66dae6b3-c31b-460c-8220-cab136226a58","system_id":"levelo_inurba_marseille","lat":43.292026,"lon":5.357929,"is_reserved":false,"is_disabled":false,"rental_uris":{"android":"levelo://app?vid=66dae6b3-c31b-460c-8220-cab136226a58","ios":"levelo://app?vid=66dae6b3-c31b-460c-8220-cab136226a58"},"vehicle_type_id":"4","last_reported":1698419204,"current_range_meters":31200,"station_id":"ce4bhb12rcd13ifvqel0","pricing_plan_id":"free"},{"bike_id":"2f41c5b1-c3ba-4099-9b54-634b776bf08d","system_id":"levelo_inurba_marseille","lat":43.292005,"lon":5.357908,"is_reserved":false,"is_disabled":false,"rental_uris":{"android":"levelo://app?vid=2f41c5b1-c3ba-4099-9b54-634b776bf08d","ios":"levelo://app?vid=2f41c5b1-c3ba-4099-9b54-634b776bf08d"},"vehicle_type_id":"4","last_reported":1698419204,"current_range_meters":25600,"station_id":"ce4bhb12rcd13ifvqel0","pricing_plan_id":"free"},{"bike_id":"fdfa4d37-1dd0-451c-86fe-e217405e15aa","system_id":"levelo_inurba_marseille","lat":43.313291,"lon":5.396838,"is_reserved":false,"is_disabled":false,"rental_uris":{"android":"levelo://app?vid=fdfa4d37-1dd0-451c-86fe-e217405e15aa","ios":"levelo://app?vid=fdfa4d37-1dd0-451c-86fe-e217405e15aa"},"vehicle_type_id":"4","last_reported":1698419204,"current_range_meters":16800,"station_id":"ce4bgvp2rcd13ifvqcu0","pricing_plan_id":"free"},{"bike_id":"e1c83039-673c-4f82-9254-5a03e9653208","system_id":"levelo_inurba_marseille","lat":43.30882,"lon":5.39637,"is_reserved":false,"is_disabled":false,"rental_uris":{"android":"levelo://app?vid=e1c83039-673c-4f82-9254-5a03e9653208","ios":"levelo://app?vid=e1c83039-673c-4f82-9254-5a03e9653208"},"vehicle_type_id":"4","last_reported":1698419204,"current_range_meters":31200,"station_id":"ce4bh012rcd13ifvqcv0","pricing_plan_id":"free"},{"bike_id":"a717c7d5-5b74-4faa-af09-56ebb2c22468","system_id":"levelo_inurba_marseille","lat":43.3133,"lon":5.39687,"is_reserved":false,"is_disabled":false,"rental_uris":{"android":"levelo://app?vid=a717c7d5-5b74-4faa-af09-56ebb2c22468","ios":"levelo://app?vid=a717c7d5-5b74-4faa-af09-56ebb2c22468"},"vehicle_type_id":"4","last_reported":1698419204,"current_range_meters":10400,"station_id":"ce4bgvp2rcd13ifvqcu0","pricing_plan_id":"free"},{"bike_id":"733859cf-367f-4e78-893b-1fb95f28c131","system_id":"levelo_inurba_marseille","lat":43.31332,"lon":5.39689,"is_reserved":false,"is_disabled":false,"rental_uris":{"android":"levelo://app?vid=733859cf-367f-4e78-893b-1fb95f28c131","ios":"levelo://app?vid=733859cf-367f-4e78-893b-1fb95f28c131"},"vehicle_type_id":"4","last_reported":1698419204,"current_range_meters":13200,"station_id":"ce4bgvp2rcd13ifvqcu0","pricing_plan_id":"free"},{"bike_id":"d3760a2d-5b4a-4de5-bb99-3082519d4c93","system_id":"levelo_inurba_marseille","lat":43.291994,"lon":5.357886,"is_reserved":false,"is_disabled":false,"rental_uris":{"android":"levelo://app?vid=d3760a2d-5b4a-4de5-bb99-3082519d4c93","ios":"levelo://app?vid=d3760a2d-5b4a-4de5-bb99-3082519d4c93"},"vehicle_type_id":"4","last_reported":1698419204,"current_range_meters":30400,"station_id":"ce4bhb12rcd13ifvqel0","pricing_plan_id":"free"},{"bike_id":"23ece899-8b15-47d6-8435-1bfbbd91fc6f","system_id":"levelo_inurba_marseille","lat":43.313311,"lon":5.39695,"is_reserved":false,"is_disabled":false,"rental_uris":{"android":"levelo://app?vid=23ece899-8b15-47d6-8435-1bfbbd91fc6f","ios":"levelo://app?vid=23ece899-8b15-47d6-8435-1bfbbd91fc6f"},"vehicle_type_id":"4","last_reported":1698419204,"current_range_meters":20800,"station_id":"","pricing_plan_id":"free"},{"bike_id":"bfe6dd23-7da5-4f79-816b-01c0be35d9c8","system_id":"levelo_inurba_marseille","lat":43.313251,"lon":5.396955,"is_reserved":false,"is_disabled":false,"rental_uris":{"android":"levelo://app?vid=bfe6dd23-7da5-4f79-816b-01c0be35d9c8","ios":"levelo://app?vid=bfe6dd23-7da5-4f79-816b-01c0be35d9c8"},"vehicle_type_id":"4","last_reported":1698419204,"current_range_meters":12000,"station_id":"ce4bgvp2rcd13ifvqcu0","pricing_plan_id":"free"},{"bike_id":"50b93298-eb85-4044-8726-dc7a2df2c799","system_id":"levelo_inurba_marseille","lat":43.31332,"lon":5.39697,"is_reserved":false,"is_disabled":false,"rental_uris":{"android":"levelo://app?vid=50b93298-eb85-4044-8726-dc7a2df2c799","ios":"levelo://app?vid=50b93298-eb85-4044-8726-dc7a2df2c799"},"vehicle_type_id":"4","last_reported":1698419204,"current_range_meters":800,"station_id":"ce4bgvp2rcd13ifvqcu0","pricing_plan_id":"free"},{"bike_id":"501b1467-906f-4e06-acc7-82c3a9376a2a","system_id":"levelo_inurba_marseille","lat":43.309038,"lon":5.396546,"is_reserved":false,"is_disabled":false,"rental_uris":{"android":"levelo://app?vid=501b1467-906f-4e06-acc7-82c3a9376a2a","ios":"levelo://app?vid=501b1467-906f-4e06-acc7-82c3a9376a2a"},"vehicle_type_id":"4","last_reported":1698419204,"current_range_meters":15200,"station_id":"ce4bh012rcd13ifvqcv0","pricing_plan_id":"free"},{"bike_id":"2fd0afa7-ea7f-41b5-99fc-e62b197152e0","system_id":"levelo_inurba_marseille","lat":43.30885,"lon":5.39651,"is_reserved":false,"is_disabled":false,"rental_uris":{"android":"levelo://app?vid=2fd0afa7-ea7f-41b5-99fc-e62b197152e0","ios":"levelo://app?vid=2fd0afa7-ea7f-41b5-99fc-e62b197152e0"},"vehicle_type_id":"4","last_reported":1698419204,"current_range_meters":28800,"station_id":"ce4bh012rcd13ifvqcv0","pricing_plan_id":"free"},{"bike_id":"c005daa6-dae3-4aa3-93e8-2aa56dffafe1","system_id":"levelo_inurba_marseille","lat":43.30888,"lon":5.39655,"is_reserved":false,"is_disabled":false,"rental_uris":{"android":"levelo://app?vid=c005daa6-dae3-4aa3-93e8-2aa56dffafe1","ios":"levelo://app?vid=c005daa6-dae3-4aa3-93e8-2aa56dffafe1"},"vehicle_type_id":"4","last_reported":1698419204,"current_range_meters":21600,"station_id":"ce4bh012rcd13ifvqcv0","pricing_plan_id":"free"},{"bike_id":"be48ca26-9a7f-4c3f-9250-977e302067be","system_id":"levelo_inurba_marseille","lat":43.29529,"lon":5.385581,"is_reserved":false,"is_disabled":false,"rental_uris":{"android":"levelo://app?vid=be48ca26-9a7f-4c3f-9250-977e302067be","ios":"levelo://app?vid=be48ca26-9a7f-4c3f-9250-977e302067be"},"vehicle_type_id":"4","last_reported":1698419204,"current_range_meters":31200,"station_id":"ce4bgih2rcd13ifvqba0","pricing_plan_id":"free"},{"bike_id":"4f295011-6f0e-4d4c-b419-00cd4abeb669","system_id":"levelo_inurba_marseille","lat":43.29534,"lon":5.3855,"is_reserved":false,"is_disabled":false,"rental_uris":{"android":"levelo://app?vid=4f295011-6f0e-4d4c-b419-00cd4abeb669","ios":"levelo://app?vid=4f295011-6f0e-4d4c-b419-00cd4abeb669"},"vehicle_type_id":"4","last_reported":1698419204,"current_range_meters":2400,"station_id":"ce4bgih2rcd13ifvqba0","pricing_plan_id":"free"},{"bike_id":"126d4670-e812-40c6-9f2a-535ee2ec9a6b","system_id":"levelo_inurba_marseille","lat":43.33219,"lon":5.38149,"is_reserved":false,"is_disabled":false,"rental_uris":{"android":"levelo://app?vid=126d4670-e812-40c6-9f2a-535ee2ec9a6b","ios":"levelo://app?vid=126d4670-e812-40c6-9f2a-535ee2ec9a6b"},"vehicle_type_id":"4","last_reported":1698419204,"current_range_meters":0,"station_id":"","pricing_plan_id":"free"},{"bike_id":"d445e7dc-8f39-4198-8d15-1838ad42556e","system_id":"levelo_inurba_marseille","lat":43.302164,"lon":5.394669,"is_reserved":false,"is_disabled":false,"rental_uris":{"android":"levelo://app?vid=d445e7dc-8f39-4198-8d15-1838ad42556e","ios":"levelo://app?vid=d445e7dc-8f39-4198-8d15-1838ad42556e"},"vehicle_type_id":"4","last_reported":1698419204,"current_range_meters":20800,"station_id":"ce4bh0p2rcd13ifvqd70","pricing_plan_id":"free"},{"bike_id":"3ba9337c-3a4c-4b79-bb22-9c08f678ee27","system_id":"levelo_inurba_marseille","lat":43.3339,"lon":5.37907,"is_reserved":false,"is_disabled":false,"rental_uris":{"android":"levelo://app?vid=3ba9337c-3a4c-4b79-bb22-9c08f678ee27","ios":"levelo://app?vid=3ba9337c-3a4c-4b79-bb22-9c08f678ee27"},"vehicle_type_id":"4","last_reported":1698419204,"current_range_meters":18400,"station_id":"","pricing_plan_id":"free"},{"bike_id":"4471dbaa-59a0-4f8d-83f0-d4c40193662f","system_id":"levelo_inurba_marseille","lat":43.294153,"lon":5.386305,"is_reserved":false,"is_disabled":false,"rental_uris":{"android":"levelo://app?vid=4471dbaa-59a0-4f8d-83f0-d4c40193662f","ios":"levelo://app?vid=4471dbaa-59a0-4f8d-83f0-d4c40193662f"},"vehicle_type_id":"4","last_reported":1698419204,"current_range_meters":0,"station_id":"ce4bh2h2rcd13ifvqdh0","pricing_plan_id":"free"},{"bike_id":"d43d4b73-b710-47c3-bc6b-548ba4b4b3a2","system_id":"levelo_inurba_marseille","lat":43.29418,"lon":5.3863,"is_reserved":false,"is_disabled":false,"rental_uris":{"android":"levelo://app?vid=d43d4b73-b710-47c3-bc6b-548ba4b4b3a2","ios":"levelo://app?vid=d43d4b73-b710-47c3-bc6b-548ba4b4b3a2"},"vehicle_type_id":"4","last_reported":1698419204,"current_range_meters":0,"station_id":"ce4bh2h2rcd13ifvqdh0","pricing_plan_id":"free"},{"bike_id":"42bacfbf-bf7b-4039-a585-7e1a6139573d","system_id":"levelo_inurba_marseille","lat":43.294162,"lon":5.386292,"is_reserved":false,"is_disabled":false,"rental_uris":{"android":"levelo://app?vid=42bacfbf-bf7b-4039-a585-7e1a6139573d","ios":"levelo://app?vid=42bacfbf-bf7b-4039-a585-7e1a6139573d"},"vehicle_type_id":"4","last_reported":1698419204,"current_range_meters":16000,"station_id":"ce4bh2h2rcd13ifvqdh0","pricing_plan_id":"free"},{"bike_id":"a7056d22-c31b-4429-8fc0-accfaa73a474","system_id":"levelo_inurba_marseille","lat":43.289184,"lon":5.366408,"is_reserved":false,"is_disabled":false,"rental_uris":{"android":"levelo://app?vid=a7056d22-c31b-4429-8fc0-accfaa73a474","ios":"levelo://app?vid=a7056d22-c31b-4429-8fc0-accfaa73a474"},"vehicle_type_id":"4","last_reported":1698419204,"current_range_meters":17200,"station_id":"ce4bhap2rcd13ifvqek0","pricing_plan_id":"free"},{"bike_id":"7e1e2f2d-f421-4683-bc20-db2b7ce96460","system_id":"levelo_inurba_marseille","lat":43.29268,"lon":5.38441,"is_reserved":false,"is_disabled":false,"rental_uris":{"android":"levelo://app?vid=7e1e2f2d-f421-4683-bc20-db2b7ce96460","ios":"levelo://app?vid=7e1e2f2d-f421-4683-bc20-db2b7ce96460"},"vehicle_type_id":"4","last_reported":1698419204,"current_range_meters":20800,"station_id":"ce4bh692rcd13ifvqea0","pricing_plan_id":"free"},{"bike_id":"d490e663-4be6-4b5e-a843-1f3f307a8d3b","system_id":"levelo_inurba_marseille","lat":43.292642,"lon":5.384254,"is_reserved":false,"is_disabled":false,"rental_uris":{"android":"levelo://app?vid=d490e663-4be6-4b5e-a843-1f3f307a8d3b","ios":"levelo://app?vid=d490e663-4be6-4b5e-a843-1f3f307a8d3b"},"vehicle_type_id":"4","last_reported":1698419204,"current_range_meters":16000,"station_id":"ce4bh692rcd13ifvqea0","pricing_plan_id":"free"},{"bike_id":"2eec47dc-cd36-45b6-b262-6c4ff696520c","system_id":"levelo_inurba_marseille","lat":43.292642,"lon":5.384254,"is_reserved":false,"is_disabled":false,"rental_uris":{"android":"levelo://app?vid=2eec47dc-cd36-45b6-b262-6c4ff696520c","ios":"levelo://app?vid=2eec47dc-cd36-45b6-b262-6c4ff696520c"},"vehicle_type_id":"4","last_reported":1698419204,"current_range_meters":1200,"station_id":"ce4bh692rcd13ifvqea0","pricing_plan_id":"free"},{"bike_id":"c062c92c-7e5e-4286-825d-ee829d387269","system_id":"levelo_inurba_marseille","lat":43.292644,"lon":5.384257,"is_reserved":false,"is_disabled":false,"rental_uris":{"android":"levelo://app?vid=c062c92c-7e5e-4286-825d-ee829d387269","ios":"levelo://app?vid=c062c92c-7e5e-4286-825d-ee829d387269"},"vehicle_type_id":"4","last_reported":1698419204,"current_range_meters":30800,"station_id":"ce4bh692rcd13ifvqea0","pricing_plan_id":"free"},{"bike_id":"ee9d079b-931c-4ed9-8602-804169acbc86","system_id":"levelo_inurba_marseille","lat":43.290103,"lon":5.356114,"is_reserved":false,"is_disabled":false,"rental_uris":{"android":"levelo://app?vid=ee9d079b-931c-4ed9-8602-804169acbc86","ios":"levelo://app?vid=ee9d079b-931c-4ed9-8602-804169acbc86"},"vehicle_type_id":"4","last_reported":1698419204,"current_range_meters":18800,"station_id":"ce4bhb92rcd13ifvqen0","pricing_plan_id":"free"},{"bike_id":"265e548e-17e8-40c0-a4f3-61a649d9c03d","system_id":"levelo_inurba_marseille","lat":43.290103,"lon":5.356114,"is_reserved":false,"is_disabled":false,"rental_uris":{"android":"levelo://app?vid=265e548e-17e8-40c0-a4f3-61a649d9c03d","ios":"levelo://app?vid=265e548e-17e8-40c0-a4f3-61a649d9c03d"},"vehicle_type_id":"4","last_reported":1698419204,"current_range_meters":13600,"station_id":"ce4bhb92rcd13ifvqen0","pricing_plan_id":"free"},{"bike_id":"a8ee96d9-f502-4d8b-ba1a-db315d18a9dd","system_id":"levelo_inurba_marseille","lat":43.290995,"lon":5.381361,"is_reserved":false,"is_disabled":false,"rental_uris":{"android":"levelo://app?vid=a8ee96d9-f502-4d8b-ba1a-db315d18a9dd","ios":"levelo://app?vid=a8ee96d9-f502-4d8b-ba1a-db315d18a9dd"},"vehicle_type_id":"4","last_reported":1698419204,"current_range_meters":2800,"station_id":"ce4bh512rcd13ifvqe2g","pricing_plan_id":"free"},{"bike_id":"de6afe02-391f-4694-9efc-979dd7427d80","system_id":"levelo_inurba_marseille","lat":43.297815,"lon":5.393548,"is_reserved":false,"is_disabled":false,"rental_uris":{"android":"levelo://app?vid=de6afe02-391f-4694-9efc-979dd7427d80","ios":"levelo://app?vid=de6afe02-391f-4694-9efc-979dd7427d80"},"vehicle_type_id":"4","last_reported":1698419204,"current_range_meters":16400,"station_id":"chh1huq6cuj3fo74tm60","pricing_plan_id":"free"},{"bike_id":"ef98e1b6-5fcd-4ae0-a7fd-89f4c2ed8d05","system_id":"levelo_inurba_marseille","lat":43.297843,"lon":5.393372,"is_reserved":false,"is_disabled":false,"rental_uris":{"android":"levelo://app?vid=ef98e1b6-5fcd-4ae0-a7fd-89f4c2ed8d05","ios":"levelo://app?vid=ef98e1b6-5fcd-4ae0-a7fd-89f4c2ed8d05"},"vehicle_type_id":"4","last_reported":1698419204,"current_range_meters":4000,"station_id":"","pricing_plan_id":"free"},{"bike_id":"20cd55b6-055b-413b-9d5b-51eb03a533f7","system_id":"levelo_inurba_marseille","lat":43.297815,"lon":5.393548,"is_reserved":false,"is_disabled":false,"rental_uris":{"android":"levelo://app?vid=20cd55b6-055b-413b-9d5b-51eb03a533f7","ios":"levelo://app?vid=20cd55b6-055b-413b-9d5b-51eb03a533f7"},"vehicle_type_id":"4","last_reported":1698419204,"current_range_meters":19600,"station_id":"chh1huq6cuj3fo74tm60","pricing_plan_id":"free"},{"bike_id":"044b6f39-cd92-4f95-8682-6b1ab24d66df","system_id":"levelo_inurba_marseille","lat":43.289738,"lon":5.378394,"is_reserved":false,"is_disabled":false,"rental_uris":{"android":"levelo://app?vid=044b6f39-cd92-4f95-8682-6b1ab24d66df","ios":"levelo://app?vid=044b6f39-cd92-4f95-8682-6b1ab24d66df"},"vehicle_type_id":"4","last_reported":1698419204,"current_range_meters":0,"station_id":"ce4bh9p2rcd13ifvqed0","pricing_plan_id":"free"},{"bike_id":"1678ae78-a0a0-4664-86d7-74e7aed75624","system_id":"levelo_inurba_marseille","lat":43.295196,"lon":5.390409,"is_reserved":false,"is_disabled":false,"rental_uris":{"android":"levelo://app?vid=1678ae78-a0a0-4664-86d7-74e7aed75624","ios":"levelo://app?vid=1678ae78-a0a0-4664-86d7-74e7aed75624"},"vehicle_type_id":"4","last_reported":1698419204,"current_range_meters":0,"station_id":"ce4bh3p2rcd13ifvqdp0","pricing_plan_id":"free"},{"bike_id":"4502157a-1847-4be8-b88c-447cefac0677","system_id":"levelo_inurba_marseille","lat":43.29138,"lon":5.38516,"is_reserved":false,"is_disabled":false,"rental_uris":{"android":"levelo://app?vid=4502157a-1847-4be8-b88c-447cefac0677","ios":"levelo://app?vid=4502157a-1847-4be8-b88c-447cefac0677"},"vehicle_type_id":"4","last_reported":1698419204,"current_range_meters":9600,"station_id":"ce4bh4p2rcd13ifvqe0g","pricing_plan_id":"free"},{"bike_id":"25bdfaa4-6c00-453b-a0d7-baee09276be4","system_id":"levelo_inurba_marseille","lat":43.30642,"lon":5.401031,"is_reserved":false,"is_disabled":false,"rental_uris":{"android":"levelo://app?vid=25bdfaa4-6c00-453b-a0d7-baee09276be4","ios":"levelo://app?vid=25bdfaa4-6c00-453b-a0d7-baee09276be4"},"vehicle_type_id":"4","last_reported":1698419204,"current_range_meters":25200,"station_id":"ce4bh112rcd13ifvqda0","pricing_plan_id":"free"},{"bike_id":"6c5302f1-80f3-48d6-a649-f7c509d072b3","system_id":"levelo_inurba_marseille","lat":43.312706,"lon":5.40173,"is_reserved":false,"is_disabled":false,"rental_uris":{"android":"levelo://app?vid=6c5302f1-80f3-48d6-a649-f7c509d072b3","ios":"levelo://app?vid=6c5302f1-80f3-48d6-a649-f7c509d072b3"},"vehicle_type_id":"4","last_reported":1698419204,"current_range_meters":0,"station_id":"ce4bh092rcd13ifvqd30","pricing_plan_id":"free"},{"bike_id":"aabeb96f-24cc-40d7-a852-c5876317c6e0","system_id":"levelo_inurba_marseille","lat":43.31276,"lon":5.401794,"is_reserved":false,"is_disabled":false,"rental_uris":{"android":"levelo://app?vid=aabeb96f-24cc-40d7-a852-c5876317c6e0","ios":"levelo://app?vid=aabeb96f-24cc-40d7-a852-c5876317c6e0"},"vehicle_type_id":"4","last_reported":1698419204,"current_range_meters":8000,"station_id":"ce4bh092rcd13ifvqd30","pricing_plan_id":"free"},{"bike_id":"26472864-feb2-4d77-af25-285dbd6d117a","system_id":"levelo_inurba_marseille","lat":43.306412,"lon":5.401035,"is_reserved":false,"is_disabled":false,"rental_uris":{"android":"levelo://app?vid=26472864-feb2-4d77-af25-285dbd6d117a","ios":"levelo://app?vid=26472864-feb2-4d77-af25-285dbd6d117a"},"vehicle_type_id":"4","last_reported":1698419204,"current_range_meters":29600,"station_id":"ce4bh112rcd13ifvqda0","pricing_plan_id":"free"},{"bike_id":"95ea1796-f8f9-4cc9-8511-2b8c8c52db0d","system_id":"levelo_inurba_marseille","lat":43.306412,"lon":5.401035,"is_reserved":false,"is_disabled":false,"rental_uris":{"android":"levelo://app?vid=95ea1796-f8f9-4cc9-8511-2b8c8c52db0d","ios":"levelo://app?vid=95ea1796-f8f9-4cc9-8511-2b8c8c52db0d"},"vehicle_type_id":"4","last_reported":1698419204,"current_range_meters":3600,"station_id":"ce4bh112rcd13ifvqda0","pricing_plan_id":"free"},{"bike_id":"a4f94f79-6fb2-4f88-b3bb-0144452d9beb","system_id":"levelo_inurba_marseille","lat":43.30642,"lon":5.401031,"is_reserved":false,"is_disabled":false,"rental_uris":{"android":"levelo://app?vid=a4f94f79-6fb2-4f88-b3bb-0144452d9beb","ios":"levelo://app?vid=a4f94f79-6fb2-4f88-b3bb-0144452d9beb"},"vehicle_type_id":"4","last_reported":1698419204,"current_range_meters":8800,"station_id":"ce4bh112rcd13ifvqda0","pricing_plan_id":"free"},{"bike_id":"b2ab2291-d8e5-4757-9a66-e79e3a5a06fc","system_id":"levelo_inurba_marseille","lat":43.30642,"lon":5.401031,"is_reserved":false,"is_disabled":false,"rental_uris":{"android":"levelo://app?vid=b2ab2291-d8e5-4757-9a66-e79e3a5a06fc","ios":"levelo://app?vid=b2ab2291-d8e5-4757-9a66-e79e3a5a06fc"},"vehicle_type_id":"4","last_reported":1698419204,"current_range_meters":6000,"station_id":"ce4bh112rcd13ifvqda0","pricing_plan_id":"free"},{"bike_id":"4dc4dbd1-c613-4c25-9a79-983898f89a7f","system_id":"levelo_inurba_marseille","lat":43.301117,"lon":5.398795,"is_reserved":false,"is_disabled":false,"rental_uris":{"android":"levelo://app?vid=4dc4dbd1-c613-4c25-9a79-983898f89a7f","ios":"levelo://app?vid=4dc4dbd1-c613-4c25-9a79-983898f89a7f"},"vehicle_type_id":"4","last_reported":1698419204,"current_range_meters":5200,"station_id":"ce4bh0h2rcd13ifvqd40","pricing_plan_id":"free"},{"bike_id":"a1fa1df8-e47b-4e37-92b2-9538bbd2468d","system_id":"levelo_inurba_marseille","lat":43.30119,"lon":5.39861,"is_reserved":false,"is_disabled":false,"rental_uris":{"android":"levelo://app?vid=a1fa1df8-e47b-4e37-92b2-9538bbd2468d","ios":"levelo://app?vid=a1fa1df8-e47b-4e37-92b2-9538bbd2468d"},"vehicle_type_id":"4","last_reported":1698419204,"current_range_meters":2400,"station_id":"ce4bh0h2rcd13ifvqd40","pricing_plan_id":"free"},{"bike_id":"a956564b-5ba7-4419-ad03-4bbc4e7acc62","system_id":"levelo_inurba_marseille","lat":43.286591,"lon":5.363346,"is_reserved":false,"is_disabled":false,"rental_uris":{"android":"levelo://app?vid=a956564b-5ba7-4419-ad03-4bbc4e7acc62","ios":"levelo://app?vid=a956564b-5ba7-4419-ad03-4bbc4e7acc62"},"vehicle_type_id":"4","last_reported":1698419204,"current_range_meters":24400,"station_id":"ce4bhah2rcd13ifvqej0","pricing_plan_id":"free"},{"bike_id":"041a64d4-5450-4650-8197-ae391bbddb77","system_id":"levelo_inurba_marseille","lat":43.286591,"lon":5.363346,"is_reserved":false,"is_disabled":false,"rental_uris":{"android":"levelo://app?vid=041a64d4-5450-4650-8197-ae391bbddb77","ios":"levelo://app?vid=041a64d4-5450-4650-8197-ae391bbddb77"},"vehicle_type_id":"4","last_reported":1698419204,"current_range_meters":26400,"station_id":"ce4bhah2rcd13ifvqej0","pricing_plan_id":"free"},{"bike_id":"7755f198-da97-4916-929e-917c530b9dee","system_id":"levelo_inurba_marseille","lat":43.298681,"lon":5.397225,"is_reserved":false,"is_disabled":false,"rental_uris":{"android":"levelo://app?vid=7755f198-da97-4916-929e-917c530b9dee","ios":"levelo://app?vid=7755f198-da97-4916-929e-917c530b9dee"},"vehicle_type_id":"4","last_reported":1698419204,"current_range_meters":26400,"station_id":"ce4bh0h2rcd13ifvqd50","pricing_plan_id":"free"},{"bike_id":"505786c3-7ddd-48c6-9b19-df3e42d86f1f","system_id":"levelo_inurba_marseille","lat":43.29871,"lon":5.3974,"is_reserved":false,"is_disabled":false,"rental_uris":{"android":"levelo://app?vid=505786c3-7ddd-48c6-9b19-df3e42d86f1f","ios":"levelo://app?vid=505786c3-7ddd-48c6-9b19-df3e42d86f1f"},"vehicle_type_id":"4","last_reported":1698419204,"current_range_meters":0,"station_id":"","pricing_plan_id":"free"},{"bike_id":"45f1b13a-39c3-429d-9daa-dc4b2f080f38","system_id":"levelo_inurba_marseille","lat":43.289307,"lon":5.38406,"is_reserved":false,"is_disabled":false,"rental_uris":{"android":"levelo://app?vid=45f1b13a-39c3-429d-9daa-dc4b2f080f38","ios":"levelo://app?vid=45f1b13a-39c3-429d-9daa-dc4b2f080f38"},"vehicle_type_id":"4","last_reported":1698419204,"current_range_meters":0,"station_id":"ce4bh612rcd13ifvqe6g","pricing_plan_id":"free"},{"bike_id":"a629a218-9da9-4758-8efc-90e70ae26937","system_id":"levelo_inurba_marseille","lat":43.29035,"lon":5.38641,"is_reserved":false,"is_disabled":false,"rental_uris":{"android":"levelo://app?vid=a629a218-9da9-4758-8efc-90e70ae26937","ios":"levelo://app?vid=a629a218-9da9-4758-8efc-90e70ae26937"},"vehicle_type_id":"4","last_reported":1698419204,"current_range_meters":16000,"station_id":"ce4bh4p2rcd13ifvqe0g","pricing_plan_id":"free"},{"bike_id":"14593f06-37dc-4e48-b6a2-e56155687a69","system_id":"levelo_inurba_marseille","lat":43.290286,"lon":5.386298,"is_reserved":false,"is_disabled":false,"rental_uris":{"android":"levelo://app?vid=14593f06-37dc-4e48-b6a2-e56155687a69","ios":"levelo://app?vid=14593f06-37dc-4e48-b6a2-e56155687a69"},"vehicle_type_id":"4","last_reported":1698419204,"current_range_meters":31200,"station_id":"ce4bh4p2rcd13ifvqe0g","pricing_plan_id":"free"},{"bike_id":"9a0c50f8-fa46-4a33-ac85-7a001d9d2b1a","system_id":"levelo_inurba_marseille","lat":43.29029,"lon":5.38644,"is_reserved":false,"is_disabled":false,"rental_uris":{"android":"levelo://app?vid=9a0c50f8-fa46-4a33-ac85-7a001d9d2b1a","ios":"levelo://app?vid=9a0c50f8-fa46-4a33-ac85-7a001d9d2b1a"},"vehicle_type_id":"4","last_reported":1698419204,"current_range_meters":25200,"station_id":"","pricing_plan_id":"free"},{"bike_id":"556e197d-f0f6-45ea-96e0-5e50950a0760","system_id":"levelo_inurba_marseille","lat":43.302759,"lon":5.400793,"is_reserved":false,"is_disabled":false,"rental_uris":{"android":"levelo://app?vid=556e197d-f0f6-45ea-96e0-5e50950a0760","ios":"levelo://app?vid=556e197d-f0f6-45ea-96e0-5e50950a0760"},"vehicle_type_id":"4","last_reported":1698419204,"current_range_meters":19600,"station_id":"ce4bgvh2rcd13ifvqcs0","pricing_plan_id":"free"},{"bike_id":"b13eec51-bdda-44e7-bdd6-f44cdc24e590","system_id":"levelo_inurba_marseille","lat":43.287218,"lon":5.379428,"is_reserved":false,"is_disabled":false,"rental_uris":{"android":"levelo://app?vid=b13eec51-bdda-44e7-bdd6-f44cdc24e590","ios":"levelo://app?vid=b13eec51-bdda-44e7-bdd6-f44cdc24e590"},"vehicle_type_id":"4","last_reported":1698419204,"current_range_meters":31200,"station_id":"ce4bh9p2rcd13ifvqec0","pricing_plan_id":"free"},{"bike_id":"8780a43c-f0db-4612-9bfa-e97a938c53b4","system_id":"levelo_inurba_marseille","lat":43.28719,"lon":5.37943,"is_reserved":false,"is_disabled":false,"rental_uris":{"android":"levelo://app?vid=8780a43c-f0db-4612-9bfa-e97a938c53b4","ios":"levelo://app?vid=8780a43c-f0db-4612-9bfa-e97a938c53b4"},"vehicle_type_id":"4","last_reported":1698419204,"current_range_meters":31200,"station_id":"ce4bh9p2rcd13ifvqec0","pricing_plan_id":"free"},{"bike_id":"bc368e20-93c0-495a-bb4f-cd8ed7ee7f0d","system_id":"levelo_inurba_marseille","lat":43.335307,"lon":5.388143,"is_reserved":false,"is_disabled":false,"rental_uris":{"android":"levelo://app?vid=bc368e20-93c0-495a-bb4f-cd8ed7ee7f0d","ios":"levelo://app?vid=bc368e20-93c0-495a-bb4f-cd8ed7ee7f0d"},"vehicle_type_id":"4","last_reported":1698419204,"current_range_meters":0,"station_id":"","pricing_plan_id":"free"},{"bike_id":"6ce3f9b1-e0bd-4cd9-a209-6f9bd62b279b","system_id":"levelo_inurba_marseille","lat":43.31648,"lon":5.40444,"is_reserved":false,"is_disabled":false,"rental_uris":{"android":"levelo://app?vid=6ce3f9b1-e0bd-4cd9-a209-6f9bd62b279b","ios":"levelo://app?vid=6ce3f9b1-e0bd-4cd9-a209-6f9bd62b279b"},"vehicle_type_id":"4","last_reported":1698419204,"current_range_meters":0,"station_id":"ce4bh012rcd13ifvqd00","pricing_plan_id":"free"},{"bike_id":"716d9aab-14ce-413d-aff6-78de89ad04e4","system_id":"levelo_inurba_marseille","lat":43.291994,"lon":5.392907,"is_reserved":false,"is_disabled":false,"rental_uris":{"android":"levelo://app?vid=716d9aab-14ce-413d-aff6-78de89ad04e4","ios":"levelo://app?vid=716d9aab-14ce-413d-aff6-78de89ad04e4"},"vehicle_type_id":"4","last_reported":1698419204,"current_range_meters":30000,"station_id":"ce4bh192rcd13ifvqdd0","pricing_plan_id":"free"},{"bike_id":"6bdc3147-1c89-4038-9e8a-8fa59bd596a0","system_id":"levelo_inurba_marseille","lat":43.291994,"lon":5.392907,"is_reserved":false,"is_disabled":false,"rental_uris":{"android":"levelo://app?vid=6bdc3147-1c89-4038-9e8a-8fa59bd596a0","ios":"levelo://app?vid=6bdc3147-1c89-4038-9e8a-8fa59bd596a0"},"vehicle_type_id":"4","last_reported":1698419204,"current_range_meters":22400,"station_id":"ce4bh192rcd13ifvqdd0","pricing_plan_id":"free"},{"bike_id":"c6cb8ba7-086f-4e1d-b31e-5bbafb7dd5a7","system_id":"levelo_inurba_marseille","lat":43.284534,"lon":5.358662,"is_reserved":false,"is_disabled":false,"rental_uris":{"android":"levelo://app?vid=c6cb8ba7-086f-4e1d-b31e-5bbafb7dd5a7","ios":"levelo://app?vid=c6cb8ba7-086f-4e1d-b31e-5bbafb7dd5a7"},"vehicle_type_id":"4","last_reported":1698419204,"current_range_meters":31200,"station_id":"ce4bhah2rcd13ifvqei0","pricing_plan_id":"free"},{"bike_id":"3ae0edbe-2749-4c75-b9ab-3742eb96a67e","system_id":"levelo_inurba_marseille","lat":43.284534,"lon":5.358662,"is_reserved":false,"is_disabled":false,"rental_uris":{"android":"levelo://app?vid=3ae0edbe-2749-4c75-b9ab-3742eb96a67e","ios":"levelo://app?vid=3ae0edbe-2749-4c75-b9ab-3742eb96a67e"},"vehicle_type_id":"4","last_reported":1698419204,"current_range_meters":31200,"station_id":"ce4bhah2rcd13ifvqei0","pricing_plan_id":"free"},{"bike_id":"5984ea5a-d251-49f8-8adb-9c0f4d898354","system_id":"levelo_inurba_marseille","lat":43.284637,"lon":5.358823,"is_reserved":false,"is_disabled":false,"rental_uris":{"android":"levelo://app?vid=5984ea5a-d251-49f8-8adb-9c0f4d898354","ios":"levelo://app?vid=5984ea5a-d251-49f8-8adb-9c0f4d898354"},"vehicle_type_id":"4","last_reported":1698419204,"current_range_meters":29600,"station_id":"ce4bhah2rcd13ifvqei0","pricing_plan_id":"free"},{"bike_id":"a1cfc80b-47cd-4eb2-bf43-d1451ccb6117","system_id":"levelo_inurba_marseille","lat":43.284614,"lon":5.358831,"is_reserved":false,"is_disabled":false,"rental_uris":{"android":"levelo://app?vid=a1cfc80b-47cd-4eb2-bf43-d1451ccb6117","ios":"levelo://app?vid=a1cfc80b-47cd-4eb2-bf43-d1451ccb6117"},"vehicle_type_id":"4","last_reported":1698419204,"current_range_meters":31200,"station_id":"ce4bhah2rcd13ifvqei0","pricing_plan_id":"free"},{"bike_id":"ebc41354-7990-4c82-a4fe-8b2b0a7ff561","system_id":"levelo_inurba_marseille","lat":43.28461,"lon":5.35881,"is_reserved":false,"is_disabled":false,"rental_uris":{"android":"levelo://app?vid=ebc41354-7990-4c82-a4fe-8b2b0a7ff561","ios":"levelo://app?vid=ebc41354-7990-4c82-a4fe-8b2b0a7ff561"},"vehicle_type_id":"4","last_reported":1698419204,"current_range_meters":31200,"station_id":"ce4bhah2rcd13ifvqei0","pricing_plan_id":"free"},{"bike_id":"6f476930-d2ac-4b59-81c9-f850ad070d12","system_id":"levelo_inurba_marseille","lat":43.284584,"lon":5.358865,"is_reserved":false,"is_disabled":false,"rental_uris":{"android":"levelo://app?vid=6f476930-d2ac-4b59-81c9-f850ad070d12","ios":"levelo://app?vid=6f476930-d2ac-4b59-81c9-f850ad070d12"},"vehicle_type_id":"4","last_reported":1698419204,"current_range_meters":2000,"station_id":"ce4bhah2rcd13ifvqei0","pricing_plan_id":"free"},{"bike_id":"c403b2c9-a209-4fe8-896f-f337b7b2b6e5","system_id":"levelo_inurba_marseille","lat":43.284534,"lon":5.358662,"is_reserved":false,"is_disabled":false,"rental_uris":{"android":"levelo://app?vid=c403b2c9-a209-4fe8-896f-f337b7b2b6e5","ios":"levelo://app?vid=c403b2c9-a209-4fe8-896f-f337b7b2b6e5"},"vehicle_type_id":"4","last_reported":1698419204,"current_range_meters":20800,"station_id":"ce4bhah2rcd13ifvqei0","pricing_plan_id":"free"},{"bike_id":"51ef808f-a903-49ac-a2f3-c936cce5260a","system_id":"levelo_inurba_marseille","lat":43.285856,"lon":5.350771,"is_reserved":false,"is_disabled":false,"rental_uris":{"android":"levelo://app?vid=51ef808f-a903-49ac-a2f3-c936cce5260a","ios":"levelo://app?vid=51ef808f-a903-49ac-a2f3-c936cce5260a"},"vehicle_type_id":"4","last_reported":1698419204,"current_range_meters":29600,"station_id":"ce4bhch2rcd13ifvqeug","pricing_plan_id":"free"},{"bike_id":"c415f085-cfd8-4901-a28d-0d4ed874ccca","system_id":"levelo_inurba_marseille","lat":43.295713,"lon":5.399639,"is_reserved":false,"is_disabled":false,"rental_uris":{"android":"levelo://app?vid=c415f085-cfd8-4901-a28d-0d4ed874ccca","ios":"levelo://app?vid=c415f085-cfd8-4901-a28d-0d4ed874ccca"},"vehicle_type_id":"4","last_reported":1698419204,"current_range_meters":23200,"station_id":"ce4bh312rcd13ifvqdj0","pricing_plan_id":"free"},{"bike_id":"2776dffd-9e43-4358-90ab-981de5d938b9","system_id":"levelo_inurba_marseille","lat":43.286595,"lon":5.386795,"is_reserved":false,"is_disabled":false,"rental_uris":{"android":"levelo://app?vid=2776dffd-9e43-4358-90ab-981de5d938b9","ios":"levelo://app?vid=2776dffd-9e43-4358-90ab-981de5d938b9"},"vehicle_type_id":"4","last_reported":1698419204,"current_range_meters":28800,"station_id":"ce4bh492rcd13ifvqdug","pricing_plan_id":"free"},{"bike_id":"a04dca67-8317-445e-90d6-5788929468fd","system_id":"levelo_inurba_marseille","lat":43.33674,"lon":5.39198,"is_reserved":false,"is_disabled":false,"rental_uris":{"android":"levelo://app?vid=a04dca67-8317-445e-90d6-5788929468fd","ios":"levelo://app?vid=a04dca67-8317-445e-90d6-5788929468fd"},"vehicle_type_id":"4","last_reported":1698419204,"current_range_meters":9200,"station_id":"","pricing_plan_id":"free"},{"bike_id":"5d3c6322-5b71-40c6-89e1-9115195d26ae","system_id":"levelo_inurba_marseille","lat":43.32333,"lon":5.406201,"is_reserved":false,"is_disabled":false,"rental_uris":{"android":"levelo://app?vid=5d3c6322-5b71-40c6-89e1-9115195d26ae","ios":"levelo://app?vid=5d3c6322-5b71-40c6-89e1-9115195d26ae"},"vehicle_type_id":"4","last_reported":1698419204,"current_range_meters":16400,"station_id":"ce4bhq92rcd13ifvqhjg","pricing_plan_id":"free"},{"bike_id":"67d525d1-e7de-4429-8fed-8dd967e6c3ca","system_id":"levelo_inurba_marseille","lat":43.297946,"lon":5.404063,"is_reserved":false,"is_disabled":false,"rental_uris":{"android":"levelo://app?vid=67d525d1-e7de-4429-8fed-8dd967e6c3ca","ios":"levelo://app?vid=67d525d1-e7de-4429-8fed-8dd967e6c3ca"},"vehicle_type_id":"4","last_reported":1698419204,"current_range_meters":15200,"station_id":"ce4bh112rcd13ifvqd90","pricing_plan_id":"free"},{"bike_id":"2f666bbb-190f-4291-ade2-95e2c0cfd815","system_id":"levelo_inurba_marseille","lat":43.325281,"lon":5.405683,"is_reserved":false,"is_disabled":false,"rental_uris":{"android":"levelo://app?vid=2f666bbb-190f-4291-ade2-95e2c0cfd815","ios":"levelo://app?vid=2f666bbb-190f-4291-ade2-95e2c0cfd815"},"vehicle_type_id":"4","last_reported":1698419204,"current_range_meters":21600,"station_id":"","pricing_plan_id":"free"},{"bike_id":"53ed2cf6-40a6-4a66-98ed-c9cb406f5eab","system_id":"levelo_inurba_marseille","lat":43.298433,"lon":5.362774,"is_reserved":false,"is_disabled":false,"rental_uris":{"android":"levelo://app?vid=53ed2cf6-40a6-4a66-98ed-c9cb406f5eab","ios":"levelo://app?vid=53ed2cf6-40a6-4a66-98ed-c9cb406f5eab"},"vehicle_type_id":"4","last_reported":1698419204,"current_range_meters":25200,"station_id":"ce4bgpp2rcd13ifvqc3g","pricing_plan_id":"free"},{"bike_id":"e6e2411d-4671-4e2a-ab0b-b2d36af1f273","system_id":"levelo_inurba_marseille","lat":43.284217,"lon":5.349697,"is_reserved":false,"is_disabled":false,"rental_uris":{"android":"levelo://app?vid=e6e2411d-4671-4e2a-ab0b-b2d36af1f273","ios":"levelo://app?vid=e6e2411d-4671-4e2a-ab0b-b2d36af1f273"},"vehicle_type_id":"4","last_reported":1698419204,"current_range_meters":6000,"station_id":"ce4bhbh2rcd13ifvqepg","pricing_plan_id":"free"},{"bike_id":"24158f83-9900-43fc-be23-9700b05fa33e","system_id":"levelo_inurba_marseille","lat":43.282744,"lon":5.350533,"is_reserved":false,"is_disabled":false,"rental_uris":{"android":"levelo://app?vid=24158f83-9900-43fc-be23-9700b05fa33e","ios":"levelo://app?vid=24158f83-9900-43fc-be23-9700b05fa33e"},"vehicle_type_id":"4","last_reported":1698419204,"current_range_meters":20400,"station_id":"ce4bhbp2rcd13ifvqerg","pricing_plan_id":"free"},{"bike_id":"85381371-5b73-410e-8d87-399720208ba2","system_id":"levelo_inurba_marseille","lat":43.282754,"lon":5.350519,"is_reserved":false,"is_disabled":false,"rental_uris":{"android":"levelo://app?vid=85381371-5b73-410e-8d87-399720208ba2","ios":"levelo://app?vid=85381371-5b73-410e-8d87-399720208ba2"},"vehicle_type_id":"4","last_reported":1698419204,"current_range_meters":18800,"station_id":"ce4bhbp2rcd13ifvqerg","pricing_plan_id":"free"},{"bike_id":"cd1ed5f2-2dc3-4183-9a93-0f6197348cc5","system_id":"levelo_inurba_marseille","lat":43.282754,"lon":5.350519,"is_reserved":false,"is_disabled":false,"rental_uris":{"android":"levelo://app?vid=cd1ed5f2-2dc3-4183-9a93-0f6197348cc5","ios":"levelo://app?vid=cd1ed5f2-2dc3-4183-9a93-0f6197348cc5"},"vehicle_type_id":"4","last_reported":1698419204,"current_range_meters":400,"station_id":"ce4bhbp2rcd13ifvqerg","pricing_plan_id":"free"},{"bike_id":"a22841ad-b1d1-4da7-be2a-f0f2b9f8323a","system_id":"levelo_inurba_marseille","lat":43.28039,"lon":5.369297,"is_reserved":false,"is_disabled":false,"rental_uris":{"android":"levelo://app?vid=a22841ad-b1d1-4da7-be2a-f0f2b9f8323a","ios":"levelo://app?vid=a22841ad-b1d1-4da7-be2a-f0f2b9f8323a"},"vehicle_type_id":"4","last_reported":1698419204,"current_range_meters":4400,"station_id":"ce4bha12rcd13ifvqef0","pricing_plan_id":"free"},{"bike_id":"ffab83e6-4534-4d1a-8032-c33329634f60","system_id":"levelo_inurba_marseille","lat":43.28039,"lon":5.369297,"is_reserved":false,"is_disabled":false,"rental_uris":{"android":"levelo://app?vid=ffab83e6-4534-4d1a-8032-c33329634f60","ios":"levelo://app?vid=ffab83e6-4534-4d1a-8032-c33329634f60"},"vehicle_type_id":"4","last_reported":1698419204,"current_range_meters":16400,"station_id":"ce4bha12rcd13ifvqef0","pricing_plan_id":"free"},{"bike_id":"1ca242fe-6084-4f9b-8b54-35d465872844","system_id":"levelo_inurba_marseille","lat":43.29041,"lon":5.399634,"is_reserved":false,"is_disabled":false,"rental_uris":{"android":"levelo://app?vid=1ca242fe-6084-4f9b-8b54-35d465872844","ios":"levelo://app?vid=1ca242fe-6084-4f9b-8b54-35d465872844"},"vehicle_type_id":"4","last_reported":1698419204,"current_range_meters":22000,"station_id":"ce4bh392rcd13ifvqdm0","pricing_plan_id":"free"},{"bike_id":"6285e533-421f-430b-a4b5-ba139435bfd3","system_id":"levelo_inurba_marseille","lat":43.29631,"lon":5.40593,"is_reserved":false,"is_disabled":false,"rental_uris":{"android":"levelo://app?vid=6285e533-421f-430b-a4b5-ba139435bfd3","ios":"levelo://app?vid=6285e533-421f-430b-a4b5-ba139435bfd3"},"vehicle_type_id":"4","last_reported":1698419204,"current_range_meters":10400,"station_id":"ce4bh0h2rcd13ifvqd60","pricing_plan_id":"free"},{"bike_id":"dc2a775b-4db2-4e98-94fc-e6cf5e1c6c9f","system_id":"levelo_inurba_marseille","lat":43.296263,"lon":5.40601,"is_reserved":false,"is_disabled":false,"rental_uris":{"android":"levelo://app?vid=dc2a775b-4db2-4e98-94fc-e6cf5e1c6c9f","ios":"levelo://app?vid=dc2a775b-4db2-4e98-94fc-e6cf5e1c6c9f"},"vehicle_type_id":"4","last_reported":1698419204,"current_range_meters":18000,"station_id":"ce4bh0h2rcd13ifvqd60","pricing_plan_id":"free"},{"bike_id":"5f48df26-8dab-4c00-a452-f5bddff6ce82","system_id":"levelo_inurba_marseille","lat":43.304137,"lon":5.412796,"is_reserved":false,"is_disabled":false,"rental_uris":{"android":"levelo://app?vid=5f48df26-8dab-4c00-a452-f5bddff6ce82","ios":"levelo://app?vid=5f48df26-8dab-4c00-a452-f5bddff6ce82"},"vehicle_type_id":"4","last_reported":1698419204,"current_range_meters":0,"station_id":"ce4bhop2rcd13ifvqh8g","pricing_plan_id":"free"},{"bike_id":"437e98bf-592f-482f-a13c-e27562c1eff4","system_id":"levelo_inurba_marseille","lat":43.304188,"lon":5.412904,"is_reserved":false,"is_disabled":false,"rental_uris":{"android":"levelo://app?vid=437e98bf-592f-482f-a13c-e27562c1eff4","ios":"levelo://app?vid=437e98bf-592f-482f-a13c-e27562c1eff4"},"vehicle_type_id":"4","last_reported":1698419204,"current_range_meters":28000,"station_id":"ce4bhop2rcd13ifvqh8g","pricing_plan_id":"free"},{"bike_id":"881ed49a-6f99-4ca4-80a9-fd4acc62c063","system_id":"levelo_inurba_marseille","lat":43.287154,"lon":5.399979,"is_reserved":false,"is_disabled":false,"rental_uris":{"android":"levelo://app?vid=881ed49a-6f99-4ca4-80a9-fd4acc62c063","ios":"levelo://app?vid=881ed49a-6f99-4ca4-80a9-fd4acc62c063"},"vehicle_type_id":"4","last_reported":1698419204,"current_range_meters":0,"station_id":"ce4bho92rcd13ifvqh3g","pricing_plan_id":"free"},{"bike_id":"ab441268-3e03-4104-94cc-7705d60c6788","system_id":"levelo_inurba_marseille","lat":43.320045,"lon":5.415048,"is_reserved":false,"is_disabled":false,"rental_uris":{"android":"levelo://app?vid=ab441268-3e03-4104-94cc-7705d60c6788","ios":"levelo://app?vid=ab441268-3e03-4104-94cc-7705d60c6788"},"vehicle_type_id":"4","last_reported":1698419204,"current_range_meters":16400,"station_id":"ce4bhq92rcd13ifvqhkg","pricing_plan_id":"free"},{"bike_id":"f8869165-812b-47a1-b4e4-f4e2e557fc45","system_id":"levelo_inurba_marseille","lat":43.292571,"lon":5.409107,"is_reserved":false,"is_disabled":false,"rental_uris":{"android":"levelo://app?vid=f8869165-812b-47a1-b4e4-f4e2e557fc45","ios":"levelo://app?vid=f8869165-812b-47a1-b4e4-f4e2e557fc45"},"vehicle_type_id":"4","last_reported":1698419204,"current_range_meters":9200,"station_id":"ce4bh192rcd13ifvqdc0","pricing_plan_id":"free"},{"bike_id":"55d1a1e5-7635-4cf4-b3b0-9a1b40eb8f05","system_id":"levelo_inurba_marseille","lat":43.292569,"lon":5.409107,"is_reserved":false,"is_disabled":false,"rental_uris":{"android":"levelo://app?vid=55d1a1e5-7635-4cf4-b3b0-9a1b40eb8f05","ios":"levelo://app?vid=55d1a1e5-7635-4cf4-b3b0-9a1b40eb8f05"},"vehicle_type_id":"4","last_reported":1698419204,"current_range_meters":18800,"station_id":"ce4bh192rcd13ifvqdc0","pricing_plan_id":"free"},{"bike_id":"50ae4ee5-4372-40c9-8282-4977652f6818","system_id":"levelo_inurba_marseille","lat":43.292571,"lon":5.409107,"is_reserved":false,"is_disabled":false,"rental_uris":{"android":"levelo://app?vid=50ae4ee5-4372-40c9-8282-4977652f6818","ios":"levelo://app?vid=50ae4ee5-4372-40c9-8282-4977652f6818"},"vehicle_type_id":"4","last_reported":1698419204,"current_range_meters":29200,"station_id":"ce4bh192rcd13ifvqdc0","pricing_plan_id":"free"},{"bike_id":"74e2ef73-bd5e-4b59-bfe4-04123732d355","system_id":"levelo_inurba_marseille","lat":43.292569,"lon":5.409107,"is_reserved":false,"is_disabled":false,"rental_uris":{"android":"levelo://app?vid=74e2ef73-bd5e-4b59-bfe4-04123732d355","ios":"levelo://app?vid=74e2ef73-bd5e-4b59-bfe4-04123732d355"},"vehicle_type_id":"4","last_reported":1698419204,"current_range_meters":29600,"station_id":"ce4bh192rcd13ifvqdc0","pricing_plan_id":"free"},{"bike_id":"d3fe9c6f-7c90-446e-a09b-853a2a8d178c","system_id":"levelo_inurba_marseille","lat":43.292569,"lon":5.409107,"is_reserved":false,"is_disabled":false,"rental_uris":{"android":"levelo://app?vid=d3fe9c6f-7c90-446e-a09b-853a2a8d178c","ios":"levelo://app?vid=d3fe9c6f-7c90-446e-a09b-853a2a8d178c"},"vehicle_type_id":"4","last_reported":1698419204,"current_range_meters":23200,"station_id":"ce4bh192rcd13ifvqdc0","pricing_plan_id":"free"},{"bike_id":"9218a9a0-48d3-4c7d-9977-4d6d77ec224b","system_id":"levelo_inurba_marseille","lat":43.29259,"lon":5.40913,"is_reserved":false,"is_disabled":false,"rental_uris":{"android":"levelo://app?vid=9218a9a0-48d3-4c7d-9977-4d6d77ec224b","ios":"levelo://app?vid=9218a9a0-48d3-4c7d-9977-4d6d77ec224b"},"vehicle_type_id":"4","last_reported":1698419204,"current_range_meters":23200,"station_id":"ce4bh192rcd13ifvqdc0","pricing_plan_id":"free"},{"bike_id":"f9f0e9ee-9aa5-4362-845a-70250ef99b07","system_id":"levelo_inurba_marseille","lat":43.276179,"lon":5.361009,"is_reserved":false,"is_disabled":false,"rental_uris":{"android":"levelo://app?vid=f9f0e9ee-9aa5-4362-845a-70250ef99b07","ios":"levelo://app?vid=f9f0e9ee-9aa5-4362-845a-70250ef99b07"},"vehicle_type_id":"4","last_reported":1698419204,"current_range_meters":17600,"station_id":"ce4bgj92rcd13ifvqbe0","pricing_plan_id":"free"},{"bike_id":"e4052767-113d-43ce-a24a-7218a91e7cd9","system_id":"levelo_inurba_marseille","lat":43.303837,"lon":5.418724,"is_reserved":false,"is_disabled":false,"rental_uris":{"android":"levelo://app?vid=e4052767-113d-43ce-a24a-7218a91e7cd9","ios":"levelo://app?vid=e4052767-113d-43ce-a24a-7218a91e7cd9"},"vehicle_type_id":"4","last_reported":1698419204,"current_range_meters":17600,"station_id":"ce4bhop2rcd13ifvqh7g","pricing_plan_id":"free"},{"bike_id":"12db6c5a-2cb3-41fc-8f8f-d83e6b77b10c","system_id":"levelo_inurba_marseille","lat":43.278401,"lon":5.392152,"is_reserved":false,"is_disabled":false,"rental_uris":{"android":"levelo://app?vid=12db6c5a-2cb3-41fc-8f8f-d83e6b77b10c","ios":"levelo://app?vid=12db6c5a-2cb3-41fc-8f8f-d83e6b77b10c"},"vehicle_type_id":"4","last_reported":1698419204,"current_range_meters":23600,"station_id":"ce4bhjp2rcd13ifvqga0","pricing_plan_id":"free"},{"bike_id":"3b28dc8f-12fb-478f-a193-3be7ed377685","system_id":"levelo_inurba_marseille","lat":43.278373,"lon":5.39207,"is_reserved":false,"is_disabled":false,"rental_uris":{"android":"levelo://app?vid=3b28dc8f-12fb-478f-a193-3be7ed377685","ios":"levelo://app?vid=3b28dc8f-12fb-478f-a193-3be7ed377685"},"vehicle_type_id":"4","last_reported":1698419204,"current_range_meters":22400,"station_id":"ce4bhjp2rcd13ifvqga0","pricing_plan_id":"free"},{"bike_id":"93762ed6-d7dc-4815-9376-3bd87adf8512","system_id":"levelo_inurba_marseille","lat":43.278401,"lon":5.392152,"is_reserved":false,"is_disabled":false,"rental_uris":{"android":"levelo://app?vid=93762ed6-d7dc-4815-9376-3bd87adf8512","ios":"levelo://app?vid=93762ed6-d7dc-4815-9376-3bd87adf8512"},"vehicle_type_id":"4","last_reported":1698419204,"current_range_meters":22400,"station_id":"ce4bhjp2rcd13ifvqga0","pricing_plan_id":"free"},{"bike_id":"31cc6e12-ac96-468b-85a6-d343fd70cf45","system_id":"levelo_inurba_marseille","lat":43.278399,"lon":5.392139,"is_reserved":false,"is_disabled":false,"rental_uris":{"android":"levelo://app?vid=31cc6e12-ac96-468b-85a6-d343fd70cf45","ios":"levelo://app?vid=31cc6e12-ac96-468b-85a6-d343fd70cf45"},"vehicle_type_id":"4","last_reported":1698419204,"current_range_meters":29200,"station_id":"ce4bhjp2rcd13ifvqga0","pricing_plan_id":"free"},{"bike_id":"bac0f36e-46dc-4370-85d8-571e37d4ea6c","system_id":"levelo_inurba_marseille","lat":43.278399,"lon":5.392139,"is_reserved":false,"is_disabled":false,"rental_uris":{"android":"levelo://app?vid=bac0f36e-46dc-4370-85d8-571e37d4ea6c","ios":"levelo://app?vid=bac0f36e-46dc-4370-85d8-571e37d4ea6c"},"vehicle_type_id":"4","last_reported":1698419204,"current_range_meters":29600,"station_id":"ce4bhjp2rcd13ifvqga0","pricing_plan_id":"free"},{"bike_id":"55c2543b-4ab7-4ae0-a6fa-c06108a1cba8","system_id":"levelo_inurba_marseille","lat":43.2738,"lon":5.36255,"is_reserved":false,"is_disabled":false,"rental_uris":{"android":"levelo://app?vid=55c2543b-4ab7-4ae0-a6fa-c06108a1cba8","ios":"levelo://app?vid=55c2543b-4ab7-4ae0-a6fa-c06108a1cba8"},"vehicle_type_id":"4","last_reported":1698419204,"current_range_meters":4400,"station_id":"ce4bhbh2rcd13ifvqeo0","pricing_plan_id":"free"},{"bike_id":"8b668f62-71af-41d9-9928-5e43d7f99bc5","system_id":"levelo_inurba_marseille","lat":43.27377,"lon":5.36258,"is_reserved":false,"is_disabled":false,"rental_uris":{"android":"levelo://app?vid=8b668f62-71af-41d9-9928-5e43d7f99bc5","ios":"levelo://app?vid=8b668f62-71af-41d9-9928-5e43d7f99bc5"},"vehicle_type_id":"4","last_reported":1698419204,"current_range_meters":22800,"station_id":"ce4bhbh2rcd13ifvqeo0","pricing_plan_id":"free"},{"bike_id":"29f4eeba-fd6a-4ec1-b25a-04324ca9ce67","system_id":"levelo_inurba_marseille","lat":43.275625,"lon":5.384392,"is_reserved":false,"is_disabled":false,"rental_uris":{"android":"levelo://app?vid=29f4eeba-fd6a-4ec1-b25a-04324ca9ce67","ios":"levelo://app?vid=29f4eeba-fd6a-4ec1-b25a-04324ca9ce67"},"vehicle_type_id":"4","last_reported":1698419204,"current_range_meters":30000,"station_id":"ce4bhh92rcd13ifvqfi0","pricing_plan_id":"free"},{"bike_id":"aa112ad0-630f-4918-859c-9549456838c2","system_id":"levelo_inurba_marseille","lat":43.275625,"lon":5.384392,"is_reserved":false,"is_disabled":false,"rental_uris":{"android":"levelo://app?vid=aa112ad0-630f-4918-859c-9549456838c2","ios":"levelo://app?vid=aa112ad0-630f-4918-859c-9549456838c2"},"vehicle_type_id":"4","last_reported":1698419204,"current_range_meters":26000,"station_id":"ce4bhh92rcd13ifvqfi0","pricing_plan_id":"free"},{"bike_id":"d70463b9-734e-45a8-95ef-2db0816fd168","system_id":"levelo_inurba_marseille","lat":43.27376,"lon":5.3624,"is_reserved":false,"is_disabled":false,"rental_uris":{"android":"levelo://app?vid=d70463b9-734e-45a8-95ef-2db0816fd168","ios":"levelo://app?vid=d70463b9-734e-45a8-95ef-2db0816fd168"},"vehicle_type_id":"4","last_reported":1698419204,"current_range_meters":31200,"station_id":"ce4bhbh2rcd13ifvqeo0","pricing_plan_id":"free"},{"bike_id":"f85497f0-6e1c-41d8-b0db-daa17ed27a45","system_id":"levelo_inurba_marseille","lat":43.27372,"lon":5.36253,"is_reserved":false,"is_disabled":false,"rental_uris":{"android":"levelo://app?vid=f85497f0-6e1c-41d8-b0db-daa17ed27a45","ios":"levelo://app?vid=f85497f0-6e1c-41d8-b0db-daa17ed27a45"},"vehicle_type_id":"4","last_reported":1698419204,"current_range_meters":31200,"station_id":"ce4bhbh2rcd13ifvqeo0","pricing_plan_id":"free"},{"bike_id":"26472194-b859-4fe0-b6a2-3e9b32842802","system_id":"levelo_inurba_marseille","lat":43.273613,"lon":5.362705,"is_reserved":false,"is_disabled":false,"rental_uris":{"android":"levelo://app?vid=26472194-b859-4fe0-b6a2-3e9b32842802","ios":"levelo://app?vid=26472194-b859-4fe0-b6a2-3e9b32842802"},"vehicle_type_id":"4","last_reported":1698419204,"current_range_meters":30000,"station_id":"ce4bhbh2rcd13ifvqeo0","pricing_plan_id":"free"},{"bike_id":"7fb73bb6-8a2b-4b45-8aa9-18de3049292e","system_id":"levelo_inurba_marseille","lat":43.273609,"lon":5.362708,"is_reserved":false,"is_disabled":false,"rental_uris":{"android":"levelo://app?vid=7fb73bb6-8a2b-4b45-8aa9-18de3049292e","ios":"levelo://app?vid=7fb73bb6-8a2b-4b45-8aa9-18de3049292e"},"vehicle_type_id":"4","last_reported":1698419204,"current_range_meters":27200,"station_id":"ce4bhbh2rcd13ifvqeo0","pricing_plan_id":"free"},{"bike_id":"404550d0-4247-4adb-8cbd-cfa210116844","system_id":"levelo_inurba_marseille","lat":43.275625,"lon":5.384392,"is_reserved":false,"is_disabled":false,"rental_uris":{"android":"levelo://app?vid=404550d0-4247-4adb-8cbd-cfa210116844","ios":"levelo://app?vid=404550d0-4247-4adb-8cbd-cfa210116844"},"vehicle_type_id":"4","last_reported":1698419204,"current_range_meters":31200,"station_id":"ce4bhh92rcd13ifvqfi0","pricing_plan_id":"free"},{"bike_id":"508828a5-e4f0-48d1-b188-0f4f065cc98c","system_id":"levelo_inurba_marseille","lat":43.275625,"lon":5.384392,"is_reserved":false,"is_disabled":false,"rental_uris":{"android":"levelo://app?vid=508828a5-e4f0-48d1-b188-0f4f065cc98c","ios":"levelo://app?vid=508828a5-e4f0-48d1-b188-0f4f065cc98c"},"vehicle_type_id":"4","last_reported":1698419204,"current_range_meters":0,"station_id":"ce4bhh92rcd13ifvqfi0","pricing_plan_id":"free"},{"bike_id":"5e3749fc-0239-47d7-a45e-e715005d664e","system_id":"levelo_inurba_marseille","lat":43.273613,"lon":5.362705,"is_reserved":false,"is_disabled":false,"rental_uris":{"android":"levelo://app?vid=5e3749fc-0239-47d7-a45e-e715005d664e","ios":"levelo://app?vid=5e3749fc-0239-47d7-a45e-e715005d664e"},"vehicle_type_id":"4","last_reported":1698419204,"current_range_meters":31200,"station_id":"ce4bhbh2rcd13ifvqeo0","pricing_plan_id":"free"},{"bike_id":"cd4c027e-b87a-4c6c-aafd-d8a19e9d24fe","system_id":"levelo_inurba_marseille","lat":43.275625,"lon":5.384392,"is_reserved":false,"is_disabled":false,"rental_uris":{"android":"levelo://app?vid=cd4c027e-b87a-4c6c-aafd-d8a19e9d24fe","ios":"levelo://app?vid=cd4c027e-b87a-4c6c-aafd-d8a19e9d24fe"},"vehicle_type_id":"4","last_reported":1698419204,"current_range_meters":25600,"station_id":"ce4bhh92rcd13ifvqfi0","pricing_plan_id":"free"},{"bike_id":"5afa5ed9-0322-44e5-b044-2137f33f162a","system_id":"levelo_inurba_marseille","lat":43.275625,"lon":5.384392,"is_reserved":false,"is_disabled":false,"rental_uris":{"android":"levelo://app?vid=5afa5ed9-0322-44e5-b044-2137f33f162a","ios":"levelo://app?vid=5afa5ed9-0322-44e5-b044-2137f33f162a"},"vehicle_type_id":"4","last_reported":1698419204,"current_range_meters":4400,"station_id":"ce4bhh92rcd13ifvqfi0","pricing_plan_id":"free"},{"bike_id":"59525cc8-13b4-4f84-a2d6-97f93fea6d7c","system_id":"levelo_inurba_marseille","lat":43.273328,"lon":5.362929,"is_reserved":false,"is_disabled":false,"rental_uris":{"android":"levelo://app?vid=59525cc8-13b4-4f84-a2d6-97f93fea6d7c","ios":"levelo://app?vid=59525cc8-13b4-4f84-a2d6-97f93fea6d7c"},"vehicle_type_id":"4","last_reported":1698419204,"current_range_meters":5200,"station_id":"ce4bhbh2rcd13ifvqeo0","pricing_plan_id":"free"},{"bike_id":"bd1d2962-e358-4a6a-ac06-439079960044","system_id":"levelo_inurba_marseille","lat":43.2781,"lon":5.3949,"is_reserved":false,"is_disabled":false,"rental_uris":{"android":"levelo://app?vid=bd1d2962-e358-4a6a-ac06-439079960044","ios":"levelo://app?vid=bd1d2962-e358-4a6a-ac06-439079960044"},"vehicle_type_id":"4","last_reported":1698419204,"current_range_meters":4000,"station_id":"","pricing_plan_id":"free"},{"bike_id":"de031c73-2069-43f2-ac01-8ca20be62352","system_id":"levelo_inurba_marseille","lat":43.280156,"lon":5.399974,"is_reserved":false,"is_disabled":false,"rental_uris":{"android":"levelo://app?vid=de031c73-2069-43f2-ac01-8ca20be62352","ios":"levelo://app?vid=de031c73-2069-43f2-ac01-8ca20be62352"},"vehicle_type_id":"4","last_reported":1698419204,"current_range_meters":15200,"station_id":"ce4bho92rcd13ifvqh4g","pricing_plan_id":"free"},{"bike_id":"4541ff03-39ea-43e8-a974-6fde4ecd81fd","system_id":"levelo_inurba_marseille","lat":43.279998,"lon":5.400124,"is_reserved":false,"is_disabled":false,"rental_uris":{"android":"levelo://app?vid=4541ff03-39ea-43e8-a974-6fde4ecd81fd","ios":"levelo://app?vid=4541ff03-39ea-43e8-a974-6fde4ecd81fd"},"vehicle_type_id":"4","last_reported":1698419204,"current_range_meters":19600,"station_id":"ce4bho92rcd13ifvqh4g","pricing_plan_id":"free"},{"bike_id":"8b82fee7-cc60-4dc1-ba16-d5b332eaffa3","system_id":"levelo_inurba_marseille","lat":43.279964,"lon":5.400091,"is_reserved":false,"is_disabled":false,"rental_uris":{"android":"levelo://app?vid=8b82fee7-cc60-4dc1-ba16-d5b332eaffa3","ios":"levelo://app?vid=8b82fee7-cc60-4dc1-ba16-d5b332eaffa3"},"vehicle_type_id":"4","last_reported":1698419204,"current_range_meters":28800,"station_id":"ce4bho92rcd13ifvqh4g","pricing_plan_id":"free"},{"bike_id":"92764770-24dd-474f-81c7-8135445bc520","system_id":"levelo_inurba_marseille","lat":43.27999,"lon":5.40017,"is_reserved":false,"is_disabled":false,"rental_uris":{"android":"levelo://app?vid=92764770-24dd-474f-81c7-8135445bc520","ios":"levelo://app?vid=92764770-24dd-474f-81c7-8135445bc520"},"vehicle_type_id":"4","last_reported":1698419204,"current_range_meters":0,"station_id":"ce4bho92rcd13ifvqh4g","pricing_plan_id":"free"},{"bike_id":"9223a9f9-ba63-4d7d-9df3-eb185cfc8727","system_id":"levelo_inurba_marseille","lat":43.27994,"lon":5.400105,"is_reserved":false,"is_disabled":false,"rental_uris":{"android":"levelo://app?vid=9223a9f9-ba63-4d7d-9df3-eb185cfc8727","ios":"levelo://app?vid=9223a9f9-ba63-4d7d-9df3-eb185cfc8727"},"vehicle_type_id":"4","last_reported":1698419204,"current_range_meters":30400,"station_id":"ce4bho92rcd13ifvqh4g","pricing_plan_id":"free"},{"bike_id":"ae5e1297-0e05-4853-b8fa-f1efe5d58a3e","system_id":"levelo_inurba_marseille","lat":43.279961,"lon":5.400206,"is_reserved":false,"is_disabled":false,"rental_uris":{"android":"levelo://app?vid=ae5e1297-0e05-4853-b8fa-f1efe5d58a3e","ios":"levelo://app?vid=ae5e1297-0e05-4853-b8fa-f1efe5d58a3e"},"vehicle_type_id":"4","last_reported":1698419204,"current_range_meters":30400,"station_id":"ce4bho92rcd13ifvqh4g","pricing_plan_id":"free"},{"bike_id":"59c68d8b-7aee-48fa-816b-f6c40e97bc02","system_id":"levelo_inurba_marseille","lat":43.279935,"lon":5.400247,"is_reserved":false,"is_disabled":false,"rental_uris":{"android":"levelo://app?vid=59c68d8b-7aee-48fa-816b-f6c40e97bc02","ios":"levelo://app?vid=59c68d8b-7aee-48fa-816b-f6c40e97bc02"},"vehicle_type_id":"4","last_reported":1698419204,"current_range_meters":28800,"station_id":"ce4bho92rcd13ifvqh4g","pricing_plan_id":"free"},{"bike_id":"576b66eb-37cc-419e-8cff-f50cb9f47d45","system_id":"levelo_inurba_marseille","lat":43.310839,"lon":5.424283,"is_reserved":false,"is_disabled":false,"rental_uris":{"android":"levelo://app?vid=576b66eb-37cc-419e-8cff-f50cb9f47d45","ios":"levelo://app?vid=576b66eb-37cc-419e-8cff-f50cb9f47d45"},"vehicle_type_id":"4","last_reported":1698419204,"current_range_meters":10000,"station_id":"","pricing_plan_id":"free"},{"bike_id":"21f818ac-6d06-409f-b045-284622018287","system_id":"levelo_inurba_marseille","lat":43.310809,"lon":5.424323,"is_reserved":false,"is_disabled":false,"rental_uris":{"android":"levelo://app?vid=21f818ac-6d06-409f-b045-284622018287","ios":"levelo://app?vid=21f818ac-6d06-409f-b045-284622018287"},"vehicle_type_id":"4","last_reported":1698419204,"current_range_meters":400,"station_id":"ce4bhp92rcd13ifvqhag","pricing_plan_id":"free"},{"bike_id":"4f4e506e-adb2-4877-b135-14b650044c3e","system_id":"levelo_inurba_marseille","lat":43.31082,"lon":5.42433,"is_reserved":false,"is_disabled":false,"rental_uris":{"android":"levelo://app?vid=4f4e506e-adb2-4877-b135-14b650044c3e","ios":"levelo://app?vid=4f4e506e-adb2-4877-b135-14b650044c3e"},"vehicle_type_id":"4","last_reported":1698419204,"current_range_meters":29200,"station_id":"ce4bhp92rcd13ifvqhag","pricing_plan_id":"free"},{"bike_id":"10771e27-9dfa-483f-a879-18ff14f74247","system_id":"levelo_inurba_marseille","lat":43.310021,"lon":5.425067,"is_reserved":false,"is_disabled":false,"rental_uris":{"android":"levelo://app?vid=10771e27-9dfa-483f-a879-18ff14f74247","ios":"levelo://app?vid=10771e27-9dfa-483f-a879-18ff14f74247"},"vehicle_type_id":"4","last_reported":1698419204,"current_range_meters":800,"station_id":"","pricing_plan_id":"free"},{"bike_id":"0aed8568-03de-439d-b6e7-3a422ac5fd3a","system_id":"levelo_inurba_marseille","lat":43.27323,"lon":5.39092,"is_reserved":false,"is_disabled":false,"rental_uris":{"android":"levelo://app?vid=0aed8568-03de-439d-b6e7-3a422ac5fd3a","ios":"levelo://app?vid=0aed8568-03de-439d-b6e7-3a422ac5fd3a"},"vehicle_type_id":"4","last_reported":1698419204,"current_range_meters":24000,"station_id":"ce4bhgp2rcd13ifvqfe0","pricing_plan_id":"free"},{"bike_id":"57835c32-9760-4538-a04b-44cdb7315ef4","system_id":"levelo_inurba_marseille","lat":43.274103,"lon":5.394016,"is_reserved":false,"is_disabled":false,"rental_uris":{"android":"levelo://app?vid=57835c32-9760-4538-a04b-44cdb7315ef4","ios":"levelo://app?vid=57835c32-9760-4538-a04b-44cdb7315ef4"},"vehicle_type_id":"4","last_reported":1698419204,"current_range_meters":24000,"station_id":"ce4bhdp2rcd13ifvqf20","pricing_plan_id":"free"},{"bike_id":"e1360c1d-d10d-47a5-ae45-d2f9f2f99094","system_id":"levelo_inurba_marseille","lat":43.295523,"lon":5.422926,"is_reserved":false,"is_disabled":false,"rental_uris":{"android":"levelo://app?vid=e1360c1d-d10d-47a5-ae45-d2f9f2f99094","ios":"levelo://app?vid=e1360c1d-d10d-47a5-ae45-d2f9f2f99094"},"vehicle_type_id":"4","last_reported":1698419204,"current_range_meters":31200,"station_id":"ce4bhph2rcd13ifvqhdg","pricing_plan_id":"free"},{"bike_id":"b538149e-b1ca-49e4-81d6-8bf98fbcd396","system_id":"levelo_inurba_marseille","lat":43.295511,"lon":5.422926,"is_reserved":false,"is_disabled":false,"rental_uris":{"android":"levelo://app?vid=b538149e-b1ca-49e4-81d6-8bf98fbcd396","ios":"levelo://app?vid=b538149e-b1ca-49e4-81d6-8bf98fbcd396"},"vehicle_type_id":"4","last_reported":1698419204,"current_range_meters":31200,"station_id":"ce4bhph2rcd13ifvqhdg","pricing_plan_id":"free"},{"bike_id":"69008444-ab5b-44f5-902c-25c48e6f0be1","system_id":"levelo_inurba_marseille","lat":43.295511,"lon":5.422926,"is_reserved":false,"is_disabled":false,"rental_uris":{"android":"levelo://app?vid=69008444-ab5b-44f5-902c-25c48e6f0be1","ios":"levelo://app?vid=69008444-ab5b-44f5-902c-25c48e6f0be1"},"vehicle_type_id":"4","last_reported":1698419204,"current_range_meters":31200,"station_id":"ce4bhph2rcd13ifvqhdg","pricing_plan_id":"free"},{"bike_id":"f7ed863d-2dfb-4c5b-a275-ed934821b809","system_id":"levelo_inurba_marseille","lat":43.295523,"lon":5.422926,"is_reserved":false,"is_disabled":false,"rental_uris":{"android":"levelo://app?vid=f7ed863d-2dfb-4c5b-a275-ed934821b809","ios":"levelo://app?vid=f7ed863d-2dfb-4c5b-a275-ed934821b809"},"vehicle_type_id":"4","last_reported":1698419204,"current_range_meters":26000,"station_id":"ce4bhph2rcd13ifvqhdg","pricing_plan_id":"free"},{"bike_id":"cac8f899-7029-4b3d-a5ae-778df5424910","system_id":"levelo_inurba_marseille","lat":43.295523,"lon":5.422926,"is_reserved":false,"is_disabled":false,"rental_uris":{"android":"levelo://app?vid=cac8f899-7029-4b3d-a5ae-778df5424910","ios":"levelo://app?vid=cac8f899-7029-4b3d-a5ae-778df5424910"},"vehicle_type_id":"4","last_reported":1698419204,"current_range_meters":12800,"station_id":"ce4bhph2rcd13ifvqhdg","pricing_plan_id":"free"},{"bike_id":"ffa29f65-006d-4d7f-b146-3ad3033ade2f","system_id":"levelo_inurba_marseille","lat":43.272159,"lon":5.39186,"is_reserved":false,"is_disabled":false,"rental_uris":{"android":"levelo://app?vid=ffa29f65-006d-4d7f-b146-3ad3033ade2f","ios":"levelo://app?vid=ffa29f65-006d-4d7f-b146-3ad3033ade2f"},"vehicle_type_id":"4","last_reported":1698419204,"current_range_meters":29200,"station_id":"","pricing_plan_id":"free"},{"bike_id":"1d7db363-9d5e-4a8b-bb98-d1059970a6bf","system_id":"levelo_inurba_marseille","lat":43.272124,"lon":5.391768,"is_reserved":false,"is_disabled":false,"rental_uris":{"android":"levelo://app?vid=1d7db363-9d5e-4a8b-bb98-d1059970a6bf","ios":"levelo://app?vid=1d7db363-9d5e-4a8b-bb98-d1059970a6bf"},"vehicle_type_id":"4","last_reported":1698419204,"current_range_meters":1600,"station_id":"ce4bhhp2rcd13ifvqfm0","pricing_plan_id":"free"},{"bike_id":"9cd657d6-a658-4407-85af-e3f6c4dbdbe9","system_id":"levelo_inurba_marseille","lat":43.27211,"lon":5.39179,"is_reserved":false,"is_disabled":false,"rental_uris":{"android":"levelo://app?vid=9cd657d6-a658-4407-85af-e3f6c4dbdbe9","ios":"levelo://app?vid=9cd657d6-a658-4407-85af-e3f6c4dbdbe9"},"vehicle_type_id":"4","last_reported":1698419204,"current_range_meters":0,"station_id":"ce4bhh12rcd13ifvqfg0","pricing_plan_id":"free"},{"bike_id":"6e90a093-57b1-4216-964b-a89211b890b4","system_id":"levelo_inurba_marseille","lat":43.272118,"lon":5.391758,"is_reserved":false,"is_disabled":false,"rental_uris":{"android":"levelo://app?vid=6e90a093-57b1-4216-964b-a89211b890b4","ios":"levelo://app?vid=6e90a093-57b1-4216-964b-a89211b890b4"},"vehicle_type_id":"4","last_reported":1698419204,"current_range_meters":8000,"station_id":"ce4bhhp2rcd13ifvqfm0","pricing_plan_id":"free"},{"bike_id":"2a26dad9-0379-4c3f-bed6-3d341230cadd","system_id":"levelo_inurba_marseille","lat":43.278128,"lon":5.407195,"is_reserved":false,"is_disabled":false,"rental_uris":{"android":"levelo://app?vid=2a26dad9-0379-4c3f-bed6-3d341230cadd","ios":"levelo://app?vid=2a26dad9-0379-4c3f-bed6-3d341230cadd"},"vehicle_type_id":"4","last_reported":1698419204,"current_range_meters":31200,"station_id":"ce4bhnh2rcd13ifvqgtg","pricing_plan_id":"free"},{"bike_id":"e5c5c2ac-6523-40f1-8ad0-3a52d0615a0e","system_id":"levelo_inurba_marseille","lat":43.278128,"lon":5.407195,"is_reserved":false,"is_disabled":false,"rental_uris":{"android":"levelo://app?vid=e5c5c2ac-6523-40f1-8ad0-3a52d0615a0e","ios":"levelo://app?vid=e5c5c2ac-6523-40f1-8ad0-3a52d0615a0e"},"vehicle_type_id":"4","last_reported":1698419204,"current_range_meters":28000,"station_id":"ce4bhnh2rcd13ifvqgtg","pricing_plan_id":"free"},{"bike_id":"891e1734-0f2b-4304-8bd4-989a6a3bbdb4","system_id":"levelo_inurba_marseille","lat":43.279434,"lon":5.410464,"is_reserved":false,"is_disabled":false,"rental_uris":{"android":"levelo://app?vid=891e1734-0f2b-4304-8bd4-989a6a3bbdb4","ios":"levelo://app?vid=891e1734-0f2b-4304-8bd4-989a6a3bbdb4"},"vehicle_type_id":"4","last_reported":1698419204,"current_range_meters":30800,"station_id":"ce4bhnp2rcd13ifvqh0g","pricing_plan_id":"free"},{"bike_id":"120e7346-2f70-4c03-9920-cc1557bb6806","system_id":"levelo_inurba_marseille","lat":43.269319,"lon":5.389397,"is_reserved":false,"is_disabled":false,"rental_uris":{"android":"levelo://app?vid=120e7346-2f70-4c03-9920-cc1557bb6806","ios":"levelo://app?vid=120e7346-2f70-4c03-9920-cc1557bb6806"},"vehicle_type_id":"4","last_reported":1698419204,"current_range_meters":18800,"station_id":"ce4bhhh2rcd13ifvqfl0","pricing_plan_id":"free"},{"bike_id":"66a46cce-2509-423f-8e36-ccbf8c1330ab","system_id":"levelo_inurba_marseille","lat":43.269319,"lon":5.389397,"is_reserved":false,"is_disabled":false,"rental_uris":{"android":"levelo://app?vid=66a46cce-2509-423f-8e36-ccbf8c1330ab","ios":"levelo://app?vid=66a46cce-2509-423f-8e36-ccbf8c1330ab"},"vehicle_type_id":"4","last_reported":1698419204,"current_range_meters":22000,"station_id":"ce4bhhh2rcd13ifvqfl0","pricing_plan_id":"free"},{"bike_id":"466a0ef8-857f-48fb-bd02-f5fcbcd4284d","system_id":"levelo_inurba_marseille","lat":43.269319,"lon":5.389397,"is_reserved":false,"is_disabled":false,"rental_uris":{"android":"levelo://app?vid=466a0ef8-857f-48fb-bd02-f5fcbcd4284d","ios":"levelo://app?vid=466a0ef8-857f-48fb-bd02-f5fcbcd4284d"},"vehicle_type_id":"4","last_reported":1698419204,"current_range_meters":19600,"station_id":"ce4bhhh2rcd13ifvqfl0","pricing_plan_id":"free"},{"bike_id":"f315de8f-f1c5-4037-a7ab-f359fb782b0b","system_id":"levelo_inurba_marseille","lat":43.26681,"lon":5.382694,"is_reserved":false,"is_disabled":false,"rental_uris":{"android":"levelo://app?vid=f315de8f-f1c5-4037-a7ab-f359fb782b0b","ios":"levelo://app?vid=f315de8f-f1c5-4037-a7ab-f359fb782b0b"},"vehicle_type_id":"4","last_reported":1698419204,"current_range_meters":17200,"station_id":"ce4bhg92rcd13ifvqf90","pricing_plan_id":"free"},{"bike_id":"42b12b44-9ce0-4ee9-ac81-c2a39af707b4","system_id":"levelo_inurba_marseille","lat":43.26681,"lon":5.382694,"is_reserved":false,"is_disabled":false,"rental_uris":{"android":"levelo://app?vid=42b12b44-9ce0-4ee9-ac81-c2a39af707b4","ios":"levelo://app?vid=42b12b44-9ce0-4ee9-ac81-c2a39af707b4"},"vehicle_type_id":"4","last_reported":1698419204,"current_range_meters":31200,"station_id":"ce4bhg92rcd13ifvqf90","pricing_plan_id":"free"},{"bike_id":"d9b917db-aaaa-4180-a5d0-6ab7834a24bc","system_id":"levelo_inurba_marseille","lat":43.26681,"lon":5.382694,"is_reserved":false,"is_disabled":false,"rental_uris":{"android":"levelo://app?vid=d9b917db-aaaa-4180-a5d0-6ab7834a24bc","ios":"levelo://app?vid=d9b917db-aaaa-4180-a5d0-6ab7834a24bc"},"vehicle_type_id":"4","last_reported":1698419204,"current_range_meters":26400,"station_id":"ce4bhg92rcd13ifvqf90","pricing_plan_id":"free"},{"bike_id":"4758e421-5355-4ed3-87c7-ac3486a30e03","system_id":"levelo_inurba_marseille","lat":43.26558,"lon":5.37282,"is_reserved":false,"is_disabled":false,"rental_uris":{"android":"levelo://app?vid=4758e421-5355-4ed3-87c7-ac3486a30e03","ios":"levelo://app?vid=4758e421-5355-4ed3-87c7-ac3486a30e03"},"vehicle_type_id":"4","last_reported":1698419204,"current_range_meters":0,"station_id":"ce4bhg12rcd13ifvqf70","pricing_plan_id":"free"},{"bike_id":"6392200d-58d8-4e22-b7c7-0d3f8110b9a9","system_id":"levelo_inurba_marseille","lat":43.265582,"lon":5.372864,"is_reserved":false,"is_disabled":false,"rental_uris":{"android":"levelo://app?vid=6392200d-58d8-4e22-b7c7-0d3f8110b9a9","ios":"levelo://app?vid=6392200d-58d8-4e22-b7c7-0d3f8110b9a9"},"vehicle_type_id":"4","last_reported":1698419204,"current_range_meters":30800,"station_id":"ce4bhg12rcd13ifvqf70","pricing_plan_id":"free"},