{"last_updated":1730927301,"ttl":60,"version":"2.2","data":{"bikes":[{"bike_id":"ad7bd7b0-39aa-4255-b369-36ca8455a7df","system_id":"levelo_inurba_marseille","lat":43.31996,"lon":5.38146,"is_reserved":false,"is_disabled":false,"rental_uris":{"android":"levelo://app?vid=ad7bd7b0-39aa-4255-b369-36ca8455a7df","ios":"levelo://app?vid=ad7bd7b0-39aa-4255-b369-36ca8455a7df"},"vehicle_type_id":"4","last_reported":1730927301,"current_range_meters":26800,"station_id":"ce4bhr12rcd13ifvqhpg","pricing_plan_id":"cebpf4jnsgd1na2vs0mg"},{"bike_id":"ba0c072f-8c4a-4fe5-8b96-6570b7e9c09c","system_id":"levelo_inurba_marseille","lat":43.30884,"lon":5.39626,"is_reserved":false,"is_disabled":false,"rental_uris":{"android":"levelo://app?vid=ba0c072f-8c4a-4fe5-8b96-6570b7e9c09c","ios":"levelo://app?vid=ba0c072f-8c4a-4fe5-8b96-6570b7e9c09c"},"vehicle_type_id":"4","last_reported":1730927301,"current_range_meters":28800,"station_id":"ce4bh012rcd13ifvqcv0","pricing_plan_id":"cebpf4jnsgd1na2vs0mg"},{"bike_id":"9fc02c53-055a-440d-a952-05755c2d8906","system_id":"levelo_inurba_marseille","lat":43.28569,"lon":5.39497,"is_reserved":false,"is_disabled":false,"rental_uris":{"android":"levelo://app?vid=9fc02c53-055a-440d-a952-05755c2d8906","ios":"levelo://app?vid=9fc02c53-055a-440d-a952-05755c2d8906"},"vehicle_type_id":"4","last_reported":1730927301,"current_range_meters":18000,"station_id":"ce4bh292rcd13ifvqdg0","pricing_plan_id":"cebpf4jnsgd1na2vs0mg"},{"bike_id":"e8e9bdd7-0c79-42d3-ab62-c6dc8d47a11b","system_id":"levelo_inurba_marseille","lat":43.24388,"lon":5.37061,"is_reserved":false,"is_disabled":false,"rental_uris":{"android":"levelo://app?vid=e8e9bdd7-0c79-42d3-ab62-c6dc8d47a11b","ios":"levelo://app?vid=e8e9bdd7-0c79-42d3-ab62-c6dc8d47a11b"},"vehicle_type_id":"4","last_reported":1730927301,"current_range_meters":16400,"station_id":"ce4bhhh2rcd13ifvqfk0","pricing_plan_id":"cebpf4jnsgd1na2vs0mg"},{"bike_id":"448d2ede-0be4-434b-a64a-5bf129435fdc","system_id":"levelo_inurba_marseille","lat":43.28713,"lon":5.37392,"is_reserved":false,"is_disabled":false,"rental_uris":{"android":"levelo://app?vid=448d2ede-0be4-434b-a64a-5bf129435fdc","ios":"levelo://app?vid=448d2ede-0be4-434b-a64a-5bf129435fdc"},"vehicle_type_id":"4","last_reported":1730927301,"current_range_meters":7200,"station_id":"ce4bh3p2rcd13ifvqdq0","pricing_plan_id":"cebpf4jnsgd1na2vs0mg"},{"bike_id":"b79739f5-aaa0-49a4-a53d-2b13f632e303","system_id":"levelo_inurba_marseille","lat":43.317,"lon":5.4039,"is_reserved":false,"is_disabled":false,"rental_uris":{"android":"levelo://app?vid=b79739f5-aaa0-49a4-a53d-2b13f632e303","ios":"levelo://app?vid=b79739f5-aaa0-49a4-a53d-2b13f632e303"},"vehicle_type_id":"4","last_reported":1730927301,"current_range_meters":12400,"station_id":"","pricing_plan_id":"cebpf4jnsgd1na2vs0mg"},{"bike_id":"5e578d71-0d68-4997-a4c8-138b32a82e97","system_id":"levelo_inurba_marseille","lat":43.27673,"lon":5.3888,"is_reserved":false,"is_disabled":false,"rental_uris":{"android":"levelo://app?vid=5e578d71-0d68-4997-a4c8-138b32a82e97","ios":"levelo://app?vid=5e578d71-0d68-4997-a4c8-138b32a82e97"},"vehicle_type_id":"4","last_reported":1730927301,"current_range_meters":39200,"station_id":"ce4bhi12rcd13ifvqfo0","pricing_plan_id":"cebpf4jnsgd1na2vs0mg"},{"bike_id":"2358f1b7-8303-46b0-8fd0-ffc2b5a34c06","system_id":"levelo_inurba_marseille","lat":43.24663,"lon":5.3817,"is_reserved":false,"is_disabled":false,"rental_uris":{"android":"levelo://app?vid=2358f1b7-8303-46b0-8fd0-ffc2b5a34c06","ios":"levelo://app?vid=2358f1b7-8303-46b0-8fd0-ffc2b5a34c06"},"vehicle_type_id":"4","last_reported":1730927301,"current_range_meters":38000,"station_id":"ce4bhih2rcd13ifvqfr0","pricing_plan_id":"cebpf4jnsgd1na2vs0mg"},{"bike_id":"4c31defd-a46c-451d-8327-93053a02cdad","system_id":"levelo_inurba_marseille","lat":43.31177,"lon":5.38712,"is_reserved":false,"is_disabled":false,"rental_uris":{"android":"levelo://app?vid=4c31defd-a46c-451d-8327-93053a02cdad","ios":"levelo://app?vid=4c31defd-a46c-451d-8327-93053a02cdad"},"vehicle_type_id":"4","last_reported":1730927301,"current_range_meters":10000,"station_id":"ce4bgv12rcd13ifvqcp0","pricing_plan_id":"cebpf4jnsgd1na2vs0mg"},{"bike_id":"e02d6de2-e1ff-4620-97db-57c175400127","system_id":"levelo_inurba_marseille","lat":43.30416,"lon":5.41287,"is_reserved":false,"is_disabled":false,"rental_uris":{"android":"levelo://app?vid=e02d6de2-e1ff-4620-97db-57c175400127","ios":"levelo://app?vid=e02d6de2-e1ff-4620-97db-57c175400127"},"vehicle_type_id":"4","last_reported":1730927301,"current_range_meters":35200,"station_id":"ce4bhop2rcd13ifvqh8g","pricing_plan_id":"cebpf4jnsgd1na2vs0mg"},{"bike_id":"aaf896be-23fc-4cde-b212-d643c208e7c1","system_id":"levelo_inurba_marseille","lat":43.30417,"lon":5.41288,"is_reserved":false,"is_disabled":false,"rental_uris":{"android":"levelo://app?vid=aaf896be-23fc-4cde-b212-d643c208e7c1","ios":"levelo://app?vid=aaf896be-23fc-4cde-b212-d643c208e7c1"},"vehicle_type_id":"4","last_reported":1730927301,"current_range_meters":36800,"station_id":"ce4bhop2rcd13ifvqh8g","pricing_plan_id":"cebpf4jnsgd1na2vs0mg"},{"bike_id":"72efadbb-bf11-43ff-96cf-c421a3f198ee","system_id":"levelo_inurba_marseille","lat":43.27618,"lon":5.36106,"is_reserved":false,"is_disabled":false,"rental_uris":{"android":"levelo://app?vid=72efadbb-bf11-43ff-96cf-c421a3f198ee","ios":"levelo://app?vid=72efadbb-bf11-43ff-96cf-c421a3f198ee"},"vehicle_type_id":"4","last_reported":1730927301,"current_range_meters":14000,"station_id":"ce4bgj92rcd13ifvqbe0","pricing_plan_id":"cebpf4jnsgd1na2vs0mg"},{"bike_id":"2e2fe7b5-7495-4cdd-8155-f9fafd6448a8","system_id":"levelo_inurba_marseille","lat":43.28563,"lon":5.39488,"is_reserved":false,"is_disabled":false,"rental_uris":{"android":"levelo://app?vid=2e2fe7b5-7495-4cdd-8155-f9fafd6448a8","ios":"levelo://app?vid=2e2fe7b5-7495-4cdd-8155-f9fafd6448a8"},"vehicle_type_id":"4","last_reported":1730927301,"current_range_meters":19200,"station_id":"ce4bh292rcd13ifvqdg0","pricing_plan_id":"cebpf4jnsgd1na2vs0mg"},{"bike_id":"9b0e5311-b65d-4948-a1dc-4967f35ce0ef","system_id":"levelo_inurba_marseille","lat":43.2767,"lon":5.38893,"is_reserved":false,"is_disabled":false,"rental_uris":{"android":"levelo://app?vid=9b0e5311-b65d-4948-a1dc-4967f35ce0ef","ios":"levelo://app?vid=9b0e5311-b65d-4948-a1dc-4967f35ce0ef"},"vehicle_type_id":"4","last_reported":1730927301,"current_range_meters":38800,"station_id":"ce4bhi12rcd13ifvqfo0","pricing_plan_id":"cebpf4jnsgd1na2vs0mg"},{"bike_id":"8af378d1-5bc4-457f-9470-74e88c52bda7","system_id":"levelo_inurba_marseille","lat":43.31991,"lon":5.38144,"is_reserved":false,"is_disabled":false,"rental_uris":{"android":"levelo://app?vid=8af378d1-5bc4-457f-9470-74e88c52bda7","ios":"levelo://app?vid=8af378d1-5bc4-457f-9470-74e88c52bda7"},"vehicle_type_id":"4","last_reported":1730927301,"current_range_meters":38800,"station_id":"ce4bhr12rcd13ifvqhpg","pricing_plan_id":"cebpf4jnsgd1na2vs0mg"},{"bike_id":"55fc641b-46b1-4285-8546-805cff3fb723","system_id":"levelo_inurba_marseille","lat":43.28066,"lon":5.39643,"is_reserved":false,"is_disabled":false,"rental_uris":{"android":"levelo://app?vid=55fc641b-46b1-4285-8546-805cff3fb723","ios":"levelo://app?vid=55fc641b-46b1-4285-8546-805cff3fb723"},"vehicle_type_id":"4","last_reported":1730927301,"current_range_meters":6400,"station_id":"ce4bho12rcd13ifvqh2g","pricing_plan_id":"cebpf4jnsgd1na2vs0mg"},{"bike_id":"92437862-9629-46f7-8ed5-946bc7784f02","system_id":"levelo_inurba_marseille","lat":43.3199,"lon":5.3814,"is_reserved":false,"is_disabled":false,"rental_uris":{"android":"levelo://app?vid=92437862-9629-46f7-8ed5-946bc7784f02","ios":"levelo://app?vid=92437862-9629-46f7-8ed5-946bc7784f02"},"vehicle_type_id":"4","last_reported":1730927301,"current_range_meters":29600,"station_id":"ce4bhr12rcd13ifvqhpg","pricing_plan_id":"cebpf4jnsgd1na2vs0mg"},{"bike_id":"44135612-fabe-4db6-b769-98ffa02d00e4","system_id":"levelo_inurba_marseille","lat":43.32291,"lon":5.382792,"is_reserved":false,"is_disabled":false,"rental_uris":{"android":"levelo://app?vid=44135612-fabe-4db6-b769-98ffa02d00e4","ios":"levelo://app?vid=44135612-fabe-4db6-b769-98ffa02d00e4"},"vehicle_type_id":"4","last_reported":1730927301,"current_range_meters":38800,"station_id":"ce4bhr12rcd13ifvqhqg","pricing_plan_id":"cebpf4jnsgd1na2vs0mg"},{"bike_id":"68795af6-e265-48d7-b50a-81f544090ea4","system_id":"levelo_inurba_marseille","lat":43.28705,"lon":5.39979,"is_reserved":false,"is_disabled":false,"rental_uris":{"android":"levelo://app?vid=68795af6-e265-48d7-b50a-81f544090ea4","ios":"levelo://app?vid=68795af6-e265-48d7-b50a-81f544090ea4"},"vehicle_type_id":"4","last_reported":1730927301,"current_range_meters":34000,"station_id":"ce4bho92rcd13ifvqh3g","pricing_plan_id":"cebpf4jnsgd1na2vs0mg"},{"bike_id":"701523d9-1b3c-4253-b84d-c5e48c0380fd","system_id":"levelo_inurba_marseille","lat":43.29863,"lon":5.39741,"is_reserved":false,"is_disabled":false,"rental_uris":{"android":"levelo://app?vid=701523d9-1b3c-4253-b84d-c5e48c0380fd","ios":"levelo://app?vid=701523d9-1b3c-4253-b84d-c5e48c0380fd"},"vehicle_type_id":"4","last_reported":1730927301,"current_range_meters":38400,"station_id":"ce4bh0h2rcd13ifvqd50","pricing_plan_id":"cebpf4jnsgd1na2vs0mg"},{"bike_id":"4b8f51c7-3386-420b-a363-4efce99317bc","system_id":"levelo_inurba_marseille","lat":43.31525,"lon":5.38038,"is_reserved":false,"is_disabled":false,"rental_uris":{"android":"levelo://app?vid=4b8f51c7-3386-420b-a363-4efce99317bc","ios":"levelo://app?vid=4b8f51c7-3386-420b-a363-4efce99317bc"},"vehicle_type_id":"4","last_reported":1730927301,"current_range_meters":27200,"station_id":"ce4bhsp2rcd13ifvqi50","pricing_plan_id":"cebpf4jnsgd1na2vs0mg"},{"bike_id":"8ab8f648-ce30-4cf5-afe6-0e778780037b","system_id":"levelo_inurba_marseille","lat":43.2942,"lon":5.38617,"is_reserved":false,"is_disabled":false,"rental_uris":{"android":"levelo://app?vid=8ab8f648-ce30-4cf5-afe6-0e778780037b","ios":"levelo://app?vid=8ab8f648-ce30-4cf5-afe6-0e778780037b"},"vehicle_type_id":"4","last_reported":1730927301,"current_range_meters":38800,"station_id":"ce4bh2h2rcd13ifvqdh0","pricing_plan_id":"cebpf4jnsgd1na2vs0mg"},{"bike_id":"34056932-d9f5-40c1-ac74-73b12dbc3ca5","system_id":"levelo_inurba_marseille","lat":43.29035,"lon":5.37553,"is_reserved":false,"is_disabled":false,"rental_uris":{"android":"levelo://app?vid=34056932-d9f5-40c1-ac74-73b12dbc3ca5","ios":"levelo://app?vid=34056932-d9f5-40c1-ac74-73b12dbc3ca5"},"vehicle_type_id":"4","last_reported":1730927301,"current_range_meters":36400,"station_id":"ce4bh692rcd13ifvqe90","pricing_plan_id":"cebpf4jnsgd1na2vs0mg"},{"bike_id":"4c43df34-4013-4ced-bf1e-47ee4c39af67","system_id":"levelo_inurba_marseille","lat":43.23964,"lon":5.36628,"is_reserved":false,"is_disabled":false,"rental_uris":{"android":"levelo://app?vid=4c43df34-4013-4ced-bf1e-47ee4c39af67","ios":"levelo://app?vid=4c43df34-4013-4ced-bf1e-47ee4c39af67"},"vehicle_type_id":"4","last_reported":1730927301,"current_range_meters":38800,"station_id":"ce4bhi12rcd13ifvqfp0","pricing_plan_id":"cebpf4jnsgd1na2vs0mg"},{"bike_id":"885d3be0-1684-4fe6-b7fc-87cc46637123","system_id":"levelo_inurba_marseille","lat":43.28002,"lon":5.4166,"is_reserved":false,"is_disabled":false,"rental_uris":{"android":"levelo://app?vid=885d3be0-1684-4fe6-b7fc-87cc46637123","ios":"levelo://app?vid=885d3be0-1684-4fe6-b7fc-87cc46637123"},"vehicle_type_id":"4","last_reported":1730927301,"current_range_meters":22400,"station_id":"ce4bho12rcd13ifvqh1g","pricing_plan_id":"cebpf4jnsgd1na2vs0mg"},{"bike_id":"94e4a7da-09f9-41d9-af50-47461b850798","system_id":"levelo_inurba_marseille","lat":43.26494,"lon":5.39544,"is_reserved":false,"is_disabled":false,"rental_uris":{"android":"levelo://app?vid=94e4a7da-09f9-41d9-af50-47461b850798","ios":"levelo://app?vid=94e4a7da-09f9-41d9-af50-47461b850798"},"vehicle_type_id":"4","last_reported":1730927301,"current_range_meters":39200,"station_id":"ce4bhi12rcd13ifvqfq0","pricing_plan_id":"cebpf4jnsgd1na2vs0mg"},{"bike_id":"8b08f0c6-e2e9-4827-ae51-d5e67cd6e972","system_id":"levelo_inurba_marseille","lat":43.30892,"lon":5.37193,"is_reserved":false,"is_disabled":false,"rental_uris":{"android":"levelo://app?vid=8b08f0c6-e2e9-4827-ae51-d5e67cd6e972","ios":"levelo://app?vid=8b08f0c6-e2e9-4827-ae51-d5e67cd6e972"},"vehicle_type_id":"4","last_reported":1730927301,"current_range_meters":39200,"station_id":"ce4bguh2rcd13ifvqckg","pricing_plan_id":"cebpf4jnsgd1na2vs0mg"},{"bike_id":"7b5d5925-2d39-4f97-9592-aae9c3ac21bb","system_id":"levelo_inurba_marseille","lat":43.28721,"lon":5.37942,"is_reserved":false,"is_disabled":false,"rental_uris":{"android":"levelo://app?vid=7b5d5925-2d39-4f97-9592-aae9c3ac21bb","ios":"levelo://app?vid=7b5d5925-2d39-4f97-9592-aae9c3ac21bb"},"vehicle_type_id":"4","last_reported":1730927301,"current_range_meters":30000,"station_id":"ce4bh9p2rcd13ifvqec0","pricing_plan_id":"cebpf4jnsgd1na2vs0mg"},{"bike_id":"8a401a8a-30f9-4643-ad63-74116d1b600f","system_id":"levelo_inurba_marseille","lat":43.32473,"lon":5.36566,"is_reserved":false,"is_disabled":false,"rental_uris":{"android":"levelo://app?vid=8a401a8a-30f9-4643-ad63-74116d1b600f","ios":"levelo://app?vid=8a401a8a-30f9-4643-ad63-74116d1b600f"},"vehicle_type_id":"4","last_reported":1730927301,"current_range_meters":38800,"station_id":"ce4bhs12rcd13ifvqhvg","pricing_plan_id":"cebpf4jnsgd1na2vs0mg"},{"bike_id":"171db454-9231-4690-bd0b-fa5dcfdd830b","system_id":"levelo_inurba_marseille","lat":43.31756,"lon":5.3902,"is_reserved":false,"is_disabled":false,"rental_uris":{"android":"levelo://app?vid=171db454-9231-4690-bd0b-fa5dcfdd830b","ios":"levelo://app?vid=171db454-9231-4690-bd0b-fa5dcfdd830b"},"vehicle_type_id":"4","last_reported":1730927301,"current_range_meters":37600,"station_id":"ce4bhqp2rcd13ifvqhng","pricing_plan_id":"cebpf4jnsgd1na2vs0mg"},{"bike_id":"d0fcbdd4-64f5-49c0-9944-ad1d66720c7e","system_id":"levelo_inurba_marseille","lat":43.28414,"lon":5.37528,"is_reserved":false,"is_disabled":false,"rental_uris":{"android":"levelo://app?vid=d0fcbdd4-64f5-49c0-9944-ad1d66720c7e","ios":"levelo://app?vid=d0fcbdd4-64f5-49c0-9944-ad1d66720c7e"},"vehicle_type_id":"4","last_reported":1730927301,"current_range_meters":9200,"station_id":"ce4bh412rcd13ifvqds0","pricing_plan_id":"cebpf4jnsgd1na2vs0mg"},{"bike_id":"2f772036-e118-43fa-96d7-e86873b4705d","system_id":"levelo_inurba_marseille","lat":43.29034,"lon":5.39964,"is_reserved":false,"is_disabled":false,"rental_uris":{"android":"levelo://app?vid=2f772036-e118-43fa-96d7-e86873b4705d","ios":"levelo://app?vid=2f772036-e118-43fa-96d7-e86873b4705d"},"vehicle_type_id":"4","last_reported":1730927301,"current_range_meters":38800,"station_id":"ce4bh392rcd13ifvqdm0","pricing_plan_id":"cebpf4jnsgd1na2vs0mg"},{"bike_id":"70c58f90-07b4-4539-afe7-53005afde81b","system_id":"levelo_inurba_marseille","lat":43.29602,"lon":5.38103,"is_reserved":false,"is_disabled":false,"rental_uris":{"android":"levelo://app?vid=70c58f90-07b4-4539-afe7-53005afde81b","ios":"levelo://app?vid=70c58f90-07b4-4539-afe7-53005afde81b"},"vehicle_type_id":"4","last_reported":1730927301,"current_range_meters":37600,"station_id":"ce4bgl12rcd13ifvqbo0","pricing_plan_id":"cebpf4jnsgd1na2vs0mg"},{"bike_id":"75aa7121-dc8c-4737-8160-6ccb6a178119","system_id":"levelo_inurba_marseille","lat":43.25584,"lon":5.38252,"is_reserved":false,"is_disabled":false,"rental_uris":{"android":"levelo://app?vid=75aa7121-dc8c-4737-8160-6ccb6a178119","ios":"levelo://app?vid=75aa7121-dc8c-4737-8160-6ccb6a178119"},"vehicle_type_id":"4","last_reported":1730927301,"current_range_meters":18000,"station_id":"ce4bhih2rcd13ifvqfs0","pricing_plan_id":"cebpf4jnsgd1na2vs0mg"},{"bike_id":"72ab18df-21fe-430a-8dc7-5381272d51d9","system_id":"levelo_inurba_marseille","lat":43.27941,"lon":5.41036,"is_reserved":false,"is_disabled":false,"rental_uris":{"android":"levelo://app?vid=72ab18df-21fe-430a-8dc7-5381272d51d9","ios":"levelo://app?vid=72ab18df-21fe-430a-8dc7-5381272d51d9"},"vehicle_type_id":"4","last_reported":1730927301,"current_range_meters":23200,"station_id":"ce4bhnp2rcd13ifvqh0g","pricing_plan_id":"cebpf4jnsgd1na2vs0mg"},{"bike_id":"872d59cd-dd29-4d8e-a06e-ec7edb147612","system_id":"levelo_inurba_marseille","lat":43.254975,"lon":5.376558,"is_reserved":false,"is_disabled":false,"rental_uris":{"android":"levelo://app?vid=872d59cd-dd29-4d8e-a06e-ec7edb147612","ios":"levelo://app?vid=872d59cd-dd29-4d8e-a06e-ec7edb147612"},"vehicle_type_id":"4","last_reported":1730927301,"current_range_meters":38800,"station_id":"ce4bhh12rcd13ifvqff0","pricing_plan_id":"cebpf4jnsgd1na2vs0mg"},{"bike_id":"328512fc-3e80-4303-8fb9-8bdfa1c9bb84","system_id":"levelo_inurba_marseille","lat":43.28945,"lon":5.39659,"is_reserved":false,"is_disabled":false,"rental_uris":{"android":"levelo://app?vid=328512fc-3e80-4303-8fb9-8bdfa1c9bb84","ios":"levelo://app?vid=328512fc-3e80-4303-8fb9-8bdfa1c9bb84"},"vehicle_type_id":"4","last_reported":1730927301,"current_range_meters":36400,"station_id":"ce4bh3h2rcd13ifvqdn0","pricing_plan_id":"cebpf4jnsgd1na2vs0mg"},{"bike_id":"d5e91622-e3dd-4f31-acce-52cf3f312cf4","system_id":"levelo_inurba_marseille","lat":43.24389,"lon":5.3706,"is_reserved":false,"is_disabled":false,"rental_uris":{"android":"levelo://app?vid=d5e91622-e3dd-4f31-acce-52cf3f312cf4","ios":"levelo://app?vid=d5e91622-e3dd-4f31-acce-52cf3f312cf4"},"vehicle_type_id":"4","last_reported":1730927301,"current_range_meters":8800,"station_id":"ce4bhhh2rcd13ifvqfk0","pricing_plan_id":"cebpf4jnsgd1na2vs0mg"},{"bike_id":"692f31da-ed64-4e18-b7cc-350f01a2fb79","system_id":"levelo_inurba_marseille","lat":43.30185,"lon":5.43763,"is_reserved":false,"is_disabled":false,"rental_uris":{"android":"levelo://app?vid=692f31da-ed64-4e18-b7cc-350f01a2fb79","ios":"levelo://app?vid=692f31da-ed64-4e18-b7cc-350f01a2fb79"},"vehicle_type_id":"4","last_reported":1730927301,"current_range_meters":17200,"station_id":"","pricing_plan_id":"cebpf4jnsgd1na2vs0mg"},{"bike_id":"8b1d7819-65f0-4cb2-bedd-ed63609540e6","system_id":"levelo_inurba_marseille","lat":43.30327,"lon":5.40446,"is_reserved":false,"is_disabled":false,"rental_uris":{"android":"levelo://app?vid=8b1d7819-65f0-4cb2-bedd-ed63609540e6","ios":"levelo://app?vid=8b1d7819-65f0-4cb2-bedd-ed63609540e6"},"vehicle_type_id":"4","last_reported":1730927301,"current_range_meters":35600,"station_id":"ce4bh012rcd13ifvqd10","pricing_plan_id":"cebpf4jnsgd1na2vs0mg"},{"bike_id":"396a9a9c-144b-4091-bde1-a8caae5f9db9","system_id":"levelo_inurba_marseille","lat":43.28934,"lon":5.36389,"is_reserved":false,"is_disabled":false,"rental_uris":{"android":"levelo://app?vid=396a9a9c-144b-4091-bde1-a8caae5f9db9","ios":"levelo://app?vid=396a9a9c-144b-4091-bde1-a8caae5f9db9"},"vehicle_type_id":"4","last_reported":1730927301,"current_range_meters":26800,"station_id":"ce4bhc92rcd13ifvqetg","pricing_plan_id":"cebpf4jnsgd1na2vs0mg"},{"bike_id":"b3ab13db-8990-417f-b526-d674774d17db","system_id":"levelo_inurba_marseille","lat":43.29522,"lon":5.39399,"is_reserved":false,"is_disabled":false,"rental_uris":{"android":"levelo://app?vid=b3ab13db-8990-417f-b526-d674774d17db","ios":"levelo://app?vid=b3ab13db-8990-417f-b526-d674774d17db"},"vehicle_type_id":"4","last_reported":1730927301,"current_range_meters":8800,"station_id":"ce4bh292rcd13ifvqdf0","pricing_plan_id":"cebpf4jnsgd1na2vs0mg"},{"bike_id":"af114740-a9c4-4afa-9ec9-1d0f168702da","system_id":"levelo_inurba_marseille","lat":43.294154,"lon":5.386115,"is_reserved":false,"is_disabled":false,"rental_uris":{"android":"levelo://app?vid=af114740-a9c4-4afa-9ec9-1d0f168702da","ios":"levelo://app?vid=af114740-a9c4-4afa-9ec9-1d0f168702da"},"vehicle_type_id":"4","last_reported":1730927301,"current_range_meters":38000,"station_id":"ce4bh2h2rcd13ifvqdh0","pricing_plan_id":"cebpf4jnsgd1na2vs0mg"},{"bike_id":"b4acb205-fefb-4ff0-a0f5-e0b7a0a1fe0d","system_id":"levelo_inurba_marseille","lat":43.27992,"lon":5.41657,"is_reserved":false,"is_disabled":false,"rental_uris":{"android":"levelo://app?vid=b4acb205-fefb-4ff0-a0f5-e0b7a0a1fe0d","ios":"levelo://app?vid=b4acb205-fefb-4ff0-a0f5-e0b7a0a1fe0d"},"vehicle_type_id":"4","last_reported":1730927301,"current_range_meters":38000,"station_id":"ce4bho12rcd13ifvqh1g","pricing_plan_id":"cebpf4jnsgd1na2vs0mg"},{"bike_id":"3a265529-f2df-4840-bbc7-a2d699d588fb","system_id":"levelo_inurba_marseille","lat":43.24387,"lon":5.37053,"is_reserved":false,"is_disabled":false,"rental_uris":{"android":"levelo://app?vid=3a265529-f2df-4840-bbc7-a2d699d588fb","ios":"levelo://app?vid=3a265529-f2df-4840-bbc7-a2d699d588fb"},"vehicle_type_id":"4","last_reported":1730927301,"current_range_meters":20400,"station_id":"ce4bhhh2rcd13ifvqfk0","pricing_plan_id":"cebpf4jnsgd1na2vs0mg"},{"bike_id":"0cdbd376-ce65-49b3-853f-51d8da6fd856","system_id":"levelo_inurba_marseille","lat":43.26062,"lon":5.39394,"is_reserved":false,"is_disabled":false,"rental_uris":{"android":"levelo://app?vid=0cdbd376-ce65-49b3-853f-51d8da6fd856","ios":"levelo://app?vid=0cdbd376-ce65-49b3-853f-51d8da6fd856"},"vehicle_type_id":"4","last_reported":1730927301,"current_range_meters":38800,"station_id":"ce4bhh92rcd13ifvqfj0","pricing_plan_id":"cebpf4jnsgd1na2vs0mg"},{"bike_id":"dc17e306-8ad0-4f72-be8a-86e1adf7c59d","system_id":"levelo_inurba_marseille","lat":43.28666,"lon":5.3635,"is_reserved":false,"is_disabled":false,"rental_uris":{"android":"levelo://app?vid=dc17e306-8ad0-4f72-be8a-86e1adf7c59d","ios":"levelo://app?vid=dc17e306-8ad0-4f72-be8a-86e1adf7c59d"},"vehicle_type_id":"4","last_reported":1730927301,"current_range_meters":33200,"station_id":"ce4bhah2rcd13ifvqej0","pricing_plan_id":"cebpf4jnsgd1na2vs0mg"},{"bike_id":"933271ee-c87c-49ba-af4e-414a76ba1f14","system_id":"levelo_inurba_marseille","lat":43.29554,"lon":5.42292,"is_reserved":false,"is_disabled":false,"rental_uris":{"android":"levelo://app?vid=933271ee-c87c-49ba-af4e-414a76ba1f14","ios":"levelo://app?vid=933271ee-c87c-49ba-af4e-414a76ba1f14"},"vehicle_type_id":"4","last_reported":1730927301,"current_range_meters":12000,"station_id":"ce4bhph2rcd13ifvqhdg","pricing_plan_id":"cebpf4jnsgd1na2vs0mg"},{"bike_id":"b914dccc-7a6f-40f5-8c18-63a6fe19ed95","system_id":"levelo_inurba_marseille","lat":43.29258,"lon":5.3844,"is_reserved":false,"is_disabled":false,"rental_uris":{"android":"levelo://app?vid=b914dccc-7a6f-40f5-8c18-63a6fe19ed95","ios":"levelo://app?vid=b914dccc-7a6f-40f5-8c18-63a6fe19ed95"},"vehicle_type_id":"4","last_reported":1730927301,"current_range_meters":28000,"station_id":"ce4bh692rcd13ifvqea0","pricing_plan_id":"cebpf4jnsgd1na2vs0mg"},{"bike_id":"2a125477-0965-4ee5-b6e9-03b33dc0ed04","system_id":"levelo_inurba_marseille","lat":43.31272,"lon":5.40169,"is_reserved":false,"is_disabled":false,"rental_uris":{"android":"levelo://app?vid=2a125477-0965-4ee5-b6e9-03b33dc0ed04","ios":"levelo://app?vid=2a125477-0965-4ee5-b6e9-03b33dc0ed04"},"vehicle_type_id":"4","last_reported":1730927301,"current_range_meters":35600,"station_id":"ce4bh092rcd13ifvqd30","pricing_plan_id":"cebpf4jnsgd1na2vs0mg"},{"bike_id":"78ea8e6b-fcbc-4ca9-b233-6e6fd40ab14f","system_id":"levelo_inurba_marseille","lat":43.28028,"lon":5.36938,"is_reserved":false,"is_disabled":false,"rental_uris":{"android":"levelo://app?vid=78ea8e6b-fcbc-4ca9-b233-6e6fd40ab14f","ios":"levelo://app?vid=78ea8e6b-fcbc-4ca9-b233-6e6fd40ab14f"},"vehicle_type_id":"4","last_reported":1730927301,"current_range_meters":28400,"station_id":"ce4bha12rcd13ifvqef0","pricing_plan_id":"cebpf4jnsgd1na2vs0mg"},{"bike_id":"66cadc2f-87dc-4b78-bb91-c6d6eee1cfce","system_id":"levelo_inurba_marseille","lat":43.30127,"lon":5.39862,"is_reserved":false,"is_disabled":false,"rental_uris":{"android":"levelo://app?vid=66cadc2f-87dc-4b78-bb91-c6d6eee1cfce","ios":"levelo://app?vid=66cadc2f-87dc-4b78-bb91-c6d6eee1cfce"},"vehicle_type_id":"4","last_reported":1730927301,"current_range_meters":17200,"station_id":"ce4bh0h2rcd13ifvqd40","pricing_plan_id":"cebpf4jnsgd1na2vs0mg"},{"bike_id":"8cacf782-adc5-491b-8ad0-a02481b87367","system_id":"levelo_inurba_marseille","lat":43.268036,"lon":5.402684,"is_reserved":false,"is_disabled":false,"rental_uris":{"android":"levelo://app?vid=8cacf782-adc5-491b-8ad0-a02481b87367","ios":"levelo://app?vid=8cacf782-adc5-491b-8ad0-a02481b87367"},"vehicle_type_id":"4","last_reported":1730927301,"current_range_meters":18800,"station_id":"ce501612rcd8frsf0b60","pricing_plan_id":"cebpf4jnsgd1na2vs0mg"},{"bike_id":"5891e32d-bdd2-4b40-a25c-9c61439b13c8","system_id":"levelo_inurba_marseille","lat":43.3014,"lon":5.38784,"is_reserved":false,"is_disabled":false,"rental_uris":{"android":"levelo://app?vid=5891e32d-bdd2-4b40-a25c-9c61439b13c8","ios":"levelo://app?vid=5891e32d-bdd2-4b40-a25c-9c61439b13c8"},"vehicle_type_id":"4","last_reported":1730927301,"current_range_meters":27200,"station_id":"ce4bghh2rcd13ifvqb60","pricing_plan_id":"cebpf4jnsgd1na2vs0mg"},{"bike_id":"081053e3-ccb9-46ca-9453-43abcf34915a","system_id":"levelo_inurba_marseille","lat":43.24658,"lon":5.38162,"is_reserved":false,"is_disabled":false,"rental_uris":{"android":"levelo://app?vid=081053e3-ccb9-46ca-9453-43abcf34915a","ios":"levelo://app?vid=081053e3-ccb9-46ca-9453-43abcf34915a"},"vehicle_type_id":"4","last_reported":1730927301,"current_range_meters":29600,"station_id":"ce4bhih2rcd13ifvqfr0","pricing_plan_id":"cebpf4jnsgd1na2vs0mg"},{"bike_id":"fda585f3-425c-4d9f-b8ce-f5692b144a9b","system_id":"levelo_inurba_marseille","lat":43.29529,"lon":5.38539,"is_reserved":false,"is_disabled":false,"rental_uris":{"android":"levelo://app?vid=fda585f3-425c-4d9f-b8ce-f5692b144a9b","ios":"levelo://app?vid=fda585f3-425c-4d9f-b8ce-f5692b144a9b"},"vehicle_type_id":"4","last_reported":1730927301,"current_range_meters":38000,"station_id":"ce4bgih2rcd13ifvqba0","pricing_plan_id":"cebpf4jnsgd1na2vs0mg"},{"bike_id":"94cca890-79d8-473d-aa3d-66aeecf75673","system_id":"levelo_inurba_marseille","lat":43.23179,"lon":5.39986,"is_reserved":false,"is_disabled":false,"rental_uris":{"android":"levelo://app?vid=94cca890-79d8-473d-aa3d-66aeecf75673","ios":"levelo://app?vid=94cca890-79d8-473d-aa3d-66aeecf75673"},"vehicle_type_id":"4","last_reported":1730927301,"current_range_meters":28000,"station_id":"ce4bhn12rcd13ifvqgqg","pricing_plan_id":"cebpf4jnsgd1na2vs0mg"},{"bike_id":"8e0c185f-0e3b-4c3e-84c3-711b79a97013","system_id":"levelo_inurba_marseille","lat":43.301265,"lon":5.398623,"is_reserved":false,"is_disabled":false,"rental_uris":{"android":"levelo://app?vid=8e0c185f-0e3b-4c3e-84c3-711b79a97013","ios":"levelo://app?vid=8e0c185f-0e3b-4c3e-84c3-711b79a97013"},"vehicle_type_id":"4","last_reported":1730927301,"current_range_meters":26800,"station_id":"ce4bgv12rcd13ifvqcp0","pricing_plan_id":"cebpf4jnsgd1na2vs0mg"},{"bike_id":"0c990715-d0c0-44ea-bfd2-649d5509572f","system_id":"levelo_inurba_marseille","lat":43.29876,"lon":5.389,"is_reserved":false,"is_disabled":false,"rental_uris":{"android":"levelo://app?vid=0c990715-d0c0-44ea-bfd2-649d5509572f","ios":"levelo://app?vid=0c990715-d0c0-44ea-bfd2-649d5509572f"},"vehicle_type_id":"4","last_reported":1730927301,"current_range_meters":36800,"station_id":"ce4bh392rcd13ifvqdl0","pricing_plan_id":"cebpf4jnsgd1na2vs0mg"},{"bike_id":"4b0b0537-490e-433c-8f9b-7ce7ff9acbde","system_id":"levelo_inurba_marseille","lat":43.2808,"lon":5.39662,"is_reserved":false,"is_disabled":false,"rental_uris":{"android":"levelo://app?vid=4b0b0537-490e-433c-8f9b-7ce7ff9acbde","ios":"levelo://app?vid=4b0b0537-490e-433c-8f9b-7ce7ff9acbde"},"vehicle_type_id":"4","last_reported":1730927301,"current_range_meters":38000,"station_id":"ce4bho12rcd13ifvqh2g","pricing_plan_id":"cebpf4jnsgd1na2vs0mg"},{"bike_id":"66f19576-170e-4bdc-8ddf-aa1c58792fe4","system_id":"levelo_inurba_marseille","lat":43.30638,"lon":5.40068,"is_reserved":false,"is_disabled":false,"rental_uris":{"android":"levelo://app?vid=66f19576-170e-4bdc-8ddf-aa1c58792fe4","ios":"levelo://app?vid=66f19576-170e-4bdc-8ddf-aa1c58792fe4"},"vehicle_type_id":"4","last_reported":1730927301,"current_range_meters":38800,"station_id":"ce4bh112rcd13ifvqda0","pricing_plan_id":"cebpf4jnsgd1na2vs0mg"},{"bike_id":"981e35e7-7a8c-46e2-824d-1f28d39b001f","system_id":"levelo_inurba_marseille","lat":43.31273,"lon":5.40163,"is_reserved":false,"is_disabled":false,"rental_uris":{"android":"levelo://app?vid=981e35e7-7a8c-46e2-824d-1f28d39b001f","ios":"levelo://app?vid=981e35e7-7a8c-46e2-824d-1f28d39b001f"},"vehicle_type_id":"4","last_reported":1730927301,"current_range_meters":18800,"station_id":"ce4bh092rcd13ifvqd30","pricing_plan_id":"cebpf4jnsgd1na2vs0mg"},{"bike_id":"cd70caaa-66f5-4c92-ac98-f3cd1ed58838","system_id":"levelo_inurba_marseille","lat":43.28158,"lon":5.42639,"is_reserved":false,"is_disabled":false,"rental_uris":{"android":"levelo://app?vid=cd70caaa-66f5-4c92-ac98-f3cd1ed58838","ios":"levelo://app?vid=cd70caaa-66f5-4c92-ac98-f3cd1ed58838"},"vehicle_type_id":"4","last_reported":1730927301,"current_range_meters":19600,"station_id":"ce4bhnh2rcd13ifvqgug","pricing_plan_id":"cebpf4jnsgd1na2vs0mg"},{"bike_id":"7a12c8dd-b531-4d34-bb57-b733605bbf7e","system_id":"levelo_inurba_marseille","lat":43.31481,"lon":5.37307,"is_reserved":false,"is_disabled":false,"rental_uris":{"android":"levelo://app?vid=7a12c8dd-b531-4d34-bb57-b733605bbf7e","ios":"levelo://app?vid=7a12c8dd-b531-4d34-bb57-b733605bbf7e"},"vehicle_type_id":"4","last_reported":1730927301,"current_range_meters":35600,"station_id":"ce4bgt12rcd13ifvqcd0","pricing_plan_id":"cebpf4jnsgd1na2vs0mg"},{"bike_id":"42163e3e-5009-401f-a1ce-f09eb7e2a510","system_id":"levelo_inurba_marseille","lat":43.31331,"lon":5.39695,"is_reserved":false,"is_disabled":false,"rental_uris":{"android":"levelo://app?vid=42163e3e-5009-401f-a1ce-f09eb7e2a510","ios":"levelo://app?vid=42163e3e-5009-401f-a1ce-f09eb7e2a510"},"vehicle_type_id":"4","last_reported":1730927301,"current_range_meters":38800,"station_id":"ce4bgvp2rcd13ifvqcu0","pricing_plan_id":"cebpf4jnsgd1na2vs0mg"},{"bike_id":"4102c5da-b3bb-4e3b-b23f-eef2c213d450","system_id":"levelo_inurba_marseille","lat":43.23188,"lon":5.39985,"is_reserved":false,"is_disabled":false,"rental_uris":{"android":"levelo://app?vid=4102c5da-b3bb-4e3b-b23f-eef2c213d450","ios":"levelo://app?vid=4102c5da-b3bb-4e3b-b23f-eef2c213d450"},"vehicle_type_id":"4","last_reported":1730927301,"current_range_meters":38800,"station_id":"ce4bhn12rcd13ifvqgqg","pricing_plan_id":"cebpf4jnsgd1na2vs0mg"},{"bike_id":"c387d109-a438-4c28-8d50-eaf15ca22192","system_id":"levelo_inurba_marseille","lat":43.31887,"lon":5.4074,"is_reserved":false,"is_disabled":false,"rental_uris":{"android":"levelo://app?vid=c387d109-a438-4c28-8d50-eaf15ca22192","ios":"levelo://app?vid=c387d109-a438-4c28-8d50-eaf15ca22192"},"vehicle_type_id":"4","last_reported":1730927301,"current_range_meters":6800,"station_id":"ce4bhq12rcd13ifvqhig","pricing_plan_id":"cebpf4jnsgd1na2vs0mg"},{"bike_id":"a0db1695-32d8-4d9c-9829-ab1da773a69e","system_id":"levelo_inurba_marseille","lat":43.3013,"lon":5.39872,"is_reserved":false,"is_disabled":false,"rental_uris":{"android":"levelo://app?vid=a0db1695-32d8-4d9c-9829-ab1da773a69e","ios":"levelo://app?vid=a0db1695-32d8-4d9c-9829-ab1da773a69e"},"vehicle_type_id":"4","last_reported":1730927301,"current_range_meters":36400,"station_id":"ce4bh0h2rcd13ifvqd40","pricing_plan_id":"cebpf4jnsgd1na2vs0mg"},{"bike_id":"c11c2ccd-1a6b-426e-a6be-d7b8db656223","system_id":"levelo_inurba_marseille","lat":43.30888,"lon":5.39649,"is_reserved":false,"is_disabled":false,"rental_uris":{"android":"levelo://app?vid=c11c2ccd-1a6b-426e-a6be-d7b8db656223","ios":"levelo://app?vid=c11c2ccd-1a6b-426e-a6be-d7b8db656223"},"vehicle_type_id":"4","last_reported":1730927301,"current_range_meters":12800,"station_id":"ce4bh012rcd13ifvqcv0","pricing_plan_id":"cebpf4jnsgd1na2vs0mg"},{"bike_id":"0a72c6ae-4faf-4de5-ad5f-9fecea8ea7f0","system_id":"levelo_inurba_marseille","lat":43.28925,"lon":5.38392,"is_reserved":false,"is_disabled":false,"rental_uris":{"android":"levelo://app?vid=0a72c6ae-4faf-4de5-ad5f-9fecea8ea7f0","ios":"levelo://app?vid=0a72c6ae-4faf-4de5-ad5f-9fecea8ea7f0"},"vehicle_type_id":"4","last_reported":1730927301,"current_range_meters":3200,"station_id":"ce4bh612rcd13ifvqe6g","pricing_plan_id":"cebpf4jnsgd1na2vs0mg"},{"bike_id":"1222545d-f607-4658-a0af-f3ecb0fb9e37","system_id":"levelo_inurba_marseille","lat":43.2508,"lon":5.39512,"is_reserved":false,"is_disabled":false,"rental_uris":{"android":"levelo://app?vid=1222545d-f607-4658-a0af-f3ecb0fb9e37","ios":"levelo://app?vid=1222545d-f607-4658-a0af-f3ecb0fb9e37"},"vehicle_type_id":"4","last_reported":1730927301,"current_range_meters":38000,"station_id":"ce4bhm12rcd13ifvqgkg","pricing_plan_id":"cebpf4jnsgd1na2vs0mg"},{"bike_id":"ae14cb4f-375f-4dca-901f-711422cf0e32","system_id":"levelo_inurba_marseille","lat":43.28695,"lon":5.37389,"is_reserved":false,"is_disabled":false,"rental_uris":{"android":"levelo://app?vid=ae14cb4f-375f-4dca-901f-711422cf0e32","ios":"levelo://app?vid=ae14cb4f-375f-4dca-901f-711422cf0e32"},"vehicle_type_id":"4","last_reported":1730927301,"current_range_meters":38800,"station_id":"ce4bh3p2rcd13ifvqdq0","pricing_plan_id":"cebpf4jnsgd1na2vs0mg"},{"bike_id":"916c1227-a089-47f0-b184-7006a96e3a45","system_id":"levelo_inurba_marseille","lat":43.28938,"lon":5.36393,"is_reserved":false,"is_disabled":false,"rental_uris":{"android":"levelo://app?vid=916c1227-a089-47f0-b184-7006a96e3a45","ios":"levelo://app?vid=916c1227-a089-47f0-b184-7006a96e3a45"},"vehicle_type_id":"4","last_reported":1730927301,"current_range_meters":18000,"station_id":"ce4bhc92rcd13ifvqetg","pricing_plan_id":"cebpf4jnsgd1na2vs0mg"},{"bike_id":"ea0ed2c7-c0d9-42e6-ab00-f8371f78e701","system_id":"levelo_inurba_marseille","lat":43.29523,"lon":5.39399,"is_reserved":false,"is_disabled":false,"rental_uris":{"android":"levelo://app?vid=ea0ed2c7-c0d9-42e6-ab00-f8371f78e701","ios":"levelo://app?vid=ea0ed2c7-c0d9-42e6-ab00-f8371f78e701"},"vehicle_type_id":"4","last_reported":1730927301,"current_range_meters":37600,"station_id":"ce4bh292rcd13ifvqdf0","pricing_plan_id":"cebpf4jnsgd1na2vs0mg"},{"bike_id":"17b2635b-cb35-405f-89f8-3b87581f3773","system_id":"levelo_inurba_marseille","lat":43.29896,"lon":5.43671,"is_reserved":false,"is_disabled":false,"rental_uris":{"android":"levelo://app?vid=17b2635b-cb35-405f-89f8-3b87581f3773","ios":"levelo://app?vid=17b2635b-cb35-405f-89f8-3b87581f3773"},"vehicle_type_id":"4","last_reported":1730927301,"current_range_meters":16000,"station_id":"ce4bhpp2rcd13ifvqhfg","pricing_plan_id":"cebpf4jnsgd1na2vs0mg"},{"bike_id":"6648ef17-3082-4729-9252-7b0bafb502be","system_id":"levelo_inurba_marseille","lat":43.276218,"lon":5.361061,"is_reserved":false,"is_disabled":false,"rental_uris":{"android":"levelo://app?vid=6648ef17-3082-4729-9252-7b0bafb502be","ios":"levelo://app?vid=6648ef17-3082-4729-9252-7b0bafb502be"},"vehicle_type_id":"4","last_reported":1730927301,"current_range_meters":9600,"station_id":"","pricing_plan_id":"cebpf4jnsgd1na2vs0mg"},{"bike_id":"19645b45-8dc5-44dd-9eea-afb63875c101","system_id":"levelo_inurba_marseille","lat":43.31708,"lon":5.37761,"is_reserved":false,"is_disabled":false,"rental_uris":{"android":"levelo://app?vid=19645b45-8dc5-44dd-9eea-afb63875c101","ios":"levelo://app?vid=19645b45-8dc5-44dd-9eea-afb63875c101"},"vehicle_type_id":"4","last_reported":1730927301,"current_range_meters":7200,"station_id":"ce4bgth2rcd13ifvqch0","pricing_plan_id":"cebpf4jnsgd1na2vs0mg"},{"bike_id":"f5e86d30-c007-4821-873d-a631969d6565","system_id":"levelo_inurba_marseille","lat":43.28697,"lon":5.37387,"is_reserved":false,"is_disabled":false,"rental_uris":{"android":"levelo://app?vid=f5e86d30-c007-4821-873d-a631969d6565","ios":"levelo://app?vid=f5e86d30-c007-4821-873d-a631969d6565"},"vehicle_type_id":"4","last_reported":1730927301,"current_range_meters":26000,"station_id":"ce4bh3p2rcd13ifvqdq0","pricing_plan_id":"cebpf4jnsgd1na2vs0mg"},{"bike_id":"0d3226ef-c069-425b-9714-2510b17bd5ca","system_id":"levelo_inurba_marseille","lat":43.29303,"lon":5.37174,"is_reserved":false,"is_disabled":false,"rental_uris":{"android":"levelo://app?vid=0d3226ef-c069-425b-9714-2510b17bd5ca","ios":"levelo://app?vid=0d3226ef-c069-425b-9714-2510b17bd5ca"},"vehicle_type_id":"4","last_reported":1730927301,"current_range_meters":19200,"station_id":"ce4bgh92rcd13ifvqb40","pricing_plan_id":"cebpf4jnsgd1na2vs0mg"},{"bike_id":"183de452-01ed-409d-8dea-fe6c95b31ab4","system_id":"levelo_inurba_marseille","lat":43.2795,"lon":5.41033,"is_reserved":false,"is_disabled":false,"rental_uris":{"android":"levelo://app?vid=183de452-01ed-409d-8dea-fe6c95b31ab4","ios":"levelo://app?vid=183de452-01ed-409d-8dea-fe6c95b31ab4"},"vehicle_type_id":"4","last_reported":1730927301,"current_range_meters":30400,"station_id":"ce4bhnp2rcd13ifvqh0g","pricing_plan_id":"cebpf4jnsgd1na2vs0mg"},{"bike_id":"2451d850-5f8c-49a9-b6b3-f07811c189e1","system_id":"levelo_inurba_marseille","lat":43.28367,"lon":5.38631,"is_reserved":false,"is_disabled":false,"rental_uris":{"android":"levelo://app?vid=2451d850-5f8c-49a9-b6b3-f07811c189e1","ios":"levelo://app?vid=2451d850-5f8c-49a9-b6b3-f07811c189e1"},"vehicle_type_id":"4","last_reported":1730927301,"current_range_meters":38000,"station_id":"ce4bh492rcd13ifvqdvg","pricing_plan_id":"cebpf4jnsgd1na2vs0mg"},{"bike_id":"deaf0c78-2653-47a3-a84b-1a36720bb08e","system_id":"levelo_inurba_marseille","lat":43.28615,"lon":5.37059,"is_reserved":false,"is_disabled":false,"rental_uris":{"android":"levelo://app?vid=deaf0c78-2653-47a3-a84b-1a36720bb08e","ios":"levelo://app?vid=deaf0c78-2653-47a3-a84b-1a36720bb08e"},"vehicle_type_id":"4","last_reported":1730927301,"current_range_meters":25200,"station_id":"ce4bht12rcd13ifvqi60","pricing_plan_id":"cebpf4jnsgd1na2vs0mg"},{"bike_id":"4f2bdee6-4456-42ff-8942-9afb667ca1cb","system_id":"levelo_inurba_marseille","lat":43.26492,"lon":5.39546,"is_reserved":false,"is_disabled":false,"rental_uris":{"android":"levelo://app?vid=4f2bdee6-4456-42ff-8942-9afb667ca1cb","ios":"levelo://app?vid=4f2bdee6-4456-42ff-8942-9afb667ca1cb"},"vehicle_type_id":"4","last_reported":1730927301,"current_range_meters":36800,"station_id":"","pricing_plan_id":"cebpf4jnsgd1na2vs0mg"},{"bike_id":"c5b7820d-78fe-4750-89b8-a0efef8e5b8b","system_id":"levelo_inurba_marseille","lat":43.24673,"lon":5.3816,"is_reserved":false,"is_disabled":false,"rental_uris":{"android":"levelo://app?vid=c5b7820d-78fe-4750-89b8-a0efef8e5b8b","ios":"levelo://app?vid=c5b7820d-78fe-4750-89b8-a0efef8e5b8b"},"vehicle_type_id":"4","last_reported":1730927301,"current_range_meters":25600,"station_id":"ce4bhih2rcd13ifvqfr0","pricing_plan_id":"cebpf4jnsgd1na2vs0mg"},{"bike_id":"cb21f48f-8d3c-4d5f-8c6d-c304fa5630f1","system_id":"levelo_inurba_marseille","lat":43.29017,"lon":5.38628,"is_reserved":false,"is_disabled":false,"rental_uris":{"android":"levelo://app?vid=cb21f48f-8d3c-4d5f-8c6d-c304fa5630f1","ios":"levelo://app?vid=cb21f48f-8d3c-4d5f-8c6d-c304fa5630f1"},"vehicle_type_id":"4","last_reported":1730927301,"current_range_meters":38800,"station_id":"ce4bh4p2rcd13ifvqe0g","pricing_plan_id":"cebpf4jnsgd1na2vs0mg"},{"bike_id":"a9a6fa82-add1-4ea4-86b1-42bf6cff2b02","system_id":"levelo_inurba_marseille","lat":43.30241,"lon":5.40039,"is_reserved":false,"is_disabled":false,"rental_uris":{"android":"levelo://app?vid=a9a6fa82-add1-4ea4-86b1-42bf6cff2b02","ios":"levelo://app?vid=a9a6fa82-add1-4ea4-86b1-42bf6cff2b02"},"vehicle_type_id":"4","last_reported":1730927301,"current_range_meters":15200,"station_id":"ce4bgvh2rcd13ifvqcs0","pricing_plan_id":"cebpf4jnsgd1na2vs0mg"},{"bike_id":"73bfab2f-2160-41b5-95ab-d2e0665d7584","system_id":"levelo_inurba_marseille","lat":43.315378,"lon":5.380278,"is_reserved":false,"is_disabled":false,"rental_uris":{"android":"levelo://app?vid=73bfab2f-2160-41b5-95ab-d2e0665d7584","ios":"levelo://app?vid=73bfab2f-2160-41b5-95ab-d2e0665d7584"},"vehicle_type_id":"4","last_reported":1730927301,"current_range_meters":38800,"station_id":"ce4bhsp2rcd13ifvqi50","pricing_plan_id":"cebpf4jnsgd1na2vs0mg"},{"bike_id":"e53e5f72-9550-4bdf-a04d-643a9d23eeb5","system_id":"levelo_inurba_marseille","lat":43.30884,"lon":5.39646,"is_reserved":false,"is_disabled":false,"rental_uris":{"android":"levelo://app?vid=e53e5f72-9550-4bdf-a04d-643a9d23eeb5","ios":"levelo://app?vid=e53e5f72-9550-4bdf-a04d-643a9d23eeb5"},"vehicle_type_id":"4","last_reported":1730927301,"current_range_meters":5600,"station_id":"ce4bh012rcd13ifvqcv0","pricing_plan_id":"cebpf4jnsgd1na2vs0mg"},{"bike_id":"1f605dcf-489a-46c5-8ec0-74217c529382","system_id":"levelo_inurba_marseille","lat":43.24389,"lon":5.37056,"is_reserved":false,"is_disabled":false,"rental_uris":{"android":"levelo://app?vid=1f605dcf-489a-46c5-8ec0-74217c529382","ios":"levelo://app?vid=1f605dcf-489a-46c5-8ec0-74217c529382"},"vehicle_type_id":"4","last_reported":1730927301,"current_range_meters":10000,"station_id":"ce4bhhh2rcd13ifvqfk0","pricing_plan_id":"cebpf4jnsgd1na2vs0mg"},{"bike_id":"99c0f630-b444-47ad-ac88-e52104f0ab4d","system_id":"levelo_inurba_marseille","lat":43.289323,"lon":5.383913,"is_reserved":false,"is_disabled":false,"rental_uris":{"android":"levelo://app?vid=99c0f630-b444-47ad-ac88-e52104f0ab4d","ios":"levelo://app?vid=99c0f630-b444-47ad-ac88-e52104f0ab4d"},"vehicle_type_id":"4","last_reported":1730927301,"current_range_meters":38800,"station_id":"ce4bh612rcd13ifvqe6g","pricing_plan_id":"cebpf4jnsgd1na2vs0mg"},{"bike_id":"ee4e2628-0066-4f92-9883-aac3787b9751","system_id":"levelo_inurba_marseille","lat":43.30786,"lon":5.37642,"is_reserved":false,"is_disabled":false,"rental_uris":{"android":"levelo://app?vid=ee4e2628-0066-4f92-9883-aac3787b9751","ios":"levelo://app?vid=ee4e2628-0066-4f92-9883-aac3787b9751"},"vehicle_type_id":"4","last_reported":1730927301,"current_range_meters":20400,"station_id":"ce4bgv92rcd13ifvqcq0","pricing_plan_id":"cebpf4jnsgd1na2vs0mg"},{"bike_id":"9094defa-3c48-47d1-864e-b8ee2f1f0d2c","system_id":"levelo_inurba_marseille","lat":43.23197,"lon":5.35553,"is_reserved":false,"is_disabled":false,"rental_uris":{"android":"levelo://app?vid=9094defa-3c48-47d1-864e-b8ee2f1f0d2c","ios":"levelo://app?vid=9094defa-3c48-47d1-864e-b8ee2f1f0d2c"},"vehicle_type_id":"4","last_reported":1730927301,"current_range_meters":14800,"station_id":"ce4bhu92rcd13ifvqi70","pricing_plan_id":"cebpf4jnsgd1na2vs0mg"},{"bike_id":"138edf40-8b55-4b5b-8ebd-2a9cd72069a9","system_id":"levelo_inurba_marseille","lat":43.24665,"lon":5.38165,"is_reserved":false,"is_disabled":false,"rental_uris":{"android":"levelo://app?vid=138edf40-8b55-4b5b-8ebd-2a9cd72069a9","ios":"levelo://app?vid=138edf40-8b55-4b5b-8ebd-2a9cd72069a9"},"vehicle_type_id":"4","last_reported":1730927301,"current_range_meters":18000,"station_id":"ce4bhih2rcd13ifvqfr0","pricing_plan_id":"cebpf4jnsgd1na2vs0mg"},{"bike_id":"c1f11680-2672-40b6-8614-d00a9bc5e3c1","system_id":"levelo_inurba_marseille","lat":43.25855,"lon":5.39902,"is_reserved":false,"is_disabled":false,"rental_uris":{"android":"levelo://app?vid=c1f11680-2672-40b6-8614-d00a9bc5e3c1","ios":"levelo://app?vid=c1f11680-2672-40b6-8614-d00a9bc5e3c1"},"vehicle_type_id":"4","last_reported":1730927301,"current_range_meters":36800,"station_id":"ce4bhl92rcd13ifvqghg","pricing_plan_id":"cebpf4jnsgd1na2vs0mg"},{"bike_id":"345bed40-3ea4-419d-9c62-8566b5d2ba51","system_id":"levelo_inurba_marseille","lat":43.2989,"lon":5.39738,"is_reserved":false,"is_disabled":false,"rental_uris":{"android":"levelo://app?vid=345bed40-3ea4-419d-9c62-8566b5d2ba51","ios":"levelo://app?vid=345bed40-3ea4-419d-9c62-8566b5d2ba51"},"vehicle_type_id":"4","last_reported":1730927301,"current_range_meters":38800,"station_id":"ce4bh0h2rcd13ifvqd50","pricing_plan_id":"cebpf4jnsgd1na2vs0mg"},{"bike_id":"cde33d01-4fdf-4588-9993-50576e545d63","system_id":"levelo_inurba_marseille","lat":43.29895,"lon":5.43664,"is_reserved":false,"is_disabled":false,"rental_uris":{"android":"levelo://app?vid=cde33d01-4fdf-4588-9993-50576e545d63","ios":"levelo://app?vid=cde33d01-4fdf-4588-9993-50576e545d63"},"vehicle_type_id":"4","last_reported":1730927301,"current_range_meters":36800,"station_id":"ce4bhpp2rcd13ifvqhfg","pricing_plan_id":"cebpf4jnsgd1na2vs0mg"},{"bike_id":"7b0fa45b-73b1-43d0-b318-c7b89f93ae59","system_id":"levelo_inurba_marseille","lat":43.3133,"lon":5.39693,"is_reserved":false,"is_disabled":false,"rental_uris":{"android":"levelo://app?vid=7b0fa45b-73b1-43d0-b318-c7b89f93ae59","ios":"levelo://app?vid=7b0fa45b-73b1-43d0-b318-c7b89f93ae59"},"vehicle_type_id":"4","last_reported":1730927301,"current_range_meters":8000,"station_id":"ce4bgvp2rcd13ifvqcu0","pricing_plan_id":"cebpf4jnsgd1na2vs0mg"},{"bike_id":"65871692-3e6e-46da-b6c2-2500d4373067","system_id":"levelo_inurba_marseille","lat":43.29792,"lon":5.3808,"is_reserved":false,"is_disabled":false,"rental_uris":{"android":"levelo://app?vid=65871692-3e6e-46da-b6c2-2500d4373067","ios":"levelo://app?vid=65871692-3e6e-46da-b6c2-2500d4373067"},"vehicle_type_id":"4","last_reported":1730927301,"current_range_meters":39200,"station_id":"ce4bgip2rcd13ifvqbb0","pricing_plan_id":"cebpf4jnsgd1na2vs0mg"},{"bike_id":"76180087-7581-4fd5-b38a-35c240d40301","system_id":"levelo_inurba_marseille","lat":43.25861,"lon":5.39904,"is_reserved":false,"is_disabled":false,"rental_uris":{"android":"levelo://app?vid=76180087-7581-4fd5-b38a-35c240d40301","ios":"levelo://app?vid=76180087-7581-4fd5-b38a-35c240d40301"},"vehicle_type_id":"4","last_reported":1730927301,"current_range_meters":38400,"station_id":"ce4bhl92rcd13ifvqghg","pricing_plan_id":"cebpf4jnsgd1na2vs0mg"},{"bike_id":"167bdb5b-93de-4de6-9c3a-7ea9c6f283d1","system_id":"levelo_inurba_marseille","lat":43.29527,"lon":5.38544,"is_reserved":false,"is_disabled":false,"rental_uris":{"android":"levelo://app?vid=167bdb5b-93de-4de6-9c3a-7ea9c6f283d1","ios":"levelo://app?vid=167bdb5b-93de-4de6-9c3a-7ea9c6f283d1"},"vehicle_type_id":"4","last_reported":1730927301,"current_range_meters":38800,"station_id":"ce4bgih2rcd13ifvqba0","pricing_plan_id":"cebpf4jnsgd1na2vs0mg"},{"bike_id":"2b6f0586-477f-4511-b655-74066c282c80","system_id":"levelo_inurba_marseille","lat":43.28844,"lon":5.35851,"is_reserved":false,"is_disabled":false,"rental_uris":{"android":"levelo://app?vid=2b6f0586-477f-4511-b655-74066c282c80","ios":"levelo://app?vid=2b6f0586-477f-4511-b655-74066c282c80"},"vehicle_type_id":"4","last_reported":1730927301,"current_range_meters":10800,"station_id":"ce4bhb12rcd13ifvqem0","pricing_plan_id":"cebpf4jnsgd1na2vs0mg"},{"bike_id":"308bba98-f889-4ff8-b49f-311533a44ba1","system_id":"levelo_inurba_marseille","lat":43.24998,"lon":5.38929,"is_reserved":false,"is_disabled":false,"rental_uris":{"android":"levelo://app?vid=308bba98-f889-4ff8-b49f-311533a44ba1","ios":"levelo://app?vid=308bba98-f889-4ff8-b49f-311533a44ba1"},"vehicle_type_id":"4","last_reported":1730927301,"current_range_meters":38000,"station_id":"ce4bhgp2rcd13ifvqfd0","pricing_plan_id":"cebpf4jnsgd1na2vs0mg"},{"bike_id":"89366d32-f18f-41cc-add5-a8ca219fef86","system_id":"levelo_inurba_marseille","lat":43.28735,"lon":5.36081,"is_reserved":false,"is_disabled":false,"rental_uris":{"android":"levelo://app?vid=89366d32-f18f-41cc-add5-a8ca219fef86","ios":"levelo://app?vid=89366d32-f18f-41cc-add5-a8ca219fef86"},"vehicle_type_id":"4","last_reported":1730927301,"current_range_meters":38800,"station_id":"cki0cbj6b192h4jlfktg","pricing_plan_id":"cebpf4jnsgd1na2vs0mg"},{"bike_id":"2c4cb969-c05f-4224-a9d3-3a89bd86c2d4","system_id":"levelo_inurba_marseille","lat":43.283547,"lon":5.386593,"is_reserved":false,"is_disabled":false,"rental_uris":{"android":"levelo://app?vid=2c4cb969-c05f-4224-a9d3-3a89bd86c2d4","ios":"levelo://app?vid=2c4cb969-c05f-4224-a9d3-3a89bd86c2d4"},"vehicle_type_id":"4","last_reported":1730927301,"current_range_meters":24000,"station_id":"ce4bh492rcd13ifvqdvg","pricing_plan_id":"cebpf4jnsgd1na2vs0mg"},{"bike_id":"ce35c458-efa4-44e7-9708-b9d3d9ad5966","system_id":"levelo_inurba_marseille","lat":43.29193,"lon":5.39314,"is_reserved":false,"is_disabled":false,"rental_uris":{"android":"levelo://app?vid=ce35c458-efa4-44e7-9708-b9d3d9ad5966","ios":"levelo://app?vid=ce35c458-efa4-44e7-9708-b9d3d9ad5966"},"vehicle_type_id":"4","last_reported":1730927301,"current_range_meters":34000,"station_id":"ce4bh192rcd13ifvqdd0","pricing_plan_id":"cebpf4jnsgd1na2vs0mg"},{"bike_id":"5174ae6b-73b7-4eb9-b82e-9c61c1f78ce8","system_id":"levelo_inurba_marseille","lat":43.31217,"lon":5.40592,"is_reserved":false,"is_disabled":false,"rental_uris":{"android":"levelo://app?vid=5174ae6b-73b7-4eb9-b82e-9c61c1f78ce8","ios":"levelo://app?vid=5174ae6b-73b7-4eb9-b82e-9c61c1f78ce8"},"vehicle_type_id":"4","last_reported":1730927301,"current_range_meters":20400,"station_id":"","pricing_plan_id":"cebpf4jnsgd1na2vs0mg"},{"bike_id":"71f44770-22ed-4090-bdb9-0e6d1f334fe2","system_id":"levelo_inurba_marseille","lat":43.28846,"lon":5.35854,"is_reserved":false,"is_disabled":false,"rental_uris":{"android":"levelo://app?vid=71f44770-22ed-4090-bdb9-0e6d1f334fe2","ios":"levelo://app?vid=71f44770-22ed-4090-bdb9-0e6d1f334fe2"},"vehicle_type_id":"4","last_reported":1730927301,"current_range_meters":2800,"station_id":"ce4bhb12rcd13ifvqem0","pricing_plan_id":"cebpf4jnsgd1na2vs0mg"},{"bike_id":"b5ef1ddb-f5ed-405f-a631-6352985f51a9","system_id":"levelo_inurba_marseille","lat":43.2871,"lon":5.37936,"is_reserved":false,"is_disabled":false,"rental_uris":{"android":"levelo://app?vid=b5ef1ddb-f5ed-405f-a631-6352985f51a9","ios":"levelo://app?vid=b5ef1ddb-f5ed-405f-a631-6352985f51a9"},"vehicle_type_id":"4","last_reported":1730927301,"current_range_meters":37600,"station_id":"ce4bh9p2rcd13ifvqec0","pricing_plan_id":"cebpf4jnsgd1na2vs0mg"},{"bike_id":"6dcb664a-2edd-4acf-a453-7245fdf61530","system_id":"levelo_inurba_marseille","lat":43.29421,"lon":5.38607,"is_reserved":false,"is_disabled":false,"rental_uris":{"android":"levelo://app?vid=6dcb664a-2edd-4acf-a453-7245fdf61530","ios":"levelo://app?vid=6dcb664a-2edd-4acf-a453-7245fdf61530"},"vehicle_type_id":"4","last_reported":1730927301,"current_range_meters":2800,"station_id":"ce4bh2h2rcd13ifvqdh0","pricing_plan_id":"cebpf4jnsgd1na2vs0mg"},{"bike_id":"6c6067c7-81ca-4cfd-98d1-3c4aa468815b","system_id":"levelo_inurba_marseille","lat":43.31759,"lon":5.3902,"is_reserved":false,"is_disabled":false,"rental_uris":{"android":"levelo://app?vid=6c6067c7-81ca-4cfd-98d1-3c4aa468815b","ios":"levelo://app?vid=6c6067c7-81ca-4cfd-98d1-3c4aa468815b"},"vehicle_type_id":"4","last_reported":1730927301,"current_range_meters":38800,"station_id":"ce4bhqp2rcd13ifvqhng","pricing_plan_id":"cebpf4jnsgd1na2vs0mg"},{"bike_id":"698f04a8-8b31-4b26-bec7-b8ff5d19442b","system_id":"levelo_inurba_marseille","lat":43.31268,"lon":5.40163,"is_reserved":false,"is_disabled":false,"rental_uris":{"android":"levelo://app?vid=698f04a8-8b31-4b26-bec7-b8ff5d19442b","ios":"levelo://app?vid=698f04a8-8b31-4b26-bec7-b8ff5d19442b"},"vehicle_type_id":"4","last_reported":1730927301,"current_range_meters":36400,"station_id":"ce4bh092rcd13ifvqd30","pricing_plan_id":"cebpf4jnsgd1na2vs0mg"},{"bike_id":"73c53c13-4b99-443a-bf46-889ae8071c20","system_id":"levelo_inurba_marseille","lat":43.25085,"lon":5.39512,"is_reserved":false,"is_disabled":false,"rental_uris":{"android":"levelo://app?vid=73c53c13-4b99-443a-bf46-889ae8071c20","ios":"levelo://app?vid=73c53c13-4b99-443a-bf46-889ae8071c20"},"vehicle_type_id":"4","last_reported":1730927301,"current_range_meters":16000,"station_id":"ce4bhm12rcd13ifvqgkg","pricing_plan_id":"cebpf4jnsgd1na2vs0mg"},{"bike_id":"34efd0bb-2d18-4d22-8807-700bc3ce53cf","system_id":"levelo_inurba_marseille","lat":43.29182,"lon":5.39313,"is_reserved":false,"is_disabled":false,"rental_uris":{"android":"levelo://app?vid=34efd0bb-2d18-4d22-8807-700bc3ce53cf","ios":"levelo://app?vid=34efd0bb-2d18-4d22-8807-700bc3ce53cf"},"vehicle_type_id":"4","last_reported":1730927301,"current_range_meters":38800,"station_id":"ce4bh192rcd13ifvqdd0","pricing_plan_id":"cebpf4jnsgd1na2vs0mg"},{"bike_id":"45c786d2-6de4-4f11-80dc-6ae8e747e679","system_id":"levelo_inurba_marseille","lat":43.30208,"lon":5.39459,"is_reserved":false,"is_disabled":false,"rental_uris":{"android":"levelo://app?vid=45c786d2-6de4-4f11-80dc-6ae8e747e679","ios":"levelo://app?vid=45c786d2-6de4-4f11-80dc-6ae8e747e679"},"vehicle_type_id":"4","last_reported":1730927301,"current_range_meters":34000,"station_id":"ce4bh0p2rcd13ifvqd70","pricing_plan_id":"cebpf4jnsgd1na2vs0mg"},{"bike_id":"ee8a3550-0001-4fcc-bd31-4beeb6d76621","system_id":"levelo_inurba_marseille","lat":43.31076,"lon":5.38352,"is_reserved":false,"is_disabled":false,"rental_uris":{"android":"levelo://app?vid=ee8a3550-0001-4fcc-bd31-4beeb6d76621","ios":"levelo://app?vid=ee8a3550-0001-4fcc-bd31-4beeb6d76621"},"vehicle_type_id":"4","last_reported":1730927301,"current_range_meters":11600,"station_id":"ce4bgv92rcd13ifvqcr0","pricing_plan_id":"cebpf4jnsgd1na2vs0mg"},{"bike_id":"d25cc44c-d51b-4657-b44d-4c31a96a9ac3","system_id":"levelo_inurba_marseille","lat":43.32343,"lon":5.40615,"is_reserved":false,"is_disabled":false,"rental_uris":{"android":"levelo://app?vid=d25cc44c-d51b-4657-b44d-4c31a96a9ac3","ios":"levelo://app?vid=d25cc44c-d51b-4657-b44d-4c31a96a9ac3"},"vehicle_type_id":"4","last_reported":1730927301,"current_range_meters":16400,"station_id":"ce4bhq92rcd13ifvqhjg","pricing_plan_id":"cebpf4jnsgd1na2vs0mg"},{"bike_id":"8eebcba0-c919-48bd-88f8-e35cda05e886","system_id":"levelo_inurba_marseille","lat":43.28668,"lon":5.38668,"is_reserved":false,"is_disabled":false,"rental_uris":{"android":"levelo://app?vid=8eebcba0-c919-48bd-88f8-e35cda05e886","ios":"levelo://app?vid=8eebcba0-c919-48bd-88f8-e35cda05e886"},"vehicle_type_id":"4","last_reported":1730927301,"current_range_meters":25200,"station_id":"ce4bh492rcd13ifvqdug","pricing_plan_id":"cebpf4jnsgd1na2vs0mg"},{"bike_id":"1a200d94-7fcc-43a0-baf7-0653f1297e9d","system_id":"levelo_inurba_marseille","lat":43.24674,"lon":5.38163,"is_reserved":false,"is_disabled":false,"rental_uris":{"android":"levelo://app?vid=1a200d94-7fcc-43a0-baf7-0653f1297e9d","ios":"levelo://app?vid=1a200d94-7fcc-43a0-baf7-0653f1297e9d"},"vehicle_type_id":"4","last_reported":1730927301,"current_range_meters":18800,"station_id":"ce4bhih2rcd13ifvqfr0","pricing_plan_id":"cebpf4jnsgd1na2vs0mg"},{"bike_id":"dd172bf8-d14d-45c6-9752-e4c7a309bb9f","system_id":"levelo_inurba_marseille","lat":43.258354,"lon":5.394243,"is_reserved":false,"is_disabled":false,"rental_uris":{"android":"levelo://app?vid=dd172bf8-d14d-45c6-9752-e4c7a309bb9f","ios":"levelo://app?vid=dd172bf8-d14d-45c6-9752-e4c7a309bb9f"},"vehicle_type_id":"4","last_reported":1730927301,"current_range_meters":37600,"station_id":"ce4bhip2rcd13ifvqft0","pricing_plan_id":"cebpf4jnsgd1na2vs0mg"},{"bike_id":"c819360e-bead-4d00-96c1-0cc47dde28e3","system_id":"levelo_inurba_marseille","lat":43.29554,"lon":5.42293,"is_reserved":false,"is_disabled":false,"rental_uris":{"android":"levelo://app?vid=c819360e-bead-4d00-96c1-0cc47dde28e3","ios":"levelo://app?vid=c819360e-bead-4d00-96c1-0cc47dde28e3"},"vehicle_type_id":"4","last_reported":1730927301,"current_range_meters":38800,"station_id":"ce4bhph2rcd13ifvqhdg","pricing_plan_id":"cebpf4jnsgd1na2vs0mg"},{"bike_id":"9fd2eafb-b3a2-4330-b6d6-848617578953","system_id":"levelo_inurba_marseille","lat":43.31999,"lon":5.38151,"is_reserved":false,"is_disabled":false,"rental_uris":{"android":"levelo://app?vid=9fd2eafb-b3a2-4330-b6d6-848617578953","ios":"levelo://app?vid=9fd2eafb-b3a2-4330-b6d6-848617578953"},"vehicle_type_id":"4","last_reported":1730927301,"current_range_meters":8000,"station_id":"ce4bhr12rcd13ifvqhpg","pricing_plan_id":"cebpf4jnsgd1na2vs0mg"},{"bike_id":"ed9d7a87-b2a5-4493-8ad8-420f1b483592","system_id":"levelo_inurba_marseille","lat":43.30875,"lon":5.39637,"is_reserved":false,"is_disabled":false,"rental_uris":{"android":"levelo://app?vid=ed9d7a87-b2a5-4493-8ad8-420f1b483592","ios":"levelo://app?vid=ed9d7a87-b2a5-4493-8ad8-420f1b483592"},"vehicle_type_id":"4","last_reported":1730927301,"current_range_meters":39200,"station_id":"ce4bh012rcd13ifvqcv0","pricing_plan_id":"cebpf4jnsgd1na2vs0mg"},{"bike_id":"645ad553-64ae-4d3a-af64-8f5a637f4c6e","system_id":"levelo_inurba_marseille","lat":43.28268,"lon":5.35073,"is_reserved":false,"is_disabled":false,"rental_uris":{"android":"levelo://app?vid=645ad553-64ae-4d3a-af64-8f5a637f4c6e","ios":"levelo://app?vid=645ad553-64ae-4d3a-af64-8f5a637f4c6e"},"vehicle_type_id":"4","last_reported":1730927301,"current_range_meters":2800,"station_id":"ce4bhbp2rcd13ifvqerg","pricing_plan_id":"cebpf4jnsgd1na2vs0mg"},{"bike_id":"5b0f60c7-ef1f-4634-8bc2-02af8f6e9225","system_id":"levelo_inurba_marseille","lat":43.29559,"lon":5.42289,"is_reserved":false,"is_disabled":false,"rental_uris":{"android":"levelo://app?vid=5b0f60c7-ef1f-4634-8bc2-02af8f6e9225","ios":"levelo://app?vid=5b0f60c7-ef1f-4634-8bc2-02af8f6e9225"},"vehicle_type_id":"4","last_reported":1730927301,"current_range_meters":23200,"station_id":"ce4bhph2rcd13ifvqhdg","pricing_plan_id":"cebpf4jnsgd1na2vs0mg"},{"bike_id":"420e4751-2784-4222-be4e-5723d5a12888","system_id":"levelo_inurba_marseille","lat":43.24386,"lon":5.37058,"is_reserved":false,"is_disabled":false,"rental_uris":{"android":"levelo://app?vid=420e4751-2784-4222-be4e-5723d5a12888","ios":"levelo://app?vid=420e4751-2784-4222-be4e-5723d5a12888"},"vehicle_type_id":"4","last_reported":1730927301,"current_range_meters":19600,"station_id":"ce4bhhh2rcd13ifvqfk0","pricing_plan_id":"cebpf4jnsgd1na2vs0mg"},{"bike_id":"9b6f25cd-f741-40dc-863c-11d87970fd03","system_id":"levelo_inurba_marseille","lat":43.29415,"lon":5.38604,"is_reserved":false,"is_disabled":false,"rental_uris":{"android":"levelo://app?vid=9b6f25cd-f741-40dc-863c-11d87970fd03","ios":"levelo://app?vid=9b6f25cd-f741-40dc-863c-11d87970fd03"},"vehicle_type_id":"4","last_reported":1730927301,"current_range_meters":17200,"station_id":"ce4bh2h2rcd13ifvqdh0","pricing_plan_id":"cebpf4jnsgd1na2vs0mg"},{"bike_id":"2fe515d7-c2ba-40bc-af58-2812fb065090","system_id":"levelo_inurba_marseille","lat":43.29867,"lon":5.39729,"is_reserved":false,"is_disabled":false,"rental_uris":{"android":"levelo://app?vid=2fe515d7-c2ba-40bc-af58-2812fb065090","ios":"levelo://app?vid=2fe515d7-c2ba-40bc-af58-2812fb065090"},"vehicle_type_id":"4","last_reported":1730927301,"current_range_meters":40000,"station_id":"ce4bh0h2rcd13ifvqd50","pricing_plan_id":"cebpf4jnsgd1na2vs0mg"},{"bike_id":"94a14aeb-e8b9-4d00-a3d4-dcbfef13331d","system_id":"levelo_inurba_marseille","lat":43.30256,"lon":5.40061,"is_reserved":false,"is_disabled":false,"rental_uris":{"android":"levelo://app?vid=94a14aeb-e8b9-4d00-a3d4-dcbfef13331d","ios":"levelo://app?vid=94a14aeb-e8b9-4d00-a3d4-dcbfef13331d"},"vehicle_type_id":"4","last_reported":1730927301,"current_range_meters":33600,"station_id":"ce4bgvh2rcd13ifvqcs0","pricing_plan_id":"cebpf4jnsgd1na2vs0mg"},{"bike_id":"a5bc2fce-204d-4ecc-bd2f-0a758ce61f0d","system_id":"levelo_inurba_marseille","lat":43.28001,"lon":5.40001,"is_reserved":false,"is_disabled":false,"rental_uris":{"android":"levelo://app?vid=a5bc2fce-204d-4ecc-bd2f-0a758ce61f0d","ios":"levelo://app?vid=a5bc2fce-204d-4ecc-bd2f-0a758ce61f0d"},"vehicle_type_id":"4","last_reported":1730927301,"current_range_meters":8000,"station_id":"ce4bho92rcd13ifvqh4g","pricing_plan_id":"cebpf4jnsgd1na2vs0mg"},{"bike_id":"fd703d4d-2220-4eed-8a57-b09e4e7ca260","system_id":"levelo_inurba_marseille","lat":43.304718,"lon":5.366739,"is_reserved":false,"is_disabled":false,"rental_uris":{"android":"levelo://app?vid=fd703d4d-2220-4eed-8a57-b09e4e7ca260","ios":"levelo://app?vid=fd703d4d-2220-4eed-8a57-b09e4e7ca260"},"vehicle_type_id":"4","last_reported":1730927301,"current_range_meters":28800,"station_id":"","pricing_plan_id":"cebpf4jnsgd1na2vs0mg"},{"bike_id":"ce9c29f4-99c2-42e0-bc51-19aa6bed5e01","system_id":"levelo_inurba_marseille","lat":43.30936,"lon":5.40142,"is_reserved":false,"is_disabled":false,"rental_uris":{"android":"levelo://app?vid=ce9c29f4-99c2-42e0-bc51-19aa6bed5e01","ios":"levelo://app?vid=ce9c29f4-99c2-42e0-bc51-19aa6bed5e01"},"vehicle_type_id":"4","last_reported":1730927301,"current_range_meters":18000,"station_id":"ce4bgvp2rcd13ifvqct0","pricing_plan_id":"cebpf4jnsgd1na2vs0mg"},{"bike_id":"4d3c374a-1f45-46b9-8607-f64397074506","system_id":"levelo_inurba_marseille","lat":43.25084,"lon":5.39507,"is_reserved":false,"is_disabled":false,"rental_uris":{"android":"levelo://app?vid=4d3c374a-1f45-46b9-8607-f64397074506","ios":"levelo://app?vid=4d3c374a-1f45-46b9-8607-f64397074506"},"vehicle_type_id":"4","last_reported":1730927301,"current_range_meters":29600,"station_id":"ce4bhm12rcd13ifvqgkg","pricing_plan_id":"cebpf4jnsgd1na2vs0mg"},{"bike_id":"903b0ec3-2165-4ecf-84f1-2edb22136500","system_id":"levelo_inurba_marseille","lat":43.25727,"lon":5.41109,"is_reserved":false,"is_disabled":false,"rental_uris":{"android":"levelo://app?vid=903b0ec3-2165-4ecf-84f1-2edb22136500","ios":"levelo://app?vid=903b0ec3-2165-4ecf-84f1-2edb22136500"},"vehicle_type_id":"4","last_reported":1730927301,"current_range_meters":38800,"station_id":"ce4bhkp2rcd13ifvqgd0","pricing_plan_id":"cebpf4jnsgd1na2vs0mg"},{"bike_id":"b7dd8bea-767b-4a90-a1d4-bc825086e891","system_id":"levelo_inurba_marseille","lat":43.3013,"lon":5.39884,"is_reserved":false,"is_disabled":false,"rental_uris":{"android":"levelo://app?vid=b7dd8bea-767b-4a90-a1d4-bc825086e891","ios":"levelo://app?vid=b7dd8bea-767b-4a90-a1d4-bc825086e891"},"vehicle_type_id":"4","last_reported":1730927301,"current_range_meters":27200,"station_id":"ce4bh0h2rcd13ifvqd40","pricing_plan_id":"cebpf4jnsgd1na2vs0mg"},{"bike_id":"9a0ae2e4-d1fa-4de6-b4c7-29ff5e540266","system_id":"levelo_inurba_marseille","lat":43.34142,"lon":5.40901,"is_reserved":false,"is_disabled":false,"rental_uris":{"android":"levelo://app?vid=9a0ae2e4-d1fa-4de6-b4c7-29ff5e540266","ios":"levelo://app?vid=9a0ae2e4-d1fa-4de6-b4c7-29ff5e540266"},"vehicle_type_id":"4","last_reported":1730927301,"current_range_meters":32800,"station_id":"ce4bhqh2rcd13ifvqhlg","pricing_plan_id":"cebpf4jnsgd1na2vs0mg"},{"bike_id":"b1be398e-7280-4b56-af7b-9982e958c7df","system_id":"levelo_inurba_marseille","lat":43.3302,"lon":5.39043,"is_reserved":false,"is_disabled":false,"rental_uris":{"android":"levelo://app?vid=b1be398e-7280-4b56-af7b-9982e958c7df","ios":"levelo://app?vid=b1be398e-7280-4b56-af7b-9982e958c7df"},"vehicle_type_id":"4","last_reported":1730927301,"current_range_meters":37600,"station_id":"ce4bhr92rcd13ifvqhrg","pricing_plan_id":"cebpf4jnsgd1na2vs0mg"},{"bike_id":"688369d1-5be0-444d-b25e-23eb08c2c55f","system_id":"levelo_inurba_marseille","lat":43.31996,"lon":5.38141,"is_reserved":false,"is_disabled":false,"rental_uris":{"android":"levelo://app?vid=688369d1-5be0-444d-b25e-23eb08c2c55f","ios":"levelo://app?vid=688369d1-5be0-444d-b25e-23eb08c2c55f"},"vehicle_type_id":"4","last_reported":1730927301,"current_range_meters":12000,"station_id":"ce4bhr12rcd13ifvqhpg","pricing_plan_id":"cebpf4jnsgd1na2vs0mg"},{"bike_id":"dee376ac-3809-4888-b3c6-3f4b373d74ca","system_id":"levelo_inurba_marseille","lat":43.29414,"lon":5.38626,"is_reserved":false,"is_disabled":false,"rental_uris":{"android":"levelo://app?vid=dee376ac-3809-4888-b3c6-3f4b373d74ca","ios":"levelo://app?vid=dee376ac-3809-4888-b3c6-3f4b373d74ca"},"vehicle_type_id":"4","last_reported":1730927301,"current_range_meters":30000,"station_id":"ce4bh2h2rcd13ifvqdh0","pricing_plan_id":"cebpf4jnsgd1na2vs0mg"},{"bike_id":"0716099e-4daa-46f4-b3a0-9b0c2d84b63b","system_id":"levelo_inurba_marseille","lat":43.24806,"lon":5.37456,"is_reserved":false,"is_disabled":false,"rental_uris":{"android":"levelo://app?vid=0716099e-4daa-46f4-b3a0-9b0c2d84b63b","ios":"levelo://app?vid=0716099e-4daa-46f4-b3a0-9b0c2d84b63b"},"vehicle_type_id":"4","last_reported":1730927301,"current_range_meters":28800,"station_id":"ce4bhgh2rcd13ifvqfb0","pricing_plan_id":"cebpf4jnsgd1na2vs0mg"},{"bike_id":"55a677bd-87c6-4021-ae5c-c9a5693b7d71","system_id":"levelo_inurba_marseille","lat":43.31333,"lon":5.39695,"is_reserved":false,"is_disabled":false,"rental_uris":{"android":"levelo://app?vid=55a677bd-87c6-4021-ae5c-c9a5693b7d71","ios":"levelo://app?vid=55a677bd-87c6-4021-ae5c-c9a5693b7d71"},"vehicle_type_id":"4","last_reported":1730927301,"current_range_meters":39200,"station_id":"ce4bgvp2rcd13ifvqcu0","pricing_plan_id":"cebpf4jnsgd1na2vs0mg"},{"bike_id":"4e5d727a-7c34-44b8-af94-45a54b88c1cc","system_id":"levelo_inurba_marseille","lat":43.33721,"lon":5.39175,"is_reserved":false,"is_disabled":false,"rental_uris":{"android":"levelo://app?vid=4e5d727a-7c34-44b8-af94-45a54b88c1cc","ios":"levelo://app?vid=4e5d727a-7c34-44b8-af94-45a54b88c1cc"},"vehicle_type_id":"4","last_reported":1730927301,"current_range_meters":39200,"station_id":"ce4bhr92rcd13ifvqhsg","pricing_plan_id":"cebpf4jnsgd1na2vs0mg"},{"bike_id":"c75b9b52-b430-4c81-b723-a17bcc7311fb","system_id":"levelo_inurba_marseille","lat":43.28929,"lon":5.36379,"is_reserved":false,"is_disabled":false,"rental_uris":{"android":"levelo://app?vid=c75b9b52-b430-4c81-b723-a17bcc7311fb","ios":"levelo://app?vid=c75b9b52-b430-4c81-b723-a17bcc7311fb"},"vehicle_type_id":"4","last_reported":1730927301,"current_range_meters":38800,"station_id":"ce4bhc92rcd13ifvqetg","pricing_plan_id":"cebpf4jnsgd1na2vs0mg"},{"bike_id":"2ac59b30-95ad-4d41-84cd-66b709f67fc4","system_id":"levelo_inurba_marseille","lat":43.337444,"lon":5.374475,"is_reserved":false,"is_disabled":false,"rental_uris":{"android":"levelo://app?vid=2ac59b30-95ad-4d41-84cd-66b709f67fc4","ios":"levelo://app?vid=2ac59b30-95ad-4d41-84cd-66b709f67fc4"},"vehicle_type_id":"4","last_reported":1730927301,"current_range_meters":35600,"station_id":"","pricing_plan_id":"cebpf4jnsgd1na2vs0mg"},{"bike_id":"73aff5d5-3290-4dad-807a-ad14e77340f7","system_id":"levelo_inurba_marseille","lat":43.30531,"lon":5.38427,"is_reserved":false,"is_disabled":false,"rental_uris":{"android":"levelo://app?vid=73aff5d5-3290-4dad-807a-ad14e77340f7","ios":"levelo://app?vid=73aff5d5-3290-4dad-807a-ad14e77340f7"},"vehicle_type_id":"4","last_reported":1730927301,"current_range_meters":33200,"station_id":"ce4bgg92rcd13ifvqb30","pricing_plan_id":"cebpf4jnsgd1na2vs0mg"},{"bike_id":"d398d794-d5fa-4ae6-b063-9466efe93a0b","system_id":"levelo_inurba_marseille","lat":43.32334,"lon":5.40617,"is_reserved":false,"is_disabled":false,"rental_uris":{"android":"levelo://app?vid=d398d794-d5fa-4ae6-b063-9466efe93a0b","ios":"levelo://app?vid=d398d794-d5fa-4ae6-b063-9466efe93a0b"},"vehicle_type_id":"4","last_reported":1730927301,"current_range_meters":22800,"station_id":"ce4bhq92rcd13ifvqhjg","pricing_plan_id":"cebpf4jnsgd1na2vs0mg"},{"bike_id":"a429d417-ae34-4edf-87c8-05ac18f72a29","system_id":"levelo_inurba_marseille","lat":43.31073,"lon":5.3835,"is_reserved":false,"is_disabled":false,"rental_uris":{"android":"levelo://app?vid=a429d417-ae34-4edf-87c8-05ac18f72a29","ios":"levelo://app?vid=a429d417-ae34-4edf-87c8-05ac18f72a29"},"vehicle_type_id":"4","last_reported":1730927301,"current_range_meters":8000,"station_id":"ce4bgv92rcd13ifvqcr0","pricing_plan_id":"cebpf4jnsgd1na2vs0mg"},{"bike_id":"fcdaf740-eae6-4a6a-95a7-fd9a937f59c4","system_id":"levelo_inurba_marseille","lat":43.306035,"lon":5.372268,"is_reserved":false,"is_disabled":false,"rental_uris":{"android":"levelo://app?vid=fcdaf740-eae6-4a6a-95a7-fd9a937f59c4","ios":"levelo://app?vid=fcdaf740-eae6-4a6a-95a7-fd9a937f59c4"},"vehicle_type_id":"4","last_reported":1730927301,"current_range_meters":34800,"station_id":"ce4bgqh2rcd13ifvqc4g","pricing_plan_id":"cebpf4jnsgd1na2vs0mg"},{"bike_id":"3d161c35-9f40-4b08-a68a-f579008f18ef","system_id":"levelo_inurba_marseille","lat":43.2572,"lon":5.41106,"is_reserved":false,"is_disabled":false,"rental_uris":{"android":"levelo://app?vid=3d161c35-9f40-4b08-a68a-f579008f18ef","ios":"levelo://app?vid=3d161c35-9f40-4b08-a68a-f579008f18ef"},"vehicle_type_id":"4","last_reported":1730927301,"current_range_meters":38800,"station_id":"ce4bhkp2rcd13ifvqgd0","pricing_plan_id":"cebpf4jnsgd1na2vs0mg"},{"bike_id":"91dbb18e-7c31-498e-8c65-eddd96e1049a","system_id":"levelo_inurba_marseille","lat":43.28705,"lon":5.37397,"is_reserved":false,"is_disabled":false,"rental_uris":{"android":"levelo://app?vid=91dbb18e-7c31-498e-8c65-eddd96e1049a","ios":"levelo://app?vid=91dbb18e-7c31-498e-8c65-eddd96e1049a"},"vehicle_type_id":"4","last_reported":1730927301,"current_range_meters":33600,"station_id":"ce4bh3p2rcd13ifvqdq0","pricing_plan_id":"cebpf4jnsgd1na2vs0mg"},{"bike_id":"a53b139e-364b-46e8-b9bf-a9a5a826f0ed","system_id":"levelo_inurba_marseille","lat":43.27424,"lon":5.39391,"is_reserved":false,"is_disabled":false,"rental_uris":{"android":"levelo://app?vid=a53b139e-364b-46e8-b9bf-a9a5a826f0ed","ios":"levelo://app?vid=a53b139e-364b-46e8-b9bf-a9a5a826f0ed"},"vehicle_type_id":"4","last_reported":1730927301,"current_range_meters":38800,"station_id":"ce4bhdp2rcd13ifvqf20","pricing_plan_id":"cebpf4jnsgd1na2vs0mg"},{"bike_id":"3c0a4a5d-2970-40d6-b87f-4b5f7e658024","system_id":"levelo_inurba_marseille","lat":43.29416,"lon":5.38628,"is_reserved":false,"is_disabled":false,"rental_uris":{"android":"levelo://app?vid=3c0a4a5d-2970-40d6-b87f-4b5f7e658024","ios":"levelo://app?vid=3c0a4a5d-2970-40d6-b87f-4b5f7e658024"},"vehicle_type_id":"4","last_reported":1730927301,"current_range_meters":38400,"station_id":"ce4bh2h2rcd13ifvqdh0","pricing_plan_id":"cebpf4jnsgd1na2vs0mg"},{"bike_id":"85de2998-380a-4d61-b23b-be8766460c85","system_id":"levelo_inurba_marseille","lat":43.27922,"lon":5.39579,"is_reserved":false,"is_disabled":false,"rental_uris":{"android":"levelo://app?vid=85de2998-380a-4d61-b23b-be8766460c85","ios":"levelo://app?vid=85de2998-380a-4d61-b23b-be8766460c85"},"vehicle_type_id":"4","last_reported":1730927301,"current_range_meters":6400,"station_id":"ce4bhf92rcd13ifvqf40","pricing_plan_id":"cebpf4jnsgd1na2vs0mg"},{"bike_id":"0072c09f-84dc-4387-89a5-d8c408b867ad","system_id":"levelo_inurba_marseille","lat":43.30128,"lon":5.39861,"is_reserved":false,"is_disabled":false,"rental_uris":{"android":"levelo://app?vid=0072c09f-84dc-4387-89a5-d8c408b867ad","ios":"levelo://app?vid=0072c09f-84dc-4387-89a5-d8c408b867ad"},"vehicle_type_id":"4","last_reported":1730927301,"current_range_meters":38800,"station_id":"ce4bh0h2rcd13ifvqd40","pricing_plan_id":"cebpf4jnsgd1na2vs0mg"},{"bike_id":"ecc2597c-73b2-4662-b036-f015722a8a69","system_id":"levelo_inurba_marseille","lat":43.22941,"lon":5.35377,"is_reserved":false,"is_disabled":false,"rental_uris":{"android":"levelo://app?vid=ecc2597c-73b2-4662-b036-f015722a8a69","ios":"levelo://app?vid=ecc2597c-73b2-4662-b036-f015722a8a69"},"vehicle_type_id":"4","last_reported":1730927301,"current_range_meters":38400,"station_id":"cpo3532slgdg3j2ikp40","pricing_plan_id":"cebpf4jnsgd1na2vs0mg"},{"bike_id":"ba358931-b444-4977-afd4-cf9fc66e9573","system_id":"levelo_inurba_marseille","lat":43.28722,"lon":5.37941,"is_reserved":false,"is_disabled":false,"rental_uris":{"android":"levelo://app?vid=ba358931-b444-4977-afd4-cf9fc66e9573","ios":"levelo://app?vid=ba358931-b444-4977-afd4-cf9fc66e9573"},"vehicle_type_id":"4","last_reported":1730927301,"current_range_meters":38800,"station_id":"ce4bh9p2rcd13ifvqec0","pricing_plan_id":"cebpf4jnsgd1na2vs0mg"},{"bike_id":"52af7a3b-ddda-465a-a3b9-5cc6f08e1552","system_id":"levelo_inurba_marseille","lat":43.24167,"lon":5.36397,"is_reserved":false,"is_disabled":false,"rental_uris":{"android":"levelo://app?vid=52af7a3b-ddda-465a-a3b9-5cc6f08e1552","ios":"levelo://app?vid=52af7a3b-ddda-465a-a3b9-5cc6f08e1552"},"vehicle_type_id":"4","last_reported":1730927301,"current_range_meters":19200,"station_id":"cpo36qri1sfpv3e86is0","pricing_plan_id":"cebpf4jnsgd1na2vs0mg"},{"bike_id":"c8908898-597c-4769-9a3c-a8548f4da9f2","system_id":"levelo_inurba_marseille","lat":43.31277,"lon":5.40165,"is_reserved":false,"is_disabled":false,"rental_uris":{"android":"levelo://app?vid=c8908898-597c-4769-9a3c-a8548f4da9f2","ios":"levelo://app?vid=c8908898-597c-4769-9a3c-a8548f4da9f2"},"vehicle_type_id":"4","last_reported":1730927301,"current_range_meters":18800,"station_id":"ce4bh092rcd13ifvqd30","pricing_plan_id":"cebpf4jnsgd1na2vs0mg"},{"bike_id":"a9ab6975-5db2-422d-b93e-792aa035710e","system_id":"levelo_inurba_marseille","lat":43.29548,"lon":5.42275,"is_reserved":false,"is_disabled":false,"rental_uris":{"android":"levelo://app?vid=a9ab6975-5db2-422d-b93e-792aa035710e","ios":"levelo://app?vid=a9ab6975-5db2-422d-b93e-792aa035710e"},"vehicle_type_id":"4","last_reported":1730927301,"current_range_meters":36400,"station_id":"ce4bhph2rcd13ifvqhdg","pricing_plan_id":"cebpf4jnsgd1na2vs0mg"},{"bike_id":"cb886b27-0a1a-4738-870e-8b61baafe4ab","system_id":"levelo_inurba_marseille","lat":43.31362,"lon":5.38481,"is_reserved":false,"is_disabled":false,"rental_uris":{"android":"levelo://app?vid=cb886b27-0a1a-4738-870e-8b61baafe4ab","ios":"levelo://app?vid=cb886b27-0a1a-4738-870e-8b61baafe4ab"},"vehicle_type_id":"4","last_reported":1730927301,"current_range_meters":20400,"station_id":"ce4bgt92rcd13ifvqcf0","pricing_plan_id":"cebpf4jnsgd1na2vs0mg"},{"bike_id":"923d8709-2f23-428d-889a-a4c82a103832","system_id":"levelo_inurba_marseille","lat":43.3041,"lon":5.41286,"is_reserved":false,"is_disabled":false,"rental_uris":{"android":"levelo://app?vid=923d8709-2f23-428d-889a-a4c82a103832","ios":"levelo://app?vid=923d8709-2f23-428d-889a-a4c82a103832"},"vehicle_type_id":"4","last_reported":1730927301,"current_range_meters":38000,"station_id":"ce4bhop2rcd13ifvqh8g","pricing_plan_id":"cebpf4jnsgd1na2vs0mg"},{"bike_id":"792af9eb-5e87-4e49-9e31-c852adb2f915","system_id":"levelo_inurba_marseille","lat":43.29513,"lon":5.37511,"is_reserved":false,"is_disabled":false,"rental_uris":{"android":"levelo://app?vid=792af9eb-5e87-4e49-9e31-c852adb2f915","ios":"levelo://app?vid=792af9eb-5e87-4e49-9e31-c852adb2f915"},"vehicle_type_id":"4","last_reported":1730927301,"current_range_meters":30400,"station_id":"ce4bgkp2rcd13ifvqbmg","pricing_plan_id":"cebpf4jnsgd1na2vs0mg"},{"bike_id":"dd591836-f417-403f-84a9-67ff85978f8f","system_id":"levelo_inurba_marseille","lat":43.23186,"lon":5.39981,"is_reserved":false,"is_disabled":false,"rental_uris":{"android":"levelo://app?vid=dd591836-f417-403f-84a9-67ff85978f8f","ios":"levelo://app?vid=dd591836-f417-403f-84a9-67ff85978f8f"},"vehicle_type_id":"4","last_reported":1730927301,"current_range_meters":5600,"station_id":"ce4bhn12rcd13ifvqgqg","pricing_plan_id":"cebpf4jnsgd1na2vs0mg"},{"bike_id":"839321aa-35f3-40a8-8eb5-73086c0c1134","system_id":"levelo_inurba_marseille","lat":43.29844,"lon":5.36269,"is_reserved":false,"is_disabled":false,"rental_uris":{"android":"levelo://app?vid=839321aa-35f3-40a8-8eb5-73086c0c1134","ios":"levelo://app?vid=839321aa-35f3-40a8-8eb5-73086c0c1134"},"vehicle_type_id":"4","last_reported":1730927301,"current_range_meters":12400,"station_id":"ce4bgpp2rcd13ifvqc3g","pricing_plan_id":"cebpf4jnsgd1na2vs0mg"},{"bike_id":"3dec25da-d0c6-4951-a8d2-159d7102cdbc","system_id":"levelo_inurba_marseille","lat":43.27812,"lon":5.4071,"is_reserved":false,"is_disabled":false,"rental_uris":{"android":"levelo://app?vid=3dec25da-d0c6-4951-a8d2-159d7102cdbc","ios":"levelo://app?vid=3dec25da-d0c6-4951-a8d2-159d7102cdbc"},"vehicle_type_id":"4","last_reported":1730927301,"current_range_meters":7200,"station_id":"ce4bhnh2rcd13ifvqgtg","pricing_plan_id":"cebpf4jnsgd1na2vs0mg"},{"bike_id":"90ffd07d-b3d0-4148-aab7-31b6d0e600fd","system_id":"levelo_inurba_marseille","lat":43.28272,"lon":5.35076,"is_reserved":false,"is_disabled":false,"rental_uris":{"android":"levelo://app?vid=90ffd07d-b3d0-4148-aab7-31b6d0e600fd","ios":"levelo://app?vid=90ffd07d-b3d0-4148-aab7-31b6d0e600fd"},"vehicle_type_id":"4","last_reported":1730927301,"current_range_meters":10000,"station_id":"ce4bhbp2rcd13ifvqerg","pricing_plan_id":"cebpf4jnsgd1na2vs0mg"},{"bike_id":"e004a523-5703-45de-87b9-5b41ddb786ae","system_id":"levelo_inurba_marseille","lat":43.3021,"lon":5.39766,"is_reserved":false,"is_disabled":false,"rental_uris":{"android":"levelo://app?vid=e004a523-5703-45de-87b9-5b41ddb786ae","ios":"levelo://app?vid=e004a523-5703-45de-87b9-5b41ddb786ae"},"vehicle_type_id":"4","last_reported":1730927301,"current_range_meters":30000,"station_id":"ce4bh0p2rcd13ifvqd80","pricing_plan_id":"cebpf4jnsgd1na2vs0mg"},{"bike_id":"61680a4c-ec35-4c78-acb4-59a8d40b101c","system_id":"levelo_inurba_marseille","lat":43.27578,"lon":5.38408,"is_reserved":false,"is_disabled":false,"rental_uris":{"android":"levelo://app?vid=61680a4c-ec35-4c78-acb4-59a8d40b101c","ios":"levelo://app?vid=61680a4c-ec35-4c78-acb4-59a8d40b101c"},"vehicle_type_id":"4","last_reported":1730927301,"current_range_meters":38800,"station_id":"ce4bhh92rcd13ifvqfi0","pricing_plan_id":"cebpf4jnsgd1na2vs0mg"},{"bike_id":"85359c8d-cc51-4aa1-991a-1be21e554660","system_id":"levelo_inurba_marseille","lat":43.23185,"lon":5.39977,"is_reserved":false,"is_disabled":false,"rental_uris":{"android":"levelo://app?vid=85359c8d-cc51-4aa1-991a-1be21e554660","ios":"levelo://app?vid=85359c8d-cc51-4aa1-991a-1be21e554660"},"vehicle_type_id":"4","last_reported":1730927301,"current_range_meters":9200,"station_id":"ce4bhn12rcd13ifvqgqg","pricing_plan_id":"cebpf4jnsgd1na2vs0mg"},{"bike_id":"03e3d18b-a415-4f79-96ef-4cd3fb356397","system_id":"levelo_inurba_marseille","lat":43.28844,"lon":5.35843,"is_reserved":false,"is_disabled":false,"rental_uris":{"android":"levelo://app?vid=03e3d18b-a415-4f79-96ef-4cd3fb356397","ios":"levelo://app?vid=03e3d18b-a415-4f79-96ef-4cd3fb356397"},"vehicle_type_id":"4","last_reported":1730927301,"current_range_meters":9600,"station_id":"ce4bhb12rcd13ifvqem0","pricing_plan_id":"cebpf4jnsgd1na2vs0mg"},{"bike_id":"b5e4d49a-962c-4f8a-a04d-3f6cc2fc9466","system_id":"levelo_inurba_marseille","lat":43.28362,"lon":5.38629,"is_reserved":false,"is_disabled":false,"rental_uris":{"android":"levelo://app?vid=b5e4d49a-962c-4f8a-a04d-3f6cc2fc9466","ios":"levelo://app?vid=b5e4d49a-962c-4f8a-a04d-3f6cc2fc9466"},"vehicle_type_id":"4","last_reported":1730927301,"current_range_meters":30800,"station_id":"ce4bh492rcd13ifvqdvg","pricing_plan_id":"cebpf4jnsgd1na2vs0mg"},{"bike_id":"af546fe3-bcc5-4039-9c62-1b20f638cc9c","system_id":"levelo_inurba_marseille","lat":43.27568,"lon":5.3842,"is_reserved":false,"is_disabled":false,"rental_uris":{"android":"levelo://app?vid=af546fe3-bcc5-4039-9c62-1b20f638cc9c","ios":"levelo://app?vid=af546fe3-bcc5-4039-9c62-1b20f638cc9c"},"vehicle_type_id":"4","last_reported":1730927301,"current_range_meters":36400,"station_id":"ce4bhh92rcd13ifvqfi0","pricing_plan_id":"cebpf4jnsgd1na2vs0mg"},{"bike_id":"27b827b3-9e6a-40e5-85ac-202e46f3f38b","system_id":"levelo_inurba_marseille","lat":43.29518,"lon":5.39035,"is_reserved":false,"is_disabled":false,"rental_uris":{"android":"levelo://app?vid=27b827b3-9e6a-40e5-85ac-202e46f3f38b","ios":"levelo://app?vid=27b827b3-9e6a-40e5-85ac-202e46f3f38b"},"vehicle_type_id":"4","last_reported":1730927301,"current_range_meters":38800,"station_id":"ce4bh3p2rcd13ifvqdp0","pricing_plan_id":"cebpf4jnsgd1na2vs0mg"},{"bike_id":"b90b2c99-8d53-4ffd-bebc-8805e3eaa459","system_id":"levelo_inurba_marseille","lat":43.31262,"lon":5.40155,"is_reserved":false,"is_disabled":false,"rental_uris":{"android":"levelo://app?vid=b90b2c99-8d53-4ffd-bebc-8805e3eaa459","ios":"levelo://app?vid=b90b2c99-8d53-4ffd-bebc-8805e3eaa459"},"vehicle_type_id":"4","last_reported":1730927301,"current_range_meters":28400,"station_id":"ce4bh092rcd13ifvqd30","pricing_plan_id":"cebpf4jnsgd1na2vs0mg"},{"bike_id":"5335c7ad-0841-43aa-932e-a1f6a43a39ae","system_id":"levelo_inurba_marseille","lat":43.2869,"lon":5.37386,"is_reserved":false,"is_disabled":false,"rental_uris":{"android":"levelo://app?vid=5335c7ad-0841-43aa-932e-a1f6a43a39ae","ios":"levelo://app?vid=5335c7ad-0841-43aa-932e-a1f6a43a39ae"},"vehicle_type_id":"4","last_reported":1730927301,"current_range_meters":3200,"station_id":"ce4bh3p2rcd13ifvqdq0","pricing_plan_id":"cebpf4jnsgd1na2vs0mg"},{"bike_id":"92fd1881-4bdb-4cf4-9c01-f8480cb0a843","system_id":"levelo_inurba_marseille","lat":43.28476,"lon":5.384141,"is_reserved":false,"is_disabled":false,"rental_uris":{"android":"levelo://app?vid=92fd1881-4bdb-4cf4-9c01-f8480cb0a843","ios":"levelo://app?vid=92fd1881-4bdb-4cf4-9c01-f8480cb0a843"},"vehicle_type_id":"4","last_reported":1730927301,"current_range_meters":38800,"station_id":"ce4bh512rcd13ifvqe3g","pricing_plan_id":"cebpf4jnsgd1na2vs0mg"},{"bike_id":"d9bbf1c0-094c-464e-9ae6-21c662c890df","system_id":"levelo_inurba_marseille","lat":43.2986,"lon":5.39733,"is_reserved":false,"is_disabled":false,"rental_uris":{"android":"levelo://app?vid=d9bbf1c0-094c-464e-9ae6-21c662c890df","ios":"levelo://app?vid=d9bbf1c0-094c-464e-9ae6-21c662c890df"},"vehicle_type_id":"4","last_reported":1730927301,"current_range_meters":36800,"station_id":"ce4bh0h2rcd13ifvqd50","pricing_plan_id":"cebpf4jnsgd1na2vs0mg"},{"bike_id":"7b03e489-e38f-490f-b482-ed7db3c26bb0","system_id":"levelo_inurba_marseille","lat":43.29876,"lon":5.39742,"is_reserved":false,"is_disabled":false,"rental_uris":{"android":"levelo://app?vid=7b03e489-e38f-490f-b482-ed7db3c26bb0","ios":"levelo://app?vid=7b03e489-e38f-490f-b482-ed7db3c26bb0"},"vehicle_type_id":"4","last_reported":1730927301,"current_range_meters":30000,"station_id":"ce4bh0h2rcd13ifvqd50","pricing_plan_id":"cebpf4jnsgd1na2vs0mg"},{"bike_id":"dbb9d7e1-47a6-4aca-8ba7-74197f1d3d58","system_id":"levelo_inurba_marseille","lat":43.29516,"lon":5.39034,"is_reserved":false,"is_disabled":false,"rental_uris":{"android":"levelo://app?vid=dbb9d7e1-47a6-4aca-8ba7-74197f1d3d58","ios":"levelo://app?vid=dbb9d7e1-47a6-4aca-8ba7-74197f1d3d58"},"vehicle_type_id":"4","last_reported":1730927301,"current_range_meters":24400,"station_id":"ce4bh3p2rcd13ifvqdp0","pricing_plan_id":"cebpf4jnsgd1na2vs0mg"},{"bike_id":"ed17c239-cb6f-4f10-b65f-0cc43f17f6f9","system_id":"levelo_inurba_marseille","lat":43.28854,"lon":5.39316,"is_reserved":false,"is_disabled":false,"rental_uris":{"android":"levelo://app?vid=ed17c239-cb6f-4f10-b65f-0cc43f17f6f9","ios":"levelo://app?vid=ed17c239-cb6f-4f10-b65f-0cc43f17f6f9"},"vehicle_type_id":"4","last_reported":1730927301,"current_range_meters":24000,"station_id":"ce4bh2p2rcd13ifvqdi0","pricing_plan_id":"cebpf4jnsgd1na2vs0mg"},{"bike_id":"f7580a0d-9afe-4cc1-8e42-f3683f9d2ed1","system_id":"levelo_inurba_marseille","lat":43.27905,"lon":5.38006,"is_reserved":false,"is_disabled":false,"rental_uris":{"android":"levelo://app?vid=f7580a0d-9afe-4cc1-8e42-f3683f9d2ed1","ios":"levelo://app?vid=f7580a0d-9afe-4cc1-8e42-f3683f9d2ed1"},"vehicle_type_id":"4","last_reported":1730927301,"current_range_meters":12400,"station_id":"ce4bhf92rcd13ifvqf50","pricing_plan_id":"cebpf4jnsgd1na2vs0mg"},{"bike_id":"c66cfd2b-6b27-48f4-8608-0c3afce51f13","system_id":"levelo_inurba_marseille","lat":43.30892,"lon":5.39635,"is_reserved":false,"is_disabled":false,"rental_uris":{"android":"levelo://app?vid=c66cfd2b-6b27-48f4-8608-0c3afce51f13","ios":"levelo://app?vid=c66cfd2b-6b27-48f4-8608-0c3afce51f13"},"vehicle_type_id":"4","last_reported":1730927301,"current_range_meters":25200,"station_id":"ce4bh012rcd13ifvqcv0","pricing_plan_id":"cebpf4jnsgd1na2vs0mg"},{"bike_id":"95a18c43-005b-4f4c-a0a0-e2f3ea31cfab","system_id":"levelo_inurba_marseille","lat":43.26063,"lon":5.39398,"is_reserved":false,"is_disabled":false,"rental_uris":{"android":"levelo://app?vid=95a18c43-005b-4f4c-a0a0-e2f3ea31cfab","ios":"levelo://app?vid=95a18c43-005b-4f4c-a0a0-e2f3ea31cfab"},"vehicle_type_id":"4","last_reported":1730927301,"current_range_meters":24800,"station_id":"ce4bhh92rcd13ifvqfj0","pricing_plan_id":"cebpf4jnsgd1na2vs0mg"},{"bike_id":"b5738913-2886-4b79-9515-3dd20595a79d","system_id":"levelo_inurba_marseille","lat":43.27373,"lon":5.36265,"is_reserved":false,"is_disabled":false,"rental_uris":{"android":"levelo://app?vid=b5738913-2886-4b79-9515-3dd20595a79d","ios":"levelo://app?vid=b5738913-2886-4b79-9515-3dd20595a79d"},"vehicle_type_id":"4","last_reported":1730927301,"current_range_meters":30400,"station_id":"ce4bhbh2rcd13ifvqeo0","pricing_plan_id":"cebpf4jnsgd1na2vs0mg"},{"bike_id":"31075eb6-e629-4165-a4da-2bbc472f243c","system_id":"levelo_inurba_marseille","lat":43.28349,"lon":5.38097,"is_reserved":false,"is_disabled":false,"rental_uris":{"android":"levelo://app?vid=31075eb6-e629-4165-a4da-2bbc472f243c","ios":"levelo://app?vid=31075eb6-e629-4165-a4da-2bbc472f243c"},"vehicle_type_id":"4","last_reported":1730927301,"current_range_meters":2000,"station_id":"ce4bh412rcd13ifvqdr0","pricing_plan_id":"cebpf4jnsgd1na2vs0mg"},{"bike_id":"0007c120-2b8f-49c1-b3a2-b69854c6b2ad","system_id":"levelo_inurba_marseille","lat":43.28006,"lon":5.39998,"is_reserved":false,"is_disabled":false,"rental_uris":{"android":"levelo://app?vid=0007c120-2b8f-49c1-b3a2-b69854c6b2ad","ios":"levelo://app?vid=0007c120-2b8f-49c1-b3a2-b69854c6b2ad"},"vehicle_type_id":"4","last_reported":1730927301,"current_range_meters":33200,"station_id":"ce4bho92rcd13ifvqh4g","pricing_plan_id":"cebpf4jnsgd1na2vs0mg"},{"bike_id":"0676d849-58b6-4143-8d93-e6ea116edbf5","system_id":"levelo_inurba_marseille","lat":43.2573,"lon":5.41105,"is_reserved":false,"is_disabled":false,"rental_uris":{"android":"levelo://app?vid=0676d849-58b6-4143-8d93-e6ea116edbf5","ios":"levelo://app?vid=0676d849-58b6-4143-8d93-e6ea116edbf5"},"vehicle_type_id":"4","last_reported":1730927301,"current_range_meters":25200,"station_id":"ce4bhkp2rcd13ifvqgd0","pricing_plan_id":"cebpf4jnsgd1na2vs0mg"},{"bike_id":"76a6e6d2-4686-4b04-b754-fb622b90a2bd","system_id":"levelo_inurba_marseille","lat":43.30137,"lon":5.3989,"is_reserved":false,"is_disabled":false,"rental_uris":{"android":"levelo://app?vid=76a6e6d2-4686-4b04-b754-fb622b90a2bd","ios":"levelo://app?vid=76a6e6d2-4686-4b04-b754-fb622b90a2bd"},"vehicle_type_id":"4","last_reported":1730927301,"current_range_meters":38800,"station_id":"ce4bh0h2rcd13ifvqd40","pricing_plan_id":"cebpf4jnsgd1na2vs0mg"},{"bike_id":"00fe3816-0493-45e7-9996-c04de4179916","system_id":"levelo_inurba_marseille","lat":43.28609,"lon":5.37064,"is_reserved":false,"is_disabled":false,"rental_uris":{"android":"levelo://app?vid=00fe3816-0493-45e7-9996-c04de4179916","ios":"levelo://app?vid=00fe3816-0493-45e7-9996-c04de4179916"},"vehicle_type_id":"4","last_reported":1730927301,"current_range_meters":6400,"station_id":"ce4bht12rcd13ifvqi60","pricing_plan_id":"cebpf4jnsgd1na2vs0mg"},{"bike_id":"08ea0481-773d-4f98-aecd-294cbb3bff31","system_id":"levelo_inurba_marseille","lat":43.31723,"lon":5.42399,"is_reserved":false,"is_disabled":false,"rental_uris":{"android":"levelo://app?vid=08ea0481-773d-4f98-aecd-294cbb3bff31","ios":"levelo://app?vid=08ea0481-773d-4f98-aecd-294cbb3bff31"},"vehicle_type_id":"4","last_reported":1730927301,"current_range_meters":10800,"station_id":"ce4bhp92rcd13ifvqhbg","pricing_plan_id":"cebpf4jnsgd1na2vs0mg"},{"bike_id":"8436ecb3-47e0-4cca-9ae8-d7421c2f92f4","system_id":"levelo_inurba_marseille","lat":43.23178,"lon":5.39981,"is_reserved":false,"is_disabled":false,"rental_uris":{"android":"levelo://app?vid=8436ecb3-47e0-4cca-9ae8-d7421c2f92f4","ios":"levelo://app?vid=8436ecb3-47e0-4cca-9ae8-d7421c2f92f4"},"vehicle_type_id":"4","last_reported":1730927301,"current_range_meters":8800,"station_id":"ce4bhn12rcd13ifvqgqg","pricing_plan_id":"cebpf4jnsgd1na2vs0mg"},{"bike_id":"20c6ca9a-76ba-4e3f-9eeb-2a6da9712f70","system_id":"levelo_inurba_marseille","lat":43.31271,"lon":5.40165,"is_reserved":false,"is_disabled":false,"rental_uris":{"android":"levelo://app?vid=20c6ca9a-76ba-4e3f-9eeb-2a6da9712f70","ios":"levelo://app?vid=20c6ca9a-76ba-4e3f-9eeb-2a6da9712f70"},"vehicle_type_id":"4","last_reported":1730927301,"current_range_meters":14400,"station_id":"ce4bh092rcd13ifvqd30","pricing_plan_id":"cebpf4jnsgd1na2vs0mg"},{"bike_id":"0235ad22-6d87-4f43-b0e9-92ff12bebbf1","system_id":"levelo_inurba_marseille","lat":43.2465,"lon":5.38895,"is_reserved":false,"is_disabled":false,"rental_uris":{"android":"levelo://app?vid=0235ad22-6d87-4f43-b0e9-92ff12bebbf1","ios":"levelo://app?vid=0235ad22-6d87-4f43-b0e9-92ff12bebbf1"},"vehicle_type_id":"4","last_reported":1730927301,"current_range_meters":38800,"station_id":"ce4bhg12rcd13ifvqf60","pricing_plan_id":"cebpf4jnsgd1na2vs0mg"},{"bike_id":"436ef769-34a6-47fe-a884-d5fab131c5b4","system_id":"levelo_inurba_marseille","lat":43.25866,"lon":5.39902,"is_reserved":false,"is_disabled":false,"rental_uris":{"android":"levelo://app?vid=436ef769-34a6-47fe-a884-d5fab131c5b4","ios":"levelo://app?vid=436ef769-34a6-47fe-a884-d5fab131c5b4"},"vehicle_type_id":"4","last_reported":1730927301,"current_range_meters":38800,"station_id":"ce4bhl92rcd13ifvqghg","pricing_plan_id":"cebpf4jnsgd1na2vs0mg"},{"bike_id":"ae71a3a8-d9d9-4d77-8cbf-c0abe19dcab1","system_id":"levelo_inurba_marseille","lat":43.31169,"lon":5.38711,"is_reserved":false,"is_disabled":false,"rental_uris":{"android":"levelo://app?vid=ae71a3a8-d9d9-4d77-8cbf-c0abe19dcab1","ios":"levelo://app?vid=ae71a3a8-d9d9-4d77-8cbf-c0abe19dcab1"},"vehicle_type_id":"4","last_reported":1730927301,"current_range_meters":8000,"station_id":"ce4bgv12rcd13ifvqcp0","pricing_plan_id":"cebpf4jnsgd1na2vs0mg"},{"bike_id":"eddbfe76-8b03-461a-80ed-f58e73c78f72","system_id":"levelo_inurba_marseille","lat":43.30331,"lon":5.40442,"is_reserved":false,"is_disabled":false,"rental_uris":{"android":"levelo://app?vid=eddbfe76-8b03-461a-80ed-f58e73c78f72","ios":"levelo://app?vid=eddbfe76-8b03-461a-80ed-f58e73c78f72"},"vehicle_type_id":"4","last_reported":1730927301,"current_range_meters":38400,"station_id":"ce4bh012rcd13ifvqd10","pricing_plan_id":"cebpf4jnsgd1na2vs0mg"},{"bike_id":"06c4cdb0-513f-4ab0-844b-fcceb7475d5c","system_id":"levelo_inurba_marseille","lat":43.29518,"lon":5.39026,"is_reserved":false,"is_disabled":false,"rental_uris":{"android":"levelo://app?vid=06c4cdb0-513f-4ab0-844b-fcceb7475d5c","ios":"levelo://app?vid=06c4cdb0-513f-4ab0-844b-fcceb7475d5c"},"vehicle_type_id":"4","last_reported":1730927301,"current_range_meters":36800,"station_id":"ce4bh3p2rcd13ifvqdp0","pricing_plan_id":"cebpf4jnsgd1na2vs0mg"},{"bike_id":"f2505e30-345e-484e-b2e1-ae1a32d61553","system_id":"levelo_inurba_marseille","lat":43.24809,"lon":5.37456,"is_reserved":false,"is_disabled":false,"rental_uris":{"android":"levelo://app?vid=f2505e30-345e-484e-b2e1-ae1a32d61553","ios":"levelo://app?vid=f2505e30-345e-484e-b2e1-ae1a32d61553"},"vehicle_type_id":"4","last_reported":1730927301,"current_range_meters":38800,"station_id":"ce4bhgh2rcd13ifvqfb0","pricing_plan_id":"cebpf4jnsgd1na2vs0mg"},{"bike_id":"265096aa-09f0-4048-a8c9-572fabdb72f6","system_id":"levelo_inurba_marseille","lat":43.30786,"lon":5.37643,"is_reserved":false,"is_disabled":false,"rental_uris":{"android":"levelo://app?vid=265096aa-09f0-4048-a8c9-572fabdb72f6","ios":"levelo://app?vid=265096aa-09f0-4048-a8c9-572fabdb72f6"},"vehicle_type_id":"4","last_reported":1730927301,"current_range_meters":37600,"station_id":"ce4bgv92rcd13ifvqcq0","pricing_plan_id":"cebpf4jnsgd1na2vs0mg"},{"bike_id":"a731dd33-10c2-4158-b07e-2a8192e06221","system_id":"levelo_inurba_marseille","lat":43.27172,"lon":5.40992,"is_reserved":false,"is_disabled":false,"rental_uris":{"android":"levelo://app?vid=a731dd33-10c2-4158-b07e-2a8192e06221","ios":"levelo://app?vid=a731dd33-10c2-4158-b07e-2a8192e06221"},"vehicle_type_id":"4","last_reported":1730927301,"current_range_meters":33200,"station_id":"ce4bhl12rcd13ifvqgf0","pricing_plan_id":"cebpf4jnsgd1na2vs0mg"},{"bike_id":"15d38c0d-be2d-4527-b72d-92620b1c22f7","system_id":"levelo_inurba_marseille","lat":43.30288,"lon":5.37712,"is_reserved":false,"is_disabled":false,"rental_uris":{"android":"levelo://app?vid=15d38c0d-be2d-4527-b72d-92620b1c22f7","ios":"levelo://app?vid=15d38c0d-be2d-4527-b72d-92620b1c22f7"},"vehicle_type_id":"4","last_reported":1730927301,"current_range_meters":20000,"station_id":"ce4bguh2rcd13ifvqcj0","pricing_plan_id":"cebpf4jnsgd1na2vs0mg"},{"bike_id":"d4c18f27-9621-4995-970c-0ef0e8e838f7","system_id":"levelo_inurba_marseille","lat":43.30879,"lon":5.39639,"is_reserved":false,"is_disabled":false,"rental_uris":{"android":"levelo://app?vid=d4c18f27-9621-4995-970c-0ef0e8e838f7","ios":"levelo://app?vid=d4c18f27-9621-4995-970c-0ef0e8e838f7"},"vehicle_type_id":"4","last_reported":1730927301,"current_range_meters":32800,"station_id":"ce4bh012rcd13ifvqcv0","pricing_plan_id":"cebpf4jnsgd1na2vs0mg"},{"bike_id":"1d3b5267-b0f2-4113-9405-d63e466792fa","system_id":"levelo_inurba_marseille","lat":43.28675,"lon":5.36355,"is_reserved":false,"is_disabled":false,"rental_uris":{"android":"levelo://app?vid=1d3b5267-b0f2-4113-9405-d63e466792fa","ios":"levelo://app?vid=1d3b5267-b0f2-4113-9405-d63e466792fa"},"vehicle_type_id":"4","last_reported":1730927301,"current_range_meters":26800,"station_id":"ce4bhah2rcd13ifvqej0","pricing_plan_id":"cebpf4jnsgd1na2vs0mg"},{"bike_id":"451d8515-d2b2-491f-8670-08ac54bde047","system_id":"levelo_inurba_marseille","lat":43.29271,"lon":5.40109,"is_reserved":false,"is_disabled":false,"rental_uris":{"android":"levelo://app?vid=451d8515-d2b2-491f-8670-08ac54bde047","ios":"levelo://app?vid=451d8515-d2b2-491f-8670-08ac54bde047"},"vehicle_type_id":"4","last_reported":1730927301,"current_range_meters":10800,"station_id":"ce4bh312rcd13ifvqdk0","pricing_plan_id":"cebpf4jnsgd1na2vs0mg"},{"bike_id":"80ad4f15-6f11-4a73-9f09-0d153fd86984","system_id":"levelo_inurba_marseille","lat":43.29417,"lon":5.38619,"is_reserved":false,"is_disabled":false,"rental_uris":{"android":"levelo://app?vid=80ad4f15-6f11-4a73-9f09-0d153fd86984","ios":"levelo://app?vid=80ad4f15-6f11-4a73-9f09-0d153fd86984"},"vehicle_type_id":"4","last_reported":1730927301,"current_range_meters":38000,"station_id":"ce4bh2h2rcd13ifvqdh0","pricing_plan_id":"cebpf4jnsgd1na2vs0mg"},{"bike_id":"9a99320d-2bac-4820-94e2-5233b29d5407","system_id":"levelo_inurba_marseille","lat":43.28366,"lon":5.38632,"is_reserved":false,"is_disabled":false,"rental_uris":{"android":"levelo://app?vid=9a99320d-2bac-4820-94e2-5233b29d5407","ios":"levelo://app?vid=9a99320d-2bac-4820-94e2-5233b29d5407"},"vehicle_type_id":"4","last_reported":1730927301,"current_range_meters":32000,"station_id":"ce4bh492rcd13ifvqdvg","pricing_plan_id":"cebpf4jnsgd1na2vs0mg"},{"bike_id":"a0dba6cc-6a3f-493d-870f-1cb8636de567","system_id":"levelo_inurba_marseille","lat":43.30939,"lon":5.40147,"is_reserved":false,"is_disabled":false,"rental_uris":{"android":"levelo://app?vid=a0dba6cc-6a3f-493d-870f-1cb8636de567","ios":"levelo://app?vid=a0dba6cc-6a3f-493d-870f-1cb8636de567"},"vehicle_type_id":"4","last_reported":1730927301,"current_range_meters":39200,"station_id":"ce4bgvp2rcd13ifvqct0","pricing_plan_id":"cebpf4jnsgd1na2vs0mg"},{"bike_id":"9b67616f-ea65-41a1-8a60-6bc4c4a6d72e","system_id":"levelo_inurba_marseille","lat":43.297844,"lon":5.371219,"is_reserved":false,"is_disabled":false,"rental_uris":{"android":"levelo://app?vid=9b67616f-ea65-41a1-8a60-6bc4c4a6d72e","ios":"levelo://app?vid=9b67616f-ea65-41a1-8a60-6bc4c4a6d72e"},"vehicle_type_id":"4","last_reported":1730927301,"current_range_meters":31200,"station_id":"ce4bgop2rcd13ifvqc1g","pricing_plan_id":"cebpf4jnsgd1na2vs0mg"},{"bike_id":"e8e8e8e9-08c1-402e-b5a4-f215d1376162","system_id":"levelo_inurba_marseille","lat":43.24179,"lon":5.39737,"is_reserved":false,"is_disabled":false,"rental_uris":{"android":"levelo://app?vid=e8e8e8e9-08c1-402e-b5a4-f215d1376162","ios":"levelo://app?vid=e8e8e8e9-08c1-402e-b5a4-f215d1376162"},"vehicle_type_id":"4","last_reported":1730927301,"current_range_meters":36800,"station_id":"ce4bhn12rcd13ifvqgpg","pricing_plan_id":"cebpf4jnsgd1na2vs0mg"},{"bike_id":"9a242017-b2b8-4871-b084-3d4890f99b1c","system_id":"levelo_inurba_marseille","lat":43.31274,"lon":5.40155,"is_reserved":false,"is_disabled":false,"rental_uris":{"android":"levelo://app?vid=9a242017-b2b8-4871-b084-3d4890f99b1c","ios":"levelo://app?vid=9a242017-b2b8-4871-b084-3d4890f99b1c"},"vehicle_type_id":"4","last_reported":1730927301,"current_range_meters":24400,"station_id":"ce4bh092rcd13ifvqd30","pricing_plan_id":"cebpf4jnsgd1na2vs0mg"},{"bike_id":"b89de553-ece7-4f05-be05-40bcfbb19999","system_id":"levelo_inurba_marseille","lat":43.29261,"lon":5.38432,"is_reserved":false,"is_disabled":false,"rental_uris":{"android":"levelo://app?vid=b89de553-ece7-4f05-be05-40bcfbb19999","ios":"levelo://app?vid=b89de553-ece7-4f05-be05-40bcfbb19999"},"vehicle_type_id":"4","last_reported":1730927301,"current_range_meters":24400,"station_id":"ce4bh692rcd13ifvqea0","pricing_plan_id":"cebpf4jnsgd1na2vs0mg"},{"bike_id":"e2ebc34f-8877-44b7-b7e6-cf338a86e03b","system_id":"levelo_inurba_marseille","lat":43.29883,"lon":5.38906,"is_reserved":false,"is_disabled":false,"rental_uris":{"android":"levelo://app?vid=e2ebc34f-8877-44b7-b7e6-cf338a86e03b","ios":"levelo://app?vid=e2ebc34f-8877-44b7-b7e6-cf338a86e03b"},"vehicle_type_id":"4","last_reported":1730927301,"current_range_meters":38800,"station_id":"ce4bh392rcd13ifvqdl0","pricing_plan_id":"cebpf4jnsgd1na2vs0mg"},{"bike_id":"b663770e-64eb-4d5f-85ad-006e1429bde2","system_id":"levelo_inurba_marseille","lat":43.29023,"lon":5.37548,"is_reserved":false,"is_disabled":false,"rental_uris":{"android":"levelo://app?vid=b663770e-64eb-4d5f-85ad-006e1429bde2","ios":"levelo://app?vid=b663770e-64eb-4d5f-85ad-006e1429bde2"},"vehicle_type_id":"4","last_reported":1730927301,"current_range_meters":36800,"station_id":"ce4bh692rcd13ifvqe90","pricing_plan_id":"cebpf4jnsgd1na2vs0mg"},{"bike_id":"3d59477b-e46c-4282-9c17-cc3b50a4f9ed","system_id":"levelo_inurba_marseille","lat":43.25829,"lon":5.39421,"is_reserved":false,"is_disabled":false,"rental_uris":{"android":"levelo://app?vid=3d59477b-e46c-4282-9c17-cc3b50a4f9ed","ios":"levelo://app?vid=3d59477b-e46c-4282-9c17-cc3b50a4f9ed"},"vehicle_type_id":"4","last_reported":1730927301,"current_range_meters":6400,"station_id":"ce4bhip2rcd13ifvqft0","pricing_plan_id":"cebpf4jnsgd1na2vs0mg"},{"bike_id":"d3e54780-ddfb-432e-bfd3-55d19e8c43c8","system_id":"levelo_inurba_marseille","lat":43.3176,"lon":5.39021,"is_reserved":false,"is_disabled":false,"rental_uris":{"android":"levelo://app?vid=d3e54780-ddfb-432e-bfd3-55d19e8c43c8","ios":"levelo://app?vid=d3e54780-ddfb-432e-bfd3-55d19e8c43c8"},"vehicle_type_id":"4","last_reported":1730927301,"current_range_meters":36000,"station_id":"ce4bhqp2rcd13ifvqhng","pricing_plan_id":"cebpf4jnsgd1na2vs0mg"},{"bike_id":"575ba5d2-89b1-4fa2-90a8-bfc83bb813e2","system_id":"levelo_inurba_marseille","lat":43.29861,"lon":5.397323,"is_reserved":false,"is_disabled":false,"rental_uris":{"android":"levelo://app?vid=575ba5d2-89b1-4fa2-90a8-bfc83bb813e2","ios":"levelo://app?vid=575ba5d2-89b1-4fa2-90a8-bfc83bb813e2"},"vehicle_type_id":"4","last_reported":1730927301,"current_range_meters":39200,"station_id":"ce4bh0h2rcd13ifvqd50","pricing_plan_id":"cebpf4jnsgd1na2vs0mg"},{"bike_id":"79615549-e59b-487e-beeb-f6929057808b","system_id":"levelo_inurba_marseille","lat":43.27992,"lon":5.41657,"is_reserved":false,"is_disabled":false,"rental_uris":{"android":"levelo://app?vid=79615549-e59b-487e-beeb-f6929057808b","ios":"levelo://app?vid=79615549-e59b-487e-beeb-f6929057808b"},"vehicle_type_id":"4","last_reported":1730927301,"current_range_meters":26000,"station_id":"ce4bho12rcd13ifvqh1g","pricing_plan_id":"cebpf4jnsgd1na2vs0mg"},{"bike_id":"a482a3a2-2edd-4960-90b1-3f8fafdad5f6","system_id":"levelo_inurba_marseille","lat":43.31261,"lon":5.40164,"is_reserved":false,"is_disabled":false,"rental_uris":{"android":"levelo://app?vid=a482a3a2-2edd-4960-90b1-3f8fafdad5f6","ios":"levelo://app?vid=a482a3a2-2edd-4960-90b1-3f8fafdad5f6"},"vehicle_type_id":"4","last_reported":1730927301,"current_range_meters":29600,"station_id":"ce4bh092rcd13ifvqd30","pricing_plan_id":"cebpf4jnsgd1na2vs0mg"},{"bike_id":"7ac4a8b0-e680-45a9-9d17-f15c6acd6b62","system_id":"levelo_inurba_marseille","lat":43.30436,"lon":5.39746,"is_reserved":false,"is_disabled":false,"rental_uris":{"android":"levelo://app?vid=7ac4a8b0-e680-45a9-9d17-f15c6acd6b62","ios":"levelo://app?vid=7ac4a8b0-e680-45a9-9d17-f15c6acd6b62"},"vehicle_type_id":"4","last_reported":1730927301,"current_range_meters":38400,"station_id":"ce4bh092rcd13ifvqd20","pricing_plan_id":"cebpf4jnsgd1na2vs0mg"},{"bike_id":"48d76786-cbf4-4735-bdb9-c8ff09192897","system_id":"levelo_inurba_marseille","lat":43.26488,"lon":5.39542,"is_reserved":false,"is_disabled":false,"rental_uris":{"android":"levelo://app?vid=48d76786-cbf4-4735-bdb9-c8ff09192897","ios":"levelo://app?vid=48d76786-cbf4-4735-bdb9-c8ff09192897"},"vehicle_type_id":"4","last_reported":1730927301,"current_range_meters":13600,"station_id":"ce4bhi12rcd13ifvqfq0","pricing_plan_id":"cebpf4jnsgd1na2vs0mg"},