{"last_updated":1746508223,"ttl":60,"version":"2.2","data":{"bikes":[{"bike_id":"545631c8-05b7-4070-95e3-52dc096addb5","system_id":"levelo_inurba_marseille","lat":43.271914,"lon":5.364812,"is_reserved":false,"is_disabled":true,"rental_uris":{"android":"levelo://app?vid=545631c8-05b7-4070-95e3-52dc096addb5","ios":"levelo://app?vid=545631c8-05b7-4070-95e3-52dc096addb5"},"vehicle_type_id":"4","last_reported":1746508223,"current_range_meters":0,"station_id":"","pricing_plan_id":"cebpf4jnsgd1na2vs0mg"},{"bike_id":"a0ce76ea-4a3e-456b-8981-6ea420463480","system_id":"levelo_inurba_marseille","lat":43.30099,"lon":5.3767,"is_reserved":false,"is_disabled":true,"rental_uris":{"android":"levelo://app?vid=a0ce76ea-4a3e-456b-8981-6ea420463480","ios":"levelo://app?vid=a0ce76ea-4a3e-456b-8981-6ea420463480"},"vehicle_type_id":"4","last_reported":1746508223,"current_range_meters":0,"station_id":"","pricing_plan_id":"cebpf4jnsgd1na2vs0mg"},{"bike_id":"64a99dee-e5f5-406c-bb57-3c1dd0084469","system_id":"levelo_inurba_marseille","lat":43.23667,"lon":5.39143,"is_reserved":false,"is_disabled":true,"rental_uris":{"android":"levelo://app?vid=64a99dee-e5f5-406c-bb57-3c1dd0084469","ios":"levelo://app?vid=64a99dee-e5f5-406c-bb57-3c1dd0084469"},"vehicle_type_id":"4","last_reported":1746508223,"current_range_meters":0,"station_id":"","pricing_plan_id":"cebpf4jnsgd1na2vs0mg"},{"bike_id":"4a2906fd-25b2-4be5-811e-9d84d28e283d","system_id":"levelo_inurba_marseille","lat":43.25394,"lon":5.42404,"is_reserved":false,"is_disabled":true,"rental_uris":{"android":"levelo://app?vid=4a2906fd-25b2-4be5-811e-9d84d28e283d","ios":"levelo://app?vid=4a2906fd-25b2-4be5-811e-9d84d28e283d"},"vehicle_type_id":"4","last_reported":1746508223,"current_range_meters":0,"station_id":"","pricing_plan_id":"cebpf4jnsgd1na2vs0mg"},{"bike_id":"6ca149b0-6431-42d5-be70-9d3a6686909f","system_id":"levelo_inurba_marseille","lat":43.30469,"lon":5.37923,"is_reserved":false,"is_disabled":true,"rental_uris":{"android":"levelo://app?vid=6ca149b0-6431-42d5-be70-9d3a6686909f","ios":"levelo://app?vid=6ca149b0-6431-42d5-be70-9d3a6686909f"},"vehicle_type_id":"4","last_reported":1746508223,"current_range_meters":1600,"station_id":"ce4bgup2rcd13ifvqcn0","pricing_plan_id":"cebpf4jnsgd1na2vs0mg"},{"bike_id":"1e3195f6-106c-4dd3-8852-0494cfce0d2f","system_id":"levelo_inurba_marseille","lat":43.28621,"lon":5.3706,"is_reserved":false,"is_disabled":true,"rental_uris":{"android":"levelo://app?vid=1e3195f6-106c-4dd3-8852-0494cfce0d2f","ios":"levelo://app?vid=1e3195f6-106c-4dd3-8852-0494cfce0d2f"},"vehicle_type_id":"4","last_reported":1746508223,"current_range_meters":2000,"station_id":"ce4bht12rcd13ifvqi60","pricing_plan_id":"cebpf4jnsgd1na2vs0mg"},{"bike_id":"4704ebc0-8313-4041-8469-5075d468997c","system_id":"levelo_inurba_marseille","lat":43.28469,"lon":5.3843,"is_reserved":false,"is_disabled":true,"rental_uris":{"android":"levelo://app?vid=4704ebc0-8313-4041-8469-5075d468997c","ios":"levelo://app?vid=4704ebc0-8313-4041-8469-5075d468997c"},"vehicle_type_id":"4","last_reported":1746508223,"current_range_meters":2800,"station_id":"ce4bh512rcd13ifvqe3g","pricing_plan_id":"cebpf4jnsgd1na2vs0mg"},{"bike_id":"196b7bdd-e77a-49cc-8691-74b1ff5a6cae","system_id":"levelo_inurba_marseille","lat":43.30143,"lon":5.37436,"is_reserved":false,"is_disabled":false,"rental_uris":{"android":"levelo://app?vid=196b7bdd-e77a-49cc-8691-74b1ff5a6cae","ios":"levelo://app?vid=196b7bdd-e77a-49cc-8691-74b1ff5a6cae"},"vehicle_type_id":"4","last_reported":1746508223,"current_range_meters":3200,"station_id":"ce4bgs92rcd13ifvqcc0","pricing_plan_id":"cebpf4jnsgd1na2vs0mg"},{"bike_id":"0c6712bb-c246-4d03-b305-0f5d0e9a0657","system_id":"levelo_inurba_marseille","lat":43.24651,"lon":5.38169,"is_reserved":false,"is_disabled":false,"rental_uris":{"android":"levelo://app?vid=0c6712bb-c246-4d03-b305-0f5d0e9a0657","ios":"levelo://app?vid=0c6712bb-c246-4d03-b305-0f5d0e9a0657"},"vehicle_type_id":"4","last_reported":1746508223,"current_range_meters":3200,"station_id":"ce4bhih2rcd13ifvqfr0","pricing_plan_id":"cebpf4jnsgd1na2vs0mg"},{"bike_id":"3f539d62-7d18-4530-bc54-75ff5a5c836b","system_id":"levelo_inurba_marseille","lat":43.25578,"lon":5.38228,"is_reserved":false,"is_disabled":false,"rental_uris":{"android":"levelo://app?vid=3f539d62-7d18-4530-bc54-75ff5a5c836b","ios":"levelo://app?vid=3f539d62-7d18-4530-bc54-75ff5a5c836b"},"vehicle_type_id":"4","last_reported":1746508223,"current_range_meters":3200,"station_id":"ce4bhih2rcd13ifvqfs0","pricing_plan_id":"cebpf4jnsgd1na2vs0mg"},{"bike_id":"19cc5d4a-3669-481b-add7-2079b93dcf06","system_id":"levelo_inurba_marseille","lat":43.2796,"lon":5.41039,"is_reserved":false,"is_disabled":false,"rental_uris":{"android":"levelo://app?vid=19cc5d4a-3669-481b-add7-2079b93dcf06","ios":"levelo://app?vid=19cc5d4a-3669-481b-add7-2079b93dcf06"},"vehicle_type_id":"4","last_reported":1746508223,"current_range_meters":3600,"station_id":"ce4bhnp2rcd13ifvqh0g","pricing_plan_id":"cebpf4jnsgd1na2vs0mg"},{"bike_id":"b315a341-1b0c-4a43-901f-7ff8a489a0b3","system_id":"levelo_inurba_marseille","lat":43.276698,"lon":5.389236,"is_reserved":false,"is_disabled":false,"rental_uris":{"android":"levelo://app?vid=b315a341-1b0c-4a43-901f-7ff8a489a0b3","ios":"levelo://app?vid=b315a341-1b0c-4a43-901f-7ff8a489a0b3"},"vehicle_type_id":"4","last_reported":1746508223,"current_range_meters":4000,"station_id":"ce4bhi12rcd13ifvqfo0","pricing_plan_id":"cebpf4jnsgd1na2vs0mg"},{"bike_id":"f17ceb46-7339-44ff-b2fe-42d604ad05a3","system_id":"levelo_inurba_marseille","lat":43.22938,"lon":5.354,"is_reserved":false,"is_disabled":false,"rental_uris":{"android":"levelo://app?vid=f17ceb46-7339-44ff-b2fe-42d604ad05a3","ios":"levelo://app?vid=f17ceb46-7339-44ff-b2fe-42d604ad05a3"},"vehicle_type_id":"4","last_reported":1746508223,"current_range_meters":4000,"station_id":"cpo3532slgdg3j2ikp40","pricing_plan_id":"cebpf4jnsgd1na2vs0mg"},{"bike_id":"66b646b3-6352-44bb-9bfb-21570512e3e5","system_id":"levelo_inurba_marseille","lat":43.281318,"lon":5.403903,"is_reserved":false,"is_disabled":false,"rental_uris":{"android":"levelo://app?vid=66b646b3-6352-44bb-9bfb-21570512e3e5","ios":"levelo://app?vid=66b646b3-6352-44bb-9bfb-21570512e3e5"},"vehicle_type_id":"4","last_reported":1746508223,"current_range_meters":4800,"station_id":"","pricing_plan_id":"cebpf4jnsgd1na2vs0mg"},{"bike_id":"5ed25235-2c54-4555-9b77-e5696daaf187","system_id":"levelo_inurba_marseille","lat":43.28405,"lon":5.37531,"is_reserved":false,"is_disabled":false,"rental_uris":{"android":"levelo://app?vid=5ed25235-2c54-4555-9b77-e5696daaf187","ios":"levelo://app?vid=5ed25235-2c54-4555-9b77-e5696daaf187"},"vehicle_type_id":"4","last_reported":1746508223,"current_range_meters":4800,"station_id":"ce4bh412rcd13ifvqds0","pricing_plan_id":"cebpf4jnsgd1na2vs0mg"},{"bike_id":"e8d3c57f-002a-4ddc-8c08-58b239aae800","system_id":"levelo_inurba_marseille","lat":43.262229,"lon":5.404636,"is_reserved":false,"is_disabled":false,"rental_uris":{"android":"levelo://app?vid=e8d3c57f-002a-4ddc-8c08-58b239aae800","ios":"levelo://app?vid=e8d3c57f-002a-4ddc-8c08-58b239aae800"},"vehicle_type_id":"4","last_reported":1746508223,"current_range_meters":4800,"station_id":"ce4bhmh2rcd13ifvqgmg","pricing_plan_id":"cebpf4jnsgd1na2vs0mg"},{"bike_id":"c7569f25-9bc2-4a7b-94d5-25bad92fcfaa","system_id":"levelo_inurba_marseille","lat":43.279278,"lon":5.382623,"is_reserved":false,"is_disabled":false,"rental_uris":{"android":"levelo://app?vid=c7569f25-9bc2-4a7b-94d5-25bad92fcfaa","ios":"levelo://app?vid=c7569f25-9bc2-4a7b-94d5-25bad92fcfaa"},"vehicle_type_id":"4","last_reported":1746508223,"current_range_meters":5600,"station_id":"","pricing_plan_id":"cebpf4jnsgd1na2vs0mg"},{"bike_id":"f4058794-639c-4973-ab5d-8009a25ee731","system_id":"levelo_inurba_marseille","lat":43.23964,"lon":5.36628,"is_reserved":false,"is_disabled":false,"rental_uris":{"android":"levelo://app?vid=f4058794-639c-4973-ab5d-8009a25ee731","ios":"levelo://app?vid=f4058794-639c-4973-ab5d-8009a25ee731"},"vehicle_type_id":"4","last_reported":1746508223,"current_range_meters":5600,"station_id":"ce4bhi12rcd13ifvqfp0","pricing_plan_id":"cebpf4jnsgd1na2vs0mg"},{"bike_id":"973f1ea7-d851-44ed-a0b6-1a59d02e6355","system_id":"levelo_inurba_marseille","lat":43.23973,"lon":5.36651,"is_reserved":false,"is_disabled":false,"rental_uris":{"android":"levelo://app?vid=973f1ea7-d851-44ed-a0b6-1a59d02e6355","ios":"levelo://app?vid=973f1ea7-d851-44ed-a0b6-1a59d02e6355"},"vehicle_type_id":"4","last_reported":1746508223,"current_range_meters":5600,"station_id":"ce4bhi12rcd13ifvqfp0","pricing_plan_id":"cebpf4jnsgd1na2vs0mg"},{"bike_id":"356abf12-57d2-4a47-ac3e-d8689708fbf2","system_id":"levelo_inurba_marseille","lat":43.32344,"lon":5.40623,"is_reserved":false,"is_disabled":false,"rental_uris":{"android":"levelo://app?vid=356abf12-57d2-4a47-ac3e-d8689708fbf2","ios":"levelo://app?vid=356abf12-57d2-4a47-ac3e-d8689708fbf2"},"vehicle_type_id":"4","last_reported":1746508223,"current_range_meters":6800,"station_id":"ce4bhq92rcd13ifvqhjg","pricing_plan_id":"cebpf4jnsgd1na2vs0mg"},{"bike_id":"5c7249a3-596f-4101-8dbd-1087a1f3b438","system_id":"levelo_inurba_marseille","lat":43.23192,"lon":5.35548,"is_reserved":false,"is_disabled":false,"rental_uris":{"android":"levelo://app?vid=5c7249a3-596f-4101-8dbd-1087a1f3b438","ios":"levelo://app?vid=5c7249a3-596f-4101-8dbd-1087a1f3b438"},"vehicle_type_id":"4","last_reported":1746508223,"current_range_meters":6800,"station_id":"ce4bhu92rcd13ifvqi70","pricing_plan_id":"cebpf4jnsgd1na2vs0mg"},{"bike_id":"482344f1-460c-48ea-83dd-01b9a385e5cf","system_id":"levelo_inurba_marseille","lat":43.306668,"lon":5.368523,"is_reserved":false,"is_disabled":false,"rental_uris":{"android":"levelo://app?vid=482344f1-460c-48ea-83dd-01b9a385e5cf","ios":"levelo://app?vid=482344f1-460c-48ea-83dd-01b9a385e5cf"},"vehicle_type_id":"4","last_reported":1746508223,"current_range_meters":7200,"station_id":"","pricing_plan_id":"cebpf4jnsgd1na2vs0mg"},{"bike_id":"3fe14760-50d4-43a8-b058-218490851f16","system_id":"levelo_inurba_marseille","lat":43.28847,"lon":5.35875,"is_reserved":false,"is_disabled":false,"rental_uris":{"android":"levelo://app?vid=3fe14760-50d4-43a8-b058-218490851f16","ios":"levelo://app?vid=3fe14760-50d4-43a8-b058-218490851f16"},"vehicle_type_id":"4","last_reported":1746508223,"current_range_meters":7200,"station_id":"ce4bhb12rcd13ifvqem0","pricing_plan_id":"cebpf4jnsgd1na2vs0mg"},{"bike_id":"d08e881c-4ac2-413a-af9c-5ff0285ab7f6","system_id":"levelo_inurba_marseille","lat":43.27933,"lon":5.41063,"is_reserved":false,"is_disabled":false,"rental_uris":{"android":"levelo://app?vid=d08e881c-4ac2-413a-af9c-5ff0285ab7f6","ios":"levelo://app?vid=d08e881c-4ac2-413a-af9c-5ff0285ab7f6"},"vehicle_type_id":"4","last_reported":1746508223,"current_range_meters":7200,"station_id":"ce4bhnp2rcd13ifvqh0g","pricing_plan_id":"cebpf4jnsgd1na2vs0mg"},{"bike_id":"b73c5f22-57c3-42fb-a428-749049909d64","system_id":"levelo_inurba_marseille","lat":43.27971,"lon":5.41043,"is_reserved":false,"is_disabled":false,"rental_uris":{"android":"levelo://app?vid=b73c5f22-57c3-42fb-a428-749049909d64","ios":"levelo://app?vid=b73c5f22-57c3-42fb-a428-749049909d64"},"vehicle_type_id":"4","last_reported":1746508223,"current_range_meters":8000,"station_id":"ce4bhnp2rcd13ifvqh0g","pricing_plan_id":"cebpf4jnsgd1na2vs0mg"},{"bike_id":"0df6ff4a-d789-4276-8939-264863baa64d","system_id":"levelo_inurba_marseille","lat":43.317583,"lon":5.390108,"is_reserved":false,"is_disabled":false,"rental_uris":{"android":"levelo://app?vid=0df6ff4a-d789-4276-8939-264863baa64d","ios":"levelo://app?vid=0df6ff4a-d789-4276-8939-264863baa64d"},"vehicle_type_id":"4","last_reported":1746508223,"current_range_meters":8000,"station_id":"ce4bhqp2rcd13ifvqhng","pricing_plan_id":"cebpf4jnsgd1na2vs0mg"},{"bike_id":"dccab0c5-be19-4968-9ea0-b5a301b5020b","system_id":"levelo_inurba_marseille","lat":43.26793,"lon":5.40271,"is_reserved":false,"is_disabled":false,"rental_uris":{"android":"levelo://app?vid=dccab0c5-be19-4968-9ea0-b5a301b5020b","ios":"levelo://app?vid=dccab0c5-be19-4968-9ea0-b5a301b5020b"},"vehicle_type_id":"4","last_reported":1746508223,"current_range_meters":8000,"station_id":"ce501612rcd8frsf0b60","pricing_plan_id":"cebpf4jnsgd1na2vs0mg"},{"bike_id":"1e84e465-2e14-47ac-91f0-53a839d6422a","system_id":"levelo_inurba_marseille","lat":43.313683,"lon":5.384906,"is_reserved":false,"is_disabled":false,"rental_uris":{"android":"levelo://app?vid=1e84e465-2e14-47ac-91f0-53a839d6422a","ios":"levelo://app?vid=1e84e465-2e14-47ac-91f0-53a839d6422a"},"vehicle_type_id":"4","last_reported":1746508223,"current_range_meters":8400,"station_id":"ce4bgt92rcd13ifvqcf0","pricing_plan_id":"cebpf4jnsgd1na2vs0mg"},{"bike_id":"a105130d-2c0b-47d7-ad9e-26b35e0360b8","system_id":"levelo_inurba_marseille","lat":43.23963,"lon":5.366327,"is_reserved":false,"is_disabled":false,"rental_uris":{"android":"levelo://app?vid=a105130d-2c0b-47d7-ad9e-26b35e0360b8","ios":"levelo://app?vid=a105130d-2c0b-47d7-ad9e-26b35e0360b8"},"vehicle_type_id":"4","last_reported":1746508223,"current_range_meters":8400,"station_id":"ce4bhi12rcd13ifvqfp0","pricing_plan_id":"cebpf4jnsgd1na2vs0mg"},{"bike_id":"8ca1b91c-7f71-47ef-961a-338b39737656","system_id":"levelo_inurba_marseille","lat":43.24686,"lon":5.3816,"is_reserved":false,"is_disabled":false,"rental_uris":{"android":"levelo://app?vid=8ca1b91c-7f71-47ef-961a-338b39737656","ios":"levelo://app?vid=8ca1b91c-7f71-47ef-961a-338b39737656"},"vehicle_type_id":"4","last_reported":1746508223,"current_range_meters":8400,"station_id":"ce4bhih2rcd13ifvqfr0","pricing_plan_id":"cebpf4jnsgd1na2vs0mg"},{"bike_id":"2306010e-85bf-4d9b-a6bc-107f35580834","system_id":"levelo_inurba_marseille","lat":43.25817,"lon":5.3942,"is_reserved":false,"is_disabled":false,"rental_uris":{"android":"levelo://app?vid=2306010e-85bf-4d9b-a6bc-107f35580834","ios":"levelo://app?vid=2306010e-85bf-4d9b-a6bc-107f35580834"},"vehicle_type_id":"4","last_reported":1746508223,"current_range_meters":8400,"station_id":"ce4bhip2rcd13ifvqft0","pricing_plan_id":"cebpf4jnsgd1na2vs0mg"},{"bike_id":"bda5329c-0ca8-4429-8276-953c6ccd9961","system_id":"levelo_inurba_marseille","lat":43.279781,"lon":5.416643,"is_reserved":false,"is_disabled":false,"rental_uris":{"android":"levelo://app?vid=bda5329c-0ca8-4429-8276-953c6ccd9961","ios":"levelo://app?vid=bda5329c-0ca8-4429-8276-953c6ccd9961"},"vehicle_type_id":"4","last_reported":1746508223,"current_range_meters":8400,"station_id":"ce4bho12rcd13ifvqh1g","pricing_plan_id":"cebpf4jnsgd1na2vs0mg"},{"bike_id":"33e48a61-b681-49b6-9f4c-c501fbecaaba","system_id":"levelo_inurba_marseille","lat":43.317119,"lon":5.436881,"is_reserved":false,"is_disabled":false,"rental_uris":{"android":"levelo://app?vid=33e48a61-b681-49b6-9f4c-c501fbecaaba","ios":"levelo://app?vid=33e48a61-b681-49b6-9f4c-c501fbecaaba"},"vehicle_type_id":"4","last_reported":1746508223,"current_range_meters":8400,"station_id":"ce4bhp92rcd13ifvqhcg","pricing_plan_id":"cebpf4jnsgd1na2vs0mg"},{"bike_id":"7a2589c6-a8c1-46f5-a962-7daecd246db4","system_id":"levelo_inurba_marseille","lat":43.3154,"lon":5.38058,"is_reserved":false,"is_disabled":false,"rental_uris":{"android":"levelo://app?vid=7a2589c6-a8c1-46f5-a962-7daecd246db4","ios":"levelo://app?vid=7a2589c6-a8c1-46f5-a962-7daecd246db4"},"vehicle_type_id":"4","last_reported":1746508223,"current_range_meters":8400,"station_id":"ce4bhsp2rcd13ifvqi50","pricing_plan_id":"cebpf4jnsgd1na2vs0mg"},{"bike_id":"18fac1a9-fda6-48d8-9aa6-1f61711dea16","system_id":"levelo_inurba_marseille","lat":43.31364,"lon":5.38505,"is_reserved":false,"is_disabled":false,"rental_uris":{"android":"levelo://app?vid=18fac1a9-fda6-48d8-9aa6-1f61711dea16","ios":"levelo://app?vid=18fac1a9-fda6-48d8-9aa6-1f61711dea16"},"vehicle_type_id":"4","last_reported":1746508223,"current_range_meters":8800,"station_id":"ce4bgt92rcd13ifvqcf0","pricing_plan_id":"cebpf4jnsgd1na2vs0mg"},{"bike_id":"0682277e-ea06-4504-9d78-5310e532663a","system_id":"levelo_inurba_marseille","lat":43.27949,"lon":5.41044,"is_reserved":false,"is_disabled":false,"rental_uris":{"android":"levelo://app?vid=0682277e-ea06-4504-9d78-5310e532663a","ios":"levelo://app?vid=0682277e-ea06-4504-9d78-5310e532663a"},"vehicle_type_id":"4","last_reported":1746508223,"current_range_meters":8800,"station_id":"ce4bhnp2rcd13ifvqh0g","pricing_plan_id":"cebpf4jnsgd1na2vs0mg"},{"bike_id":"d9ebccfe-dd7b-4132-a6f6-002262765ed4","system_id":"levelo_inurba_marseille","lat":43.27996,"lon":5.400099,"is_reserved":false,"is_disabled":false,"rental_uris":{"android":"levelo://app?vid=d9ebccfe-dd7b-4132-a6f6-002262765ed4","ios":"levelo://app?vid=d9ebccfe-dd7b-4132-a6f6-002262765ed4"},"vehicle_type_id":"4","last_reported":1746508223,"current_range_meters":8800,"station_id":"ce4bho92rcd13ifvqh4g","pricing_plan_id":"cebpf4jnsgd1na2vs0mg"},{"bike_id":"4eedb1f5-2554-4f17-a3f1-0be7478e939a","system_id":"levelo_inurba_marseille","lat":43.285007,"lon":5.385459,"is_reserved":false,"is_disabled":false,"rental_uris":{"android":"levelo://app?vid=4eedb1f5-2554-4f17-a3f1-0be7478e939a","ios":"levelo://app?vid=4eedb1f5-2554-4f17-a3f1-0be7478e939a"},"vehicle_type_id":"4","last_reported":1746508223,"current_range_meters":9200,"station_id":"ce4bh8p2rcd13ifvqeb0","pricing_plan_id":"cebpf4jnsgd1na2vs0mg"},{"bike_id":"9d4cc952-e455-4fba-8b3f-d5cacd90c8d5","system_id":"levelo_inurba_marseille","lat":43.25101,"lon":5.39528,"is_reserved":false,"is_disabled":false,"rental_uris":{"android":"levelo://app?vid=9d4cc952-e455-4fba-8b3f-d5cacd90c8d5","ios":"levelo://app?vid=9d4cc952-e455-4fba-8b3f-d5cacd90c8d5"},"vehicle_type_id":"4","last_reported":1746508223,"current_range_meters":9200,"station_id":"ce4bhm12rcd13ifvqgkg","pricing_plan_id":"cebpf4jnsgd1na2vs0mg"},{"bike_id":"08d06c84-d9e9-43f6-aa7a-603249ac6ecd","system_id":"levelo_inurba_marseille","lat":43.28,"lon":5.4001,"is_reserved":false,"is_disabled":false,"rental_uris":{"android":"levelo://app?vid=08d06c84-d9e9-43f6-aa7a-603249ac6ecd","ios":"levelo://app?vid=08d06c84-d9e9-43f6-aa7a-603249ac6ecd"},"vehicle_type_id":"4","last_reported":1746508223,"current_range_meters":9200,"station_id":"ce4bho92rcd13ifvqh4g","pricing_plan_id":"cebpf4jnsgd1na2vs0mg"},{"bike_id":"f9cec597-af13-4a8a-be1d-b7cf54819d4d","system_id":"levelo_inurba_marseille","lat":43.289617,"lon":5.407216,"is_reserved":false,"is_disabled":false,"rental_uris":{"android":"levelo://app?vid=f9cec597-af13-4a8a-be1d-b7cf54819d4d","ios":"levelo://app?vid=f9cec597-af13-4a8a-be1d-b7cf54819d4d"},"vehicle_type_id":"4","last_reported":1746508223,"current_range_meters":9600,"station_id":"","pricing_plan_id":"cebpf4jnsgd1na2vs0mg"},{"bike_id":"f6aaa213-9bb7-4b13-824c-e6011a655632","system_id":"levelo_inurba_marseille","lat":43.29211,"lon":5.44167,"is_reserved":false,"is_disabled":false,"rental_uris":{"android":"levelo://app?vid=f6aaa213-9bb7-4b13-824c-e6011a655632","ios":"levelo://app?vid=f6aaa213-9bb7-4b13-824c-e6011a655632"},"vehicle_type_id":"4","last_reported":1746508223,"current_range_meters":9600,"station_id":"","pricing_plan_id":"cebpf4jnsgd1na2vs0mg"},{"bike_id":"7430b6cc-b229-4c9f-aeae-8e2c8fcf43c9","system_id":"levelo_inurba_marseille","lat":43.24183,"lon":5.39725,"is_reserved":false,"is_disabled":false,"rental_uris":{"android":"levelo://app?vid=7430b6cc-b229-4c9f-aeae-8e2c8fcf43c9","ios":"levelo://app?vid=7430b6cc-b229-4c9f-aeae-8e2c8fcf43c9"},"vehicle_type_id":"4","last_reported":1746508223,"current_range_meters":9600,"station_id":"ce4bhn12rcd13ifvqgpg","pricing_plan_id":"cebpf4jnsgd1na2vs0mg"},{"bike_id":"4567db42-a456-48b6-bc7d-8dd13247fcc0","system_id":"levelo_inurba_marseille","lat":43.27942,"lon":5.41079,"is_reserved":false,"is_disabled":false,"rental_uris":{"android":"levelo://app?vid=4567db42-a456-48b6-bc7d-8dd13247fcc0","ios":"levelo://app?vid=4567db42-a456-48b6-bc7d-8dd13247fcc0"},"vehicle_type_id":"4","last_reported":1746508223,"current_range_meters":9600,"station_id":"ce4bhnp2rcd13ifvqh0g","pricing_plan_id":"cebpf4jnsgd1na2vs0mg"},{"bike_id":"5b8d1337-a035-4531-8ae9-843647d6f95e","system_id":"levelo_inurba_marseille","lat":43.2323,"lon":5.39942,"is_reserved":false,"is_disabled":false,"rental_uris":{"android":"levelo://app?vid=5b8d1337-a035-4531-8ae9-843647d6f95e","ios":"levelo://app?vid=5b8d1337-a035-4531-8ae9-843647d6f95e"},"vehicle_type_id":"4","last_reported":1746508223,"current_range_meters":10000,"station_id":"","pricing_plan_id":"cebpf4jnsgd1na2vs0mg"},{"bike_id":"9d8f73eb-df09-4699-86a7-d631e2319093","system_id":"levelo_inurba_marseille","lat":43.26264,"lon":5.37442,"is_reserved":false,"is_disabled":false,"rental_uris":{"android":"levelo://app?vid=9d8f73eb-df09-4699-86a7-d631e2319093","ios":"levelo://app?vid=9d8f73eb-df09-4699-86a7-d631e2319093"},"vehicle_type_id":"4","last_reported":1746508223,"current_range_meters":10000,"station_id":"","pricing_plan_id":"cebpf4jnsgd1na2vs0mg"},{"bike_id":"62bfa9fa-531f-4d2b-9e57-eb50b2d48c8c","system_id":"levelo_inurba_marseille","lat":43.24298,"lon":5.38014,"is_reserved":false,"is_disabled":false,"rental_uris":{"android":"levelo://app?vid=62bfa9fa-531f-4d2b-9e57-eb50b2d48c8c","ios":"levelo://app?vid=62bfa9fa-531f-4d2b-9e57-eb50b2d48c8c"},"vehicle_type_id":"4","last_reported":1746508223,"current_range_meters":10000,"station_id":"","pricing_plan_id":"cebpf4jnsgd1na2vs0mg"},{"bike_id":"a340f385-a1e7-485c-aa95-241503da679d","system_id":"levelo_inurba_marseille","lat":43.313513,"lon":5.385081,"is_reserved":false,"is_disabled":false,"rental_uris":{"android":"levelo://app?vid=a340f385-a1e7-485c-aa95-241503da679d","ios":"levelo://app?vid=a340f385-a1e7-485c-aa95-241503da679d"},"vehicle_type_id":"4","last_reported":1746508223,"current_range_meters":10000,"station_id":"ce4bgt92rcd13ifvqcf0","pricing_plan_id":"cebpf4jnsgd1na2vs0mg"},{"bike_id":"08ff2bcf-7233-4803-aa19-4c645279e28a","system_id":"levelo_inurba_marseille","lat":43.292496,"lon":5.409177,"is_reserved":false,"is_disabled":false,"rental_uris":{"android":"levelo://app?vid=08ff2bcf-7233-4803-aa19-4c645279e28a","ios":"levelo://app?vid=08ff2bcf-7233-4803-aa19-4c645279e28a"},"vehicle_type_id":"4","last_reported":1746508223,"current_range_meters":10000,"station_id":"ce4bh192rcd13ifvqdc0","pricing_plan_id":"cebpf4jnsgd1na2vs0mg"},{"bike_id":"b486f5fd-1209-4352-985e-d268bb97a482","system_id":"levelo_inurba_marseille","lat":43.284253,"lon":5.349852,"is_reserved":false,"is_disabled":false,"rental_uris":{"android":"levelo://app?vid=b486f5fd-1209-4352-985e-d268bb97a482","ios":"levelo://app?vid=b486f5fd-1209-4352-985e-d268bb97a482"},"vehicle_type_id":"4","last_reported":1746508223,"current_range_meters":10000,"station_id":"ce4bhbh2rcd13ifvqepg","pricing_plan_id":"cebpf4jnsgd1na2vs0mg"},{"bike_id":"0c377d9d-9a3a-47a7-9944-6039314b5e15","system_id":"levelo_inurba_marseille","lat":43.245848,"lon":5.404893,"is_reserved":false,"is_disabled":false,"rental_uris":{"android":"levelo://app?vid=0c377d9d-9a3a-47a7-9944-6039314b5e15","ios":"levelo://app?vid=0c377d9d-9a3a-47a7-9944-6039314b5e15"},"vehicle_type_id":"4","last_reported":1746508223,"current_range_meters":10800,"station_id":"","pricing_plan_id":"cebpf4jnsgd1na2vs0mg"},{"bike_id":"05a84f69-0592-442a-b098-6253d0b70e9e","system_id":"levelo_inurba_marseille","lat":43.30002,"lon":5.37218,"is_reserved":false,"is_disabled":false,"rental_uris":{"android":"levelo://app?vid=05a84f69-0592-442a-b098-6253d0b70e9e","ios":"levelo://app?vid=05a84f69-0592-442a-b098-6253d0b70e9e"},"vehicle_type_id":"4","last_reported":1746508223,"current_range_meters":10800,"station_id":"ce4bgr92rcd13ifvqc7g","pricing_plan_id":"cebpf4jnsgd1na2vs0mg"},{"bike_id":"dfe6a302-afbc-4ba6-9a72-20842653eae5","system_id":"levelo_inurba_marseille","lat":43.27208,"lon":5.39183,"is_reserved":false,"is_disabled":false,"rental_uris":{"android":"levelo://app?vid=dfe6a302-afbc-4ba6-9a72-20842653eae5","ios":"levelo://app?vid=dfe6a302-afbc-4ba6-9a72-20842653eae5"},"vehicle_type_id":"4","last_reported":1746508223,"current_range_meters":10800,"station_id":"ce4bhhp2rcd13ifvqfm0","pricing_plan_id":"cebpf4jnsgd1na2vs0mg"},{"bike_id":"fbda12d9-6999-44a5-a236-2a288c2ac07c","system_id":"levelo_inurba_marseille","lat":43.240684,"lon":5.377778,"is_reserved":false,"is_disabled":false,"rental_uris":{"android":"levelo://app?vid=fbda12d9-6999-44a5-a236-2a288c2ac07c","ios":"levelo://app?vid=fbda12d9-6999-44a5-a236-2a288c2ac07c"},"vehicle_type_id":"4","last_reported":1746508223,"current_range_meters":10800,"station_id":"ce4bhnp2rcd13ifvqgvg","pricing_plan_id":"cebpf4jnsgd1na2vs0mg"},{"bike_id":"b60c17f5-436e-489e-8f3c-790e6084ac64","system_id":"levelo_inurba_marseille","lat":43.211864,"lon":5.350804,"is_reserved":false,"is_disabled":false,"rental_uris":{"android":"levelo://app?vid=b60c17f5-436e-489e-8f3c-790e6084ac64","ios":"levelo://app?vid=b60c17f5-436e-489e-8f3c-790e6084ac64"},"vehicle_type_id":"4","last_reported":1746508223,"current_range_meters":10800,"station_id":"st_cvj6sg6p6f1abm77japg","pricing_plan_id":"cebpf4jnsgd1na2vs0mg"},{"bike_id":"db607aba-0db6-423b-a818-c23224727203","system_id":"levelo_inurba_marseille","lat":43.231559,"lon":5.436969,"is_reserved":false,"is_disabled":false,"rental_uris":{"android":"levelo://app?vid=db607aba-0db6-423b-a818-c23224727203","ios":"levelo://app?vid=db607aba-0db6-423b-a818-c23224727203"},"vehicle_type_id":"4","last_reported":1746508223,"current_range_meters":11200,"station_id":"ce4bhmp2rcd13ifvqgog","pricing_plan_id":"cebpf4jnsgd1na2vs0mg"},{"bike_id":"156b2893-1935-4e6b-a870-c55ec5e1824b","system_id":"levelo_inurba_marseille","lat":43.307926,"lon":5.435292,"is_reserved":false,"is_disabled":false,"rental_uris":{"android":"levelo://app?vid=156b2893-1935-4e6b-a870-c55ec5e1824b","ios":"levelo://app?vid=156b2893-1935-4e6b-a870-c55ec5e1824b"},"vehicle_type_id":"4","last_reported":1746508223,"current_range_meters":11200,"station_id":"ce4bhph2rcd13ifvqheg","pricing_plan_id":"cebpf4jnsgd1na2vs0mg"},{"bike_id":"311ec4e0-482e-4b83-a693-e6b86a1abb04","system_id":"levelo_inurba_marseille","lat":43.33189,"lon":5.41366,"is_reserved":false,"is_disabled":false,"rental_uris":{"android":"levelo://app?vid=311ec4e0-482e-4b83-a693-e6b86a1abb04","ios":"levelo://app?vid=311ec4e0-482e-4b83-a693-e6b86a1abb04"},"vehicle_type_id":"4","last_reported":1746508223,"current_range_meters":11600,"station_id":"","pricing_plan_id":"cebpf4jnsgd1na2vs0mg"},{"bike_id":"e59f121e-ba4f-4890-a742-2d0c49eae7d8","system_id":"levelo_inurba_marseille","lat":43.315359,"lon":5.380332,"is_reserved":false,"is_disabled":false,"rental_uris":{"android":"levelo://app?vid=e59f121e-ba4f-4890-a742-2d0c49eae7d8","ios":"levelo://app?vid=e59f121e-ba4f-4890-a742-2d0c49eae7d8"},"vehicle_type_id":"4","last_reported":1746508223,"current_range_meters":11600,"station_id":"ce4bhsp2rcd13ifvqi50","pricing_plan_id":"cebpf4jnsgd1na2vs0mg"},{"bike_id":"a46b5721-597c-404e-8ddb-3ba6469f967d","system_id":"levelo_inurba_marseille","lat":43.23191,"lon":5.35571,"is_reserved":false,"is_disabled":false,"rental_uris":{"android":"levelo://app?vid=a46b5721-597c-404e-8ddb-3ba6469f967d","ios":"levelo://app?vid=a46b5721-597c-404e-8ddb-3ba6469f967d"},"vehicle_type_id":"4","last_reported":1746508223,"current_range_meters":11600,"station_id":"ce4bhu92rcd13ifvqi70","pricing_plan_id":"cebpf4jnsgd1na2vs0mg"},{"bike_id":"32f3d6ea-14fe-48ca-bad8-b8d20f50df2d","system_id":"levelo_inurba_marseille","lat":43.298807,"lon":5.38906,"is_reserved":false,"is_disabled":false,"rental_uris":{"android":"levelo://app?vid=32f3d6ea-14fe-48ca-bad8-b8d20f50df2d","ios":"levelo://app?vid=32f3d6ea-14fe-48ca-bad8-b8d20f50df2d"},"vehicle_type_id":"4","last_reported":1746508223,"current_range_meters":12000,"station_id":"","pricing_plan_id":"cebpf4jnsgd1na2vs0mg"},{"bike_id":"adf5dfc5-5664-4b0f-8d86-0129f9858272","system_id":"levelo_inurba_marseille","lat":43.30789,"lon":5.37683,"is_reserved":false,"is_disabled":false,"rental_uris":{"android":"levelo://app?vid=adf5dfc5-5664-4b0f-8d86-0129f9858272","ios":"levelo://app?vid=adf5dfc5-5664-4b0f-8d86-0129f9858272"},"vehicle_type_id":"4","last_reported":1746508223,"current_range_meters":12000,"station_id":"ce4bgv92rcd13ifvqcq0","pricing_plan_id":"cebpf4jnsgd1na2vs0mg"},{"bike_id":"44d1a496-4f16-46a6-b178-f49cec17003e","system_id":"levelo_inurba_marseille","lat":43.27182,"lon":5.409931,"is_reserved":false,"is_disabled":false,"rental_uris":{"android":"levelo://app?vid=44d1a496-4f16-46a6-b178-f49cec17003e","ios":"levelo://app?vid=44d1a496-4f16-46a6-b178-f49cec17003e"},"vehicle_type_id":"4","last_reported":1746508223,"current_range_meters":12000,"station_id":"ce4bhl12rcd13ifvqgf0","pricing_plan_id":"cebpf4jnsgd1na2vs0mg"},{"bike_id":"a9b78ccc-48f0-4502-b89e-0369c4bf7b0b","system_id":"levelo_inurba_marseille","lat":43.23186,"lon":5.39988,"is_reserved":false,"is_disabled":false,"rental_uris":{"android":"levelo://app?vid=a9b78ccc-48f0-4502-b89e-0369c4bf7b0b","ios":"levelo://app?vid=a9b78ccc-48f0-4502-b89e-0369c4bf7b0b"},"vehicle_type_id":"4","last_reported":1746508223,"current_range_meters":12000,"station_id":"ce4bhn12rcd13ifvqgqg","pricing_plan_id":"cebpf4jnsgd1na2vs0mg"},{"bike_id":"7e86d21d-45f2-4214-8268-1894a29d6870","system_id":"levelo_inurba_marseille","lat":43.27814,"lon":5.407181,"is_reserved":false,"is_disabled":false,"rental_uris":{"android":"levelo://app?vid=7e86d21d-45f2-4214-8268-1894a29d6870","ios":"levelo://app?vid=7e86d21d-45f2-4214-8268-1894a29d6870"},"vehicle_type_id":"4","last_reported":1746508223,"current_range_meters":12000,"station_id":"ce4bhnh2rcd13ifvqgtg","pricing_plan_id":"cebpf4jnsgd1na2vs0mg"},{"bike_id":"c9592205-9409-4f74-aed1-7c4141a58caa","system_id":"levelo_inurba_marseille","lat":43.27136,"lon":5.36372,"is_reserved":false,"is_disabled":false,"rental_uris":{"android":"levelo://app?vid=c9592205-9409-4f74-aed1-7c4141a58caa","ios":"levelo://app?vid=c9592205-9409-4f74-aed1-7c4141a58caa"},"vehicle_type_id":"4","last_reported":1746508223,"current_range_meters":12400,"station_id":"","pricing_plan_id":"cebpf4jnsgd1na2vs0mg"},{"bike_id":"ff98988f-b7b5-4b59-aafa-108198aebfdf","system_id":"levelo_inurba_marseille","lat":43.311642,"lon":5.387143,"is_reserved":false,"is_disabled":false,"rental_uris":{"android":"levelo://app?vid=ff98988f-b7b5-4b59-aafa-108198aebfdf","ios":"levelo://app?vid=ff98988f-b7b5-4b59-aafa-108198aebfdf"},"vehicle_type_id":"4","last_reported":1746508223,"current_range_meters":12400,"station_id":"ce4bgv12rcd13ifvqcp0","pricing_plan_id":"cebpf4jnsgd1na2vs0mg"},{"bike_id":"34b1efd4-48c2-4719-84d4-6a6a73d11d34","system_id":"levelo_inurba_marseille","lat":43.31493,"lon":5.3729,"is_reserved":false,"is_disabled":false,"rental_uris":{"android":"levelo://app?vid=34b1efd4-48c2-4719-84d4-6a6a73d11d34","ios":"levelo://app?vid=34b1efd4-48c2-4719-84d4-6a6a73d11d34"},"vehicle_type_id":"4","last_reported":1746508223,"current_range_meters":12800,"station_id":"ce4bgt12rcd13ifvqcd0","pricing_plan_id":"cebpf4jnsgd1na2vs0mg"},{"bike_id":"7ae923fd-583b-405f-968d-fb1bcede32b7","system_id":"levelo_inurba_marseille","lat":43.25087,"lon":5.39529,"is_reserved":false,"is_disabled":false,"rental_uris":{"android":"levelo://app?vid=7ae923fd-583b-405f-968d-fb1bcede32b7","ios":"levelo://app?vid=7ae923fd-583b-405f-968d-fb1bcede32b7"},"vehicle_type_id":"4","last_reported":1746508223,"current_range_meters":12800,"station_id":"ce4bhm12rcd13ifvqgkg","pricing_plan_id":"cebpf4jnsgd1na2vs0mg"},{"bike_id":"7de8d32f-4eff-4a4b-b4df-885daad904ff","system_id":"levelo_inurba_marseille","lat":43.32366,"lon":5.3889,"is_reserved":false,"is_disabled":false,"rental_uris":{"android":"levelo://app?vid=7de8d32f-4eff-4a4b-b4df-885daad904ff","ios":"levelo://app?vid=7de8d32f-4eff-4a4b-b4df-885daad904ff"},"vehicle_type_id":"4","last_reported":1746508223,"current_range_meters":13600,"station_id":"ce4bhqp2rcd13ifvqhog","pricing_plan_id":"cebpf4jnsgd1na2vs0mg"},{"bike_id":"3f84d55c-f7b3-443f-a8ba-1f83ba8291a2","system_id":"levelo_inurba_marseille","lat":43.21204,"lon":5.35082,"is_reserved":false,"is_disabled":false,"rental_uris":{"android":"levelo://app?vid=3f84d55c-f7b3-443f-a8ba-1f83ba8291a2","ios":"levelo://app?vid=3f84d55c-f7b3-443f-a8ba-1f83ba8291a2"},"vehicle_type_id":"4","last_reported":1746508223,"current_range_meters":13600,"station_id":"st_cvj6sg6p6f1abm77japg","pricing_plan_id":"cebpf4jnsgd1na2vs0mg"},{"bike_id":"e3bb4c0a-ea28-4d8b-a92a-340ecfdd5f1d","system_id":"levelo_inurba_marseille","lat":43.310689,"lon":5.375511,"is_reserved":false,"is_disabled":false,"rental_uris":{"android":"levelo://app?vid=e3bb4c0a-ea28-4d8b-a92a-340ecfdd5f1d","ios":"levelo://app?vid=e3bb4c0a-ea28-4d8b-a92a-340ecfdd5f1d"},"vehicle_type_id":"4","last_reported":1746508223,"current_range_meters":14000,"station_id":"","pricing_plan_id":"cebpf4jnsgd1na2vs0mg"},{"bike_id":"bedea05d-d78e-49aa-a496-3f51d4ea594b","system_id":"levelo_inurba_marseille","lat":43.284605,"lon":5.35894,"is_reserved":false,"is_disabled":false,"rental_uris":{"android":"levelo://app?vid=bedea05d-d78e-49aa-a496-3f51d4ea594b","ios":"levelo://app?vid=bedea05d-d78e-49aa-a496-3f51d4ea594b"},"vehicle_type_id":"4","last_reported":1746508223,"current_range_meters":14000,"station_id":"ce4bhah2rcd13ifvqei0","pricing_plan_id":"cebpf4jnsgd1na2vs0mg"},{"bike_id":"2df614bf-145f-44cd-b174-f8bd8326963c","system_id":"levelo_inurba_marseille","lat":43.315372,"lon":5.38028,"is_reserved":false,"is_disabled":false,"rental_uris":{"android":"levelo://app?vid=2df614bf-145f-44cd-b174-f8bd8326963c","ios":"levelo://app?vid=2df614bf-145f-44cd-b174-f8bd8326963c"},"vehicle_type_id":"4","last_reported":1746508223,"current_range_meters":14000,"station_id":"ce4bhsp2rcd13ifvqi50","pricing_plan_id":"cebpf4jnsgd1na2vs0mg"},{"bike_id":"53c4fcc4-dda1-4e73-b847-13ed4696d072","system_id":"levelo_inurba_marseille","lat":43.269442,"lon":5.402492,"is_reserved":false,"is_disabled":false,"rental_uris":{"android":"levelo://app?vid=53c4fcc4-dda1-4e73-b847-13ed4696d072","ios":"levelo://app?vid=53c4fcc4-dda1-4e73-b847-13ed4696d072"},"vehicle_type_id":"4","last_reported":1746508223,"current_range_meters":14400,"station_id":"","pricing_plan_id":"cebpf4jnsgd1na2vs0mg"},{"bike_id":"f923bc7e-7ddd-48e1-9a5c-e4b11899f853","system_id":"levelo_inurba_marseille","lat":43.30895,"lon":5.3968,"is_reserved":false,"is_disabled":false,"rental_uris":{"android":"levelo://app?vid=f923bc7e-7ddd-48e1-9a5c-e4b11899f853","ios":"levelo://app?vid=f923bc7e-7ddd-48e1-9a5c-e4b11899f853"},"vehicle_type_id":"4","last_reported":1746508223,"current_range_meters":14400,"station_id":"ce4bh012rcd13ifvqcv0","pricing_plan_id":"cebpf4jnsgd1na2vs0mg"},{"bike_id":"5a7d2749-ecbc-4351-94f2-8339d95d4c06","system_id":"levelo_inurba_marseille","lat":43.3154,"lon":5.38035,"is_reserved":false,"is_disabled":false,"rental_uris":{"android":"levelo://app?vid=5a7d2749-ecbc-4351-94f2-8339d95d4c06","ios":"levelo://app?vid=5a7d2749-ecbc-4351-94f2-8339d95d4c06"},"vehicle_type_id":"4","last_reported":1746508223,"current_range_meters":14400,"station_id":"ce4bhsp2rcd13ifvqi50","pricing_plan_id":"cebpf4jnsgd1na2vs0mg"},{"bike_id":"bfb768d4-db43-4db8-8659-afeb33dd4edd","system_id":"levelo_inurba_marseille","lat":43.307323,"lon":5.424424,"is_reserved":false,"is_disabled":false,"rental_uris":{"android":"levelo://app?vid=bfb768d4-db43-4db8-8659-afeb33dd4edd","ios":"levelo://app?vid=bfb768d4-db43-4db8-8659-afeb33dd4edd"},"vehicle_type_id":"4","last_reported":1746508223,"current_range_meters":14400,"station_id":"st_cvj6ca6bvosntc0bfgr0","pricing_plan_id":"cebpf4jnsgd1na2vs0mg"},{"bike_id":"99097e50-dd2e-47c3-a879-f48655baf4d9","system_id":"levelo_inurba_marseille","lat":43.245916,"lon":5.408279,"is_reserved":false,"is_disabled":false,"rental_uris":{"android":"levelo://app?vid=99097e50-dd2e-47c3-a879-f48655baf4d9","ios":"levelo://app?vid=99097e50-dd2e-47c3-a879-f48655baf4d9"},"vehicle_type_id":"4","last_reported":1746508223,"current_range_meters":14800,"station_id":"","pricing_plan_id":"cebpf4jnsgd1na2vs0mg"},{"bike_id":"03d6bfcb-7ab6-45db-9a7d-650631fbeab8","system_id":"levelo_inurba_marseille","lat":43.289253,"lon":5.3963,"is_reserved":false,"is_disabled":false,"rental_uris":{"android":"levelo://app?vid=03d6bfcb-7ab6-45db-9a7d-650631fbeab8","ios":"levelo://app?vid=03d6bfcb-7ab6-45db-9a7d-650631fbeab8"},"vehicle_type_id":"4","last_reported":1746508223,"current_range_meters":15200,"station_id":"","pricing_plan_id":"cebpf4jnsgd1na2vs0mg"},{"bike_id":"68db1e13-3b7e-40af-83a2-a4203eac9c02","system_id":"levelo_inurba_marseille","lat":43.28115,"lon":5.37909,"is_reserved":false,"is_disabled":false,"rental_uris":{"android":"levelo://app?vid=68db1e13-3b7e-40af-83a2-a4203eac9c02","ios":"levelo://app?vid=68db1e13-3b7e-40af-83a2-a4203eac9c02"},"vehicle_type_id":"4","last_reported":1746508223,"current_range_meters":15200,"station_id":"ce4bha12rcd13ifvqee0","pricing_plan_id":"cebpf4jnsgd1na2vs0mg"},{"bike_id":"d1aa6e5d-6beb-440c-afb6-1d488c12e5a1","system_id":"levelo_inurba_marseille","lat":43.34694,"lon":5.36186,"is_reserved":false,"is_disabled":false,"rental_uris":{"android":"levelo://app?vid=d1aa6e5d-6beb-440c-afb6-1d488c12e5a1","ios":"levelo://app?vid=d1aa6e5d-6beb-440c-afb6-1d488c12e5a1"},"vehicle_type_id":"4","last_reported":1746508223,"current_range_meters":16000,"station_id":"","pricing_plan_id":"cebpf4jnsgd1na2vs0mg"},{"bike_id":"a8a1b1f9-4837-4bd3-b489-a1183a034be7","system_id":"levelo_inurba_marseille","lat":43.286554,"lon":5.363517,"is_reserved":false,"is_disabled":false,"rental_uris":{"android":"levelo://app?vid=a8a1b1f9-4837-4bd3-b489-a1183a034be7","ios":"levelo://app?vid=a8a1b1f9-4837-4bd3-b489-a1183a034be7"},"vehicle_type_id":"4","last_reported":1746508223,"current_range_meters":16000,"station_id":"ce4bhah2rcd13ifvqej0","pricing_plan_id":"cebpf4jnsgd1na2vs0mg"},{"bike_id":"24f93dec-e9bd-4317-bf46-7076eb10632e","system_id":"levelo_inurba_marseille","lat":43.272461,"lon":5.390921,"is_reserved":false,"is_disabled":false,"rental_uris":{"android":"levelo://app?vid=24f93dec-e9bd-4317-bf46-7076eb10632e","ios":"levelo://app?vid=24f93dec-e9bd-4317-bf46-7076eb10632e"},"vehicle_type_id":"4","last_reported":1746508223,"current_range_meters":16000,"station_id":"ce4bhhp2rcd13ifvqfm0","pricing_plan_id":"cebpf4jnsgd1na2vs0mg"},{"bike_id":"6ce81efa-e8f3-477a-b7a1-a1c58c727c56","system_id":"levelo_inurba_marseille","lat":43.211873,"lon":5.35088,"is_reserved":false,"is_disabled":false,"rental_uris":{"android":"levelo://app?vid=6ce81efa-e8f3-477a-b7a1-a1c58c727c56","ios":"levelo://app?vid=6ce81efa-e8f3-477a-b7a1-a1c58c727c56"},"vehicle_type_id":"4","last_reported":1746508223,"current_range_meters":16400,"station_id":"","pricing_plan_id":"cebpf4jnsgd1na2vs0mg"},{"bike_id":"62abd1a7-7a0b-4601-b7d9-44b92d8d2d1e","system_id":"levelo_inurba_marseille","lat":43.28108,"lon":5.37877,"is_reserved":false,"is_disabled":false,"rental_uris":{"android":"levelo://app?vid=62abd1a7-7a0b-4601-b7d9-44b92d8d2d1e","ios":"levelo://app?vid=62abd1a7-7a0b-4601-b7d9-44b92d8d2d1e"},"vehicle_type_id":"4","last_reported":1746508223,"current_range_meters":16400,"station_id":"ce4bha12rcd13ifvqee0","pricing_plan_id":"cebpf4jnsgd1na2vs0mg"},{"bike_id":"6ddb90f6-4587-4feb-9901-3dcd0e047bc2","system_id":"levelo_inurba_marseille","lat":43.28933,"lon":5.3663,"is_reserved":false,"is_disabled":false,"rental_uris":{"android":"levelo://app?vid=6ddb90f6-4587-4feb-9901-3dcd0e047bc2","ios":"levelo://app?vid=6ddb90f6-4587-4feb-9901-3dcd0e047bc2"},"vehicle_type_id":"4","last_reported":1746508223,"current_range_meters":16400,"station_id":"ce4bhap2rcd13ifvqek0","pricing_plan_id":"cebpf4jnsgd1na2vs0mg"},{"bike_id":"9175d517-3c9f-4a9d-9359-bc5552cd94b8","system_id":"levelo_inurba_marseille","lat":43.28608,"lon":5.35111,"is_reserved":false,"is_disabled":false,"rental_uris":{"android":"levelo://app?vid=9175d517-3c9f-4a9d-9359-bc5552cd94b8","ios":"levelo://app?vid=9175d517-3c9f-4a9d-9359-bc5552cd94b8"},"vehicle_type_id":"4","last_reported":1746508223,"current_range_meters":16400,"station_id":"ce4bhch2rcd13ifvqeug","pricing_plan_id":"cebpf4jnsgd1na2vs0mg"},{"bike_id":"18d6802e-bd60-42db-b48b-a1bc76191e7d","system_id":"levelo_inurba_marseille","lat":43.25725,"lon":5.41109,"is_reserved":false,"is_disabled":false,"rental_uris":{"android":"levelo://app?vid=18d6802e-bd60-42db-b48b-a1bc76191e7d","ios":"levelo://app?vid=18d6802e-bd60-42db-b48b-a1bc76191e7d"},"vehicle_type_id":"4","last_reported":1746508223,"current_range_meters":16800,"station_id":"","pricing_plan_id":"cebpf4jnsgd1na2vs0mg"},{"bike_id":"a327ed7c-cb3d-44b1-bb3d-7951cd226f01","system_id":"levelo_inurba_marseille","lat":43.293396,"lon":5.371296,"is_reserved":false,"is_disabled":false,"rental_uris":{"android":"levelo://app?vid=a327ed7c-cb3d-44b1-bb3d-7951cd226f01","ios":"levelo://app?vid=a327ed7c-cb3d-44b1-bb3d-7951cd226f01"},"vehicle_type_id":"4","last_reported":1746508223,"current_range_meters":16800,"station_id":"","pricing_plan_id":"cebpf4jnsgd1na2vs0mg"},{"bike_id":"1900e395-19ba-404e-aa6a-262b7656599d","system_id":"levelo_inurba_marseille","lat":43.2888,"lon":5.43707,"is_reserved":false,"is_disabled":false,"rental_uris":{"android":"levelo://app?vid=1900e395-19ba-404e-aa6a-262b7656599d","ios":"levelo://app?vid=1900e395-19ba-404e-aa6a-262b7656599d"},"vehicle_type_id":"4","last_reported":1746508223,"current_range_meters":16800,"station_id":"","pricing_plan_id":"cebpf4jnsgd1na2vs0mg"},{"bike_id":"03bb5049-51e5-461e-8353-3cc13edfbfb8","system_id":"levelo_inurba_marseille","lat":43.23953,"lon":5.366308,"is_reserved":false,"is_disabled":false,"rental_uris":{"android":"levelo://app?vid=03bb5049-51e5-461e-8353-3cc13edfbfb8","ios":"levelo://app?vid=03bb5049-51e5-461e-8353-3cc13edfbfb8"},"vehicle_type_id":"4","last_reported":1746508223,"current_range_meters":16800,"station_id":"ce4bhi12rcd13ifvqfp0","pricing_plan_id":"cebpf4jnsgd1na2vs0mg"},{"bike_id":"46a428a1-3a45-4310-8fc1-8ac5239110b0","system_id":"levelo_inurba_marseille","lat":43.25819,"lon":5.39439,"is_reserved":false,"is_disabled":false,"rental_uris":{"android":"levelo://app?vid=46a428a1-3a45-4310-8fc1-8ac5239110b0","ios":"levelo://app?vid=46a428a1-3a45-4310-8fc1-8ac5239110b0"},"vehicle_type_id":"4","last_reported":1746508223,"current_range_meters":16800,"station_id":"ce4bhip2rcd13ifvqft0","pricing_plan_id":"cebpf4jnsgd1na2vs0mg"},{"bike_id":"e0a0fb85-9539-4fb6-b21f-392540fb8a26","system_id":"levelo_inurba_marseille","lat":43.323549,"lon":5.367398,"is_reserved":false,"is_disabled":false,"rental_uris":{"android":"levelo://app?vid=e0a0fb85-9539-4fb6-b21f-392540fb8a26","ios":"levelo://app?vid=e0a0fb85-9539-4fb6-b21f-392540fb8a26"},"vehicle_type_id":"4","last_reported":1746508223,"current_range_meters":16800,"station_id":"ce4bhsh2rcd13ifvqi2g","pricing_plan_id":"cebpf4jnsgd1na2vs0mg"},{"bike_id":"27563f88-1268-4b98-bc06-44e98c7ca400","system_id":"levelo_inurba_marseille","lat":43.320828,"lon":5.440965,"is_reserved":false,"is_disabled":false,"rental_uris":{"android":"levelo://app?vid=27563f88-1268-4b98-bc06-44e98c7ca400","ios":"levelo://app?vid=27563f88-1268-4b98-bc06-44e98c7ca400"},"vehicle_type_id":"4","last_reported":1746508223,"current_range_meters":17200,"station_id":"","pricing_plan_id":"cebpf4jnsgd1na2vs0mg"},{"bike_id":"2f160021-bdb5-46f3-87d3-268e68ac849d","system_id":"levelo_inurba_marseille","lat":43.29973,"lon":5.37177,"is_reserved":false,"is_disabled":false,"rental_uris":{"android":"levelo://app?vid=2f160021-bdb5-46f3-87d3-268e68ac849d","ios":"levelo://app?vid=2f160021-bdb5-46f3-87d3-268e68ac849d"},"vehicle_type_id":"4","last_reported":1746508223,"current_range_meters":17200,"station_id":"ce4bgr92rcd13ifvqc7g","pricing_plan_id":"cebpf4jnsgd1na2vs0mg"},{"bike_id":"e913cf30-eb5e-4abe-8900-12e0ae6d43b8","system_id":"levelo_inurba_marseille","lat":43.286991,"lon":5.373947,"is_reserved":false,"is_disabled":false,"rental_uris":{"android":"levelo://app?vid=e913cf30-eb5e-4abe-8900-12e0ae6d43b8","ios":"levelo://app?vid=e913cf30-eb5e-4abe-8900-12e0ae6d43b8"},"vehicle_type_id":"4","last_reported":1746508223,"current_range_meters":17200,"station_id":"ce4bh3p2rcd13ifvqdq0","pricing_plan_id":"cebpf4jnsgd1na2vs0mg"},{"bike_id":"82f4dc22-101f-465e-a26a-59bc1ffb8cd4","system_id":"levelo_inurba_marseille","lat":43.28434,"lon":5.37537,"is_reserved":false,"is_disabled":false,"rental_uris":{"android":"levelo://app?vid=82f4dc22-101f-465e-a26a-59bc1ffb8cd4","ios":"levelo://app?vid=82f4dc22-101f-465e-a26a-59bc1ffb8cd4"},"vehicle_type_id":"4","last_reported":1746508223,"current_range_meters":17200,"station_id":"ce4bh412rcd13ifvqds0","pricing_plan_id":"cebpf4jnsgd1na2vs0mg"},{"bike_id":"13d72c90-097d-44e3-a161-c92142027aeb","system_id":"levelo_inurba_marseille","lat":43.32083,"lon":5.36762,"is_reserved":false,"is_disabled":false,"rental_uris":{"android":"levelo://app?vid=13d72c90-097d-44e3-a161-c92142027aeb","ios":"levelo://app?vid=13d72c90-097d-44e3-a161-c92142027aeb"},"vehicle_type_id":"4","last_reported":1746508223,"current_range_meters":17200,"station_id":"ce4bhrh2rcd13ifvqhug","pricing_plan_id":"cebpf4jnsgd1na2vs0mg"},{"bike_id":"144c51af-426b-42d7-b56e-922177862b14","system_id":"levelo_inurba_marseille","lat":43.31066,"lon":5.38351,"is_reserved":false,"is_disabled":false,"rental_uris":{"android":"levelo://app?vid=144c51af-426b-42d7-b56e-922177862b14","ios":"levelo://app?vid=144c51af-426b-42d7-b56e-922177862b14"},"vehicle_type_id":"4","last_reported":1746508223,"current_range_meters":17600,"station_id":"ce4bgv92rcd13ifvqcr0","pricing_plan_id":"cebpf4jnsgd1na2vs0mg"},{"bike_id":"bb57f667-396d-4003-ae12-13bf8f696902","system_id":"levelo_inurba_marseille","lat":43.27911,"lon":5.41069,"is_reserved":false,"is_disabled":false,"rental_uris":{"android":"levelo://app?vid=bb57f667-396d-4003-ae12-13bf8f696902","ios":"levelo://app?vid=bb57f667-396d-4003-ae12-13bf8f696902"},"vehicle_type_id":"4","last_reported":1746508223,"current_range_meters":17600,"station_id":"ce4bhnp2rcd13ifvqh0g","pricing_plan_id":"cebpf4jnsgd1na2vs0mg"},{"bike_id":"569ec25d-b19f-4c65-ac15-f5239ba490d3","system_id":"levelo_inurba_marseille","lat":43.269419,"lon":5.402622,"is_reserved":false,"is_disabled":false,"rental_uris":{"android":"levelo://app?vid=569ec25d-b19f-4c65-ac15-f5239ba490d3","ios":"levelo://app?vid=569ec25d-b19f-4c65-ac15-f5239ba490d3"},"vehicle_type_id":"4","last_reported":1746508223,"current_range_meters":17600,"station_id":"cjm6bp8fraef2m0cb0m0","pricing_plan_id":"cebpf4jnsgd1na2vs0mg"},{"bike_id":"4bdbfa2a-ffc0-4860-819c-6326869a5a0f","system_id":"levelo_inurba_marseille","lat":43.28722,"lon":5.36091,"is_reserved":false,"is_disabled":false,"rental_uris":{"android":"levelo://app?vid=4bdbfa2a-ffc0-4860-819c-6326869a5a0f","ios":"levelo://app?vid=4bdbfa2a-ffc0-4860-819c-6326869a5a0f"},"vehicle_type_id":"4","last_reported":1746508223,"current_range_meters":17600,"station_id":"cki0cbj6b192h4jlfktg","pricing_plan_id":"cebpf4jnsgd1na2vs0mg"},{"bike_id":"b4bac287-3615-423a-bca2-a11fb80cb066","system_id":"levelo_inurba_marseille","lat":43.230546,"lon":5.354918,"is_reserved":false,"is_disabled":false,"rental_uris":{"android":"levelo://app?vid=b4bac287-3615-423a-bca2-a11fb80cb066","ios":"levelo://app?vid=b4bac287-3615-423a-bca2-a11fb80cb066"},"vehicle_type_id":"4","last_reported":1746508223,"current_range_meters":17600,"station_id":"cpo3342slgdg3j2ifvpg","pricing_plan_id":"cebpf4jnsgd1na2vs0mg"},{"bike_id":"2714f713-c769-4f6a-ac44-441a635e9cba","system_id":"levelo_inurba_marseille","lat":43.21626,"lon":5.34253,"is_reserved":false,"is_disabled":false,"rental_uris":{"android":"levelo://app?vid=2714f713-c769-4f6a-ac44-441a635e9cba","ios":"levelo://app?vid=2714f713-c769-4f6a-ac44-441a635e9cba"},"vehicle_type_id":"4","last_reported":1746508223,"current_range_meters":18000,"station_id":"","pricing_plan_id":"cebpf4jnsgd1na2vs0mg"},{"bike_id":"8089a7f7-6677-45a4-9140-6ad780ae044e","system_id":"levelo_inurba_marseille","lat":43.31371,"lon":5.38502,"is_reserved":false,"is_disabled":false,"rental_uris":{"android":"levelo://app?vid=8089a7f7-6677-45a4-9140-6ad780ae044e","ios":"levelo://app?vid=8089a7f7-6677-45a4-9140-6ad780ae044e"},"vehicle_type_id":"4","last_reported":1746508223,"current_range_meters":18000,"station_id":"ce4bgt92rcd13ifvqcf0","pricing_plan_id":"cebpf4jnsgd1na2vs0mg"},{"bike_id":"b4216838-733b-46cd-aae7-8693e0287a61","system_id":"levelo_inurba_marseille","lat":43.22921,"lon":5.35395,"is_reserved":false,"is_disabled":false,"rental_uris":{"android":"levelo://app?vid=b4216838-733b-46cd-aae7-8693e0287a61","ios":"levelo://app?vid=b4216838-733b-46cd-aae7-8693e0287a61"},"vehicle_type_id":"4","last_reported":1746508223,"current_range_meters":19200,"station_id":"cpo3532slgdg3j2ikp40","pricing_plan_id":"cebpf4jnsgd1na2vs0mg"},{"bike_id":"ac700e2e-c129-4f82-a3c3-f628077933a6","system_id":"levelo_inurba_marseille","lat":43.21208,"lon":5.35079,"is_reserved":false,"is_disabled":false,"rental_uris":{"android":"levelo://app?vid=ac700e2e-c129-4f82-a3c3-f628077933a6","ios":"levelo://app?vid=ac700e2e-c129-4f82-a3c3-f628077933a6"},"vehicle_type_id":"4","last_reported":1746508223,"current_range_meters":19200,"station_id":"st_cvj6sg6p6f1abm77japg","pricing_plan_id":"cebpf4jnsgd1na2vs0mg"},{"bike_id":"8fa70930-3d89-410a-8a0d-ae58e85113d9","system_id":"levelo_inurba_marseille","lat":43.33753,"lon":5.37478,"is_reserved":false,"is_disabled":false,"rental_uris":{"android":"levelo://app?vid=8fa70930-3d89-410a-8a0d-ae58e85113d9","ios":"levelo://app?vid=8fa70930-3d89-410a-8a0d-ae58e85113d9"},"vehicle_type_id":"4","last_reported":1746508223,"current_range_meters":20000,"station_id":"","pricing_plan_id":"cebpf4jnsgd1na2vs0mg"},{"bike_id":"c8297cef-8fa2-4088-bf39-a095bd551571","system_id":"levelo_inurba_marseille","lat":43.27053,"lon":5.40257,"is_reserved":false,"is_disabled":false,"rental_uris":{"android":"levelo://app?vid=c8297cef-8fa2-4088-bf39-a095bd551571","ios":"levelo://app?vid=c8297cef-8fa2-4088-bf39-a095bd551571"},"vehicle_type_id":"4","last_reported":1746508223,"current_range_meters":20000,"station_id":"ce4bhk92rcd13ifvqgc0","pricing_plan_id":"cebpf4jnsgd1na2vs0mg"},{"bike_id":"a3dc441c-3dd7-42dc-913a-7db783432e14","system_id":"levelo_inurba_marseille","lat":43.28598,"lon":5.37073,"is_reserved":false,"is_disabled":false,"rental_uris":{"android":"levelo://app?vid=a3dc441c-3dd7-42dc-913a-7db783432e14","ios":"levelo://app?vid=a3dc441c-3dd7-42dc-913a-7db783432e14"},"vehicle_type_id":"4","last_reported":1746508223,"current_range_meters":20000,"station_id":"ce4bht12rcd13ifvqi60","pricing_plan_id":"cebpf4jnsgd1na2vs0mg"},{"bike_id":"ea4762e8-256b-4c73-a917-b8c3e12612ed","system_id":"levelo_inurba_marseille","lat":43.26127,"lon":5.41495,"is_reserved":false,"is_disabled":false,"rental_uris":{"android":"levelo://app?vid=ea4762e8-256b-4c73-a917-b8c3e12612ed","ios":"levelo://app?vid=ea4762e8-256b-4c73-a917-b8c3e12612ed"},"vehicle_type_id":"4","last_reported":1746508223,"current_range_meters":20400,"station_id":"","pricing_plan_id":"cebpf4jnsgd1na2vs0mg"},{"bike_id":"2fa0b816-7ec6-4882-9376-089f3a9e406c","system_id":"levelo_inurba_marseille","lat":43.33785,"lon":5.37504,"is_reserved":false,"is_disabled":false,"rental_uris":{"android":"levelo://app?vid=2fa0b816-7ec6-4882-9376-089f3a9e406c","ios":"levelo://app?vid=2fa0b816-7ec6-4882-9376-089f3a9e406c"},"vehicle_type_id":"4","last_reported":1746508223,"current_range_meters":20400,"station_id":"","pricing_plan_id":"cebpf4jnsgd1na2vs0mg"},{"bike_id":"acd9ef93-d6b9-4b00-920e-807e5720d172","system_id":"levelo_inurba_marseille","lat":43.30424,"lon":5.38894,"is_reserved":false,"is_disabled":false,"rental_uris":{"android":"levelo://app?vid=acd9ef93-d6b9-4b00-920e-807e5720d172","ios":"levelo://app?vid=acd9ef93-d6b9-4b00-920e-807e5720d172"},"vehicle_type_id":"4","last_reported":1746508223,"current_range_meters":20800,"station_id":"ce4bgk12rcd13ifvqbi0","pricing_plan_id":"cebpf4jnsgd1na2vs0mg"},{"bike_id":"3b1a86b6-0608-4c2a-8a0c-81b34e73a5c5","system_id":"levelo_inurba_marseille","lat":43.30286,"lon":5.36893,"is_reserved":false,"is_disabled":false,"rental_uris":{"android":"levelo://app?vid=3b1a86b6-0608-4c2a-8a0c-81b34e73a5c5","ios":"levelo://app?vid=3b1a86b6-0608-4c2a-8a0c-81b34e73a5c5"},"vehicle_type_id":"4","last_reported":1746508223,"current_range_meters":20800,"station_id":"ce4bgqh2rcd13ifvqc5g","pricing_plan_id":"cebpf4jnsgd1na2vs0mg"},{"bike_id":"08729567-1803-4a3a-b335-fdd95b127ecd","system_id":"levelo_inurba_marseille","lat":43.311701,"lon":5.387208,"is_reserved":false,"is_disabled":false,"rental_uris":{"android":"levelo://app?vid=08729567-1803-4a3a-b335-fdd95b127ecd","ios":"levelo://app?vid=08729567-1803-4a3a-b335-fdd95b127ecd"},"vehicle_type_id":"4","last_reported":1746508223,"current_range_meters":20800,"station_id":"ce4bgv12rcd13ifvqcp0","pricing_plan_id":"cebpf4jnsgd1na2vs0mg"},{"bike_id":"afac6972-47be-44a9-9b16-e544ef1aba9d","system_id":"levelo_inurba_marseille","lat":43.23178,"lon":5.39997,"is_reserved":false,"is_disabled":false,"rental_uris":{"android":"levelo://app?vid=afac6972-47be-44a9-9b16-e544ef1aba9d","ios":"levelo://app?vid=afac6972-47be-44a9-9b16-e544ef1aba9d"},"vehicle_type_id":"4","last_reported":1746508223,"current_range_meters":20800,"station_id":"ce4bhn12rcd13ifvqgqg","pricing_plan_id":"cebpf4jnsgd1na2vs0mg"},{"bike_id":"4fa44a4d-c738-41bc-9022-213fbeae4065","system_id":"levelo_inurba_marseille","lat":43.2319,"lon":5.39963,"is_reserved":false,"is_disabled":false,"rental_uris":{"android":"levelo://app?vid=4fa44a4d-c738-41bc-9022-213fbeae4065","ios":"levelo://app?vid=4fa44a4d-c738-41bc-9022-213fbeae4065"},"vehicle_type_id":"4","last_reported":1746508223,"current_range_meters":20800,"station_id":"ce4bhn12rcd13ifvqgqg","pricing_plan_id":"cebpf4jnsgd1na2vs0mg"},{"bike_id":"d912aaf0-9efd-4ef0-b1ab-763b2afabfe0","system_id":"levelo_inurba_marseille","lat":43.29058,"lon":5.37157,"is_reserved":false,"is_disabled":false,"rental_uris":{"android":"levelo://app?vid=d912aaf0-9efd-4ef0-b1ab-763b2afabfe0","ios":"levelo://app?vid=d912aaf0-9efd-4ef0-b1ab-763b2afabfe0"},"vehicle_type_id":"4","last_reported":1746508223,"current_range_meters":21600,"station_id":"ce4bh5p2rcd13ifvqe4g","pricing_plan_id":"cebpf4jnsgd1na2vs0mg"},{"bike_id":"a0fcebb9-adb3-4214-a4cd-919fcb7c5c33","system_id":"levelo_inurba_marseille","lat":43.286154,"lon":5.351116,"is_reserved":false,"is_disabled":false,"rental_uris":{"android":"levelo://app?vid=a0fcebb9-adb3-4214-a4cd-919fcb7c5c33","ios":"levelo://app?vid=a0fcebb9-adb3-4214-a4cd-919fcb7c5c33"},"vehicle_type_id":"4","last_reported":1746508223,"current_range_meters":21600,"station_id":"ce4bhch2rcd13ifvqeug","pricing_plan_id":"cebpf4jnsgd1na2vs0mg"},{"bike_id":"8a4b30e0-b491-4f8b-b56b-65294a62c555","system_id":"levelo_inurba_marseille","lat":43.254636,"lon":5.418925,"is_reserved":false,"is_disabled":false,"rental_uris":{"android":"levelo://app?vid=8a4b30e0-b491-4f8b-b56b-65294a62c555","ios":"levelo://app?vid=8a4b30e0-b491-4f8b-b56b-65294a62c555"},"vehicle_type_id":"4","last_reported":1746508223,"current_range_meters":22000,"station_id":"","pricing_plan_id":"cebpf4jnsgd1na2vs0mg"},{"bike_id":"249a255a-a762-4d7c-91d1-e38b413ba4f5","system_id":"levelo_inurba_marseille","lat":43.284566,"lon":5.358854,"is_reserved":false,"is_disabled":false,"rental_uris":{"android":"levelo://app?vid=249a255a-a762-4d7c-91d1-e38b413ba4f5","ios":"levelo://app?vid=249a255a-a762-4d7c-91d1-e38b413ba4f5"},"vehicle_type_id":"4","last_reported":1746508223,"current_range_meters":22000,"station_id":"ce4bhah2rcd13ifvqei0","pricing_plan_id":"cebpf4jnsgd1na2vs0mg"},{"bike_id":"7539eb60-9654-42e5-b5f4-2fd224949424","system_id":"levelo_inurba_marseille","lat":43.26795,"lon":5.3942,"is_reserved":false,"is_disabled":false,"rental_uris":{"android":"levelo://app?vid=7539eb60-9654-42e5-b5f4-2fd224949424","ios":"levelo://app?vid=7539eb60-9654-42e5-b5f4-2fd224949424"},"vehicle_type_id":"4","last_reported":1746508223,"current_range_meters":22000,"station_id":"ce4bhh12rcd13ifvqfg0","pricing_plan_id":"cebpf4jnsgd1na2vs0mg"},{"bike_id":"55a5a4bd-37b9-4fda-8803-a1ddb77974cd","system_id":"levelo_inurba_marseille","lat":43.31442,"lon":5.36688,"is_reserved":false,"is_disabled":false,"rental_uris":{"android":"levelo://app?vid=55a5a4bd-37b9-4fda-8803-a1ddb77974cd","ios":"levelo://app?vid=55a5a4bd-37b9-4fda-8803-a1ddb77974cd"},"vehicle_type_id":"4","last_reported":1746508223,"current_range_meters":22400,"station_id":"ce4bgr92rcd13ifvqc6g","pricing_plan_id":"cebpf4jnsgd1na2vs0mg"},{"bike_id":"d5ef6ad8-1242-44b6-9125-49309ae65236","system_id":"levelo_inurba_marseille","lat":43.30928,"lon":5.40172,"is_reserved":false,"is_disabled":false,"rental_uris":{"android":"levelo://app?vid=d5ef6ad8-1242-44b6-9125-49309ae65236","ios":"levelo://app?vid=d5ef6ad8-1242-44b6-9125-49309ae65236"},"vehicle_type_id":"4","last_reported":1746508223,"current_range_meters":22400,"station_id":"ce4bgvp2rcd13ifvqct0","pricing_plan_id":"cebpf4jnsgd1na2vs0mg"},{"bike_id":"722c1cb3-31f6-49fd-8369-b5e0a7a256b2","system_id":"levelo_inurba_marseille","lat":43.28108,"lon":5.37854,"is_reserved":false,"is_disabled":false,"rental_uris":{"android":"levelo://app?vid=722c1cb3-31f6-49fd-8369-b5e0a7a256b2","ios":"levelo://app?vid=722c1cb3-31f6-49fd-8369-b5e0a7a256b2"},"vehicle_type_id":"4","last_reported":1746508223,"current_range_meters":22400,"station_id":"ce4bha12rcd13ifvqee0","pricing_plan_id":"cebpf4jnsgd1na2vs0mg"},{"bike_id":"f5774a0b-ba08-4a39-beee-b3ec8dcb2483","system_id":"levelo_inurba_marseille","lat":43.23967,"lon":5.36622,"is_reserved":false,"is_disabled":false,"rental_uris":{"android":"levelo://app?vid=f5774a0b-ba08-4a39-beee-b3ec8dcb2483","ios":"levelo://app?vid=f5774a0b-ba08-4a39-beee-b3ec8dcb2483"},"vehicle_type_id":"4","last_reported":1746508223,"current_range_meters":22800,"station_id":"ce4bhi12rcd13ifvqfp0","pricing_plan_id":"cebpf4jnsgd1na2vs0mg"},{"bike_id":"85fe12a7-92f0-41fa-ae12-56154e1eae9f","system_id":"levelo_inurba_marseille","lat":43.28181,"lon":5.42667,"is_reserved":false,"is_disabled":false,"rental_uris":{"android":"levelo://app?vid=85fe12a7-92f0-41fa-ae12-56154e1eae9f","ios":"levelo://app?vid=85fe12a7-92f0-41fa-ae12-56154e1eae9f"},"vehicle_type_id":"4","last_reported":1746508223,"current_range_meters":22800,"station_id":"ce4bhnh2rcd13ifvqgug","pricing_plan_id":"cebpf4jnsgd1na2vs0mg"},{"bike_id":"7f5b45a1-5661-4667-a9ea-a9ed756e2f6b","system_id":"levelo_inurba_marseille","lat":43.29808,"lon":5.38127,"is_reserved":false,"is_disabled":false,"rental_uris":{"android":"levelo://app?vid=7f5b45a1-5661-4667-a9ea-a9ed756e2f6b","ios":"levelo://app?vid=7f5b45a1-5661-4667-a9ea-a9ed756e2f6b"},"vehicle_type_id":"4","last_reported":1746508223,"current_range_meters":23200,"station_id":"ce4bgip2rcd13ifvqbb0","pricing_plan_id":"cebpf4jnsgd1na2vs0mg"},{"bike_id":"1d4ad047-6a0f-405c-ba0b-262195f4889b","system_id":"levelo_inurba_marseille","lat":43.30447,"lon":5.39769,"is_reserved":false,"is_disabled":false,"rental_uris":{"android":"levelo://app?vid=1d4ad047-6a0f-405c-ba0b-262195f4889b","ios":"levelo://app?vid=1d4ad047-6a0f-405c-ba0b-262195f4889b"},"vehicle_type_id":"4","last_reported":1746508223,"current_range_meters":23200,"station_id":"ce4bh092rcd13ifvqd20","pricing_plan_id":"cebpf4jnsgd1na2vs0mg"},{"bike_id":"e2b2fa55-386f-4fbb-991b-cc2b8bf7afac","system_id":"levelo_inurba_marseille","lat":43.27938,"lon":5.410368,"is_reserved":false,"is_disabled":false,"rental_uris":{"android":"levelo://app?vid=e2b2fa55-386f-4fbb-991b-cc2b8bf7afac","ios":"levelo://app?vid=e2b2fa55-386f-4fbb-991b-cc2b8bf7afac"},"vehicle_type_id":"4","last_reported":1746508223,"current_range_meters":23200,"station_id":"ce4bhnp2rcd13ifvqh0g","pricing_plan_id":"cebpf4jnsgd1na2vs0mg"},{"bike_id":"72be7735-ecd2-4396-bbf3-e0b752b65580","system_id":"levelo_inurba_marseille","lat":43.26826,"lon":5.40241,"is_reserved":false,"is_disabled":false,"rental_uris":{"android":"levelo://app?vid=72be7735-ecd2-4396-bbf3-e0b752b65580","ios":"levelo://app?vid=72be7735-ecd2-4396-bbf3-e0b752b65580"},"vehicle_type_id":"4","last_reported":1746508223,"current_range_meters":23200,"station_id":"ce501612rcd8frsf0b60","pricing_plan_id":"cebpf4jnsgd1na2vs0mg"},{"bike_id":"bed177c0-937f-427c-a007-22d8aad60347","system_id":"levelo_inurba_marseille","lat":43.33775,"lon":5.37448,"is_reserved":false,"is_disabled":false,"rental_uris":{"android":"levelo://app?vid=bed177c0-937f-427c-a007-22d8aad60347","ios":"levelo://app?vid=bed177c0-937f-427c-a007-22d8aad60347"},"vehicle_type_id":"4","last_reported":1746508223,"current_range_meters":24000,"station_id":"","pricing_plan_id":"cebpf4jnsgd1na2vs0mg"},{"bike_id":"72c51981-9a26-4763-8f01-8b65c8314524","system_id":"levelo_inurba_marseille","lat":43.29638,"lon":5.40625,"is_reserved":false,"is_disabled":false,"rental_uris":{"android":"levelo://app?vid=72c51981-9a26-4763-8f01-8b65c8314524","ios":"levelo://app?vid=72c51981-9a26-4763-8f01-8b65c8314524"},"vehicle_type_id":"4","last_reported":1746508223,"current_range_meters":24000,"station_id":"ce4bh0h2rcd13ifvqd60","pricing_plan_id":"cebpf4jnsgd1na2vs0mg"},{"bike_id":"ebad895e-16ab-4861-af58-e61a781cbe8d","system_id":"levelo_inurba_marseille","lat":43.26045,"lon":5.39396,"is_reserved":false,"is_disabled":false,"rental_uris":{"android":"levelo://app?vid=ebad895e-16ab-4861-af58-e61a781cbe8d","ios":"levelo://app?vid=ebad895e-16ab-4861-af58-e61a781cbe8d"},"vehicle_type_id":"4","last_reported":1746508223,"current_range_meters":24000,"station_id":"ce4bhh92rcd13ifvqfj0","pricing_plan_id":"cebpf4jnsgd1na2vs0mg"},{"bike_id":"d60b5ff3-d886-4755-9de3-7142bffaad36","system_id":"levelo_inurba_marseille","lat":43.29518,"lon":5.39406,"is_reserved":false,"is_disabled":false,"rental_uris":{"android":"levelo://app?vid=d60b5ff3-d886-4755-9de3-7142bffaad36","ios":"levelo://app?vid=d60b5ff3-d886-4755-9de3-7142bffaad36"},"vehicle_type_id":"4","last_reported":1746508223,"current_range_meters":24400,"station_id":"","pricing_plan_id":"cebpf4jnsgd1na2vs0mg"},{"bike_id":"f337ae3b-9238-4523-b038-ffc2307dcf95","system_id":"levelo_inurba_marseille","lat":43.314833,"lon":5.372996,"is_reserved":false,"is_disabled":false,"rental_uris":{"android":"levelo://app?vid=f337ae3b-9238-4523-b038-ffc2307dcf95","ios":"levelo://app?vid=f337ae3b-9238-4523-b038-ffc2307dcf95"},"vehicle_type_id":"4","last_reported":1746508223,"current_range_meters":24400,"station_id":"ce4bgt12rcd13ifvqcd0","pricing_plan_id":"cebpf4jnsgd1na2vs0mg"},{"bike_id":"988678a7-a74d-49ed-8da4-7dc8aa077ea8","system_id":"levelo_inurba_marseille","lat":43.25116,"lon":5.40335,"is_reserved":false,"is_disabled":false,"rental_uris":{"android":"levelo://app?vid=988678a7-a74d-49ed-8da4-7dc8aa077ea8","ios":"levelo://app?vid=988678a7-a74d-49ed-8da4-7dc8aa077ea8"},"vehicle_type_id":"4","last_reported":1746508223,"current_range_meters":24400,"station_id":"ce4bhlh2rcd13ifvqgig","pricing_plan_id":"cebpf4jnsgd1na2vs0mg"},{"bike_id":"f7f685cd-3f69-4e28-b1ba-dd267fb3831d","system_id":"levelo_inurba_marseille","lat":43.2875,"lon":5.36085,"is_reserved":false,"is_disabled":false,"rental_uris":{"android":"levelo://app?vid=f7f685cd-3f69-4e28-b1ba-dd267fb3831d","ios":"levelo://app?vid=f7f685cd-3f69-4e28-b1ba-dd267fb3831d"},"vehicle_type_id":"4","last_reported":1746508223,"current_range_meters":24400,"station_id":"cki0cbj6b192h4jlfktg","pricing_plan_id":"cebpf4jnsgd1na2vs0mg"},{"bike_id":"0df3111c-fd99-4e63-915e-e7763d46bb1b","system_id":"levelo_inurba_marseille","lat":43.284941,"lon":5.370925,"is_reserved":false,"is_disabled":false,"rental_uris":{"android":"levelo://app?vid=0df3111c-fd99-4e63-915e-e7763d46bb1b","ios":"levelo://app?vid=0df3111c-fd99-4e63-915e-e7763d46bb1b"},"vehicle_type_id":"4","last_reported":1746508223,"current_range_meters":24800,"station_id":"","pricing_plan_id":"cebpf4jnsgd1na2vs0mg"},{"bike_id":"60eb618b-d287-4963-8139-c94a7d23a966","system_id":"levelo_inurba_marseille","lat":43.28358,"lon":5.37539,"is_reserved":false,"is_disabled":false,"rental_uris":{"android":"levelo://app?vid=60eb618b-d287-4963-8139-c94a7d23a966","ios":"levelo://app?vid=60eb618b-d287-4963-8139-c94a7d23a966"},"vehicle_type_id":"4","last_reported":1746508223,"current_range_meters":24800,"station_id":"","pricing_plan_id":"cebpf4jnsgd1na2vs0mg"},{"bike_id":"438628cd-4f8c-4662-860a-ea0022681b58","system_id":"levelo_inurba_marseille","lat":43.30289,"lon":5.36893,"is_reserved":false,"is_disabled":false,"rental_uris":{"android":"levelo://app?vid=438628cd-4f8c-4662-860a-ea0022681b58","ios":"levelo://app?vid=438628cd-4f8c-4662-860a-ea0022681b58"},"vehicle_type_id":"4","last_reported":1746508223,"current_range_meters":24800,"station_id":"ce4bgqh2rcd13ifvqc5g","pricing_plan_id":"cebpf4jnsgd1na2vs0mg"},{"bike_id":"91cb3c59-479e-437f-97db-87bca3df8149","system_id":"levelo_inurba_marseille","lat":43.23141,"lon":5.40016,"is_reserved":false,"is_disabled":false,"rental_uris":{"android":"levelo://app?vid=91cb3c59-479e-437f-97db-87bca3df8149","ios":"levelo://app?vid=91cb3c59-479e-437f-97db-87bca3df8149"},"vehicle_type_id":"4","last_reported":1746508223,"current_range_meters":24800,"station_id":"ce4bhn12rcd13ifvqgqg","pricing_plan_id":"cebpf4jnsgd1na2vs0mg"},{"bike_id":"9e4bafb1-3957-4307-8660-2807a55a9c9c","system_id":"levelo_inurba_marseille","lat":43.29637,"lon":5.37743,"is_reserved":false,"is_disabled":false,"rental_uris":{"android":"levelo://app?vid=9e4bafb1-3957-4307-8660-2807a55a9c9c","ios":"levelo://app?vid=9e4bafb1-3957-4307-8660-2807a55a9c9c"},"vehicle_type_id":"4","last_reported":1746508223,"current_range_meters":25200,"station_id":"ce4bgi92rcd13ifvqb90","pricing_plan_id":"cebpf4jnsgd1na2vs0mg"},{"bike_id":"86efce73-d764-463e-8080-c05d126201bb","system_id":"levelo_inurba_marseille","lat":43.231906,"lon":5.399822,"is_reserved":false,"is_disabled":false,"rental_uris":{"android":"levelo://app?vid=86efce73-d764-463e-8080-c05d126201bb","ios":"levelo://app?vid=86efce73-d764-463e-8080-c05d126201bb"},"vehicle_type_id":"4","last_reported":1746508223,"current_range_meters":25200,"station_id":"ce4bhn12rcd13ifvqgqg","pricing_plan_id":"cebpf4jnsgd1na2vs0mg"},{"bike_id":"47ea6c46-5c8b-4d49-ba1b-c36ddb77ac5c","system_id":"levelo_inurba_marseille","lat":43.330628,"lon":5.408233,"is_reserved":false,"is_disabled":false,"rental_uris":{"android":"levelo://app?vid=47ea6c46-5c8b-4d49-ba1b-c36ddb77ac5c","ios":"levelo://app?vid=47ea6c46-5c8b-4d49-ba1b-c36ddb77ac5c"},"vehicle_type_id":"4","last_reported":1746508223,"current_range_meters":25600,"station_id":"","pricing_plan_id":"cebpf4jnsgd1na2vs0mg"},{"bike_id":"7b0e4b53-63e2-4bfc-84b0-013f07b8ed0e","system_id":"levelo_inurba_marseille","lat":43.308079,"lon":5.381481,"is_reserved":false,"is_disabled":false,"rental_uris":{"android":"levelo://app?vid=7b0e4b53-63e2-4bfc-84b0-013f07b8ed0e","ios":"levelo://app?vid=7b0e4b53-63e2-4bfc-84b0-013f07b8ed0e"},"vehicle_type_id":"4","last_reported":1746508223,"current_range_meters":25600,"station_id":"ce4bgt12rcd13ifvqce0","pricing_plan_id":"cebpf4jnsgd1na2vs0mg"},{"bike_id":"f0d6e860-bae2-41d7-8598-c2308788a440","system_id":"levelo_inurba_marseille","lat":43.30929,"lon":5.40164,"is_reserved":false,"is_disabled":false,"rental_uris":{"android":"levelo://app?vid=f0d6e860-bae2-41d7-8598-c2308788a440","ios":"levelo://app?vid=f0d6e860-bae2-41d7-8598-c2308788a440"},"vehicle_type_id":"4","last_reported":1746508223,"current_range_meters":25600,"station_id":"ce4bgvp2rcd13ifvqct0","pricing_plan_id":"cebpf4jnsgd1na2vs0mg"},{"bike_id":"7ad09e24-4e7d-4280-b631-6ae13d406f33","system_id":"levelo_inurba_marseille","lat":43.284021,"lon":5.375201,"is_reserved":false,"is_disabled":false,"rental_uris":{"android":"levelo://app?vid=7ad09e24-4e7d-4280-b631-6ae13d406f33","ios":"levelo://app?vid=7ad09e24-4e7d-4280-b631-6ae13d406f33"},"vehicle_type_id":"4","last_reported":1746508223,"current_range_meters":25600,"station_id":"ce4bh412rcd13ifvqds0","pricing_plan_id":"cebpf4jnsgd1na2vs0mg"},{"bike_id":"e1af84df-3d5c-4099-beab-8242473e39ed","system_id":"levelo_inurba_marseille","lat":43.265644,"lon":5.390019,"is_reserved":false,"is_disabled":false,"rental_uris":{"android":"levelo://app?vid=e1af84df-3d5c-4099-beab-8242473e39ed","ios":"levelo://app?vid=e1af84df-3d5c-4099-beab-8242473e39ed"},"vehicle_type_id":"4","last_reported":1746508223,"current_range_meters":25600,"station_id":"ce4bhe12rcd13ifvqf30","pricing_plan_id":"cebpf4jnsgd1na2vs0mg"},{"bike_id":"08b0909a-f2aa-4032-806d-f1469d52a00d","system_id":"levelo_inurba_marseille","lat":43.2397,"lon":5.36633,"is_reserved":false,"is_disabled":false,"rental_uris":{"android":"levelo://app?vid=08b0909a-f2aa-4032-806d-f1469d52a00d","ios":"levelo://app?vid=08b0909a-f2aa-4032-806d-f1469d52a00d"},"vehicle_type_id":"4","last_reported":1746508223,"current_range_meters":25600,"station_id":"ce4bhi12rcd13ifvqfp0","pricing_plan_id":"cebpf4jnsgd1na2vs0mg"},{"bike_id":"f7b504c4-422a-4703-a869-c236eae5080f","system_id":"levelo_inurba_marseille","lat":43.281317,"lon":5.426484,"is_reserved":false,"is_disabled":false,"rental_uris":{"android":"levelo://app?vid=f7b504c4-422a-4703-a869-c236eae5080f","ios":"levelo://app?vid=f7b504c4-422a-4703-a869-c236eae5080f"},"vehicle_type_id":"4","last_reported":1746508223,"current_range_meters":25600,"station_id":"ce4bhnh2rcd13ifvqgug","pricing_plan_id":"cebpf4jnsgd1na2vs0mg"},{"bike_id":"f656443d-94df-4397-aea7-ca424a7bde36","system_id":"levelo_inurba_marseille","lat":43.279891,"lon":5.416628,"is_reserved":false,"is_disabled":false,"rental_uris":{"android":"levelo://app?vid=f656443d-94df-4397-aea7-ca424a7bde36","ios":"levelo://app?vid=f656443d-94df-4397-aea7-ca424a7bde36"},"vehicle_type_id":"4","last_reported":1746508223,"current_range_meters":25600,"station_id":"ce4bho12rcd13ifvqh1g","pricing_plan_id":"cebpf4jnsgd1na2vs0mg"},{"bike_id":"08aa4944-e8cd-43d4-8ecf-e2b865b8dca2","system_id":"levelo_inurba_marseille","lat":43.29418,"lon":5.38631,"is_reserved":false,"is_disabled":false,"rental_uris":{"android":"levelo://app?vid=08aa4944-e8cd-43d4-8ecf-e2b865b8dca2","ios":"levelo://app?vid=08aa4944-e8cd-43d4-8ecf-e2b865b8dca2"},"vehicle_type_id":"4","last_reported":1746508223,"current_range_meters":26000,"station_id":"ce4bh2h2rcd13ifvqdh0","pricing_plan_id":"cebpf4jnsgd1na2vs0mg"},{"bike_id":"be14af02-7701-4605-b2d6-5fd0439029d8","system_id":"levelo_inurba_marseille","lat":43.21204,"lon":5.35084,"is_reserved":false,"is_disabled":false,"rental_uris":{"android":"levelo://app?vid=be14af02-7701-4605-b2d6-5fd0439029d8","ios":"levelo://app?vid=be14af02-7701-4605-b2d6-5fd0439029d8"},"vehicle_type_id":"4","last_reported":1746508223,"current_range_meters":26000,"station_id":"st_cvj6sg6p6f1abm77japg","pricing_plan_id":"cebpf4jnsgd1na2vs0mg"},{"bike_id":"fa4bd12a-514d-4044-b4c8-bc816fbb3d52","system_id":"levelo_inurba_marseille","lat":43.3174,"lon":5.38997,"is_reserved":false,"is_disabled":false,"rental_uris":{"android":"levelo://app?vid=fa4bd12a-514d-4044-b4c8-bc816fbb3d52","ios":"levelo://app?vid=fa4bd12a-514d-4044-b4c8-bc816fbb3d52"},"vehicle_type_id":"4","last_reported":1746508223,"current_range_meters":26800,"station_id":"","pricing_plan_id":"cebpf4jnsgd1na2vs0mg"},{"bike_id":"68d0c351-3a7f-461c-a2d6-f13542d4eb55","system_id":"levelo_inurba_marseille","lat":43.289416,"lon":5.366268,"is_reserved":false,"is_disabled":false,"rental_uris":{"android":"levelo://app?vid=68d0c351-3a7f-461c-a2d6-f13542d4eb55","ios":"levelo://app?vid=68d0c351-3a7f-461c-a2d6-f13542d4eb55"},"vehicle_type_id":"4","last_reported":1746508223,"current_range_meters":26800,"station_id":"ce4bhap2rcd13ifvqek0","pricing_plan_id":"cebpf4jnsgd1na2vs0mg"},{"bike_id":"bf59df02-de9b-497c-a191-059653c6e890","system_id":"levelo_inurba_marseille","lat":43.27896,"lon":5.38007,"is_reserved":false,"is_disabled":false,"rental_uris":{"android":"levelo://app?vid=bf59df02-de9b-497c-a191-059653c6e890","ios":"levelo://app?vid=bf59df02-de9b-497c-a191-059653c6e890"},"vehicle_type_id":"4","last_reported":1746508223,"current_range_meters":26800,"station_id":"ce4bhf92rcd13ifvqf50","pricing_plan_id":"cebpf4jnsgd1na2vs0mg"},{"bike_id":"ed127033-3451-406f-8413-96ba005748d1","system_id":"levelo_inurba_marseille","lat":43.317103,"lon":5.437038,"is_reserved":false,"is_disabled":false,"rental_uris":{"android":"levelo://app?vid=ed127033-3451-406f-8413-96ba005748d1","ios":"levelo://app?vid=ed127033-3451-406f-8413-96ba005748d1"},"vehicle_type_id":"4","last_reported":1746508223,"current_range_meters":26800,"station_id":"ce4bhp92rcd13ifvqhcg","pricing_plan_id":"cebpf4jnsgd1na2vs0mg"},{"bike_id":"71c53763-d78e-468a-a150-3ae0ea6930da","system_id":"levelo_inurba_marseille","lat":43.22496,"lon":5.34796,"is_reserved":false,"is_disabled":false,"rental_uris":{"android":"levelo://app?vid=71c53763-d78e-468a-a150-3ae0ea6930da","ios":"levelo://app?vid=71c53763-d78e-468a-a150-3ae0ea6930da"},"vehicle_type_id":"4","last_reported":1746508223,"current_range_meters":27200,"station_id":"","pricing_plan_id":"cebpf4jnsgd1na2vs0mg"},{"bike_id":"b58e123a-3d53-4b64-a38c-a7ba21a7164f","system_id":"levelo_inurba_marseille","lat":43.28463,"lon":5.35906,"is_reserved":false,"is_disabled":false,"rental_uris":{"android":"levelo://app?vid=b58e123a-3d53-4b64-a38c-a7ba21a7164f","ios":"levelo://app?vid=b58e123a-3d53-4b64-a38c-a7ba21a7164f"},"vehicle_type_id":"4","last_reported":1746508223,"current_range_meters":27200,"station_id":"ce4bhah2rcd13ifvqei0","pricing_plan_id":"cebpf4jnsgd1na2vs0mg"},{"bike_id":"f088165c-a99a-4c56-9e3b-882e8fb00664","system_id":"levelo_inurba_marseille","lat":43.231877,"lon":5.39981,"is_reserved":false,"is_disabled":false,"rental_uris":{"android":"levelo://app?vid=f088165c-a99a-4c56-9e3b-882e8fb00664","ios":"levelo://app?vid=f088165c-a99a-4c56-9e3b-882e8fb00664"},"vehicle_type_id":"4","last_reported":1746508223,"current_range_meters":27200,"station_id":"ce4bhn12rcd13ifvqgqg","pricing_plan_id":"cebpf4jnsgd1na2vs0mg"},{"bike_id":"f8bbae38-ccdd-4d23-a199-c3746c5ccde9","system_id":"levelo_inurba_marseille","lat":43.23193,"lon":5.399772,"is_reserved":false,"is_disabled":false,"rental_uris":{"android":"levelo://app?vid=f8bbae38-ccdd-4d23-a199-c3746c5ccde9","ios":"levelo://app?vid=f8bbae38-ccdd-4d23-a199-c3746c5ccde9"},"vehicle_type_id":"4","last_reported":1746508223,"current_range_meters":27200,"station_id":"ce4bhn12rcd13ifvqgqg","pricing_plan_id":"cebpf4jnsgd1na2vs0mg"},{"bike_id":"c6d70e9f-212c-4359-b9de-ccec91a162ad","system_id":"levelo_inurba_marseille","lat":43.27955,"lon":5.41051,"is_reserved":false,"is_disabled":false,"rental_uris":{"android":"levelo://app?vid=c6d70e9f-212c-4359-b9de-ccec91a162ad","ios":"levelo://app?vid=c6d70e9f-212c-4359-b9de-ccec91a162ad"},"vehicle_type_id":"4","last_reported":1746508223,"current_range_meters":27200,"station_id":"ce4bhnp2rcd13ifvqh0g","pricing_plan_id":"cebpf4jnsgd1na2vs0mg"},{"bike_id":"94510adc-92ab-4bec-b810-65538035f0da","system_id":"levelo_inurba_marseille","lat":43.308065,"lon":5.435281,"is_reserved":false,"is_disabled":false,"rental_uris":{"android":"levelo://app?vid=94510adc-92ab-4bec-b810-65538035f0da","ios":"levelo://app?vid=94510adc-92ab-4bec-b810-65538035f0da"},"vehicle_type_id":"4","last_reported":1746508223,"current_range_meters":27200,"station_id":"ce4bhph2rcd13ifvqheg","pricing_plan_id":"cebpf4jnsgd1na2vs0mg"},{"bike_id":"d928cd0d-2475-4dd3-bfb4-1e78eb7b1084","system_id":"levelo_inurba_marseille","lat":43.2679,"lon":5.39053,"is_reserved":false,"is_disabled":false,"rental_uris":{"android":"levelo://app?vid=d928cd0d-2475-4dd3-bfb4-1e78eb7b1084","ios":"levelo://app?vid=d928cd0d-2475-4dd3-bfb4-1e78eb7b1084"},"vehicle_type_id":"4","last_reported":1746508223,"current_range_meters":27600,"station_id":"","pricing_plan_id":"cebpf4jnsgd1na2vs0mg"},{"bike_id":"2bc6d0c8-e2dc-4cbc-a566-283e59800d0a","system_id":"levelo_inurba_marseille","lat":43.2953,"lon":5.38539,"is_reserved":false,"is_disabled":false,"rental_uris":{"android":"levelo://app?vid=2bc6d0c8-e2dc-4cbc-a566-283e59800d0a","ios":"levelo://app?vid=2bc6d0c8-e2dc-4cbc-a566-283e59800d0a"},"vehicle_type_id":"4","last_reported":1746508223,"current_range_meters":27600,"station_id":"ce4bgih2rcd13ifvqba0","pricing_plan_id":"cebpf4jnsgd1na2vs0mg"},{"bike_id":"89a5ab81-ddca-4078-a25d-aa4563e968ee","system_id":"levelo_inurba_marseille","lat":43.284138,"lon":5.375137,"is_reserved":false,"is_disabled":false,"rental_uris":{"android":"levelo://app?vid=89a5ab81-ddca-4078-a25d-aa4563e968ee","ios":"levelo://app?vid=89a5ab81-ddca-4078-a25d-aa4563e968ee"},"vehicle_type_id":"4","last_reported":1746508223,"current_range_meters":27600,"station_id":"ce4bh412rcd13ifvqds0","pricing_plan_id":"cebpf4jnsgd1na2vs0mg"},{"bike_id":"596b93bd-7fd3-466c-ba3e-d1a0487bc94e","system_id":"levelo_inurba_marseille","lat":43.27901,"lon":5.38022,"is_reserved":false,"is_disabled":false,"rental_uris":{"android":"levelo://app?vid=596b93bd-7fd3-466c-ba3e-d1a0487bc94e","ios":"levelo://app?vid=596b93bd-7fd3-466c-ba3e-d1a0487bc94e"},"vehicle_type_id":"4","last_reported":1746508223,"current_range_meters":27600,"station_id":"ce4bhf92rcd13ifvqf50","pricing_plan_id":"cebpf4jnsgd1na2vs0mg"},{"bike_id":"c058751e-cafc-44c6-823a-4c2f12adb75e","system_id":"levelo_inurba_marseille","lat":43.28682,"lon":5.40004,"is_reserved":false,"is_disabled":false,"rental_uris":{"android":"levelo://app?vid=c058751e-cafc-44c6-823a-4c2f12adb75e","ios":"levelo://app?vid=c058751e-cafc-44c6-823a-4c2f12adb75e"},"vehicle_type_id":"4","last_reported":1746508223,"current_range_meters":27600,"station_id":"ce4bho92rcd13ifvqh3g","pricing_plan_id":"cebpf4jnsgd1na2vs0mg"},{"bike_id":"26a93451-5932-48b2-a06d-d1bdb52f74a6","system_id":"levelo_inurba_marseille","lat":43.31535,"lon":5.38029,"is_reserved":false,"is_disabled":false,"rental_uris":{"android":"levelo://app?vid=26a93451-5932-48b2-a06d-d1bdb52f74a6","ios":"levelo://app?vid=26a93451-5932-48b2-a06d-d1bdb52f74a6"},"vehicle_type_id":"4","last_reported":1746508223,"current_range_meters":27600,"station_id":"ce4bhsp2rcd13ifvqi50","pricing_plan_id":"cebpf4jnsgd1na2vs0mg"},{"bike_id":"9581183c-456a-490c-8912-86298cafe7cf","system_id":"levelo_inurba_marseille","lat":43.29847,"lon":5.36283,"is_reserved":false,"is_disabled":false,"rental_uris":{"android":"levelo://app?vid=9581183c-456a-490c-8912-86298cafe7cf","ios":"levelo://app?vid=9581183c-456a-490c-8912-86298cafe7cf"},"vehicle_type_id":"4","last_reported":1746508223,"current_range_meters":28000,"station_id":"ce4bgpp2rcd13ifvqc3g","pricing_plan_id":"cebpf4jnsgd1na2vs0mg"},{"bike_id":"789cee62-9954-4fc3-b66a-274318bc7199","system_id":"levelo_inurba_marseille","lat":43.3096,"lon":5.39036,"is_reserved":false,"is_disabled":false,"rental_uris":{"android":"levelo://app?vid=789cee62-9954-4fc3-b66a-274318bc7199","ios":"levelo://app?vid=789cee62-9954-4fc3-b66a-274318bc7199"},"vehicle_type_id":"4","last_reported":1746508223,"current_range_meters":28000,"station_id":"ce4bgup2rcd13ifvqco0","pricing_plan_id":"cebpf4jnsgd1na2vs0mg"},{"bike_id":"a50309b7-cc78-4472-b453-153ce5f4c314","system_id":"levelo_inurba_marseille","lat":43.303719,"lon":5.424868,"is_reserved":false,"is_disabled":false,"rental_uris":{"android":"levelo://app?vid=a50309b7-cc78-4472-b453-153ce5f4c314","ios":"levelo://app?vid=a50309b7-cc78-4472-b453-153ce5f4c314"},"vehicle_type_id":"4","last_reported":1746508223,"current_range_meters":28000,"station_id":"ce4bhoh2rcd13ifvqh6g","pricing_plan_id":"cebpf4jnsgd1na2vs0mg"},{"bike_id":"d6327d3f-6394-46a1-a964-61fecd724a45","system_id":"levelo_inurba_marseille","lat":43.28614,"lon":5.37066,"is_reserved":false,"is_disabled":false,"rental_uris":{"android":"levelo://app?vid=d6327d3f-6394-46a1-a964-61fecd724a45","ios":"levelo://app?vid=d6327d3f-6394-46a1-a964-61fecd724a45"},"vehicle_type_id":"4","last_reported":1746508223,"current_range_meters":28000,"station_id":"ce4bht12rcd13ifvqi60","pricing_plan_id":"cebpf4jnsgd1na2vs0mg"},{"bike_id":"440c2515-9c24-470e-8897-d5576b9e7b9a","system_id":"levelo_inurba_marseille","lat":43.23589,"lon":5.40369,"is_reserved":false,"is_disabled":false,"rental_uris":{"android":"levelo://app?vid=440c2515-9c24-470e-8897-d5576b9e7b9a","ios":"levelo://app?vid=440c2515-9c24-470e-8897-d5576b9e7b9a"},"vehicle_type_id":"4","last_reported":1746508223,"current_range_meters":28400,"station_id":"","pricing_plan_id":"cebpf4jnsgd1na2vs0mg"},{"bike_id":"bef0f700-cab9-47ac-8607-667ce6ef77aa","system_id":"levelo_inurba_marseille","lat":43.30592,"lon":5.37215,"is_reserved":false,"is_disabled":false,"rental_uris":{"android":"levelo://app?vid=bef0f700-cab9-47ac-8607-667ce6ef77aa","ios":"levelo://app?vid=bef0f700-cab9-47ac-8607-667ce6ef77aa"},"vehicle_type_id":"4","last_reported":1746508223,"current_range_meters":28400,"station_id":"ce4bgqh2rcd13ifvqc4g","pricing_plan_id":"cebpf4jnsgd1na2vs0mg"},{"bike_id":"0fc93382-9e1a-4878-a0b9-5c3a3a60a121","system_id":"levelo_inurba_marseille","lat":43.30875,"lon":5.39635,"is_reserved":false,"is_disabled":false,"rental_uris":{"android":"levelo://app?vid=0fc93382-9e1a-4878-a0b9-5c3a3a60a121","ios":"levelo://app?vid=0fc93382-9e1a-4878-a0b9-5c3a3a60a121"},"vehicle_type_id":"4","last_reported":1746508223,"current_range_meters":28400,"station_id":"ce4bh012rcd13ifvqcv0","pricing_plan_id":"cebpf4jnsgd1na2vs0mg"},{"bike_id":"c498aeda-296b-4d63-bede-fa21cba02e37","system_id":"levelo_inurba_marseille","lat":43.284058,"lon":5.375133,"is_reserved":false,"is_disabled":false,"rental_uris":{"android":"levelo://app?vid=c498aeda-296b-4d63-bede-fa21cba02e37","ios":"levelo://app?vid=c498aeda-296b-4d63-bede-fa21cba02e37"},"vehicle_type_id":"4","last_reported":1746508223,"current_range_meters":28400,"station_id":"ce4bh412rcd13ifvqds0","pricing_plan_id":"cebpf4jnsgd1na2vs0mg"},{"bike_id":"a3a8d00e-b494-46d7-b80a-736192e27b18","system_id":"levelo_inurba_marseille","lat":43.323608,"lon":5.367592,"is_reserved":false,"is_disabled":false,"rental_uris":{"android":"levelo://app?vid=a3a8d00e-b494-46d7-b80a-736192e27b18","ios":"levelo://app?vid=a3a8d00e-b494-46d7-b80a-736192e27b18"},"vehicle_type_id":"4","last_reported":1746508223,"current_range_meters":28400,"station_id":"ce4bhsh2rcd13ifvqi2g","pricing_plan_id":"cebpf4jnsgd1na2vs0mg"},{"bike_id":"5bfd6488-3b39-479c-adcd-e60aba6cbe12","system_id":"levelo_inurba_marseille","lat":43.330105,"lon":5.38519,"is_reserved":false,"is_disabled":false,"rental_uris":{"android":"levelo://app?vid=5bfd6488-3b39-479c-adcd-e60aba6cbe12","ios":"levelo://app?vid=5bfd6488-3b39-479c-adcd-e60aba6cbe12"},"vehicle_type_id":"4","last_reported":1746508223,"current_range_meters":28800,"station_id":"","pricing_plan_id":"cebpf4jnsgd1na2vs0mg"},{"bike_id":"1236a53c-6d89-4e80-a056-cecbb124fa06","system_id":"levelo_inurba_marseille","lat":43.311858,"lon":5.382797,"is_reserved":false,"is_disabled":false,"rental_uris":{"android":"levelo://app?vid=1236a53c-6d89-4e80-a056-cecbb124fa06","ios":"levelo://app?vid=1236a53c-6d89-4e80-a056-cecbb124fa06"},"vehicle_type_id":"4","last_reported":1746508223,"current_range_meters":28800,"station_id":"","pricing_plan_id":"cebpf4jnsgd1na2vs0mg"},{"bike_id":"f801d490-3f9a-4e27-9ded-d86f7ad5d36f","system_id":"levelo_inurba_marseille","lat":43.31207,"lon":5.36873,"is_reserved":false,"is_disabled":false,"rental_uris":{"android":"levelo://app?vid=f801d490-3f9a-4e27-9ded-d86f7ad5d36f","ios":"levelo://app?vid=f801d490-3f9a-4e27-9ded-d86f7ad5d36f"},"vehicle_type_id":"4","last_reported":1746508223,"current_range_meters":28800,"station_id":"ce4bgl92rcd13ifvqbq0","pricing_plan_id":"cebpf4jnsgd1na2vs0mg"},{"bike_id":"38db03b7-8ab3-44ca-8fee-80b537a216fe","system_id":"levelo_inurba_marseille","lat":43.302533,"lon":5.400818,"is_reserved":false,"is_disabled":false,"rental_uris":{"android":"levelo://app?vid=38db03b7-8ab3-44ca-8fee-80b537a216fe","ios":"levelo://app?vid=38db03b7-8ab3-44ca-8fee-80b537a216fe"},"vehicle_type_id":"4","last_reported":1746508223,"current_range_meters":28800,"station_id":"ce4bgvh2rcd13ifvqcs0","pricing_plan_id":"cebpf4jnsgd1na2vs0mg"},{"bike_id":"4c861fa2-fe61-4c94-ab0c-961cebcbbd59","system_id":"levelo_inurba_marseille","lat":43.30121,"lon":5.39867,"is_reserved":false,"is_disabled":false,"rental_uris":{"android":"levelo://app?vid=4c861fa2-fe61-4c94-ab0c-961cebcbbd59","ios":"levelo://app?vid=4c861fa2-fe61-4c94-ab0c-961cebcbbd59"},"vehicle_type_id":"4","last_reported":1746508223,"current_range_meters":28800,"station_id":"ce4bh0h2rcd13ifvqd40","pricing_plan_id":"cebpf4jnsgd1na2vs0mg"},{"bike_id":"c50e504c-e3c5-4f76-b499-74fea3b8dcf9","system_id":"levelo_inurba_marseille","lat":43.25576,"lon":5.38237,"is_reserved":false,"is_disabled":false,"rental_uris":{"android":"levelo://app?vid=c50e504c-e3c5-4f76-b499-74fea3b8dcf9","ios":"levelo://app?vid=c50e504c-e3c5-4f76-b499-74fea3b8dcf9"},"vehicle_type_id":"4","last_reported":1746508223,"current_range_meters":28800,"station_id":"ce4bhih2rcd13ifvqfs0","pricing_plan_id":"cebpf4jnsgd1na2vs0mg"},{"bike_id":"e2a6134c-339f-4932-8e91-b51497b50167","system_id":"levelo_inurba_marseille","lat":43.31698,"lon":5.43711,"is_reserved":false,"is_disabled":false,"rental_uris":{"android":"levelo://app?vid=e2a6134c-339f-4932-8e91-b51497b50167","ios":"levelo://app?vid=e2a6134c-339f-4932-8e91-b51497b50167"},"vehicle_type_id":"4","last_reported":1746508223,"current_range_meters":28800,"station_id":"ce4bhp92rcd13ifvqhcg","pricing_plan_id":"cebpf4jnsgd1na2vs0mg"},{"bike_id":"049be05d-aee5-4909-ab13-a35d29310e5d","system_id":"levelo_inurba_marseille","lat":43.315333,"lon":5.38034,"is_reserved":false,"is_disabled":false,"rental_uris":{"android":"levelo://app?vid=049be05d-aee5-4909-ab13-a35d29310e5d","ios":"levelo://app?vid=049be05d-aee5-4909-ab13-a35d29310e5d"},"vehicle_type_id":"4","last_reported":1746508223,"current_range_meters":28800,"station_id":"ce4bhsp2rcd13ifvqi50","pricing_plan_id":"cebpf4jnsgd1na2vs0mg"},{"bike_id":"39aa275e-d157-4bd3-b8c5-b8344765c5be","system_id":"levelo_inurba_marseille","lat":43.2874,"lon":5.36067,"is_reserved":false,"is_disabled":false,"rental_uris":{"android":"levelo://app?vid=39aa275e-d157-4bd3-b8c5-b8344765c5be","ios":"levelo://app?vid=39aa275e-d157-4bd3-b8c5-b8344765c5be"},"vehicle_type_id":"4","last_reported":1746508223,"current_range_meters":28800,"station_id":"cki0cbj6b192h4jlfktg","pricing_plan_id":"cebpf4jnsgd1na2vs0mg"},{"bike_id":"8043f1d3-b333-4b3e-91cb-7cd42332c295","system_id":"levelo_inurba_marseille","lat":43.304623,"lon":5.379023,"is_reserved":false,"is_disabled":false,"rental_uris":{"android":"levelo://app?vid=8043f1d3-b333-4b3e-91cb-7cd42332c295","ios":"levelo://app?vid=8043f1d3-b333-4b3e-91cb-7cd42332c295"},"vehicle_type_id":"4","last_reported":1746508223,"current_range_meters":29600,"station_id":"ce4bgup2rcd13ifvqcn0","pricing_plan_id":"cebpf4jnsgd1na2vs0mg"},{"bike_id":"83c3ba93-06b7-47c7-aebf-8c88ba10300d","system_id":"levelo_inurba_marseille","lat":43.317474,"lon":5.389997,"is_reserved":false,"is_disabled":false,"rental_uris":{"android":"levelo://app?vid=83c3ba93-06b7-47c7-aebf-8c88ba10300d","ios":"levelo://app?vid=83c3ba93-06b7-47c7-aebf-8c88ba10300d"},"vehicle_type_id":"4","last_reported":1746508223,"current_range_meters":29600,"station_id":"ce4bhqp2rcd13ifvqhng","pricing_plan_id":"cebpf4jnsgd1na2vs0mg"},{"bike_id":"225484ad-4bb8-4e4c-940e-729921cdcdda","system_id":"levelo_inurba_marseille","lat":43.229368,"lon":5.353736,"is_reserved":false,"is_disabled":false,"rental_uris":{"android":"levelo://app?vid=225484ad-4bb8-4e4c-940e-729921cdcdda","ios":"levelo://app?vid=225484ad-4bb8-4e4c-940e-729921cdcdda"},"vehicle_type_id":"4","last_reported":1746508223,"current_range_meters":29600,"station_id":"cpo3532slgdg3j2ikp40","pricing_plan_id":"cebpf4jnsgd1na2vs0mg"},{"bike_id":"099cb455-2f77-49f9-bd52-687500953851","system_id":"levelo_inurba_marseille","lat":43.30143,"lon":5.37438,"is_reserved":false,"is_disabled":false,"rental_uris":{"android":"levelo://app?vid=099cb455-2f77-49f9-bd52-687500953851","ios":"levelo://app?vid=099cb455-2f77-49f9-bd52-687500953851"},"vehicle_type_id":"4","last_reported":1746508223,"current_range_meters":30000,"station_id":"ce4bgs92rcd13ifvqcc0","pricing_plan_id":"cebpf4jnsgd1na2vs0mg"},{"bike_id":"066e6853-a05b-49b0-b265-255f9ec157f2","system_id":"levelo_inurba_marseille","lat":43.314851,"lon":5.373,"is_reserved":false,"is_disabled":false,"rental_uris":{"android":"levelo://app?vid=066e6853-a05b-49b0-b265-255f9ec157f2","ios":"levelo://app?vid=066e6853-a05b-49b0-b265-255f9ec157f2"},"vehicle_type_id":"4","last_reported":1746508223,"current_range_meters":30000,"station_id":"ce4bgt12rcd13ifvqcd0","pricing_plan_id":"cebpf4jnsgd1na2vs0mg"},{"bike_id":"af765b18-95a8-42a9-a861-903ed354cbdb","system_id":"levelo_inurba_marseille","lat":43.30934,"lon":5.40174,"is_reserved":false,"is_disabled":false,"rental_uris":{"android":"levelo://app?vid=af765b18-95a8-42a9-a861-903ed354cbdb","ios":"levelo://app?vid=af765b18-95a8-42a9-a861-903ed354cbdb"},"vehicle_type_id":"4","last_reported":1746508223,"current_range_meters":30000,"station_id":"ce4bgvp2rcd13ifvqct0","pricing_plan_id":"cebpf4jnsgd1na2vs0mg"},{"bike_id":"870d9777-131d-4bf4-8b68-3e035ae99187","system_id":"levelo_inurba_marseille","lat":43.28943,"lon":5.364047,"is_reserved":false,"is_disabled":false,"rental_uris":{"android":"levelo://app?vid=870d9777-131d-4bf4-8b68-3e035ae99187","ios":"levelo://app?vid=870d9777-131d-4bf4-8b68-3e035ae99187"},"vehicle_type_id":"4","last_reported":1746508223,"current_range_meters":30000,"station_id":"ce4bhc92rcd13ifvqetg","pricing_plan_id":"cebpf4jnsgd1na2vs0mg"},{"bike_id":"0c717a92-3303-40ac-ab1e-b0edaeea7106","system_id":"levelo_inurba_marseille","lat":43.27903,"lon":5.37988,"is_reserved":false,"is_disabled":false,"rental_uris":{"android":"levelo://app?vid=0c717a92-3303-40ac-ab1e-b0edaeea7106","ios":"levelo://app?vid=0c717a92-3303-40ac-ab1e-b0edaeea7106"},"vehicle_type_id":"4","last_reported":1746508223,"current_range_meters":30000,"station_id":"ce4bhf92rcd13ifvqf50","pricing_plan_id":"cebpf4jnsgd1na2vs0mg"},{"bike_id":"9e16282b-c745-416a-aee4-22cf3bf699ed","system_id":"levelo_inurba_marseille","lat":43.32464,"lon":5.36572,"is_reserved":false,"is_disabled":false,"rental_uris":{"android":"levelo://app?vid=9e16282b-c745-416a-aee4-22cf3bf699ed","ios":"levelo://app?vid=9e16282b-c745-416a-aee4-22cf3bf699ed"},"vehicle_type_id":"4","last_reported":1746508223,"current_range_meters":30000,"station_id":"ce4bhs12rcd13ifvqhvg","pricing_plan_id":"cebpf4jnsgd1na2vs0mg"},{"bike_id":"3ab8cc1a-39e5-4aee-82d1-0b0ef8a9902a","system_id":"levelo_inurba_marseille","lat":43.323556,"lon":5.367562,"is_reserved":false,"is_disabled":false,"rental_uris":{"android":"levelo://app?vid=3ab8cc1a-39e5-4aee-82d1-0b0ef8a9902a","ios":"levelo://app?vid=3ab8cc1a-39e5-4aee-82d1-0b0ef8a9902a"},"vehicle_type_id":"4","last_reported":1746508223,"current_range_meters":30000,"station_id":"ce4bhsh2rcd13ifvqi2g","pricing_plan_id":"cebpf4jnsgd1na2vs0mg"},{"bike_id":"95f45dd7-acf0-4a6e-8791-45c27bd24fd0","system_id":"levelo_inurba_marseille","lat":43.30148,"lon":5.38081,"is_reserved":false,"is_disabled":false,"rental_uris":{"android":"levelo://app?vid=95f45dd7-acf0-4a6e-8791-45c27bd24fd0","ios":"levelo://app?vid=95f45dd7-acf0-4a6e-8791-45c27bd24fd0"},"vehicle_type_id":"4","last_reported":1746508223,"current_range_meters":30400,"station_id":"ce4bgjp2rcd13ifvqbh0","pricing_plan_id":"cebpf4jnsgd1na2vs0mg"},{"bike_id":"3bb8fd1c-16d6-446b-8cc2-777f962c6cbb","system_id":"levelo_inurba_marseille","lat":43.29048,"lon":5.39969,"is_reserved":false,"is_disabled":false,"rental_uris":{"android":"levelo://app?vid=3bb8fd1c-16d6-446b-8cc2-777f962c6cbb","ios":"levelo://app?vid=3bb8fd1c-16d6-446b-8cc2-777f962c6cbb"},"vehicle_type_id":"4","last_reported":1746508223,"current_range_meters":30400,"station_id":"ce4bh392rcd13ifvqdm0","pricing_plan_id":"cebpf4jnsgd1na2vs0mg"},{"bike_id":"4b16f9cc-3630-469d-badd-2c62db46de34","system_id":"levelo_inurba_marseille","lat":43.2867,"lon":5.36348,"is_reserved":false,"is_disabled":false,"rental_uris":{"android":"levelo://app?vid=4b16f9cc-3630-469d-badd-2c62db46de34","ios":"levelo://app?vid=4b16f9cc-3630-469d-badd-2c62db46de34"},"vehicle_type_id":"4","last_reported":1746508223,"current_range_meters":30400,"station_id":"ce4bhah2rcd13ifvqej0","pricing_plan_id":"cebpf4jnsgd1na2vs0mg"},{"bike_id":"333b5efc-ad98-4ec2-bea7-520f5daf67ce","system_id":"levelo_inurba_marseille","lat":43.240657,"lon":5.377543,"is_reserved":false,"is_disabled":false,"rental_uris":{"android":"levelo://app?vid=333b5efc-ad98-4ec2-bea7-520f5daf67ce","ios":"levelo://app?vid=333b5efc-ad98-4ec2-bea7-520f5daf67ce"},"vehicle_type_id":"4","last_reported":1746508223,"current_range_meters":30400,"station_id":"ce4bhnp2rcd13ifvqgvg","pricing_plan_id":"cebpf4jnsgd1na2vs0mg"},{"bike_id":"90a06f2c-3dec-426b-bbb8-2cf90013e971","system_id":"levelo_inurba_marseille","lat":43.30798,"lon":5.43529,"is_reserved":false,"is_disabled":false,"rental_uris":{"android":"levelo://app?vid=90a06f2c-3dec-426b-bbb8-2cf90013e971","ios":"levelo://app?vid=90a06f2c-3dec-426b-bbb8-2cf90013e971"},"vehicle_type_id":"4","last_reported":1746508223,"current_range_meters":30400,"station_id":"ce4bhph2rcd13ifvqheg","pricing_plan_id":"cebpf4jnsgd1na2vs0mg"},{"bike_id":"160cbbdc-497a-4a74-b187-366b763f37b0","system_id":"levelo_inurba_marseille","lat":43.31756,"lon":5.39018,"is_reserved":false,"is_disabled":false,"rental_uris":{"android":"levelo://app?vid=160cbbdc-497a-4a74-b187-366b763f37b0","ios":"levelo://app?vid=160cbbdc-497a-4a74-b187-366b763f37b0"},"vehicle_type_id":"4","last_reported":1746508223,"current_range_meters":30400,"station_id":"ce4bhqp2rcd13ifvqhng","pricing_plan_id":"cebpf4jnsgd1na2vs0mg"},{"bike_id":"7812cd0b-22e4-469a-b8f8-21f56129a869","system_id":"levelo_inurba_marseille","lat":43.231911,"lon":5.355494,"is_reserved":false,"is_disabled":false,"rental_uris":{"android":"levelo://app?vid=7812cd0b-22e4-469a-b8f8-21f56129a869","ios":"levelo://app?vid=7812cd0b-22e4-469a-b8f8-21f56129a869"},"vehicle_type_id":"4","last_reported":1746508223,"current_range_meters":30400,"station_id":"ce4bhu92rcd13ifvqi70","pricing_plan_id":"cebpf4jnsgd1na2vs0mg"},{"bike_id":"43cd6bbd-9ea7-4ac4-a321-3bbd7a17c1e9","system_id":"levelo_inurba_marseille","lat":43.31479,"lon":5.37318,"is_reserved":false,"is_disabled":false,"rental_uris":{"android":"levelo://app?vid=43cd6bbd-9ea7-4ac4-a321-3bbd7a17c1e9","ios":"levelo://app?vid=43cd6bbd-9ea7-4ac4-a321-3bbd7a17c1e9"},"vehicle_type_id":"4","last_reported":1746508223,"current_range_meters":30800,"station_id":"ce4bgt12rcd13ifvqcd0","pricing_plan_id":"cebpf4jnsgd1na2vs0mg"},{"bike_id":"d4f966c8-3a8e-4019-9c48-983d2c074704","system_id":"levelo_inurba_marseille","lat":43.286588,"lon":5.363489,"is_reserved":false,"is_disabled":false,"rental_uris":{"android":"levelo://app?vid=d4f966c8-3a8e-4019-9c48-983d2c074704","ios":"levelo://app?vid=d4f966c8-3a8e-4019-9c48-983d2c074704"},"vehicle_type_id":"4","last_reported":1746508223,"current_range_meters":30800,"station_id":"ce4bhah2rcd13ifvqej0","pricing_plan_id":"cebpf4jnsgd1na2vs0mg"},{"bike_id":"3440a9cd-8e8c-4a1c-b8ab-851783f6afc9","system_id":"levelo_inurba_marseille","lat":43.27874,"lon":5.37978,"is_reserved":false,"is_disabled":false,"rental_uris":{"android":"levelo://app?vid=3440a9cd-8e8c-4a1c-b8ab-851783f6afc9","ios":"levelo://app?vid=3440a9cd-8e8c-4a1c-b8ab-851783f6afc9"},"vehicle_type_id":"4","last_reported":1746508223,"current_range_meters":30800,"station_id":"ce4bhf92rcd13ifvqf50","pricing_plan_id":"cebpf4jnsgd1na2vs0mg"},{"bike_id":"3041d84a-2104-43f6-8d55-adec13580506","system_id":"levelo_inurba_marseille","lat":43.25005,"lon":5.38938,"is_reserved":false,"is_disabled":false,"rental_uris":{"android":"levelo://app?vid=3041d84a-2104-43f6-8d55-adec13580506","ios":"levelo://app?vid=3041d84a-2104-43f6-8d55-adec13580506"},"vehicle_type_id":"4","last_reported":1746508223,"current_range_meters":30800,"station_id":"ce4bhgp2rcd13ifvqfd0","pricing_plan_id":"cebpf4jnsgd1na2vs0mg"},{"bike_id":"d6ce2a6a-9935-460e-b52a-5886de79ec65","system_id":"levelo_inurba_marseille","lat":43.271788,"lon":5.409904,"is_reserved":false,"is_disabled":false,"rental_uris":{"android":"levelo://app?vid=d6ce2a6a-9935-460e-b52a-5886de79ec65","ios":"levelo://app?vid=d6ce2a6a-9935-460e-b52a-5886de79ec65"},"vehicle_type_id":"4","last_reported":1746508223,"current_range_meters":30800,"station_id":"ce4bhl12rcd13ifvqgf0","pricing_plan_id":"cebpf4jnsgd1na2vs0mg"},{"bike_id":"db1596a8-c2aa-4d4e-b80c-ce9e8f083804","system_id":"levelo_inurba_marseille","lat":43.251075,"lon":5.403227,"is_reserved":false,"is_disabled":false,"rental_uris":{"android":"levelo://app?vid=db1596a8-c2aa-4d4e-b80c-ce9e8f083804","ios":"levelo://app?vid=db1596a8-c2aa-4d4e-b80c-ce9e8f083804"},"vehicle_type_id":"4","last_reported":1746508223,"current_range_meters":30800,"station_id":"ce4bhlh2rcd13ifvqgig","pricing_plan_id":"cebpf4jnsgd1na2vs0mg"},{"bike_id":"b5d6d97d-e1d4-47e3-9bbf-0dd40a4d64c6","system_id":"levelo_inurba_marseille","lat":43.324842,"lon":5.365683,"is_reserved":false,"is_disabled":false,"rental_uris":{"android":"levelo://app?vid=b5d6d97d-e1d4-47e3-9bbf-0dd40a4d64c6","ios":"levelo://app?vid=b5d6d97d-e1d4-47e3-9bbf-0dd40a4d64c6"},"vehicle_type_id":"4","last_reported":1746508223,"current_range_meters":30800,"station_id":"ce4bhs12rcd13ifvqhvg","pricing_plan_id":"cebpf4jnsgd1na2vs0mg"},{"bike_id":"61dd4a5f-ebc2-43cb-8bcf-997e42563bc5","system_id":"levelo_inurba_marseille","lat":43.310679,"lon":5.400955,"is_reserved":false,"is_disabled":false,"rental_uris":{"android":"levelo://app?vid=61dd4a5f-ebc2-43cb-8bcf-997e42563bc5","ios":"levelo://app?vid=61dd4a5f-ebc2-43cb-8bcf-997e42563bc5"},"vehicle_type_id":"4","last_reported":1746508223,"current_range_meters":31200,"station_id":"","pricing_plan_id":"cebpf4jnsgd1na2vs0mg"},{"bike_id":"41026727-1455-4702-8472-19368a2f1b29","system_id":"levelo_inurba_marseille","lat":43.31364,"lon":5.36699,"is_reserved":false,"is_disabled":false,"rental_uris":{"android":"levelo://app?vid=41026727-1455-4702-8472-19368a2f1b29","ios":"levelo://app?vid=41026727-1455-4702-8472-19368a2f1b29"},"vehicle_type_id":"4","last_reported":1746508223,"current_range_meters":31200,"station_id":"ce4bgr92rcd13ifvqc6g","pricing_plan_id":"cebpf4jnsgd1na2vs0mg"},{"bike_id":"2d8585c6-a257-4513-aff3-e2814c52e6ce","system_id":"levelo_inurba_marseille","lat":43.29043,"lon":5.39962,"is_reserved":false,"is_disabled":false,"rental_uris":{"android":"levelo://app?vid=2d8585c6-a257-4513-aff3-e2814c52e6ce","ios":"levelo://app?vid=2d8585c6-a257-4513-aff3-e2814c52e6ce"},"vehicle_type_id":"4","last_reported":1746508223,"current_range_meters":31200,"station_id":"ce4bh392rcd13ifvqdm0","pricing_plan_id":"cebpf4jnsgd1na2vs0mg"},{"bike_id":"cf879115-c2de-40ca-9402-55ca035aa2f4","system_id":"levelo_inurba_marseille","lat":43.27376,"lon":5.36257,"is_reserved":false,"is_disabled":false,"rental_uris":{"android":"levelo://app?vid=cf879115-c2de-40ca-9402-55ca035aa2f4","ios":"levelo://app?vid=cf879115-c2de-40ca-9402-55ca035aa2f4"},"vehicle_type_id":"4","last_reported":1746508223,"current_range_meters":31200,"station_id":"ce4bhbh2rcd13ifvqeo0","pricing_plan_id":"cebpf4jnsgd1na2vs0mg"},{"bike_id":"27c462ed-5938-4c90-bfc5-761f55e70a5c","system_id":"levelo_inurba_marseille","lat":43.272121,"lon":5.391783,"is_reserved":false,"is_disabled":false,"rental_uris":{"android":"levelo://app?vid=27c462ed-5938-4c90-bfc5-761f55e70a5c","ios":"levelo://app?vid=27c462ed-5938-4c90-bfc5-761f55e70a5c"},"vehicle_type_id":"4","last_reported":1746508223,"current_range_meters":31200,"station_id":"ce4bhhp2rcd13ifvqfm0","pricing_plan_id":"cebpf4jnsgd1na2vs0mg"},{"bike_id":"b6a0bd9d-04ed-4904-94de-38eb6eb8a57c","system_id":"levelo_inurba_marseille","lat":43.27068,"lon":5.42281,"is_reserved":false,"is_disabled":false,"rental_uris":{"android":"levelo://app?vid=b6a0bd9d-04ed-4904-94de-38eb6eb8a57c","ios":"levelo://app?vid=b6a0bd9d-04ed-4904-94de-38eb6eb8a57c"},"vehicle_type_id":"4","last_reported":1746508223,"current_range_meters":31200,"station_id":"ce4bhk92rcd13ifvqgb0","pricing_plan_id":"cebpf4jnsgd1na2vs0mg"},{"bike_id":"358f4aef-cd3a-47f7-b0d9-f76c6fb4b65c","system_id":"levelo_inurba_marseille","lat":43.31748,"lon":5.39015,"is_reserved":false,"is_disabled":false,"rental_uris":{"android":"levelo://app?vid=358f4aef-cd3a-47f7-b0d9-f76c6fb4b65c","ios":"levelo://app?vid=358f4aef-cd3a-47f7-b0d9-f76c6fb4b65c"},"vehicle_type_id":"4","last_reported":1746508223,"current_range_meters":31200,"station_id":"ce4bhqp2rcd13ifvqhng","pricing_plan_id":"cebpf4jnsgd1na2vs0mg"},