{"last_updated":1703700504,"ttl":30,"version":"2.2","data":{"bikes":[{"bike_id":"94800107-a208-4a4f-9c76-c6f42dc2601a","system_id":"levelo_inurba_marseille","lat":43.312239,"lon":5.368562,"is_reserved":false,"is_disabled":false,"rental_uris":{"android":"levelo://app?vid=94800107-a208-4a4f-9c76-c6f42dc2601a","ios":"levelo://app?vid=94800107-a208-4a4f-9c76-c6f42dc2601a"},"vehicle_type_id":"4","last_reported":1703700504,"current_range_meters":25200,"station_id":"ce4bgl92rcd13ifvqbq0","pricing_plan_id":"free"},{"bike_id":"99b53a14-eecf-42e6-9e85-8d8033120243","system_id":"levelo_inurba_marseille","lat":43.312239,"lon":5.368562,"is_reserved":false,"is_disabled":false,"rental_uris":{"android":"levelo://app?vid=99b53a14-eecf-42e6-9e85-8d8033120243","ios":"levelo://app?vid=99b53a14-eecf-42e6-9e85-8d8033120243"},"vehicle_type_id":"4","last_reported":1703700504,"current_range_meters":19600,"station_id":"ce4bgl92rcd13ifvqbq0","pricing_plan_id":"free"},{"bike_id":"61736615-b741-41bc-8776-9590c1976846","system_id":"levelo_inurba_marseille","lat":43.312239,"lon":5.368562,"is_reserved":false,"is_disabled":false,"rental_uris":{"android":"levelo://app?vid=61736615-b741-41bc-8776-9590c1976846","ios":"levelo://app?vid=61736615-b741-41bc-8776-9590c1976846"},"vehicle_type_id":"4","last_reported":1703700504,"current_range_meters":27200,"station_id":"ce4bgl92rcd13ifvqbq0","pricing_plan_id":"free"},{"bike_id":"ae225e54-0f48-441c-b8a4-36601e2a9277","system_id":"levelo_inurba_marseille","lat":43.31223,"lon":5.36871,"is_reserved":false,"is_disabled":false,"rental_uris":{"android":"levelo://app?vid=ae225e54-0f48-441c-b8a4-36601e2a9277","ios":"levelo://app?vid=ae225e54-0f48-441c-b8a4-36601e2a9277"},"vehicle_type_id":"4","last_reported":1703700504,"current_range_meters":14000,"station_id":"ce4bgl92rcd13ifvqbq0","pricing_plan_id":"free"},{"bike_id":"4f0aaa87-cb4b-4389-871f-2dd88483af9b","system_id":"levelo_inurba_marseille","lat":43.309076,"lon":5.368465,"is_reserved":false,"is_disabled":false,"rental_uris":{"android":"levelo://app?vid=4f0aaa87-cb4b-4389-871f-2dd88483af9b","ios":"levelo://app?vid=4f0aaa87-cb4b-4389-871f-2dd88483af9b"},"vehicle_type_id":"4","last_reported":1703700504,"current_range_meters":26800,"station_id":"ce4bgn92rcd13ifvqbvg","pricing_plan_id":"free"},{"bike_id":"4735c94e-5fc9-4109-a40d-051fce821110","system_id":"levelo_inurba_marseille","lat":43.314811,"lon":5.373103,"is_reserved":false,"is_disabled":false,"rental_uris":{"android":"levelo://app?vid=4735c94e-5fc9-4109-a40d-051fce821110","ios":"levelo://app?vid=4735c94e-5fc9-4109-a40d-051fce821110"},"vehicle_type_id":"4","last_reported":1703700504,"current_range_meters":19600,"station_id":"ce4bgt12rcd13ifvqcd0","pricing_plan_id":"free"},{"bike_id":"41575ec6-6acc-4f99-9d6f-91a8d4737faf","system_id":"levelo_inurba_marseille","lat":43.309039,"lon":5.371797,"is_reserved":false,"is_disabled":false,"rental_uris":{"android":"levelo://app?vid=41575ec6-6acc-4f99-9d6f-91a8d4737faf","ios":"levelo://app?vid=41575ec6-6acc-4f99-9d6f-91a8d4737faf"},"vehicle_type_id":"4","last_reported":1703700504,"current_range_meters":30800,"station_id":"ce4bguh2rcd13ifvqckg","pricing_plan_id":"free"},{"bike_id":"74fe9bc5-e3f4-4c1a-8a5e-f3795aaa273d","system_id":"levelo_inurba_marseille","lat":43.309039,"lon":5.371797,"is_reserved":false,"is_disabled":false,"rental_uris":{"android":"levelo://app?vid=74fe9bc5-e3f4-4c1a-8a5e-f3795aaa273d","ios":"levelo://app?vid=74fe9bc5-e3f4-4c1a-8a5e-f3795aaa273d"},"vehicle_type_id":"4","last_reported":1703700504,"current_range_meters":13200,"station_id":"ce4bguh2rcd13ifvqckg","pricing_plan_id":"free"},{"bike_id":"437be774-9347-4f56-865e-861017296255","system_id":"levelo_inurba_marseille","lat":43.318964,"lon":5.36877,"is_reserved":false,"is_disabled":false,"rental_uris":{"android":"levelo://app?vid=437be774-9347-4f56-865e-861017296255","ios":"levelo://app?vid=437be774-9347-4f56-865e-861017296255"},"vehicle_type_id":"4","last_reported":1703700504,"current_range_meters":7200,"station_id":"","pricing_plan_id":"free"},{"bike_id":"5e13d619-c9ea-488a-ba4f-8ac6c5c34f3a","system_id":"levelo_inurba_marseille","lat":43.305712,"lon":5.365641,"is_reserved":false,"is_disabled":false,"rental_uris":{"android":"levelo://app?vid=5e13d619-c9ea-488a-ba4f-8ac6c5c34f3a","ios":"levelo://app?vid=5e13d619-c9ea-488a-ba4f-8ac6c5c34f3a"},"vehicle_type_id":"4","last_reported":1703700504,"current_range_meters":10000,"station_id":"ce4bgs12rcd13ifvqcag","pricing_plan_id":"free"},{"bike_id":"1498c562-8e97-430b-996a-a4fa8b4e7d92","system_id":"levelo_inurba_marseille","lat":43.305714,"lon":5.365633,"is_reserved":false,"is_disabled":false,"rental_uris":{"android":"levelo://app?vid=1498c562-8e97-430b-996a-a4fa8b4e7d92","ios":"levelo://app?vid=1498c562-8e97-430b-996a-a4fa8b4e7d92"},"vehicle_type_id":"4","last_reported":1703700504,"current_range_meters":5200,"station_id":"ce4bgs12rcd13ifvqcag","pricing_plan_id":"free"},{"bike_id":"adc14d48-e478-4d9e-8f67-d01fb24e38b0","system_id":"levelo_inurba_marseille","lat":43.30611,"lon":5.37236,"is_reserved":false,"is_disabled":false,"rental_uris":{"android":"levelo://app?vid=adc14d48-e478-4d9e-8f67-d01fb24e38b0","ios":"levelo://app?vid=adc14d48-e478-4d9e-8f67-d01fb24e38b0"},"vehicle_type_id":"4","last_reported":1703700504,"current_range_meters":30800,"station_id":"ce4bgqh2rcd13ifvqc4g","pricing_plan_id":"free"},{"bike_id":"9dbcae11-cc7f-49dc-bfb1-c81fa81bffdd","system_id":"levelo_inurba_marseille","lat":43.311131,"lon":5.377651,"is_reserved":false,"is_disabled":false,"rental_uris":{"android":"levelo://app?vid=9dbcae11-cc7f-49dc-bfb1-c81fa81bffdd","ios":"levelo://app?vid=9dbcae11-cc7f-49dc-bfb1-c81fa81bffdd"},"vehicle_type_id":"4","last_reported":1703700504,"current_range_meters":19600,"station_id":"ce4bgt92rcd13ifvqcg0","pricing_plan_id":"free"},{"bike_id":"938253a9-be81-46b2-bfd5-f9efcbeb55ab","system_id":"levelo_inurba_marseille","lat":43.311125,"lon":5.377624,"is_reserved":false,"is_disabled":false,"rental_uris":{"android":"levelo://app?vid=938253a9-be81-46b2-bfd5-f9efcbeb55ab","ios":"levelo://app?vid=938253a9-be81-46b2-bfd5-f9efcbeb55ab"},"vehicle_type_id":"4","last_reported":1703700504,"current_range_meters":30000,"station_id":"ce4bgt92rcd13ifvqcg0","pricing_plan_id":"free"},{"bike_id":"97ee2a5e-4a7c-4a14-add2-98828647cca1","system_id":"levelo_inurba_marseille","lat":43.307945,"lon":5.376487,"is_reserved":false,"is_disabled":false,"rental_uris":{"android":"levelo://app?vid=97ee2a5e-4a7c-4a14-add2-98828647cca1","ios":"levelo://app?vid=97ee2a5e-4a7c-4a14-add2-98828647cca1"},"vehicle_type_id":"4","last_reported":1703700504,"current_range_meters":18400,"station_id":"ce4bgv92rcd13ifvqcq0","pricing_plan_id":"free"},{"bike_id":"6f274941-b879-4d7d-a0d1-09325d0f98ee","system_id":"levelo_inurba_marseille","lat":43.307945,"lon":5.376487,"is_reserved":false,"is_disabled":false,"rental_uris":{"android":"levelo://app?vid=6f274941-b879-4d7d-a0d1-09325d0f98ee","ios":"levelo://app?vid=6f274941-b879-4d7d-a0d1-09325d0f98ee"},"vehicle_type_id":"4","last_reported":1703700504,"current_range_meters":14800,"station_id":"ce4bgv92rcd13ifvqcq0","pricing_plan_id":"free"},{"bike_id":"b3a2e490-3acc-4627-a2e1-73d2ff6a2938","system_id":"levelo_inurba_marseille","lat":43.30787,"lon":5.3764,"is_reserved":false,"is_disabled":false,"rental_uris":{"android":"levelo://app?vid=b3a2e490-3acc-4627-a2e1-73d2ff6a2938","ios":"levelo://app?vid=b3a2e490-3acc-4627-a2e1-73d2ff6a2938"},"vehicle_type_id":"4","last_reported":1703700504,"current_range_meters":4000,"station_id":"ce4bgv92rcd13ifvqcq0","pricing_plan_id":"free"},{"bike_id":"5c986a06-9fb2-48d8-84ba-15b5e242690a","system_id":"levelo_inurba_marseille","lat":43.307945,"lon":5.376487,"is_reserved":false,"is_disabled":false,"rental_uris":{"android":"levelo://app?vid=5c986a06-9fb2-48d8-84ba-15b5e242690a","ios":"levelo://app?vid=5c986a06-9fb2-48d8-84ba-15b5e242690a"},"vehicle_type_id":"4","last_reported":1703700504,"current_range_meters":5200,"station_id":"ce4bgv92rcd13ifvqcq0","pricing_plan_id":"free"},{"bike_id":"a2494595-1d92-47e5-9f06-11b0434aa231","system_id":"levelo_inurba_marseille","lat":43.307945,"lon":5.376487,"is_reserved":false,"is_disabled":false,"rental_uris":{"android":"levelo://app?vid=a2494595-1d92-47e5-9f06-11b0434aa231","ios":"levelo://app?vid=a2494595-1d92-47e5-9f06-11b0434aa231"},"vehicle_type_id":"4","last_reported":1703700504,"current_range_meters":6800,"station_id":"ce4bgv92rcd13ifvqcq0","pricing_plan_id":"free"},{"bike_id":"c6ed1484-48b9-4bc8-9cea-35da5ad304dc","system_id":"levelo_inurba_marseille","lat":43.30304,"lon":5.368987,"is_reserved":false,"is_disabled":false,"rental_uris":{"android":"levelo://app?vid=c6ed1484-48b9-4bc8-9cea-35da5ad304dc","ios":"levelo://app?vid=c6ed1484-48b9-4bc8-9cea-35da5ad304dc"},"vehicle_type_id":"4","last_reported":1703700504,"current_range_meters":29200,"station_id":"ce4bgqh2rcd13ifvqc5g","pricing_plan_id":"free"},{"bike_id":"b5311a3e-9b62-4069-a287-f4f7307274fc","system_id":"levelo_inurba_marseille","lat":43.30304,"lon":5.368987,"is_reserved":false,"is_disabled":false,"rental_uris":{"android":"levelo://app?vid=b5311a3e-9b62-4069-a287-f4f7307274fc","ios":"levelo://app?vid=b5311a3e-9b62-4069-a287-f4f7307274fc"},"vehicle_type_id":"4","last_reported":1703700504,"current_range_meters":23200,"station_id":"ce4bgqh2rcd13ifvqc5g","pricing_plan_id":"free"},{"bike_id":"ed20a26a-fd05-40b0-b360-6cab66f682b0","system_id":"levelo_inurba_marseille","lat":43.30801,"lon":5.38148,"is_reserved":false,"is_disabled":false,"rental_uris":{"android":"levelo://app?vid=ed20a26a-fd05-40b0-b360-6cab66f682b0","ios":"levelo://app?vid=ed20a26a-fd05-40b0-b360-6cab66f682b0"},"vehicle_type_id":"4","last_reported":1703700504,"current_range_meters":0,"station_id":"ce4bgt12rcd13ifvqce0","pricing_plan_id":"free"},{"bike_id":"dd0067aa-ef49-4089-b6b1-e441161f6438","system_id":"levelo_inurba_marseille","lat":43.304727,"lon":5.379145,"is_reserved":false,"is_disabled":false,"rental_uris":{"android":"levelo://app?vid=dd0067aa-ef49-4089-b6b1-e441161f6438","ios":"levelo://app?vid=dd0067aa-ef49-4089-b6b1-e441161f6438"},"vehicle_type_id":"4","last_reported":1703700504,"current_range_meters":12000,"station_id":"ce4bgup2rcd13ifvqcn0","pricing_plan_id":"free"},{"bike_id":"5810a51d-900e-4f21-b011-504985336ccb","system_id":"levelo_inurba_marseille","lat":43.324771,"lon":5.36557,"is_reserved":false,"is_disabled":false,"rental_uris":{"android":"levelo://app?vid=5810a51d-900e-4f21-b011-504985336ccb","ios":"levelo://app?vid=5810a51d-900e-4f21-b011-504985336ccb"},"vehicle_type_id":"4","last_reported":1703700504,"current_range_meters":26400,"station_id":"ce4bhs12rcd13ifvqhvg","pricing_plan_id":"free"},{"bike_id":"eb75f652-373e-4726-9e33-c05a085e4a2d","system_id":"levelo_inurba_marseille","lat":43.301453,"lon":5.37416,"is_reserved":false,"is_disabled":false,"rental_uris":{"android":"levelo://app?vid=eb75f652-373e-4726-9e33-c05a085e4a2d","ios":"levelo://app?vid=eb75f652-373e-4726-9e33-c05a085e4a2d"},"vehicle_type_id":"4","last_reported":1703700504,"current_range_meters":8800,"station_id":"","pricing_plan_id":"free"},{"bike_id":"d765122a-7a6c-495f-addb-765a711a5b96","system_id":"levelo_inurba_marseille","lat":43.313571,"lon":5.384829,"is_reserved":false,"is_disabled":false,"rental_uris":{"android":"levelo://app?vid=d765122a-7a6c-495f-addb-765a711a5b96","ios":"levelo://app?vid=d765122a-7a6c-495f-addb-765a711a5b96"},"vehicle_type_id":"4","last_reported":1703700504,"current_range_meters":17600,"station_id":"ce4bgt92rcd13ifvqcf0","pricing_plan_id":"free"},{"bike_id":"1a425633-6ce8-43d2-90f1-88a4cd9e48e2","system_id":"levelo_inurba_marseille","lat":43.313571,"lon":5.384829,"is_reserved":false,"is_disabled":false,"rental_uris":{"android":"levelo://app?vid=1a425633-6ce8-43d2-90f1-88a4cd9e48e2","ios":"levelo://app?vid=1a425633-6ce8-43d2-90f1-88a4cd9e48e2"},"vehicle_type_id":"4","last_reported":1703700504,"current_range_meters":17600,"station_id":"ce4bgt92rcd13ifvqcf0","pricing_plan_id":"free"},{"bike_id":"38bb0c65-3560-4190-855a-5e8282626187","system_id":"levelo_inurba_marseille","lat":43.313571,"lon":5.384829,"is_reserved":false,"is_disabled":false,"rental_uris":{"android":"levelo://app?vid=38bb0c65-3560-4190-855a-5e8282626187","ios":"levelo://app?vid=38bb0c65-3560-4190-855a-5e8282626187"},"vehicle_type_id":"4","last_reported":1703700504,"current_range_meters":19600,"station_id":"ce4bgt92rcd13ifvqcf0","pricing_plan_id":"free"},{"bike_id":"ff626801-e822-4fc9-a7f6-f37f28ffd723","system_id":"levelo_inurba_marseille","lat":43.313571,"lon":5.384829,"is_reserved":false,"is_disabled":false,"rental_uris":{"android":"levelo://app?vid=ff626801-e822-4fc9-a7f6-f37f28ffd723","ios":"levelo://app?vid=ff626801-e822-4fc9-a7f6-f37f28ffd723"},"vehicle_type_id":"4","last_reported":1703700504,"current_range_meters":8000,"station_id":"ce4bgt92rcd13ifvqcf0","pricing_plan_id":"free"},{"bike_id":"c7b312cf-b465-4c47-9aa1-99bc6bbc40a3","system_id":"levelo_inurba_marseille","lat":43.298433,"lon":5.362774,"is_reserved":false,"is_disabled":false,"rental_uris":{"android":"levelo://app?vid=c7b312cf-b465-4c47-9aa1-99bc6bbc40a3","ios":"levelo://app?vid=c7b312cf-b465-4c47-9aa1-99bc6bbc40a3"},"vehicle_type_id":"4","last_reported":1703700504,"current_range_meters":22000,"station_id":"ce4bgpp2rcd13ifvqc3g","pricing_plan_id":"free"},{"bike_id":"6efb3024-1ab3-4dac-8a62-809c015c34c6","system_id":"levelo_inurba_marseille","lat":43.298433,"lon":5.362774,"is_reserved":false,"is_disabled":false,"rental_uris":{"android":"levelo://app?vid=6efb3024-1ab3-4dac-8a62-809c015c34c6","ios":"levelo://app?vid=6efb3024-1ab3-4dac-8a62-809c015c34c6"},"vehicle_type_id":"4","last_reported":1703700504,"current_range_meters":29600,"station_id":"ce4bgpp2rcd13ifvqc3g","pricing_plan_id":"free"},{"bike_id":"7119845d-00aa-4d9f-be8c-fc97d41f1380","system_id":"levelo_inurba_marseille","lat":43.3261,"lon":5.376385,"is_reserved":false,"is_disabled":false,"rental_uris":{"android":"levelo://app?vid=7119845d-00aa-4d9f-be8c-fc97d41f1380","ios":"levelo://app?vid=7119845d-00aa-4d9f-be8c-fc97d41f1380"},"vehicle_type_id":"4","last_reported":1703700504,"current_range_meters":20800,"station_id":"","pricing_plan_id":"free"},{"bike_id":"6d1471f8-bce9-466e-a589-4a37d3811250","system_id":"levelo_inurba_marseille","lat":43.322872,"lon":5.382756,"is_reserved":false,"is_disabled":false,"rental_uris":{"android":"levelo://app?vid=6d1471f8-bce9-466e-a589-4a37d3811250","ios":"levelo://app?vid=6d1471f8-bce9-466e-a589-4a37d3811250"},"vehicle_type_id":"4","last_reported":1703700504,"current_range_meters":18400,"station_id":"ce4bhr12rcd13ifvqhqg","pricing_plan_id":"free"},{"bike_id":"b80d7642-fe96-4085-a572-f27716682acd","system_id":"levelo_inurba_marseille","lat":43.322872,"lon":5.382756,"is_reserved":false,"is_disabled":false,"rental_uris":{"android":"levelo://app?vid=b80d7642-fe96-4085-a572-f27716682acd","ios":"levelo://app?vid=b80d7642-fe96-4085-a572-f27716682acd"},"vehicle_type_id":"4","last_reported":1703700504,"current_range_meters":18800,"station_id":"ce4bhr12rcd13ifvqhqg","pricing_plan_id":"free"},{"bike_id":"0a0a41d2-3c00-48f6-882d-b27afb73fe78","system_id":"levelo_inurba_marseille","lat":43.322872,"lon":5.382756,"is_reserved":false,"is_disabled":false,"rental_uris":{"android":"levelo://app?vid=0a0a41d2-3c00-48f6-882d-b27afb73fe78","ios":"levelo://app?vid=0a0a41d2-3c00-48f6-882d-b27afb73fe78"},"vehicle_type_id":"4","last_reported":1703700504,"current_range_meters":22800,"station_id":"ce4bhr12rcd13ifvqhqg","pricing_plan_id":"free"},{"bike_id":"903c3764-637f-461b-9b25-27098085bace","system_id":"levelo_inurba_marseille","lat":43.297774,"lon":5.370875,"is_reserved":false,"is_disabled":false,"rental_uris":{"android":"levelo://app?vid=903c3764-637f-461b-9b25-27098085bace","ios":"levelo://app?vid=903c3764-637f-461b-9b25-27098085bace"},"vehicle_type_id":"4","last_reported":1703700504,"current_range_meters":23600,"station_id":"ce4bgop2rcd13ifvqc1g","pricing_plan_id":"free"},{"bike_id":"3270f28d-7b09-46cb-ba43-f40752fc3385","system_id":"levelo_inurba_marseille","lat":43.322872,"lon":5.382756,"is_reserved":false,"is_disabled":false,"rental_uris":{"android":"levelo://app?vid=3270f28d-7b09-46cb-ba43-f40752fc3385","ios":"levelo://app?vid=3270f28d-7b09-46cb-ba43-f40752fc3385"},"vehicle_type_id":"4","last_reported":1703700504,"current_range_meters":31600,"station_id":"ce4bhr12rcd13ifvqhqg","pricing_plan_id":"free"},{"bike_id":"a677cd10-a09b-4b2e-bffd-45b05d2c9229","system_id":"levelo_inurba_marseille","lat":43.32822,"lon":5.36679,"is_reserved":false,"is_disabled":false,"rental_uris":{"android":"levelo://app?vid=a677cd10-a09b-4b2e-bffd-45b05d2c9229","ios":"levelo://app?vid=a677cd10-a09b-4b2e-bffd-45b05d2c9229"},"vehicle_type_id":"4","last_reported":1703700504,"current_range_meters":29200,"station_id":"ce4bhs92rcd13ifvqi0g","pricing_plan_id":"free"},{"bike_id":"1ea82e61-37ea-4b15-a6ef-01d29683b9fd","system_id":"levelo_inurba_marseille","lat":43.32825,"lon":5.36683,"is_reserved":false,"is_disabled":false,"rental_uris":{"android":"levelo://app?vid=1ea82e61-37ea-4b15-a6ef-01d29683b9fd","ios":"levelo://app?vid=1ea82e61-37ea-4b15-a6ef-01d29683b9fd"},"vehicle_type_id":"4","last_reported":1703700504,"current_range_meters":25600,"station_id":"ce4bhs92rcd13ifvqi0g","pricing_plan_id":"free"},{"bike_id":"51714c4a-3132-4951-88ec-80e85fa125e8","system_id":"levelo_inurba_marseille","lat":43.328277,"lon":5.366882,"is_reserved":false,"is_disabled":false,"rental_uris":{"android":"levelo://app?vid=51714c4a-3132-4951-88ec-80e85fa125e8","ios":"levelo://app?vid=51714c4a-3132-4951-88ec-80e85fa125e8"},"vehicle_type_id":"4","last_reported":1703700504,"current_range_meters":23200,"station_id":"ce4bhs92rcd13ifvqi0g","pricing_plan_id":"free"},{"bike_id":"5c89eee7-6e83-42b4-bd81-efdcf68f6666","system_id":"levelo_inurba_marseille","lat":43.32828,"lon":5.36679,"is_reserved":false,"is_disabled":false,"rental_uris":{"android":"levelo://app?vid=5c89eee7-6e83-42b4-bd81-efdcf68f6666","ios":"levelo://app?vid=5c89eee7-6e83-42b4-bd81-efdcf68f6666"},"vehicle_type_id":"4","last_reported":1703700504,"current_range_meters":27200,"station_id":"ce4bhs92rcd13ifvqi0g","pricing_plan_id":"free"},{"bike_id":"a448ca86-2b35-41e1-89c4-32a99bab0563","system_id":"levelo_inurba_marseille","lat":43.328371,"lon":5.366912,"is_reserved":false,"is_disabled":false,"rental_uris":{"android":"levelo://app?vid=a448ca86-2b35-41e1-89c4-32a99bab0563","ios":"levelo://app?vid=a448ca86-2b35-41e1-89c4-32a99bab0563"},"vehicle_type_id":"4","last_reported":1703700504,"current_range_meters":27600,"station_id":"ce4bhs92rcd13ifvqi0g","pricing_plan_id":"free"},{"bike_id":"6f67326a-1664-406f-9978-902e013e2357","system_id":"levelo_inurba_marseille","lat":43.32829,"lon":5.36675,"is_reserved":false,"is_disabled":false,"rental_uris":{"android":"levelo://app?vid=6f67326a-1664-406f-9978-902e013e2357","ios":"levelo://app?vid=6f67326a-1664-406f-9978-902e013e2357"},"vehicle_type_id":"4","last_reported":1703700504,"current_range_meters":27200,"station_id":"ce4bhs92rcd13ifvqi0g","pricing_plan_id":"free"},{"bike_id":"b33e79d7-85bd-413c-801b-bcd1df69d847","system_id":"levelo_inurba_marseille","lat":43.328306,"lon":5.366812,"is_reserved":false,"is_disabled":false,"rental_uris":{"android":"levelo://app?vid=b33e79d7-85bd-413c-801b-bcd1df69d847","ios":"levelo://app?vid=b33e79d7-85bd-413c-801b-bcd1df69d847"},"vehicle_type_id":"4","last_reported":1703700504,"current_range_meters":21200,"station_id":"ce4bhs92rcd13ifvqi0g","pricing_plan_id":"free"},{"bike_id":"de708f00-7118-4d7c-9021-d7dcbd798473","system_id":"levelo_inurba_marseille","lat":43.328371,"lon":5.366909,"is_reserved":false,"is_disabled":false,"rental_uris":{"android":"levelo://app?vid=de708f00-7118-4d7c-9021-d7dcbd798473","ios":"levelo://app?vid=de708f00-7118-4d7c-9021-d7dcbd798473"},"vehicle_type_id":"4","last_reported":1703700504,"current_range_meters":20800,"station_id":"ce4bhs92rcd13ifvqi0g","pricing_plan_id":"free"},{"bike_id":"904f83aa-e9ab-401d-84c1-9edfed82b884","system_id":"levelo_inurba_marseille","lat":43.328371,"lon":5.366909,"is_reserved":false,"is_disabled":false,"rental_uris":{"android":"levelo://app?vid=904f83aa-e9ab-401d-84c1-9edfed82b884","ios":"levelo://app?vid=904f83aa-e9ab-401d-84c1-9edfed82b884"},"vehicle_type_id":"4","last_reported":1703700504,"current_range_meters":14000,"station_id":"ce4bhs92rcd13ifvqi0g","pricing_plan_id":"free"},{"bike_id":"6516e11b-ff9a-4979-b85a-a42584b5c933","system_id":"levelo_inurba_marseille","lat":43.328339,"lon":5.36682,"is_reserved":false,"is_disabled":false,"rental_uris":{"android":"levelo://app?vid=6516e11b-ff9a-4979-b85a-a42584b5c933","ios":"levelo://app?vid=6516e11b-ff9a-4979-b85a-a42584b5c933"},"vehicle_type_id":"4","last_reported":1703700504,"current_range_meters":27600,"station_id":"ce4bhs92rcd13ifvqi0g","pricing_plan_id":"free"},{"bike_id":"ea7074d7-b7c9-4941-82c2-dff391bae9cb","system_id":"levelo_inurba_marseille","lat":43.328347,"lon":5.366855,"is_reserved":false,"is_disabled":false,"rental_uris":{"android":"levelo://app?vid=ea7074d7-b7c9-4941-82c2-dff391bae9cb","ios":"levelo://app?vid=ea7074d7-b7c9-4941-82c2-dff391bae9cb"},"vehicle_type_id":"4","last_reported":1703700504,"current_range_meters":19200,"station_id":"ce4bhs92rcd13ifvqi0g","pricing_plan_id":"free"},{"bike_id":"be72c8fa-57ca-4b39-a06f-106528121e53","system_id":"levelo_inurba_marseille","lat":43.32835,"lon":5.36681,"is_reserved":false,"is_disabled":false,"rental_uris":{"android":"levelo://app?vid=be72c8fa-57ca-4b39-a06f-106528121e53","ios":"levelo://app?vid=be72c8fa-57ca-4b39-a06f-106528121e53"},"vehicle_type_id":"4","last_reported":1703700504,"current_range_meters":4000,"station_id":"ce4bhs92rcd13ifvqi0g","pricing_plan_id":"free"},{"bike_id":"55990f83-657d-46fd-af1a-3d0e908e331c","system_id":"levelo_inurba_marseille","lat":43.297163,"lon":5.365866,"is_reserved":false,"is_disabled":false,"rental_uris":{"android":"levelo://app?vid=55990f83-657d-46fd-af1a-3d0e908e331c","ios":"levelo://app?vid=55990f83-657d-46fd-af1a-3d0e908e331c"},"vehicle_type_id":"4","last_reported":1703700504,"current_range_meters":20800,"station_id":"ce4bgn12rcd13ifvqbt0","pricing_plan_id":"free"},{"bike_id":"ecb381df-dc45-49b5-8ac6-44dc6f443336","system_id":"levelo_inurba_marseille","lat":43.297163,"lon":5.365866,"is_reserved":false,"is_disabled":false,"rental_uris":{"android":"levelo://app?vid=ecb381df-dc45-49b5-8ac6-44dc6f443336","ios":"levelo://app?vid=ecb381df-dc45-49b5-8ac6-44dc6f443336"},"vehicle_type_id":"4","last_reported":1703700504,"current_range_meters":26800,"station_id":"ce4bgn12rcd13ifvqbt0","pricing_plan_id":"free"},{"bike_id":"5c4da61a-4a66-4911-aa14-038a72ab09c9","system_id":"levelo_inurba_marseille","lat":43.297163,"lon":5.365866,"is_reserved":false,"is_disabled":false,"rental_uris":{"android":"levelo://app?vid=5c4da61a-4a66-4911-aa14-038a72ab09c9","ios":"levelo://app?vid=5c4da61a-4a66-4911-aa14-038a72ab09c9"},"vehicle_type_id":"4","last_reported":1703700504,"current_range_meters":20800,"station_id":"ce4bgn12rcd13ifvqbt0","pricing_plan_id":"free"},{"bike_id":"8eab5422-6a0c-4a15-9c16-3d070cd0c789","system_id":"levelo_inurba_marseille","lat":43.2968,"lon":5.37291,"is_reserved":false,"is_disabled":false,"rental_uris":{"android":"levelo://app?vid=8eab5422-6a0c-4a15-9c16-3d070cd0c789","ios":"levelo://app?vid=8eab5422-6a0c-4a15-9c16-3d070cd0c789"},"vehicle_type_id":"4","last_reported":1703700504,"current_range_meters":8400,"station_id":"ce4bgk12rcd13ifvqbj0","pricing_plan_id":"free"},{"bike_id":"921b424d-ad0d-4c7a-9d74-66e3a49bfa19","system_id":"levelo_inurba_marseille","lat":43.32934,"lon":5.36612,"is_reserved":false,"is_disabled":false,"rental_uris":{"android":"levelo://app?vid=921b424d-ad0d-4c7a-9d74-66e3a49bfa19","ios":"levelo://app?vid=921b424d-ad0d-4c7a-9d74-66e3a49bfa19"},"vehicle_type_id":"4","last_reported":1703700504,"current_range_meters":16400,"station_id":"","pricing_plan_id":"free"},{"bike_id":"001bcca9-0be0-4d63-a3b6-fecc928da8f9","system_id":"levelo_inurba_marseille","lat":43.296129,"lon":5.370777,"is_reserved":false,"is_disabled":false,"rental_uris":{"android":"levelo://app?vid=001bcca9-0be0-4d63-a3b6-fecc928da8f9","ios":"levelo://app?vid=001bcca9-0be0-4d63-a3b6-fecc928da8f9"},"vehicle_type_id":"4","last_reported":1703700504,"current_range_meters":15600,"station_id":"ce4bgnh2rcd13ifvqc0g","pricing_plan_id":"free"},{"bike_id":"7793ffed-4a6f-42af-8057-4e94aed7e642","system_id":"levelo_inurba_marseille","lat":43.29573,"lon":5.367355,"is_reserved":false,"is_disabled":false,"rental_uris":{"android":"levelo://app?vid=7793ffed-4a6f-42af-8057-4e94aed7e642","ios":"levelo://app?vid=7793ffed-4a6f-42af-8057-4e94aed7e642"},"vehicle_type_id":"4","last_reported":1703700504,"current_range_meters":22000,"station_id":"ce4bgph2rcd13ifvqc2g","pricing_plan_id":"free"},{"bike_id":"0e430842-7e03-45ae-8780-09084280d5b8","system_id":"levelo_inurba_marseille","lat":43.30951,"lon":5.39025,"is_reserved":false,"is_disabled":false,"rental_uris":{"android":"levelo://app?vid=0e430842-7e03-45ae-8780-09084280d5b8","ios":"levelo://app?vid=0e430842-7e03-45ae-8780-09084280d5b8"},"vehicle_type_id":"4","last_reported":1703700504,"current_range_meters":14800,"station_id":"ce4bgup2rcd13ifvqco0","pricing_plan_id":"free"},{"bike_id":"acd46654-2f87-4026-85cc-38df3446ee4a","system_id":"levelo_inurba_marseille","lat":43.309589,"lon":5.390258,"is_reserved":false,"is_disabled":false,"rental_uris":{"android":"levelo://app?vid=acd46654-2f87-4026-85cc-38df3446ee4a","ios":"levelo://app?vid=acd46654-2f87-4026-85cc-38df3446ee4a"},"vehicle_type_id":"4","last_reported":1703700504,"current_range_meters":27200,"station_id":"ce4bgup2rcd13ifvqco0","pricing_plan_id":"free"},{"bike_id":"32f31a92-7a4c-4926-8b32-388168dff93a","system_id":"levelo_inurba_marseille","lat":43.295748,"lon":5.37522,"is_reserved":false,"is_disabled":false,"rental_uris":{"android":"levelo://app?vid=32f31a92-7a4c-4926-8b32-388168dff93a","ios":"levelo://app?vid=32f31a92-7a4c-4926-8b32-388168dff93a"},"vehicle_type_id":"4","last_reported":1703700504,"current_range_meters":4000,"station_id":"ce4bgh92rcd13ifvqb50","pricing_plan_id":"free"},{"bike_id":"9ba19c62-038b-4cc0-826a-8f9d1dddcc0b","system_id":"levelo_inurba_marseille","lat":43.298037,"lon":5.381066,"is_reserved":false,"is_disabled":false,"rental_uris":{"android":"levelo://app?vid=9ba19c62-038b-4cc0-826a-8f9d1dddcc0b","ios":"levelo://app?vid=9ba19c62-038b-4cc0-826a-8f9d1dddcc0b"},"vehicle_type_id":"4","last_reported":1703700504,"current_range_meters":25600,"station_id":"ce4bgip2rcd13ifvqbb0","pricing_plan_id":"free"},{"bike_id":"f7d5a09d-6dfa-4fc4-85a6-51084fadd5b5","system_id":"levelo_inurba_marseille","lat":43.299707,"lon":5.384859,"is_reserved":false,"is_disabled":false,"rental_uris":{"android":"levelo://app?vid=f7d5a09d-6dfa-4fc4-85a6-51084fadd5b5","ios":"levelo://app?vid=f7d5a09d-6dfa-4fc4-85a6-51084fadd5b5"},"vehicle_type_id":"4","last_reported":1703700504,"current_range_meters":22800,"station_id":"ce4bgj92rcd13ifvqbd0","pricing_plan_id":"free"},{"bike_id":"4dd64ab0-34ca-4b20-9af7-6624ac9a883f","system_id":"levelo_inurba_marseille","lat":43.295279,"lon":5.375048,"is_reserved":false,"is_disabled":false,"rental_uris":{"android":"levelo://app?vid=4dd64ab0-34ca-4b20-9af7-6624ac9a883f","ios":"levelo://app?vid=4dd64ab0-34ca-4b20-9af7-6624ac9a883f"},"vehicle_type_id":"4","last_reported":1703700504,"current_range_meters":0,"station_id":"ce4bgkp2rcd13ifvqbmg","pricing_plan_id":"free"},{"bike_id":"46338bd6-1e3c-47a8-a1b7-a85ffbde5cb3","system_id":"levelo_inurba_marseille","lat":43.299724,"lon":5.384848,"is_reserved":false,"is_disabled":false,"rental_uris":{"android":"levelo://app?vid=46338bd6-1e3c-47a8-a1b7-a85ffbde5cb3","ios":"levelo://app?vid=46338bd6-1e3c-47a8-a1b7-a85ffbde5cb3"},"vehicle_type_id":"4","last_reported":1703700504,"current_range_meters":23200,"station_id":"ce4bgj92rcd13ifvqbd0","pricing_plan_id":"free"},{"bike_id":"453cf3fe-914f-47d7-bb0b-9e3076dc1b66","system_id":"levelo_inurba_marseille","lat":43.32368,"lon":5.38859,"is_reserved":false,"is_disabled":false,"rental_uris":{"android":"levelo://app?vid=453cf3fe-914f-47d7-bb0b-9e3076dc1b66","ios":"levelo://app?vid=453cf3fe-914f-47d7-bb0b-9e3076dc1b66"},"vehicle_type_id":"4","last_reported":1703700504,"current_range_meters":8400,"station_id":"ce4bhqp2rcd13ifvqhog","pricing_plan_id":"free"},{"bike_id":"edc571ac-79f5-429a-89f8-86fa7ab8f6ba","system_id":"levelo_inurba_marseille","lat":43.32371,"lon":5.38927,"is_reserved":false,"is_disabled":false,"rental_uris":{"android":"levelo://app?vid=edc571ac-79f5-429a-89f8-86fa7ab8f6ba","ios":"levelo://app?vid=edc571ac-79f5-429a-89f8-86fa7ab8f6ba"},"vehicle_type_id":"4","last_reported":1703700504,"current_range_meters":21200,"station_id":"ce4bhqp2rcd13ifvqhog","pricing_plan_id":"free"},{"bike_id":"57a44f6c-6b9e-4327-9c0a-c4abf91ffb8c","system_id":"levelo_inurba_marseille","lat":43.293259,"lon":5.371586,"is_reserved":false,"is_disabled":false,"rental_uris":{"android":"levelo://app?vid=57a44f6c-6b9e-4327-9c0a-c4abf91ffb8c","ios":"levelo://app?vid=57a44f6c-6b9e-4327-9c0a-c4abf91ffb8c"},"vehicle_type_id":"4","last_reported":1703700504,"current_range_meters":25200,"station_id":"ce4bgh92rcd13ifvqb40","pricing_plan_id":"free"},{"bike_id":"b9ddbc22-f162-44d6-a28d-eeb0e7687c58","system_id":"levelo_inurba_marseille","lat":43.292749,"lon":5.368402,"is_reserved":false,"is_disabled":false,"rental_uris":{"android":"levelo://app?vid=b9ddbc22-f162-44d6-a28d-eeb0e7687c58","ios":"levelo://app?vid=b9ddbc22-f162-44d6-a28d-eeb0e7687c58"},"vehicle_type_id":"4","last_reported":1703700504,"current_range_meters":22800,"station_id":"ce4bhbp2rcd13ifvqesg","pricing_plan_id":"free"},{"bike_id":"8e5a6c23-25a0-4a97-bfd6-1c0b2ba03f38","system_id":"levelo_inurba_marseille","lat":43.305994,"lon":5.393687,"is_reserved":false,"is_disabled":false,"rental_uris":{"android":"levelo://app?vid=8e5a6c23-25a0-4a97-bfd6-1c0b2ba03f38","ios":"levelo://app?vid=8e5a6c23-25a0-4a97-bfd6-1c0b2ba03f38"},"vehicle_type_id":"4","last_reported":1703700504,"current_range_meters":25200,"station_id":"ce4bh0p2rcd13ifvqd80","pricing_plan_id":"free"},{"bike_id":"d72a1b18-c18e-4652-99a1-82a1218ab9f1","system_id":"levelo_inurba_marseille","lat":43.303002,"lon":5.392142,"is_reserved":false,"is_disabled":false,"rental_uris":{"android":"levelo://app?vid=d72a1b18-c18e-4652-99a1-82a1218ab9f1","ios":"levelo://app?vid=d72a1b18-c18e-4652-99a1-82a1218ab9f1"},"vehicle_type_id":"4","last_reported":1703700504,"current_range_meters":27200,"station_id":"ce4bgkh2rcd13ifvqbk0","pricing_plan_id":"free"},{"bike_id":"76b2dc8d-b6cb-450c-b986-b8c90f7a3c2d","system_id":"levelo_inurba_marseille","lat":43.30085,"lon":5.390856,"is_reserved":false,"is_disabled":false,"rental_uris":{"android":"levelo://app?vid=76b2dc8d-b6cb-450c-b986-b8c90f7a3c2d","ios":"levelo://app?vid=76b2dc8d-b6cb-450c-b986-b8c90f7a3c2d"},"vehicle_type_id":"4","last_reported":1703700504,"current_range_meters":8000,"station_id":"ce4bh192rcd13ifvqdb0","pricing_plan_id":"free"},{"bike_id":"ba0cc5db-a6d9-4374-b49d-a88ddd2871d1","system_id":"levelo_inurba_marseille","lat":43.30085,"lon":5.390856,"is_reserved":false,"is_disabled":false,"rental_uris":{"android":"levelo://app?vid=ba0cc5db-a6d9-4374-b49d-a88ddd2871d1","ios":"levelo://app?vid=ba0cc5db-a6d9-4374-b49d-a88ddd2871d1"},"vehicle_type_id":"4","last_reported":1703700504,"current_range_meters":26000,"station_id":"ce4bh192rcd13ifvqdb0","pricing_plan_id":"free"},{"bike_id":"f3083e9a-ba1c-4edd-983b-dabab85dee34","system_id":"levelo_inurba_marseille","lat":43.2988,"lon":5.38909,"is_reserved":false,"is_disabled":false,"rental_uris":{"android":"levelo://app?vid=f3083e9a-ba1c-4edd-983b-dabab85dee34","ios":"levelo://app?vid=f3083e9a-ba1c-4edd-983b-dabab85dee34"},"vehicle_type_id":"4","last_reported":1703700504,"current_range_meters":21600,"station_id":"","pricing_plan_id":"free"},{"bike_id":"3638b74a-1caa-4ca1-b48b-1c396d2ec16c","system_id":"levelo_inurba_marseille","lat":43.313291,"lon":5.396838,"is_reserved":false,"is_disabled":false,"rental_uris":{"android":"levelo://app?vid=3638b74a-1caa-4ca1-b48b-1c396d2ec16c","ios":"levelo://app?vid=3638b74a-1caa-4ca1-b48b-1c396d2ec16c"},"vehicle_type_id":"4","last_reported":1703700504,"current_range_meters":12000,"station_id":"ce4bgvp2rcd13ifvqcu0","pricing_plan_id":"free"},{"bike_id":"34bccc16-38a2-446c-9843-987386085215","system_id":"levelo_inurba_marseille","lat":43.313291,"lon":5.396838,"is_reserved":false,"is_disabled":false,"rental_uris":{"android":"levelo://app?vid=34bccc16-38a2-446c-9843-987386085215","ios":"levelo://app?vid=34bccc16-38a2-446c-9843-987386085215"},"vehicle_type_id":"4","last_reported":1703700504,"current_range_meters":12800,"station_id":"ce4bgvp2rcd13ifvqcu0","pricing_plan_id":"free"},{"bike_id":"9259255d-5fda-4d03-9814-c2d65e12bb51","system_id":"levelo_inurba_marseille","lat":43.30891,"lon":5.39645,"is_reserved":false,"is_disabled":false,"rental_uris":{"android":"levelo://app?vid=9259255d-5fda-4d03-9814-c2d65e12bb51","ios":"levelo://app?vid=9259255d-5fda-4d03-9814-c2d65e12bb51"},"vehicle_type_id":"4","last_reported":1703700504,"current_range_meters":18800,"station_id":"ce4bh012rcd13ifvqcv0","pricing_plan_id":"free"},{"bike_id":"112da1fe-586a-46ed-973b-78e71111aaac","system_id":"levelo_inurba_marseille","lat":43.313291,"lon":5.396838,"is_reserved":false,"is_disabled":false,"rental_uris":{"android":"levelo://app?vid=112da1fe-586a-46ed-973b-78e71111aaac","ios":"levelo://app?vid=112da1fe-586a-46ed-973b-78e71111aaac"},"vehicle_type_id":"4","last_reported":1703700504,"current_range_meters":14400,"station_id":"ce4bgvp2rcd13ifvqcu0","pricing_plan_id":"free"},{"bike_id":"63289ca7-009b-4084-b0d0-7d20927ff547","system_id":"levelo_inurba_marseille","lat":43.313291,"lon":5.396838,"is_reserved":false,"is_disabled":false,"rental_uris":{"android":"levelo://app?vid=63289ca7-009b-4084-b0d0-7d20927ff547","ios":"levelo://app?vid=63289ca7-009b-4084-b0d0-7d20927ff547"},"vehicle_type_id":"4","last_reported":1703700504,"current_range_meters":28800,"station_id":"ce4bgvp2rcd13ifvqcu0","pricing_plan_id":"free"},{"bike_id":"521e7d95-69af-4ef7-9693-a65cd4631573","system_id":"levelo_inurba_marseille","lat":43.309038,"lon":5.396546,"is_reserved":false,"is_disabled":false,"rental_uris":{"android":"levelo://app?vid=521e7d95-69af-4ef7-9693-a65cd4631573","ios":"levelo://app?vid=521e7d95-69af-4ef7-9693-a65cd4631573"},"vehicle_type_id":"4","last_reported":1703700504,"current_range_meters":31200,"station_id":"ce4bh012rcd13ifvqcv0","pricing_plan_id":"free"},{"bike_id":"8658ef6f-32ee-4aa6-8a3c-9e4140d64bd6","system_id":"levelo_inurba_marseille","lat":43.313291,"lon":5.396838,"is_reserved":false,"is_disabled":false,"rental_uris":{"android":"levelo://app?vid=8658ef6f-32ee-4aa6-8a3c-9e4140d64bd6","ios":"levelo://app?vid=8658ef6f-32ee-4aa6-8a3c-9e4140d64bd6"},"vehicle_type_id":"4","last_reported":1703700504,"current_range_meters":11600,"station_id":"ce4bgvp2rcd13ifvqcu0","pricing_plan_id":"free"},{"bike_id":"1655b3f6-739b-4bda-bea9-43d350764295","system_id":"levelo_inurba_marseille","lat":43.309038,"lon":5.396546,"is_reserved":false,"is_disabled":false,"rental_uris":{"android":"levelo://app?vid=1655b3f6-739b-4bda-bea9-43d350764295","ios":"levelo://app?vid=1655b3f6-739b-4bda-bea9-43d350764295"},"vehicle_type_id":"4","last_reported":1703700504,"current_range_meters":18000,"station_id":"ce4bh012rcd13ifvqcv0","pricing_plan_id":"free"},{"bike_id":"5e380dff-385e-49c4-884e-a2f67a5462b6","system_id":"levelo_inurba_marseille","lat":43.309038,"lon":5.396546,"is_reserved":false,"is_disabled":false,"rental_uris":{"android":"levelo://app?vid=5e380dff-385e-49c4-884e-a2f67a5462b6","ios":"levelo://app?vid=5e380dff-385e-49c4-884e-a2f67a5462b6"},"vehicle_type_id":"4","last_reported":1703700504,"current_range_meters":10400,"station_id":"ce4bh012rcd13ifvqcv0","pricing_plan_id":"free"},{"bike_id":"bececbb2-f7b3-4dab-9188-3a4401906e83","system_id":"levelo_inurba_marseille","lat":43.309038,"lon":5.396546,"is_reserved":false,"is_disabled":false,"rental_uris":{"android":"levelo://app?vid=bececbb2-f7b3-4dab-9188-3a4401906e83","ios":"levelo://app?vid=bececbb2-f7b3-4dab-9188-3a4401906e83"},"vehicle_type_id":"4","last_reported":1703700504,"current_range_meters":18800,"station_id":"ce4bh012rcd13ifvqcv0","pricing_plan_id":"free"},{"bike_id":"5efd3574-baa2-481f-97dc-7238c3062c8b","system_id":"levelo_inurba_marseille","lat":43.29529,"lon":5.385581,"is_reserved":false,"is_disabled":false,"rental_uris":{"android":"levelo://app?vid=5efd3574-baa2-481f-97dc-7238c3062c8b","ios":"levelo://app?vid=5efd3574-baa2-481f-97dc-7238c3062c8b"},"vehicle_type_id":"4","last_reported":1703700504,"current_range_meters":25600,"station_id":"ce4bgih2rcd13ifvqba0","pricing_plan_id":"free"},{"bike_id":"52ea80c6-526f-439b-b959-ec585d177d84","system_id":"levelo_inurba_marseille","lat":43.29529,"lon":5.385581,"is_reserved":false,"is_disabled":false,"rental_uris":{"android":"levelo://app?vid=52ea80c6-526f-439b-b959-ec585d177d84","ios":"levelo://app?vid=52ea80c6-526f-439b-b959-ec585d177d84"},"vehicle_type_id":"4","last_reported":1703700504,"current_range_meters":17600,"station_id":"ce4bgih2rcd13ifvqba0","pricing_plan_id":"free"},{"bike_id":"57e9791f-a6df-4848-a1d2-106e904458b5","system_id":"levelo_inurba_marseille","lat":43.302183,"lon":5.394829,"is_reserved":false,"is_disabled":false,"rental_uris":{"android":"levelo://app?vid=57e9791f-a6df-4848-a1d2-106e904458b5","ios":"levelo://app?vid=57e9791f-a6df-4848-a1d2-106e904458b5"},"vehicle_type_id":"4","last_reported":1703700504,"current_range_meters":1600,"station_id":"ce4bh0p2rcd13ifvqd70","pricing_plan_id":"free"},{"bike_id":"185ec4c3-0ac3-43e0-944f-be8b1d6ea95c","system_id":"levelo_inurba_marseille","lat":43.294162,"lon":5.386292,"is_reserved":false,"is_disabled":false,"rental_uris":{"android":"levelo://app?vid=185ec4c3-0ac3-43e0-944f-be8b1d6ea95c","ios":"levelo://app?vid=185ec4c3-0ac3-43e0-944f-be8b1d6ea95c"},"vehicle_type_id":"4","last_reported":1703700504,"current_range_meters":14400,"station_id":"ce4bh2h2rcd13ifvqdh0","pricing_plan_id":"free"},{"bike_id":"f237a5bb-354b-4f1c-98dc-ec62481a4eae","system_id":"levelo_inurba_marseille","lat":43.290327,"lon":5.375711,"is_reserved":false,"is_disabled":false,"rental_uris":{"android":"levelo://app?vid=f237a5bb-354b-4f1c-98dc-ec62481a4eae","ios":"levelo://app?vid=f237a5bb-354b-4f1c-98dc-ec62481a4eae"},"vehicle_type_id":"4","last_reported":1703700504,"current_range_meters":26800,"station_id":"ce4bh692rcd13ifvqe90","pricing_plan_id":"free"},{"bike_id":"6baacb77-1a0a-48f7-9778-7ea30268c4c2","system_id":"levelo_inurba_marseille","lat":43.289184,"lon":5.366408,"is_reserved":false,"is_disabled":false,"rental_uris":{"android":"levelo://app?vid=6baacb77-1a0a-48f7-9778-7ea30268c4c2","ios":"levelo://app?vid=6baacb77-1a0a-48f7-9778-7ea30268c4c2"},"vehicle_type_id":"4","last_reported":1703700504,"current_range_meters":25200,"station_id":"ce4bhap2rcd13ifvqek0","pricing_plan_id":"free"},{"bike_id":"7050f572-d064-40a3-9ec0-2740371fff5a","system_id":"levelo_inurba_marseille","lat":43.290327,"lon":5.375711,"is_reserved":false,"is_disabled":false,"rental_uris":{"android":"levelo://app?vid=7050f572-d064-40a3-9ec0-2740371fff5a","ios":"levelo://app?vid=7050f572-d064-40a3-9ec0-2740371fff5a"},"vehicle_type_id":"4","last_reported":1703700504,"current_range_meters":31600,"station_id":"ce4bh692rcd13ifvqe90","pricing_plan_id":"free"},{"bike_id":"e8f1f613-d242-401e-adc9-97d118875e19","system_id":"levelo_inurba_marseille","lat":43.290327,"lon":5.375711,"is_reserved":false,"is_disabled":false,"rental_uris":{"android":"levelo://app?vid=e8f1f613-d242-401e-adc9-97d118875e19","ios":"levelo://app?vid=e8f1f613-d242-401e-adc9-97d118875e19"},"vehicle_type_id":"4","last_reported":1703700504,"current_range_meters":4000,"station_id":"ce4bh692rcd13ifvqe90","pricing_plan_id":"free"},{"bike_id":"e77058d6-65a5-494e-9b77-2599359e6bb1","system_id":"levelo_inurba_marseille","lat":43.289468,"lon":5.363719,"is_reserved":false,"is_disabled":false,"rental_uris":{"android":"levelo://app?vid=e77058d6-65a5-494e-9b77-2599359e6bb1","ios":"levelo://app?vid=e77058d6-65a5-494e-9b77-2599359e6bb1"},"vehicle_type_id":"4","last_reported":1703700504,"current_range_meters":18000,"station_id":"ce4bhc92rcd13ifvqetg","pricing_plan_id":"free"},{"bike_id":"e1c5e337-9e53-41ee-8c10-fb31bc73ea42","system_id":"levelo_inurba_marseille","lat":43.2894,"lon":5.3641,"is_reserved":false,"is_disabled":false,"rental_uris":{"android":"levelo://app?vid=e1c5e337-9e53-41ee-8c10-fb31bc73ea42","ios":"levelo://app?vid=e1c5e337-9e53-41ee-8c10-fb31bc73ea42"},"vehicle_type_id":"4","last_reported":1703700504,"current_range_meters":0,"station_id":"ce4bhc92rcd13ifvqetg","pricing_plan_id":"free"},{"bike_id":"676f924f-beab-47c0-a993-1bf61f8a60fe","system_id":"levelo_inurba_marseille","lat":43.2927,"lon":5.38442,"is_reserved":false,"is_disabled":false,"rental_uris":{"android":"levelo://app?vid=676f924f-beab-47c0-a993-1bf61f8a60fe","ios":"levelo://app?vid=676f924f-beab-47c0-a993-1bf61f8a60fe"},"vehicle_type_id":"4","last_reported":1703700504,"current_range_meters":18000,"station_id":"ce4bh692rcd13ifvqea0","pricing_plan_id":"free"},{"bike_id":"502a9fd3-a299-437c-829c-ba89d9f9ca07","system_id":"levelo_inurba_marseille","lat":43.29264,"lon":5.38439,"is_reserved":false,"is_disabled":false,"rental_uris":{"android":"levelo://app?vid=502a9fd3-a299-437c-829c-ba89d9f9ca07","ios":"levelo://app?vid=502a9fd3-a299-437c-829c-ba89d9f9ca07"},"vehicle_type_id":"4","last_reported":1703700504,"current_range_meters":0,"station_id":"ce4bh692rcd13ifvqea0","pricing_plan_id":"free"},{"bike_id":"7c57a884-cdc3-4042-b4f8-63bfdbf2e4d0","system_id":"levelo_inurba_marseille","lat":43.30429,"lon":5.39748,"is_reserved":false,"is_disabled":false,"rental_uris":{"android":"levelo://app?vid=7c57a884-cdc3-4042-b4f8-63bfdbf2e4d0","ios":"levelo://app?vid=7c57a884-cdc3-4042-b4f8-63bfdbf2e4d0"},"vehicle_type_id":"4","last_reported":1703700504,"current_range_meters":12800,"station_id":"ce4bh092rcd13ifvqd20","pricing_plan_id":"free"},{"bike_id":"ba9ff484-22c9-4de9-9832-2d07c68350a3","system_id":"levelo_inurba_marseille","lat":43.292628,"lon":5.384444,"is_reserved":false,"is_disabled":false,"rental_uris":{"android":"levelo://app?vid=ba9ff484-22c9-4de9-9832-2d07c68350a3","ios":"levelo://app?vid=ba9ff484-22c9-4de9-9832-2d07c68350a3"},"vehicle_type_id":"4","last_reported":1703700504,"current_range_meters":6000,"station_id":"ce4bh3p2rcd13ifvqdq0","pricing_plan_id":"free"},{"bike_id":"d0cdb231-25a4-4a80-8ba4-e3844dd22989","system_id":"levelo_inurba_marseille","lat":43.29257,"lon":5.38433,"is_reserved":false,"is_disabled":false,"rental_uris":{"android":"levelo://app?vid=d0cdb231-25a4-4a80-8ba4-e3844dd22989","ios":"levelo://app?vid=d0cdb231-25a4-4a80-8ba4-e3844dd22989"},"vehicle_type_id":"4","last_reported":1703700504,"current_range_meters":24800,"station_id":"ce4bh692rcd13ifvqea0","pricing_plan_id":"free"},{"bike_id":"1c02557e-a008-4238-94d4-bcf443e8ac10","system_id":"levelo_inurba_marseille","lat":43.292644,"lon":5.384257,"is_reserved":false,"is_disabled":false,"rental_uris":{"android":"levelo://app?vid=1c02557e-a008-4238-94d4-bcf443e8ac10","ios":"levelo://app?vid=1c02557e-a008-4238-94d4-bcf443e8ac10"},"vehicle_type_id":"4","last_reported":1703700504,"current_range_meters":18400,"station_id":"ce4bh692rcd13ifvqea0","pricing_plan_id":"free"},{"bike_id":"787efe3d-9cd2-4623-9f2f-04afcfb4c8fc","system_id":"levelo_inurba_marseille","lat":43.290103,"lon":5.356114,"is_reserved":false,"is_disabled":false,"rental_uris":{"android":"levelo://app?vid=787efe3d-9cd2-4623-9f2f-04afcfb4c8fc","ios":"levelo://app?vid=787efe3d-9cd2-4623-9f2f-04afcfb4c8fc"},"vehicle_type_id":"4","last_reported":1703700504,"current_range_meters":20400,"station_id":"ce4bhb92rcd13ifvqen0","pricing_plan_id":"free"},{"bike_id":"797f6fa8-970f-4f51-ae14-9fa58f2249ee","system_id":"levelo_inurba_marseille","lat":43.290104,"lon":5.356111,"is_reserved":false,"is_disabled":false,"rental_uris":{"android":"levelo://app?vid=797f6fa8-970f-4f51-ae14-9fa58f2249ee","ios":"levelo://app?vid=797f6fa8-970f-4f51-ae14-9fa58f2249ee"},"vehicle_type_id":"4","last_reported":1703700504,"current_range_meters":14800,"station_id":"ce4bhb92rcd13ifvqen0","pricing_plan_id":"free"},{"bike_id":"847d96c1-76ce-4f5c-876d-d30c079c16b4","system_id":"levelo_inurba_marseille","lat":43.290103,"lon":5.356114,"is_reserved":false,"is_disabled":false,"rental_uris":{"android":"levelo://app?vid=847d96c1-76ce-4f5c-876d-d30c079c16b4","ios":"levelo://app?vid=847d96c1-76ce-4f5c-876d-d30c079c16b4"},"vehicle_type_id":"4","last_reported":1703700504,"current_range_meters":29200,"station_id":"ce4bhb92rcd13ifvqen0","pricing_plan_id":"free"},{"bike_id":"495faf64-a935-4c6e-b77f-2b296d14493a","system_id":"levelo_inurba_marseille","lat":43.331017,"lon":5.389194,"is_reserved":false,"is_disabled":false,"rental_uris":{"android":"levelo://app?vid=495faf64-a935-4c6e-b77f-2b296d14493a","ios":"levelo://app?vid=495faf64-a935-4c6e-b77f-2b296d14493a"},"vehicle_type_id":"4","last_reported":1703700504,"current_range_meters":15600,"station_id":"","pricing_plan_id":"free"},{"bike_id":"9bd27428-3b4b-449d-beff-46f780a43010","system_id":"levelo_inurba_marseille","lat":43.295169,"lon":5.390426,"is_reserved":false,"is_disabled":false,"rental_uris":{"android":"levelo://app?vid=9bd27428-3b4b-449d-beff-46f780a43010","ios":"levelo://app?vid=9bd27428-3b4b-449d-beff-46f780a43010"},"vehicle_type_id":"4","last_reported":1703700504,"current_range_meters":12000,"station_id":"ce4bh3p2rcd13ifvqdp0","pricing_plan_id":"free"},{"bike_id":"0d5a01e3-7c59-4046-ba59-239bb0b5b6dd","system_id":"levelo_inurba_marseille","lat":43.295169,"lon":5.390426,"is_reserved":false,"is_disabled":false,"rental_uris":{"android":"levelo://app?vid=0d5a01e3-7c59-4046-ba59-239bb0b5b6dd","ios":"levelo://app?vid=0d5a01e3-7c59-4046-ba59-239bb0b5b6dd"},"vehicle_type_id":"4","last_reported":1703700504,"current_range_meters":22400,"station_id":"ce4bh3p2rcd13ifvqdp0","pricing_plan_id":"free"},{"bike_id":"ca13b9d4-b4b9-4599-b62c-35f970a8ea9c","system_id":"levelo_inurba_marseille","lat":43.295169,"lon":5.390426,"is_reserved":false,"is_disabled":false,"rental_uris":{"android":"levelo://app?vid=ca13b9d4-b4b9-4599-b62c-35f970a8ea9c","ios":"levelo://app?vid=ca13b9d4-b4b9-4599-b62c-35f970a8ea9c"},"vehicle_type_id":"4","last_reported":1703700504,"current_range_meters":0,"station_id":"ce4bh3p2rcd13ifvqdp0","pricing_plan_id":"free"},{"bike_id":"da82727f-5090-4dcc-9a39-e49701b0afae","system_id":"levelo_inurba_marseille","lat":43.330442,"lon":5.389148,"is_reserved":false,"is_disabled":false,"rental_uris":{"android":"levelo://app?vid=da82727f-5090-4dcc-9a39-e49701b0afae","ios":"levelo://app?vid=da82727f-5090-4dcc-9a39-e49701b0afae"},"vehicle_type_id":"4","last_reported":1703700504,"current_range_meters":17600,"station_id":"ce4bhr92rcd13ifvqhrg","pricing_plan_id":"free"},{"bike_id":"469e8840-6743-4691-9d74-e5171534955a","system_id":"levelo_inurba_marseille","lat":43.330442,"lon":5.389148,"is_reserved":false,"is_disabled":false,"rental_uris":{"android":"levelo://app?vid=469e8840-6743-4691-9d74-e5171534955a","ios":"levelo://app?vid=469e8840-6743-4691-9d74-e5171534955a"},"vehicle_type_id":"4","last_reported":1703700504,"current_range_meters":21200,"station_id":"ce4bhr92rcd13ifvqhrg","pricing_plan_id":"free"},{"bike_id":"837e4840-f9f0-42f2-896f-fa90e31fab8a","system_id":"levelo_inurba_marseille","lat":43.330442,"lon":5.389148,"is_reserved":false,"is_disabled":false,"rental_uris":{"android":"levelo://app?vid=837e4840-f9f0-42f2-896f-fa90e31fab8a","ios":"levelo://app?vid=837e4840-f9f0-42f2-896f-fa90e31fab8a"},"vehicle_type_id":"4","last_reported":1703700504,"current_range_meters":25600,"station_id":"ce4bhr92rcd13ifvqhrg","pricing_plan_id":"free"},{"bike_id":"dd4a0017-9abf-4e41-9047-e8902a455822","system_id":"levelo_inurba_marseille","lat":43.295169,"lon":5.390426,"is_reserved":false,"is_disabled":false,"rental_uris":{"android":"levelo://app?vid=dd4a0017-9abf-4e41-9047-e8902a455822","ios":"levelo://app?vid=dd4a0017-9abf-4e41-9047-e8902a455822"},"vehicle_type_id":"4","last_reported":1703700504,"current_range_meters":18000,"station_id":"ce4bh3p2rcd13ifvqdp0","pricing_plan_id":"free"},{"bike_id":"370cccf7-c9ba-46c2-819b-c8e8cacc4c21","system_id":"levelo_inurba_marseille","lat":43.33145,"lon":5.3893,"is_reserved":false,"is_disabled":false,"rental_uris":{"android":"levelo://app?vid=370cccf7-c9ba-46c2-819b-c8e8cacc4c21","ios":"levelo://app?vid=370cccf7-c9ba-46c2-819b-c8e8cacc4c21"},"vehicle_type_id":"4","last_reported":1703700504,"current_range_meters":18000,"station_id":"","pricing_plan_id":"free"},{"bike_id":"40e9356e-584a-486e-8c1c-53048506797d","system_id":"levelo_inurba_marseille","lat":43.2901,"lon":5.381269,"is_reserved":false,"is_disabled":false,"rental_uris":{"android":"levelo://app?vid=40e9356e-584a-486e-8c1c-53048506797d","ios":"levelo://app?vid=40e9356e-584a-486e-8c1c-53048506797d"},"vehicle_type_id":"4","last_reported":1703700504,"current_range_meters":800,"station_id":"ce4bh4p2rcd13ifvqe1g","pricing_plan_id":"free"},{"bike_id":"8f322c86-e350-4d86-808d-6391c6082b07","system_id":"levelo_inurba_marseille","lat":43.2901,"lon":5.381269,"is_reserved":false,"is_disabled":false,"rental_uris":{"android":"levelo://app?vid=8f322c86-e350-4d86-808d-6391c6082b07","ios":"levelo://app?vid=8f322c86-e350-4d86-808d-6391c6082b07"},"vehicle_type_id":"4","last_reported":1703700504,"current_range_meters":18000,"station_id":"ce4bh4p2rcd13ifvqe1g","pricing_plan_id":"free"},{"bike_id":"987a2be9-a5b5-405b-9ccb-2a560f4702e7","system_id":"levelo_inurba_marseille","lat":43.28856,"lon":5.358371,"is_reserved":false,"is_disabled":false,"rental_uris":{"android":"levelo://app?vid=987a2be9-a5b5-405b-9ccb-2a560f4702e7","ios":"levelo://app?vid=987a2be9-a5b5-405b-9ccb-2a560f4702e7"},"vehicle_type_id":"4","last_reported":1703700504,"current_range_meters":24400,"station_id":"ce4bhb12rcd13ifvqem0","pricing_plan_id":"free"},{"bike_id":"651060ba-fa4e-430a-9476-94a8c36ace17","system_id":"levelo_inurba_marseille","lat":43.288506,"lon":5.358581,"is_reserved":false,"is_disabled":false,"rental_uris":{"android":"levelo://app?vid=651060ba-fa4e-430a-9476-94a8c36ace17","ios":"levelo://app?vid=651060ba-fa4e-430a-9476-94a8c36ace17"},"vehicle_type_id":"4","last_reported":1703700504,"current_range_meters":0,"station_id":"ce4bhb12rcd13ifvqem0","pricing_plan_id":"free"},{"bike_id":"a12c73af-5e25-4daf-8f3a-172002907596","system_id":"levelo_inurba_marseille","lat":43.288512,"lon":5.358466,"is_reserved":false,"is_disabled":false,"rental_uris":{"android":"levelo://app?vid=a12c73af-5e25-4daf-8f3a-172002907596","ios":"levelo://app?vid=a12c73af-5e25-4daf-8f3a-172002907596"},"vehicle_type_id":"4","last_reported":1703700504,"current_range_meters":29200,"station_id":"ce4bhb12rcd13ifvqem0","pricing_plan_id":"free"},{"bike_id":"d7c6f8ab-4202-484a-8e1b-9034209ce78d","system_id":"levelo_inurba_marseille","lat":43.28847,"lon":5.35846,"is_reserved":false,"is_disabled":false,"rental_uris":{"android":"levelo://app?vid=d7c6f8ab-4202-484a-8e1b-9034209ce78d","ios":"levelo://app?vid=d7c6f8ab-4202-484a-8e1b-9034209ce78d"},"vehicle_type_id":"4","last_reported":1703700504,"current_range_meters":20000,"station_id":"ce4bhb12rcd13ifvqem0","pricing_plan_id":"free"},{"bike_id":"05bff1a9-f254-4b09-af97-f04170f4be1e","system_id":"levelo_inurba_marseille","lat":43.28856,"lon":5.358371,"is_reserved":false,"is_disabled":false,"rental_uris":{"android":"levelo://app?vid=05bff1a9-f254-4b09-af97-f04170f4be1e","ios":"levelo://app?vid=05bff1a9-f254-4b09-af97-f04170f4be1e"},"vehicle_type_id":"4","last_reported":1703700504,"current_range_meters":30400,"station_id":"ce4bhb12rcd13ifvqem0","pricing_plan_id":"free"},{"bike_id":"441fdcfa-e45d-419d-9e47-640606c331d0","system_id":"levelo_inurba_marseille","lat":43.309371,"lon":5.401449,"is_reserved":false,"is_disabled":false,"rental_uris":{"android":"levelo://app?vid=441fdcfa-e45d-419d-9e47-640606c331d0","ios":"levelo://app?vid=441fdcfa-e45d-419d-9e47-640606c331d0"},"vehicle_type_id":"4","last_reported":1703700504,"current_range_meters":24000,"station_id":"ce4bgvp2rcd13ifvqct0","pricing_plan_id":"free"},{"bike_id":"9dc54f39-5c37-4280-9f70-7d5c4eb90bf4","system_id":"levelo_inurba_marseille","lat":43.309371,"lon":5.401449,"is_reserved":false,"is_disabled":false,"rental_uris":{"android":"levelo://app?vid=9dc54f39-5c37-4280-9f70-7d5c4eb90bf4","ios":"levelo://app?vid=9dc54f39-5c37-4280-9f70-7d5c4eb90bf4"},"vehicle_type_id":"4","last_reported":1703700504,"current_range_meters":17200,"station_id":"ce4bgvp2rcd13ifvqct0","pricing_plan_id":"free"},{"bike_id":"f1ef3732-4e91-409c-8fb9-7da75b47bdc9","system_id":"levelo_inurba_marseille","lat":43.33751,"lon":5.37442,"is_reserved":false,"is_disabled":false,"rental_uris":{"android":"levelo://app?vid=f1ef3732-4e91-409c-8fb9-7da75b47bdc9","ios":"levelo://app?vid=f1ef3732-4e91-409c-8fb9-7da75b47bdc9"},"vehicle_type_id":"4","last_reported":1703700504,"current_range_meters":30400,"station_id":"","pricing_plan_id":"free"},{"bike_id":"f9fb4047-bb87-40c2-8a6f-8fa489e9e1b3","system_id":"levelo_inurba_marseille","lat":43.337525,"lon":5.374328,"is_reserved":false,"is_disabled":false,"rental_uris":{"android":"levelo://app?vid=f9fb4047-bb87-40c2-8a6f-8fa489e9e1b3","ios":"levelo://app?vid=f9fb4047-bb87-40c2-8a6f-8fa489e9e1b3"},"vehicle_type_id":"4","last_reported":1703700504,"current_range_meters":27200,"station_id":"","pricing_plan_id":"free"},{"bike_id":"6d41b425-3215-44e4-927d-b157abe36e73","system_id":"levelo_inurba_marseille","lat":43.33759,"lon":5.37423,"is_reserved":false,"is_disabled":false,"rental_uris":{"android":"levelo://app?vid=6d41b425-3215-44e4-927d-b157abe36e73","ios":"levelo://app?vid=6d41b425-3215-44e4-927d-b157abe36e73"},"vehicle_type_id":"4","last_reported":1703700504,"current_range_meters":26800,"station_id":"","pricing_plan_id":"free"},{"bike_id":"d9a766c5-d5c1-4062-b65d-782ed0d7cf7b","system_id":"levelo_inurba_marseille","lat":43.337553,"lon":5.37462,"is_reserved":false,"is_disabled":false,"rental_uris":{"android":"levelo://app?vid=d9a766c5-d5c1-4062-b65d-782ed0d7cf7b","ios":"levelo://app?vid=d9a766c5-d5c1-4062-b65d-782ed0d7cf7b"},"vehicle_type_id":"4","last_reported":1703700504,"current_range_meters":22000,"station_id":"","pricing_plan_id":"free"},{"bike_id":"dff46759-2bce-459f-83ab-b34702e6efa5","system_id":"levelo_inurba_marseille","lat":43.33771,"lon":5.374265,"is_reserved":false,"is_disabled":false,"rental_uris":{"android":"levelo://app?vid=dff46759-2bce-459f-83ab-b34702e6efa5","ios":"levelo://app?vid=dff46759-2bce-459f-83ab-b34702e6efa5"},"vehicle_type_id":"4","last_reported":1703700504,"current_range_meters":28400,"station_id":"","pricing_plan_id":"free"},{"bike_id":"77a08294-4618-44a2-ae58-be3eafc9303b","system_id":"levelo_inurba_marseille","lat":43.30642,"lon":5.401031,"is_reserved":false,"is_disabled":false,"rental_uris":{"android":"levelo://app?vid=77a08294-4618-44a2-ae58-be3eafc9303b","ios":"levelo://app?vid=77a08294-4618-44a2-ae58-be3eafc9303b"},"vehicle_type_id":"4","last_reported":1703700504,"current_range_meters":8800,"station_id":"ce4bh112rcd13ifvqda0","pricing_plan_id":"free"},{"bike_id":"8377a6ff-7967-4ee3-9bea-c05beea571bc","system_id":"levelo_inurba_marseille","lat":43.30642,"lon":5.401031,"is_reserved":false,"is_disabled":false,"rental_uris":{"android":"levelo://app?vid=8377a6ff-7967-4ee3-9bea-c05beea571bc","ios":"levelo://app?vid=8377a6ff-7967-4ee3-9bea-c05beea571bc"},"vehicle_type_id":"4","last_reported":1703700504,"current_range_meters":24000,"station_id":"ce4bh112rcd13ifvqda0","pricing_plan_id":"free"},{"bike_id":"37aadac9-9e46-49e3-8946-21bb28f23692","system_id":"levelo_inurba_marseille","lat":43.301117,"lon":5.398795,"is_reserved":false,"is_disabled":false,"rental_uris":{"android":"levelo://app?vid=37aadac9-9e46-49e3-8946-21bb28f23692","ios":"levelo://app?vid=37aadac9-9e46-49e3-8946-21bb28f23692"},"vehicle_type_id":"4","last_reported":1703700504,"current_range_meters":14000,"station_id":"ce4bh0h2rcd13ifvqd40","pricing_plan_id":"free"},{"bike_id":"010304c4-ba44-4fd6-beaa-1ff0e2e0c664","system_id":"levelo_inurba_marseille","lat":43.301117,"lon":5.398795,"is_reserved":false,"is_disabled":false,"rental_uris":{"android":"levelo://app?vid=010304c4-ba44-4fd6-beaa-1ff0e2e0c664","ios":"levelo://app?vid=010304c4-ba44-4fd6-beaa-1ff0e2e0c664"},"vehicle_type_id":"4","last_reported":1703700504,"current_range_meters":24000,"station_id":"ce4bh0h2rcd13ifvqd40","pricing_plan_id":"free"},{"bike_id":"1c7359b6-6c92-45c2-bf8d-ec8860c4860a","system_id":"levelo_inurba_marseille","lat":43.301117,"lon":5.398795,"is_reserved":false,"is_disabled":false,"rental_uris":{"android":"levelo://app?vid=1c7359b6-6c92-45c2-bf8d-ec8860c4860a","ios":"levelo://app?vid=1c7359b6-6c92-45c2-bf8d-ec8860c4860a"},"vehicle_type_id":"4","last_reported":1703700504,"current_range_meters":22000,"station_id":"ce4bh0h2rcd13ifvqd40","pricing_plan_id":"free"},{"bike_id":"2bfbd397-5a7e-4ff0-8296-c4aebc65e578","system_id":"levelo_inurba_marseille","lat":43.301117,"lon":5.398795,"is_reserved":false,"is_disabled":false,"rental_uris":{"android":"levelo://app?vid=2bfbd397-5a7e-4ff0-8296-c4aebc65e578","ios":"levelo://app?vid=2bfbd397-5a7e-4ff0-8296-c4aebc65e578"},"vehicle_type_id":"4","last_reported":1703700504,"current_range_meters":12000,"station_id":"ce4bh0h2rcd13ifvqd40","pricing_plan_id":"free"},{"bike_id":"1ebe3585-3a31-489e-8a39-27762bafd95a","system_id":"levelo_inurba_marseille","lat":43.301117,"lon":5.398795,"is_reserved":false,"is_disabled":false,"rental_uris":{"android":"levelo://app?vid=1ebe3585-3a31-489e-8a39-27762bafd95a","ios":"levelo://app?vid=1ebe3585-3a31-489e-8a39-27762bafd95a"},"vehicle_type_id":"4","last_reported":1703700504,"current_range_meters":0,"station_id":"ce4bh0h2rcd13ifvqd40","pricing_plan_id":"free"},{"bike_id":"24ca5b2f-d6bc-4c11-b806-4f024d93bb07","system_id":"levelo_inurba_marseille","lat":43.301117,"lon":5.398795,"is_reserved":false,"is_disabled":false,"rental_uris":{"android":"levelo://app?vid=24ca5b2f-d6bc-4c11-b806-4f024d93bb07","ios":"levelo://app?vid=24ca5b2f-d6bc-4c11-b806-4f024d93bb07"},"vehicle_type_id":"4","last_reported":1703700504,"current_range_meters":16000,"station_id":"ce4bh0h2rcd13ifvqd40","pricing_plan_id":"free"},{"bike_id":"32b830ac-5c3e-445d-a176-6415962c4b28","system_id":"levelo_inurba_marseille","lat":43.28727,"lon":5.36078,"is_reserved":false,"is_disabled":false,"rental_uris":{"android":"levelo://app?vid=32b830ac-5c3e-445d-a176-6415962c4b28","ios":"levelo://app?vid=32b830ac-5c3e-445d-a176-6415962c4b28"},"vehicle_type_id":"4","last_reported":1703700504,"current_range_meters":25600,"station_id":"cki0cbj6b192h4jlfktg","pricing_plan_id":"free"},{"bike_id":"395b4c6b-2846-48f8-adf3-a7b6e4defa20","system_id":"levelo_inurba_marseille","lat":43.28727,"lon":5.36078,"is_reserved":false,"is_disabled":false,"rental_uris":{"android":"levelo://app?vid=395b4c6b-2846-48f8-adf3-a7b6e4defa20","ios":"levelo://app?vid=395b4c6b-2846-48f8-adf3-a7b6e4defa20"},"vehicle_type_id":"4","last_reported":1703700504,"current_range_meters":30400,"station_id":"cki0cbj6b192h4jlfktg","pricing_plan_id":"free"},{"bike_id":"550a8620-e8fd-482b-8a9b-6ec505d0ce84","system_id":"levelo_inurba_marseille","lat":43.298681,"lon":5.397225,"is_reserved":false,"is_disabled":false,"rental_uris":{"android":"levelo://app?vid=550a8620-e8fd-482b-8a9b-6ec505d0ce84","ios":"levelo://app?vid=550a8620-e8fd-482b-8a9b-6ec505d0ce84"},"vehicle_type_id":"4","last_reported":1703700504,"current_range_meters":26400,"station_id":"ce4bh0h2rcd13ifvqd50","pricing_plan_id":"free"},{"bike_id":"aa233c47-7038-449c-81b5-b669404267a7","system_id":"levelo_inurba_marseille","lat":43.298681,"lon":5.397225,"is_reserved":false,"is_disabled":false,"rental_uris":{"android":"levelo://app?vid=aa233c47-7038-449c-81b5-b669404267a7","ios":"levelo://app?vid=aa233c47-7038-449c-81b5-b669404267a7"},"vehicle_type_id":"4","last_reported":1703700504,"current_range_meters":19600,"station_id":"ce4bh0h2rcd13ifvqd50","pricing_plan_id":"free"},{"bike_id":"cef75c45-bc1d-4ec7-a197-bb9ef96b69d5","system_id":"levelo_inurba_marseille","lat":43.298681,"lon":5.397225,"is_reserved":false,"is_disabled":false,"rental_uris":{"android":"levelo://app?vid=cef75c45-bc1d-4ec7-a197-bb9ef96b69d5","ios":"levelo://app?vid=cef75c45-bc1d-4ec7-a197-bb9ef96b69d5"},"vehicle_type_id":"4","last_reported":1703700504,"current_range_meters":29200,"station_id":"ce4bh0h2rcd13ifvqd50","pricing_plan_id":"free"},{"bike_id":"c84460bb-45ee-4b97-b1bf-1661ec22c3ae","system_id":"levelo_inurba_marseille","lat":43.286961,"lon":5.373785,"is_reserved":false,"is_disabled":false,"rental_uris":{"android":"levelo://app?vid=c84460bb-45ee-4b97-b1bf-1661ec22c3ae","ios":"levelo://app?vid=c84460bb-45ee-4b97-b1bf-1661ec22c3ae"},"vehicle_type_id":"4","last_reported":1703700504,"current_range_meters":26800,"station_id":"ce4bh3p2rcd13ifvqdq0","pricing_plan_id":"free"},{"bike_id":"af6bc306-eb4c-49c7-9b1e-011166a8df0d","system_id":"levelo_inurba_marseille","lat":43.295196,"lon":5.39397,"is_reserved":false,"is_disabled":false,"rental_uris":{"android":"levelo://app?vid=af6bc306-eb4c-49c7-9b1e-011166a8df0d","ios":"levelo://app?vid=af6bc306-eb4c-49c7-9b1e-011166a8df0d"},"vehicle_type_id":"4","last_reported":1703700504,"current_range_meters":18800,"station_id":"ce4bh292rcd13ifvqdf0","pricing_plan_id":"free"},{"bike_id":"64194f69-83e6-42ee-9195-e95153f15492","system_id":"levelo_inurba_marseille","lat":43.286961,"lon":5.373785,"is_reserved":false,"is_disabled":false,"rental_uris":{"android":"levelo://app?vid=64194f69-83e6-42ee-9195-e95153f15492","ios":"levelo://app?vid=64194f69-83e6-42ee-9195-e95153f15492"},"vehicle_type_id":"4","last_reported":1703700504,"current_range_meters":17600,"station_id":"ce4bh3p2rcd13ifvqdq0","pricing_plan_id":"free"},{"bike_id":"aef856c3-200a-4361-8249-46ce8fd30e1e","system_id":"levelo_inurba_marseille","lat":43.295196,"lon":5.39397,"is_reserved":false,"is_disabled":false,"rental_uris":{"android":"levelo://app?vid=aef856c3-200a-4361-8249-46ce8fd30e1e","ios":"levelo://app?vid=aef856c3-200a-4361-8249-46ce8fd30e1e"},"vehicle_type_id":"4","last_reported":1703700504,"current_range_meters":5600,"station_id":"ce4bh292rcd13ifvqdf0","pricing_plan_id":"free"},{"bike_id":"9af5165f-ed6f-4b7e-a3ff-c14a8dc213c2","system_id":"levelo_inurba_marseille","lat":43.290345,"lon":5.38646,"is_reserved":false,"is_disabled":false,"rental_uris":{"android":"levelo://app?vid=9af5165f-ed6f-4b7e-a3ff-c14a8dc213c2","ios":"levelo://app?vid=9af5165f-ed6f-4b7e-a3ff-c14a8dc213c2"},"vehicle_type_id":"4","last_reported":1703700504,"current_range_meters":27600,"station_id":"ce4bh4p2rcd13ifvqe0g","pricing_plan_id":"free"},{"bike_id":"6cf1d3fb-8a4a-4b8b-9408-2cb074240003","system_id":"levelo_inurba_marseille","lat":43.290336,"lon":5.386425,"is_reserved":false,"is_disabled":false,"rental_uris":{"android":"levelo://app?vid=6cf1d3fb-8a4a-4b8b-9408-2cb074240003","ios":"levelo://app?vid=6cf1d3fb-8a4a-4b8b-9408-2cb074240003"},"vehicle_type_id":"4","last_reported":1703700504,"current_range_meters":21200,"station_id":"ce4bh4p2rcd13ifvqe0g","pricing_plan_id":"free"},{"bike_id":"5fb2d411-6b52-45d5-928c-2260f9f38c7e","system_id":"levelo_inurba_marseille","lat":43.290345,"lon":5.38646,"is_reserved":false,"is_disabled":false,"rental_uris":{"android":"levelo://app?vid=5fb2d411-6b52-45d5-928c-2260f9f38c7e","ios":"levelo://app?vid=5fb2d411-6b52-45d5-928c-2260f9f38c7e"},"vehicle_type_id":"4","last_reported":1703700504,"current_range_meters":12800,"station_id":"ce4bh4p2rcd13ifvqe0g","pricing_plan_id":"free"},{"bike_id":"37e92807-3f97-47d9-b62f-a1fb7cdf215e","system_id":"levelo_inurba_marseille","lat":43.302759,"lon":5.400793,"is_reserved":false,"is_disabled":false,"rental_uris":{"android":"levelo://app?vid=37e92807-3f97-47d9-b62f-a1fb7cdf215e","ios":"levelo://app?vid=37e92807-3f97-47d9-b62f-a1fb7cdf215e"},"vehicle_type_id":"4","last_reported":1703700504,"current_range_meters":10800,"station_id":"ce4bgvh2rcd13ifvqcs0","pricing_plan_id":"free"},{"bike_id":"7b6756e4-e98d-40f2-a874-70634179c430","system_id":"levelo_inurba_marseille","lat":43.289307,"lon":5.38406,"is_reserved":false,"is_disabled":false,"rental_uris":{"android":"levelo://app?vid=7b6756e4-e98d-40f2-a874-70634179c430","ios":"levelo://app?vid=7b6756e4-e98d-40f2-a874-70634179c430"},"vehicle_type_id":"4","last_reported":1703700504,"current_range_meters":28000,"station_id":"ce4bh612rcd13ifvqe6g","pricing_plan_id":"free"},{"bike_id":"7420fd63-50cd-4fdd-8b98-804af08d5eff","system_id":"levelo_inurba_marseille","lat":43.290345,"lon":5.38646,"is_reserved":false,"is_disabled":false,"rental_uris":{"android":"levelo://app?vid=7420fd63-50cd-4fdd-8b98-804af08d5eff","ios":"levelo://app?vid=7420fd63-50cd-4fdd-8b98-804af08d5eff"},"vehicle_type_id":"4","last_reported":1703700504,"current_range_meters":19200,"station_id":"ce4bh4p2rcd13ifvqe0g","pricing_plan_id":"free"},{"bike_id":"6002a6bf-62bd-4d84-bb26-3390cc28981d","system_id":"levelo_inurba_marseille","lat":43.290336,"lon":5.386425,"is_reserved":false,"is_disabled":false,"rental_uris":{"android":"levelo://app?vid=6002a6bf-62bd-4d84-bb26-3390cc28981d","ios":"levelo://app?vid=6002a6bf-62bd-4d84-bb26-3390cc28981d"},"vehicle_type_id":"4","last_reported":1703700504,"current_range_meters":16800,"station_id":"ce4bh4p2rcd13ifvqe0g","pricing_plan_id":"free"},{"bike_id":"2bac057d-1c07-4af3-9297-c045aa2c8756","system_id":"levelo_inurba_marseille","lat":43.29032,"lon":5.38658,"is_reserved":false,"is_disabled":false,"rental_uris":{"android":"levelo://app?vid=2bac057d-1c07-4af3-9297-c045aa2c8756","ios":"levelo://app?vid=2bac057d-1c07-4af3-9297-c045aa2c8756"},"vehicle_type_id":"4","last_reported":1703700504,"current_range_meters":18000,"station_id":"ce4bh4p2rcd13ifvqe0g","pricing_plan_id":"free"},{"bike_id":"6eac4fb1-2e39-4019-83c3-b414927d94dd","system_id":"levelo_inurba_marseille","lat":43.286039,"lon":5.370681,"is_reserved":false,"is_disabled":false,"rental_uris":{"android":"levelo://app?vid=6eac4fb1-2e39-4019-83c3-b414927d94dd","ios":"levelo://app?vid=6eac4fb1-2e39-4019-83c3-b414927d94dd"},"vehicle_type_id":"4","last_reported":1703700504,"current_range_meters":26000,"station_id":"ce4bht12rcd13ifvqi60","pricing_plan_id":"free"},{"bike_id":"0a417a43-5140-4a33-9aaa-064c6134ebe4","system_id":"levelo_inurba_marseille","lat":43.286039,"lon":5.370679,"is_reserved":false,"is_disabled":false,"rental_uris":{"android":"levelo://app?vid=0a417a43-5140-4a33-9aaa-064c6134ebe4","ios":"levelo://app?vid=0a417a43-5140-4a33-9aaa-064c6134ebe4"},"vehicle_type_id":"4","last_reported":1703700504,"current_range_meters":31200,"station_id":"ce4bht12rcd13ifvqi60","pricing_plan_id":"free"},{"bike_id":"4692a5b3-492e-4a6f-9e7e-7f2fae58ddd0","system_id":"levelo_inurba_marseille","lat":43.286039,"lon":5.370681,"is_reserved":false,"is_disabled":false,"rental_uris":{"android":"levelo://app?vid=4692a5b3-492e-4a6f-9e7e-7f2fae58ddd0","ios":"levelo://app?vid=4692a5b3-492e-4a6f-9e7e-7f2fae58ddd0"},"vehicle_type_id":"4","last_reported":1703700504,"current_range_meters":10800,"station_id":"ce4bht12rcd13ifvqi60","pricing_plan_id":"free"},{"bike_id":"2e41ddd3-5539-4fd4-91cb-2b475651dfd9","system_id":"levelo_inurba_marseille","lat":43.286039,"lon":5.370679,"is_reserved":false,"is_disabled":false,"rental_uris":{"android":"levelo://app?vid=2e41ddd3-5539-4fd4-91cb-2b475651dfd9","ios":"levelo://app?vid=2e41ddd3-5539-4fd4-91cb-2b475651dfd9"},"vehicle_type_id":"4","last_reported":1703700504,"current_range_meters":400,"station_id":"ce4bht12rcd13ifvqi60","pricing_plan_id":"free"},{"bike_id":"b7fdfbba-e7df-4062-8e1b-fcfbf27ddd1c","system_id":"levelo_inurba_marseille","lat":43.286039,"lon":5.370679,"is_reserved":false,"is_disabled":false,"rental_uris":{"android":"levelo://app?vid=b7fdfbba-e7df-4062-8e1b-fcfbf27ddd1c","ios":"levelo://app?vid=b7fdfbba-e7df-4062-8e1b-fcfbf27ddd1c"},"vehicle_type_id":"4","last_reported":1703700504,"current_range_meters":23200,"station_id":"ce4bht12rcd13ifvqi60","pricing_plan_id":"free"},{"bike_id":"2894883c-b0bb-453e-b4a5-f945273e5dfa","system_id":"levelo_inurba_marseille","lat":43.286039,"lon":5.370681,"is_reserved":false,"is_disabled":false,"rental_uris":{"android":"levelo://app?vid=2894883c-b0bb-453e-b4a5-f945273e5dfa","ios":"levelo://app?vid=2894883c-b0bb-453e-b4a5-f945273e5dfa"},"vehicle_type_id":"4","last_reported":1703700504,"current_range_meters":16400,"station_id":"ce4bht12rcd13ifvqi60","pricing_plan_id":"free"},{"bike_id":"38d8412b-e1eb-44d4-a17e-b0db5dad2402","system_id":"levelo_inurba_marseille","lat":43.286039,"lon":5.370679,"is_reserved":false,"is_disabled":false,"rental_uris":{"android":"levelo://app?vid=38d8412b-e1eb-44d4-a17e-b0db5dad2402","ios":"levelo://app?vid=38d8412b-e1eb-44d4-a17e-b0db5dad2402"},"vehicle_type_id":"4","last_reported":1703700504,"current_range_meters":31200,"station_id":"ce4bht12rcd13ifvqi60","pricing_plan_id":"free"},{"bike_id":"5ca28f22-e835-4044-9c28-43a41a6d8445","system_id":"levelo_inurba_marseille","lat":43.28724,"lon":5.37942,"is_reserved":false,"is_disabled":false,"rental_uris":{"android":"levelo://app?vid=5ca28f22-e835-4044-9c28-43a41a6d8445","ios":"levelo://app?vid=5ca28f22-e835-4044-9c28-43a41a6d8445"},"vehicle_type_id":"4","last_reported":1703700504,"current_range_meters":29600,"station_id":"ce4bh9p2rcd13ifvqec0","pricing_plan_id":"free"},{"bike_id":"265b4a47-6fdb-46c3-a6ec-ec061e28d1a2","system_id":"levelo_inurba_marseille","lat":43.287185,"lon":5.379373,"is_reserved":false,"is_disabled":false,"rental_uris":{"android":"levelo://app?vid=265b4a47-6fdb-46c3-a6ec-ec061e28d1a2","ios":"levelo://app?vid=265b4a47-6fdb-46c3-a6ec-ec061e28d1a2"},"vehicle_type_id":"4","last_reported":1703700504,"current_range_meters":19200,"station_id":"ce4bh9p2rcd13ifvqec0","pricing_plan_id":"free"},{"bike_id":"eb6936fb-2b7b-4075-a57d-7be19a3ee0cc","system_id":"levelo_inurba_marseille","lat":43.287185,"lon":5.379373,"is_reserved":false,"is_disabled":false,"rental_uris":{"android":"levelo://app?vid=eb6936fb-2b7b-4075-a57d-7be19a3ee0cc","ios":"levelo://app?vid=eb6936fb-2b7b-4075-a57d-7be19a3ee0cc"},"vehicle_type_id":"4","last_reported":1703700504,"current_range_meters":17200,"station_id":"ce4bh9p2rcd13ifvqec0","pricing_plan_id":"free"},{"bike_id":"60906457-3fce-4f8c-9185-f12809d0f734","system_id":"levelo_inurba_marseille","lat":43.287185,"lon":5.379373,"is_reserved":false,"is_disabled":false,"rental_uris":{"android":"levelo://app?vid=60906457-3fce-4f8c-9185-f12809d0f734","ios":"levelo://app?vid=60906457-3fce-4f8c-9185-f12809d0f734"},"vehicle_type_id":"4","last_reported":1703700504,"current_range_meters":18400,"station_id":"ce4bh9p2rcd13ifvqec0","pricing_plan_id":"free"},{"bike_id":"95105a2f-b222-4027-bb92-eda8052ddd7e","system_id":"levelo_inurba_marseille","lat":43.316869,"lon":5.404714,"is_reserved":false,"is_disabled":false,"rental_uris":{"android":"levelo://app?vid=95105a2f-b222-4027-bb92-eda8052ddd7e","ios":"levelo://app?vid=95105a2f-b222-4027-bb92-eda8052ddd7e"},"vehicle_type_id":"4","last_reported":1703700504,"current_range_meters":1200,"station_id":"","pricing_plan_id":"free"},{"bike_id":"15737e5b-07be-42e3-ad98-3d74cb3a9fd2","system_id":"levelo_inurba_marseille","lat":43.291994,"lon":5.392907,"is_reserved":false,"is_disabled":false,"rental_uris":{"android":"levelo://app?vid=15737e5b-07be-42e3-ad98-3d74cb3a9fd2","ios":"levelo://app?vid=15737e5b-07be-42e3-ad98-3d74cb3a9fd2"},"vehicle_type_id":"4","last_reported":1703700504,"current_range_meters":27200,"station_id":"ce4bh192rcd13ifvqdd0","pricing_plan_id":"free"},{"bike_id":"60b8c358-113c-45e9-945a-1f67dba53cec","system_id":"levelo_inurba_marseille","lat":43.291994,"lon":5.392907,"is_reserved":false,"is_disabled":false,"rental_uris":{"android":"levelo://app?vid=60b8c358-113c-45e9-945a-1f67dba53cec","ios":"levelo://app?vid=60b8c358-113c-45e9-945a-1f67dba53cec"},"vehicle_type_id":"4","last_reported":1703700504,"current_range_meters":21600,"station_id":"ce4bh192rcd13ifvqdd0","pricing_plan_id":"free"},{"bike_id":"e2adfa7c-882e-48a1-9ee4-b36e6186ebbf","system_id":"levelo_inurba_marseille","lat":43.330912,"lon":5.396935,"is_reserved":false,"is_disabled":false,"rental_uris":{"android":"levelo://app?vid=e2adfa7c-882e-48a1-9ee4-b36e6186ebbf","ios":"levelo://app?vid=e2adfa7c-882e-48a1-9ee4-b36e6186ebbf"},"vehicle_type_id":"4","last_reported":1703700504,"current_range_meters":0,"station_id":"","pricing_plan_id":"free"},{"bike_id":"64c1efa8-e669-4a8e-a8ad-ff71042f697c","system_id":"levelo_inurba_marseille","lat":43.28465,"lon":5.35887,"is_reserved":false,"is_disabled":false,"rental_uris":{"android":"levelo://app?vid=64c1efa8-e669-4a8e-a8ad-ff71042f697c","ios":"levelo://app?vid=64c1efa8-e669-4a8e-a8ad-ff71042f697c"},"vehicle_type_id":"4","last_reported":1703700504,"current_range_meters":15200,"station_id":"ce4bhah2rcd13ifvqei0","pricing_plan_id":"free"},{"bike_id":"9faf3b86-fd8d-4e0b-bedc-2691735709ac","system_id":"levelo_inurba_marseille","lat":43.28463,"lon":5.35886,"is_reserved":false,"is_disabled":false,"rental_uris":{"android":"levelo://app?vid=9faf3b86-fd8d-4e0b-bedc-2691735709ac","ios":"levelo://app?vid=9faf3b86-fd8d-4e0b-bedc-2691735709ac"},"vehicle_type_id":"4","last_reported":1703700504,"current_range_meters":16000,"station_id":"ce4bhah2rcd13ifvqei0","pricing_plan_id":"free"},{"bike_id":"92c65f2f-fd71-4c2b-9b84-0f1a1b0d5d10","system_id":"levelo_inurba_marseille","lat":43.28459,"lon":5.35894,"is_reserved":false,"is_disabled":false,"rental_uris":{"android":"levelo://app?vid=92c65f2f-fd71-4c2b-9b84-0f1a1b0d5d10","ios":"levelo://app?vid=92c65f2f-fd71-4c2b-9b84-0f1a1b0d5d10"},"vehicle_type_id":"4","last_reported":1703700504,"current_range_meters":13200,"station_id":"ce4bhah2rcd13ifvqei0","pricing_plan_id":"free"},{"bike_id":"0a92c87e-7335-4a2f-a73a-795ba19eeba0","system_id":"levelo_inurba_marseille","lat":43.28457,"lon":5.3589,"is_reserved":false,"is_disabled":false,"rental_uris":{"android":"levelo://app?vid=0a92c87e-7335-4a2f-a73a-795ba19eeba0","ios":"levelo://app?vid=0a92c87e-7335-4a2f-a73a-795ba19eeba0"},"vehicle_type_id":"4","last_reported":1703700504,"current_range_meters":13200,"station_id":"ce4bhah2rcd13ifvqei0","pricing_plan_id":"free"},{"bike_id":"d7969ba6-7f9b-434b-a6d1-4356015e812d","system_id":"levelo_inurba_marseille","lat":43.284558,"lon":5.358978,"is_reserved":false,"is_disabled":false,"rental_uris":{"android":"levelo://app?vid=d7969ba6-7f9b-434b-a6d1-4356015e812d","ios":"levelo://app?vid=d7969ba6-7f9b-434b-a6d1-4356015e812d"},"vehicle_type_id":"4","last_reported":1703700504,"current_range_meters":21200,"station_id":"ce4bhah2rcd13ifvqei0","pricing_plan_id":"free"},{"bike_id":"1f8f97ba-1204-46f8-90a5-63d556e17797","system_id":"levelo_inurba_marseille","lat":43.284534,"lon":5.358662,"is_reserved":false,"is_disabled":false,"rental_uris":{"android":"levelo://app?vid=1f8f97ba-1204-46f8-90a5-63d556e17797","ios":"levelo://app?vid=1f8f97ba-1204-46f8-90a5-63d556e17797"},"vehicle_type_id":"4","last_reported":1703700504,"current_range_meters":26000,"station_id":"ce4bhah2rcd13ifvqei0","pricing_plan_id":"free"},{"bike_id":"4cbcdfa0-0384-462c-8599-2a72400c5252","system_id":"levelo_inurba_marseille","lat":43.284559,"lon":5.358827,"is_reserved":false,"is_disabled":false,"rental_uris":{"android":"levelo://app?vid=4cbcdfa0-0384-462c-8599-2a72400c5252","ios":"levelo://app?vid=4cbcdfa0-0384-462c-8599-2a72400c5252"},"vehicle_type_id":"4","last_reported":1703700504,"current_range_meters":31200,"station_id":"ce4bhah2rcd13ifvqei0","pricing_plan_id":"free"},{"bike_id":"653cc390-f554-4b40-b516-481d3cf5e380","system_id":"levelo_inurba_marseille","lat":43.285856,"lon":5.350771,"is_reserved":false,"is_disabled":false,"rental_uris":{"android":"levelo://app?vid=653cc390-f554-4b40-b516-481d3cf5e380","ios":"levelo://app?vid=653cc390-f554-4b40-b516-481d3cf5e380"},"vehicle_type_id":"4","last_reported":1703700504,"current_range_meters":13600,"station_id":"ce4bhch2rcd13ifvqeug","pricing_plan_id":"free"},{"bike_id":"0edd4ab1-21ac-455f-974a-ef70fa29950a","system_id":"levelo_inurba_marseille","lat":43.285856,"lon":5.350771,"is_reserved":false,"is_disabled":false,"rental_uris":{"android":"levelo://app?vid=0edd4ab1-21ac-455f-974a-ef70fa29950a","ios":"levelo://app?vid=0edd4ab1-21ac-455f-974a-ef70fa29950a"},"vehicle_type_id":"4","last_reported":1703700504,"current_range_meters":15200,"station_id":"ce4bhch2rcd13ifvqeug","pricing_plan_id":"free"},{"bike_id":"4654d117-a2ae-4bdf-a4f3-75180db44aad","system_id":"levelo_inurba_marseille","lat":43.285856,"lon":5.350771,"is_reserved":false,"is_disabled":false,"rental_uris":{"android":"levelo://app?vid=4654d117-a2ae-4bdf-a4f3-75180db44aad","ios":"levelo://app?vid=4654d117-a2ae-4bdf-a4f3-75180db44aad"},"vehicle_type_id":"4","last_reported":1703700504,"current_range_meters":14400,"station_id":"ce4bhch2rcd13ifvqeug","pricing_plan_id":"free"},{"bike_id":"0316090b-c9d7-4467-915a-295b044fbfee","system_id":"levelo_inurba_marseille","lat":43.283998,"lon":5.375062,"is_reserved":false,"is_disabled":false,"rental_uris":{"android":"levelo://app?vid=0316090b-c9d7-4467-915a-295b044fbfee","ios":"levelo://app?vid=0316090b-c9d7-4467-915a-295b044fbfee"},"vehicle_type_id":"4","last_reported":1703700504,"current_range_meters":30800,"station_id":"ce4bh412rcd13ifvqds0","pricing_plan_id":"free"},{"bike_id":"48667880-3f3e-4360-a6f9-282b68fed078","system_id":"levelo_inurba_marseille","lat":43.283998,"lon":5.375062,"is_reserved":false,"is_disabled":false,"rental_uris":{"android":"levelo://app?vid=48667880-3f3e-4360-a6f9-282b68fed078","ios":"levelo://app?vid=48667880-3f3e-4360-a6f9-282b68fed078"},"vehicle_type_id":"4","last_reported":1703700504,"current_range_meters":12800,"station_id":"ce4bh412rcd13ifvqds0","pricing_plan_id":"free"},{"bike_id":"70187e51-f572-4e2a-9e11-b13fdf2cc7c2","system_id":"levelo_inurba_marseille","lat":43.283998,"lon":5.375062,"is_reserved":false,"is_disabled":false,"rental_uris":{"android":"levelo://app?vid=70187e51-f572-4e2a-9e11-b13fdf2cc7c2","ios":"levelo://app?vid=70187e51-f572-4e2a-9e11-b13fdf2cc7c2"},"vehicle_type_id":"4","last_reported":1703700504,"current_range_meters":10400,"station_id":"ce4bh412rcd13ifvqds0","pricing_plan_id":"free"},{"bike_id":"cdb63b9a-d087-4bcc-9202-4f3862241a13","system_id":"levelo_inurba_marseille","lat":43.283998,"lon":5.375062,"is_reserved":false,"is_disabled":false,"rental_uris":{"android":"levelo://app?vid=cdb63b9a-d087-4bcc-9202-4f3862241a13","ios":"levelo://app?vid=cdb63b9a-d087-4bcc-9202-4f3862241a13"},"vehicle_type_id":"4","last_reported":1703700504,"current_range_meters":28800,"station_id":"ce4bh412rcd13ifvqds0","pricing_plan_id":"free"},{"bike_id":"d7bea775-b801-4a8d-a719-34d127f24d01","system_id":"levelo_inurba_marseille","lat":43.283998,"lon":5.375062,"is_reserved":false,"is_disabled":false,"rental_uris":{"android":"levelo://app?vid=d7bea775-b801-4a8d-a719-34d127f24d01","ios":"levelo://app?vid=d7bea775-b801-4a8d-a719-34d127f24d01"},"vehicle_type_id":"4","last_reported":1703700504,"current_range_meters":17200,"station_id":"ce4bh412rcd13ifvqds0","pricing_plan_id":"free"},{"bike_id":"3826199f-0e7e-4cba-9e2a-0d83c3e88a76","system_id":"levelo_inurba_marseille","lat":43.283998,"lon":5.375062,"is_reserved":false,"is_disabled":false,"rental_uris":{"android":"levelo://app?vid=3826199f-0e7e-4cba-9e2a-0d83c3e88a76","ios":"levelo://app?vid=3826199f-0e7e-4cba-9e2a-0d83c3e88a76"},"vehicle_type_id":"4","last_reported":1703700504,"current_range_meters":23600,"station_id":"ce4bh412rcd13ifvqds0","pricing_plan_id":"free"},{"bike_id":"c56fa5c4-bd28-4d63-a8a5-ae1a58f0c655","system_id":"levelo_inurba_marseille","lat":43.28741,"lon":5.38986,"is_reserved":false,"is_disabled":false,"rental_uris":{"android":"levelo://app?vid=c56fa5c4-bd28-4d63-a8a5-ae1a58f0c655","ios":"levelo://app?vid=c56fa5c4-bd28-4d63-a8a5-ae1a58f0c655"},"vehicle_type_id":"4","last_reported":1703700504,"current_range_meters":2000,"station_id":"","pricing_plan_id":"free"},{"bike_id":"49b1c88b-18f4-45e6-8539-960a1d0da850","system_id":"levelo_inurba_marseille","lat":43.33717,"lon":5.391857,"is_reserved":false,"is_disabled":false,"rental_uris":{"android":"levelo://app?vid=49b1c88b-18f4-45e6-8539-960a1d0da850","ios":"levelo://app?vid=49b1c88b-18f4-45e6-8539-960a1d0da850"},"vehicle_type_id":"4","last_reported":1703700504,"current_range_meters":28800,"station_id":"ce4bhr92rcd13ifvqhsg","pricing_plan_id":"free"},{"bike_id":"381844c3-e025-4ad4-8b5b-45e3143ae1c8","system_id":"levelo_inurba_marseille","lat":43.323464,"lon":5.406297,"is_reserved":false,"is_disabled":false,"rental_uris":{"android":"levelo://app?vid=381844c3-e025-4ad4-8b5b-45e3143ae1c8","ios":"levelo://app?vid=381844c3-e025-4ad4-8b5b-45e3143ae1c8"},"vehicle_type_id":"4","last_reported":1703700504,"current_range_meters":16000,"station_id":"ce4bhq92rcd13ifvqhjg","pricing_plan_id":"free"},{"bike_id":"9775dbd3-a035-426c-9c15-fbaec360d1c1","system_id":"levelo_inurba_marseille","lat":43.28478,"lon":5.38395,"is_reserved":false,"is_disabled":false,"rental_uris":{"android":"levelo://app?vid=9775dbd3-a035-426c-9c15-fbaec360d1c1","ios":"levelo://app?vid=9775dbd3-a035-426c-9c15-fbaec360d1c1"},"vehicle_type_id":"4","last_reported":1703700504,"current_range_meters":2800,"station_id":"ce4bh512rcd13ifvqe3g","pricing_plan_id":"free"},{"bike_id":"bea765d1-eb54-43ce-93bf-fd967ac5432e","system_id":"levelo_inurba_marseille","lat":43.284787,"lon":5.384116,"is_reserved":false,"is_disabled":false,"rental_uris":{"android":"levelo://app?vid=bea765d1-eb54-43ce-93bf-fd967ac5432e","ios":"levelo://app?vid=bea765d1-eb54-43ce-93bf-fd967ac5432e"},"vehicle_type_id":"4","last_reported":1703700504,"current_range_meters":22400,"station_id":"ce4bh512rcd13ifvqe3g","pricing_plan_id":"free"},{"bike_id":"4c786552-de35-41da-86a5-e52945d8f644","system_id":"levelo_inurba_marseille","lat":43.284793,"lon":5.384119,"is_reserved":false,"is_disabled":false,"rental_uris":{"android":"levelo://app?vid=4c786552-de35-41da-86a5-e52945d8f644","ios":"levelo://app?vid=4c786552-de35-41da-86a5-e52945d8f644"},"vehicle_type_id":"4","last_reported":1703700504,"current_range_meters":15600,"station_id":"ce4bh512rcd13ifvqe3g","pricing_plan_id":"free"},{"bike_id":"ca34c6b2-7439-4d61-ad3b-f8346696ab97","system_id":"levelo_inurba_marseille","lat":43.284793,"lon":5.384119,"is_reserved":false,"is_disabled":false,"rental_uris":{"android":"levelo://app?vid=ca34c6b2-7439-4d61-ad3b-f8346696ab97","ios":"levelo://app?vid=ca34c6b2-7439-4d61-ad3b-f8346696ab97"},"vehicle_type_id":"4","last_reported":1703700504,"current_range_meters":10000,"station_id":"ce4bh512rcd13ifvqe3g","pricing_plan_id":"free"},{"bike_id":"946ad68d-c973-4935-867d-21a415b71d3d","system_id":"levelo_inurba_marseille","lat":43.284793,"lon":5.384119,"is_reserved":false,"is_disabled":false,"rental_uris":{"android":"levelo://app?vid=946ad68d-c973-4935-867d-21a415b71d3d","ios":"levelo://app?vid=946ad68d-c973-4935-867d-21a415b71d3d"},"vehicle_type_id":"4","last_reported":1703700504,"current_range_meters":0,"station_id":"ce4bh512rcd13ifvqe3g","pricing_plan_id":"free"},{"bike_id":"27ec96bd-aed5-41de-9114-7e2dca7f78d1","system_id":"levelo_inurba_marseille","lat":43.284787,"lon":5.384116,"is_reserved":false,"is_disabled":false,"rental_uris":{"android":"levelo://app?vid=27ec96bd-aed5-41de-9114-7e2dca7f78d1","ios":"levelo://app?vid=27ec96bd-aed5-41de-9114-7e2dca7f78d1"},"vehicle_type_id":"4","last_reported":1703700504,"current_range_meters":24400,"station_id":"ce4bh512rcd13ifvqe3g","pricing_plan_id":"free"},{"bike_id":"5ec00042-a0ed-4357-9483-bbafb3b36fc4","system_id":"levelo_inurba_marseille","lat":43.297946,"lon":5.404063,"is_reserved":false,"is_disabled":false,"rental_uris":{"android":"levelo://app?vid=5ec00042-a0ed-4357-9483-bbafb3b36fc4","ios":"levelo://app?vid=5ec00042-a0ed-4357-9483-bbafb3b36fc4"},"vehicle_type_id":"4","last_reported":1703700504,"current_range_meters":22000,"station_id":"ce4bh112rcd13ifvqd90","pricing_plan_id":"free"},{"bike_id":"db409e8d-b5f7-42b2-9ea5-5ce1a96baa17","system_id":"levelo_inurba_marseille","lat":43.29795,"lon":5.404086,"is_reserved":false,"is_disabled":false,"rental_uris":{"android":"levelo://app?vid=db409e8d-b5f7-42b2-9ea5-5ce1a96baa17","ios":"levelo://app?vid=db409e8d-b5f7-42b2-9ea5-5ce1a96baa17"},"vehicle_type_id":"4","last_reported":1703700504,"current_range_meters":30400,"station_id":"ce4bh112rcd13ifvqd90","pricing_plan_id":"free"},{"bike_id":"8cd5b04f-95e7-42f1-baed-0fd1f33834ec","system_id":"levelo_inurba_marseille","lat":43.297946,"lon":5.404063,"is_reserved":false,"is_disabled":false,"rental_uris":{"android":"levelo://app?vid=8cd5b04f-95e7-42f1-baed-0fd1f33834ec","ios":"levelo://app?vid=8cd5b04f-95e7-42f1-baed-0fd1f33834ec"},"vehicle_type_id":"4","last_reported":1703700504,"current_range_meters":25600,"station_id":"ce4bh112rcd13ifvqd90","pricing_plan_id":"free"},{"bike_id":"a15300c9-c013-47ca-a393-bba79408573c","system_id":"levelo_inurba_marseille","lat":43.288501,"lon":5.393087,"is_reserved":false,"is_disabled":false,"rental_uris":{"android":"levelo://app?vid=a15300c9-c013-47ca-a393-bba79408573c","ios":"levelo://app?vid=a15300c9-c013-47ca-a393-bba79408573c"},"vehicle_type_id":"4","last_reported":1703700504,"current_range_meters":23600,"station_id":"ce4bh2p2rcd13ifvqdi0","pricing_plan_id":"free"},{"bike_id":"12186728-bcca-485b-b032-2ca2f1a4d4d7","system_id":"levelo_inurba_marseille","lat":43.288501,"lon":5.393087,"is_reserved":false,"is_disabled":false,"rental_uris":{"android":"levelo://app?vid=12186728-bcca-485b-b032-2ca2f1a4d4d7","ios":"levelo://app?vid=12186728-bcca-485b-b032-2ca2f1a4d4d7"},"vehicle_type_id":"4","last_reported":1703700504,"current_range_meters":26800,"station_id":"ce4bh2p2rcd13ifvqdi0","pricing_plan_id":"free"},{"bike_id":"239bca15-95f7-4332-a07b-f2813c4ccbfc","system_id":"levelo_inurba_marseille","lat":43.283494,"lon":5.380945,"is_reserved":false,"is_disabled":false,"rental_uris":{"android":"levelo://app?vid=239bca15-95f7-4332-a07b-f2813c4ccbfc","ios":"levelo://app?vid=239bca15-95f7-4332-a07b-f2813c4ccbfc"},"vehicle_type_id":"4","last_reported":1703700504,"current_range_meters":4400,"station_id":"ce4bh412rcd13ifvqdr0","pricing_plan_id":"free"},{"bike_id":"ca0512c0-7664-460e-b55a-e8b3856954eb","system_id":"levelo_inurba_marseille","lat":43.288497,"lon":5.393089,"is_reserved":false,"is_disabled":false,"rental_uris":{"android":"levelo://app?vid=ca0512c0-7664-460e-b55a-e8b3856954eb","ios":"levelo://app?vid=ca0512c0-7664-460e-b55a-e8b3856954eb"},"vehicle_type_id":"4","last_reported":1703700504,"current_range_meters":16800,"station_id":"ce4bh2p2rcd13ifvqdi0","pricing_plan_id":"free"},{"bike_id":"c107320b-5abd-4e16-8c85-2b7c05d4e35a","system_id":"levelo_inurba_marseille","lat":43.288501,"lon":5.393087,"is_reserved":false,"is_disabled":false,"rental_uris":{"android":"levelo://app?vid=c107320b-5abd-4e16-8c85-2b7c05d4e35a","ios":"levelo://app?vid=c107320b-5abd-4e16-8c85-2b7c05d4e35a"},"vehicle_type_id":"4","last_reported":1703700504,"current_range_meters":30800,"station_id":"ce4bh2p2rcd13ifvqdi0","pricing_plan_id":"free"},{"bike_id":"e485450b-2736-4f4c-b94b-0da5a69b88aa","system_id":"levelo_inurba_marseille","lat":43.33385,"lon":5.39822,"is_reserved":false,"is_disabled":false,"rental_uris":{"android":"levelo://app?vid=e485450b-2736-4f4c-b94b-0da5a69b88aa","ios":"levelo://app?vid=e485450b-2736-4f4c-b94b-0da5a69b88aa"},"vehicle_type_id":"4","last_reported":1703700504,"current_range_meters":18000,"station_id":"","pricing_plan_id":"free"},{"bike_id":"10f78c7d-4db4-4cee-9406-f0c186f8bd9b","system_id":"levelo_inurba_marseille","lat":43.284217,"lon":5.349697,"is_reserved":false,"is_disabled":false,"rental_uris":{"android":"levelo://app?vid=10f78c7d-4db4-4cee-9406-f0c186f8bd9b","ios":"levelo://app?vid=10f78c7d-4db4-4cee-9406-f0c186f8bd9b"},"vehicle_type_id":"4","last_reported":1703700504,"current_range_meters":31200,"station_id":"ce4bhbh2rcd13ifvqepg","pricing_plan_id":"free"},{"bike_id":"80cc3672-b4ba-480f-959d-045a754c80cc","system_id":"levelo_inurba_marseille","lat":43.289363,"lon":5.396322,"is_reserved":false,"is_disabled":false,"rental_uris":{"android":"levelo://app?vid=80cc3672-b4ba-480f-959d-045a754c80cc","ios":"levelo://app?vid=80cc3672-b4ba-480f-959d-045a754c80cc"},"vehicle_type_id":"4","last_reported":1703700504,"current_range_meters":26400,"station_id":"ce4bh3h2rcd13ifvqdn0","pricing_plan_id":"free"},{"bike_id":"1a233412-485c-4c9b-ba1d-4ed74d0758bd","system_id":"levelo_inurba_marseille","lat":43.289363,"lon":5.396322,"is_reserved":false,"is_disabled":false,"rental_uris":{"android":"levelo://app?vid=1a233412-485c-4c9b-ba1d-4ed74d0758bd","ios":"levelo://app?vid=1a233412-485c-4c9b-ba1d-4ed74d0758bd"},"vehicle_type_id":"4","last_reported":1703700504,"current_range_meters":1200,"station_id":"ce4bh3h2rcd13ifvqdn0","pricing_plan_id":"free"},{"bike_id":"884a441e-9181-46e0-9fc3-41a4f9ed3362","system_id":"levelo_inurba_marseille","lat":43.280382,"lon":5.369291,"is_reserved":false,"is_disabled":false,"rental_uris":{"android":"levelo://app?vid=884a441e-9181-46e0-9fc3-41a4f9ed3362","ios":"levelo://app?vid=884a441e-9181-46e0-9fc3-41a4f9ed3362"},"vehicle_type_id":"4","last_reported":1703700504,"current_range_meters":30000,"station_id":"ce4bha12rcd13ifvqef0","pricing_plan_id":"free"},{"bike_id":"f54f96a5-cbf4-4fba-9a9c-902bb99b4eef","system_id":"levelo_inurba_marseille","lat":43.28039,"lon":5.369297,"is_reserved":false,"is_disabled":false,"rental_uris":{"android":"levelo://app?vid=f54f96a5-cbf4-4fba-9a9c-902bb99b4eef","ios":"levelo://app?vid=f54f96a5-cbf4-4fba-9a9c-902bb99b4eef"},"vehicle_type_id":"4","last_reported":1703700504,"current_range_meters":29600,"station_id":"ce4bha12rcd13ifvqef0","pricing_plan_id":"free"},{"bike_id":"d60802d6-4f47-444a-b234-883690eec05b","system_id":"levelo_inurba_marseille","lat":43.33613,"lon":5.39834,"is_reserved":false,"is_disabled":false,"rental_uris":{"android":"levelo://app?vid=d60802d6-4f47-444a-b234-883690eec05b","ios":"levelo://app?vid=d60802d6-4f47-444a-b234-883690eec05b"},"vehicle_type_id":"4","last_reported":1703700504,"current_range_meters":31200,"station_id":"","pricing_plan_id":"free"},{"bike_id":"58f98eae-98db-47bf-b4ee-a8a06e675080","system_id":"levelo_inurba_marseille","lat":43.296263,"lon":5.40601,"is_reserved":false,"is_disabled":false,"rental_uris":{"android":"levelo://app?vid=58f98eae-98db-47bf-b4ee-a8a06e675080","ios":"levelo://app?vid=58f98eae-98db-47bf-b4ee-a8a06e675080"},"vehicle_type_id":"4","last_reported":1703700504,"current_range_meters":27600,"station_id":"ce4bh0h2rcd13ifvqd60","pricing_plan_id":"free"},{"bike_id":"a6112f3e-58fb-4cdb-993d-8b291534cc24","system_id":"levelo_inurba_marseille","lat":43.296263,"lon":5.40601,"is_reserved":false,"is_disabled":false,"rental_uris":{"android":"levelo://app?vid=a6112f3e-58fb-4cdb-993d-8b291534cc24","ios":"levelo://app?vid=a6112f3e-58fb-4cdb-993d-8b291534cc24"},"vehicle_type_id":"4","last_reported":1703700504,"current_range_meters":24400,"station_id":"ce4bh0h2rcd13ifvqd60","pricing_plan_id":"free"},{"bike_id":"41c03c81-ceb4-4058-adae-8b786bab4303","system_id":"levelo_inurba_marseille","lat":43.28942,"lon":5.39996,"is_reserved":false,"is_disabled":false,"rental_uris":{"android":"levelo://app?vid=41c03c81-ceb4-4058-adae-8b786bab4303","ios":"levelo://app?vid=41c03c81-ceb4-4058-adae-8b786bab4303"},"vehicle_type_id":"4","last_reported":1703700504,"current_range_meters":0,"station_id":"","pricing_plan_id":"free"},{"bike_id":"696c181d-79fb-4121-a07e-54c2bf344a88","system_id":"levelo_inurba_marseille","lat":43.28573,"lon":5.394992,"is_reserved":false,"is_disabled":false,"rental_uris":{"android":"levelo://app?vid=696c181d-79fb-4121-a07e-54c2bf344a88","ios":"levelo://app?vid=696c181d-79fb-4121-a07e-54c2bf344a88"},"vehicle_type_id":"4","last_reported":1703700504,"current_range_meters":13200,"station_id":"ce4bh292rcd13ifvqdg0","pricing_plan_id":"free"},{"bike_id":"14de7076-d876-4e09-b880-b5f95b5ddf51","system_id":"levelo_inurba_marseille","lat":43.285742,"lon":5.395004,"is_reserved":false,"is_disabled":false,"rental_uris":{"android":"levelo://app?vid=14de7076-d876-4e09-b880-b5f95b5ddf51","ios":"levelo://app?vid=14de7076-d876-4e09-b880-b5f95b5ddf51"},"vehicle_type_id":"4","last_reported":1703700504,"current_range_meters":18000,"station_id":"ce4bh292rcd13ifvqdg0","pricing_plan_id":"free"},{"bike_id":"50f5f9f1-88bd-4e16-9dd2-87d1d8a558fa","system_id":"levelo_inurba_marseille","lat":43.326605,"lon":5.409903,"is_reserved":false,"is_disabled":false,"rental_uris":{"android":"levelo://app?vid=50f5f9f1-88bd-4e16-9dd2-87d1d8a558fa","ios":"levelo://app?vid=50f5f9f1-88bd-4e16-9dd2-87d1d8a558fa"},"vehicle_type_id":"4","last_reported":1703700504,"current_range_meters":28400,"station_id":"ce4bhpp2rcd13ifvqhgg","pricing_plan_id":"free"},{"bike_id":"c9d73eed-5888-4e39-be0e-da9a3b48d0b3","system_id":"levelo_inurba_marseille","lat":43.283633,"lon":5.392028,"is_reserved":false,"is_disabled":false,"rental_uris":{"android":"levelo://app?vid=c9d73eed-5888-4e39-be0e-da9a3b48d0b3","ios":"levelo://app?vid=c9d73eed-5888-4e39-be0e-da9a3b48d0b3"},"vehicle_type_id":"4","last_reported":1703700504,"current_range_meters":22000,"station_id":"","pricing_plan_id":"free"},{"bike_id":"edc92465-6d00-4372-be19-bd8de723b1a6","system_id":"levelo_inurba_marseille","lat":43.304188,"lon":5.412904,"is_reserved":false,"is_disabled":false,"rental_uris":{"android":"levelo://app?vid=edc92465-6d00-4372-be19-bd8de723b1a6","ios":"levelo://app?vid=edc92465-6d00-4372-be19-bd8de723b1a6"},"vehicle_type_id":"4","last_reported":1703700504,"current_range_meters":14000,"station_id":"ce4bhop2rcd13ifvqh8g","pricing_plan_id":"free"},{"bike_id":"416bdfae-f3c5-4a48-94bd-4dc05c82a988","system_id":"levelo_inurba_marseille","lat":43.304188,"lon":5.412904,"is_reserved":false,"is_disabled":false,"rental_uris":{"android":"levelo://app?vid=416bdfae-f3c5-4a48-94bd-4dc05c82a988","ios":"levelo://app?vid=416bdfae-f3c5-4a48-94bd-4dc05c82a988"},"vehicle_type_id":"4","last_reported":1703700504,"current_range_meters":3600,"station_id":"ce4bhop2rcd13ifvqh8g","pricing_plan_id":"free"},{"bike_id":"41b59856-6d85-4403-af7d-51e6d1cd4c98","system_id":"levelo_inurba_marseille","lat":43.304188,"lon":5.412904,"is_reserved":false,"is_disabled":false,"rental_uris":{"android":"levelo://app?vid=41b59856-6d85-4403-af7d-51e6d1cd4c98","ios":"levelo://app?vid=41b59856-6d85-4403-af7d-51e6d1cd4c98"},"vehicle_type_id":"4","last_reported":1703700504,"current_range_meters":31600,"station_id":"ce4bhop2rcd13ifvqh8g","pricing_plan_id":"free"},{"bike_id":"4db615f4-c98b-4d77-b0dc-096fb7fedc50","system_id":"levelo_inurba_marseille","lat":43.304188,"lon":5.412904,"is_reserved":false,"is_disabled":false,"rental_uris":{"android":"levelo://app?vid=4db615f4-c98b-4d77-b0dc-096fb7fedc50","ios":"levelo://app?vid=4db615f4-c98b-4d77-b0dc-096fb7fedc50"},"vehicle_type_id":"4","last_reported":1703700504,"current_range_meters":400,"station_id":"ce4bhop2rcd13ifvqh8g","pricing_plan_id":"free"},{"bike_id":"a4a5ccde-62af-4c28-95c1-d68b50703509","system_id":"levelo_inurba_marseille","lat":43.3268,"lon":5.41042,"is_reserved":false,"is_disabled":false,"rental_uris":{"android":"levelo://app?vid=a4a5ccde-62af-4c28-95c1-d68b50703509","ios":"levelo://app?vid=a4a5ccde-62af-4c28-95c1-d68b50703509"},"vehicle_type_id":"4","last_reported":1703700504,"current_range_meters":25200,"station_id":"ce4bhpp2rcd13ifvqhgg","pricing_plan_id":"free"},{"bike_id":"b3508135-b5d1-420a-9532-2658a7d222a5","system_id":"levelo_inurba_marseille","lat":43.279087,"lon":5.380114,"is_reserved":false,"is_disabled":false,"rental_uris":{"android":"levelo://app?vid=b3508135-b5d1-420a-9532-2658a7d222a5","ios":"levelo://app?vid=b3508135-b5d1-420a-9532-2658a7d222a5"},"vehicle_type_id":"4","last_reported":1703700504,"current_range_meters":26800,"station_id":"ce4bhf92rcd13ifvqf50","pricing_plan_id":"free"},{"bike_id":"824649d1-68f8-4079-abff-ba8c25239c33","system_id":"levelo_inurba_marseille","lat":43.279087,"lon":5.380114,"is_reserved":false,"is_disabled":false,"rental_uris":{"android":"levelo://app?vid=824649d1-68f8-4079-abff-ba8c25239c33","ios":"levelo://app?vid=824649d1-68f8-4079-abff-ba8c25239c33"},"vehicle_type_id":"4","last_reported":1703700504,"current_range_meters":28000,"station_id":"ce4bhf92rcd13ifvqf50","pricing_plan_id":"free"},{"bike_id":"e3df3f2a-2cbc-4bc0-8ce0-e6a80d69b2c2","system_id":"levelo_inurba_marseille","lat":43.287154,"lon":5.399979,"is_reserved":false,"is_disabled":false,"rental_uris":{"android":"levelo://app?vid=e3df3f2a-2cbc-4bc0-8ce0-e6a80d69b2c2","ios":"levelo://app?vid=e3df3f2a-2cbc-4bc0-8ce0-e6a80d69b2c2"},"vehicle_type_id":"4","last_reported":1703700504,"current_range_meters":25600,"station_id":"ce4bho92rcd13ifvqh3g","pricing_plan_id":"free"},{"bike_id":"beb97639-1487-46bc-9aa8-ceb915e1ec35","system_id":"levelo_inurba_marseille","lat":43.287154,"lon":5.399979,"is_reserved":false,"is_disabled":false,"rental_uris":{"android":"levelo://app?vid=beb97639-1487-46bc-9aa8-ceb915e1ec35","ios":"levelo://app?vid=beb97639-1487-46bc-9aa8-ceb915e1ec35"},"vehicle_type_id":"4","last_reported":1703700504,"current_range_meters":23600,"station_id":"ce4bho92rcd13ifvqh3g","pricing_plan_id":"free"},{"bike_id":"1142710b-2f15-4dcd-b14d-140012ac0bfd","system_id":"levelo_inurba_marseille","lat":43.27967,"lon":5.38738,"is_reserved":false,"is_disabled":false,"rental_uris":{"android":"levelo://app?vid=1142710b-2f15-4dcd-b14d-140012ac0bfd","ios":"levelo://app?vid=1142710b-2f15-4dcd-b14d-140012ac0bfd"},"vehicle_type_id":"4","last_reported":1703700504,"current_range_meters":15200,"station_id":"ce4bhg12rcd13ifvqf80","pricing_plan_id":"free"},{"bike_id":"48e7f89a-fb3e-4fec-8f8e-9727e7a7c4fc","system_id":"levelo_inurba_marseille","lat":43.29257,"lon":5.40903,"is_reserved":false,"is_disabled":false,"rental_uris":{"android":"levelo://app?vid=48e7f89a-fb3e-4fec-8f8e-9727e7a7c4fc","ios":"levelo://app?vid=48e7f89a-fb3e-4fec-8f8e-9727e7a7c4fc"},"vehicle_type_id":"4","last_reported":1703700504,"current_range_meters":21600,"station_id":"ce4bh192rcd13ifvqdc0","pricing_plan_id":"free"},{"bike_id":"b8d78260-9a88-4625-9b90-29a8f1b88d97","system_id":"levelo_inurba_marseille","lat":43.340804,"lon":5.410219,"is_reserved":false,"is_disabled":false,"rental_uris":{"android":"levelo://app?vid=b8d78260-9a88-4625-9b90-29a8f1b88d97","ios":"levelo://app?vid=b8d78260-9a88-4625-9b90-29a8f1b88d97"},"vehicle_type_id":"4","last_reported":1703700504,"current_range_meters":10000,"station_id":"ce4bhqh2rcd13ifvqhlg","pricing_plan_id":"free"},{"bike_id":"9524e1c5-3e70-4a61-98de-9c4ac3fd8b58","system_id":"levelo_inurba_marseille","lat":43.292569,"lon":5.409107,"is_reserved":false,"is_disabled":false,"rental_uris":{"android":"levelo://app?vid=9524e1c5-3e70-4a61-98de-9c4ac3fd8b58","ios":"levelo://app?vid=9524e1c5-3e70-4a61-98de-9c4ac3fd8b58"},"vehicle_type_id":"4","last_reported":1703700504,"current_range_meters":19600,"station_id":"ce4bh192rcd13ifvqdc0","pricing_plan_id":"free"},{"bike_id":"0b732704-7607-429e-84f5-3138fba41d2c","system_id":"levelo_inurba_marseille","lat":43.325423,"lon":5.41441,"is_reserved":false,"is_disabled":false,"rental_uris":{"android":"levelo://app?vid=0b732704-7607-429e-84f5-3138fba41d2c","ios":"levelo://app?vid=0b732704-7607-429e-84f5-3138fba41d2c"},"vehicle_type_id":"4","last_reported":1703700504,"current_range_meters":3600,"station_id":"ce4bhq12rcd13ifvqhhg","pricing_plan_id":"free"},{"bike_id":"0f965ff5-a164-48d3-b306-1d8356e7fa64","system_id":"levelo_inurba_marseille","lat":43.27618,"lon":5.361009,"is_reserved":false,"is_disabled":false,"rental_uris":{"android":"levelo://app?vid=0f965ff5-a164-48d3-b306-1d8356e7fa64","ios":"levelo://app?vid=0f965ff5-a164-48d3-b306-1d8356e7fa64"},"vehicle_type_id":"4","last_reported":1703700504,"current_range_meters":16400,"station_id":"ce4bgj92rcd13ifvqbe0","pricing_plan_id":"free"},{"bike_id":"fe24d15c-11c2-484f-b180-ee87508dc74d","system_id":"levelo_inurba_marseille","lat":43.276179,"lon":5.361009,"is_reserved":false,"is_disabled":false,"rental_uris":{"android":"levelo://app?vid=fe24d15c-11c2-484f-b180-ee87508dc74d","ios":"levelo://app?vid=fe24d15c-11c2-484f-b180-ee87508dc74d"},