{"last_updated":1758740891,"ttl":60,"version":"2.2","data":{"bikes":[{"bike_id":"569b18ba-1939-470c-9827-113817ffcaa2","system_id":"levelo_inurba_marseille","lat":43.265522,"lon":5.372841,"is_reserved":false,"is_disabled":false,"rental_uris":{"android":"levelo://app?vid=569b18ba-1939-470c-9827-113817ffcaa2","ios":"levelo://app?vid=569b18ba-1939-470c-9827-113817ffcaa2"},"vehicle_type_id":"4","last_reported":1758740892,"current_range_meters":2800,"station_id":"ce4bhg12rcd13ifvqf70","pricing_plan_id":"cebpf4jnsgd1na2vs0mg"},{"bike_id":"cdee4a2e-5625-4197-9cee-6749da5a987b","system_id":"levelo_inurba_marseille","lat":43.27953,"lon":5.38738,"is_reserved":false,"is_disabled":false,"rental_uris":{"android":"levelo://app?vid=cdee4a2e-5625-4197-9cee-6749da5a987b","ios":"levelo://app?vid=cdee4a2e-5625-4197-9cee-6749da5a987b"},"vehicle_type_id":"4","last_reported":1758740892,"current_range_meters":2800,"station_id":"ce4bhg12rcd13ifvqf80","pricing_plan_id":"cebpf4jnsgd1na2vs0mg"},{"bike_id":"3b62bcbf-6017-4011-a428-70080672f0b7","system_id":"levelo_inurba_marseille","lat":43.2793,"lon":5.3871,"is_reserved":false,"is_disabled":false,"rental_uris":{"android":"levelo://app?vid=3b62bcbf-6017-4011-a428-70080672f0b7","ios":"levelo://app?vid=3b62bcbf-6017-4011-a428-70080672f0b7"},"vehicle_type_id":"4","last_reported":1758740892,"current_range_meters":2800,"station_id":"","pricing_plan_id":"cebpf4jnsgd1na2vs0mg"},{"bike_id":"de92bc5b-be05-41b9-8f6c-df5b7f3819c4","system_id":"levelo_inurba_marseille","lat":43.29295,"lon":5.37465,"is_reserved":false,"is_disabled":false,"rental_uris":{"android":"levelo://app?vid=de92bc5b-be05-41b9-8f6c-df5b7f3819c4","ios":"levelo://app?vid=de92bc5b-be05-41b9-8f6c-df5b7f3819c4"},"vehicle_type_id":"4","last_reported":1758740892,"current_range_meters":2800,"station_id":"ce4bgi12rcd13ifvqb70","pricing_plan_id":"cebpf4jnsgd1na2vs0mg"},{"bike_id":"cd8dc87a-7d5d-4249-afd5-fe031626b156","system_id":"levelo_inurba_marseille","lat":43.26195,"lon":5.37933,"is_reserved":false,"is_disabled":false,"rental_uris":{"android":"levelo://app?vid=cd8dc87a-7d5d-4249-afd5-fe031626b156","ios":"levelo://app?vid=cd8dc87a-7d5d-4249-afd5-fe031626b156"},"vehicle_type_id":"4","last_reported":1758740892,"current_range_meters":2800,"station_id":"ce4bhjp2rcd13ifvqg90","pricing_plan_id":"cebpf4jnsgd1na2vs0mg"},{"bike_id":"87a641ef-6903-4d0f-b256-a654d6347ac2","system_id":"levelo_inurba_marseille","lat":43.29186,"lon":5.39316,"is_reserved":false,"is_disabled":false,"rental_uris":{"android":"levelo://app?vid=87a641ef-6903-4d0f-b256-a654d6347ac2","ios":"levelo://app?vid=87a641ef-6903-4d0f-b256-a654d6347ac2"},"vehicle_type_id":"4","last_reported":1758740892,"current_range_meters":3600,"station_id":"ce4bh192rcd13ifvqdd0","pricing_plan_id":"cebpf4jnsgd1na2vs0mg"},{"bike_id":"cb6bf7d2-2ed1-47c4-b0a7-9c935f0ebf1a","system_id":"levelo_inurba_marseille","lat":43.26863,"lon":5.40684,"is_reserved":false,"is_disabled":false,"rental_uris":{"android":"levelo://app?vid=cb6bf7d2-2ed1-47c4-b0a7-9c935f0ebf1a","ios":"levelo://app?vid=cb6bf7d2-2ed1-47c4-b0a7-9c935f0ebf1a"},"vehicle_type_id":"4","last_reported":1758740892,"current_range_meters":3600,"station_id":"","pricing_plan_id":"cebpf4jnsgd1na2vs0mg"},{"bike_id":"cac889cb-42f6-46ba-8604-9a52d251ed42","system_id":"levelo_inurba_marseille","lat":43.32714,"lon":5.39243,"is_reserved":false,"is_disabled":false,"rental_uris":{"android":"levelo://app?vid=cac889cb-42f6-46ba-8604-9a52d251ed42","ios":"levelo://app?vid=cac889cb-42f6-46ba-8604-9a52d251ed42"},"vehicle_type_id":"4","last_reported":1758740892,"current_range_meters":3600,"station_id":"","pricing_plan_id":"cebpf4jnsgd1na2vs0mg"},{"bike_id":"94c19bfa-472c-4fca-bfb6-df2ab6f141c1","system_id":"levelo_inurba_marseille","lat":43.3059,"lon":5.37227,"is_reserved":false,"is_disabled":false,"rental_uris":{"android":"levelo://app?vid=94c19bfa-472c-4fca-bfb6-df2ab6f141c1","ios":"levelo://app?vid=94c19bfa-472c-4fca-bfb6-df2ab6f141c1"},"vehicle_type_id":"4","last_reported":1758740892,"current_range_meters":2000,"station_id":"ce4bgqh2rcd13ifvqc4g","pricing_plan_id":"cebpf4jnsgd1na2vs0mg"},{"bike_id":"0274c198-d9b6-4c23-a63e-858673ee183d","system_id":"levelo_inurba_marseille","lat":43.299345,"lon":5.374682,"is_reserved":false,"is_disabled":false,"rental_uris":{"android":"levelo://app?vid=0274c198-d9b6-4c23-a63e-858673ee183d","ios":"levelo://app?vid=0274c198-d9b6-4c23-a63e-858673ee183d"},"vehicle_type_id":"4","last_reported":1758740892,"current_range_meters":3600,"station_id":"ce4bgjh2rcd13ifvqbg0","pricing_plan_id":"cebpf4jnsgd1na2vs0mg"},{"bike_id":"ba89579c-0bd3-4ad0-95b4-cd370e98c5db","system_id":"levelo_inurba_marseille","lat":43.2789,"lon":5.37994,"is_reserved":false,"is_disabled":false,"rental_uris":{"android":"levelo://app?vid=ba89579c-0bd3-4ad0-95b4-cd370e98c5db","ios":"levelo://app?vid=ba89579c-0bd3-4ad0-95b4-cd370e98c5db"},"vehicle_type_id":"4","last_reported":1758740892,"current_range_meters":4000,"station_id":"ce4bhf92rcd13ifvqf50","pricing_plan_id":"cebpf4jnsgd1na2vs0mg"},{"bike_id":"3f0b7c43-f039-460c-9f33-3338bf25c677","system_id":"levelo_inurba_marseille","lat":43.29639,"lon":5.4061,"is_reserved":false,"is_disabled":false,"rental_uris":{"android":"levelo://app?vid=3f0b7c43-f039-460c-9f33-3338bf25c677","ios":"levelo://app?vid=3f0b7c43-f039-460c-9f33-3338bf25c677"},"vehicle_type_id":"4","last_reported":1758740892,"current_range_meters":4000,"station_id":"ce4bh0h2rcd13ifvqd60","pricing_plan_id":"cebpf4jnsgd1na2vs0mg"},{"bike_id":"5bdc739f-e4b9-4402-b096-95ba59e5d8ba","system_id":"levelo_inurba_marseille","lat":43.28935,"lon":5.39629,"is_reserved":false,"is_disabled":false,"rental_uris":{"android":"levelo://app?vid=5bdc739f-e4b9-4402-b096-95ba59e5d8ba","ios":"levelo://app?vid=5bdc739f-e4b9-4402-b096-95ba59e5d8ba"},"vehicle_type_id":"4","last_reported":1758740892,"current_range_meters":4000,"station_id":"ce4bh3h2rcd13ifvqdn0","pricing_plan_id":"cebpf4jnsgd1na2vs0mg"},{"bike_id":"1efddf8d-578f-4e4c-8c3f-e3a8bd592ba4","system_id":"levelo_inurba_marseille","lat":43.29969,"lon":5.37389,"is_reserved":false,"is_disabled":false,"rental_uris":{"android":"levelo://app?vid=1efddf8d-578f-4e4c-8c3f-e3a8bd592ba4","ios":"levelo://app?vid=1efddf8d-578f-4e4c-8c3f-e3a8bd592ba4"},"vehicle_type_id":"4","last_reported":1758740892,"current_range_meters":4400,"station_id":"","pricing_plan_id":"cebpf4jnsgd1na2vs0mg"},{"bike_id":"e2e5067e-6ea6-44b7-a1ae-9d9a55f5a15c","system_id":"levelo_inurba_marseille","lat":43.299531,"lon":5.365519,"is_reserved":false,"is_disabled":false,"rental_uris":{"android":"levelo://app?vid=e2e5067e-6ea6-44b7-a1ae-9d9a55f5a15c","ios":"levelo://app?vid=e2e5067e-6ea6-44b7-a1ae-9d9a55f5a15c"},"vehicle_type_id":"4","last_reported":1758740892,"current_range_meters":4400,"station_id":"ce4bgm92rcd13ifvqbr0","pricing_plan_id":"cebpf4jnsgd1na2vs0mg"},{"bike_id":"d438a9f1-ef20-4424-b3c2-16739a72dbf2","system_id":"levelo_inurba_marseille","lat":43.28605,"lon":5.37072,"is_reserved":false,"is_disabled":false,"rental_uris":{"android":"levelo://app?vid=d438a9f1-ef20-4424-b3c2-16739a72dbf2","ios":"levelo://app?vid=d438a9f1-ef20-4424-b3c2-16739a72dbf2"},"vehicle_type_id":"4","last_reported":1758740892,"current_range_meters":4400,"station_id":"ce4bht12rcd13ifvqi60","pricing_plan_id":"cebpf4jnsgd1na2vs0mg"},{"bike_id":"697a0155-88a8-44c2-b037-c72d27b2daf7","system_id":"levelo_inurba_marseille","lat":43.30901,"lon":5.36845,"is_reserved":false,"is_disabled":false,"rental_uris":{"android":"levelo://app?vid=697a0155-88a8-44c2-b037-c72d27b2daf7","ios":"levelo://app?vid=697a0155-88a8-44c2-b037-c72d27b2daf7"},"vehicle_type_id":"4","last_reported":1758740892,"current_range_meters":4400,"station_id":"ce4bgn92rcd13ifvqbvg","pricing_plan_id":"cebpf4jnsgd1na2vs0mg"},{"bike_id":"2971a5db-93b0-4aca-9758-1f83df1bc600","system_id":"levelo_inurba_marseille","lat":43.25579,"lon":5.38231,"is_reserved":false,"is_disabled":false,"rental_uris":{"android":"levelo://app?vid=2971a5db-93b0-4aca-9758-1f83df1bc600","ios":"levelo://app?vid=2971a5db-93b0-4aca-9758-1f83df1bc600"},"vehicle_type_id":"4","last_reported":1758740892,"current_range_meters":4400,"station_id":"ce4bhih2rcd13ifvqfs0","pricing_plan_id":"cebpf4jnsgd1na2vs0mg"},{"bike_id":"cd5e33c3-c91e-4522-9e2f-e422ab4b6646","system_id":"levelo_inurba_marseille","lat":43.24805,"lon":5.37463,"is_reserved":false,"is_disabled":false,"rental_uris":{"android":"levelo://app?vid=cd5e33c3-c91e-4522-9e2f-e422ab4b6646","ios":"levelo://app?vid=cd5e33c3-c91e-4522-9e2f-e422ab4b6646"},"vehicle_type_id":"4","last_reported":1758740892,"current_range_meters":4400,"station_id":"ce4bhgh2rcd13ifvqfb0","pricing_plan_id":"cebpf4jnsgd1na2vs0mg"},{"bike_id":"4f443f40-7bb2-4d4c-8877-8e480b9e1b08","system_id":"levelo_inurba_marseille","lat":43.2917,"lon":5.37168,"is_reserved":false,"is_disabled":false,"rental_uris":{"android":"levelo://app?vid=4f443f40-7bb2-4d4c-8877-8e480b9e1b08","ios":"levelo://app?vid=4f443f40-7bb2-4d4c-8877-8e480b9e1b08"},"vehicle_type_id":"4","last_reported":1758740892,"current_range_meters":4800,"station_id":"ce4bha92rcd13ifvqeh0","pricing_plan_id":"cebpf4jnsgd1na2vs0mg"},{"bike_id":"6f9086ed-9d5c-4c63-b5e8-d11d7a6cd960","system_id":"levelo_inurba_marseille","lat":43.28729,"lon":5.40006,"is_reserved":false,"is_disabled":false,"rental_uris":{"android":"levelo://app?vid=6f9086ed-9d5c-4c63-b5e8-d11d7a6cd960","ios":"levelo://app?vid=6f9086ed-9d5c-4c63-b5e8-d11d7a6cd960"},"vehicle_type_id":"4","last_reported":1758740892,"current_range_meters":4400,"station_id":"ce4bho92rcd13ifvqh3g","pricing_plan_id":"cebpf4jnsgd1na2vs0mg"},{"bike_id":"8178052d-6853-4a4b-af5f-ac3b8c071fa4","system_id":"levelo_inurba_marseille","lat":43.31161,"lon":5.38718,"is_reserved":false,"is_disabled":false,"rental_uris":{"android":"levelo://app?vid=8178052d-6853-4a4b-af5f-ac3b8c071fa4","ios":"levelo://app?vid=8178052d-6853-4a4b-af5f-ac3b8c071fa4"},"vehicle_type_id":"4","last_reported":1758740892,"current_range_meters":4400,"station_id":"ce4bgv12rcd13ifvqcp0","pricing_plan_id":"cebpf4jnsgd1na2vs0mg"},{"bike_id":"2e266b9c-aff2-471c-85e4-0cde6191cf96","system_id":"levelo_inurba_marseille","lat":43.2668,"lon":5.38268,"is_reserved":false,"is_disabled":false,"rental_uris":{"android":"levelo://app?vid=2e266b9c-aff2-471c-85e4-0cde6191cf96","ios":"levelo://app?vid=2e266b9c-aff2-471c-85e4-0cde6191cf96"},"vehicle_type_id":"4","last_reported":1758740892,"current_range_meters":4800,"station_id":"ce4bhg92rcd13ifvqf90","pricing_plan_id":"cebpf4jnsgd1na2vs0mg"},{"bike_id":"962b15bf-a341-4469-9450-c0428eb337e2","system_id":"levelo_inurba_marseille","lat":43.2317,"lon":5.43712,"is_reserved":false,"is_disabled":true,"rental_uris":{"android":"levelo://app?vid=962b15bf-a341-4469-9450-c0428eb337e2","ios":"levelo://app?vid=962b15bf-a341-4469-9450-c0428eb337e2"},"vehicle_type_id":"4","last_reported":1758740892,"current_range_meters":4800,"station_id":"ce4bhmp2rcd13ifvqgog","pricing_plan_id":"cebpf4jnsgd1na2vs0mg"},{"bike_id":"26a85a7a-988b-423a-8e31-39030895c32a","system_id":"levelo_inurba_marseille","lat":43.28267,"lon":5.35066,"is_reserved":false,"is_disabled":false,"rental_uris":{"android":"levelo://app?vid=26a85a7a-988b-423a-8e31-39030895c32a","ios":"levelo://app?vid=26a85a7a-988b-423a-8e31-39030895c32a"},"vehicle_type_id":"4","last_reported":1758740892,"current_range_meters":4400,"station_id":"ce4bhbp2rcd13ifvqerg","pricing_plan_id":"cebpf4jnsgd1na2vs0mg"},{"bike_id":"59084bde-e9ac-415f-ad77-125339465b70","system_id":"levelo_inurba_marseille","lat":43.283364,"lon":5.375074,"is_reserved":false,"is_disabled":false,"rental_uris":{"android":"levelo://app?vid=59084bde-e9ac-415f-ad77-125339465b70","ios":"levelo://app?vid=59084bde-e9ac-415f-ad77-125339465b70"},"vehicle_type_id":"4","last_reported":1758740892,"current_range_meters":4400,"station_id":"ce4bha12rcd13ifvqee0","pricing_plan_id":"cebpf4jnsgd1na2vs0mg"},{"bike_id":"404de1e5-6103-4d06-a151-77f2fba135fd","system_id":"levelo_inurba_marseille","lat":43.30088,"lon":5.39097,"is_reserved":false,"is_disabled":false,"rental_uris":{"android":"levelo://app?vid=404de1e5-6103-4d06-a151-77f2fba135fd","ios":"levelo://app?vid=404de1e5-6103-4d06-a151-77f2fba135fd"},"vehicle_type_id":"4","last_reported":1758740892,"current_range_meters":5600,"station_id":"ce4bh192rcd13ifvqdb0","pricing_plan_id":"cebpf4jnsgd1na2vs0mg"},{"bike_id":"355e741c-878f-4775-9222-3a4d87cf17a7","system_id":"levelo_inurba_marseille","lat":43.24672,"lon":5.38168,"is_reserved":false,"is_disabled":true,"rental_uris":{"android":"levelo://app?vid=355e741c-878f-4775-9222-3a4d87cf17a7","ios":"levelo://app?vid=355e741c-878f-4775-9222-3a4d87cf17a7"},"vehicle_type_id":"4","last_reported":1758740892,"current_range_meters":5600,"station_id":"ce4bhih2rcd13ifvqfr0","pricing_plan_id":"cebpf4jnsgd1na2vs0mg"},{"bike_id":"5062257a-a9a4-48fc-b4d4-283b9cecbac8","system_id":"levelo_inurba_marseille","lat":43.31365,"lon":5.38494,"is_reserved":false,"is_disabled":false,"rental_uris":{"android":"levelo://app?vid=5062257a-a9a4-48fc-b4d4-283b9cecbac8","ios":"levelo://app?vid=5062257a-a9a4-48fc-b4d4-283b9cecbac8"},"vehicle_type_id":"4","last_reported":1758740892,"current_range_meters":4800,"station_id":"ce4bgt92rcd13ifvqcf0","pricing_plan_id":"cebpf4jnsgd1na2vs0mg"},{"bike_id":"c95e0c05-dd94-491f-8092-9c7978400114","system_id":"levelo_inurba_marseille","lat":43.334863,"lon":5.362586,"is_reserved":false,"is_disabled":false,"rental_uris":{"android":"levelo://app?vid=c95e0c05-dd94-491f-8092-9c7978400114","ios":"levelo://app?vid=c95e0c05-dd94-491f-8092-9c7978400114"},"vehicle_type_id":"4","last_reported":1758740892,"current_range_meters":6000,"station_id":"ce4bhs12rcd13ifvqhvg","pricing_plan_id":"cebpf4jnsgd1na2vs0mg"},{"bike_id":"939538dc-20bd-4d94-8a10-8e1e0a179bc7","system_id":"levelo_inurba_marseille","lat":43.33747,"lon":5.37752,"is_reserved":false,"is_disabled":false,"rental_uris":{"android":"levelo://app?vid=939538dc-20bd-4d94-8a10-8e1e0a179bc7","ios":"levelo://app?vid=939538dc-20bd-4d94-8a10-8e1e0a179bc7"},"vehicle_type_id":"4","last_reported":1758740892,"current_range_meters":6000,"station_id":"","pricing_plan_id":"cebpf4jnsgd1na2vs0mg"},{"bike_id":"ee63ef86-d867-4987-9586-c0b0caef65f0","system_id":"levelo_inurba_marseille","lat":43.2894,"lon":5.36644,"is_reserved":false,"is_disabled":false,"rental_uris":{"android":"levelo://app?vid=ee63ef86-d867-4987-9586-c0b0caef65f0","ios":"levelo://app?vid=ee63ef86-d867-4987-9586-c0b0caef65f0"},"vehicle_type_id":"4","last_reported":1758740892,"current_range_meters":8800,"station_id":"ce4bhap2rcd13ifvqek0","pricing_plan_id":"cebpf4jnsgd1na2vs0mg"},{"bike_id":"92273c98-d430-4f5c-8310-44545f706d08","system_id":"levelo_inurba_marseille","lat":43.29979,"lon":5.38491,"is_reserved":false,"is_disabled":false,"rental_uris":{"android":"levelo://app?vid=92273c98-d430-4f5c-8310-44545f706d08","ios":"levelo://app?vid=92273c98-d430-4f5c-8310-44545f706d08"},"vehicle_type_id":"4","last_reported":1758740892,"current_range_meters":6400,"station_id":"ce4bgj92rcd13ifvqbd0","pricing_plan_id":"cebpf4jnsgd1na2vs0mg"},{"bike_id":"dceb6710-6d62-4089-9089-a18bc266dc68","system_id":"levelo_inurba_marseille","lat":43.29576,"lon":5.39979,"is_reserved":false,"is_disabled":true,"rental_uris":{"android":"levelo://app?vid=dceb6710-6d62-4089-9089-a18bc266dc68","ios":"levelo://app?vid=dceb6710-6d62-4089-9089-a18bc266dc68"},"vehicle_type_id":"4","last_reported":1758740892,"current_range_meters":6400,"station_id":"ce4bh312rcd13ifvqdj0","pricing_plan_id":"cebpf4jnsgd1na2vs0mg"},{"bike_id":"7703025d-db4d-454c-9062-f0de3b7018e2","system_id":"levelo_inurba_marseille","lat":43.258252,"lon":5.394395,"is_reserved":false,"is_disabled":false,"rental_uris":{"android":"levelo://app?vid=7703025d-db4d-454c-9062-f0de3b7018e2","ios":"levelo://app?vid=7703025d-db4d-454c-9062-f0de3b7018e2"},"vehicle_type_id":"4","last_reported":1758740892,"current_range_meters":9200,"station_id":"ce4bhip2rcd13ifvqft0","pricing_plan_id":"cebpf4jnsgd1na2vs0mg"},{"bike_id":"4a1554b2-969f-455c-9dee-087eed09b6a0","system_id":"levelo_inurba_marseille","lat":43.290142,"lon":5.386576,"is_reserved":false,"is_disabled":false,"rental_uris":{"android":"levelo://app?vid=4a1554b2-969f-455c-9dee-087eed09b6a0","ios":"levelo://app?vid=4a1554b2-969f-455c-9dee-087eed09b6a0"},"vehicle_type_id":"4","last_reported":1758740892,"current_range_meters":6400,"station_id":"ce4bh4p2rcd13ifvqe0g","pricing_plan_id":"cebpf4jnsgd1na2vs0mg"},{"bike_id":"c0e09fcd-6eb3-4487-95c6-c6f132f39de3","system_id":"levelo_inurba_marseille","lat":43.22518,"lon":5.34837,"is_reserved":false,"is_disabled":false,"rental_uris":{"android":"levelo://app?vid=c0e09fcd-6eb3-4487-95c6-c6f132f39de3","ios":"levelo://app?vid=c0e09fcd-6eb3-4487-95c6-c6f132f39de3"},"vehicle_type_id":"4","last_reported":1758740892,"current_range_meters":6800,"station_id":"","pricing_plan_id":"cebpf4jnsgd1na2vs0mg"},{"bike_id":"62e1f79e-427d-4fe8-8f65-8c377c3c8f45","system_id":"levelo_inurba_marseille","lat":43.30426,"lon":5.38893,"is_reserved":false,"is_disabled":false,"rental_uris":{"android":"levelo://app?vid=62e1f79e-427d-4fe8-8f65-8c377c3c8f45","ios":"levelo://app?vid=62e1f79e-427d-4fe8-8f65-8c377c3c8f45"},"vehicle_type_id":"4","last_reported":1758740892,"current_range_meters":6800,"station_id":"ce4bgk12rcd13ifvqbi0","pricing_plan_id":"cebpf4jnsgd1na2vs0mg"},{"bike_id":"b2e19ea4-8322-44b5-8852-6a54b7a84dac","system_id":"levelo_inurba_marseille","lat":43.29024,"lon":5.38641,"is_reserved":false,"is_disabled":false,"rental_uris":{"android":"levelo://app?vid=b2e19ea4-8322-44b5-8852-6a54b7a84dac","ios":"levelo://app?vid=b2e19ea4-8322-44b5-8852-6a54b7a84dac"},"vehicle_type_id":"4","last_reported":1758740892,"current_range_meters":6800,"station_id":"ce4bh4p2rcd13ifvqe0g","pricing_plan_id":"cebpf4jnsgd1na2vs0mg"},{"bike_id":"1d7db0bd-760f-4287-9951-d86c494be6cc","system_id":"levelo_inurba_marseille","lat":43.29754,"lon":5.38101,"is_reserved":false,"is_disabled":false,"rental_uris":{"android":"levelo://app?vid=1d7db0bd-760f-4287-9951-d86c494be6cc","ios":"levelo://app?vid=1d7db0bd-760f-4287-9951-d86c494be6cc"},"vehicle_type_id":"4","last_reported":1758740892,"current_range_meters":6800,"station_id":"","pricing_plan_id":"cebpf4jnsgd1na2vs0mg"},{"bike_id":"29a37f98-8ad7-42ad-9e7e-47ea9a7046ed","system_id":"levelo_inurba_marseille","lat":43.30124,"lon":5.39868,"is_reserved":false,"is_disabled":false,"rental_uris":{"android":"levelo://app?vid=29a37f98-8ad7-42ad-9e7e-47ea9a7046ed","ios":"levelo://app?vid=29a37f98-8ad7-42ad-9e7e-47ea9a7046ed"},"vehicle_type_id":"4","last_reported":1758740892,"current_range_meters":6800,"station_id":"ce4bh0h2rcd13ifvqd40","pricing_plan_id":"cebpf4jnsgd1na2vs0mg"},{"bike_id":"6b3642fc-86d3-4015-a2d8-a9bb6e750ead","system_id":"levelo_inurba_marseille","lat":43.2656,"lon":5.37288,"is_reserved":false,"is_disabled":false,"rental_uris":{"android":"levelo://app?vid=6b3642fc-86d3-4015-a2d8-a9bb6e750ead","ios":"levelo://app?vid=6b3642fc-86d3-4015-a2d8-a9bb6e750ead"},"vehicle_type_id":"4","last_reported":1758740892,"current_range_meters":7200,"station_id":"ce4bhg12rcd13ifvqf70","pricing_plan_id":"cebpf4jnsgd1na2vs0mg"},{"bike_id":"8dbb87b8-430c-4752-abef-9b6c00f58012","system_id":"levelo_inurba_marseille","lat":43.30887,"lon":5.37186,"is_reserved":false,"is_disabled":false,"rental_uris":{"android":"levelo://app?vid=8dbb87b8-430c-4752-abef-9b6c00f58012","ios":"levelo://app?vid=8dbb87b8-430c-4752-abef-9b6c00f58012"},"vehicle_type_id":"4","last_reported":1758740892,"current_range_meters":7200,"station_id":"ce4bguh2rcd13ifvqckg","pricing_plan_id":"cebpf4jnsgd1na2vs0mg"},{"bike_id":"207f992a-acfe-4c0b-82d1-0f7fcf61aa0c","system_id":"levelo_inurba_marseille","lat":43.241805,"lon":5.397147,"is_reserved":false,"is_disabled":true,"rental_uris":{"android":"levelo://app?vid=207f992a-acfe-4c0b-82d1-0f7fcf61aa0c","ios":"levelo://app?vid=207f992a-acfe-4c0b-82d1-0f7fcf61aa0c"},"vehicle_type_id":"4","last_reported":1758740892,"current_range_meters":7200,"station_id":"ce4bhn12rcd13ifvqgpg","pricing_plan_id":"cebpf4jnsgd1na2vs0mg"},{"bike_id":"14f81f3c-e209-4c4b-a409-f71415c61471","system_id":"levelo_inurba_marseille","lat":43.31994,"lon":5.38149,"is_reserved":false,"is_disabled":false,"rental_uris":{"android":"levelo://app?vid=14f81f3c-e209-4c4b-a409-f71415c61471","ios":"levelo://app?vid=14f81f3c-e209-4c4b-a409-f71415c61471"},"vehicle_type_id":"4","last_reported":1758740892,"current_range_meters":8000,"station_id":"ce4bhr12rcd13ifvqhpg","pricing_plan_id":"cebpf4jnsgd1na2vs0mg"},{"bike_id":"aeb2977e-a01d-4a7d-bf35-7af6fc30bf9f","system_id":"levelo_inurba_marseille","lat":43.30307,"lon":5.39214,"is_reserved":false,"is_disabled":false,"rental_uris":{"android":"levelo://app?vid=aeb2977e-a01d-4a7d-bf35-7af6fc30bf9f","ios":"levelo://app?vid=aeb2977e-a01d-4a7d-bf35-7af6fc30bf9f"},"vehicle_type_id":"4","last_reported":1758740892,"current_range_meters":8000,"station_id":"ce4bgkh2rcd13ifvqbk0","pricing_plan_id":"cebpf4jnsgd1na2vs0mg"},{"bike_id":"c9dc5074-6d0d-479b-9396-5cbbec74849b","system_id":"levelo_inurba_marseille","lat":43.29444,"lon":5.39747,"is_reserved":false,"is_disabled":false,"rental_uris":{"android":"levelo://app?vid=c9dc5074-6d0d-479b-9396-5cbbec74849b","ios":"levelo://app?vid=c9dc5074-6d0d-479b-9396-5cbbec74849b"},"vehicle_type_id":"4","last_reported":1758740892,"current_range_meters":10800,"station_id":"ce4bh3h2rcd13ifvqdo0","pricing_plan_id":"cebpf4jnsgd1na2vs0mg"},{"bike_id":"2b0fc979-49b0-4e4e-9d80-6815554a2029","system_id":"levelo_inurba_marseille","lat":43.31222,"lon":5.377,"is_reserved":false,"is_disabled":false,"rental_uris":{"android":"levelo://app?vid=2b0fc979-49b0-4e4e-9d80-6815554a2029","ios":"levelo://app?vid=2b0fc979-49b0-4e4e-9d80-6815554a2029"},"vehicle_type_id":"4","last_reported":1758740892,"current_range_meters":8000,"station_id":"","pricing_plan_id":"cebpf4jnsgd1na2vs0mg"},{"bike_id":"8084833a-a5c7-438c-827d-05991339d1d7","system_id":"levelo_inurba_marseille","lat":43.3116,"lon":5.38727,"is_reserved":false,"is_disabled":false,"rental_uris":{"android":"levelo://app?vid=8084833a-a5c7-438c-827d-05991339d1d7","ios":"levelo://app?vid=8084833a-a5c7-438c-827d-05991339d1d7"},"vehicle_type_id":"4","last_reported":1758740892,"current_range_meters":8000,"station_id":"ce4bgv12rcd13ifvqcp0","pricing_plan_id":"cebpf4jnsgd1na2vs0mg"},{"bike_id":"ae65cf33-64f5-4a2d-9a59-8d9538967e9f","system_id":"levelo_inurba_marseille","lat":43.270706,"lon":5.386471,"is_reserved":false,"is_disabled":false,"rental_uris":{"android":"levelo://app?vid=ae65cf33-64f5-4a2d-9a59-8d9538967e9f","ios":"levelo://app?vid=ae65cf33-64f5-4a2d-9a59-8d9538967e9f"},"vehicle_type_id":"4","last_reported":1758740892,"current_range_meters":8000,"station_id":"ce4bhh92rcd13ifvqfh0","pricing_plan_id":"cebpf4jnsgd1na2vs0mg"},{"bike_id":"1ed1d1bf-2300-4818-8bde-f570a5ed0042","system_id":"levelo_inurba_marseille","lat":43.301277,"lon":5.389639,"is_reserved":false,"is_disabled":false,"rental_uris":{"android":"levelo://app?vid=1ed1d1bf-2300-4818-8bde-f570a5ed0042","ios":"levelo://app?vid=1ed1d1bf-2300-4818-8bde-f570a5ed0042"},"vehicle_type_id":"4","last_reported":1758740892,"current_range_meters":8400,"station_id":"ce4bgkh2rcd13ifvqbk0","pricing_plan_id":"cebpf4jnsgd1na2vs0mg"},{"bike_id":"f1949d62-287a-432d-a083-7d4417bd5731","system_id":"levelo_inurba_marseille","lat":43.31324,"lon":5.39696,"is_reserved":false,"is_disabled":false,"rental_uris":{"android":"levelo://app?vid=f1949d62-287a-432d-a083-7d4417bd5731","ios":"levelo://app?vid=f1949d62-287a-432d-a083-7d4417bd5731"},"vehicle_type_id":"4","last_reported":1758740892,"current_range_meters":8400,"station_id":"ce4bgvp2rcd13ifvqcu0","pricing_plan_id":"cebpf4jnsgd1na2vs0mg"},{"bike_id":"ea93c4e7-0906-4128-b4fc-1b4c74a5c843","system_id":"levelo_inurba_marseille","lat":43.24817,"lon":5.37461,"is_reserved":false,"is_disabled":true,"rental_uris":{"android":"levelo://app?vid=ea93c4e7-0906-4128-b4fc-1b4c74a5c843","ios":"levelo://app?vid=ea93c4e7-0906-4128-b4fc-1b4c74a5c843"},"vehicle_type_id":"4","last_reported":1758740892,"current_range_meters":8400,"station_id":"ce4bhgh2rcd13ifvqfb0","pricing_plan_id":"cebpf4jnsgd1na2vs0mg"},{"bike_id":"6555723b-c1c4-431e-8d46-b98483f8ef90","system_id":"levelo_inurba_marseille","lat":43.29164,"lon":5.37154,"is_reserved":false,"is_disabled":false,"rental_uris":{"android":"levelo://app?vid=6555723b-c1c4-431e-8d46-b98483f8ef90","ios":"levelo://app?vid=6555723b-c1c4-431e-8d46-b98483f8ef90"},"vehicle_type_id":"4","last_reported":1758740892,"current_range_meters":8400,"station_id":"ce4bha92rcd13ifvqeh0","pricing_plan_id":"cebpf4jnsgd1na2vs0mg"},{"bike_id":"6be948fb-e8e2-47ec-b5a2-88c82d7d731c","system_id":"levelo_inurba_marseille","lat":43.28421,"lon":5.37515,"is_reserved":false,"is_disabled":false,"rental_uris":{"android":"levelo://app?vid=6be948fb-e8e2-47ec-b5a2-88c82d7d731c","ios":"levelo://app?vid=6be948fb-e8e2-47ec-b5a2-88c82d7d731c"},"vehicle_type_id":"4","last_reported":1758740892,"current_range_meters":8400,"station_id":"ce4bh412rcd13ifvqds0","pricing_plan_id":"cebpf4jnsgd1na2vs0mg"},{"bike_id":"d73d6f35-e4d4-4f50-85f6-2e821428846c","system_id":"levelo_inurba_marseille","lat":43.2979,"lon":5.38109,"is_reserved":false,"is_disabled":false,"rental_uris":{"android":"levelo://app?vid=d73d6f35-e4d4-4f50-85f6-2e821428846c","ios":"levelo://app?vid=d73d6f35-e4d4-4f50-85f6-2e821428846c"},"vehicle_type_id":"4","last_reported":1758740892,"current_range_meters":8400,"station_id":"ce4bgip2rcd13ifvqbb0","pricing_plan_id":"cebpf4jnsgd1na2vs0mg"},{"bike_id":"5860be23-e1ee-43ab-9ae9-a9b23bc4d41f","system_id":"levelo_inurba_marseille","lat":43.30896,"lon":5.37197,"is_reserved":false,"is_disabled":false,"rental_uris":{"android":"levelo://app?vid=5860be23-e1ee-43ab-9ae9-a9b23bc4d41f","ios":"levelo://app?vid=5860be23-e1ee-43ab-9ae9-a9b23bc4d41f"},"vehicle_type_id":"4","last_reported":1758740892,"current_range_meters":8400,"station_id":"ce4bguh2rcd13ifvqckg","pricing_plan_id":"cebpf4jnsgd1na2vs0mg"},{"bike_id":"375b7370-3909-4a50-aa56-19b6af2cdfd9","system_id":"levelo_inurba_marseille","lat":43.30243,"lon":5.3915,"is_reserved":false,"is_disabled":false,"rental_uris":{"android":"levelo://app?vid=375b7370-3909-4a50-aa56-19b6af2cdfd9","ios":"levelo://app?vid=375b7370-3909-4a50-aa56-19b6af2cdfd9"},"vehicle_type_id":"4","last_reported":1758740892,"current_range_meters":8400,"station_id":"","pricing_plan_id":"cebpf4jnsgd1na2vs0mg"},{"bike_id":"a4644197-2cbe-4db6-b1fb-8197670c015f","system_id":"levelo_inurba_marseille","lat":43.26234,"lon":5.40455,"is_reserved":false,"is_disabled":false,"rental_uris":{"android":"levelo://app?vid=a4644197-2cbe-4db6-b1fb-8197670c015f","ios":"levelo://app?vid=a4644197-2cbe-4db6-b1fb-8197670c015f"},"vehicle_type_id":"4","last_reported":1758740892,"current_range_meters":8400,"station_id":"ce4bhmh2rcd13ifvqgmg","pricing_plan_id":"cebpf4jnsgd1na2vs0mg"},{"bike_id":"2448a3a3-b6b4-4bc8-aa14-bc018de36e6b","system_id":"levelo_inurba_marseille","lat":43.26494,"lon":5.395283,"is_reserved":false,"is_disabled":false,"rental_uris":{"android":"levelo://app?vid=2448a3a3-b6b4-4bc8-aa14-bc018de36e6b","ios":"levelo://app?vid=2448a3a3-b6b4-4bc8-aa14-bc018de36e6b"},"vehicle_type_id":"4","last_reported":1758740892,"current_range_meters":8400,"station_id":"ce4bhi12rcd13ifvqfq0","pricing_plan_id":"cebpf4jnsgd1na2vs0mg"},{"bike_id":"ea7aa69d-64db-4c34-bb4f-b9b66b4b49fa","system_id":"levelo_inurba_marseille","lat":43.266819,"lon":5.382711,"is_reserved":false,"is_disabled":false,"rental_uris":{"android":"levelo://app?vid=ea7aa69d-64db-4c34-bb4f-b9b66b4b49fa","ios":"levelo://app?vid=ea7aa69d-64db-4c34-bb4f-b9b66b4b49fa"},"vehicle_type_id":"4","last_reported":1758740892,"current_range_meters":8400,"station_id":"ce4bhg92rcd13ifvqf90","pricing_plan_id":"cebpf4jnsgd1na2vs0mg"},{"bike_id":"5f7a5080-e77c-4892-a096-c578510b27d0","system_id":"levelo_inurba_marseille","lat":43.27982,"lon":5.41001,"is_reserved":false,"is_disabled":true,"rental_uris":{"android":"levelo://app?vid=5f7a5080-e77c-4892-a096-c578510b27d0","ios":"levelo://app?vid=5f7a5080-e77c-4892-a096-c578510b27d0"},"vehicle_type_id":"4","last_reported":1758740892,"current_range_meters":8800,"station_id":"ce4bhnp2rcd13ifvqh0g","pricing_plan_id":"cebpf4jnsgd1na2vs0mg"},{"bike_id":"2df374bf-5108-4d9e-8bf0-79cb8c7640f5","system_id":"levelo_inurba_marseille","lat":43.31695,"lon":5.40478,"is_reserved":false,"is_disabled":false,"rental_uris":{"android":"levelo://app?vid=2df374bf-5108-4d9e-8bf0-79cb8c7640f5","ios":"levelo://app?vid=2df374bf-5108-4d9e-8bf0-79cb8c7640f5"},"vehicle_type_id":"4","last_reported":1758740892,"current_range_meters":8400,"station_id":"ce4bh012rcd13ifvqd00","pricing_plan_id":"cebpf4jnsgd1na2vs0mg"},{"bike_id":"7c0482c3-9253-4d1b-b4f3-be55cdb7721d","system_id":"levelo_inurba_marseille","lat":43.33757,"lon":5.37466,"is_reserved":false,"is_disabled":false,"rental_uris":{"android":"levelo://app?vid=7c0482c3-9253-4d1b-b4f3-be55cdb7721d","ios":"levelo://app?vid=7c0482c3-9253-4d1b-b4f3-be55cdb7721d"},"vehicle_type_id":"4","last_reported":1758740892,"current_range_meters":8800,"station_id":"","pricing_plan_id":"cebpf4jnsgd1na2vs0mg"},{"bike_id":"4ce67155-9f15-4130-9400-f86685d8ecda","system_id":"levelo_inurba_marseille","lat":43.29753,"lon":5.36502,"is_reserved":false,"is_disabled":false,"rental_uris":{"android":"levelo://app?vid=4ce67155-9f15-4130-9400-f86685d8ecda","ios":"levelo://app?vid=4ce67155-9f15-4130-9400-f86685d8ecda"},"vehicle_type_id":"4","last_reported":1758740892,"current_range_meters":8800,"station_id":"","pricing_plan_id":"cebpf4jnsgd1na2vs0mg"},{"bike_id":"3a41c84e-f2c4-4fea-b219-4dd246ab6774","system_id":"levelo_inurba_marseille","lat":43.30953,"lon":5.39035,"is_reserved":false,"is_disabled":false,"rental_uris":{"android":"levelo://app?vid=3a41c84e-f2c4-4fea-b219-4dd246ab6774","ios":"levelo://app?vid=3a41c84e-f2c4-4fea-b219-4dd246ab6774"},"vehicle_type_id":"4","last_reported":1758740892,"current_range_meters":8800,"station_id":"ce4bgup2rcd13ifvqco0","pricing_plan_id":"cebpf4jnsgd1na2vs0mg"},{"bike_id":"9c4a7bdb-c552-4dfd-8efb-40b9e0b0b147","system_id":"levelo_inurba_marseille","lat":43.30912,"lon":5.3678,"is_reserved":false,"is_disabled":false,"rental_uris":{"android":"levelo://app?vid=9c4a7bdb-c552-4dfd-8efb-40b9e0b0b147","ios":"levelo://app?vid=9c4a7bdb-c552-4dfd-8efb-40b9e0b0b147"},"vehicle_type_id":"4","last_reported":1758740892,"current_range_meters":8800,"station_id":"","pricing_plan_id":"cebpf4jnsgd1na2vs0mg"},{"bike_id":"72a24264-50fc-4ca3-a1c8-06038b276c4d","system_id":"levelo_inurba_marseille","lat":43.30553,"lon":5.38421,"is_reserved":false,"is_disabled":false,"rental_uris":{"android":"levelo://app?vid=72a24264-50fc-4ca3-a1c8-06038b276c4d","ios":"levelo://app?vid=72a24264-50fc-4ca3-a1c8-06038b276c4d"},"vehicle_type_id":"4","last_reported":1758740892,"current_range_meters":8800,"station_id":"ce4bgg92rcd13ifvqb30","pricing_plan_id":"cebpf4jnsgd1na2vs0mg"},{"bike_id":"43d57fd4-047e-4ac8-97e5-ec9b96239472","system_id":"levelo_inurba_marseille","lat":43.33231,"lon":5.39821,"is_reserved":false,"is_disabled":false,"rental_uris":{"android":"levelo://app?vid=43d57fd4-047e-4ac8-97e5-ec9b96239472","ios":"levelo://app?vid=43d57fd4-047e-4ac8-97e5-ec9b96239472"},"vehicle_type_id":"4","last_reported":1758740892,"current_range_meters":8800,"station_id":"","pricing_plan_id":"cebpf4jnsgd1na2vs0mg"},{"bike_id":"76bd7496-4224-45de-b98c-d4d753927b8d","system_id":"levelo_inurba_marseille","lat":43.30423,"lon":5.39736,"is_reserved":false,"is_disabled":false,"rental_uris":{"android":"levelo://app?vid=76bd7496-4224-45de-b98c-d4d753927b8d","ios":"levelo://app?vid=76bd7496-4224-45de-b98c-d4d753927b8d"},"vehicle_type_id":"4","last_reported":1758740892,"current_range_meters":4400,"station_id":"ce4bh092rcd13ifvqd20","pricing_plan_id":"cebpf4jnsgd1na2vs0mg"},{"bike_id":"53fcaa9e-ccb4-40b8-a673-8db45a2628dc","system_id":"levelo_inurba_marseille","lat":43.28418,"lon":5.35002,"is_reserved":false,"is_disabled":false,"rental_uris":{"android":"levelo://app?vid=53fcaa9e-ccb4-40b8-a673-8db45a2628dc","ios":"levelo://app?vid=53fcaa9e-ccb4-40b8-a673-8db45a2628dc"},"vehicle_type_id":"4","last_reported":1758740892,"current_range_meters":9200,"station_id":"ce4bhbh2rcd13ifvqepg","pricing_plan_id":"cebpf4jnsgd1na2vs0mg"},{"bike_id":"780f31b3-fb9f-4b19-bd85-45cf6ba49903","system_id":"levelo_inurba_marseille","lat":43.29536,"lon":5.38541,"is_reserved":false,"is_disabled":false,"rental_uris":{"android":"levelo://app?vid=780f31b3-fb9f-4b19-bd85-45cf6ba49903","ios":"levelo://app?vid=780f31b3-fb9f-4b19-bd85-45cf6ba49903"},"vehicle_type_id":"4","last_reported":1758740892,"current_range_meters":9200,"station_id":"ce4bgih2rcd13ifvqba0","pricing_plan_id":"cebpf4jnsgd1na2vs0mg"},{"bike_id":"1846e412-a89b-48c3-8a86-f911e8ea2c2e","system_id":"levelo_inurba_marseille","lat":43.2118,"lon":5.35071,"is_reserved":false,"is_disabled":false,"rental_uris":{"android":"levelo://app?vid=1846e412-a89b-48c3-8a86-f911e8ea2c2e","ios":"levelo://app?vid=1846e412-a89b-48c3-8a86-f911e8ea2c2e"},"vehicle_type_id":"4","last_reported":1758740892,"current_range_meters":9200,"station_id":"st_cvj6sg6p6f1abm77japg","pricing_plan_id":"cebpf4jnsgd1na2vs0mg"},{"bike_id":"e35dc3d8-0dfe-4bd4-87f7-5d3ca8bee4e5","system_id":"levelo_inurba_marseille","lat":43.250814,"lon":5.425774,"is_reserved":false,"is_disabled":false,"rental_uris":{"android":"levelo://app?vid=e35dc3d8-0dfe-4bd4-87f7-5d3ca8bee4e5","ios":"levelo://app?vid=e35dc3d8-0dfe-4bd4-87f7-5d3ca8bee4e5"},"vehicle_type_id":"4","last_reported":1758740892,"current_range_meters":9200,"station_id":"","pricing_plan_id":"cebpf4jnsgd1na2vs0mg"},{"bike_id":"611e619a-f7ec-4590-b647-7ddc72f5ec38","system_id":"levelo_inurba_marseille","lat":43.29298,"lon":5.37461,"is_reserved":false,"is_disabled":false,"rental_uris":{"android":"levelo://app?vid=611e619a-f7ec-4590-b647-7ddc72f5ec38","ios":"levelo://app?vid=611e619a-f7ec-4590-b647-7ddc72f5ec38"},"vehicle_type_id":"4","last_reported":1758740892,"current_range_meters":9200,"station_id":"ce4bgi12rcd13ifvqb70","pricing_plan_id":"cebpf4jnsgd1na2vs0mg"},{"bike_id":"9ee73f93-7ab5-47b9-8204-e0a39f306f1f","system_id":"levelo_inurba_marseille","lat":43.28932,"lon":5.36646,"is_reserved":false,"is_disabled":false,"rental_uris":{"android":"levelo://app?vid=9ee73f93-7ab5-47b9-8204-e0a39f306f1f","ios":"levelo://app?vid=9ee73f93-7ab5-47b9-8204-e0a39f306f1f"},"vehicle_type_id":"4","last_reported":1758740892,"current_range_meters":9600,"station_id":"ce4bhap2rcd13ifvqek0","pricing_plan_id":"cebpf4jnsgd1na2vs0mg"},{"bike_id":"b4f8d53e-0804-4a29-a589-15a9accd09e8","system_id":"levelo_inurba_marseille","lat":43.29032,"lon":5.35916,"is_reserved":false,"is_disabled":false,"rental_uris":{"android":"levelo://app?vid=b4f8d53e-0804-4a29-a589-15a9accd09e8","ios":"levelo://app?vid=b4f8d53e-0804-4a29-a589-15a9accd09e8"},"vehicle_type_id":"4","last_reported":1758740892,"current_range_meters":10000,"station_id":"ce4bha92rcd13ifvqeg0","pricing_plan_id":"cebpf4jnsgd1na2vs0mg"},{"bike_id":"e265efb8-c4f3-47b9-8533-c40829fb355e","system_id":"levelo_inurba_marseille","lat":43.29008,"lon":5.35874,"is_reserved":false,"is_disabled":false,"rental_uris":{"android":"levelo://app?vid=e265efb8-c4f3-47b9-8533-c40829fb355e","ios":"levelo://app?vid=e265efb8-c4f3-47b9-8533-c40829fb355e"},"vehicle_type_id":"4","last_reported":1758740892,"current_range_meters":10000,"station_id":"ce4bha92rcd13ifvqeg0","pricing_plan_id":"cebpf4jnsgd1na2vs0mg"},{"bike_id":"0df75e72-c8b2-4ed4-bb38-339f4f3a1611","system_id":"levelo_inurba_marseille","lat":43.27692,"lon":5.38943,"is_reserved":false,"is_disabled":true,"rental_uris":{"android":"levelo://app?vid=0df75e72-c8b2-4ed4-bb38-339f4f3a1611","ios":"levelo://app?vid=0df75e72-c8b2-4ed4-bb38-339f4f3a1611"},"vehicle_type_id":"4","last_reported":1758740892,"current_range_meters":10000,"station_id":"ce4bhi12rcd13ifvqfo0","pricing_plan_id":"cebpf4jnsgd1na2vs0mg"},{"bike_id":"514b5fdb-f81d-41c3-afe2-e88866964916","system_id":"levelo_inurba_marseille","lat":43.25094,"lon":5.39533,"is_reserved":false,"is_disabled":true,"rental_uris":{"android":"levelo://app?vid=514b5fdb-f81d-41c3-afe2-e88866964916","ios":"levelo://app?vid=514b5fdb-f81d-41c3-afe2-e88866964916"},"vehicle_type_id":"4","last_reported":1758740892,"current_range_meters":10000,"station_id":"ce4bhm12rcd13ifvqgkg","pricing_plan_id":"cebpf4jnsgd1na2vs0mg"},{"bike_id":"f9797893-68c6-4fa0-a836-c9a983108b24","system_id":"levelo_inurba_marseille","lat":43.31328,"lon":5.39694,"is_reserved":false,"is_disabled":false,"rental_uris":{"android":"levelo://app?vid=f9797893-68c6-4fa0-a836-c9a983108b24","ios":"levelo://app?vid=f9797893-68c6-4fa0-a836-c9a983108b24"},"vehicle_type_id":"4","last_reported":1758740892,"current_range_meters":10000,"station_id":"ce4bgvp2rcd13ifvqcu0","pricing_plan_id":"cebpf4jnsgd1na2vs0mg"},{"bike_id":"35b29339-dba8-4e1a-a84b-b2cb4cbeab88","system_id":"levelo_inurba_marseille","lat":43.3106,"lon":5.40107,"is_reserved":false,"is_disabled":false,"rental_uris":{"android":"levelo://app?vid=35b29339-dba8-4e1a-a84b-b2cb4cbeab88","ios":"levelo://app?vid=35b29339-dba8-4e1a-a84b-b2cb4cbeab88"},"vehicle_type_id":"4","last_reported":1758740892,"current_range_meters":10800,"station_id":"","pricing_plan_id":"cebpf4jnsgd1na2vs0mg"},{"bike_id":"a60abba9-f9b8-477b-8786-175fc2b6218b","system_id":"levelo_inurba_marseille","lat":43.30947,"lon":5.37144,"is_reserved":false,"is_disabled":false,"rental_uris":{"android":"levelo://app?vid=a60abba9-f9b8-477b-8786-175fc2b6218b","ios":"levelo://app?vid=a60abba9-f9b8-477b-8786-175fc2b6218b"},"vehicle_type_id":"4","last_reported":1758740892,"current_range_meters":10800,"station_id":"","pricing_plan_id":"cebpf4jnsgd1na2vs0mg"},{"bike_id":"3389b4b7-7a26-4373-b2fe-48ef23a9cd25","system_id":"levelo_inurba_marseille","lat":43.322892,"lon":5.382697,"is_reserved":false,"is_disabled":false,"rental_uris":{"android":"levelo://app?vid=3389b4b7-7a26-4373-b2fe-48ef23a9cd25","ios":"levelo://app?vid=3389b4b7-7a26-4373-b2fe-48ef23a9cd25"},"vehicle_type_id":"4","last_reported":1758740892,"current_range_meters":10800,"station_id":"ce4bhr12rcd13ifvqhqg","pricing_plan_id":"cebpf4jnsgd1na2vs0mg"},{"bike_id":"12d740fb-b433-4615-a617-4aa55329217e","system_id":"levelo_inurba_marseille","lat":43.31262,"lon":5.40177,"is_reserved":false,"is_disabled":false,"rental_uris":{"android":"levelo://app?vid=12d740fb-b433-4615-a617-4aa55329217e","ios":"levelo://app?vid=12d740fb-b433-4615-a617-4aa55329217e"},"vehicle_type_id":"4","last_reported":1758740892,"current_range_meters":10800,"station_id":"ce4bh092rcd13ifvqd30","pricing_plan_id":"cebpf4jnsgd1na2vs0mg"},{"bike_id":"54f1c92b-94a0-4513-88e2-cfe0e09ba6ac","system_id":"levelo_inurba_marseille","lat":43.33026,"lon":5.39044,"is_reserved":false,"is_disabled":false,"rental_uris":{"android":"levelo://app?vid=54f1c92b-94a0-4513-88e2-cfe0e09ba6ac","ios":"levelo://app?vid=54f1c92b-94a0-4513-88e2-cfe0e09ba6ac"},"vehicle_type_id":"4","last_reported":1758740892,"current_range_meters":10800,"station_id":"ce4bhr92rcd13ifvqhrg","pricing_plan_id":"cebpf4jnsgd1na2vs0mg"},{"bike_id":"5d1bf083-7f33-4122-8d6c-06d61a1e23b9","system_id":"levelo_inurba_marseille","lat":43.30315,"lon":5.40433,"is_reserved":false,"is_disabled":false,"rental_uris":{"android":"levelo://app?vid=5d1bf083-7f33-4122-8d6c-06d61a1e23b9","ios":"levelo://app?vid=5d1bf083-7f33-4122-8d6c-06d61a1e23b9"},"vehicle_type_id":"4","last_reported":1758740892,"current_range_meters":10800,"station_id":"ce4bh012rcd13ifvqd10","pricing_plan_id":"cebpf4jnsgd1na2vs0mg"},{"bike_id":"419426e7-2d11-441f-be4c-1a765fb6160e","system_id":"levelo_inurba_marseille","lat":43.3135,"lon":5.36728,"is_reserved":false,"is_disabled":false,"rental_uris":{"android":"levelo://app?vid=419426e7-2d11-441f-be4c-1a765fb6160e","ios":"levelo://app?vid=419426e7-2d11-441f-be4c-1a765fb6160e"},"vehicle_type_id":"4","last_reported":1758740892,"current_range_meters":10800,"station_id":"ce4bgr92rcd13ifvqc6g","pricing_plan_id":"cebpf4jnsgd1na2vs0mg"},{"bike_id":"8c0227e3-55e8-4994-aa0c-9b6ee99b7e26","system_id":"levelo_inurba_marseille","lat":43.23052,"lon":5.35495,"is_reserved":false,"is_disabled":false,"rental_uris":{"android":"levelo://app?vid=8c0227e3-55e8-4994-aa0c-9b6ee99b7e26","ios":"levelo://app?vid=8c0227e3-55e8-4994-aa0c-9b6ee99b7e26"},"vehicle_type_id":"4","last_reported":1758740892,"current_range_meters":11200,"station_id":"cpo3342slgdg3j2ifvpg","pricing_plan_id":"cebpf4jnsgd1na2vs0mg"},{"bike_id":"b055fb34-2a46-4040-956f-a4766c2eff5a","system_id":"levelo_inurba_marseille","lat":43.3059,"lon":5.37228,"is_reserved":false,"is_disabled":false,"rental_uris":{"android":"levelo://app?vid=b055fb34-2a46-4040-956f-a4766c2eff5a","ios":"levelo://app?vid=b055fb34-2a46-4040-956f-a4766c2eff5a"},"vehicle_type_id":"4","last_reported":1758740892,"current_range_meters":11200,"station_id":"ce4bgqh2rcd13ifvqc4g","pricing_plan_id":"cebpf4jnsgd1na2vs0mg"},{"bike_id":"8cf0e2d8-6535-4e1b-92c3-3bde5c93d034","system_id":"levelo_inurba_marseille","lat":43.28421,"lon":5.35006,"is_reserved":false,"is_disabled":false,"rental_uris":{"android":"levelo://app?vid=8cf0e2d8-6535-4e1b-92c3-3bde5c93d034","ios":"levelo://app?vid=8cf0e2d8-6535-4e1b-92c3-3bde5c93d034"},"vehicle_type_id":"4","last_reported":1758740892,"current_range_meters":11200,"station_id":"ce4bhbh2rcd13ifvqepg","pricing_plan_id":"cebpf4jnsgd1na2vs0mg"},{"bike_id":"c9284693-63ed-4352-842d-6e271237206f","system_id":"levelo_inurba_marseille","lat":43.2953,"lon":5.38538,"is_reserved":false,"is_disabled":false,"rental_uris":{"android":"levelo://app?vid=c9284693-63ed-4352-842d-6e271237206f","ios":"levelo://app?vid=c9284693-63ed-4352-842d-6e271237206f"},"vehicle_type_id":"4","last_reported":1758740892,"current_range_meters":11200,"station_id":"ce4bgih2rcd13ifvqba0","pricing_plan_id":"cebpf4jnsgd1na2vs0mg"},{"bike_id":"65ade5ec-d9c1-4823-a403-187c1df8cd0e","system_id":"levelo_inurba_marseille","lat":43.30111,"lon":5.39082,"is_reserved":false,"is_disabled":false,"rental_uris":{"android":"levelo://app?vid=65ade5ec-d9c1-4823-a403-187c1df8cd0e","ios":"levelo://app?vid=65ade5ec-d9c1-4823-a403-187c1df8cd0e"},"vehicle_type_id":"4","last_reported":1758740892,"current_range_meters":11200,"station_id":"ce4bh192rcd13ifvqdb0","pricing_plan_id":"cebpf4jnsgd1na2vs0mg"},{"bike_id":"9feb0e0f-24fa-4463-b0f3-30472830c043","system_id":"levelo_inurba_marseille","lat":43.31757,"lon":5.39002,"is_reserved":false,"is_disabled":true,"rental_uris":{"android":"levelo://app?vid=9feb0e0f-24fa-4463-b0f3-30472830c043","ios":"levelo://app?vid=9feb0e0f-24fa-4463-b0f3-30472830c043"},"vehicle_type_id":"4","last_reported":1758740892,"current_range_meters":11600,"station_id":"ce4bhqp2rcd13ifvqhng","pricing_plan_id":"cebpf4jnsgd1na2vs0mg"},{"bike_id":"82ae6a83-f056-46ca-a23f-2d70bedddb42","system_id":"levelo_inurba_marseille","lat":43.2756,"lon":5.38407,"is_reserved":false,"is_disabled":false,"rental_uris":{"android":"levelo://app?vid=82ae6a83-f056-46ca-a23f-2d70bedddb42","ios":"levelo://app?vid=82ae6a83-f056-46ca-a23f-2d70bedddb42"},"vehicle_type_id":"4","last_reported":1758740892,"current_range_meters":11600,"station_id":"ce4bhh92rcd13ifvqfi0","pricing_plan_id":"cebpf4jnsgd1na2vs0mg"},{"bike_id":"b5097eea-9912-4be2-9cf9-14c224c5fab6","system_id":"levelo_inurba_marseille","lat":43.23203,"lon":5.3555,"is_reserved":false,"is_disabled":false,"rental_uris":{"android":"levelo://app?vid=b5097eea-9912-4be2-9cf9-14c224c5fab6","ios":"levelo://app?vid=b5097eea-9912-4be2-9cf9-14c224c5fab6"},"vehicle_type_id":"4","last_reported":1758740892,"current_range_meters":11600,"station_id":"ce4bhu92rcd13ifvqi70","pricing_plan_id":"cebpf4jnsgd1na2vs0mg"},{"bike_id":"9df6bf50-d886-4162-8c9a-51a0e4855128","system_id":"levelo_inurba_marseille","lat":43.26683,"lon":5.38275,"is_reserved":false,"is_disabled":false,"rental_uris":{"android":"levelo://app?vid=9df6bf50-d886-4162-8c9a-51a0e4855128","ios":"levelo://app?vid=9df6bf50-d886-4162-8c9a-51a0e4855128"},"vehicle_type_id":"4","last_reported":1758740892,"current_range_meters":11600,"station_id":"ce4bhg92rcd13ifvqf90","pricing_plan_id":"cebpf4jnsgd1na2vs0mg"},{"bike_id":"80c4e192-a62a-4b02-9efd-a7bd559f57b3","system_id":"levelo_inurba_marseille","lat":43.29298,"lon":5.37469,"is_reserved":false,"is_disabled":false,"rental_uris":{"android":"levelo://app?vid=80c4e192-a62a-4b02-9efd-a7bd559f57b3","ios":"levelo://app?vid=80c4e192-a62a-4b02-9efd-a7bd559f57b3"},"vehicle_type_id":"4","last_reported":1758740892,"current_range_meters":11600,"station_id":"ce4bgi12rcd13ifvqb70","pricing_plan_id":"cebpf4jnsgd1na2vs0mg"},{"bike_id":"2b142924-375d-48cb-93a3-16a1b9bf5e94","system_id":"levelo_inurba_marseille","lat":43.28611,"lon":5.35099,"is_reserved":false,"is_disabled":false,"rental_uris":{"android":"levelo://app?vid=2b142924-375d-48cb-93a3-16a1b9bf5e94","ios":"levelo://app?vid=2b142924-375d-48cb-93a3-16a1b9bf5e94"},"vehicle_type_id":"4","last_reported":1758740892,"current_range_meters":11600,"station_id":"ce4bhch2rcd13ifvqeug","pricing_plan_id":"cebpf4jnsgd1na2vs0mg"},{"bike_id":"438ead59-de14-4fa0-a61d-03a70a4122ae","system_id":"levelo_inurba_marseille","lat":43.97269,"lon":4.89111,"is_reserved":false,"is_disabled":true,"rental_uris":{"android":"levelo://app?vid=438ead59-de14-4fa0-a61d-03a70a4122ae","ios":"levelo://app?vid=438ead59-de14-4fa0-a61d-03a70a4122ae"},"vehicle_type_id":"4","last_reported":1758740892,"current_range_meters":11600,"station_id":"","pricing_plan_id":"cebpf4jnsgd1na2vs0mg"},{"bike_id":"7981bd57-1a91-436b-8601-50130d20e8be","system_id":"levelo_inurba_marseille","lat":43.21188,"lon":5.3509,"is_reserved":false,"is_disabled":false,"rental_uris":{"android":"levelo://app?vid=7981bd57-1a91-436b-8601-50130d20e8be","ios":"levelo://app?vid=7981bd57-1a91-436b-8601-50130d20e8be"},"vehicle_type_id":"4","last_reported":1758740892,"current_range_meters":12000,"station_id":"st_cvj6sg6p6f1abm77japg","pricing_plan_id":"cebpf4jnsgd1na2vs0mg"},{"bike_id":"8c7fb638-aa89-4dc5-b652-77ceb015b905","system_id":"levelo_inurba_marseille","lat":43.24953,"lon":5.40499,"is_reserved":false,"is_disabled":false,"rental_uris":{"android":"levelo://app?vid=8c7fb638-aa89-4dc5-b652-77ceb015b905","ios":"levelo://app?vid=8c7fb638-aa89-4dc5-b652-77ceb015b905"},"vehicle_type_id":"4","last_reported":1758740892,"current_range_meters":12000,"station_id":"st_d2ngiaodas8pm72gd1h0","pricing_plan_id":"cebpf4jnsgd1na2vs0mg"},{"bike_id":"06c10839-75c7-457b-804b-f341157fb4f3","system_id":"levelo_inurba_marseille","lat":43.25104,"lon":5.40495,"is_reserved":false,"is_disabled":false,"rental_uris":{"android":"levelo://app?vid=06c10839-75c7-457b-804b-f341157fb4f3","ios":"levelo://app?vid=06c10839-75c7-457b-804b-f341157fb4f3"},"vehicle_type_id":"4","last_reported":1758740892,"current_range_meters":12000,"station_id":"","pricing_plan_id":"cebpf4jnsgd1na2vs0mg"},{"bike_id":"a6cc6dcf-694b-4802-809a-443fd518a39b","system_id":"levelo_inurba_marseille","lat":43.28459,"lon":5.35883,"is_reserved":false,"is_disabled":false,"rental_uris":{"android":"levelo://app?vid=a6cc6dcf-694b-4802-809a-443fd518a39b","ios":"levelo://app?vid=a6cc6dcf-694b-4802-809a-443fd518a39b"},"vehicle_type_id":"4","last_reported":1758740892,"current_range_meters":11600,"station_id":"ce4bhah2rcd13ifvqei0","pricing_plan_id":"cebpf4jnsgd1na2vs0mg"},{"bike_id":"861265e8-f079-4ae9-adea-7edb11bbc1a2","system_id":"levelo_inurba_marseille","lat":43.29165,"lon":5.37171,"is_reserved":false,"is_disabled":false,"rental_uris":{"android":"levelo://app?vid=861265e8-f079-4ae9-adea-7edb11bbc1a2","ios":"levelo://app?vid=861265e8-f079-4ae9-adea-7edb11bbc1a2"},"vehicle_type_id":"4","last_reported":1758740892,"current_range_meters":12000,"station_id":"ce4bha92rcd13ifvqeh0","pricing_plan_id":"cebpf4jnsgd1na2vs0mg"},{"bike_id":"b047061a-80fe-4f53-a37f-a97017dc2f10","system_id":"levelo_inurba_marseille","lat":43.2926,"lon":5.40928,"is_reserved":false,"is_disabled":true,"rental_uris":{"android":"levelo://app?vid=b047061a-80fe-4f53-a37f-a97017dc2f10","ios":"levelo://app?vid=b047061a-80fe-4f53-a37f-a97017dc2f10"},"vehicle_type_id":"4","last_reported":1758740892,"current_range_meters":12000,"station_id":"ce4bh192rcd13ifvqdc0","pricing_plan_id":"cebpf4jnsgd1na2vs0mg"},{"bike_id":"eea06504-9feb-43aa-83f4-208ae98879c4","system_id":"levelo_inurba_marseille","lat":43.30898,"lon":5.37205,"is_reserved":false,"is_disabled":false,"rental_uris":{"android":"levelo://app?vid=eea06504-9feb-43aa-83f4-208ae98879c4","ios":"levelo://app?vid=eea06504-9feb-43aa-83f4-208ae98879c4"},"vehicle_type_id":"4","last_reported":1758740892,"current_range_meters":12000,"station_id":"ce4bguh2rcd13ifvqckg","pricing_plan_id":"cebpf4jnsgd1na2vs0mg"},{"bike_id":"16009e49-ac0d-492f-859b-024f005af8a6","system_id":"levelo_inurba_marseille","lat":43.29302,"lon":5.37448,"is_reserved":false,"is_disabled":false,"rental_uris":{"android":"levelo://app?vid=16009e49-ac0d-492f-859b-024f005af8a6","ios":"levelo://app?vid=16009e49-ac0d-492f-859b-024f005af8a6"},"vehicle_type_id":"4","last_reported":1758740892,"current_range_meters":12000,"station_id":"ce4bgi12rcd13ifvqb70","pricing_plan_id":"cebpf4jnsgd1na2vs0mg"},{"bike_id":"943f4a81-0a8c-43a3-b65e-eb7ef547a72c","system_id":"levelo_inurba_marseille","lat":43.28467,"lon":5.38436,"is_reserved":false,"is_disabled":true,"rental_uris":{"android":"levelo://app?vid=943f4a81-0a8c-43a3-b65e-eb7ef547a72c","ios":"levelo://app?vid=943f4a81-0a8c-43a3-b65e-eb7ef547a72c"},"vehicle_type_id":"4","last_reported":1758740892,"current_range_meters":12000,"station_id":"ce4bh512rcd13ifvqe3g","pricing_plan_id":"cebpf4jnsgd1na2vs0mg"},{"bike_id":"9725ad3d-a00a-4fba-b3ce-72ae78dd926d","system_id":"levelo_inurba_marseille","lat":43.28846,"lon":5.39306,"is_reserved":false,"is_disabled":false,"rental_uris":{"android":"levelo://app?vid=9725ad3d-a00a-4fba-b3ce-72ae78dd926d","ios":"levelo://app?vid=9725ad3d-a00a-4fba-b3ce-72ae78dd926d"},"vehicle_type_id":"4","last_reported":1758740892,"current_range_meters":15200,"station_id":"ce4bh2p2rcd13ifvqdi0","pricing_plan_id":"cebpf4jnsgd1na2vs0mg"},{"bike_id":"d5748f11-c747-445a-ba16-03e2bc50ef5f","system_id":"levelo_inurba_marseille","lat":43.23187,"lon":5.40002,"is_reserved":false,"is_disabled":false,"rental_uris":{"android":"levelo://app?vid=d5748f11-c747-445a-ba16-03e2bc50ef5f","ios":"levelo://app?vid=d5748f11-c747-445a-ba16-03e2bc50ef5f"},"vehicle_type_id":"4","last_reported":1758740892,"current_range_meters":12400,"station_id":"ce4bhn12rcd13ifvqgqg","pricing_plan_id":"cebpf4jnsgd1na2vs0mg"},{"bike_id":"38f5ab9a-ac60-46c6-bc19-bb2218f63afb","system_id":"levelo_inurba_marseille","lat":43.31218,"lon":5.36863,"is_reserved":false,"is_disabled":false,"rental_uris":{"android":"levelo://app?vid=38f5ab9a-ac60-46c6-bc19-bb2218f63afb","ios":"levelo://app?vid=38f5ab9a-ac60-46c6-bc19-bb2218f63afb"},"vehicle_type_id":"4","last_reported":1758740892,"current_range_meters":12400,"station_id":"ce4bgl92rcd13ifvqbq0","pricing_plan_id":"cebpf4jnsgd1na2vs0mg"},{"bike_id":"c89e96e6-c0b7-49ff-b8e6-77a8927b2a39","system_id":"levelo_inurba_marseille","lat":43.26556,"lon":5.37286,"is_reserved":false,"is_disabled":false,"rental_uris":{"android":"levelo://app?vid=c89e96e6-c0b7-49ff-b8e6-77a8927b2a39","ios":"levelo://app?vid=c89e96e6-c0b7-49ff-b8e6-77a8927b2a39"},"vehicle_type_id":"4","last_reported":1758740892,"current_range_meters":12400,"station_id":"ce4bhg12rcd13ifvqf70","pricing_plan_id":"cebpf4jnsgd1na2vs0mg"},{"bike_id":"23d065f8-89f3-4269-8d3b-0f28ee3cf1ed","system_id":"levelo_inurba_marseille","lat":43.29634,"lon":5.40596,"is_reserved":false,"is_disabled":false,"rental_uris":{"android":"levelo://app?vid=23d065f8-89f3-4269-8d3b-0f28ee3cf1ed","ios":"levelo://app?vid=23d065f8-89f3-4269-8d3b-0f28ee3cf1ed"},"vehicle_type_id":"4","last_reported":1758740892,"current_range_meters":17200,"station_id":"ce4bh0h2rcd13ifvqd60","pricing_plan_id":"cebpf4jnsgd1na2vs0mg"},{"bike_id":"a851cae0-b395-441e-9dd1-21300baf3396","system_id":"levelo_inurba_marseille","lat":43.315294,"lon":5.386854,"is_reserved":false,"is_disabled":false,"rental_uris":{"android":"levelo://app?vid=a851cae0-b395-441e-9dd1-21300baf3396","ios":"levelo://app?vid=a851cae0-b395-441e-9dd1-21300baf3396"},"vehicle_type_id":"4","last_reported":1758740892,"current_range_meters":12400,"station_id":"","pricing_plan_id":"cebpf4jnsgd1na2vs0mg"},{"bike_id":"a1f431c1-b808-4c7f-9f3f-8320fc45f923","system_id":"levelo_inurba_marseille","lat":43.29431,"lon":5.39745,"is_reserved":false,"is_disabled":false,"rental_uris":{"android":"levelo://app?vid=a1f431c1-b808-4c7f-9f3f-8320fc45f923","ios":"levelo://app?vid=a1f431c1-b808-4c7f-9f3f-8320fc45f923"},"vehicle_type_id":"4","last_reported":1758740892,"current_range_meters":12400,"station_id":"ce4bh3h2rcd13ifvqdo0","pricing_plan_id":"cebpf4jnsgd1na2vs0mg"},{"bike_id":"7deba567-4bb4-462f-b317-ae27b73d74c1","system_id":"levelo_inurba_marseille","lat":43.28857,"lon":5.39313,"is_reserved":false,"is_disabled":false,"rental_uris":{"android":"levelo://app?vid=7deba567-4bb4-462f-b317-ae27b73d74c1","ios":"levelo://app?vid=7deba567-4bb4-462f-b317-ae27b73d74c1"},"vehicle_type_id":"4","last_reported":1758740892,"current_range_meters":9200,"station_id":"ce4bh2p2rcd13ifvqdi0","pricing_plan_id":"cebpf4jnsgd1na2vs0mg"},{"bike_id":"e54a96c2-b92c-44a1-9db1-ac87d65a344e","system_id":"levelo_inurba_marseille","lat":43.29303,"lon":5.37474,"is_reserved":false,"is_disabled":false,"rental_uris":{"android":"levelo://app?vid=e54a96c2-b92c-44a1-9db1-ac87d65a344e","ios":"levelo://app?vid=e54a96c2-b92c-44a1-9db1-ac87d65a344e"},"vehicle_type_id":"4","last_reported":1758740892,"current_range_meters":12400,"station_id":"ce4bgi12rcd13ifvqb70","pricing_plan_id":"cebpf4jnsgd1na2vs0mg"},{"bike_id":"450844ba-2fc2-47be-9959-8fee61f07fb6","system_id":"levelo_inurba_marseille","lat":43.31741,"lon":5.39024,"is_reserved":false,"is_disabled":false,"rental_uris":{"android":"levelo://app?vid=450844ba-2fc2-47be-9959-8fee61f07fb6","ios":"levelo://app?vid=450844ba-2fc2-47be-9959-8fee61f07fb6"},"vehicle_type_id":"4","last_reported":1758740892,"current_range_meters":12800,"station_id":"ce4bhqp2rcd13ifvqhng","pricing_plan_id":"cebpf4jnsgd1na2vs0mg"},{"bike_id":"1221f52f-da48-4205-afc8-b6dd9d4b3e5e","system_id":"levelo_inurba_marseille","lat":43.257201,"lon":5.411075,"is_reserved":false,"is_disabled":true,"rental_uris":{"android":"levelo://app?vid=1221f52f-da48-4205-afc8-b6dd9d4b3e5e","ios":"levelo://app?vid=1221f52f-da48-4205-afc8-b6dd9d4b3e5e"},"vehicle_type_id":"4","last_reported":1758740892,"current_range_meters":12800,"station_id":"ce4bhkp2rcd13ifvqgd0","pricing_plan_id":"cebpf4jnsgd1na2vs0mg"},{"bike_id":"cb167cd8-96e2-495a-b604-1b043ff17e21","system_id":"levelo_inurba_marseille","lat":43.278379,"lon":5.392066,"is_reserved":false,"is_disabled":false,"rental_uris":{"android":"levelo://app?vid=cb167cd8-96e2-495a-b604-1b043ff17e21","ios":"levelo://app?vid=cb167cd8-96e2-495a-b604-1b043ff17e21"},"vehicle_type_id":"4","last_reported":1758740892,"current_range_meters":12800,"station_id":"ce4bhjp2rcd13ifvqga0","pricing_plan_id":"cebpf4jnsgd1na2vs0mg"},{"bike_id":"fca2cd76-1e31-47dc-b6ce-18776c40295a","system_id":"levelo_inurba_marseille","lat":43.27367,"lon":5.36263,"is_reserved":false,"is_disabled":false,"rental_uris":{"android":"levelo://app?vid=fca2cd76-1e31-47dc-b6ce-18776c40295a","ios":"levelo://app?vid=fca2cd76-1e31-47dc-b6ce-18776c40295a"},"vehicle_type_id":"4","last_reported":1758740892,"current_range_meters":12800,"station_id":"ce4bhbh2rcd13ifvqeo0","pricing_plan_id":"cebpf4jnsgd1na2vs0mg"},{"bike_id":"71c11d91-a929-47a4-9d23-ca3894d5888b","system_id":"levelo_inurba_marseille","lat":43.258241,"lon":5.39439,"is_reserved":false,"is_disabled":false,"rental_uris":{"android":"levelo://app?vid=71c11d91-a929-47a4-9d23-ca3894d5888b","ios":"levelo://app?vid=71c11d91-a929-47a4-9d23-ca3894d5888b"},"vehicle_type_id":"4","last_reported":1758740892,"current_range_meters":12800,"station_id":"ce4bhip2rcd13ifvqft0","pricing_plan_id":"cebpf4jnsgd1na2vs0mg"},{"bike_id":"36b070bb-df09-4433-b99c-aab79ada22d5","system_id":"levelo_inurba_marseille","lat":43.29287,"lon":5.3744,"is_reserved":false,"is_disabled":false,"rental_uris":{"android":"levelo://app?vid=36b070bb-df09-4433-b99c-aab79ada22d5","ios":"levelo://app?vid=36b070bb-df09-4433-b99c-aab79ada22d5"},"vehicle_type_id":"4","last_reported":1758740892,"current_range_meters":12800,"station_id":"","pricing_plan_id":"cebpf4jnsgd1na2vs0mg"},{"bike_id":"f9af076b-c426-46f0-97f6-f6a5a530c8e2","system_id":"levelo_inurba_marseille","lat":43.33732,"lon":5.37754,"is_reserved":false,"is_disabled":false,"rental_uris":{"android":"levelo://app?vid=f9af076b-c426-46f0-97f6-f6a5a530c8e2","ios":"levelo://app?vid=f9af076b-c426-46f0-97f6-f6a5a530c8e2"},"vehicle_type_id":"4","last_reported":1758740892,"current_range_meters":12800,"station_id":"","pricing_plan_id":"cebpf4jnsgd1na2vs0mg"},{"bike_id":"5fbe240b-53fb-428d-978a-e46e6a2551ae","system_id":"levelo_inurba_marseille","lat":43.25592,"lon":5.38237,"is_reserved":false,"is_disabled":false,"rental_uris":{"android":"levelo://app?vid=5fbe240b-53fb-428d-978a-e46e6a2551ae","ios":"levelo://app?vid=5fbe240b-53fb-428d-978a-e46e6a2551ae"},"vehicle_type_id":"4","last_reported":1758740892,"current_range_meters":12800,"station_id":"ce4bhih2rcd13ifvqfs0","pricing_plan_id":"cebpf4jnsgd1na2vs0mg"},{"bike_id":"c79cd626-d885-4d4a-993b-ca12566b5aec","system_id":"levelo_inurba_marseille","lat":43.29024,"lon":5.38641,"is_reserved":false,"is_disabled":false,"rental_uris":{"android":"levelo://app?vid=c79cd626-d885-4d4a-993b-ca12566b5aec","ios":"levelo://app?vid=c79cd626-d885-4d4a-993b-ca12566b5aec"},"vehicle_type_id":"4","last_reported":1758740892,"current_range_meters":12800,"station_id":"ce4bh4p2rcd13ifvqe0g","pricing_plan_id":"cebpf4jnsgd1na2vs0mg"},{"bike_id":"dfc6616d-fac8-446b-b270-4ca8177f4872","system_id":"levelo_inurba_marseille","lat":43.24053,"lon":5.3775,"is_reserved":false,"is_disabled":false,"rental_uris":{"android":"levelo://app?vid=dfc6616d-fac8-446b-b270-4ca8177f4872","ios":"levelo://app?vid=dfc6616d-fac8-446b-b270-4ca8177f4872"},"vehicle_type_id":"4","last_reported":1758740892,"current_range_meters":13600,"station_id":"ce4bhnp2rcd13ifvqgvg","pricing_plan_id":"cebpf4jnsgd1na2vs0mg"},{"bike_id":"ef00c611-56e3-4d87-83a8-6fad9627913a","system_id":"levelo_inurba_marseille","lat":43.308894,"lon":5.371943,"is_reserved":false,"is_disabled":false,"rental_uris":{"android":"levelo://app?vid=ef00c611-56e3-4d87-83a8-6fad9627913a","ios":"levelo://app?vid=ef00c611-56e3-4d87-83a8-6fad9627913a"},"vehicle_type_id":"4","last_reported":1758740892,"current_range_meters":13600,"station_id":"ce4bguh2rcd13ifvqckg","pricing_plan_id":"cebpf4jnsgd1na2vs0mg"},{"bike_id":"66e4112b-5cdc-4a17-9764-18c15e714355","system_id":"levelo_inurba_marseille","lat":43.29969,"lon":5.38513,"is_reserved":false,"is_disabled":false,"rental_uris":{"android":"levelo://app?vid=66e4112b-5cdc-4a17-9764-18c15e714355","ios":"levelo://app?vid=66e4112b-5cdc-4a17-9764-18c15e714355"},"vehicle_type_id":"4","last_reported":1758740892,"current_range_meters":13600,"station_id":"ce4bgj92rcd13ifvqbd0","pricing_plan_id":"cebpf4jnsgd1na2vs0mg"},{"bike_id":"2804db08-02d1-4c2c-b043-8e7fedf91ceb","system_id":"levelo_inurba_marseille","lat":43.29369,"lon":5.37842,"is_reserved":false,"is_disabled":false,"rental_uris":{"android":"levelo://app?vid=2804db08-02d1-4c2c-b043-8e7fedf91ceb","ios":"levelo://app?vid=2804db08-02d1-4c2c-b043-8e7fedf91ceb"},"vehicle_type_id":"4","last_reported":1758740892,"current_range_meters":12800,"station_id":"ce4bgjh2rcd13ifvqbf0","pricing_plan_id":"cebpf4jnsgd1na2vs0mg"},{"bike_id":"3a319be7-fef3-40df-96fe-6bdc37dc7081","system_id":"levelo_inurba_marseille","lat":43.28098,"lon":5.378496,"is_reserved":false,"is_disabled":false,"rental_uris":{"android":"levelo://app?vid=3a319be7-fef3-40df-96fe-6bdc37dc7081","ios":"levelo://app?vid=3a319be7-fef3-40df-96fe-6bdc37dc7081"},"vehicle_type_id":"4","last_reported":1758740892,"current_range_meters":13600,"station_id":"ce4bha12rcd13ifvqee0","pricing_plan_id":"cebpf4jnsgd1na2vs0mg"},{"bike_id":"bf1244d3-d7e7-45bd-8580-d0cbc34b36e3","system_id":"levelo_inurba_marseille","lat":43.22567,"lon":5.41631,"is_reserved":false,"is_disabled":false,"rental_uris":{"android":"levelo://app?vid=bf1244d3-d7e7-45bd-8580-d0cbc34b36e3","ios":"levelo://app?vid=bf1244d3-d7e7-45bd-8580-d0cbc34b36e3"},"vehicle_type_id":"4","last_reported":1758740892,"current_range_meters":14000,"station_id":"st_d2o4gvlbi1j2169b742g","pricing_plan_id":"cebpf4jnsgd1na2vs0mg"},{"bike_id":"e1f6ea02-3dcd-4760-958d-a4be47a2bc76","system_id":"levelo_inurba_marseille","lat":43.24651,"lon":5.38922,"is_reserved":false,"is_disabled":false,"rental_uris":{"android":"levelo://app?vid=e1f6ea02-3dcd-4760-958d-a4be47a2bc76","ios":"levelo://app?vid=e1f6ea02-3dcd-4760-958d-a4be47a2bc76"},"vehicle_type_id":"4","last_reported":1758740892,"current_range_meters":14000,"station_id":"ce4bhg12rcd13ifvqf60","pricing_plan_id":"cebpf4jnsgd1na2vs0mg"},{"bike_id":"121a0398-32d9-4f97-8e09-28a70dcd9547","system_id":"levelo_inurba_marseille","lat":43.29847,"lon":5.36276,"is_reserved":false,"is_disabled":false,"rental_uris":{"android":"levelo://app?vid=121a0398-32d9-4f97-8e09-28a70dcd9547","ios":"levelo://app?vid=121a0398-32d9-4f97-8e09-28a70dcd9547"},"vehicle_type_id":"4","last_reported":1758740892,"current_range_meters":14000,"station_id":"ce4bgpp2rcd13ifvqc3g","pricing_plan_id":"cebpf4jnsgd1na2vs0mg"},{"bike_id":"21a23fb5-d051-4ee2-9c58-8985930c04d5","system_id":"levelo_inurba_marseille","lat":43.28396,"lon":5.37511,"is_reserved":false,"is_disabled":false,"rental_uris":{"android":"levelo://app?vid=21a23fb5-d051-4ee2-9c58-8985930c04d5","ios":"levelo://app?vid=21a23fb5-d051-4ee2-9c58-8985930c04d5"},"vehicle_type_id":"4","last_reported":1758740892,"current_range_meters":14000,"station_id":"ce4bh412rcd13ifvqds0","pricing_plan_id":"cebpf4jnsgd1na2vs0mg"},{"bike_id":"16cee2f9-0604-4f00-85ee-c5690b0410f0","system_id":"levelo_inurba_marseille","lat":43.28613,"lon":5.35092,"is_reserved":false,"is_disabled":false,"rental_uris":{"android":"levelo://app?vid=16cee2f9-0604-4f00-85ee-c5690b0410f0","ios":"levelo://app?vid=16cee2f9-0604-4f00-85ee-c5690b0410f0"},"vehicle_type_id":"4","last_reported":1758740892,"current_range_meters":14000,"station_id":"ce4bhch2rcd13ifvqeug","pricing_plan_id":"cebpf4jnsgd1na2vs0mg"},{"bike_id":"97b3970d-3d9c-468b-b0e8-b040684800a4","system_id":"levelo_inurba_marseille","lat":43.24067,"lon":5.37761,"is_reserved":false,"is_disabled":false,"rental_uris":{"android":"levelo://app?vid=97b3970d-3d9c-468b-b0e8-b040684800a4","ios":"levelo://app?vid=97b3970d-3d9c-468b-b0e8-b040684800a4"},"vehicle_type_id":"4","last_reported":1758740892,"current_range_meters":14400,"station_id":"ce4bhnp2rcd13ifvqgvg","pricing_plan_id":"cebpf4jnsgd1na2vs0mg"},{"bike_id":"3cb1dae7-6bcd-41e5-b1b7-c1d25c751a99","system_id":"levelo_inurba_marseille","lat":43.337594,"lon":5.374419,"is_reserved":false,"is_disabled":false,"rental_uris":{"android":"levelo://app?vid=3cb1dae7-6bcd-41e5-b1b7-c1d25c751a99","ios":"levelo://app?vid=3cb1dae7-6bcd-41e5-b1b7-c1d25c751a99"},"vehicle_type_id":"4","last_reported":1758740892,"current_range_meters":14400,"station_id":"","pricing_plan_id":"cebpf4jnsgd1na2vs0mg"},{"bike_id":"57b14c92-2a17-45b3-beb1-cbb460ef441b","system_id":"levelo_inurba_marseille","lat":43.23195,"lon":5.39989,"is_reserved":false,"is_disabled":false,"rental_uris":{"android":"levelo://app?vid=57b14c92-2a17-45b3-beb1-cbb460ef441b","ios":"levelo://app?vid=57b14c92-2a17-45b3-beb1-cbb460ef441b"},"vehicle_type_id":"4","last_reported":1758740892,"current_range_meters":14400,"station_id":"ce4bhn12rcd13ifvqgqg","pricing_plan_id":"cebpf4jnsgd1na2vs0mg"},{"bike_id":"792644ab-1e4e-4755-bbf1-7bf5616b8f94","system_id":"levelo_inurba_marseille","lat":43.24807,"lon":5.3747,"is_reserved":false,"is_disabled":false,"rental_uris":{"android":"levelo://app?vid=792644ab-1e4e-4755-bbf1-7bf5616b8f94","ios":"levelo://app?vid=792644ab-1e4e-4755-bbf1-7bf5616b8f94"},"vehicle_type_id":"4","last_reported":1758740892,"current_range_meters":14000,"station_id":"ce4bhgh2rcd13ifvqfb0","pricing_plan_id":"cebpf4jnsgd1na2vs0mg"},{"bike_id":"22131815-583c-4c1c-83bf-a89ec7cb2e3c","system_id":"levelo_inurba_marseille","lat":43.31361,"lon":5.38502,"is_reserved":false,"is_disabled":false,"rental_uris":{"android":"levelo://app?vid=22131815-583c-4c1c-83bf-a89ec7cb2e3c","ios":"levelo://app?vid=22131815-583c-4c1c-83bf-a89ec7cb2e3c"},"vehicle_type_id":"4","last_reported":1758740892,"current_range_meters":14400,"station_id":"ce4bgt92rcd13ifvqcf0","pricing_plan_id":"cebpf4jnsgd1na2vs0mg"},{"bike_id":"edd2084b-6e0f-409e-9809-67787dc471db","system_id":"levelo_inurba_marseille","lat":43.26726,"lon":5.3825,"is_reserved":false,"is_disabled":false,"rental_uris":{"android":"levelo://app?vid=edd2084b-6e0f-409e-9809-67787dc471db","ios":"levelo://app?vid=edd2084b-6e0f-409e-9809-67787dc471db"},"vehicle_type_id":"4","last_reported":1758740892,"current_range_meters":14400,"station_id":"","pricing_plan_id":"cebpf4jnsgd1na2vs0mg"},{"bike_id":"e19472f1-87e0-4943-97f3-e785d2a10054","system_id":"levelo_inurba_marseille","lat":43.28857,"lon":5.42511,"is_reserved":false,"is_disabled":false,"rental_uris":{"android":"levelo://app?vid=e19472f1-87e0-4943-97f3-e785d2a10054","ios":"levelo://app?vid=e19472f1-87e0-4943-97f3-e785d2a10054"},"vehicle_type_id":"4","last_reported":1758740892,"current_range_meters":14400,"station_id":"","pricing_plan_id":"cebpf4jnsgd1na2vs0mg"},{"bike_id":"3a83ddcd-ce03-4ed4-a7fa-b273c2464f02","system_id":"levelo_inurba_marseille","lat":43.2795,"lon":5.36327,"is_reserved":false,"is_disabled":false,"rental_uris":{"android":"levelo://app?vid=3a83ddcd-ce03-4ed4-a7fa-b273c2464f02","ios":"levelo://app?vid=3a83ddcd-ce03-4ed4-a7fa-b273c2464f02"},"vehicle_type_id":"4","last_reported":1758740892,"current_range_meters":14400,"station_id":"","pricing_plan_id":"cebpf4jnsgd1na2vs0mg"},{"bike_id":"f4254971-fb38-48e6-bcc7-8f6aa50d23d7","system_id":"levelo_inurba_marseille","lat":43.29252,"lon":5.38444,"is_reserved":false,"is_disabled":false,"rental_uris":{"android":"levelo://app?vid=f4254971-fb38-48e6-bcc7-8f6aa50d23d7","ios":"levelo://app?vid=f4254971-fb38-48e6-bcc7-8f6aa50d23d7"},"vehicle_type_id":"4","last_reported":1758740892,"current_range_meters":14800,"station_id":"ce4bh692rcd13ifvqea0","pricing_plan_id":"cebpf4jnsgd1na2vs0mg"},{"bike_id":"6c429b58-3fbf-4671-bc36-e0d4a95d58de","system_id":"levelo_inurba_marseille","lat":43.26682,"lon":5.3827,"is_reserved":false,"is_disabled":false,"rental_uris":{"android":"levelo://app?vid=6c429b58-3fbf-4671-bc36-e0d4a95d58de","ios":"levelo://app?vid=6c429b58-3fbf-4671-bc36-e0d4a95d58de"},"vehicle_type_id":"4","last_reported":1758740892,"current_range_meters":14800,"station_id":"ce4bhg92rcd13ifvqf90","pricing_plan_id":"cebpf4jnsgd1na2vs0mg"},{"bike_id":"490d15fb-6ce0-498d-9a36-8efd7475a1b5","system_id":"levelo_inurba_marseille","lat":43.2924,"lon":5.40898,"is_reserved":false,"is_disabled":false,"rental_uris":{"android":"levelo://app?vid=490d15fb-6ce0-498d-9a36-8efd7475a1b5","ios":"levelo://app?vid=490d15fb-6ce0-498d-9a36-8efd7475a1b5"},"vehicle_type_id":"4","last_reported":1758740892,"current_range_meters":14800,"station_id":"ce4bh192rcd13ifvqdc0","pricing_plan_id":"cebpf4jnsgd1na2vs0mg"},{"bike_id":"50c03ce7-6089-4ca2-9f23-f4c8c568a597","system_id":"levelo_inurba_marseille","lat":43.33785,"lon":5.37428,"is_reserved":false,"is_disabled":false,"rental_uris":{"android":"levelo://app?vid=50c03ce7-6089-4ca2-9f23-f4c8c568a597","ios":"levelo://app?vid=50c03ce7-6089-4ca2-9f23-f4c8c568a597"},"vehicle_type_id":"4","last_reported":1758740892,"current_range_meters":14800,"station_id":"","pricing_plan_id":"cebpf4jnsgd1na2vs0mg"},{"bike_id":"a9700779-b502-4844-8dc2-f49376e17414","system_id":"levelo_inurba_marseille","lat":43.32064,"lon":5.41524,"is_reserved":false,"is_disabled":false,"rental_uris":{"android":"levelo://app?vid=a9700779-b502-4844-8dc2-f49376e17414","ios":"levelo://app?vid=a9700779-b502-4844-8dc2-f49376e17414"},"vehicle_type_id":"4","last_reported":1758740892,"current_range_meters":14800,"station_id":"ce4bhq92rcd13ifvqhkg","pricing_plan_id":"cebpf4jnsgd1na2vs0mg"},{"bike_id":"855d45aa-594f-4b25-bdce-9a0db7fafa08","system_id":"levelo_inurba_marseille","lat":43.30247,"lon":5.40055,"is_reserved":false,"is_disabled":false,"rental_uris":{"android":"levelo://app?vid=855d45aa-594f-4b25-bdce-9a0db7fafa08","ios":"levelo://app?vid=855d45aa-594f-4b25-bdce-9a0db7fafa08"},"vehicle_type_id":"4","last_reported":1758740892,"current_range_meters":14800,"station_id":"ce4bgvh2rcd13ifvqcs0","pricing_plan_id":"cebpf4jnsgd1na2vs0mg"},{"bike_id":"2caa2798-2710-4993-8490-f4d6ea250a1c","system_id":"levelo_inurba_marseille","lat":43.30124,"lon":5.39869,"is_reserved":false,"is_disabled":false,"rental_uris":{"android":"levelo://app?vid=2caa2798-2710-4993-8490-f4d6ea250a1c","ios":"levelo://app?vid=2caa2798-2710-4993-8490-f4d6ea250a1c"},"vehicle_type_id":"4","last_reported":1758740892,"current_range_meters":14800,"station_id":"ce4bh0h2rcd13ifvqd40","pricing_plan_id":"cebpf4jnsgd1na2vs0mg"},{"bike_id":"dd4388e4-dc74-41d1-a78b-9f88375a07d2","system_id":"levelo_inurba_marseille","lat":43.26669,"lon":5.38252,"is_reserved":false,"is_disabled":false,"rental_uris":{"android":"levelo://app?vid=dd4388e4-dc74-41d1-a78b-9f88375a07d2","ios":"levelo://app?vid=dd4388e4-dc74-41d1-a78b-9f88375a07d2"},"vehicle_type_id":"4","last_reported":1758740892,"current_range_meters":14800,"station_id":"ce4bhg92rcd13ifvqf90","pricing_plan_id":"cebpf4jnsgd1na2vs0mg"},{"bike_id":"c7f6a08b-c655-4213-b2ba-7d02e7f382fe","system_id":"levelo_inurba_marseille","lat":43.27988,"lon":5.39483,"is_reserved":false,"is_disabled":false,"rental_uris":{"android":"levelo://app?vid=c7f6a08b-c655-4213-b2ba-7d02e7f382fe","ios":"levelo://app?vid=c7f6a08b-c655-4213-b2ba-7d02e7f382fe"},"vehicle_type_id":"4","last_reported":1758740892,"current_range_meters":14800,"station_id":"","pricing_plan_id":"cebpf4jnsgd1na2vs0mg"},{"bike_id":"bd5851bf-1a70-43ef-b22b-a47c9e856df6","system_id":"levelo_inurba_marseille","lat":43.283643,"lon":5.386403,"is_reserved":false,"is_disabled":false,"rental_uris":{"android":"levelo://app?vid=bd5851bf-1a70-43ef-b22b-a47c9e856df6","ios":"levelo://app?vid=bd5851bf-1a70-43ef-b22b-a47c9e856df6"},"vehicle_type_id":"4","last_reported":1758740892,"current_range_meters":14800,"station_id":"ce4bh492rcd13ifvqdvg","pricing_plan_id":"cebpf4jnsgd1na2vs0mg"},{"bike_id":"486abade-dd76-4cb8-828f-1a286c8b56d7","system_id":"levelo_inurba_marseille","lat":43.295772,"lon":5.367429,"is_reserved":false,"is_disabled":false,"rental_uris":{"android":"levelo://app?vid=486abade-dd76-4cb8-828f-1a286c8b56d7","ios":"levelo://app?vid=486abade-dd76-4cb8-828f-1a286c8b56d7"},"vehicle_type_id":"4","last_reported":1758740892,"current_range_meters":15200,"station_id":"","pricing_plan_id":"cebpf4jnsgd1na2vs0mg"},{"bike_id":"023ee22e-363d-4688-800c-ab4b215e4623","system_id":"levelo_inurba_marseille","lat":43.27674,"lon":5.38895,"is_reserved":false,"is_disabled":true,"rental_uris":{"android":"levelo://app?vid=023ee22e-363d-4688-800c-ab4b215e4623","ios":"levelo://app?vid=023ee22e-363d-4688-800c-ab4b215e4623"},"vehicle_type_id":"4","last_reported":1758740892,"current_range_meters":15200,"station_id":"ce4bhi12rcd13ifvqfo0","pricing_plan_id":"cebpf4jnsgd1na2vs0mg"},{"bike_id":"8f421f32-dd39-48ff-8f12-6a9f57ba2b6e","system_id":"levelo_inurba_marseille","lat":43.31893,"lon":5.40734,"is_reserved":false,"is_disabled":false,"rental_uris":{"android":"levelo://app?vid=8f421f32-dd39-48ff-8f12-6a9f57ba2b6e","ios":"levelo://app?vid=8f421f32-dd39-48ff-8f12-6a9f57ba2b6e"},"vehicle_type_id":"4","last_reported":1758740892,"current_range_meters":15200,"station_id":"ce4bhq12rcd13ifvqhig","pricing_plan_id":"cebpf4jnsgd1na2vs0mg"},{"bike_id":"8eae954c-dab6-4303-94f5-569e1c483f62","system_id":"levelo_inurba_marseille","lat":43.2945,"lon":5.40769,"is_reserved":false,"is_disabled":false,"rental_uris":{"android":"levelo://app?vid=8eae954c-dab6-4303-94f5-569e1c483f62","ios":"levelo://app?vid=8eae954c-dab6-4303-94f5-569e1c483f62"},"vehicle_type_id":"4","last_reported":1758740892,"current_range_meters":15200,"station_id":"","pricing_plan_id":"cebpf4jnsgd1na2vs0mg"},{"bike_id":"eedb9448-c092-4538-91ba-a1f85f1f6775","system_id":"levelo_inurba_marseille","lat":43.29438,"lon":5.39746,"is_reserved":false,"is_disabled":false,"rental_uris":{"android":"levelo://app?vid=eedb9448-c092-4538-91ba-a1f85f1f6775","ios":"levelo://app?vid=eedb9448-c092-4538-91ba-a1f85f1f6775"},"vehicle_type_id":"4","last_reported":1758740892,"current_range_meters":15200,"station_id":"ce4bh3h2rcd13ifvqdo0","pricing_plan_id":"cebpf4jnsgd1na2vs0mg"},{"bike_id":"0e9ca394-4351-4bf8-a641-f4e5215baf20","system_id":"levelo_inurba_marseille","lat":43.28273,"lon":5.35089,"is_reserved":false,"is_disabled":false,"rental_uris":{"android":"levelo://app?vid=0e9ca394-4351-4bf8-a641-f4e5215baf20","ios":"levelo://app?vid=0e9ca394-4351-4bf8-a641-f4e5215baf20"},"vehicle_type_id":"4","last_reported":1758740892,"current_range_meters":15200,"station_id":"ce4bhbp2rcd13ifvqerg","pricing_plan_id":"cebpf4jnsgd1na2vs0mg"},{"bike_id":"b34c4a64-11a9-4e4d-bfce-b7cf90dc8887","system_id":"levelo_inurba_marseille","lat":43.28002,"lon":5.40003,"is_reserved":false,"is_disabled":false,"rental_uris":{"android":"levelo://app?vid=b34c4a64-11a9-4e4d-bfce-b7cf90dc8887","ios":"levelo://app?vid=b34c4a64-11a9-4e4d-bfce-b7cf90dc8887"},"vehicle_type_id":"4","last_reported":1758740892,"current_range_meters":15200,"station_id":"ce4bho92rcd13ifvqh4g","pricing_plan_id":"cebpf4jnsgd1na2vs0mg"},{"bike_id":"b8d8765f-7128-410c-a3e8-dfd504be13c3","system_id":"levelo_inurba_marseille","lat":43.29785,"lon":5.38108,"is_reserved":false,"is_disabled":false,"rental_uris":{"android":"levelo://app?vid=b8d8765f-7128-410c-a3e8-dfd504be13c3","ios":"levelo://app?vid=b8d8765f-7128-410c-a3e8-dfd504be13c3"},"vehicle_type_id":"4","last_reported":1758740892,"current_range_meters":15200,"station_id":"ce4bgip2rcd13ifvqbb0","pricing_plan_id":"cebpf4jnsgd1na2vs0mg"},{"bike_id":"002673c7-e49b-40c2-82da-6cf2f4393eb8","system_id":"levelo_inurba_marseille","lat":43.30456,"lon":5.37891,"is_reserved":false,"is_disabled":true,"rental_uris":{"android":"levelo://app?vid=002673c7-e49b-40c2-82da-6cf2f4393eb8","ios":"levelo://app?vid=002673c7-e49b-40c2-82da-6cf2f4393eb8"},"vehicle_type_id":"4","last_reported":1758740892,"current_range_meters":15200,"station_id":"ce4bgup2rcd13ifvqcn0","pricing_plan_id":"cebpf4jnsgd1na2vs0mg"},{"bike_id":"403f770a-7e8f-4315-8646-8d8d91c68a75","system_id":"levelo_inurba_marseille","lat":43.30596,"lon":5.39348,"is_reserved":false,"is_disabled":false,"rental_uris":{"android":"levelo://app?vid=403f770a-7e8f-4315-8646-8d8d91c68a75","ios":"levelo://app?vid=403f770a-7e8f-4315-8646-8d8d91c68a75"},"vehicle_type_id":"4","last_reported":1758740892,"current_range_meters":15200,"station_id":"ce4bh0p2rcd13ifvqd80","pricing_plan_id":"cebpf4jnsgd1na2vs0mg"},{"bike_id":"2602115a-05d0-44c9-8ef8-208c95360ad1","system_id":"levelo_inurba_marseille","lat":43.317563,"lon":5.390117,"is_reserved":false,"is_disabled":false,"rental_uris":{"android":"levelo://app?vid=2602115a-05d0-44c9-8ef8-208c95360ad1","ios":"levelo://app?vid=2602115a-05d0-44c9-8ef8-208c95360ad1"},"vehicle_type_id":"4","last_reported":1758740892,"current_range_meters":15200,"station_id":"ce4bhqp2rcd13ifvqhng","pricing_plan_id":"cebpf4jnsgd1na2vs0mg"},{"bike_id":"c48b68a7-4bb0-4cce-80c1-342b1070ee71","system_id":"levelo_inurba_marseille","lat":43.29568,"lon":5.39964,"is_reserved":false,"is_disabled":false,"rental_uris":{"android":"levelo://app?vid=c48b68a7-4bb0-4cce-80c1-342b1070ee71","ios":"levelo://app?vid=c48b68a7-4bb0-4cce-80c1-342b1070ee71"},"vehicle_type_id":"4","last_reported":1758740892,"current_range_meters":15200,"station_id":"ce4bh312rcd13ifvqdj0","pricing_plan_id":"cebpf4jnsgd1na2vs0mg"},{"bike_id":"92eca90d-f417-4a30-b4fe-f753bc1d840c","system_id":"levelo_inurba_marseille","lat":43.24389,"lon":5.37061,"is_reserved":false,"is_disabled":false,"rental_uris":{"android":"levelo://app?vid=92eca90d-f417-4a30-b4fe-f753bc1d840c","ios":"levelo://app?vid=92eca90d-f417-4a30-b4fe-f753bc1d840c"},"vehicle_type_id":"4","last_reported":1758740892,"current_range_meters":16000,"station_id":"ce4bhhh2rcd13ifvqfk0","pricing_plan_id":"cebpf4jnsgd1na2vs0mg"},{"bike_id":"0334c664-c853-4f38-a46f-30751b2874a4","system_id":"levelo_inurba_marseille","lat":43.290453,"lon":5.359324,"is_reserved":false,"is_disabled":true,"rental_uris":{"android":"levelo://app?vid=0334c664-c853-4f38-a46f-30751b2874a4","ios":"levelo://app?vid=0334c664-c853-4f38-a46f-30751b2874a4"},"vehicle_type_id":"4","last_reported":1758740892,"current_range_meters":16000,"station_id":"ce4bha92rcd13ifvqeg0","pricing_plan_id":"cebpf4jnsgd1na2vs0mg"},{"bike_id":"48e74134-d740-4ee6-b986-9516abdd06c6","system_id":"levelo_inurba_marseille","lat":43.278,"lon":5.40694,"is_reserved":false,"is_disabled":false,"rental_uris":{"android":"levelo://app?vid=48e74134-d740-4ee6-b986-9516abdd06c6","ios":"levelo://app?vid=48e74134-d740-4ee6-b986-9516abdd06c6"},"vehicle_type_id":"4","last_reported":1758740892,"current_range_meters":16000,"station_id":"ce4bhnh2rcd13ifvqgtg","pricing_plan_id":"cebpf4jnsgd1na2vs0mg"},{"bike_id":"f5c852b2-548c-4ba5-a23e-58341d1949a6","system_id":"levelo_inurba_marseille","lat":43.21753,"lon":5.34604,"is_reserved":false,"is_disabled":false,"rental_uris":{"android":"levelo://app?vid=f5c852b2-548c-4ba5-a23e-58341d1949a6","ios":"levelo://app?vid=f5c852b2-548c-4ba5-a23e-58341d1949a6"},"vehicle_type_id":"4","last_reported":1758740892,"current_range_meters":16000,"station_id":"st_cvj6r9ubvosntc0bgbag","pricing_plan_id":"cebpf4jnsgd1na2vs0mg"},{"bike_id":"129c8450-4cca-4e9f-b9f6-538b0080ad49","system_id":"levelo_inurba_marseille","lat":43.32553,"lon":5.38903,"is_reserved":false,"is_disabled":false,"rental_uris":{"android":"levelo://app?vid=129c8450-4cca-4e9f-b9f6-538b0080ad49","ios":"levelo://app?vid=129c8450-4cca-4e9f-b9f6-538b0080ad49"},"vehicle_type_id":"4","last_reported":1758740892,"current_range_meters":16000,"station_id":"","pricing_plan_id":"cebpf4jnsgd1na2vs0mg"},{"bike_id":"f4e9d420-f70c-46eb-acdc-7c067334e200","system_id":"levelo_inurba_marseille","lat":43.29254,"lon":5.38443,"is_reserved":false,"is_disabled":false,"rental_uris":{"android":"levelo://app?vid=f4e9d420-f70c-46eb-acdc-7c067334e200","ios":"levelo://app?vid=f4e9d420-f70c-46eb-acdc-7c067334e200"},"vehicle_type_id":"4","last_reported":1758740892,"current_range_meters":16000,"station_id":"ce4bh692rcd13ifvqea0","pricing_plan_id":"cebpf4jnsgd1na2vs0mg"},{"bike_id":"ad9a6248-1b43-4fc5-bfba-44f7d3067aab","system_id":"levelo_inurba_marseille","lat":43.211937,"lon":5.350767,"is_reserved":false,"is_disabled":false,"rental_uris":{"android":"levelo://app?vid=ad9a6248-1b43-4fc5-bfba-44f7d3067aab","ios":"levelo://app?vid=ad9a6248-1b43-4fc5-bfba-44f7d3067aab"},"vehicle_type_id":"4","last_reported":1758740892,"current_range_meters":16000,"station_id":"st_cvj6sg6p6f1abm77japg","pricing_plan_id":"cebpf4jnsgd1na2vs0mg"},{"bike_id":"67b99b55-8fb4-4290-829f-8798b48a4de0","system_id":"levelo_inurba_marseille","lat":43.32319,"lon":5.406246,"is_reserved":false,"is_disabled":false,"rental_uris":{"android":"levelo://app?vid=67b99b55-8fb4-4290-829f-8798b48a4de0","ios":"levelo://app?vid=67b99b55-8fb4-4290-829f-8798b48a4de0"},"vehicle_type_id":"4","last_reported":1758740892,"current_range_meters":16000,"station_id":"ce4bhq92rcd13ifvqhjg","pricing_plan_id":"cebpf4jnsgd1na2vs0mg"},{"bike_id":"57c8c5f4-0a3a-4839-a282-36b5fda74ea0","system_id":"levelo_inurba_marseille","lat":43.3199,"lon":5.3817,"is_reserved":false,"is_disabled":false,"rental_uris":{"android":"levelo://app?vid=57c8c5f4-0a3a-4839-a282-36b5fda74ea0","ios":"levelo://app?vid=57c8c5f4-0a3a-4839-a282-36b5fda74ea0"},"vehicle_type_id":"4","last_reported":1758740892,"current_range_meters":16000,"station_id":"ce4bhr12rcd13ifvqhpg","pricing_plan_id":"cebpf4jnsgd1na2vs0mg"},{"bike_id":"f0c5386a-9938-4d6a-81e8-14ec0c5e2580","system_id":"levelo_inurba_marseille","lat":43.32209,"lon":5.38596,"is_reserved":false,"is_disabled":false,"rental_uris":{"android":"levelo://app?vid=f0c5386a-9938-4d6a-81e8-14ec0c5e2580","ios":"levelo://app?vid=f0c5386a-9938-4d6a-81e8-14ec0c5e2580"},"vehicle_type_id":"4","last_reported":1758740892,"current_range_meters":16000,"station_id":"","pricing_plan_id":"cebpf4jnsgd1na2vs0mg"},{"bike_id":"7ab01b52-acb1-4c63-963d-8157eea5300e","system_id":"levelo_inurba_marseille","lat":43.30653,"lon":5.40103,"is_reserved":false,"is_disabled":false,"rental_uris":{"android":"levelo://app?vid=7ab01b52-acb1-4c63-963d-8157eea5300e","ios":"levelo://app?vid=7ab01b52-acb1-4c63-963d-8157eea5300e"},"vehicle_type_id":"4","last_reported":1758740892,"current_range_meters":16000,"station_id":"ce4bh112rcd13ifvqda0","pricing_plan_id":"cebpf4jnsgd1na2vs0mg"},{"bike_id":"d8d6f31a-c510-424a-9731-839758fd1c1d","system_id":"levelo_inurba_marseille","lat":43.24653,"lon":5.39031,"is_reserved":false,"is_disabled":false,"rental_uris":{"android":"levelo://app?vid=d8d6f31a-c510-424a-9731-839758fd1c1d","ios":"levelo://app?vid=d8d6f31a-c510-424a-9731-839758fd1c1d"},"vehicle_type_id":"4","last_reported":1758740892,"current_range_meters":16400,"station_id":"","pricing_plan_id":"cebpf4jnsgd1na2vs0mg"},{"bike_id":"072df216-54bf-4c27-b5ba-ef1384733e8b","system_id":"levelo_inurba_marseille","lat":43.25802,"lon":5.39453,"is_reserved":false,"is_disabled":false,"rental_uris":{"android":"levelo://app?vid=072df216-54bf-4c27-b5ba-ef1384733e8b","ios":"levelo://app?vid=072df216-54bf-4c27-b5ba-ef1384733e8b"},"vehicle_type_id":"4","last_reported":1758740892,"current_range_meters":16400,"station_id":"ce4bhip2rcd13ifvqft0","pricing_plan_id":"cebpf4jnsgd1na2vs0mg"},{"bike_id":"2bd2a176-8590-4e06-8b8c-a96b49b7b36a","system_id":"levelo_inurba_marseille","lat":43.262237,"lon":5.404538,"is_reserved":false,"is_disabled":false,"rental_uris":{"android":"levelo://app?vid=2bd2a176-8590-4e06-8b8c-a96b49b7b36a","ios":"levelo://app?vid=2bd2a176-8590-4e06-8b8c-a96b49b7b36a"},"vehicle_type_id":"4","last_reported":1758740892,"current_range_meters":16400,"station_id":"","pricing_plan_id":"cebpf4jnsgd1na2vs0mg"},{"bike_id":"6ce97256-6e29-4ee4-b817-ac92bdd5aea1","system_id":"levelo_inurba_marseille","lat":43.22534,"lon":5.34835,"is_reserved":false,"is_disabled":false,"rental_uris":{"android":"levelo://app?vid=6ce97256-6e29-4ee4-b817-ac92bdd5aea1","ios":"levelo://app?vid=6ce97256-6e29-4ee4-b817-ac92bdd5aea1"},"vehicle_type_id":"4","last_reported":1758740892,"current_range_meters":16400,"station_id":"","pricing_plan_id":"cebpf4jnsgd1na2vs0mg"},{"bike_id":"6451e812-8219-41db-8ac4-19b982d4fbd0","system_id":"levelo_inurba_marseille","lat":43.29533,"lon":5.38554,"is_reserved":false,"is_disabled":false,"rental_uris":{"android":"levelo://app?vid=6451e812-8219-41db-8ac4-19b982d4fbd0","ios":"levelo://app?vid=6451e812-8219-41db-8ac4-19b982d4fbd0"},"vehicle_type_id":"4","last_reported":1758740892,"current_range_meters":16400,"station_id":"ce4bgih2rcd13ifvqba0","pricing_plan_id":"cebpf4jnsgd1na2vs0mg"},{"bike_id":"d2be082e-bd73-4203-addb-18871b3a9587","system_id":"levelo_inurba_marseille","lat":43.2941,"lon":5.3748,"is_reserved":false,"is_disabled":false,"rental_uris":{"android":"levelo://app?vid=d2be082e-bd73-4203-addb-18871b3a9587","ios":"levelo://app?vid=d2be082e-bd73-4203-addb-18871b3a9587"},"vehicle_type_id":"4","last_reported":1758740892,"current_range_meters":16400,"station_id":"","pricing_plan_id":"cebpf4jnsgd1na2vs0mg"},{"bike_id":"ae738c23-7fde-4118-94bb-f749216b1ee9","system_id":"levelo_inurba_marseille","lat":43.31482,"lon":5.37309,"is_reserved":false,"is_disabled":false,"rental_uris":{"android":"levelo://app?vid=ae738c23-7fde-4118-94bb-f749216b1ee9","ios":"levelo://app?vid=ae738c23-7fde-4118-94bb-f749216b1ee9"},"vehicle_type_id":"4","last_reported":1758740892,"current_range_meters":16400,"station_id":"ce4bgt12rcd13ifvqcd0","pricing_plan_id":"cebpf4jnsgd1na2vs0mg"},{"bike_id":"033eff9b-c380-48db-bb88-de3039746e15","system_id":"levelo_inurba_marseille","lat":43.250782,"lon":5.394847,"is_reserved":false,"is_disabled":false,"rental_uris":{"android":"levelo://app?vid=033eff9b-c380-48db-bb88-de3039746e15","ios":"levelo://app?vid=033eff9b-c380-48db-bb88-de3039746e15"},"vehicle_type_id":"4","last_reported":1758740892,"current_range_meters":16000,"station_id":"ce4bhm12rcd13ifvqgkg","pricing_plan_id":"cebpf4jnsgd1na2vs0mg"},{"bike_id":"a6ad0c6c-868d-42f3-ba54-573e1a175a36","system_id":"levelo_inurba_marseille","lat":43.2626,"lon":5.41293,"is_reserved":false,"is_disabled":false,"rental_uris":{"android":"levelo://app?vid=a6ad0c6c-868d-42f3-ba54-573e1a175a36","ios":"levelo://app?vid=a6ad0c6c-868d-42f3-ba54-573e1a175a36"},"vehicle_type_id":"4","last_reported":1758740892,"current_range_meters":16400,"station_id":"","pricing_plan_id":"cebpf4jnsgd1na2vs0mg"},{"bike_id":"8f68b7ad-c96a-48a8-9f6e-33e7e1084763","system_id":"levelo_inurba_marseille","lat":43.260205,"lon":5.417477,"is_reserved":false,"is_disabled":false,"rental_uris":{"android":"levelo://app?vid=8f68b7ad-c96a-48a8-9f6e-33e7e1084763","ios":"levelo://app?vid=8f68b7ad-c96a-48a8-9f6e-33e7e1084763"},"vehicle_type_id":"4","last_reported":1758740892,"current_range_meters":16400,"station_id":"","pricing_plan_id":"cebpf4jnsgd1na2vs0mg"},{"bike_id":"a3383983-1a81-4f66-8f19-2363b98e3729","system_id":"levelo_inurba_marseille","lat":43.26563,"lon":5.39008,"is_reserved":false,"is_disabled":true,"rental_uris":{"android":"levelo://app?vid=a3383983-1a81-4f66-8f19-2363b98e3729","ios":"levelo://app?vid=a3383983-1a81-4f66-8f19-2363b98e3729"},"vehicle_type_id":"4","last_reported":1758740892,"current_range_meters":16400,"station_id":"ce4bhe12rcd13ifvqf30","pricing_plan_id":"cebpf4jnsgd1na2vs0mg"},{"bike_id":"2c02912d-5921-40ff-923b-4b9c5711dbd0","system_id":"levelo_inurba_marseille","lat":43.30889,"lon":5.372,"is_reserved":false,"is_disabled":false,"rental_uris":{"android":"levelo://app?vid=2c02912d-5921-40ff-923b-4b9c5711dbd0","ios":"levelo://app?vid=2c02912d-5921-40ff-923b-4b9c5711dbd0"},"vehicle_type_id":"4","last_reported":1758740892,"current_range_meters":16400,"station_id":"ce4bguh2rcd13ifvqckg","pricing_plan_id":"cebpf4jnsgd1na2vs0mg"},{"bike_id":"82c8a115-7336-44f9-83d3-33a63ccb4e11","system_id":"levelo_inurba_marseille","lat":43.29532,"lon":5.38551,"is_reserved":false,"is_disabled":false,"rental_uris":{"android":"levelo://app?vid=82c8a115-7336-44f9-83d3-33a63ccb4e11","ios":"levelo://app?vid=82c8a115-7336-44f9-83d3-33a63ccb4e11"},"vehicle_type_id":"4","last_reported":1758740892,"current_range_meters":16800,"station_id":"ce4bgih2rcd13ifvqba0","pricing_plan_id":"cebpf4jnsgd1na2vs0mg"},{"bike_id":"003515e8-8117-44bb-979d-5f47e8d50fda","system_id":"levelo_inurba_marseille","lat":43.30625,"lon":5.37579,"is_reserved":false,"is_disabled":false,"rental_uris":{"android":"levelo://app?vid=003515e8-8117-44bb-979d-5f47e8d50fda","ios":"levelo://app?vid=003515e8-8117-44bb-979d-5f47e8d50fda"},"vehicle_type_id":"4","last_reported":1758740892,"current_range_meters":16800,"station_id":"","pricing_plan_id":"cebpf4jnsgd1na2vs0mg"},{"bike_id":"429b97eb-f7cc-4d35-b219-e8e26e3f47e0","system_id":"levelo_inurba_marseille","lat":43.27366,"lon":5.36254,"is_reserved":false,"is_disabled":false,"rental_uris":{"android":"levelo://app?vid=429b97eb-f7cc-4d35-b219-e8e26e3f47e0","ios":"levelo://app?vid=429b97eb-f7cc-4d35-b219-e8e26e3f47e0"},"vehicle_type_id":"4","last_reported":1758740892,"current_range_meters":16800,"station_id":"ce4bhbh2rcd13ifvqeo0","pricing_plan_id":"cebpf4jnsgd1na2vs0mg"},{"bike_id":"c2a9d29f-7999-49e5-80b6-d0812fcba3c4","system_id":"levelo_inurba_marseille","lat":43.28153,"lon":5.42669,"is_reserved":false,"is_disabled":false,"rental_uris":{"android":"levelo://app?vid=c2a9d29f-7999-49e5-80b6-d0812fcba3c4","ios":"levelo://app?vid=c2a9d29f-7999-49e5-80b6-d0812fcba3c4"},"vehicle_type_id":"4","last_reported":1758740892,"current_range_meters":16800,"station_id":"ce4bhnh2rcd13ifvqgug","pricing_plan_id":"cebpf4jnsgd1na2vs0mg"},{"bike_id":"7f26efef-5bca-4964-9649-a135cb9baf4f","system_id":"levelo_inurba_marseille","lat":43.25087,"lon":5.39512,"is_reserved":false,"is_disabled":false,"rental_uris":{"android":"levelo://app?vid=7f26efef-5bca-4964-9649-a135cb9baf4f","ios":"levelo://app?vid=7f26efef-5bca-4964-9649-a135cb9baf4f"},"vehicle_type_id":"4","last_reported":1758740892,"current_range_meters":16800,"station_id":"ce4bhm12rcd13ifvqgkg","pricing_plan_id":"cebpf4jnsgd1na2vs0mg"},{"bike_id":"6caa89c6-2658-4ac8-8d83-c6001f5f980c","system_id":"levelo_inurba_marseille","lat":43.25577,"lon":5.38239,"is_reserved":false,"is_disabled":false,"rental_uris":{"android":"levelo://app?vid=6caa89c6-2658-4ac8-8d83-c6001f5f980c","ios":"levelo://app?vid=6caa89c6-2658-4ac8-8d83-c6001f5f980c"},"vehicle_type_id":"4","last_reported":1758740892,"current_range_meters":16800,"station_id":"ce4bhih2rcd13ifvqfs0","pricing_plan_id":"cebpf4jnsgd1na2vs0mg"},{"bike_id":"d6d2b751-767f-4d34-8b88-ebc97e2bbad2","system_id":"levelo_inurba_marseille","lat":43.2883,"lon":5.35851,"is_reserved":false,"is_disabled":false,"rental_uris":{"android":"levelo://app?vid=d6d2b751-767f-4d34-8b88-ebc97e2bbad2","ios":"levelo://app?vid=d6d2b751-767f-4d34-8b88-ebc97e2bbad2"},"vehicle_type_id":"4","last_reported":1758740892,"current_range_meters":16800,"station_id":"ce4bhb12rcd13ifvqem0","pricing_plan_id":"cebpf4jnsgd1na2vs0mg"},{"bike_id":"672d2e42-fc9b-4559-a093-527198dbe8a1","system_id":"levelo_inurba_marseille","lat":43.28468,"lon":5.35896,"is_reserved":false,"is_disabled":false,"rental_uris":{"android":"levelo://app?vid=672d2e42-fc9b-4559-a093-527198dbe8a1","ios":"levelo://app?vid=672d2e42-fc9b-4559-a093-527198dbe8a1"},"vehicle_type_id":"4","last_reported":1758740892,"current_range_meters":16800,"station_id":"ce4bhah2rcd13ifvqei0","pricing_plan_id":"cebpf4jnsgd1na2vs0mg"},{"bike_id":"29237101-5788-433a-a817-fd7db1732b5b","system_id":"levelo_inurba_marseille","lat":43.28416,"lon":5.37515,"is_reserved":false,"is_disabled":false,"rental_uris":{"android":"levelo://app?vid=29237101-5788-433a-a817-fd7db1732b5b","ios":"levelo://app?vid=29237101-5788-433a-a817-fd7db1732b5b"},"vehicle_type_id":"4","last_reported":1758740892,"current_range_meters":16800,"station_id":"ce4bh412rcd13ifvqds0","pricing_plan_id":"cebpf4jnsgd1na2vs0mg"},{"bike_id":"63b3daeb-cf1c-4aa8-97b1-d5b690f0ac49","system_id":"levelo_inurba_marseille","lat":43.28114,"lon":5.43216,"is_reserved":false,"is_disabled":false,"rental_uris":{"android":"levelo://app?vid=63b3daeb-cf1c-4aa8-97b1-d5b690f0ac49","ios":"levelo://app?vid=63b3daeb-cf1c-4aa8-97b1-d5b690f0ac49"},"vehicle_type_id":"4","last_reported":1758740892,"current_range_meters":16800,"station_id":"","pricing_plan_id":"cebpf4jnsgd1na2vs0mg"},{"bike_id":"24be3add-e193-40bf-9412-1e268a66be0e","system_id":"levelo_inurba_marseille","lat":43.32291,"lon":5.3829,"is_reserved":false,"is_disabled":false,"rental_uris":{"android":"levelo://app?vid=24be3add-e193-40bf-9412-1e268a66be0e","ios":"levelo://app?vid=24be3add-e193-40bf-9412-1e268a66be0e"},"vehicle_type_id":"4","last_reported":1758740892,"current_range_meters":16800,"station_id":"ce4bhr12rcd13ifvqhqg","pricing_plan_id":"cebpf4jnsgd1na2vs0mg"},{"bike_id":"46923300-e0d3-40c1-8c76-7dadc761100f","system_id":"levelo_inurba_marseille","lat":43.289715,"lon":5.355918,"is_reserved":false,"is_disabled":false,"rental_uris":{"android":"levelo://app?vid=46923300-e0d3-40c1-8c76-7dadc761100f","ios":"levelo://app?vid=46923300-e0d3-40c1-8c76-7dadc761100f"},"vehicle_type_id":"4","last_reported":1758740892,"current_range_meters":16800,"station_id":"ce4bhb92rcd13ifvqen0","pricing_plan_id":"cebpf4jnsgd1na2vs0mg"},{"bike_id":"d3207f81-01a1-429a-832a-552720f64cb8","system_id":"levelo_inurba_marseille","lat":43.25109,"lon":5.40339,"is_reserved":false,"is_disabled":false,"rental_uris":{"android":"levelo://app?vid=d3207f81-01a1-429a-832a-552720f64cb8","ios":"levelo://app?vid=d3207f81-01a1-429a-832a-552720f64cb8"},"vehicle_type_id":"4","last_reported":1758740892,"current_range_meters":16800,"station_id":"ce4bhlh2rcd13ifvqgig","pricing_plan_id":"cebpf4jnsgd1na2vs0mg"},{"bike_id":"212de2eb-8bbc-413c-b204-9fe1facd76e8","system_id":"levelo_inurba_marseille","lat":43.31303,"lon":5.37829,"is_reserved":false,"is_disabled":false,"rental_uris":{"android":"levelo://app?vid=212de2eb-8bbc-413c-b204-9fe1facd76e8","ios":"levelo://app?vid=212de2eb-8bbc-413c-b204-9fe1facd76e8"},"vehicle_type_id":"4","last_reported":1758740892,"current_range_meters":16800,"station_id":"","pricing_plan_id":"cebpf4jnsgd1na2vs0mg"},{"bike_id":"9faa7ae5-4bb4-42ac-a66e-1c121a98a412","system_id":"levelo_inurba_marseille","lat":43.31381,"lon":5.38508,"is_reserved":false,"is_disabled":false,"rental_uris":{"android":"levelo://app?vid=9faa7ae5-4bb4-42ac-a66e-1c121a98a412","ios":"levelo://app?vid=9faa7ae5-4bb4-42ac-a66e-1c121a98a412"},"vehicle_type_id":"4","last_reported":1758740892,"current_range_meters":17200,"station_id":"ce4bgt92rcd13ifvqcf0","pricing_plan_id":"cebpf4jnsgd1na2vs0mg"},{"bike_id":"58e9c393-5c3a-4733-97af-67aecc0b8298","system_id":"levelo_inurba_marseille","lat":43.2836,"lon":5.38634,"is_reserved":false,"is_disabled":false,"rental_uris":{"android":"levelo://app?vid=58e9c393-5c3a-4733-97af-67aecc0b8298","ios":"levelo://app?vid=58e9c393-5c3a-4733-97af-67aecc0b8298"},"vehicle_type_id":"4","last_reported":1758740892,"current_range_meters":17200,"station_id":"ce4bh492rcd13ifvqdvg","pricing_plan_id":"cebpf4jnsgd1na2vs0mg"},{"bike_id":"103e10e1-cdd3-4156-bd46-638f81477b45","system_id":"levelo_inurba_marseille","lat":43.25824,"lon":5.39427,"is_reserved":false,"is_disabled":false,"rental_uris":{"android":"levelo://app?vid=103e10e1-cdd3-4156-bd46-638f81477b45","ios":"levelo://app?vid=103e10e1-cdd3-4156-bd46-638f81477b45"},"vehicle_type_id":"4","last_reported":1758740892,"current_range_meters":17200,"station_id":"ce4bhip2rcd13ifvqft0","pricing_plan_id":"cebpf4jnsgd1na2vs0mg"},{"bike_id":"7490d0f9-a3b1-4e32-8e4b-05d367f07d8a","system_id":"levelo_inurba_marseille","lat":43.301259,"lon":5.398615,"is_reserved":false,"is_disabled":true,"rental_uris":{"android":"levelo://app?vid=7490d0f9-a3b1-4e32-8e4b-05d367f07d8a","ios":"levelo://app?vid=7490d0f9-a3b1-4e32-8e4b-05d367f07d8a"},"vehicle_type_id":"4","last_reported":1758740892,"current_range_meters":17200,"station_id":"ce4bh0h2rcd13ifvqd40","pricing_plan_id":"cebpf4jnsgd1na2vs0mg"},{"bike_id":"39ee5f9c-b559-4e6d-a9ac-46b4318f7f27","system_id":"levelo_inurba_marseille","lat":43.28138,"lon":5.42658,"is_reserved":false,"is_disabled":false,"rental_uris":{"android":"levelo://app?vid=39ee5f9c-b559-4e6d-a9ac-46b4318f7f27","ios":"levelo://app?vid=39ee5f9c-b559-4e6d-a9ac-46b4318f7f27"},"vehicle_type_id":"4","last_reported":1758740892,"current_range_meters":17200,"station_id":"ce4bhnh2rcd13ifvqgug","pricing_plan_id":"cebpf4jnsgd1na2vs0mg"},{"bike_id":"5fcdd3c0-4b09-44bd-aded-65cda26a0190","system_id":"levelo_inurba_marseille","lat":43.29167,"lon":5.37163,"is_reserved":false,"is_disabled":false,"rental_uris":{"android":"levelo://app?vid=5fcdd3c0-4b09-44bd-aded-65cda26a0190","ios":"levelo://app?vid=5fcdd3c0-4b09-44bd-aded-65cda26a0190"},"vehicle_type_id":"4","last_reported":1758740892,"current_range_meters":16800,"station_id":"ce4bha92rcd13ifvqeh0","pricing_plan_id":"cebpf4jnsgd1na2vs0mg"},{"bike_id":"44d8c4d6-05e2-448f-8f40-6daaec808db9","system_id":"levelo_inurba_marseille","lat":43.23189,"lon":5.35578,"is_reserved":false,"is_disabled":false,"rental_uris":{"android":"levelo://app?vid=44d8c4d6-05e2-448f-8f40-6daaec808db9","ios":"levelo://app?vid=44d8c4d6-05e2-448f-8f40-6daaec808db9"},"vehicle_type_id":"4","last_reported":1758740892,"current_range_meters":17200,"station_id":"ce4bhu92rcd13ifvqi70","pricing_plan_id":"cebpf4jnsgd1na2vs0mg"},{"bike_id":"f20bfc62-969b-40b9-b7c8-114b3edc05c3","system_id":"levelo_inurba_marseille","lat":43.26784,"lon":5.39418,"is_reserved":false,"is_disabled":false,"rental_uris":{"android":"levelo://app?vid=f20bfc62-969b-40b9-b7c8-114b3edc05c3","ios":"levelo://app?vid=f20bfc62-969b-40b9-b7c8-114b3edc05c3"},"vehicle_type_id":"4","last_reported":1758740892,"current_range_meters":17200,"station_id":"ce4bhh12rcd13ifvqfg0","pricing_plan_id":"cebpf4jnsgd1na2vs0mg"},{"bike_id":"b57d43c9-bc28-418d-bee3-6e1b229da922","system_id":"levelo_inurba_marseille","lat":43.32108,"lon":5.36772,"is_reserved":false,"is_disabled":false,"rental_uris":{"android":"levelo://app?vid=b57d43c9-bc28-418d-bee3-6e1b229da922","ios":"levelo://app?vid=b57d43c9-bc28-418d-bee3-6e1b229da922"},"vehicle_type_id":"4","last_reported":1758740892,"current_range_meters":17200,"station_id":"ce4bhrh2rcd13ifvqhug","pricing_plan_id":"cebpf4jnsgd1na2vs0mg"},{"bike_id":"327c041e-5c9e-4b0d-a97c-a2dbaab036ae","system_id":"levelo_inurba_marseille","lat":43.328094,"lon":5.411214,"is_reserved":false,"is_disabled":false,"rental_uris":{"android":"levelo://app?vid=327c041e-5c9e-4b0d-a97c-a2dbaab036ae","ios":"levelo://app?vid=327c041e-5c9e-4b0d-a97c-a2dbaab036ae"},"vehicle_type_id":"4","last_reported":1758740892,"current_range_meters":17600,"station_id":"","pricing_plan_id":"cebpf4jnsgd1na2vs0mg"},{"bike_id":"4f3eac28-3960-42b2-9a7f-65e76c3daab8","system_id":"levelo_inurba_marseille","lat":43.2464,"lon":5.38956,"is_reserved":false,"is_disabled":false,"rental_uris":{"android":"levelo://app?vid=4f3eac28-3960-42b2-9a7f-65e76c3daab8","ios":"levelo://app?vid=4f3eac28-3960-42b2-9a7f-65e76c3daab8"},"vehicle_type_id":"4","last_reported":1758740892,"current_range_meters":17600,"station_id":"ce4bhg12rcd13ifvqf60","pricing_plan_id":"cebpf4jnsgd1na2vs0mg"},{"bike_id":"cd5ec7a2-c561-425b-b089-d64e512aa10b","system_id":"levelo_inurba_marseille","lat":43.29527,"lon":5.38552,"is_reserved":false,"is_disabled":false,"rental_uris":{"android":"levelo://app?vid=cd5ec7a2-c561-425b-b089-d64e512aa10b","ios":"levelo://app?vid=cd5ec7a2-c561-425b-b089-d64e512aa10b"},"vehicle_type_id":"4","last_reported":1758740892,"current_range_meters":17600,"station_id":"ce4bgih2rcd13ifvqba0","pricing_plan_id":"cebpf4jnsgd1na2vs0mg"},{"bike_id":"b12831d9-f509-4f2c-b69c-a59a7edbfb55","system_id":"levelo_inurba_marseille","lat":43.30803,"lon":5.38171,"is_reserved":false,"is_disabled":false,"rental_uris":{"android":"levelo://app?vid=b12831d9-f509-4f2c-b69c-a59a7edbfb55","ios":"levelo://app?vid=b12831d9-f509-4f2c-b69c-a59a7edbfb55"},"vehicle_type_id":"4","last_reported":1758740892,"current_range_meters":17600,"station_id":"ce4bgt12rcd13ifvqce0","pricing_plan_id":"cebpf4jnsgd1na2vs0mg"},{"bike_id":"b6842a0b-8ac8-4de8-9374-356f1dbbba44","system_id":"levelo_inurba_marseille","lat":43.29206,"lon":5.393069,"is_reserved":false,"is_disabled":false,"rental_uris":{"android":"levelo://app?vid=b6842a0b-8ac8-4de8-9374-356f1dbbba44","ios":"levelo://app?vid=b6842a0b-8ac8-4de8-9374-356f1dbbba44"},"vehicle_type_id":"4","last_reported":1758740892,"current_range_meters":17600,"station_id":"ce4bh192rcd13ifvqdd0","pricing_plan_id":"cebpf4jnsgd1na2vs0mg"},{"bike_id":"54e0d5d6-1609-4f40-8d14-b075870afcd6","system_id":"levelo_inurba_marseille","lat":43.27836,"lon":5.39208,"is_reserved":false,"is_disabled":false,"rental_uris":{"android":"levelo://app?vid=54e0d5d6-1609-4f40-8d14-b075870afcd6","ios":"levelo://app?vid=54e0d5d6-1609-4f40-8d14-b075870afcd6"},"vehicle_type_id":"4","last_reported":1758740892,"current_range_meters":17600,"station_id":"ce4bhjp2rcd13ifvqga0","pricing_plan_id":"cebpf4jnsgd1na2vs0mg"},{"bike_id":"50e50ce9-ae57-4870-80a4-dbb918849641","system_id":"levelo_inurba_marseille","lat":43.28044,"lon":5.36941,"is_reserved":false,"is_disabled":false,"rental_uris":{"android":"levelo://app?vid=50e50ce9-ae57-4870-80a4-dbb918849641","ios":"levelo://app?vid=50e50ce9-ae57-4870-80a4-dbb918849641"},"vehicle_type_id":"4","last_reported":1758740892,"current_range_meters":17600,"station_id":"ce4bha12rcd13ifvqef0","pricing_plan_id":"cebpf4jnsgd1na2vs0mg"},