{"last_updated":1703171223,"ttl":30,"version":"2.2","data":{"bikes":[{"bike_id":"3d744cd0-2fe6-494a-829e-68e65badb23a","system_id":"levelo_inurba_marseille","lat":43.31341,"lon":5.367098,"is_reserved":false,"is_disabled":false,"rental_uris":{"android":"levelo://app?vid=3d744cd0-2fe6-494a-829e-68e65badb23a","ios":"levelo://app?vid=3d744cd0-2fe6-494a-829e-68e65badb23a"},"vehicle_type_id":"4","last_reported":1703171223,"current_range_meters":29200,"station_id":"ce4bgr92rcd13ifvqc6g","pricing_plan_id":"free"},{"bike_id":"c32e3021-2d39-45a9-8f5c-43c0f9699d07","system_id":"levelo_inurba_marseille","lat":43.313391,"lon":5.36706,"is_reserved":false,"is_disabled":false,"rental_uris":{"android":"levelo://app?vid=c32e3021-2d39-45a9-8f5c-43c0f9699d07","ios":"levelo://app?vid=c32e3021-2d39-45a9-8f5c-43c0f9699d07"},"vehicle_type_id":"4","last_reported":1703171223,"current_range_meters":24000,"station_id":"ce4bgr92rcd13ifvqc6g","pricing_plan_id":"free"},{"bike_id":"9c4bed50-4c08-46fb-9163-9ec5afa45ff6","system_id":"levelo_inurba_marseille","lat":43.31341,"lon":5.367098,"is_reserved":false,"is_disabled":false,"rental_uris":{"android":"levelo://app?vid=9c4bed50-4c08-46fb-9163-9ec5afa45ff6","ios":"levelo://app?vid=9c4bed50-4c08-46fb-9163-9ec5afa45ff6"},"vehicle_type_id":"4","last_reported":1703171223,"current_range_meters":0,"station_id":"ce4bgr92rcd13ifvqc6g","pricing_plan_id":"free"},{"bike_id":"0f5db317-8a14-4ce0-a03e-ed3ebee076f9","system_id":"levelo_inurba_marseille","lat":43.31341,"lon":5.367098,"is_reserved":false,"is_disabled":false,"rental_uris":{"android":"levelo://app?vid=0f5db317-8a14-4ce0-a03e-ed3ebee076f9","ios":"levelo://app?vid=0f5db317-8a14-4ce0-a03e-ed3ebee076f9"},"vehicle_type_id":"4","last_reported":1703171223,"current_range_meters":10400,"station_id":"ce4bgr92rcd13ifvqc6g","pricing_plan_id":"free"},{"bike_id":"c8943c13-69f1-4cf2-ba7f-315fba118e64","system_id":"levelo_inurba_marseille","lat":43.312239,"lon":5.368562,"is_reserved":false,"is_disabled":false,"rental_uris":{"android":"levelo://app?vid=c8943c13-69f1-4cf2-ba7f-315fba118e64","ios":"levelo://app?vid=c8943c13-69f1-4cf2-ba7f-315fba118e64"},"vehicle_type_id":"4","last_reported":1703171223,"current_range_meters":12000,"station_id":"ce4bgl92rcd13ifvqbq0","pricing_plan_id":"free"},{"bike_id":"a9597c4f-3ce5-4725-86f0-2964a7de4ebd","system_id":"levelo_inurba_marseille","lat":43.312239,"lon":5.368562,"is_reserved":false,"is_disabled":false,"rental_uris":{"android":"levelo://app?vid=a9597c4f-3ce5-4725-86f0-2964a7de4ebd","ios":"levelo://app?vid=a9597c4f-3ce5-4725-86f0-2964a7de4ebd"},"vehicle_type_id":"4","last_reported":1703171223,"current_range_meters":26800,"station_id":"ce4bgl92rcd13ifvqbq0","pricing_plan_id":"free"},{"bike_id":"b242354d-2af4-4abb-b3c6-90d4cbd2b9fd","system_id":"levelo_inurba_marseille","lat":43.31341,"lon":5.367098,"is_reserved":false,"is_disabled":false,"rental_uris":{"android":"levelo://app?vid=b242354d-2af4-4abb-b3c6-90d4cbd2b9fd","ios":"levelo://app?vid=b242354d-2af4-4abb-b3c6-90d4cbd2b9fd"},"vehicle_type_id":"4","last_reported":1703171223,"current_range_meters":26800,"station_id":"ce4bgr92rcd13ifvqc6g","pricing_plan_id":"free"},{"bike_id":"8fd652c7-88ec-41fa-b9df-b952a588f250","system_id":"levelo_inurba_marseille","lat":43.314811,"lon":5.373103,"is_reserved":false,"is_disabled":false,"rental_uris":{"android":"levelo://app?vid=8fd652c7-88ec-41fa-b9df-b952a588f250","ios":"levelo://app?vid=8fd652c7-88ec-41fa-b9df-b952a588f250"},"vehicle_type_id":"4","last_reported":1703171223,"current_range_meters":12400,"station_id":"ce4bgt12rcd13ifvqcd0","pricing_plan_id":"free"},{"bike_id":"c4c56885-4dc4-4bf3-8d99-76f04c2b379a","system_id":"levelo_inurba_marseille","lat":43.309076,"lon":5.368465,"is_reserved":false,"is_disabled":false,"rental_uris":{"android":"levelo://app?vid=c4c56885-4dc4-4bf3-8d99-76f04c2b379a","ios":"levelo://app?vid=c4c56885-4dc4-4bf3-8d99-76f04c2b379a"},"vehicle_type_id":"4","last_reported":1703171223,"current_range_meters":6000,"station_id":"ce4bgn92rcd13ifvqbvg","pricing_plan_id":"free"},{"bike_id":"70509f1f-784f-486f-ab56-327c90b6c1fa","system_id":"levelo_inurba_marseille","lat":43.305706,"lon":5.365654,"is_reserved":false,"is_disabled":false,"rental_uris":{"android":"levelo://app?vid=70509f1f-784f-486f-ab56-327c90b6c1fa","ios":"levelo://app?vid=70509f1f-784f-486f-ab56-327c90b6c1fa"},"vehicle_type_id":"4","last_reported":1703171223,"current_range_meters":4800,"station_id":"ce4bgs12rcd13ifvqcag","pricing_plan_id":"free"},{"bike_id":"40368ba5-a108-4053-a509-a60d4b10699d","system_id":"levelo_inurba_marseille","lat":43.305706,"lon":5.365654,"is_reserved":false,"is_disabled":false,"rental_uris":{"android":"levelo://app?vid=40368ba5-a108-4053-a509-a60d4b10699d","ios":"levelo://app?vid=40368ba5-a108-4053-a509-a60d4b10699d"},"vehicle_type_id":"4","last_reported":1703171223,"current_range_meters":28000,"station_id":"ce4bgs12rcd13ifvqcag","pricing_plan_id":"free"},{"bike_id":"020c7ca5-48ec-4ed5-8acb-b2a76dc60981","system_id":"levelo_inurba_marseille","lat":43.305365,"lon":5.365468,"is_reserved":false,"is_disabled":false,"rental_uris":{"android":"levelo://app?vid=020c7ca5-48ec-4ed5-8acb-b2a76dc60981","ios":"levelo://app?vid=020c7ca5-48ec-4ed5-8acb-b2a76dc60981"},"vehicle_type_id":"4","last_reported":1703171223,"current_range_meters":6800,"station_id":"ce4bgs12rcd13ifvqcag","pricing_plan_id":"free"},{"bike_id":"92995680-6d03-4892-9ae2-0c20995c2c5d","system_id":"levelo_inurba_marseille","lat":43.30533,"lon":5.36563,"is_reserved":false,"is_disabled":false,"rental_uris":{"android":"levelo://app?vid=92995680-6d03-4892-9ae2-0c20995c2c5d","ios":"levelo://app?vid=92995680-6d03-4892-9ae2-0c20995c2c5d"},"vehicle_type_id":"4","last_reported":1703171223,"current_range_meters":27600,"station_id":"ce4bgs12rcd13ifvqcag","pricing_plan_id":"free"},{"bike_id":"daf68823-3046-47cb-809d-cc99bbbe6a32","system_id":"levelo_inurba_marseille","lat":43.305706,"lon":5.365654,"is_reserved":false,"is_disabled":false,"rental_uris":{"android":"levelo://app?vid=daf68823-3046-47cb-809d-cc99bbbe6a32","ios":"levelo://app?vid=daf68823-3046-47cb-809d-cc99bbbe6a32"},"vehicle_type_id":"4","last_reported":1703171223,"current_range_meters":6400,"station_id":"ce4bgs12rcd13ifvqcag","pricing_plan_id":"free"},{"bike_id":"0491c218-0fef-4bff-8e9a-ccecf85a2239","system_id":"levelo_inurba_marseille","lat":43.305989,"lon":5.37225,"is_reserved":false,"is_disabled":false,"rental_uris":{"android":"levelo://app?vid=0491c218-0fef-4bff-8e9a-ccecf85a2239","ios":"levelo://app?vid=0491c218-0fef-4bff-8e9a-ccecf85a2239"},"vehicle_type_id":"4","last_reported":1703171223,"current_range_meters":6800,"station_id":"ce4bgqh2rcd13ifvqc4g","pricing_plan_id":"free"},{"bike_id":"cc63d9ff-8323-48a1-8826-f442f70bc513","system_id":"levelo_inurba_marseille","lat":43.307945,"lon":5.376487,"is_reserved":false,"is_disabled":false,"rental_uris":{"android":"levelo://app?vid=cc63d9ff-8323-48a1-8826-f442f70bc513","ios":"levelo://app?vid=cc63d9ff-8323-48a1-8826-f442f70bc513"},"vehicle_type_id":"4","last_reported":1703171223,"current_range_meters":28000,"station_id":"ce4bgv92rcd13ifvqcq0","pricing_plan_id":"free"},{"bike_id":"2426c60a-30d7-423e-be0f-4160eec7f67c","system_id":"levelo_inurba_marseille","lat":43.303046,"lon":5.368981,"is_reserved":false,"is_disabled":false,"rental_uris":{"android":"levelo://app?vid=2426c60a-30d7-423e-be0f-4160eec7f67c","ios":"levelo://app?vid=2426c60a-30d7-423e-be0f-4160eec7f67c"},"vehicle_type_id":"4","last_reported":1703171223,"current_range_meters":12000,"station_id":"ce4bgqh2rcd13ifvqc5g","pricing_plan_id":"free"},{"bike_id":"d955786d-cb33-4360-8b20-e34f46b5d5bf","system_id":"levelo_inurba_marseille","lat":43.30304,"lon":5.368987,"is_reserved":false,"is_disabled":false,"rental_uris":{"android":"levelo://app?vid=d955786d-cb33-4360-8b20-e34f46b5d5bf","ios":"levelo://app?vid=d955786d-cb33-4360-8b20-e34f46b5d5bf"},"vehicle_type_id":"4","last_reported":1703171223,"current_range_meters":30400,"station_id":"ce4bgqh2rcd13ifvqc5g","pricing_plan_id":"free"},{"bike_id":"6c662160-2878-403e-9cb2-748204edb49f","system_id":"levelo_inurba_marseille","lat":43.315374,"lon":5.380337,"is_reserved":false,"is_disabled":false,"rental_uris":{"android":"levelo://app?vid=6c662160-2878-403e-9cb2-748204edb49f","ios":"levelo://app?vid=6c662160-2878-403e-9cb2-748204edb49f"},"vehicle_type_id":"4","last_reported":1703171223,"current_range_meters":8000,"station_id":"ce4bhsp2rcd13ifvqi50","pricing_plan_id":"free"},{"bike_id":"86753e44-1067-4606-8f96-77813c438d1c","system_id":"levelo_inurba_marseille","lat":43.301939,"lon":5.366286,"is_reserved":false,"is_disabled":false,"rental_uris":{"android":"levelo://app?vid=86753e44-1067-4606-8f96-77813c438d1c","ios":"levelo://app?vid=86753e44-1067-4606-8f96-77813c438d1c"},"vehicle_type_id":"4","last_reported":1703171223,"current_range_meters":14400,"station_id":"ce4bgrh2rcd13ifvqc8g","pricing_plan_id":"free"},{"bike_id":"c2d3ddf8-2910-4cd1-bbb6-c3ece7faa932","system_id":"levelo_inurba_marseille","lat":43.301939,"lon":5.366286,"is_reserved":false,"is_disabled":false,"rental_uris":{"android":"levelo://app?vid=c2d3ddf8-2910-4cd1-bbb6-c3ece7faa932","ios":"levelo://app?vid=c2d3ddf8-2910-4cd1-bbb6-c3ece7faa932"},"vehicle_type_id":"4","last_reported":1703171223,"current_range_meters":16400,"station_id":"ce4bgrh2rcd13ifvqc8g","pricing_plan_id":"free"},{"bike_id":"0f29f9fc-ade1-445d-ba8d-4631c9525c9b","system_id":"levelo_inurba_marseille","lat":43.30636,"lon":5.37995,"is_reserved":false,"is_disabled":false,"rental_uris":{"android":"levelo://app?vid=0f29f9fc-ade1-445d-ba8d-4631c9525c9b","ios":"levelo://app?vid=0f29f9fc-ade1-445d-ba8d-4631c9525c9b"},"vehicle_type_id":"4","last_reported":1703171223,"current_range_meters":0,"station_id":"","pricing_plan_id":"free"},{"bike_id":"20dee9e9-e782-4b58-b9b7-04db203ff0b1","system_id":"levelo_inurba_marseille","lat":43.296921,"lon":5.376579,"is_reserved":false,"is_disabled":false,"rental_uris":{"android":"levelo://app?vid=20dee9e9-e782-4b58-b9b7-04db203ff0b1","ios":"levelo://app?vid=20dee9e9-e782-4b58-b9b7-04db203ff0b1"},"vehicle_type_id":"4","last_reported":1703171223,"current_range_meters":26800,"station_id":"ce4bgkh2rcd13ifvqbl0","pricing_plan_id":"free"},{"bike_id":"6432ddb6-3a4b-4ccf-8986-059363e3f477","system_id":"levelo_inurba_marseille","lat":43.304645,"lon":5.37908,"is_reserved":false,"is_disabled":false,"rental_uris":{"android":"levelo://app?vid=6432ddb6-3a4b-4ccf-8986-059363e3f477","ios":"levelo://app?vid=6432ddb6-3a4b-4ccf-8986-059363e3f477"},"vehicle_type_id":"4","last_reported":1703171223,"current_range_meters":17600,"station_id":"ce4bgup2rcd13ifvqcn0","pricing_plan_id":"free"},{"bike_id":"5c8e564d-5c03-4de1-8ec5-b71331d5ae5d","system_id":"levelo_inurba_marseille","lat":43.304607,"lon":5.379055,"is_reserved":false,"is_disabled":false,"rental_uris":{"android":"levelo://app?vid=5c8e564d-5c03-4de1-8ec5-b71331d5ae5d","ios":"levelo://app?vid=5c8e564d-5c03-4de1-8ec5-b71331d5ae5d"},"vehicle_type_id":"4","last_reported":1703171223,"current_range_meters":17600,"station_id":"","pricing_plan_id":"free"},{"bike_id":"9f7920c4-5a9e-45ad-b446-d409e75d928b","system_id":"levelo_inurba_marseille","lat":43.301856,"lon":5.373988,"is_reserved":false,"is_disabled":false,"rental_uris":{"android":"levelo://app?vid=9f7920c4-5a9e-45ad-b446-d409e75d928b","ios":"levelo://app?vid=9f7920c4-5a9e-45ad-b446-d409e75d928b"},"vehicle_type_id":"4","last_reported":1703171223,"current_range_meters":9600,"station_id":"","pricing_plan_id":"free"},{"bike_id":"a4c81745-a500-48ee-8a99-745edbdd1ca8","system_id":"levelo_inurba_marseille","lat":43.324771,"lon":5.36557,"is_reserved":false,"is_disabled":false,"rental_uris":{"android":"levelo://app?vid=a4c81745-a500-48ee-8a99-745edbdd1ca8","ios":"levelo://app?vid=a4c81745-a500-48ee-8a99-745edbdd1ca8"},"vehicle_type_id":"4","last_reported":1703171223,"current_range_meters":4800,"station_id":"ce4bhs12rcd13ifvqhvg","pricing_plan_id":"free"},{"bike_id":"2937d283-11da-452a-aef2-2f0da8f8fde7","system_id":"levelo_inurba_marseille","lat":43.302784,"lon":5.377158,"is_reserved":false,"is_disabled":false,"rental_uris":{"android":"levelo://app?vid=2937d283-11da-452a-aef2-2f0da8f8fde7","ios":"levelo://app?vid=2937d283-11da-452a-aef2-2f0da8f8fde7"},"vehicle_type_id":"4","last_reported":1703171223,"current_range_meters":15600,"station_id":"ce4bguh2rcd13ifvqcj0","pricing_plan_id":"free"},{"bike_id":"47840dc3-c9b3-4c2f-bdb2-3770067fe91d","system_id":"levelo_inurba_marseille","lat":43.302784,"lon":5.377158,"is_reserved":false,"is_disabled":false,"rental_uris":{"android":"levelo://app?vid=47840dc3-c9b3-4c2f-bdb2-3770067fe91d","ios":"levelo://app?vid=47840dc3-c9b3-4c2f-bdb2-3770067fe91d"},"vehicle_type_id":"4","last_reported":1703171223,"current_range_meters":24800,"station_id":"ce4bguh2rcd13ifvqcj0","pricing_plan_id":"free"},{"bike_id":"d2495b64-0864-42ec-8037-53a90586682a","system_id":"levelo_inurba_marseille","lat":43.302784,"lon":5.377158,"is_reserved":false,"is_disabled":false,"rental_uris":{"android":"levelo://app?vid=d2495b64-0864-42ec-8037-53a90586682a","ios":"levelo://app?vid=d2495b64-0864-42ec-8037-53a90586682a"},"vehicle_type_id":"4","last_reported":1703171223,"current_range_meters":28800,"station_id":"ce4bguh2rcd13ifvqcj0","pricing_plan_id":"free"},{"bike_id":"dc0f6af5-c02c-4610-baea-e5c6ca16f530","system_id":"levelo_inurba_marseille","lat":43.31995,"lon":5.38145,"is_reserved":false,"is_disabled":false,"rental_uris":{"android":"levelo://app?vid=dc0f6af5-c02c-4610-baea-e5c6ca16f530","ios":"levelo://app?vid=dc0f6af5-c02c-4610-baea-e5c6ca16f530"},"vehicle_type_id":"4","last_reported":1703171223,"current_range_meters":31200,"station_id":"ce4bhr12rcd13ifvqhpg","pricing_plan_id":"free"},{"bike_id":"ad0dedf2-0cd4-4d6b-9ecb-d240001f99ef","system_id":"levelo_inurba_marseille","lat":43.31989,"lon":5.38157,"is_reserved":false,"is_disabled":false,"rental_uris":{"android":"levelo://app?vid=ad0dedf2-0cd4-4d6b-9ecb-d240001f99ef","ios":"levelo://app?vid=ad0dedf2-0cd4-4d6b-9ecb-d240001f99ef"},"vehicle_type_id":"4","last_reported":1703171223,"current_range_meters":29200,"station_id":"ce4bhr12rcd13ifvqhpg","pricing_plan_id":"free"},{"bike_id":"bf29f302-2dda-4aeb-bd7f-38d08e28933e","system_id":"levelo_inurba_marseille","lat":43.320005,"lon":5.381601,"is_reserved":false,"is_disabled":false,"rental_uris":{"android":"levelo://app?vid=bf29f302-2dda-4aeb-bd7f-38d08e28933e","ios":"levelo://app?vid=bf29f302-2dda-4aeb-bd7f-38d08e28933e"},"vehicle_type_id":"4","last_reported":1703171223,"current_range_meters":10000,"station_id":"ce4bhr12rcd13ifvqhpg","pricing_plan_id":"free"},{"bike_id":"81588097-8b3b-4160-bf11-cdaf6d30bdf2","system_id":"levelo_inurba_marseille","lat":43.299724,"lon":5.371829,"is_reserved":false,"is_disabled":false,"rental_uris":{"android":"levelo://app?vid=81588097-8b3b-4160-bf11-cdaf6d30bdf2","ios":"levelo://app?vid=81588097-8b3b-4160-bf11-cdaf6d30bdf2"},"vehicle_type_id":"4","last_reported":1703171223,"current_range_meters":22400,"station_id":"ce4bgr92rcd13ifvqc7g","pricing_plan_id":"free"},{"bike_id":"56e8f969-9664-4f0f-9050-7afbff7cd5d7","system_id":"levelo_inurba_marseille","lat":43.299222,"lon":5.365554,"is_reserved":false,"is_disabled":false,"rental_uris":{"android":"levelo://app?vid=56e8f969-9664-4f0f-9050-7afbff7cd5d7","ios":"levelo://app?vid=56e8f969-9664-4f0f-9050-7afbff7cd5d7"},"vehicle_type_id":"4","last_reported":1703171223,"current_range_meters":18000,"station_id":"ce4bgm92rcd13ifvqbr0","pricing_plan_id":"free"},{"bike_id":"b8aeb2d3-a4c3-41f7-9782-aecdbbe33e4e","system_id":"levelo_inurba_marseille","lat":43.299724,"lon":5.371829,"is_reserved":false,"is_disabled":false,"rental_uris":{"android":"levelo://app?vid=b8aeb2d3-a4c3-41f7-9782-aecdbbe33e4e","ios":"levelo://app?vid=b8aeb2d3-a4c3-41f7-9782-aecdbbe33e4e"},"vehicle_type_id":"4","last_reported":1703171223,"current_range_meters":27200,"station_id":"ce4bgr92rcd13ifvqc7g","pricing_plan_id":"free"},{"bike_id":"8c1154c8-a308-4c0c-8e31-210efb3809ac","system_id":"levelo_inurba_marseille","lat":43.298433,"lon":5.362774,"is_reserved":false,"is_disabled":false,"rental_uris":{"android":"levelo://app?vid=8c1154c8-a308-4c0c-8e31-210efb3809ac","ios":"levelo://app?vid=8c1154c8-a308-4c0c-8e31-210efb3809ac"},"vehicle_type_id":"4","last_reported":1703171223,"current_range_meters":12800,"station_id":"ce4bgpp2rcd13ifvqc3g","pricing_plan_id":"free"},{"bike_id":"e2976019-7b89-4cc5-9cfb-045bbf74915d","system_id":"levelo_inurba_marseille","lat":43.298433,"lon":5.362774,"is_reserved":false,"is_disabled":false,"rental_uris":{"android":"levelo://app?vid=e2976019-7b89-4cc5-9cfb-045bbf74915d","ios":"levelo://app?vid=e2976019-7b89-4cc5-9cfb-045bbf74915d"},"vehicle_type_id":"4","last_reported":1703171223,"current_range_meters":26000,"station_id":"ce4bgpp2rcd13ifvqc3g","pricing_plan_id":"free"},{"bike_id":"db4fffcc-d7f7-42b8-8946-844d8963797e","system_id":"levelo_inurba_marseille","lat":43.298433,"lon":5.362774,"is_reserved":false,"is_disabled":false,"rental_uris":{"android":"levelo://app?vid=db4fffcc-d7f7-42b8-8946-844d8963797e","ios":"levelo://app?vid=db4fffcc-d7f7-42b8-8946-844d8963797e"},"vehicle_type_id":"4","last_reported":1703171223,"current_range_meters":27200,"station_id":"ce4bgpp2rcd13ifvqc3g","pricing_plan_id":"free"},{"bike_id":"642907bb-00fb-4caa-9451-bff0a4a5c1f1","system_id":"levelo_inurba_marseille","lat":43.299243,"lon":5.37481,"is_reserved":false,"is_disabled":false,"rental_uris":{"android":"levelo://app?vid=642907bb-00fb-4caa-9451-bff0a4a5c1f1","ios":"levelo://app?vid=642907bb-00fb-4caa-9451-bff0a4a5c1f1"},"vehicle_type_id":"4","last_reported":1703171223,"current_range_meters":9600,"station_id":"ce4bgjh2rcd13ifvqbg0","pricing_plan_id":"free"},{"bike_id":"e1315c69-e0bc-474b-b7c9-7e9d82b8f41e","system_id":"levelo_inurba_marseille","lat":43.297794,"lon":5.370888,"is_reserved":false,"is_disabled":false,"rental_uris":{"android":"levelo://app?vid=e1315c69-e0bc-474b-b7c9-7e9d82b8f41e","ios":"levelo://app?vid=e1315c69-e0bc-474b-b7c9-7e9d82b8f41e"},"vehicle_type_id":"4","last_reported":1703171223,"current_range_meters":24400,"station_id":"ce4bgop2rcd13ifvqc1g","pricing_plan_id":"free"},{"bike_id":"c7926408-b132-4ce6-a394-54a707bf478d","system_id":"levelo_inurba_marseille","lat":43.297848,"lon":5.370988,"is_reserved":false,"is_disabled":false,"rental_uris":{"android":"levelo://app?vid=c7926408-b132-4ce6-a394-54a707bf478d","ios":"levelo://app?vid=c7926408-b132-4ce6-a394-54a707bf478d"},"vehicle_type_id":"4","last_reported":1703171223,"current_range_meters":800,"station_id":"ce4bgop2rcd13ifvqc1g","pricing_plan_id":"free"},{"bike_id":"c22e4b9f-ba20-4a7c-a7c8-fd0a73d903e0","system_id":"levelo_inurba_marseille","lat":43.32827,"lon":5.36679,"is_reserved":false,"is_disabled":false,"rental_uris":{"android":"levelo://app?vid=c22e4b9f-ba20-4a7c-a7c8-fd0a73d903e0","ios":"levelo://app?vid=c22e4b9f-ba20-4a7c-a7c8-fd0a73d903e0"},"vehicle_type_id":"4","last_reported":1703171223,"current_range_meters":18400,"station_id":"ce4bhs92rcd13ifvqi0g","pricing_plan_id":"free"},{"bike_id":"0cdbd0f0-d3c9-4a82-8c6d-6ffa03bfbf25","system_id":"levelo_inurba_marseille","lat":43.32829,"lon":5.36682,"is_reserved":false,"is_disabled":false,"rental_uris":{"android":"levelo://app?vid=0cdbd0f0-d3c9-4a82-8c6d-6ffa03bfbf25","ios":"levelo://app?vid=0cdbd0f0-d3c9-4a82-8c6d-6ffa03bfbf25"},"vehicle_type_id":"4","last_reported":1703171223,"current_range_meters":18400,"station_id":"ce4bhs92rcd13ifvqi0g","pricing_plan_id":"free"},{"bike_id":"c12df297-168e-4ca3-95d9-a300ff1ffbd9","system_id":"levelo_inurba_marseille","lat":43.328371,"lon":5.366909,"is_reserved":false,"is_disabled":false,"rental_uris":{"android":"levelo://app?vid=c12df297-168e-4ca3-95d9-a300ff1ffbd9","ios":"levelo://app?vid=c12df297-168e-4ca3-95d9-a300ff1ffbd9"},"vehicle_type_id":"4","last_reported":1703171223,"current_range_meters":24800,"station_id":"ce4bhs92rcd13ifvqi0g","pricing_plan_id":"free"},{"bike_id":"1378810b-812d-44e5-847a-1b7aeb90e4c4","system_id":"levelo_inurba_marseille","lat":43.29974,"lon":5.38081,"is_reserved":false,"is_disabled":false,"rental_uris":{"android":"levelo://app?vid=1378810b-812d-44e5-847a-1b7aeb90e4c4","ios":"levelo://app?vid=1378810b-812d-44e5-847a-1b7aeb90e4c4"},"vehicle_type_id":"4","last_reported":1703171223,"current_range_meters":18000,"station_id":"","pricing_plan_id":"free"},{"bike_id":"58c20cf0-26fd-409d-963f-424a1c50e2c9","system_id":"levelo_inurba_marseille","lat":43.299028,"lon":5.381509,"is_reserved":false,"is_disabled":false,"rental_uris":{"android":"levelo://app?vid=58c20cf0-26fd-409d-963f-424a1c50e2c9","ios":"levelo://app?vid=58c20cf0-26fd-409d-963f-424a1c50e2c9"},"vehicle_type_id":"4","last_reported":1703171223,"current_range_meters":12800,"station_id":"ce4bgj12rcd13ifvqbc0","pricing_plan_id":"free"},{"bike_id":"86982100-5807-41c9-b7d7-697a0866e8d4","system_id":"levelo_inurba_marseille","lat":43.317557,"lon":5.390173,"is_reserved":false,"is_disabled":false,"rental_uris":{"android":"levelo://app?vid=86982100-5807-41c9-b7d7-697a0866e8d4","ios":"levelo://app?vid=86982100-5807-41c9-b7d7-697a0866e8d4"},"vehicle_type_id":"4","last_reported":1703171223,"current_range_meters":31200,"station_id":"ce4bhqp2rcd13ifvqhng","pricing_plan_id":"free"},{"bike_id":"04ca680c-0493-4f1b-9ef8-db1e704523dd","system_id":"levelo_inurba_marseille","lat":43.31757,"lon":5.390203,"is_reserved":false,"is_disabled":false,"rental_uris":{"android":"levelo://app?vid=04ca680c-0493-4f1b-9ef8-db1e704523dd","ios":"levelo://app?vid=04ca680c-0493-4f1b-9ef8-db1e704523dd"},"vehicle_type_id":"4","last_reported":1703171223,"current_range_meters":25200,"station_id":"ce4bhqp2rcd13ifvqhng","pricing_plan_id":"free"},{"bike_id":"a17a2257-83fb-4a3c-88cd-c2f2f3498689","system_id":"levelo_inurba_marseille","lat":43.298037,"lon":5.381066,"is_reserved":false,"is_disabled":false,"rental_uris":{"android":"levelo://app?vid=a17a2257-83fb-4a3c-88cd-c2f2f3498689","ios":"levelo://app?vid=a17a2257-83fb-4a3c-88cd-c2f2f3498689"},"vehicle_type_id":"4","last_reported":1703171223,"current_range_meters":28400,"station_id":"ce4bgip2rcd13ifvqbb0","pricing_plan_id":"free"},{"bike_id":"31a45fff-13f2-4774-93a9-cacf49673baa","system_id":"levelo_inurba_marseille","lat":43.29623,"lon":5.37738,"is_reserved":false,"is_disabled":false,"rental_uris":{"android":"levelo://app?vid=31a45fff-13f2-4774-93a9-cacf49673baa","ios":"levelo://app?vid=31a45fff-13f2-4774-93a9-cacf49673baa"},"vehicle_type_id":"4","last_reported":1703171223,"current_range_meters":2800,"station_id":"ce4bgt92rcd13ifvqcg0","pricing_plan_id":"free"},{"bike_id":"eb8bea0a-9b02-4660-a00d-3ceea1b2f11e","system_id":"levelo_inurba_marseille","lat":43.299707,"lon":5.384859,"is_reserved":false,"is_disabled":false,"rental_uris":{"android":"levelo://app?vid=eb8bea0a-9b02-4660-a00d-3ceea1b2f11e","ios":"levelo://app?vid=eb8bea0a-9b02-4660-a00d-3ceea1b2f11e"},"vehicle_type_id":"4","last_reported":1703171223,"current_range_meters":6400,"station_id":"ce4bgj92rcd13ifvqbd0","pricing_plan_id":"free"},{"bike_id":"da19621b-9ea9-4543-be41-1eae3f07dc32","system_id":"levelo_inurba_marseille","lat":43.299724,"lon":5.384848,"is_reserved":false,"is_disabled":false,"rental_uris":{"android":"levelo://app?vid=da19621b-9ea9-4543-be41-1eae3f07dc32","ios":"levelo://app?vid=da19621b-9ea9-4543-be41-1eae3f07dc32"},"vehicle_type_id":"4","last_reported":1703171223,"current_range_meters":0,"station_id":"ce4bgj92rcd13ifvqbd0","pricing_plan_id":"free"},{"bike_id":"4693445f-a9d2-411f-837d-2fe9eae26fd7","system_id":"levelo_inurba_marseille","lat":43.298037,"lon":5.381066,"is_reserved":false,"is_disabled":false,"rental_uris":{"android":"levelo://app?vid=4693445f-a9d2-411f-837d-2fe9eae26fd7","ios":"levelo://app?vid=4693445f-a9d2-411f-837d-2fe9eae26fd7"},"vehicle_type_id":"4","last_reported":1703171223,"current_range_meters":20800,"station_id":"ce4bgip2rcd13ifvqbb0","pricing_plan_id":"free"},{"bike_id":"b0b8f224-ed5e-4b46-8f88-e1b16b09fd43","system_id":"levelo_inurba_marseille","lat":43.299028,"lon":5.381509,"is_reserved":false,"is_disabled":false,"rental_uris":{"android":"levelo://app?vid=b0b8f224-ed5e-4b46-8f88-e1b16b09fd43","ios":"levelo://app?vid=b0b8f224-ed5e-4b46-8f88-e1b16b09fd43"},"vehicle_type_id":"4","last_reported":1703171223,"current_range_meters":9600,"station_id":"ce4bgj12rcd13ifvqbc0","pricing_plan_id":"free"},{"bike_id":"1116d836-0163-4d46-85dc-0faa9fb8e075","system_id":"levelo_inurba_marseille","lat":43.301429,"lon":5.37413,"is_reserved":false,"is_disabled":false,"rental_uris":{"android":"levelo://app?vid=1116d836-0163-4d46-85dc-0faa9fb8e075","ios":"levelo://app?vid=1116d836-0163-4d46-85dc-0faa9fb8e075"},"vehicle_type_id":"4","last_reported":1703171223,"current_range_meters":21200,"station_id":"ce4bgs92rcd13ifvqcc0","pricing_plan_id":"free"},{"bike_id":"3ae6aee1-e188-42b5-ad76-cadd07f2f208","system_id":"levelo_inurba_marseille","lat":43.293249,"lon":5.371578,"is_reserved":false,"is_disabled":false,"rental_uris":{"android":"levelo://app?vid=3ae6aee1-e188-42b5-ad76-cadd07f2f208","ios":"levelo://app?vid=3ae6aee1-e188-42b5-ad76-cadd07f2f208"},"vehicle_type_id":"4","last_reported":1703171223,"current_range_meters":30000,"station_id":"ce4bgh92rcd13ifvqb40","pricing_plan_id":"free"},{"bike_id":"69d0dd0f-1d74-4c19-a0f8-d9f7d5dd541b","system_id":"levelo_inurba_marseille","lat":43.292749,"lon":5.368402,"is_reserved":false,"is_disabled":false,"rental_uris":{"android":"levelo://app?vid=69d0dd0f-1d74-4c19-a0f8-d9f7d5dd541b","ios":"levelo://app?vid=69d0dd0f-1d74-4c19-a0f8-d9f7d5dd541b"},"vehicle_type_id":"4","last_reported":1703171223,"current_range_meters":20800,"station_id":"ce4bhbp2rcd13ifvqesg","pricing_plan_id":"free"},{"bike_id":"fbbed1bc-cb26-4be9-8f8a-0d191378ae48","system_id":"levelo_inurba_marseille","lat":43.2936,"lon":5.37835,"is_reserved":false,"is_disabled":false,"rental_uris":{"android":"levelo://app?vid=fbbed1bc-cb26-4be9-8f8a-0d191378ae48","ios":"levelo://app?vid=fbbed1bc-cb26-4be9-8f8a-0d191378ae48"},"vehicle_type_id":"4","last_reported":1703171223,"current_range_meters":30400,"station_id":"ce4bgjh2rcd13ifvqbf0","pricing_plan_id":"free"},{"bike_id":"b92d8c08-4834-44b1-858c-d7cabc5a10f3","system_id":"levelo_inurba_marseille","lat":43.293009,"lon":5.374584,"is_reserved":false,"is_disabled":false,"rental_uris":{"android":"levelo://app?vid=b92d8c08-4834-44b1-858c-d7cabc5a10f3","ios":"levelo://app?vid=b92d8c08-4834-44b1-858c-d7cabc5a10f3"},"vehicle_type_id":"4","last_reported":1703171223,"current_range_meters":27200,"station_id":"ce4bgi12rcd13ifvqb70","pricing_plan_id":"free"},{"bike_id":"e1fa3e4b-733f-4c63-9363-b400e160930d","system_id":"levelo_inurba_marseille","lat":43.291675,"lon":5.371583,"is_reserved":false,"is_disabled":false,"rental_uris":{"android":"levelo://app?vid=e1fa3e4b-733f-4c63-9363-b400e160930d","ios":"levelo://app?vid=e1fa3e4b-733f-4c63-9363-b400e160930d"},"vehicle_type_id":"4","last_reported":1703171223,"current_range_meters":24400,"station_id":"ce4bha92rcd13ifvqeh0","pricing_plan_id":"free"},{"bike_id":"fb30ae47-66a0-4164-b243-42779094d284","system_id":"levelo_inurba_marseille","lat":43.29865,"lon":5.38905,"is_reserved":false,"is_disabled":false,"rental_uris":{"android":"levelo://app?vid=fb30ae47-66a0-4164-b243-42779094d284","ios":"levelo://app?vid=fb30ae47-66a0-4164-b243-42779094d284"},"vehicle_type_id":"4","last_reported":1703171223,"current_range_meters":22400,"station_id":"","pricing_plan_id":"free"},{"bike_id":"bbfff02c-b49b-4c1d-894d-66a24ad4ede7","system_id":"levelo_inurba_marseille","lat":43.313291,"lon":5.396838,"is_reserved":false,"is_disabled":false,"rental_uris":{"android":"levelo://app?vid=bbfff02c-b49b-4c1d-894d-66a24ad4ede7","ios":"levelo://app?vid=bbfff02c-b49b-4c1d-894d-66a24ad4ede7"},"vehicle_type_id":"4","last_reported":1703171223,"current_range_meters":7200,"station_id":"ce4bgvp2rcd13ifvqcu0","pricing_plan_id":"free"},{"bike_id":"8f283ee4-2860-4cfc-8540-18256481381e","system_id":"levelo_inurba_marseille","lat":43.291994,"lon":5.357886,"is_reserved":false,"is_disabled":false,"rental_uris":{"android":"levelo://app?vid=8f283ee4-2860-4cfc-8540-18256481381e","ios":"levelo://app?vid=8f283ee4-2860-4cfc-8540-18256481381e"},"vehicle_type_id":"4","last_reported":1703171223,"current_range_meters":800,"station_id":"ce4bhb12rcd13ifvqel0","pricing_plan_id":"free"},{"bike_id":"002356fb-fa5e-4d85-a1f7-0294d10a2e92","system_id":"levelo_inurba_marseille","lat":43.313291,"lon":5.396838,"is_reserved":false,"is_disabled":false,"rental_uris":{"android":"levelo://app?vid=002356fb-fa5e-4d85-a1f7-0294d10a2e92","ios":"levelo://app?vid=002356fb-fa5e-4d85-a1f7-0294d10a2e92"},"vehicle_type_id":"4","last_reported":1703171223,"current_range_meters":5200,"station_id":"ce4bgvp2rcd13ifvqcu0","pricing_plan_id":"free"},{"bike_id":"fe750c3a-4012-413c-ad89-db5b79b96cf6","system_id":"levelo_inurba_marseille","lat":43.29529,"lon":5.385581,"is_reserved":false,"is_disabled":false,"rental_uris":{"android":"levelo://app?vid=fe750c3a-4012-413c-ad89-db5b79b96cf6","ios":"levelo://app?vid=fe750c3a-4012-413c-ad89-db5b79b96cf6"},"vehicle_type_id":"4","last_reported":1703171223,"current_range_meters":25200,"station_id":"ce4bgih2rcd13ifvqba0","pricing_plan_id":"free"},{"bike_id":"7fe1d5bb-8362-4024-885e-19c5634c8074","system_id":"levelo_inurba_marseille","lat":43.302008,"lon":5.394694,"is_reserved":false,"is_disabled":false,"rental_uris":{"android":"levelo://app?vid=7fe1d5bb-8362-4024-885e-19c5634c8074","ios":"levelo://app?vid=7fe1d5bb-8362-4024-885e-19c5634c8074"},"vehicle_type_id":"4","last_reported":1703171223,"current_range_meters":28800,"station_id":"ce4bh0p2rcd13ifvqd70","pricing_plan_id":"free"},{"bike_id":"b5fca477-9e0b-4d20-808f-70b5cc8dfdfb","system_id":"levelo_inurba_marseille","lat":43.289184,"lon":5.366408,"is_reserved":false,"is_disabled":false,"rental_uris":{"android":"levelo://app?vid=b5fca477-9e0b-4d20-808f-70b5cc8dfdfb","ios":"levelo://app?vid=b5fca477-9e0b-4d20-808f-70b5cc8dfdfb"},"vehicle_type_id":"4","last_reported":1703171223,"current_range_meters":24400,"station_id":"ce4bhap2rcd13ifvqek0","pricing_plan_id":"free"},{"bike_id":"e4cdcaaa-f9bb-4a6e-a89d-67966154d3a5","system_id":"levelo_inurba_marseille","lat":43.289184,"lon":5.366408,"is_reserved":false,"is_disabled":false,"rental_uris":{"android":"levelo://app?vid=e4cdcaaa-f9bb-4a6e-a89d-67966154d3a5","ios":"levelo://app?vid=e4cdcaaa-f9bb-4a6e-a89d-67966154d3a5"},"vehicle_type_id":"4","last_reported":1703171223,"current_range_meters":28800,"station_id":"ce4bhap2rcd13ifvqek0","pricing_plan_id":"free"},{"bike_id":"09816327-c194-4878-b5be-a5abd83404a6","system_id":"levelo_inurba_marseille","lat":43.295355,"lon":5.39046,"is_reserved":false,"is_disabled":false,"rental_uris":{"android":"levelo://app?vid=09816327-c194-4878-b5be-a5abd83404a6","ios":"levelo://app?vid=09816327-c194-4878-b5be-a5abd83404a6"},"vehicle_type_id":"4","last_reported":1703171223,"current_range_meters":21200,"station_id":"ce4bh3p2rcd13ifvqdp0","pricing_plan_id":"free"},{"bike_id":"a3dcd3ae-94fe-4858-8289-9607b0a21047","system_id":"levelo_inurba_marseille","lat":43.337423,"lon":5.374405,"is_reserved":false,"is_disabled":false,"rental_uris":{"android":"levelo://app?vid=a3dcd3ae-94fe-4858-8289-9607b0a21047","ios":"levelo://app?vid=a3dcd3ae-94fe-4858-8289-9607b0a21047"},"vehicle_type_id":"4","last_reported":1703171223,"current_range_meters":24000,"station_id":"","pricing_plan_id":"free"},{"bike_id":"dd625343-5294-4a10-b6bc-bd54c4d710bd","system_id":"levelo_inurba_marseille","lat":43.312609,"lon":5.401662,"is_reserved":false,"is_disabled":false,"rental_uris":{"android":"levelo://app?vid=dd625343-5294-4a10-b6bc-bd54c4d710bd","ios":"levelo://app?vid=dd625343-5294-4a10-b6bc-bd54c4d710bd"},"vehicle_type_id":"4","last_reported":1703171223,"current_range_meters":18400,"station_id":"ce4bh092rcd13ifvqd30","pricing_plan_id":"free"},{"bike_id":"4cab8b2e-372f-4074-b7e6-89fc31c41d46","system_id":"levelo_inurba_marseille","lat":43.309371,"lon":5.401449,"is_reserved":false,"is_disabled":false,"rental_uris":{"android":"levelo://app?vid=4cab8b2e-372f-4074-b7e6-89fc31c41d46","ios":"levelo://app?vid=4cab8b2e-372f-4074-b7e6-89fc31c41d46"},"vehicle_type_id":"4","last_reported":1703171223,"current_range_meters":23200,"station_id":"ce4bgvp2rcd13ifvqct0","pricing_plan_id":"free"},{"bike_id":"fe11a1ae-09a9-4be3-a255-98f73222b6c3","system_id":"levelo_inurba_marseille","lat":43.337444,"lon":5.374475,"is_reserved":false,"is_disabled":false,"rental_uris":{"android":"levelo://app?vid=fe11a1ae-09a9-4be3-a255-98f73222b6c3","ios":"levelo://app?vid=fe11a1ae-09a9-4be3-a255-98f73222b6c3"},"vehicle_type_id":"4","last_reported":1703171223,"current_range_meters":19600,"station_id":"","pricing_plan_id":"free"},{"bike_id":"f5bd06d6-5811-4a63-b24a-6055303ec3a2","system_id":"levelo_inurba_marseille","lat":43.309371,"lon":5.401449,"is_reserved":false,"is_disabled":false,"rental_uris":{"android":"levelo://app?vid=f5bd06d6-5811-4a63-b24a-6055303ec3a2","ios":"levelo://app?vid=f5bd06d6-5811-4a63-b24a-6055303ec3a2"},"vehicle_type_id":"4","last_reported":1703171223,"current_range_meters":13600,"station_id":"ce4bgvp2rcd13ifvqct0","pricing_plan_id":"free"},{"bike_id":"3be16c03-3924-4add-b3b8-ee14479ec937","system_id":"levelo_inurba_marseille","lat":43.337682,"lon":5.374735,"is_reserved":false,"is_disabled":false,"rental_uris":{"android":"levelo://app?vid=3be16c03-3924-4add-b3b8-ee14479ec937","ios":"levelo://app?vid=3be16c03-3924-4add-b3b8-ee14479ec937"},"vehicle_type_id":"4","last_reported":1703171223,"current_range_meters":0,"station_id":"","pricing_plan_id":"free"},{"bike_id":"88b93662-7666-40db-8f91-c83754121d78","system_id":"levelo_inurba_marseille","lat":43.28727,"lon":5.36078,"is_reserved":false,"is_disabled":false,"rental_uris":{"android":"levelo://app?vid=88b93662-7666-40db-8f91-c83754121d78","ios":"levelo://app?vid=88b93662-7666-40db-8f91-c83754121d78"},"vehicle_type_id":"4","last_reported":1703171223,"current_range_meters":28000,"station_id":"cki0cbj6b192h4jlfktg","pricing_plan_id":"free"},{"bike_id":"f846fe63-19b8-425c-87f3-52785c021169","system_id":"levelo_inurba_marseille","lat":43.29044,"lon":5.386053,"is_reserved":false,"is_disabled":false,"rental_uris":{"android":"levelo://app?vid=f846fe63-19b8-425c-87f3-52785c021169","ios":"levelo://app?vid=f846fe63-19b8-425c-87f3-52785c021169"},"vehicle_type_id":"4","last_reported":1703171223,"current_range_meters":4000,"station_id":"","pricing_plan_id":"free"},{"bike_id":"94fbf56e-c18f-4e35-ae6b-28f4867b3a5f","system_id":"levelo_inurba_marseille","lat":43.302759,"lon":5.400793,"is_reserved":false,"is_disabled":false,"rental_uris":{"android":"levelo://app?vid=94fbf56e-c18f-4e35-ae6b-28f4867b3a5f","ios":"levelo://app?vid=94fbf56e-c18f-4e35-ae6b-28f4867b3a5f"},"vehicle_type_id":"4","last_reported":1703171223,"current_range_meters":18000,"station_id":"ce4bgvh2rcd13ifvqcs0","pricing_plan_id":"free"},{"bike_id":"2a62c925-c223-4976-8fd6-c66768b21985","system_id":"levelo_inurba_marseille","lat":43.302759,"lon":5.400793,"is_reserved":false,"is_disabled":false,"rental_uris":{"android":"levelo://app?vid=2a62c925-c223-4976-8fd6-c66768b21985","ios":"levelo://app?vid=2a62c925-c223-4976-8fd6-c66768b21985"},"vehicle_type_id":"4","last_reported":1703171223,"current_range_meters":27200,"station_id":"ce4bgvh2rcd13ifvqcs0","pricing_plan_id":"free"},{"bike_id":"6a113e20-ebf7-46d8-a428-449a7150b4f9","system_id":"levelo_inurba_marseille","lat":43.290303,"lon":5.386502,"is_reserved":false,"is_disabled":false,"rental_uris":{"android":"levelo://app?vid=6a113e20-ebf7-46d8-a428-449a7150b4f9","ios":"levelo://app?vid=6a113e20-ebf7-46d8-a428-449a7150b4f9"},"vehicle_type_id":"4","last_reported":1703171223,"current_range_meters":3200,"station_id":"","pricing_plan_id":"free"},{"bike_id":"657b4d30-11c4-4174-ae70-5f17e3ee8719","system_id":"levelo_inurba_marseille","lat":43.286039,"lon":5.370679,"is_reserved":false,"is_disabled":false,"rental_uris":{"android":"levelo://app?vid=657b4d30-11c4-4174-ae70-5f17e3ee8719","ios":"levelo://app?vid=657b4d30-11c4-4174-ae70-5f17e3ee8719"},"vehicle_type_id":"4","last_reported":1703171223,"current_range_meters":6800,"station_id":"ce4bht12rcd13ifvqi60","pricing_plan_id":"free"},{"bike_id":"983ef4bd-15ac-4651-8cde-3bd14abec0b1","system_id":"levelo_inurba_marseille","lat":43.28608,"lon":5.37065,"is_reserved":false,"is_disabled":false,"rental_uris":{"android":"levelo://app?vid=983ef4bd-15ac-4651-8cde-3bd14abec0b1","ios":"levelo://app?vid=983ef4bd-15ac-4651-8cde-3bd14abec0b1"},"vehicle_type_id":"4","last_reported":1703171223,"current_range_meters":1200,"station_id":"ce4bht12rcd13ifvqi60","pricing_plan_id":"free"},{"bike_id":"15b78ea3-4994-4591-bc7d-f370baa7a70f","system_id":"levelo_inurba_marseille","lat":43.29114,"lon":5.39063,"is_reserved":false,"is_disabled":false,"rental_uris":{"android":"levelo://app?vid=15b78ea3-4994-4591-bc7d-f370baa7a70f","ios":"levelo://app?vid=15b78ea3-4994-4591-bc7d-f370baa7a70f"},"vehicle_type_id":"4","last_reported":1703171223,"current_range_meters":24800,"station_id":"","pricing_plan_id":"free"},{"bike_id":"9449eb80-d18a-481d-bf00-b32c1d52c065","system_id":"levelo_inurba_marseille","lat":43.295523,"lon":5.422926,"is_reserved":false,"is_disabled":false,"rental_uris":{"android":"levelo://app?vid=9449eb80-d18a-481d-bf00-b32c1d52c065","ios":"levelo://app?vid=9449eb80-d18a-481d-bf00-b32c1d52c065"},"vehicle_type_id":"4","last_reported":1703171223,"current_range_meters":8000,"station_id":"ce4bhph2rcd13ifvqhdg","pricing_plan_id":"free"},{"bike_id":"428cde58-d556-4519-8477-d5186b88f5d6","system_id":"levelo_inurba_marseille","lat":43.291994,"lon":5.392907,"is_reserved":false,"is_disabled":false,"rental_uris":{"android":"levelo://app?vid=428cde58-d556-4519-8477-d5186b88f5d6","ios":"levelo://app?vid=428cde58-d556-4519-8477-d5186b88f5d6"},"vehicle_type_id":"4","last_reported":1703171223,"current_range_meters":14400,"station_id":"ce4bh192rcd13ifvqdd0","pricing_plan_id":"free"},{"bike_id":"cc0ca87c-ba46-478d-aecc-21e3ba9c1ead","system_id":"levelo_inurba_marseille","lat":43.291994,"lon":5.392907,"is_reserved":false,"is_disabled":false,"rental_uris":{"android":"levelo://app?vid=cc0ca87c-ba46-478d-aecc-21e3ba9c1ead","ios":"levelo://app?vid=cc0ca87c-ba46-478d-aecc-21e3ba9c1ead"},"vehicle_type_id":"4","last_reported":1703171223,"current_range_meters":10400,"station_id":"ce4bh192rcd13ifvqdd0","pricing_plan_id":"free"},{"bike_id":"91f4890f-16b4-4910-b9f9-ff197a6a7d6c","system_id":"levelo_inurba_marseille","lat":43.2943,"lon":5.39742,"is_reserved":false,"is_disabled":false,"rental_uris":{"android":"levelo://app?vid=91f4890f-16b4-4910-b9f9-ff197a6a7d6c","ios":"levelo://app?vid=91f4890f-16b4-4910-b9f9-ff197a6a7d6c"},"vehicle_type_id":"4","last_reported":1703171223,"current_range_meters":4800,"station_id":"","pricing_plan_id":"free"},{"bike_id":"b55d248b-21d6-499a-af50-173cbff8f295","system_id":"levelo_inurba_marseille","lat":43.294314,"lon":5.397498,"is_reserved":false,"is_disabled":false,"rental_uris":{"android":"levelo://app?vid=b55d248b-21d6-499a-af50-173cbff8f295","ios":"levelo://app?vid=b55d248b-21d6-499a-af50-173cbff8f295"},"vehicle_type_id":"4","last_reported":1703171223,"current_range_meters":22000,"station_id":"ce4bh3h2rcd13ifvqdo0","pricing_plan_id":"free"},{"bike_id":"588138ae-dab2-4975-99d1-c2c0cca3bc89","system_id":"levelo_inurba_marseille","lat":43.283998,"lon":5.375062,"is_reserved":false,"is_disabled":false,"rental_uris":{"android":"levelo://app?vid=588138ae-dab2-4975-99d1-c2c0cca3bc89","ios":"levelo://app?vid=588138ae-dab2-4975-99d1-c2c0cca3bc89"},"vehicle_type_id":"4","last_reported":1703171223,"current_range_meters":26800,"station_id":"ce4bh412rcd13ifvqds0","pricing_plan_id":"free"},{"bike_id":"a7971cf2-9c36-42fe-bba5-c26a4f8c2e5b","system_id":"levelo_inurba_marseille","lat":43.283998,"lon":5.375062,"is_reserved":false,"is_disabled":false,"rental_uris":{"android":"levelo://app?vid=a7971cf2-9c36-42fe-bba5-c26a4f8c2e5b","ios":"levelo://app?vid=a7971cf2-9c36-42fe-bba5-c26a4f8c2e5b"},"vehicle_type_id":"4","last_reported":1703171223,"current_range_meters":10800,"station_id":"ce4bh412rcd13ifvqds0","pricing_plan_id":"free"},{"bike_id":"aaf2b6ec-6377-445c-bea3-5f7ddfc4f4fe","system_id":"levelo_inurba_marseille","lat":43.283998,"lon":5.375062,"is_reserved":false,"is_disabled":false,"rental_uris":{"android":"levelo://app?vid=aaf2b6ec-6377-445c-bea3-5f7ddfc4f4fe","ios":"levelo://app?vid=aaf2b6ec-6377-445c-bea3-5f7ddfc4f4fe"},"vehicle_type_id":"4","last_reported":1703171223,"current_range_meters":0,"station_id":"ce4bh412rcd13ifvqds0","pricing_plan_id":"free"},{"bike_id":"004e51cc-6288-4b1b-be0a-305d15dc0fe4","system_id":"levelo_inurba_marseille","lat":43.295713,"lon":5.399639,"is_reserved":false,"is_disabled":false,"rental_uris":{"android":"levelo://app?vid=004e51cc-6288-4b1b-be0a-305d15dc0fe4","ios":"levelo://app?vid=004e51cc-6288-4b1b-be0a-305d15dc0fe4"},"vehicle_type_id":"4","last_reported":1703171223,"current_range_meters":5600,"station_id":"ce4bh312rcd13ifvqdj0","pricing_plan_id":"free"},{"bike_id":"8538e6dd-dbef-4a5a-a119-9a857fd021ad","system_id":"levelo_inurba_marseille","lat":43.33218,"lon":5.397067,"is_reserved":false,"is_disabled":false,"rental_uris":{"android":"levelo://app?vid=8538e6dd-dbef-4a5a-a119-9a857fd021ad","ios":"levelo://app?vid=8538e6dd-dbef-4a5a-a119-9a857fd021ad"},"vehicle_type_id":"4","last_reported":1703171223,"current_range_meters":0,"station_id":"","pricing_plan_id":"free"},{"bike_id":"e5ccdf14-07d4-460c-81fe-b860e0e349e6","system_id":"levelo_inurba_marseille","lat":43.286595,"lon":5.386795,"is_reserved":false,"is_disabled":false,"rental_uris":{"android":"levelo://app?vid=e5ccdf14-07d4-460c-81fe-b860e0e349e6","ios":"levelo://app?vid=e5ccdf14-07d4-460c-81fe-b860e0e349e6"},"vehicle_type_id":"4","last_reported":1703171223,"current_range_meters":27600,"station_id":"ce4bh492rcd13ifvqdug","pricing_plan_id":"free"},{"bike_id":"c3580d2e-96dd-4d1f-8b18-75ec6dd004ab","system_id":"levelo_inurba_marseille","lat":43.323464,"lon":5.406297,"is_reserved":false,"is_disabled":false,"rental_uris":{"android":"levelo://app?vid=c3580d2e-96dd-4d1f-8b18-75ec6dd004ab","ios":"levelo://app?vid=c3580d2e-96dd-4d1f-8b18-75ec6dd004ab"},"vehicle_type_id":"4","last_reported":1703171223,"current_range_meters":20400,"station_id":"ce4bhq92rcd13ifvqhjg","pricing_plan_id":"free"},{"bike_id":"dfdadb00-295f-4147-bb7b-992e830130a9","system_id":"levelo_inurba_marseille","lat":43.323464,"lon":5.406297,"is_reserved":false,"is_disabled":false,"rental_uris":{"android":"levelo://app?vid=dfdadb00-295f-4147-bb7b-992e830130a9","ios":"levelo://app?vid=dfdadb00-295f-4147-bb7b-992e830130a9"},"vehicle_type_id":"4","last_reported":1703171223,"current_range_meters":22400,"station_id":"ce4bhq92rcd13ifvqhjg","pricing_plan_id":"free"},{"bike_id":"f1d0d1e9-1ca9-44bc-b32e-c1faf4b30047","system_id":"levelo_inurba_marseille","lat":43.284793,"lon":5.384119,"is_reserved":false,"is_disabled":false,"rental_uris":{"android":"levelo://app?vid=f1d0d1e9-1ca9-44bc-b32e-c1faf4b30047","ios":"levelo://app?vid=f1d0d1e9-1ca9-44bc-b32e-c1faf4b30047"},"vehicle_type_id":"4","last_reported":1703171223,"current_range_meters":24400,"station_id":"ce4bh512rcd13ifvqe3g","pricing_plan_id":"free"},{"bike_id":"53feb3bb-7364-4e0d-8063-f3468c86693c","system_id":"levelo_inurba_marseille","lat":43.288501,"lon":5.393087,"is_reserved":false,"is_disabled":false,"rental_uris":{"android":"levelo://app?vid=53feb3bb-7364-4e0d-8063-f3468c86693c","ios":"levelo://app?vid=53feb3bb-7364-4e0d-8063-f3468c86693c"},"vehicle_type_id":"4","last_reported":1703171223,"current_range_meters":18000,"station_id":"ce4bh2p2rcd13ifvqdi0","pricing_plan_id":"free"},{"bike_id":"0f42eedd-bd33-445f-91fc-4e7504a96eb4","system_id":"levelo_inurba_marseille","lat":43.324206,"lon":5.407051,"is_reserved":false,"is_disabled":false,"rental_uris":{"android":"levelo://app?vid=0f42eedd-bd33-445f-91fc-4e7504a96eb4","ios":"levelo://app?vid=0f42eedd-bd33-445f-91fc-4e7504a96eb4"},"vehicle_type_id":"4","last_reported":1703171223,"current_range_meters":17200,"station_id":"","pricing_plan_id":"free"},{"bike_id":"0b1b71b4-a9a3-48a2-8b06-d71c23042f01","system_id":"levelo_inurba_marseille","lat":43.292724,"lon":5.401131,"is_reserved":false,"is_disabled":false,"rental_uris":{"android":"levelo://app?vid=0b1b71b4-a9a3-48a2-8b06-d71c23042f01","ios":"levelo://app?vid=0b1b71b4-a9a3-48a2-8b06-d71c23042f01"},"vehicle_type_id":"4","last_reported":1703171223,"current_range_meters":6400,"station_id":"ce4bh312rcd13ifvqdk0","pricing_plan_id":"free"},{"bike_id":"ecc68cc3-ae03-41b8-88f2-72409c3f3432","system_id":"levelo_inurba_marseille","lat":43.28039,"lon":5.369297,"is_reserved":false,"is_disabled":false,"rental_uris":{"android":"levelo://app?vid=ecc68cc3-ae03-41b8-88f2-72409c3f3432","ios":"levelo://app?vid=ecc68cc3-ae03-41b8-88f2-72409c3f3432"},"vehicle_type_id":"4","last_reported":1703171223,"current_range_meters":0,"station_id":"ce4bha12rcd13ifvqef0","pricing_plan_id":"free"},{"bike_id":"0e298bdb-800b-496e-b0fa-cbdcb63a0efc","system_id":"levelo_inurba_marseille","lat":43.28039,"lon":5.369297,"is_reserved":false,"is_disabled":false,"rental_uris":{"android":"levelo://app?vid=0e298bdb-800b-496e-b0fa-cbdcb63a0efc","ios":"levelo://app?vid=0e298bdb-800b-496e-b0fa-cbdcb63a0efc"},"vehicle_type_id":"4","last_reported":1703171223,"current_range_meters":27200,"station_id":"ce4bha12rcd13ifvqef0","pricing_plan_id":"free"},{"bike_id":"2405a2e0-e914-4f4a-832f-ed505b609642","system_id":"levelo_inurba_marseille","lat":43.281044,"lon":5.378308,"is_reserved":false,"is_disabled":false,"rental_uris":{"android":"levelo://app?vid=2405a2e0-e914-4f4a-832f-ed505b609642","ios":"levelo://app?vid=2405a2e0-e914-4f4a-832f-ed505b609642"},"vehicle_type_id":"4","last_reported":1703171223,"current_range_meters":15200,"station_id":"ce4bha12rcd13ifvqee0","pricing_plan_id":"free"},{"bike_id":"703bf4f3-8081-4449-8bd9-a22009030bd9","system_id":"levelo_inurba_marseille","lat":43.29041,"lon":5.399634,"is_reserved":false,"is_disabled":false,"rental_uris":{"android":"levelo://app?vid=703bf4f3-8081-4449-8bd9-a22009030bd9","ios":"levelo://app?vid=703bf4f3-8081-4449-8bd9-a22009030bd9"},"vehicle_type_id":"4","last_reported":1703171223,"current_range_meters":5600,"station_id":"ce4bh392rcd13ifvqdm0","pricing_plan_id":"free"},{"bike_id":"af6e9ffd-b5d9-4a5b-a6f2-3688f1c70f9d","system_id":"levelo_inurba_marseille","lat":43.281044,"lon":5.378308,"is_reserved":false,"is_disabled":false,"rental_uris":{"android":"levelo://app?vid=af6e9ffd-b5d9-4a5b-a6f2-3688f1c70f9d","ios":"levelo://app?vid=af6e9ffd-b5d9-4a5b-a6f2-3688f1c70f9d"},"vehicle_type_id":"4","last_reported":1703171223,"current_range_meters":28800,"station_id":"ce4bha12rcd13ifvqee0","pricing_plan_id":"free"},{"bike_id":"320e0d10-d69d-48ee-a582-2ae6f8ddbad3","system_id":"levelo_inurba_marseille","lat":43.29632,"lon":5.40596,"is_reserved":false,"is_disabled":false,"rental_uris":{"android":"levelo://app?vid=320e0d10-d69d-48ee-a582-2ae6f8ddbad3","ios":"levelo://app?vid=320e0d10-d69d-48ee-a582-2ae6f8ddbad3"},"vehicle_type_id":"4","last_reported":1703171223,"current_range_meters":25600,"station_id":"ce4bh0h2rcd13ifvqd60","pricing_plan_id":"free"},{"bike_id":"d19021b6-5903-4780-a824-c5a7facd2926","system_id":"levelo_inurba_marseille","lat":43.284462,"lon":5.392121,"is_reserved":false,"is_disabled":false,"rental_uris":{"android":"levelo://app?vid=d19021b6-5903-4780-a824-c5a7facd2926","ios":"levelo://app?vid=d19021b6-5903-4780-a824-c5a7facd2926"},"vehicle_type_id":"4","last_reported":1703171223,"current_range_meters":24800,"station_id":"ce4bhoh2rcd13ifvqh5g","pricing_plan_id":"free"},{"bike_id":"35d3e4b6-bf98-42c9-b754-71366924c51f","system_id":"levelo_inurba_marseille","lat":43.285742,"lon":5.395004,"is_reserved":false,"is_disabled":false,"rental_uris":{"android":"levelo://app?vid=35d3e4b6-bf98-42c9-b754-71366924c51f","ios":"levelo://app?vid=35d3e4b6-bf98-42c9-b754-71366924c51f"},"vehicle_type_id":"4","last_reported":1703171223,"current_range_meters":25200,"station_id":"ce4bh292rcd13ifvqdg0","pricing_plan_id":"free"},{"bike_id":"215b86ad-fa50-4958-9bd7-85ea1992ed04","system_id":"levelo_inurba_marseille","lat":43.28573,"lon":5.394992,"is_reserved":false,"is_disabled":false,"rental_uris":{"android":"levelo://app?vid=215b86ad-fa50-4958-9bd7-85ea1992ed04","ios":"levelo://app?vid=215b86ad-fa50-4958-9bd7-85ea1992ed04"},"vehicle_type_id":"4","last_reported":1703171223,"current_range_meters":25600,"station_id":"ce4bh292rcd13ifvqdg0","pricing_plan_id":"free"},{"bike_id":"e0be165c-878d-49d4-b057-9400f295ca06","system_id":"levelo_inurba_marseille","lat":43.285742,"lon":5.395004,"is_reserved":false,"is_disabled":false,"rental_uris":{"android":"levelo://app?vid=e0be165c-878d-49d4-b057-9400f295ca06","ios":"levelo://app?vid=e0be165c-878d-49d4-b057-9400f295ca06"},"vehicle_type_id":"4","last_reported":1703171223,"current_range_meters":24000,"station_id":"ce4bh292rcd13ifvqdg0","pricing_plan_id":"free"},{"bike_id":"40d1fb38-4d38-4c27-b4fa-46cc33432792","system_id":"levelo_inurba_marseille","lat":43.279087,"lon":5.380114,"is_reserved":false,"is_disabled":false,"rental_uris":{"android":"levelo://app?vid=40d1fb38-4d38-4c27-b4fa-46cc33432792","ios":"levelo://app?vid=40d1fb38-4d38-4c27-b4fa-46cc33432792"},"vehicle_type_id":"4","last_reported":1703171223,"current_range_meters":12400,"station_id":"ce4bhf92rcd13ifvqf50","pricing_plan_id":"free"},{"bike_id":"3e2930fc-a73c-46fd-8b9c-c412d458acb6","system_id":"levelo_inurba_marseille","lat":43.287154,"lon":5.399979,"is_reserved":false,"is_disabled":false,"rental_uris":{"android":"levelo://app?vid=3e2930fc-a73c-46fd-8b9c-c412d458acb6","ios":"levelo://app?vid=3e2930fc-a73c-46fd-8b9c-c412d458acb6"},"vehicle_type_id":"4","last_reported":1703171223,"current_range_meters":0,"station_id":"ce4bho92rcd13ifvqh3g","pricing_plan_id":"free"},{"bike_id":"127e4fa8-83b3-4340-a9ec-259f3a5e0753","system_id":"levelo_inurba_marseille","lat":43.320045,"lon":5.415046,"is_reserved":false,"is_disabled":false,"rental_uris":{"android":"levelo://app?vid=127e4fa8-83b3-4340-a9ec-259f3a5e0753","ios":"levelo://app?vid=127e4fa8-83b3-4340-a9ec-259f3a5e0753"},"vehicle_type_id":"4","last_reported":1703171223,"current_range_meters":21600,"station_id":"ce4bhq92rcd13ifvqhkg","pricing_plan_id":"free"},{"bike_id":"938a519a-c49d-48b3-b3f7-5c7e868cfcb6","system_id":"levelo_inurba_marseille","lat":43.320045,"lon":5.415046,"is_reserved":false,"is_disabled":false,"rental_uris":{"android":"levelo://app?vid=938a519a-c49d-48b3-b3f7-5c7e868cfcb6","ios":"levelo://app?vid=938a519a-c49d-48b3-b3f7-5c7e868cfcb6"},"vehicle_type_id":"4","last_reported":1703171223,"current_range_meters":29600,"station_id":"ce4bhq92rcd13ifvqhkg","pricing_plan_id":"free"},{"bike_id":"760c4c1a-7264-4fe8-b422-1e89904c6782","system_id":"levelo_inurba_marseille","lat":43.292571,"lon":5.409107,"is_reserved":false,"is_disabled":false,"rental_uris":{"android":"levelo://app?vid=760c4c1a-7264-4fe8-b422-1e89904c6782","ios":"levelo://app?vid=760c4c1a-7264-4fe8-b422-1e89904c6782"},"vehicle_type_id":"4","last_reported":1703171223,"current_range_meters":27200,"station_id":"ce4bh192rcd13ifvqdc0","pricing_plan_id":"free"},{"bike_id":"aee50354-ca43-4bb4-9a1c-c4619ebdf45b","system_id":"levelo_inurba_marseille","lat":43.276179,"lon":5.361009,"is_reserved":false,"is_disabled":false,"rental_uris":{"android":"levelo://app?vid=aee50354-ca43-4bb4-9a1c-c4619ebdf45b","ios":"levelo://app?vid=aee50354-ca43-4bb4-9a1c-c4619ebdf45b"},"vehicle_type_id":"4","last_reported":1703171223,"current_range_meters":9200,"station_id":"ce4bgj92rcd13ifvqbe0","pricing_plan_id":"free"},{"bike_id":"3854be7d-3d10-4859-b975-6c12a83635b7","system_id":"levelo_inurba_marseille","lat":43.303837,"lon":5.418724,"is_reserved":false,"is_disabled":false,"rental_uris":{"android":"levelo://app?vid=3854be7d-3d10-4859-b975-6c12a83635b7","ios":"levelo://app?vid=3854be7d-3d10-4859-b975-6c12a83635b7"},"vehicle_type_id":"4","last_reported":1703171223,"current_range_meters":18000,"station_id":"ce4bhop2rcd13ifvqh7g","pricing_plan_id":"free"},{"bike_id":"7ada0439-e02f-43f4-a65c-6cdbad12b2d5","system_id":"levelo_inurba_marseille","lat":43.317121,"lon":5.423936,"is_reserved":false,"is_disabled":false,"rental_uris":{"android":"levelo://app?vid=7ada0439-e02f-43f4-a65c-6cdbad12b2d5","ios":"levelo://app?vid=7ada0439-e02f-43f4-a65c-6cdbad12b2d5"},"vehicle_type_id":"4","last_reported":1703171223,"current_range_meters":28000,"station_id":"ce4bhp92rcd13ifvqhbg","pricing_plan_id":"free"},{"bike_id":"e97a3bf4-4a34-45fa-9336-f1662c600f4b","system_id":"levelo_inurba_marseille","lat":43.31083,"lon":5.42432,"is_reserved":false,"is_disabled":false,"rental_uris":{"android":"levelo://app?vid=e97a3bf4-4a34-45fa-9336-f1662c600f4b","ios":"levelo://app?vid=e97a3bf4-4a34-45fa-9336-f1662c600f4b"},"vehicle_type_id":"4","last_reported":1703171223,"current_range_meters":18000,"station_id":"ce4bhp92rcd13ifvqhag","pricing_plan_id":"free"},{"bike_id":"a7ebbe4e-e4b4-4b88-92ae-339f682a95cb","system_id":"levelo_inurba_marseille","lat":43.310828,"lon":5.424326,"is_reserved":false,"is_disabled":false,"rental_uris":{"android":"levelo://app?vid=a7ebbe4e-e4b4-4b88-92ae-339f682a95cb","ios":"levelo://app?vid=a7ebbe4e-e4b4-4b88-92ae-339f682a95cb"},"vehicle_type_id":"4","last_reported":1703171223,"current_range_meters":27200,"station_id":"ce4bhp92rcd13ifvqhag","pricing_plan_id":"free"},{"bike_id":"21f4a169-6e35-4a8e-94ba-dad1b033815c","system_id":"levelo_inurba_marseille","lat":43.310827,"lon":5.424368,"is_reserved":false,"is_disabled":false,"rental_uris":{"android":"levelo://app?vid=21f4a169-6e35-4a8e-94ba-dad1b033815c","ios":"levelo://app?vid=21f4a169-6e35-4a8e-94ba-dad1b033815c"},"vehicle_type_id":"4","last_reported":1703171223,"current_range_meters":1200,"station_id":"ce4bhp92rcd13ifvqhag","pricing_plan_id":"free"},{"bike_id":"2e516d3d-6541-4271-8001-26e16d636bbd","system_id":"levelo_inurba_marseille","lat":43.310893,"lon":5.424543,"is_reserved":false,"is_disabled":false,"rental_uris":{"android":"levelo://app?vid=2e516d3d-6541-4271-8001-26e16d636bbd","ios":"levelo://app?vid=2e516d3d-6541-4271-8001-26e16d636bbd"},"vehicle_type_id":"4","last_reported":1703171223,"current_range_meters":12400,"station_id":"ce4bhp92rcd13ifvqhag","pricing_plan_id":"free"},{"bike_id":"d797fc20-8004-4aea-92c9-76dbe5c35753","system_id":"levelo_inurba_marseille","lat":43.34144,"lon":5.40913,"is_reserved":false,"is_disabled":false,"rental_uris":{"android":"levelo://app?vid=d797fc20-8004-4aea-92c9-76dbe5c35753","ios":"levelo://app?vid=d797fc20-8004-4aea-92c9-76dbe5c35753"},"vehicle_type_id":"4","last_reported":1703171223,"current_range_meters":30400,"station_id":"ce4bhqh2rcd13ifvqhlg","pricing_plan_id":"free"},{"bike_id":"551594ad-aefa-4e3f-82f0-dada977fda1f","system_id":"levelo_inurba_marseille","lat":43.274103,"lon":5.394016,"is_reserved":false,"is_disabled":false,"rental_uris":{"android":"levelo://app?vid=551594ad-aefa-4e3f-82f0-dada977fda1f","ios":"levelo://app?vid=551594ad-aefa-4e3f-82f0-dada977fda1f"},"vehicle_type_id":"4","last_reported":1703171223,"current_range_meters":27200,"station_id":"ce4bhdp2rcd13ifvqf20","pricing_plan_id":"free"},{"bike_id":"fcf7dfb3-2b3b-4762-b534-ec71c08723b0","system_id":"levelo_inurba_marseille","lat":43.274099,"lon":5.394019,"is_reserved":false,"is_disabled":false,"rental_uris":{"android":"levelo://app?vid=fcf7dfb3-2b3b-4762-b534-ec71c08723b0","ios":"levelo://app?vid=fcf7dfb3-2b3b-4762-b534-ec71c08723b0"},"vehicle_type_id":"4","last_reported":1703171223,"current_range_meters":5600,"station_id":"ce4bhdp2rcd13ifvqf20","pricing_plan_id":"free"},{"bike_id":"218ca4ab-a316-43a6-87cd-acfc23cd8e62","system_id":"levelo_inurba_marseille","lat":43.295523,"lon":5.422926,"is_reserved":false,"is_disabled":false,"rental_uris":{"android":"levelo://app?vid=218ca4ab-a316-43a6-87cd-acfc23cd8e62","ios":"levelo://app?vid=218ca4ab-a316-43a6-87cd-acfc23cd8e62"},"vehicle_type_id":"4","last_reported":1703171223,"current_range_meters":22800,"station_id":"ce4bhph2rcd13ifvqhdg","pricing_plan_id":"free"},{"bike_id":"96484c65-8dd7-4167-a438-a7d837c6b7a7","system_id":"levelo_inurba_marseille","lat":43.295523,"lon":5.422926,"is_reserved":false,"is_disabled":false,"rental_uris":{"android":"levelo://app?vid=96484c65-8dd7-4167-a438-a7d837c6b7a7","ios":"levelo://app?vid=96484c65-8dd7-4167-a438-a7d837c6b7a7"},"vehicle_type_id":"4","last_reported":1703171223,"current_range_meters":31200,"station_id":"ce4bhph2rcd13ifvqhdg","pricing_plan_id":"free"},{"bike_id":"7b50e92c-923d-47a0-98cd-9b6ef12b5315","system_id":"levelo_inurba_marseille","lat":43.295523,"lon":5.422926,"is_reserved":false,"is_disabled":false,"rental_uris":{"android":"levelo://app?vid=7b50e92c-923d-47a0-98cd-9b6ef12b5315","ios":"levelo://app?vid=7b50e92c-923d-47a0-98cd-9b6ef12b5315"},"vehicle_type_id":"4","last_reported":1703171223,"current_range_meters":26800,"station_id":"ce4bhph2rcd13ifvqhdg","pricing_plan_id":"free"},{"bike_id":"b55db1a0-b820-479b-9929-7610c21584c5","system_id":"levelo_inurba_marseille","lat":43.295511,"lon":5.422926,"is_reserved":false,"is_disabled":false,"rental_uris":{"android":"levelo://app?vid=b55db1a0-b820-479b-9929-7610c21584c5","ios":"levelo://app?vid=b55db1a0-b820-479b-9929-7610c21584c5"},"vehicle_type_id":"4","last_reported":1703171223,"current_range_meters":25200,"station_id":"ce4bhph2rcd13ifvqhdg","pricing_plan_id":"free"},{"bike_id":"bc96446b-31f5-4313-822f-625edd6d0b52","system_id":"levelo_inurba_marseille","lat":43.295523,"lon":5.422926,"is_reserved":false,"is_disabled":false,"rental_uris":{"android":"levelo://app?vid=bc96446b-31f5-4313-822f-625edd6d0b52","ios":"levelo://app?vid=bc96446b-31f5-4313-822f-625edd6d0b52"},"vehicle_type_id":"4","last_reported":1703171223,"current_range_meters":28400,"station_id":"ce4bhph2rcd13ifvqhdg","pricing_plan_id":"free"},{"bike_id":"0454933a-5656-4345-852e-0e25afae89fb","system_id":"levelo_inurba_marseille","lat":43.295523,"lon":5.422926,"is_reserved":false,"is_disabled":false,"rental_uris":{"android":"levelo://app?vid=0454933a-5656-4345-852e-0e25afae89fb","ios":"levelo://app?vid=0454933a-5656-4345-852e-0e25afae89fb"},"vehicle_type_id":"4","last_reported":1703171223,"current_range_meters":30800,"station_id":"ce4bhph2rcd13ifvqhdg","pricing_plan_id":"free"},{"bike_id":"a10ac9d8-0797-4933-8b06-195ff641cdd0","system_id":"levelo_inurba_marseille","lat":43.272116,"lon":5.391763,"is_reserved":false,"is_disabled":false,"rental_uris":{"android":"levelo://app?vid=a10ac9d8-0797-4933-8b06-195ff641cdd0","ios":"levelo://app?vid=a10ac9d8-0797-4933-8b06-195ff641cdd0"},"vehicle_type_id":"4","last_reported":1703171223,"current_range_meters":30000,"station_id":"ce4bhhp2rcd13ifvqfm0","pricing_plan_id":"free"},{"bike_id":"884aed13-91d3-4b85-ad4d-8294aff4f0af","system_id":"levelo_inurba_marseille","lat":43.272124,"lon":5.391768,"is_reserved":false,"is_disabled":false,"rental_uris":{"android":"levelo://app?vid=884aed13-91d3-4b85-ad4d-8294aff4f0af","ios":"levelo://app?vid=884aed13-91d3-4b85-ad4d-8294aff4f0af"},"vehicle_type_id":"4","last_reported":1703171223,"current_range_meters":13200,"station_id":"ce4bhhp2rcd13ifvqfm0","pricing_plan_id":"free"},{"bike_id":"0b8092c6-9eeb-4b9c-884f-6d7206d68f79","system_id":"levelo_inurba_marseille","lat":43.272116,"lon":5.391763,"is_reserved":false,"is_disabled":false,"rental_uris":{"android":"levelo://app?vid=0b8092c6-9eeb-4b9c-884f-6d7206d68f79","ios":"levelo://app?vid=0b8092c6-9eeb-4b9c-884f-6d7206d68f79"},"vehicle_type_id":"4","last_reported":1703171223,"current_range_meters":7600,"station_id":"ce4bhhp2rcd13ifvqfm0","pricing_plan_id":"free"},{"bike_id":"8fdc616c-c31d-449f-84e8-c962ec7f3eac","system_id":"levelo_inurba_marseille","lat":43.278128,"lon":5.407195,"is_reserved":false,"is_disabled":false,"rental_uris":{"android":"levelo://app?vid=8fdc616c-c31d-449f-84e8-c962ec7f3eac","ios":"levelo://app?vid=8fdc616c-c31d-449f-84e8-c962ec7f3eac"},"vehicle_type_id":"4","last_reported":1703171223,"current_range_meters":800,"station_id":"ce4bhnh2rcd13ifvqgtg","pricing_plan_id":"free"},{"bike_id":"eafba763-944c-4624-aba6-3fb16259e2e8","system_id":"levelo_inurba_marseille","lat":43.278128,"lon":5.407195,"is_reserved":false,"is_disabled":false,"rental_uris":{"android":"levelo://app?vid=eafba763-944c-4624-aba6-3fb16259e2e8","ios":"levelo://app?vid=eafba763-944c-4624-aba6-3fb16259e2e8"},"vehicle_type_id":"4","last_reported":1703171223,"current_range_meters":29200,"station_id":"ce4bhnh2rcd13ifvqgtg","pricing_plan_id":"free"},{"bike_id":"ed38f166-8989-4cc2-b414-d5e1e0d3e9ec","system_id":"levelo_inurba_marseille","lat":43.279465,"lon":5.410561,"is_reserved":false,"is_disabled":false,"rental_uris":{"android":"levelo://app?vid=ed38f166-8989-4cc2-b414-d5e1e0d3e9ec","ios":"levelo://app?vid=ed38f166-8989-4cc2-b414-d5e1e0d3e9ec"},"vehicle_type_id":"4","last_reported":1703171223,"current_range_meters":21600,"station_id":"ce4bhnp2rcd13ifvqh0g","pricing_plan_id":"free"},{"bike_id":"abfc7213-987e-4a2c-80fd-00025ac6bf8f","system_id":"levelo_inurba_marseille","lat":43.269319,"lon":5.389397,"is_reserved":false,"is_disabled":false,"rental_uris":{"android":"levelo://app?vid=abfc7213-987e-4a2c-80fd-00025ac6bf8f","ios":"levelo://app?vid=abfc7213-987e-4a2c-80fd-00025ac6bf8f"},"vehicle_type_id":"4","last_reported":1703171223,"current_range_meters":12800,"station_id":"ce4bhhh2rcd13ifvqfl0","pricing_plan_id":"free"},{"bike_id":"9b378276-e9fb-494b-9050-5ae54901aeba","system_id":"levelo_inurba_marseille","lat":43.26681,"lon":5.382694,"is_reserved":false,"is_disabled":false,"rental_uris":{"android":"levelo://app?vid=9b378276-e9fb-494b-9050-5ae54901aeba","ios":"levelo://app?vid=9b378276-e9fb-494b-9050-5ae54901aeba"},"vehicle_type_id":"4","last_reported":1703171223,"current_range_meters":21600,"station_id":"ce4bhg92rcd13ifvqf90","pricing_plan_id":"free"},{"bike_id":"28409cfa-9604-442b-9a4d-7f70005b036e","system_id":"levelo_inurba_marseille","lat":43.26681,"lon":5.382694,"is_reserved":false,"is_disabled":false,"rental_uris":{"android":"levelo://app?vid=28409cfa-9604-442b-9a4d-7f70005b036e","ios":"levelo://app?vid=28409cfa-9604-442b-9a4d-7f70005b036e"},"vehicle_type_id":"4","last_reported":1703171223,"current_range_meters":30400,"station_id":"ce4bhg92rcd13ifvqf90","pricing_plan_id":"free"},{"bike_id":"ddc116a7-beab-4d15-9d1e-d1d89e77aa33","system_id":"levelo_inurba_marseille","lat":43.261782,"lon":5.374515,"is_reserved":false,"is_disabled":false,"rental_uris":{"android":"levelo://app?vid=ddc116a7-beab-4d15-9d1e-d1d89e77aa33","ios":"levelo://app?vid=ddc116a7-beab-4d15-9d1e-d1d89e77aa33"},"vehicle_type_id":"4","last_reported":1703171223,"current_range_meters":3200,"station_id":"ce4bhgp2rcd13ifvqfc0","pricing_plan_id":"free"},{"bike_id":"68e2c93b-77a0-44ee-99dc-6ef5c9a56ad7","system_id":"levelo_inurba_marseille","lat":43.27996,"lon":5.416624,"is_reserved":false,"is_disabled":false,"rental_uris":{"android":"levelo://app?vid=68e2c93b-77a0-44ee-99dc-6ef5c9a56ad7","ios":"levelo://app?vid=68e2c93b-77a0-44ee-99dc-6ef5c9a56ad7"},"vehicle_type_id":"4","last_reported":1703171223,"current_range_meters":22000,"station_id":"ce4bho12rcd13ifvqh1g","pricing_plan_id":"free"},{"bike_id":"b6223dc6-9b69-4172-bf60-628bf40599a9","system_id":"levelo_inurba_marseille","lat":43.267966,"lon":5.393976,"is_reserved":false,"is_disabled":false,"rental_uris":{"android":"levelo://app?vid=b6223dc6-9b69-4172-bf60-628bf40599a9","ios":"levelo://app?vid=b6223dc6-9b69-4172-bf60-628bf40599a9"},"vehicle_type_id":"4","last_reported":1703171223,"current_range_meters":20400,"station_id":"ce4bhh12rcd13ifvqfg0","pricing_plan_id":"free"},{"bike_id":"9a91c593-84eb-47bc-a6eb-531a4db53380","system_id":"levelo_inurba_marseille","lat":43.308051,"lon":5.43527,"is_reserved":false,"is_disabled":false,"rental_uris":{"android":"levelo://app?vid=9a91c593-84eb-47bc-a6eb-531a4db53380","ios":"levelo://app?vid=9a91c593-84eb-47bc-a6eb-531a4db53380"},"vehicle_type_id":"4","last_reported":1703171223,"current_range_meters":19200,"station_id":"ce4bhph2rcd13ifvqheg","pricing_plan_id":"free"},{"bike_id":"a3d55647-b9a6-4129-a66c-da4b9a5450d8","system_id":"levelo_inurba_marseille","lat":43.265571,"lon":5.390032,"is_reserved":false,"is_disabled":false,"rental_uris":{"android":"levelo://app?vid=a3d55647-b9a6-4129-a66c-da4b9a5450d8","ios":"levelo://app?vid=a3d55647-b9a6-4129-a66c-da4b9a5450d8"},"vehicle_type_id":"4","last_reported":1703171223,"current_range_meters":25600,"station_id":"ce4bhe12rcd13ifvqf30","pricing_plan_id":"free"},{"bike_id":"23340111-511b-46e5-a8e0-f440e3e9fa51","system_id":"levelo_inurba_marseille","lat":43.265571,"lon":5.390032,"is_reserved":false,"is_disabled":false,"rental_uris":{"android":"levelo://app?vid=23340111-511b-46e5-a8e0-f440e3e9fa51","ios":"levelo://app?vid=23340111-511b-46e5-a8e0-f440e3e9fa51"},"vehicle_type_id":"4","last_reported":1703171223,"current_range_meters":18000,"station_id":"ce4bhe12rcd13ifvqf30","pricing_plan_id":"free"},{"bike_id":"07fbdce5-f320-4d5e-bc74-1034c54d7f61","system_id":"levelo_inurba_marseille","lat":43.308051,"lon":5.43527,"is_reserved":false,"is_disabled":false,"rental_uris":{"android":"levelo://app?vid=07fbdce5-f320-4d5e-bc74-1034c54d7f61","ios":"levelo://app?vid=07fbdce5-f320-4d5e-bc74-1034c54d7f61"},"vehicle_type_id":"4","last_reported":1703171223,"current_range_meters":26800,"station_id":"ce4bhph2rcd13ifvqheg","pricing_plan_id":"free"},{"bike_id":"de1232b1-15e5-4673-8e4e-81afa004c6ae","system_id":"levelo_inurba_marseille","lat":43.26949,"lon":5.40262,"is_reserved":false,"is_disabled":false,"rental_uris":{"android":"levelo://app?vid=de1232b1-15e5-4673-8e4e-81afa004c6ae","ios":"levelo://app?vid=de1232b1-15e5-4673-8e4e-81afa004c6ae"},"vehicle_type_id":"4","last_reported":1703171223,"current_range_meters":30800,"station_id":"cjm6bp8fraef2m0cb0m0","pricing_plan_id":"free"},{"bike_id":"83354a2c-ede8-4be0-87bf-e7a9497f9f99","system_id":"levelo_inurba_marseille","lat":43.26949,"lon":5.40262,"is_reserved":false,"is_disabled":false,"rental_uris":{"android":"levelo://app?vid=83354a2c-ede8-4be0-87bf-e7a9497f9f99","ios":"levelo://app?vid=83354a2c-ede8-4be0-87bf-e7a9497f9f99"},"vehicle_type_id":"4","last_reported":1703171223,"current_range_meters":24800,"station_id":"cjm6bp8fraef2m0cb0m0","pricing_plan_id":"free"},{"bike_id":"07db4809-30b6-4705-8b0c-6da1be74acc3","system_id":"levelo_inurba_marseille","lat":43.26949,"lon":5.40262,"is_reserved":false,"is_disabled":false,"rental_uris":{"android":"levelo://app?vid=07db4809-30b6-4705-8b0c-6da1be74acc3","ios":"levelo://app?vid=07db4809-30b6-4705-8b0c-6da1be74acc3"},"vehicle_type_id":"4","last_reported":1703171223,"current_range_meters":26400,"station_id":"cjm6bp8fraef2m0cb0m0","pricing_plan_id":"free"},{"bike_id":"2564b3d2-89fc-4543-8dca-2c2cdba95937","system_id":"levelo_inurba_marseille","lat":43.26949,"lon":5.40262,"is_reserved":false,"is_disabled":false,"rental_uris":{"android":"levelo://app?vid=2564b3d2-89fc-4543-8dca-2c2cdba95937","ios":"levelo://app?vid=2564b3d2-89fc-4543-8dca-2c2cdba95937"},"vehicle_type_id":"4","last_reported":1703171223,"current_range_meters":17200,"station_id":"cjm6bp8fraef2m0cb0m0","pricing_plan_id":"free"},{"bike_id":"75a32edc-3aeb-4eda-99f6-41a57c332bd8","system_id":"levelo_inurba_marseille","lat":43.262012,"lon":5.379307,"is_reserved":false,"is_disabled":false,"rental_uris":{"android":"levelo://app?vid=75a32edc-3aeb-4eda-99f6-41a57c332bd8","ios":"levelo://app?vid=75a32edc-3aeb-4eda-99f6-41a57c332bd8"},"vehicle_type_id":"4","last_reported":1703171223,"current_range_meters":6400,"station_id":"ce4bhjp2rcd13ifvqg90","pricing_plan_id":"free"},{"bike_id":"fb6021ce-2f75-4b45-9550-53853bc0f086","system_id":"levelo_inurba_marseille","lat":43.261782,"lon":5.374515,"is_reserved":false,"is_disabled":false,"rental_uris":{"android":"levelo://app?vid=fb6021ce-2f75-4b45-9550-53853bc0f086","ios":"levelo://app?vid=fb6021ce-2f75-4b45-9550-53853bc0f086"},"vehicle_type_id":"4","last_reported":1703171223,"current_range_meters":25200,"station_id":"ce4bhgp2rcd13ifvqfc0","pricing_plan_id":"free"},{"bike_id":"2d6427c7-a10a-4b24-b0a5-95d867c65295","system_id":"levelo_inurba_marseille","lat":43.317104,"lon":5.436818,"is_reserved":false,"is_disabled":false,"rental_uris":{"android":"levelo://app?vid=2d6427c7-a10a-4b24-b0a5-95d867c65295","ios":"levelo://app?vid=2d6427c7-a10a-4b24-b0a5-95d867c65295"},"vehicle_type_id":"4","last_reported":1703171223,"current_range_meters":10400,"station_id":"ce4bhp92rcd13ifvqhcg","pricing_plan_id":"free"},{"bike_id":"f9bd8812-361b-4cf8-a08f-c5df49e9a80a","system_id":"levelo_inurba_marseille","lat":43.31713,"lon":5.4371,"is_reserved":false,"is_disabled":false,"rental_uris":{"android":"levelo://app?vid=f9bd8812-361b-4cf8-a08f-c5df49e9a80a","ios":"levelo://app?vid=f9bd8812-361b-4cf8-a08f-c5df49e9a80a"},"vehicle_type_id":"4","last_reported":1703171223,"current_range_meters":19600,"station_id":"ce4bhp92rcd13ifvqhcg","pricing_plan_id":"free"},{"bike_id":"419893e7-347d-42e4-b465-371c4c127f8c","system_id":"levelo_inurba_marseille","lat":43.267959,"lon":5.402685,"is_reserved":false,"is_disabled":false,"rental_uris":{"android":"levelo://app?vid=419893e7-347d-42e4-b465-371c4c127f8c","ios":"levelo://app?vid=419893e7-347d-42e4-b465-371c4c127f8c"},"vehicle_type_id":"4","last_reported":1703171223,"current_range_meters":31600,"station_id":"ce501612rcd8frsf0b60","pricing_plan_id":"free"},{"bike_id":"28defe0b-621a-46c1-83df-bd6df06e56f2","system_id":"levelo_inurba_marseille","lat":43.267959,"lon":5.402685,"is_reserved":false,"is_disabled":false,"rental_uris":{"android":"levelo://app?vid=28defe0b-621a-46c1-83df-bd6df06e56f2","ios":"levelo://app?vid=28defe0b-621a-46c1-83df-bd6df06e56f2"},"vehicle_type_id":"4","last_reported":1703171223,"current_range_meters":14000,"station_id":"ce501612rcd8frsf0b60","pricing_plan_id":"free"},{"bike_id":"3202413b-71e8-4e07-a7d1-fe985060d9d6","system_id":"levelo_inurba_marseille","lat":43.267959,"lon":5.402687,"is_reserved":false,"is_disabled":false,"rental_uris":{"android":"levelo://app?vid=3202413b-71e8-4e07-a7d1-fe985060d9d6","ios":"levelo://app?vid=3202413b-71e8-4e07-a7d1-fe985060d9d6"},"vehicle_type_id":"4","last_reported":1703171223,"current_range_meters":22400,"station_id":"ce501612rcd8frsf0b60","pricing_plan_id":"free"},{"bike_id":"aaa40479-2403-46a7-9cf0-ef7f47482f55","system_id":"levelo_inurba_marseille","lat":43.2651,"lon":5.39469,"is_reserved":false,"is_disabled":false,"rental_uris":{"android":"levelo://app?vid=aaa40479-2403-46a7-9cf0-ef7f47482f55","ios":"levelo://app?vid=aaa40479-2403-46a7-9cf0-ef7f47482f55"},"vehicle_type_id":"4","last_reported":1703171223,"current_range_meters":3200,"station_id":"ce4bhi12rcd13ifvqfq0","pricing_plan_id":"free"},{"bike_id":"86883a94-afe5-444a-a2a3-ae42fdefa096","system_id":"levelo_inurba_marseille","lat":43.260225,"lon":5.375455,"is_reserved":false,"is_disabled":false,"rental_uris":{"android":"levelo://app?vid=86883a94-afe5-444a-a2a3-ae42fdefa096","ios":"levelo://app?vid=86883a94-afe5-444a-a2a3-ae42fdefa096"},"vehicle_type_id":"4","last_reported":1703171223,"current_range_meters":19600,"station_id":"ce4bhgh2rcd13ifvqfa0","pricing_plan_id":"free"},{"bike_id":"2b7af1fb-dafe-42ce-9d9a-e13c5fbf000c","system_id":"levelo_inurba_marseille","lat":43.281548,"lon":5.42643,"is_reserved":false,"is_disabled":false,"rental_uris":{"android":"levelo://app?vid=2b7af1fb-dafe-42ce-9d9a-e13c5fbf000c","ios":"levelo://app?vid=2b7af1fb-dafe-42ce-9d9a-e13c5fbf000c"},"vehicle_type_id":"4","last_reported":1703171223,"current_range_meters":29200,"station_id":"ce4bhnh2rcd13ifvqgug","pricing_plan_id":"free"},{"bike_id":"7942fcd2-247b-4f07-b81d-f3e0e5c73666","system_id":"levelo_inurba_marseille","lat":43.281548,"lon":5.42643,"is_reserved":false,"is_disabled":false,"rental_uris":{"android":"levelo://app?vid=7942fcd2-247b-4f07-b81d-f3e0e5c73666","ios":"levelo://app?vid=7942fcd2-247b-4f07-b81d-f3e0e5c73666"},"vehicle_type_id":"4","last_reported":1703171223,"current_range_meters":31200,"station_id":"ce4bhnh2rcd13ifvqgug","pricing_plan_id":"free"},{"bike_id":"03bd0e35-f036-44fc-bd98-8d95eb89b0a7","system_id":"levelo_inurba_marseille","lat":43.26062,"lon":5.393999,"is_reserved":false,"is_disabled":false,"rental_uris":{"android":"levelo://app?vid=03bd0e35-f036-44fc-bd98-8d95eb89b0a7","ios":"levelo://app?vid=03bd0e35-f036-44fc-bd98-8d95eb89b0a7"},"vehicle_type_id":"4","last_reported":1703171223,"current_range_meters":30400,"station_id":"","pricing_plan_id":"free"},{"bike_id":"522b55ee-8a84-4e2c-ba67-00be95d022db","system_id":"levelo_inurba_marseille","lat":43.2607,"lon":5.393983,"is_reserved":false,"is_disabled":false,"rental_uris":{"android":"levelo://app?vid=522b55ee-8a84-4e2c-ba67-00be95d022db","ios":"levelo://app?vid=522b55ee-8a84-4e2c-ba67-00be95d022db"},"vehicle_type_id":"4","last_reported":1703171223,"current_range_meters":20800,"station_id":"ce4bhh92rcd13ifvqfj0","pricing_plan_id":"free"},{"bike_id":"5e8d1080-56ba-41e4-940d-d5334fff6b8f","system_id":"levelo_inurba_marseille","lat":43.275028,"lon":5.424534,"is_reserved":false,"is_disabled":false,"rental_uris":{"android":"levelo://app?vid=5e8d1080-56ba-41e4-940d-d5334fff6b8f","ios":"levelo://app?vid=5e8d1080-56ba-41e4-940d-d5334fff6b8f"},"vehicle_type_id":"4","last_reported":1703171223,"current_range_meters":800,"station_id":"ce4bhn92rcd13ifvqgrg","pricing_plan_id":"free"},{"bike_id":"b3801637-fb5e-4798-a48e-b0ac31aa16fd","system_id":"levelo_inurba_marseille","lat":43.275028,"lon":5.424534,"is_reserved":false,"is_disabled":false,"rental_uris":{"android":"levelo://app?vid=b3801637-fb5e-4798-a48e-b0ac31aa16fd","ios":"levelo://app?vid=b3801637-fb5e-4798-a48e-b0ac31aa16fd"},"vehicle_type_id":"4","last_reported":1703171223,"current_range_meters":20400,"station_id":"ce4bhn92rcd13ifvqgrg","pricing_plan_id":"free"},{"bike_id":"ca337847-851c-429e-ba13-a619aa4cf5f9","system_id":"levelo_inurba_marseille","lat":43.275028,"lon":5.424534,"is_reserved":false,"is_disabled":false,"rental_uris":{"android":"levelo://app?vid=ca337847-851c-429e-ba13-a619aa4cf5f9","ios":"levelo://app?vid=ca337847-851c-429e-ba13-a619aa4cf5f9"},"vehicle_type_id":"4","last_reported":1703171223,"current_range_meters":15600,"station_id":"ce4bhn92rcd13ifvqgrg","pricing_plan_id":"free"},{"bike_id":"04dd24d8-3655-49a6-9905-8a55a84651f4","system_id":"levelo_inurba_marseille","lat":43.27496,"lon":5.42455,"is_reserved":false,"is_disabled":false,"rental_uris":{"android":"levelo://app?vid=04dd24d8-3655-49a6-9905-8a55a84651f4","ios":"levelo://app?vid=04dd24d8-3655-49a6-9905-8a55a84651f4"},"vehicle_type_id":"4","last_reported":1703171223,"current_range_meters":4800,"station_id":"ce4bhn92rcd13ifvqgrg","pricing_plan_id":"free"},{"bike_id":"4130e873-8028-4aeb-8fab-f9dbb9b29662","system_id":"levelo_inurba_marseille","lat":43.27496,"lon":5.42457,"is_reserved":false,"is_disabled":false,"rental_uris":{"android":"levelo://app?vid=4130e873-8028-4aeb-8fab-f9dbb9b29662","ios":"levelo://app?vid=4130e873-8028-4aeb-8fab-f9dbb9b29662"},"vehicle_type_id":"4","last_reported":1703171223,"current_range_meters":0,"station_id":"ce4bhn92rcd13ifvqgrg","pricing_plan_id":"free"},{"bike_id":"754e6007-bff3-4338-94b0-69d130eb3d14","system_id":"levelo_inurba_marseille","lat":43.2749,"lon":5.42454,"is_reserved":false,"is_disabled":false,"rental_uris":{"android":"levelo://app?vid=754e6007-bff3-4338-94b0-69d130eb3d14","ios":"levelo://app?vid=754e6007-bff3-4338-94b0-69d130eb3d14"},"vehicle_type_id":"4","last_reported":1703171223,"current_range_meters":17600,"station_id":"ce4bhn92rcd13ifvqgrg","pricing_plan_id":"free"},{"bike_id":"71e9edf3-ccec-41d1-b976-6b0cb7123a5a","system_id":"levelo_inurba_marseille","lat":43.275028,"lon":5.424534,"is_reserved":false,"is_disabled":false,"rental_uris":{"android":"levelo://app?vid=71e9edf3-ccec-41d1-b976-6b0cb7123a5a","ios":"levelo://app?vid=71e9edf3-ccec-41d1-b976-6b0cb7123a5a"},"vehicle_type_id":"4","last_reported":1703171223,"current_range_meters":13200,"station_id":"ce4bhn92rcd13ifvqgrg","pricing_plan_id":"free"},{"bike_id":"5d55d735-3e14-4288-9c38-1c6b44b70b09","system_id":"levelo_inurba_marseille","lat":43.255756,"lon":5.382303,"is_reserved":false,"is_disabled":false,"rental_uris":{"android":"levelo://app?vid=5d55d735-3e14-4288-9c38-1c6b44b70b09","ios":"levelo://app?vid=5d55d735-3e14-4288-9c38-1c6b44b70b09"},"vehicle_type_id":"4","last_reported":1703171223,"current_range_meters":26400,"station_id":"ce4bhih2rcd13ifvqfs0","pricing_plan_id":"free"},{"bike_id":"13940b14-c98b-4846-a0f8-ff98e3361d0f","system_id":"levelo_inurba_marseille","lat":43.258224,"lon":5.394369,"is_reserved":false,"is_disabled":false,"rental_uris":{"android":"levelo://app?vid=13940b14-c98b-4846-a0f8-ff98e3361d0f","ios":"levelo://app?vid=13940b14-c98b-4846-a0f8-ff98e3361d0f"},"vehicle_type_id":"4","last_reported":1703171223,"current_range_meters":12800,"station_id":"ce4bhip2rcd13ifvqft0","pricing_plan_id":"free"},{"bike_id":"71de0b4c-0c02-4e86-8349-6038e5ece961","system_id":"levelo_inurba_marseille","lat":43.255756,"lon":5.382303,"is_reserved":false,"is_disabled":false,"rental_uris":{"android":"levelo://app?vid=71de0b4c-0c02-4e86-8349-6038e5ece961","ios":"levelo://app?vid=71de0b4c-0c02-4e86-8349-6038e5ece961"},"vehicle_type_id":"4","last_reported":1703171223,"current_range_meters":19600,"station_id":"ce4bhih2rcd13ifvqfs0","pricing_plan_id":"free"},{"bike_id":"79d6ddb3-ba37-44bf-82a2-5489ff59e6c7","system_id":"levelo_inurba_marseille","lat":43.255756,"lon":5.382303,"is_reserved":false,"is_disabled":false,"rental_uris":{"android":"levelo://app?vid=79d6ddb3-ba37-44bf-82a2-5489ff59e6c7","ios":"levelo://app?vid=79d6ddb3-ba37-44bf-82a2-5489ff59e6c7"},"vehicle_type_id":"4","last_reported":1703171223,"current_range_meters":31200,"station_id":"ce4bhih2rcd13ifvqfs0","pricing_plan_id":"free"},{"bike_id":"0e63af7a-c63e-40dc-8a36-c530c0658fec","system_id":"levelo_inurba_marseille","lat":43.255756,"lon":5.382303,"is_reserved":false,"is_disabled":false,"rental_uris":{"android":"levelo://app?vid=0e63af7a-c63e-40dc-8a36-c530c0658fec","ios":"levelo://app?vid=0e63af7a-c63e-40dc-8a36-c530c0658fec"},"vehicle_type_id":"4","last_reported":1703171223,"current_range_meters":7600,"station_id":"ce4bhih2rcd13ifvqfs0","pricing_plan_id":"free"},{"bike_id":"ebc3ac68-1825-4d95-af5d-fa1cf3744326","system_id":"levelo_inurba_marseille","lat":43.255756,"lon":5.382303,"is_reserved":false,"is_disabled":false,"rental_uris":{"android":"levelo://app?vid=ebc3ac68-1825-4d95-af5d-fa1cf3744326","ios":"levelo://app?vid=ebc3ac68-1825-4d95-af5d-fa1cf3744326"},"vehicle_type_id":"4","last_reported":1703171223,"current_range_meters":19600,"station_id":"ce4bhih2rcd13ifvqfs0","pricing_plan_id":"free"},{"bike_id":"be5fbfec-8170-4a92-9574-2963c654c7c5","system_id":"levelo_inurba_marseille","lat":43.255729,"lon":5.382305,"is_reserved":false,"is_disabled":false,"rental_uris":{"android":"levelo://app?vid=be5fbfec-8170-4a92-9574-2963c654c7c5","ios":"levelo://app?vid=be5fbfec-8170-4a92-9574-2963c654c7c5"},"vehicle_type_id":"4","last_reported":1703171223,"current_range_meters":19200,"station_id":"ce4bhih2rcd13ifvqfs0","pricing_plan_id":"free"},{"bike_id":"77180e4b-b393-44b3-84e3-771a3a113129","system_id":"levelo_inurba_marseille","lat":43.255716,"lon":5.382331,"is_reserved":false,"is_disabled":false,"rental_uris":{"android":"levelo://app?vid=77180e4b-b393-44b3-84e3-771a3a113129","ios":"levelo://app?vid=77180e4b-b393-44b3-84e3-771a3a113129"},"vehicle_type_id":"4","last_reported":1703171223,"current_range_meters":9200,"station_id":"ce4bhih2rcd13ifvqfs0","pricing_plan_id":"free"},{"bike_id":"f327e107-9afa-4627-9c71-48a52c45eae8","system_id":"levelo_inurba_marseille","lat":43.255756,"lon":5.382303,"is_reserved":false,"is_disabled":false,"rental_uris":{"android":"levelo://app?vid=f327e107-9afa-4627-9c71-48a52c45eae8","ios":"levelo://app?vid=f327e107-9afa-4627-9c71-48a52c45eae8"},"vehicle_type_id":"4","last_reported":1703171223,"current_range_meters":18000,"station_id":"ce4bhih2rcd13ifvqfs0","pricing_plan_id":"free"},{"bike_id":"5f66d037-d350-439c-afd7-21db42d67c2f","system_id":"levelo_inurba_marseille","lat":43.270721,"lon":5.422764,"is_reserved":false,"is_disabled":false,"rental_uris":{"android":"levelo://app?vid=5f66d037-d350-439c-afd7-21db42d67c2f","ios":"levelo://app?vid=5f66d037-d350-439c-afd7-21db42d67c2f"},"vehicle_type_id":"4","last_reported":1703171223,"current_range_meters":29200,"station_id":"ce4bhk92rcd13ifvqgb0","pricing_plan_id":"free"},{"bike_id":"689f7273-bfd6-40db-bce3-fefac1b6e1e5","system_id":"levelo_inurba_marseille","lat":43.258658,"lon":5.398935,"is_reserved":false,"is_disabled":false,"rental_uris":{"android":"levelo://app?vid=689f7273-bfd6-40db-bce3-fefac1b6e1e5","ios":"levelo://app?vid=689f7273-bfd6-40db-bce3-fefac1b6e1e5"},"vehicle_type_id":"4","last_reported":1703171223,"current_range_meters":28000,"station_id":"ce4bhl92rcd13ifvqghg","pricing_plan_id":"free"},{"bike_id":"7c89df0e-29f1-4615-bb8b-d66b6936aae4","system_id":"levelo_inurba_marseille","lat":43.258658,"lon":5.398935,"is_reserved":false,"is_disabled":false,"rental_uris":{"android":"levelo://app?vid=7c89df0e-29f1-4615-bb8b-d66b6936aae4","ios":"levelo://app?vid=7c89df0e-29f1-4615-bb8b-d66b6936aae4"},"vehicle_type_id":"4","last_reported":1703171223,"current_range_meters":18000,"station_id":"ce4bhl92rcd13ifvqghg","pricing_plan_id":"free"},{"bike_id":"c1695179-9ed1-438e-a12a-2a10b8d51038","system_id":"levelo_inurba_marseille","lat":43.258658,"lon":5.398935,"is_reserved":false,"is_disabled":false,"rental_uris":{"android":"levelo://app?vid=c1695179-9ed1-438e-a12a-2a10b8d51038","ios":"levelo://app?vid=c1695179-9ed1-438e-a12a-2a10b8d51038"},"vehicle_type_id":"4","last_reported":1703171223,"current_range_meters":24000,"station_id":"ce4bhl92rcd13ifvqghg","pricing_plan_id":"free"},{"bike_id":"f5579e48-e59b-4c8a-96e8-f294d9393545","system_id":"levelo_inurba_marseille","lat":43.258597,"lon":5.398934,"is_reserved":false,"is_disabled":false,"rental_uris":{"android":"levelo://app?vid=f5579e48-e59b-4c8a-96e8-f294d9393545","ios":"levelo://app?vid=f5579e48-e59b-4c8a-96e8-f294d9393545"},"vehicle_type_id":"4","last_reported":1703171223,"current_range_meters":7200,"station_id":"ce4bh9p2rcd13ifvqec0","pricing_plan_id":"free"},{"bike_id":"a33c0b56-5a19-4ea4-80d1-986c758092e0","system_id":"levelo_inurba_marseille","lat":43.257079,"lon":5.411051,"is_reserved":false,"is_disabled":false,"rental_uris":{"android":"levelo://app?vid=a33c0b56-5a19-4ea4-80d1-986c758092e0","ios":"levelo://app?vid=a33c0b56-5a19-4ea4-80d1-986c758092e0"},"vehicle_type_id":"4","last_reported":1703171223,"current_range_meters":20000,"station_id":"ce4bhkp2rcd13ifvqgd0","pricing_plan_id":"free"},{"bike_id":"a5b77b93-f538-44b3-a8ee-8d6067f5e7ed","system_id":"levelo_inurba_marseille","lat":43.259009,"lon":5.40929,"is_reserved":false,"is_disabled":false,"rental_uris":{"android":"levelo://app?vid=a5b77b93-f538-44b3-a8ee-8d6067f5e7ed","ios":"levelo://app?vid=a5b77b93-f538-44b3-a8ee-8d6067f5e7ed"},"vehicle_type_id":"4","last_reported":1703171223,"current_range_meters":22800,"station_id":"ce4bhm92rcd13ifvqglg","pricing_plan_id":"free"},{"bike_id":"60729c67-586d-43b9-9f36-6a0621d18a4c","system_id":"levelo_inurba_marseille","lat":43.257079,"lon":5.411051,"is_reserved":false,"is_disabled":false,"rental_uris":{"android":"levelo://app?vid=60729c67-586d-43b9-9f36-6a0621d18a4c","ios":"levelo://app?vid=60729c67-586d-43b9-9f36-6a0621d18a4c"},"vehicle_type_id":"4","last_reported":1703171223,"current_range_meters":24000,"station_id":"ce4bhkp2rcd13ifvqgd0","pricing_plan_id":"free"},{"bike_id":"75311a16-d31f-4ac4-9a44-37c67765a0fb","system_id":"levelo_inurba_marseille","lat":43.257079,"lon":5.411051,"is_reserved":false,"is_disabled":false,"rental_uris":{"android":"levelo://app?vid=75311a16-d31f-4ac4-9a44-37c67765a0fb","ios":"levelo://app?vid=75311a16-d31f-4ac4-9a44-37c67765a0fb"},"vehicle_type_id":"4","last_reported":1703171223,"current_range_meters":22800,"station_id":"ce4bhkp2rcd13ifvqgd0","pricing_plan_id":"free"},{"bike_id":"f1a3a025-8822-4512-9f2e-0fe6f7a64ea1","system_id":"levelo_inurba_marseille","lat":43.257079,"lon":5.411051,"is_reserved":false,"is_disabled":false,"rental_uris":{"android":"levelo://app?vid=f1a3a025-8822-4512-9f2e-0fe6f7a64ea1","ios":"levelo://app?vid=f1a3a025-8822-4512-9f2e-0fe6f7a64ea1"},"vehicle_type_id":"4","last_reported":1703171223,"current_range_meters":31200,"station_id":"ce4bhkp2rcd13ifvqgd0","pricing_plan_id":"free"},{"bike_id":"aa378516-5201-41f7-a9a4-e47f5c7bcfb9","system_id":"levelo_inurba_marseille","lat":43.257079,"lon":5.411051,"is_reserved":false,"is_disabled":false,"rental_uris":{"android":"levelo://app?vid=aa378516-5201-41f7-a9a4-e47f5c7bcfb9","ios":"levelo://app?vid=aa378516-5201-41f7-a9a4-e47f5c7bcfb9"},"vehicle_type_id":"4","last_reported":1703171223,"current_range_meters":30000,"station_id":"ce4bhkp2rcd13ifvqgd0","pricing_plan_id":"free"},{"bike_id":"afb5a658-73d4-4865-ad9f-2950cbaa3394","system_id":"levelo_inurba_marseille","lat":43.2479,"lon":5.374457,"is_reserved":false,"is_disabled":false,"rental_uris":{"android":"levelo://app?vid=afb5a658-73d4-4865-ad9f-2950cbaa3394","ios":"levelo://app?vid=afb5a658-73d4-4865-ad9f-2950cbaa3394"},"vehicle_type_id":"4","last_reported":1703171223,"current_range_meters":16000,"station_id":"ce4bhgh2rcd13ifvqfb0","pricing_plan_id":"free"},{"bike_id":"1249bdd4-2018-4871-b174-d48b5e2283a1","system_id":"levelo_inurba_marseille","lat":43.250966,"lon":5.395186,"is_reserved":false,"is_disabled":false,"rental_uris":{"android":"levelo://app?vid=1249bdd4-2018-4871-b174-d48b5e2283a1","ios":"levelo://app?vid=1249bdd4-2018-4871-b174-d48b5e2283a1"},"vehicle_type_id":"4","last_reported":1703171223,"current_range_meters":7200,"station_id":"ce4bhm12rcd13ifvqgkg","pricing_plan_id":"free"},{"bike_id":"0a3f26e1-5817-4630-97f1-184415ad8649","system_id":"levelo_inurba_marseille","lat":43.25006,"lon":5.38926,"is_reserved":false,"is_disabled":false,"rental_uris":{"android":"levelo://app?vid=0a3f26e1-5817-4630-97f1-184415ad8649","ios":"levelo://app?vid=0a3f26e1-5817-4630-97f1-184415ad8649"},"vehicle_type_id":"4","last_reported":1703171223,"current_range_meters":14400,"station_id":"ce4bhgp2rcd13ifvqfd0","pricing_plan_id":"free"},{"bike_id":"43dbae7a-7da5-4ea5-89f8-50e8c0ff1b9d","system_id":"levelo_inurba_marseille","lat":43.2479,"lon":5.374457,"is_reserved":false,"is_disabled":false,"rental_uris":{"android":"levelo://app?vid=43dbae7a-7da5-4ea5-89f8-50e8c0ff1b9d","ios":"levelo://app?vid=43dbae7a-7da5-4ea5-89f8-50e8c0ff1b9d"},"vehicle_type_id":"4","last_reported":1703171223,"current_range_meters":10400,"station_id":"ce4bhgh2rcd13ifvqfb0","pricing_plan_id":"free"},{"bike_id":"eedcacb9-1df1-4322-b81a-7a8e8caf28ee","system_id":"levelo_inurba_marseille","lat":43.2479,"lon":5.374457,"is_reserved":false,"is_disabled":false,"rental_uris":{"android":"levelo://app?vid=eedcacb9-1df1-4322-b81a-7a8e8caf28ee","ios":"levelo://app?vid=eedcacb9-1df1-4322-b81a-7a8e8caf28ee"},"vehicle_type_id":"4","last_reported":1703171223,"current_range_meters":20000,"station_id":"ce4bhgh2rcd13ifvqfb0","pricing_plan_id":"free"},{"bike_id":"538b4ca7-5efe-4631-84b0-04975d03eb57","system_id":"levelo_inurba_marseille","lat":43.248042,"lon":5.374516,"is_reserved":false,"is_disabled":false,"rental_uris":{"android":"levelo://app?vid=538b4ca7-5efe-4631-84b0-04975d03eb57","ios":"levelo://app?vid=538b4ca7-5efe-4631-84b0-04975d03eb57"},"vehicle_type_id":"4","last_reported":1703171223,"current_range_meters":12000,"station_id":"","pricing_plan_id":"free"},{"bike_id":"caf667f9-6a72-46ab-9f57-9d8cb007530f","system_id":"levelo_inurba_marseille","lat":43.2479,"lon":5.374457,"is_reserved":false,"is_disabled":false,"rental_uris":{"android":"levelo://app?vid=caf667f9-6a72-46ab-9f57-9d8cb007530f","ios":"levelo://app?vid=caf667f9-6a72-46ab-9f57-9d8cb007530f"},"vehicle_type_id":"4","last_reported":1703171223,"current_range_meters":6400,"station_id":"ce4bhgh2rcd13ifvqfb0","pricing_plan_id":"free"},{"bike_id":"b76f2308-ff7c-491d-b3d5-9e7fae72b9c9","system_id":"levelo_inurba_marseille","lat":43.2479,"lon":5.374457,"is_reserved":false,"is_disabled":false,"rental_uris":{"android":"levelo://app?vid=b76f2308-ff7c-491d-b3d5-9e7fae72b9c9","ios":"levelo://app?vid=b76f2308-ff7c-491d-b3d5-9e7fae72b9c9"},"vehicle_type_id":"4","last_reported":1703171223,"current_range_meters":31200,"station_id":"ce4bhgh2rcd13ifvqfb0","pricing_plan_id":"free"},{"bike_id":"c5114f26-15ad-474f-8973-ab438e1d8b69","system_id":"levelo_inurba_marseille","lat":43.250893,"lon":5.395133,"is_reserved":false,"is_disabled":false,"rental_uris":{"android":"levelo://app?vid=c5114f26-15ad-474f-8973-ab438e1d8b69","ios":"levelo://app?vid=c5114f26-15ad-474f-8973-ab438e1d8b69"},"vehicle_type_id":"4","last_reported":1703171223,"current_range_meters":18800,"station_id":"","pricing_plan_id":"free"},{"bike_id":"517650b0-0283-4d54-9f01-f5c28b86f4a7","system_id":"levelo_inurba_marseille","lat":43.24693,"lon":5.382096,"is_reserved":false,"is_disabled":false,"rental_uris":{"android":"levelo://app?vid=517650b0-0283-4d54-9f01-f5c28b86f4a7","ios":"levelo://app?vid=517650b0-0283-4d54-9f01-f5c28b86f4a7"},"vehicle_type_id":"4","last_reported":1703171223,"current_range_meters":13200,"station_id":"ce4bhih2rcd13ifvqfr0","pricing_plan_id":"free"},{"bike_id":"03c5dc36-aafa-4910-8c1b-84792869a4ab","system_id":"levelo_inurba_marseille","lat":43.24693,"lon":5.382096,"is_reserved":false,"is_disabled":false,"rental_uris":{"android":"levelo://app?vid=03c5dc36-aafa-4910-8c1b-84792869a4ab","ios":"levelo://app?vid=03c5dc36-aafa-4910-8c1b-84792869a4ab"},"vehicle_type_id":"4","last_reported":1703171223,"current_range_meters":22000,"station_id":"ce4bhih2rcd13ifvqfr0","pricing_plan_id":"free"},{"bike_id":"3d17521f-a00e-44dc-b03b-5c0f9efd7c2f","system_id":"levelo_inurba_marseille","lat":43.246461,"lon":5.389014,"is_reserved":false,"is_disabled":false,"rental_uris":{"android":"levelo://app?vid=3d17521f-a00e-44dc-b03b-5c0f9efd7c2f","ios":"levelo://app?vid=3d17521f-a00e-44dc-b03b-5c0f9efd7c2f"},"vehicle_type_id":"4","last_reported":1703171223,"current_range_meters":12000,"station_id":"ce4bhg12rcd13ifvqf60","pricing_plan_id":"free"},{"bike_id":"3db1b4bb-ae3e-4425-89c0-ec93799abde4","system_id":"levelo_inurba_marseille","lat":43.246467,"lon":5.388984,"is_reserved":false,"is_disabled":false,"rental_uris":{"android":"levelo://app?vid=3db1b4bb-ae3e-4425-89c0-ec93799abde4","ios":"levelo://app?vid=3db1b4bb-ae3e-4425-89c0-ec93799abde4"},"vehicle_type_id":"4","last_reported":1703171223,"current_range_meters":26800,"station_id":"ce4bhg12rcd13ifvqf60","pricing_plan_id":"free"},{"bike_id":"e59ae55e-07d7-43bb-b6c4-c144d34050ee","system_id":"levelo_inurba_marseille","lat":43.246467,"lon":5.388984,"is_reserved":false,"is_disabled":false,"rental_uris":{"android":"levelo://app?vid=e59ae55e-07d7-43bb-b6c4-c144d34050ee","ios":"levelo://app?vid=e59ae55e-07d7-43bb-b6c4-c144d34050ee"},"vehicle_type_id":"4","last_reported":1703171223,"current_range_meters":5200,"station_id":"ce4bhg12rcd13ifvqf60","pricing_plan_id":"free"},{"bike_id":"c3d1ae78-db96-4db7-b3cf-1f5fefc7164a","system_id":"levelo_inurba_marseille","lat":43.240623,"lon":5.377642,"is_reserved":false,"is_disabled":false,"rental_uris":{"android":"levelo://app?vid=c3d1ae78-db96-4db7-b3cf-1f5fefc7164a","ios":"levelo://app?vid=c3d1ae78-db96-4db7-b3cf-1f5fefc7164a"},"vehicle_type_id":"4","last_reported":1703171223,"current_range_meters":18400,"station_id":"ce4bhnp2rcd13ifvqgvg","pricing_plan_id":"free"},{"bike_id":"3c9770fe-51a8-43bf-967e-48a9bf22c99e","system_id":"levelo_inurba_marseille","lat":43.243894,"lon":5.37059,"is_reserved":false,"is_disabled":false,"rental_uris":{"android":"levelo://app?vid=3c9770fe-51a8-43bf-967e-48a9bf22c99e","ios":"levelo://app?vid=3c9770fe-51a8-43bf-967e-48a9bf22c99e"},"vehicle_type_id":"4","last_reported":1703171223,"current_range_meters":13600,"station_id":"ce4bhhh2rcd13ifvqfk0","pricing_plan_id":"free"},{"bike_id":"fba3d90b-dce2-43db-99fb-7a830d45e834","system_id":"levelo_inurba_marseille","lat":43.24388,"lon":5.3706,"is_reserved":false,"is_disabled":false,"rental_uris":{"android":"levelo://app?vid=fba3d90b-dce2-43db-99fb-7a830d45e834","ios":"levelo://app?vid=fba3d90b-dce2-43db-99fb-7a830d45e834"},"vehicle_type_id":"4","last_reported":1703171223,"current_range_meters":22800,"station_id":"ce4bhhh2rcd13ifvqfk0","pricing_plan_id":"free"},{"bike_id":"1bfcac9d-2215-418b-bbe2-36a818e7c301","system_id":"levelo_inurba_marseille","lat":43.24386,"lon":5.3706,"is_reserved":false,"is_disabled":false,"rental_uris":{"android":"levelo://app?vid=1bfcac9d-2215-418b-bbe2-36a818e7c301","ios":"levelo://app?vid=1bfcac9d-2215-418b-bbe2-36a818e7c301"},"vehicle_type_id":"4","last_reported":1703171223,"current_range_meters":14400,"station_id":"ce4bhhh2rcd13ifvqfk0","pricing_plan_id":"free"},{"bike_id":"5d2cb6c3-4cd7-4310-a384-291ea7f5d830","system_id":"levelo_inurba_marseille","lat":43.24385,"lon":5.37062,"is_reserved":false,"is_disabled":false,"rental_uris":{"android":"levelo://app?vid=5d2cb6c3-4cd7-4310-a384-291ea7f5d830","ios":"levelo://app?vid=5d2cb6c3-4cd7-4310-a384-291ea7f5d830"},"vehicle_type_id":"4","last_reported":1703171223,"current_range_meters":8800,"station_id":"ce4bhhh2rcd13ifvqfk0","pricing_plan_id":"free"},{"bike_id":"c236a2f3-3236-47b3-8a5b-c56b5f57200a","system_id":"levelo_inurba_marseille","lat":43.24077,"lon":5.37763,"is_reserved":false,"is_disabled":false,"rental_uris":{"android":"levelo://app?vid=c236a2f3-3236-47b3-8a5b-c56b5f57200a","ios":"levelo://app?vid=c236a2f3-3236-47b3-8a5b-c56b5f57200a"},"vehicle_type_id":"4","last_reported":1703171223,"current_range_meters":13600,"station_id":"ce4bhnp2rcd13ifvqgvg","pricing_plan_id":"free"},{"bike_id":"cc8ce109-d875-4d9c-a893-1c29282907b1","system_id":"levelo_inurba_marseille","lat":43.240623,"lon":5.377642,"is_reserved":false,"is_disabled":false,"rental_uris":{"android":"levelo://app?vid=cc8ce109-d875-4d9c-a893-1c29282907b1","ios":"levelo://app?vid=cc8ce109-d875-4d9c-a893-1c29282907b1"},"vehicle_type_id":"4","last_reported":1703171223,"current_range_meters":21200,"station_id":"ce4bhnp2rcd13ifvqgvg","pricing_plan_id":"free"},{"bike_id":"4c1f5194-f6de-4f40-9815-c7edd80b6a0b","system_id":"levelo_inurba_marseille","lat":43.240623,"lon":5.377642,"is_reserved":false,"is_disabled":false,"rental_uris":{"android":"levelo://app?vid=4c1f5194-f6de-4f40-9815-c7edd80b6a0b","ios":"levelo://app?vid=4c1f5194-f6de-4f40-9815-c7edd80b6a0b"},"vehicle_type_id":"4","last_reported":1703171223,"current_range_meters":12000,"station_id":"ce4bhnp2rcd13ifvqgvg","pricing_plan_id":"free"},{"bike_id":"fed557d3-d6b9-4a21-a05b-7dabdcf2f868","system_id":"levelo_inurba_marseille","lat":43.240623,"lon":5.377642,"is_reserved":false,"is_disabled":false,"rental_uris":{"android":"levelo://app?vid=fed557d3-d6b9-4a21-a05b-7dabdcf2f868","ios":"levelo://app?vid=fed557d3-d6b9-4a21-a05b-7dabdcf2f868"},"vehicle_type_id":"4","last_reported":1703171223,"current_range_meters":20800,"station_id":"ce4bhnp2rcd13ifvqgvg","pricing_plan_id":"free"},{"bike_id":"a05650ea-0d6c-45d2-bdd7-033e149e27b3","system_id":"levelo_inurba_marseille","lat":43.24073,"lon":5.37759,"is_reserved":false,"is_disabled":false,"rental_uris":{"android":"levelo://app?vid=a05650ea-0d6c-45d2-bdd7-033e149e27b3","ios":"levelo://app?vid=a05650ea-0d6c-45d2-bdd7-033e149e27b3"},"vehicle_type_id":"4","last_reported":1703171223,"current_range_meters":8400,"station_id":"ce4bhnp2rcd13ifvqgvg","pricing_plan_id":"free"},{"bike_id":"776467f4-ca23-4b04-89d4-7f2ed46e2ef6","system_id":"levelo_inurba_marseille","lat":43.240623,"lon":5.377642,"is_reserved":false,"is_disabled":false,"rental_uris":{"android":"levelo://app?vid=776467f4-ca23-4b04-89d4-7f2ed46e2ef6","ios":"levelo://app?vid=776467f4-ca23-4b04-89d4-7f2ed46e2ef6"},"vehicle_type_id":"4","last_reported":1703171223,"current_range_meters":22000,"station_id":"ce4bhnp2rcd13ifvqgvg","pricing_plan_id":"free"},{"bike_id":"82d3c393-a50f-49c0-860e-95d978686341","system_id":"levelo_inurba_marseille","lat":43.24072,"lon":5.37763,"is_reserved":false,"is_disabled":false,"rental_uris":{"android":"levelo://app?vid=82d3c393-a50f-49c0-860e-95d978686341","ios":"levelo://app?vid=82d3c393-a50f-49c0-860e-95d978686341"},"vehicle_type_id":"4","last_reported":1703171223,"current_range_meters":0,"station_id":"ce4bhnp2rcd13ifvqgvg","pricing_plan_id":"free"},{"bike_id":"60a79906-5fc0-4d82-8fdb-22e0ee074b62","system_id":"levelo_inurba_marseille","lat":43.24071,"lon":5.37758,"is_reserved":false,"is_disabled":false,"rental_uris":{"android":"levelo://app?vid=60a79906-5fc0-4d82-8fdb-22e0ee074b62","ios":"levelo://app?vid=60a79906-5fc0-4d82-8fdb-22e0ee074b62"},"vehicle_type_id":"4","last_reported":1703171223,"current_range_meters":0,"station_id":"ce4bhnp2rcd13ifvqgvg","pricing_plan_id":"free"},{"bike_id":"b5fd0abb-fb34-44a6-be14-edf63e515c85","system_id":"levelo_inurba_marseille","lat":43.24068,"lon":5.37768,"is_reserved":false,"is_disabled":false,"rental_uris":{"android":"levelo://app?vid=b5fd0abb-fb34-44a6-be14-edf63e515c85","ios":"levelo://app?vid=b5fd0abb-fb34-44a6-be14-edf63e515c85"},"vehicle_type_id":"4","last_reported":1703171223,"current_range_meters":7200,"station_id":"ce4bhnp2rcd13ifvqgvg","pricing_plan_id":"free"},{"bike_id":"a3bd6cfc-7e3d-4e11-9d51-0716c36eecdd","system_id":"levelo_inurba_marseille","lat":43.240623,"lon":5.377642,"is_reserved":false,"is_disabled":false,"rental_uris":{"android":"levelo://app?vid=a3bd6cfc-7e3d-4e11-9d51-0716c36eecdd","ios":"levelo://app?vid=a3bd6cfc-7e3d-4e11-9d51-0716c36eecdd"},"vehicle_type_id":"4","last_reported":1703171223,"current_range_meters":8000,"station_id":"ce4bhnp2rcd13ifvqgvg","pricing_plan_id":"free"},{"bike_id":"979e2426-508b-4ab9-8315-d1fb133bcc02","system_id":"levelo_inurba_marseille","lat":43.239588,"lon":5.366238,"is_reserved":false,"is_disabled":false,"rental_uris":{"android":"levelo://app?vid=979e2426-508b-4ab9-8315-d1fb133bcc02","ios":"levelo://app?vid=979e2426-508b-4ab9-8315-d1fb133bcc02"},"vehicle_type_id":"4","last_reported":1703171223,"current_range_meters":15600,"station_id":"ce4bhi12rcd13ifvqfp0","pricing_plan_id":"free"},{"bike_id":"0d524130-22ff-4d6f-b145-20680ab4e2a4","system_id":"levelo_inurba_marseille","lat":43.239588,"lon":5.366238,"is_reserved":false,"is_disabled":false,"rental_uris":{"android":"levelo://app?vid=0d524130-22ff-4d6f-b145-20680ab4e2a4","ios":"levelo://app?vid=0d524130-22ff-4d6f-b145-20680ab4e2a4"},"vehicle_type_id":"4","last_reported":1703171223,"current_range_meters":17200,"station_id":"ce4bhi12rcd13ifvqfp0","pricing_plan_id":"free"},{"bike_id":"77c78ac9-82c0-4b01-851d-c857c1805538","system_id":"levelo_inurba_marseille","lat":43.239588,"lon":5.366238,"is_reserved":false,"is_disabled":false,"rental_uris":{"android":"levelo://app?vid=77c78ac9-82c0-4b01-851d-c857c1805538","ios":"levelo://app?vid=77c78ac9-82c0-4b01-851d-c857c1805538"},"vehicle_type_id":"4","last_reported":1703171223,"current_range_meters":24800,"station_id":"ce4bhi12rcd13ifvqfp0","pricing_plan_id":"free"},{"bike_id":"217027ab-901e-4878-8a1d-1ce4e83159b7","system_id":"levelo_inurba_marseille","lat":43.23963,"lon":5.366171,"is_reserved":false,"is_disabled":false,"rental_uris":{"android":"levelo://app?vid=217027ab-901e-4878-8a1d-1ce4e83159b7","ios":"levelo://app?vid=217027ab-901e-4878-8a1d-1ce4e83159b7"},"vehicle_type_id":"4","last_reported":1703171223,"current_range_meters":15600,"station_id":"","pricing_plan_id":"free"},{"bike_id":"2ddc64da-9bd3-471d-85bf-9c00908f76a1","system_id":"levelo_inurba_marseille","lat":43.239588,"lon":5.366238,"is_reserved":false,"is_disabled":false,"rental_uris":{"android":"levelo://app?vid=2ddc64da-9bd3-471d-85bf-9c00908f76a1","ios":"levelo://app?vid=2ddc64da-9bd3-471d-85bf-9c00908f76a1"},"vehicle_type_id":"4","last_reported":1703171223,"current_range_meters":20800,"station_id":"ce4bhi12rcd13ifvqfp0","pricing_plan_id":"free"},{"bike_id":"ef821218-cc53-40af-9d7d-424199f5b810","system_id":"levelo_inurba_marseille","lat":43.239588,"lon":5.366238,"is_reserved":false,"is_disabled":false,"rental_uris":{"android":"levelo://app?vid=ef821218-cc53-40af-9d7d-424199f5b810","ios":"levelo://app?vid=ef821218-cc53-40af-9d7d-424199f5b810"},