{"last_updated":1768829847,"ttl":60,"version":"2.2","data":{"bikes":[{"bike_id":"7a3d6bfa-2a17-45dc-9bc6-21ef2b67d4a5","system_id":"levelo_inurba_marseille","lat":43.31402,"lon":5.37494,"is_reserved":false,"is_disabled":false,"rental_uris":{"android":"levelo://app?vid=7a3d6bfa-2a17-45dc-9bc6-21ef2b67d4a5","ios":"levelo://app?vid=7a3d6bfa-2a17-45dc-9bc6-21ef2b67d4a5"},"vehicle_type_id":"4","last_reported":1768829847,"current_range_meters":2800,"station_id":"","pricing_plan_id":"cebpf4jnsgd1na2vs0mg"},{"bike_id":"2a16390f-303a-40d0-98fe-18b93fdcc3be","system_id":"levelo_inurba_marseille","lat":43.30301,"lon":5.37691,"is_reserved":false,"is_disabled":false,"rental_uris":{"android":"levelo://app?vid=2a16390f-303a-40d0-98fe-18b93fdcc3be","ios":"levelo://app?vid=2a16390f-303a-40d0-98fe-18b93fdcc3be"},"vehicle_type_id":"4","last_reported":1768829847,"current_range_meters":2800,"station_id":"ce4bguh2rcd13ifvqcj0","pricing_plan_id":"cebpf4jnsgd1na2vs0mg"},{"bike_id":"b15a200c-4270-4438-9bda-4c258de9a3fb","system_id":"levelo_inurba_marseille","lat":43.28711,"lon":5.37864,"is_reserved":false,"is_disabled":false,"rental_uris":{"android":"levelo://app?vid=b15a200c-4270-4438-9bda-4c258de9a3fb","ios":"levelo://app?vid=b15a200c-4270-4438-9bda-4c258de9a3fb"},"vehicle_type_id":"4","last_reported":1768829847,"current_range_meters":2800,"station_id":"ce4bh9p2rcd13ifvqec0","pricing_plan_id":"cebpf4jnsgd1na2vs0mg"},{"bike_id":"3fa3a837-e35f-4cb0-b5f8-a6ae5f15ceb5","system_id":"levelo_inurba_marseille","lat":43.27058,"lon":5.38309,"is_reserved":false,"is_disabled":false,"rental_uris":{"android":"levelo://app?vid=3fa3a837-e35f-4cb0-b5f8-a6ae5f15ceb5","ios":"levelo://app?vid=3fa3a837-e35f-4cb0-b5f8-a6ae5f15ceb5"},"vehicle_type_id":"4","last_reported":1768829847,"current_range_meters":2800,"station_id":"st_d3n2fo6cfp8s73cte1j0","pricing_plan_id":"cebpf4jnsgd1na2vs0mg"},{"bike_id":"a342693c-b94f-4e25-bd3a-7a58f058cfaf","system_id":"levelo_inurba_marseille","lat":43.2408,"lon":5.37718,"is_reserved":false,"is_disabled":false,"rental_uris":{"android":"levelo://app?vid=a342693c-b94f-4e25-bd3a-7a58f058cfaf","ios":"levelo://app?vid=a342693c-b94f-4e25-bd3a-7a58f058cfaf"},"vehicle_type_id":"4","last_reported":1768829847,"current_range_meters":2800,"station_id":"ce4bhnp2rcd13ifvqgvg","pricing_plan_id":"cebpf4jnsgd1na2vs0mg"},{"bike_id":"a84ea682-0237-4e7b-acbc-f08da3929f4e","system_id":"levelo_inurba_marseille","lat":43.24059,"lon":5.37716,"is_reserved":false,"is_disabled":false,"rental_uris":{"android":"levelo://app?vid=a84ea682-0237-4e7b-acbc-f08da3929f4e","ios":"levelo://app?vid=a84ea682-0237-4e7b-acbc-f08da3929f4e"},"vehicle_type_id":"4","last_reported":1768829847,"current_range_meters":2800,"station_id":"ce4bhnp2rcd13ifvqgvg","pricing_plan_id":"cebpf4jnsgd1na2vs0mg"},{"bike_id":"295b7637-50fc-408f-933b-54632a076cab","system_id":"levelo_inurba_marseille","lat":43.284725,"lon":5.384184,"is_reserved":false,"is_disabled":false,"rental_uris":{"android":"levelo://app?vid=295b7637-50fc-408f-933b-54632a076cab","ios":"levelo://app?vid=295b7637-50fc-408f-933b-54632a076cab"},"vehicle_type_id":"4","last_reported":1768829847,"current_range_meters":3200,"station_id":"","pricing_plan_id":"cebpf4jnsgd1na2vs0mg"},{"bike_id":"4d57c879-6d5d-4c97-ab51-f9c4883e5bb2","system_id":"levelo_inurba_marseille","lat":43.24395,"lon":5.37075,"is_reserved":false,"is_disabled":false,"rental_uris":{"android":"levelo://app?vid=4d57c879-6d5d-4c97-ab51-f9c4883e5bb2","ios":"levelo://app?vid=4d57c879-6d5d-4c97-ab51-f9c4883e5bb2"},"vehicle_type_id":"4","last_reported":1768829847,"current_range_meters":3200,"station_id":"ce4bhhh2rcd13ifvqfk0","pricing_plan_id":"cebpf4jnsgd1na2vs0mg"},{"bike_id":"cf6cf1ef-aa37-4729-aa27-a12ea3577227","system_id":"levelo_inurba_marseille","lat":43.30283,"lon":5.37712,"is_reserved":false,"is_disabled":false,"rental_uris":{"android":"levelo://app?vid=cf6cf1ef-aa37-4729-aa27-a12ea3577227","ios":"levelo://app?vid=cf6cf1ef-aa37-4729-aa27-a12ea3577227"},"vehicle_type_id":"4","last_reported":1768829847,"current_range_meters":3200,"station_id":"ce4bguh2rcd13ifvqcj0","pricing_plan_id":"cebpf4jnsgd1na2vs0mg"},{"bike_id":"fac5b6df-9a47-4e46-be53-c56df5ec2b27","system_id":"levelo_inurba_marseille","lat":43.225563,"lon":5.416261,"is_reserved":false,"is_disabled":true,"rental_uris":{"android":"levelo://app?vid=fac5b6df-9a47-4e46-be53-c56df5ec2b27","ios":"levelo://app?vid=fac5b6df-9a47-4e46-be53-c56df5ec2b27"},"vehicle_type_id":"4","last_reported":1768829847,"current_range_meters":3200,"station_id":"st_d2o4gvlbi1j2169b742g","pricing_plan_id":"cebpf4jnsgd1na2vs0mg"},{"bike_id":"ca28744b-9d9c-4bce-bd57-6521a0415ccc","system_id":"levelo_inurba_marseille","lat":43.26505,"lon":5.3957,"is_reserved":false,"is_disabled":false,"rental_uris":{"android":"levelo://app?vid=ca28744b-9d9c-4bce-bd57-6521a0415ccc","ios":"levelo://app?vid=ca28744b-9d9c-4bce-bd57-6521a0415ccc"},"vehicle_type_id":"4","last_reported":1768829847,"current_range_meters":3200,"station_id":"ce4bhi12rcd13ifvqfq0","pricing_plan_id":"cebpf4jnsgd1na2vs0mg"},{"bike_id":"4adc3fa4-2077-447e-b0ea-2249d03c6de8","system_id":"levelo_inurba_marseille","lat":43.2415,"lon":5.39722,"is_reserved":false,"is_disabled":false,"rental_uris":{"android":"levelo://app?vid=4adc3fa4-2077-447e-b0ea-2249d03c6de8","ios":"levelo://app?vid=4adc3fa4-2077-447e-b0ea-2249d03c6de8"},"vehicle_type_id":"4","last_reported":1768829847,"current_range_meters":3600,"station_id":"ce4bhn12rcd13ifvqgpg","pricing_plan_id":"cebpf4jnsgd1na2vs0mg"},{"bike_id":"0217887a-8c5b-44bd-a806-474e51ffaf08","system_id":"levelo_inurba_marseille","lat":43.27993,"lon":5.41664,"is_reserved":false,"is_disabled":false,"rental_uris":{"android":"levelo://app?vid=0217887a-8c5b-44bd-a806-474e51ffaf08","ios":"levelo://app?vid=0217887a-8c5b-44bd-a806-474e51ffaf08"},"vehicle_type_id":"4","last_reported":1768829847,"current_range_meters":3600,"station_id":"ce4bho12rcd13ifvqh1g","pricing_plan_id":"cebpf4jnsgd1na2vs0mg"},{"bike_id":"986a75c0-9796-4e24-8a70-d6875d9b1e95","system_id":"levelo_inurba_marseille","lat":43.29243,"lon":5.38456,"is_reserved":false,"is_disabled":false,"rental_uris":{"android":"levelo://app?vid=986a75c0-9796-4e24-8a70-d6875d9b1e95","ios":"levelo://app?vid=986a75c0-9796-4e24-8a70-d6875d9b1e95"},"vehicle_type_id":"4","last_reported":1768829847,"current_range_meters":3600,"station_id":"ce4bh692rcd13ifvqea0","pricing_plan_id":"cebpf4jnsgd1na2vs0mg"},{"bike_id":"160ad783-14e2-406d-a1c5-2fb21a23748c","system_id":"levelo_inurba_marseille","lat":43.29206,"lon":5.39322,"is_reserved":false,"is_disabled":false,"rental_uris":{"android":"levelo://app?vid=160ad783-14e2-406d-a1c5-2fb21a23748c","ios":"levelo://app?vid=160ad783-14e2-406d-a1c5-2fb21a23748c"},"vehicle_type_id":"4","last_reported":1768829847,"current_range_meters":3600,"station_id":"ce4bh192rcd13ifvqdd0","pricing_plan_id":"cebpf4jnsgd1na2vs0mg"},{"bike_id":"4faa1e6c-4a91-44dd-8370-e7a7848122c8","system_id":"levelo_inurba_marseille","lat":43.24462,"lon":5.42514,"is_reserved":false,"is_disabled":false,"rental_uris":{"android":"levelo://app?vid=4faa1e6c-4a91-44dd-8370-e7a7848122c8","ios":"levelo://app?vid=4faa1e6c-4a91-44dd-8370-e7a7848122c8"},"vehicle_type_id":"4","last_reported":1768829847,"current_range_meters":3600,"station_id":"st_d4a3vfp97mjs738cd8kg","pricing_plan_id":"cebpf4jnsgd1na2vs0mg"},{"bike_id":"ae8e775e-473a-403a-a960-b995399bb17e","system_id":"levelo_inurba_marseille","lat":43.28867,"lon":5.42513,"is_reserved":false,"is_disabled":false,"rental_uris":{"android":"levelo://app?vid=ae8e775e-473a-403a-a960-b995399bb17e","ios":"levelo://app?vid=ae8e775e-473a-403a-a960-b995399bb17e"},"vehicle_type_id":"4","last_reported":1768829847,"current_range_meters":3600,"station_id":"st_d3b462108ojc7389ooeg","pricing_plan_id":"cebpf4jnsgd1na2vs0mg"},{"bike_id":"f7d7f7cf-7d80-4f3b-b1d8-08bb68859d78","system_id":"levelo_inurba_marseille","lat":43.24812,"lon":5.37473,"is_reserved":false,"is_disabled":false,"rental_uris":{"android":"levelo://app?vid=f7d7f7cf-7d80-4f3b-b1d8-08bb68859d78","ios":"levelo://app?vid=f7d7f7cf-7d80-4f3b-b1d8-08bb68859d78"},"vehicle_type_id":"4","last_reported":1768829847,"current_range_meters":3600,"station_id":"ce4bhgh2rcd13ifvqfb0","pricing_plan_id":"cebpf4jnsgd1na2vs0mg"},{"bike_id":"27b65260-2c4d-435c-a5bc-605316b261d0","system_id":"levelo_inurba_marseille","lat":43.30431,"lon":5.41289,"is_reserved":false,"is_disabled":false,"rental_uris":{"android":"levelo://app?vid=27b65260-2c4d-435c-a5bc-605316b261d0","ios":"levelo://app?vid=27b65260-2c4d-435c-a5bc-605316b261d0"},"vehicle_type_id":"4","last_reported":1768829847,"current_range_meters":3600,"station_id":"ce4bhop2rcd13ifvqh8g","pricing_plan_id":"cebpf4jnsgd1na2vs0mg"},{"bike_id":"36d81f7e-b1c3-4fe6-b5aa-7b5a18031396","system_id":"levelo_inurba_marseille","lat":43.26202,"lon":5.37446,"is_reserved":false,"is_disabled":false,"rental_uris":{"android":"levelo://app?vid=36d81f7e-b1c3-4fe6-b5aa-7b5a18031396","ios":"levelo://app?vid=36d81f7e-b1c3-4fe6-b5aa-7b5a18031396"},"vehicle_type_id":"4","last_reported":1768829847,"current_range_meters":4000,"station_id":"ce4bhgp2rcd13ifvqfc0","pricing_plan_id":"cebpf4jnsgd1na2vs0mg"},{"bike_id":"51cc78b3-56e5-468f-95db-127ca277f928","system_id":"levelo_inurba_marseille","lat":43.25,"lon":5.38926,"is_reserved":false,"is_disabled":false,"rental_uris":{"android":"levelo://app?vid=51cc78b3-56e5-468f-95db-127ca277f928","ios":"levelo://app?vid=51cc78b3-56e5-468f-95db-127ca277f928"},"vehicle_type_id":"4","last_reported":1768829847,"current_range_meters":4000,"station_id":"ce4bhgp2rcd13ifvqfd0","pricing_plan_id":"cebpf4jnsgd1na2vs0mg"},{"bike_id":"45dde251-9e86-4314-898e-db180f58e2c6","system_id":"levelo_inurba_marseille","lat":43.29266,"lon":5.37613,"is_reserved":false,"is_disabled":false,"rental_uris":{"android":"levelo://app?vid=45dde251-9e86-4314-898e-db180f58e2c6","ios":"levelo://app?vid=45dde251-9e86-4314-898e-db180f58e2c6"},"vehicle_type_id":"4","last_reported":1768829847,"current_range_meters":4000,"station_id":"ce4bgi12rcd13ifvqb80","pricing_plan_id":"cebpf4jnsgd1na2vs0mg"},{"bike_id":"eb530094-7d39-4890-85ff-5b0790a5172f","system_id":"levelo_inurba_marseille","lat":43.25539,"lon":5.43232,"is_reserved":false,"is_disabled":false,"rental_uris":{"android":"levelo://app?vid=eb530094-7d39-4890-85ff-5b0790a5172f","ios":"levelo://app?vid=eb530094-7d39-4890-85ff-5b0790a5172f"},"vehicle_type_id":"4","last_reported":1768829847,"current_range_meters":4000,"station_id":"","pricing_plan_id":"cebpf4jnsgd1na2vs0mg"},{"bike_id":"ee5a5513-9417-4366-ad57-ae7f24569952","system_id":"levelo_inurba_marseille","lat":43.24823,"lon":5.37454,"is_reserved":false,"is_disabled":false,"rental_uris":{"android":"levelo://app?vid=ee5a5513-9417-4366-ad57-ae7f24569952","ios":"levelo://app?vid=ee5a5513-9417-4366-ad57-ae7f24569952"},"vehicle_type_id":"4","last_reported":1768829847,"current_range_meters":4000,"station_id":"ce4bhgh2rcd13ifvqfb0","pricing_plan_id":"cebpf4jnsgd1na2vs0mg"},{"bike_id":"b8a52be7-8740-45d9-966a-1ddcbac12d10","system_id":"levelo_inurba_marseille","lat":43.28483,"lon":5.483845,"is_reserved":false,"is_disabled":false,"rental_uris":{"android":"levelo://app?vid=b8a52be7-8740-45d9-966a-1ddcbac12d10","ios":"levelo://app?vid=b8a52be7-8740-45d9-966a-1ddcbac12d10"},"vehicle_type_id":"4","last_reported":1768829847,"current_range_meters":4000,"station_id":"","pricing_plan_id":"cebpf4jnsgd1na2vs0mg"},{"bike_id":"8749fe29-defb-4d72-9797-48693d69f0de","system_id":"levelo_inurba_marseille","lat":43.275,"lon":5.42463,"is_reserved":false,"is_disabled":false,"rental_uris":{"android":"levelo://app?vid=8749fe29-defb-4d72-9797-48693d69f0de","ios":"levelo://app?vid=8749fe29-defb-4d72-9797-48693d69f0de"},"vehicle_type_id":"4","last_reported":1768829847,"current_range_meters":4000,"station_id":"ce4bhn92rcd13ifvqgrg","pricing_plan_id":"cebpf4jnsgd1na2vs0mg"},{"bike_id":"479a7880-0e15-4d14-aa20-34697e9414fd","system_id":"levelo_inurba_marseille","lat":43.29266,"lon":5.38443,"is_reserved":false,"is_disabled":false,"rental_uris":{"android":"levelo://app?vid=479a7880-0e15-4d14-aa20-34697e9414fd","ios":"levelo://app?vid=479a7880-0e15-4d14-aa20-34697e9414fd"},"vehicle_type_id":"4","last_reported":1768829847,"current_range_meters":4000,"station_id":"ce4bh692rcd13ifvqea0","pricing_plan_id":"cebpf4jnsgd1na2vs0mg"},{"bike_id":"ce57df57-2a76-4557-9819-dd7308e47bc4","system_id":"levelo_inurba_marseille","lat":43.24849,"lon":5.37448,"is_reserved":false,"is_disabled":false,"rental_uris":{"android":"levelo://app?vid=ce57df57-2a76-4557-9819-dd7308e47bc4","ios":"levelo://app?vid=ce57df57-2a76-4557-9819-dd7308e47bc4"},"vehicle_type_id":"4","last_reported":1768829847,"current_range_meters":4000,"station_id":"","pricing_plan_id":"cebpf4jnsgd1na2vs0mg"},{"bike_id":"60641a6b-1dc0-4845-967d-19823e362e8d","system_id":"levelo_inurba_marseille","lat":43.275,"lon":5.42455,"is_reserved":false,"is_disabled":false,"rental_uris":{"android":"levelo://app?vid=60641a6b-1dc0-4845-967d-19823e362e8d","ios":"levelo://app?vid=60641a6b-1dc0-4845-967d-19823e362e8d"},"vehicle_type_id":"4","last_reported":1768829847,"current_range_meters":4000,"station_id":"ce4bhn92rcd13ifvqgrg","pricing_plan_id":"cebpf4jnsgd1na2vs0mg"},{"bike_id":"90a08f6c-0385-464b-a841-96e3acde604c","system_id":"levelo_inurba_marseille","lat":43.29031,"lon":5.38122,"is_reserved":false,"is_disabled":false,"rental_uris":{"android":"levelo://app?vid=90a08f6c-0385-464b-a841-96e3acde604c","ios":"levelo://app?vid=90a08f6c-0385-464b-a841-96e3acde604c"},"vehicle_type_id":"4","last_reported":1768829847,"current_range_meters":4000,"station_id":"ce4bh4p2rcd13ifvqe1g","pricing_plan_id":"cebpf4jnsgd1na2vs0mg"},{"bike_id":"951af3c2-e410-4181-856d-ac0bf777f0ea","system_id":"levelo_inurba_marseille","lat":43.30394,"lon":5.40985,"is_reserved":false,"is_disabled":false,"rental_uris":{"android":"levelo://app?vid=951af3c2-e410-4181-856d-ac0bf777f0ea","ios":"levelo://app?vid=951af3c2-e410-4181-856d-ac0bf777f0ea"},"vehicle_type_id":"4","last_reported":1768829847,"current_range_meters":4000,"station_id":"","pricing_plan_id":"cebpf4jnsgd1na2vs0mg"},{"bike_id":"307d4f75-c96a-40c8-b50f-f14efbf318e4","system_id":"levelo_inurba_marseille","lat":43.297679,"lon":5.370941,"is_reserved":false,"is_disabled":false,"rental_uris":{"android":"levelo://app?vid=307d4f75-c96a-40c8-b50f-f14efbf318e4","ios":"levelo://app?vid=307d4f75-c96a-40c8-b50f-f14efbf318e4"},"vehicle_type_id":"4","last_reported":1768829847,"current_range_meters":4000,"station_id":"ce4bgop2rcd13ifvqc1g","pricing_plan_id":"cebpf4jnsgd1na2vs0mg"},{"bike_id":"6323d876-7ccd-4c78-a867-219c210b49e9","system_id":"levelo_inurba_marseille","lat":43.30119,"lon":5.43111,"is_reserved":false,"is_disabled":false,"rental_uris":{"android":"levelo://app?vid=6323d876-7ccd-4c78-a867-219c210b49e9","ios":"levelo://app?vid=6323d876-7ccd-4c78-a867-219c210b49e9"},"vehicle_type_id":"4","last_reported":1768829847,"current_range_meters":4400,"station_id":"st_d3js3co5814s73ftftug","pricing_plan_id":"cebpf4jnsgd1na2vs0mg"},{"bike_id":"ceac69a1-c70e-483e-8597-2b27851c5fdf","system_id":"levelo_inurba_marseille","lat":43.25577,"lon":5.38237,"is_reserved":false,"is_disabled":false,"rental_uris":{"android":"levelo://app?vid=ceac69a1-c70e-483e-8597-2b27851c5fdf","ios":"levelo://app?vid=ceac69a1-c70e-483e-8597-2b27851c5fdf"},"vehicle_type_id":"4","last_reported":1768829847,"current_range_meters":4400,"station_id":"ce4bhih2rcd13ifvqfs0","pricing_plan_id":"cebpf4jnsgd1na2vs0mg"},{"bike_id":"829ca6ba-509c-451a-a278-6c150b28f569","system_id":"levelo_inurba_marseille","lat":43.31212,"lon":5.36881,"is_reserved":false,"is_disabled":false,"rental_uris":{"android":"levelo://app?vid=829ca6ba-509c-451a-a278-6c150b28f569","ios":"levelo://app?vid=829ca6ba-509c-451a-a278-6c150b28f569"},"vehicle_type_id":"4","last_reported":1768829847,"current_range_meters":4400,"station_id":"ce4bgl92rcd13ifvqbq0","pricing_plan_id":"cebpf4jnsgd1na2vs0mg"},{"bike_id":"82996fbd-d688-4944-a740-3074e36862e1","system_id":"levelo_inurba_marseille","lat":43.262042,"lon":5.374555,"is_reserved":false,"is_disabled":false,"rental_uris":{"android":"levelo://app?vid=82996fbd-d688-4944-a740-3074e36862e1","ios":"levelo://app?vid=82996fbd-d688-4944-a740-3074e36862e1"},"vehicle_type_id":"4","last_reported":1768829847,"current_range_meters":4400,"station_id":"ce4bhgp2rcd13ifvqfc0","pricing_plan_id":"cebpf4jnsgd1na2vs0mg"},{"bike_id":"d9886c1a-279f-43dd-8640-9d720eba9676","system_id":"levelo_inurba_marseille","lat":43.25579,"lon":5.38215,"is_reserved":false,"is_disabled":false,"rental_uris":{"android":"levelo://app?vid=d9886c1a-279f-43dd-8640-9d720eba9676","ios":"levelo://app?vid=d9886c1a-279f-43dd-8640-9d720eba9676"},"vehicle_type_id":"4","last_reported":1768829847,"current_range_meters":4400,"station_id":"ce4bhih2rcd13ifvqfs0","pricing_plan_id":"cebpf4jnsgd1na2vs0mg"},{"bike_id":"45be07eb-7b8b-4438-87f5-34a08f87a459","system_id":"levelo_inurba_marseille","lat":43.30276,"lon":5.37703,"is_reserved":false,"is_disabled":false,"rental_uris":{"android":"levelo://app?vid=45be07eb-7b8b-4438-87f5-34a08f87a459","ios":"levelo://app?vid=45be07eb-7b8b-4438-87f5-34a08f87a459"},"vehicle_type_id":"4","last_reported":1768829847,"current_range_meters":4400,"station_id":"ce4bguh2rcd13ifvqcj0","pricing_plan_id":"cebpf4jnsgd1na2vs0mg"},{"bike_id":"abf02c15-ced0-44a3-8492-e2c6684a85e6","system_id":"levelo_inurba_marseille","lat":43.29098,"lon":5.38138,"is_reserved":false,"is_disabled":false,"rental_uris":{"android":"levelo://app?vid=abf02c15-ced0-44a3-8492-e2c6684a85e6","ios":"levelo://app?vid=abf02c15-ced0-44a3-8492-e2c6684a85e6"},"vehicle_type_id":"4","last_reported":1768829847,"current_range_meters":4400,"station_id":"ce4bh512rcd13ifvqe2g","pricing_plan_id":"cebpf4jnsgd1na2vs0mg"},{"bike_id":"ffc441e7-e55b-42bb-96f2-614e465f2aae","system_id":"levelo_inurba_marseille","lat":43.309,"lon":5.36873,"is_reserved":false,"is_disabled":false,"rental_uris":{"android":"levelo://app?vid=ffc441e7-e55b-42bb-96f2-614e465f2aae","ios":"levelo://app?vid=ffc441e7-e55b-42bb-96f2-614e465f2aae"},"vehicle_type_id":"4","last_reported":1768829847,"current_range_meters":4800,"station_id":"ce4bgn92rcd13ifvqbvg","pricing_plan_id":"cebpf4jnsgd1na2vs0mg"},{"bike_id":"60aa52e7-758b-4347-b7a2-38122e298cf1","system_id":"levelo_inurba_marseille","lat":43.267836,"lon":5.394172,"is_reserved":false,"is_disabled":false,"rental_uris":{"android":"levelo://app?vid=60aa52e7-758b-4347-b7a2-38122e298cf1","ios":"levelo://app?vid=60aa52e7-758b-4347-b7a2-38122e298cf1"},"vehicle_type_id":"4","last_reported":1768829847,"current_range_meters":4800,"station_id":"ce4bhh12rcd13ifvqfg0","pricing_plan_id":"cebpf4jnsgd1na2vs0mg"},{"bike_id":"40ecb84e-d2ac-4a6c-ad1d-6416db8fb424","system_id":"levelo_inurba_marseille","lat":43.24196,"lon":5.3973,"is_reserved":false,"is_disabled":false,"rental_uris":{"android":"levelo://app?vid=40ecb84e-d2ac-4a6c-ad1d-6416db8fb424","ios":"levelo://app?vid=40ecb84e-d2ac-4a6c-ad1d-6416db8fb424"},"vehicle_type_id":"4","last_reported":1768829847,"current_range_meters":4800,"station_id":"ce4bhn12rcd13ifvqgpg","pricing_plan_id":"cebpf4jnsgd1na2vs0mg"},{"bike_id":"f5a7fe50-3f88-4424-9093-9d69e6cd583d","system_id":"levelo_inurba_marseille","lat":43.22566,"lon":5.41618,"is_reserved":false,"is_disabled":false,"rental_uris":{"android":"levelo://app?vid=f5a7fe50-3f88-4424-9093-9d69e6cd583d","ios":"levelo://app?vid=f5a7fe50-3f88-4424-9093-9d69e6cd583d"},"vehicle_type_id":"4","last_reported":1768829847,"current_range_meters":4800,"station_id":"st_d2o4gvlbi1j2169b742g","pricing_plan_id":"cebpf4jnsgd1na2vs0mg"},{"bike_id":"6473bd0f-8511-4a8a-89c5-9091f9cdad57","system_id":"levelo_inurba_marseille","lat":43.25586,"lon":5.38244,"is_reserved":false,"is_disabled":false,"rental_uris":{"android":"levelo://app?vid=6473bd0f-8511-4a8a-89c5-9091f9cdad57","ios":"levelo://app?vid=6473bd0f-8511-4a8a-89c5-9091f9cdad57"},"vehicle_type_id":"4","last_reported":1768829847,"current_range_meters":4800,"station_id":"ce4bhih2rcd13ifvqfs0","pricing_plan_id":"cebpf4jnsgd1na2vs0mg"},{"bike_id":"8ebb2247-586f-48b1-a963-c98a0d338c56","system_id":"levelo_inurba_marseille","lat":43.2378,"lon":5.36638,"is_reserved":false,"is_disabled":false,"rental_uris":{"android":"levelo://app?vid=8ebb2247-586f-48b1-a963-c98a0d338c56","ios":"levelo://app?vid=8ebb2247-586f-48b1-a963-c98a0d338c56"},"vehicle_type_id":"4","last_reported":1768829847,"current_range_meters":4800,"station_id":"st_d3nk18o9ro0c73en2l3g","pricing_plan_id":"cebpf4jnsgd1na2vs0mg"},{"bike_id":"12c63310-c7d3-4712-ad5e-5a41392415db","system_id":"levelo_inurba_marseille","lat":43.30165,"lon":5.38085,"is_reserved":false,"is_disabled":false,"rental_uris":{"android":"levelo://app?vid=12c63310-c7d3-4712-ad5e-5a41392415db","ios":"levelo://app?vid=12c63310-c7d3-4712-ad5e-5a41392415db"},"vehicle_type_id":"4","last_reported":1768829847,"current_range_meters":4800,"station_id":"ce4bgjp2rcd13ifvqbh0","pricing_plan_id":"cebpf4jnsgd1na2vs0mg"},{"bike_id":"cb2e4f41-657b-486b-9c36-7388c7c605e7","system_id":"levelo_inurba_marseille","lat":43.24393,"lon":5.37071,"is_reserved":false,"is_disabled":false,"rental_uris":{"android":"levelo://app?vid=cb2e4f41-657b-486b-9c36-7388c7c605e7","ios":"levelo://app?vid=cb2e4f41-657b-486b-9c36-7388c7c605e7"},"vehicle_type_id":"4","last_reported":1768829847,"current_range_meters":4800,"station_id":"ce4bhhh2rcd13ifvqfk0","pricing_plan_id":"cebpf4jnsgd1na2vs0mg"},{"bike_id":"2d6a7306-86b6-4442-9f49-0ecf1e421caa","system_id":"levelo_inurba_marseille","lat":43.28944,"lon":5.36634,"is_reserved":false,"is_disabled":false,"rental_uris":{"android":"levelo://app?vid=2d6a7306-86b6-4442-9f49-0ecf1e421caa","ios":"levelo://app?vid=2d6a7306-86b6-4442-9f49-0ecf1e421caa"},"vehicle_type_id":"4","last_reported":1768829847,"current_range_meters":4800,"station_id":"ce4bhap2rcd13ifvqek0","pricing_plan_id":"cebpf4jnsgd1na2vs0mg"},{"bike_id":"bbe76d6d-dca3-4763-bcad-edc1f4802bb6","system_id":"levelo_inurba_marseille","lat":43.27972,"lon":5.38525,"is_reserved":false,"is_disabled":false,"rental_uris":{"android":"levelo://app?vid=bbe76d6d-dca3-4763-bcad-edc1f4802bb6","ios":"levelo://app?vid=bbe76d6d-dca3-4763-bcad-edc1f4802bb6"},"vehicle_type_id":"4","last_reported":1768829847,"current_range_meters":5600,"station_id":"","pricing_plan_id":"cebpf4jnsgd1na2vs0mg"},{"bike_id":"9ae53b78-c214-4b59-bdf7-9a5152c2fa2f","system_id":"levelo_inurba_marseille","lat":43.28865,"lon":5.42517,"is_reserved":false,"is_disabled":false,"rental_uris":{"android":"levelo://app?vid=9ae53b78-c214-4b59-bdf7-9a5152c2fa2f","ios":"levelo://app?vid=9ae53b78-c214-4b59-bdf7-9a5152c2fa2f"},"vehicle_type_id":"4","last_reported":1768829847,"current_range_meters":5600,"station_id":"st_d3b462108ojc7389ooeg","pricing_plan_id":"cebpf4jnsgd1na2vs0mg"},{"bike_id":"5a07ebf0-7af7-4827-8f27-99703dff7428","system_id":"levelo_inurba_marseille","lat":43.3038,"lon":5.42485,"is_reserved":false,"is_disabled":false,"rental_uris":{"android":"levelo://app?vid=5a07ebf0-7af7-4827-8f27-99703dff7428","ios":"levelo://app?vid=5a07ebf0-7af7-4827-8f27-99703dff7428"},"vehicle_type_id":"4","last_reported":1768829847,"current_range_meters":5600,"station_id":"ce4bhoh2rcd13ifvqh6g","pricing_plan_id":"cebpf4jnsgd1na2vs0mg"},{"bike_id":"b16cc433-c65e-4457-b5af-cef4b9d644b2","system_id":"levelo_inurba_marseille","lat":43.30171,"lon":5.37417,"is_reserved":false,"is_disabled":false,"rental_uris":{"android":"levelo://app?vid=b16cc433-c65e-4457-b5af-cef4b9d644b2","ios":"levelo://app?vid=b16cc433-c65e-4457-b5af-cef4b9d644b2"},"vehicle_type_id":"4","last_reported":1768829847,"current_range_meters":5600,"station_id":"ce4bgs92rcd13ifvqcc0","pricing_plan_id":"cebpf4jnsgd1na2vs0mg"},{"bike_id":"566c16cb-af13-4ec7-91df-08d6c3c5e69d","system_id":"levelo_inurba_marseille","lat":43.27385,"lon":5.362456,"is_reserved":false,"is_disabled":false,"rental_uris":{"android":"levelo://app?vid=566c16cb-af13-4ec7-91df-08d6c3c5e69d","ios":"levelo://app?vid=566c16cb-af13-4ec7-91df-08d6c3c5e69d"},"vehicle_type_id":"4","last_reported":1768829847,"current_range_meters":5600,"station_id":"ce4bhbh2rcd13ifvqeo0","pricing_plan_id":"cebpf4jnsgd1na2vs0mg"},{"bike_id":"a4a6af33-604e-4b5a-a662-fd199e256423","system_id":"levelo_inurba_marseille","lat":43.31756,"lon":5.38995,"is_reserved":false,"is_disabled":false,"rental_uris":{"android":"levelo://app?vid=a4a6af33-604e-4b5a-a662-fd199e256423","ios":"levelo://app?vid=a4a6af33-604e-4b5a-a662-fd199e256423"},"vehicle_type_id":"4","last_reported":1768829847,"current_range_meters":5600,"station_id":"ce4bhqp2rcd13ifvqhng","pricing_plan_id":"cebpf4jnsgd1na2vs0mg"},{"bike_id":"ccbc7cc7-8082-4767-b087-b8c8e3e07b84","system_id":"levelo_inurba_marseille","lat":43.23195,"lon":5.35543,"is_reserved":false,"is_disabled":false,"rental_uris":{"android":"levelo://app?vid=ccbc7cc7-8082-4767-b087-b8c8e3e07b84","ios":"levelo://app?vid=ccbc7cc7-8082-4767-b087-b8c8e3e07b84"},"vehicle_type_id":"4","last_reported":1768829847,"current_range_meters":5600,"station_id":"ce4bhu92rcd13ifvqi70","pricing_plan_id":"cebpf4jnsgd1na2vs0mg"},{"bike_id":"b83c301d-6a09-4142-a82b-3802a6a2089f","system_id":"levelo_inurba_marseille","lat":43.28482,"lon":5.48386,"is_reserved":false,"is_disabled":false,"rental_uris":{"android":"levelo://app?vid=b83c301d-6a09-4142-a82b-3802a6a2089f","ios":"levelo://app?vid=b83c301d-6a09-4142-a82b-3802a6a2089f"},"vehicle_type_id":"4","last_reported":1768829847,"current_range_meters":5600,"station_id":"st_d3svhcjqgbts73a3dn0g","pricing_plan_id":"cebpf4jnsgd1na2vs0mg"},{"bike_id":"23c29b1d-14ea-4846-90e3-8702fb6b44ff","system_id":"levelo_inurba_marseille","lat":43.24092,"lon":5.39696,"is_reserved":false,"is_disabled":false,"rental_uris":{"android":"levelo://app?vid=23c29b1d-14ea-4846-90e3-8702fb6b44ff","ios":"levelo://app?vid=23c29b1d-14ea-4846-90e3-8702fb6b44ff"},"vehicle_type_id":"4","last_reported":1768829847,"current_range_meters":5600,"station_id":"","pricing_plan_id":"cebpf4jnsgd1na2vs0mg"},{"bike_id":"a7b9cdf7-d3ba-444b-a212-5edc361237f4","system_id":"levelo_inurba_marseille","lat":43.28472,"lon":5.48423,"is_reserved":false,"is_disabled":false,"rental_uris":{"android":"levelo://app?vid=a7b9cdf7-d3ba-444b-a212-5edc361237f4","ios":"levelo://app?vid=a7b9cdf7-d3ba-444b-a212-5edc361237f4"},"vehicle_type_id":"4","last_reported":1768829847,"current_range_meters":5600,"station_id":"","pricing_plan_id":"cebpf4jnsgd1na2vs0mg"},{"bike_id":"7c429d88-caa9-46ca-87e9-a9f1305ab716","system_id":"levelo_inurba_marseille","lat":43.26048,"lon":5.39384,"is_reserved":false,"is_disabled":false,"rental_uris":{"android":"levelo://app?vid=7c429d88-caa9-46ca-87e9-a9f1305ab716","ios":"levelo://app?vid=7c429d88-caa9-46ca-87e9-a9f1305ab716"},"vehicle_type_id":"4","last_reported":1768829847,"current_range_meters":5600,"station_id":"ce4bhh92rcd13ifvqfj0","pricing_plan_id":"cebpf4jnsgd1na2vs0mg"},{"bike_id":"e057ae2d-4eea-4583-8acf-116960ce087b","system_id":"levelo_inurba_marseille","lat":43.27771,"lon":5.4076,"is_reserved":false,"is_disabled":false,"rental_uris":{"android":"levelo://app?vid=e057ae2d-4eea-4583-8acf-116960ce087b","ios":"levelo://app?vid=e057ae2d-4eea-4583-8acf-116960ce087b"},"vehicle_type_id":"4","last_reported":1768829847,"current_range_meters":5600,"station_id":"","pricing_plan_id":"cebpf4jnsgd1na2vs0mg"},{"bike_id":"99177550-932c-4df9-9fa8-0fd950dd5414","system_id":"levelo_inurba_marseille","lat":43.27213,"lon":5.3917,"is_reserved":false,"is_disabled":false,"rental_uris":{"android":"levelo://app?vid=99177550-932c-4df9-9fa8-0fd950dd5414","ios":"levelo://app?vid=99177550-932c-4df9-9fa8-0fd950dd5414"},"vehicle_type_id":"4","last_reported":1768829847,"current_range_meters":6000,"station_id":"","pricing_plan_id":"cebpf4jnsgd1na2vs0mg"},{"bike_id":"18f7ef13-b6cd-4f0d-b776-b4d71a83d34e","system_id":"levelo_inurba_marseille","lat":43.27819,"lon":5.40717,"is_reserved":false,"is_disabled":false,"rental_uris":{"android":"levelo://app?vid=18f7ef13-b6cd-4f0d-b776-b4d71a83d34e","ios":"levelo://app?vid=18f7ef13-b6cd-4f0d-b776-b4d71a83d34e"},"vehicle_type_id":"4","last_reported":1768829847,"current_range_meters":6000,"station_id":"ce4bhnh2rcd13ifvqgtg","pricing_plan_id":"cebpf4jnsgd1na2vs0mg"},{"bike_id":"910cfe43-a618-4ee9-a7b1-5d5b63afa86d","system_id":"levelo_inurba_marseille","lat":43.2587,"lon":5.39924,"is_reserved":false,"is_disabled":false,"rental_uris":{"android":"levelo://app?vid=910cfe43-a618-4ee9-a7b1-5d5b63afa86d","ios":"levelo://app?vid=910cfe43-a618-4ee9-a7b1-5d5b63afa86d"},"vehicle_type_id":"4","last_reported":1768829847,"current_range_meters":6000,"station_id":"ce4bhl92rcd13ifvqghg","pricing_plan_id":"cebpf4jnsgd1na2vs0mg"},{"bike_id":"519b1b23-ee6a-48f5-b3d6-7b553c904b51","system_id":"levelo_inurba_marseille","lat":43.22949,"lon":5.3542,"is_reserved":false,"is_disabled":false,"rental_uris":{"android":"levelo://app?vid=519b1b23-ee6a-48f5-b3d6-7b553c904b51","ios":"levelo://app?vid=519b1b23-ee6a-48f5-b3d6-7b553c904b51"},"vehicle_type_id":"4","last_reported":1768829847,"current_range_meters":6000,"station_id":"cpo3532slgdg3j2ikp40","pricing_plan_id":"cebpf4jnsgd1na2vs0mg"},{"bike_id":"95795145-ecd3-44c5-888d-9583b5ef33fd","system_id":"levelo_inurba_marseille","lat":43.301593,"lon":5.374138,"is_reserved":false,"is_disabled":false,"rental_uris":{"android":"levelo://app?vid=95795145-ecd3-44c5-888d-9583b5ef33fd","ios":"levelo://app?vid=95795145-ecd3-44c5-888d-9583b5ef33fd"},"vehicle_type_id":"4","last_reported":1768829847,"current_range_meters":6000,"station_id":"ce4bgs92rcd13ifvqcc0","pricing_plan_id":"cebpf4jnsgd1na2vs0mg"},{"bike_id":"adfdcb17-e56a-40ea-abeb-5e7a10692630","system_id":"levelo_inurba_marseille","lat":43.27921,"lon":5.41017,"is_reserved":false,"is_disabled":true,"rental_uris":{"android":"levelo://app?vid=adfdcb17-e56a-40ea-abeb-5e7a10692630","ios":"levelo://app?vid=adfdcb17-e56a-40ea-abeb-5e7a10692630"},"vehicle_type_id":"4","last_reported":1768829847,"current_range_meters":6000,"station_id":"ce4bhnp2rcd13ifvqh0g","pricing_plan_id":"cebpf4jnsgd1na2vs0mg"},{"bike_id":"ccd74f8a-2d31-4e3e-90cd-d53db1b81c64","system_id":"levelo_inurba_marseille","lat":43.260512,"lon":5.386476,"is_reserved":false,"is_disabled":false,"rental_uris":{"android":"levelo://app?vid=ccd74f8a-2d31-4e3e-90cd-d53db1b81c64","ios":"levelo://app?vid=ccd74f8a-2d31-4e3e-90cd-d53db1b81c64"},"vehicle_type_id":"4","last_reported":1768829847,"current_range_meters":6000,"station_id":"","pricing_plan_id":"cebpf4jnsgd1na2vs0mg"},{"bike_id":"02716a77-f5e1-4458-9825-dd28d9bb4577","system_id":"levelo_inurba_marseille","lat":43.24815,"lon":5.37482,"is_reserved":false,"is_disabled":false,"rental_uris":{"android":"levelo://app?vid=02716a77-f5e1-4458-9825-dd28d9bb4577","ios":"levelo://app?vid=02716a77-f5e1-4458-9825-dd28d9bb4577"},"vehicle_type_id":"4","last_reported":1768829847,"current_range_meters":6000,"station_id":"ce4bhgh2rcd13ifvqfb0","pricing_plan_id":"cebpf4jnsgd1na2vs0mg"},{"bike_id":"d8be4cd5-b26c-441b-bf6d-b13567d9a5d9","system_id":"levelo_inurba_marseille","lat":43.29628,"lon":5.37151,"is_reserved":false,"is_disabled":false,"rental_uris":{"android":"levelo://app?vid=d8be4cd5-b26c-441b-bf6d-b13567d9a5d9","ios":"levelo://app?vid=d8be4cd5-b26c-441b-bf6d-b13567d9a5d9"},"vehicle_type_id":"4","last_reported":1768829847,"current_range_meters":6000,"station_id":"ce4bgnh2rcd13ifvqc0g","pricing_plan_id":"cebpf4jnsgd1na2vs0mg"},{"bike_id":"b9b4f431-82fc-4bbf-9af4-1dfdef347107","system_id":"levelo_inurba_marseille","lat":43.28485,"lon":5.38536,"is_reserved":false,"is_disabled":false,"rental_uris":{"android":"levelo://app?vid=b9b4f431-82fc-4bbf-9af4-1dfdef347107","ios":"levelo://app?vid=b9b4f431-82fc-4bbf-9af4-1dfdef347107"},"vehicle_type_id":"4","last_reported":1768829847,"current_range_meters":6000,"station_id":"ce4bh8p2rcd13ifvqeb0","pricing_plan_id":"cebpf4jnsgd1na2vs0mg"},{"bike_id":"34437a88-458e-41ec-a3ab-223561a76990","system_id":"levelo_inurba_marseille","lat":43.29043,"lon":5.37561,"is_reserved":false,"is_disabled":false,"rental_uris":{"android":"levelo://app?vid=34437a88-458e-41ec-a3ab-223561a76990","ios":"levelo://app?vid=34437a88-458e-41ec-a3ab-223561a76990"},"vehicle_type_id":"4","last_reported":1768829847,"current_range_meters":6000,"station_id":"ce4bh692rcd13ifvqe90","pricing_plan_id":"cebpf4jnsgd1na2vs0mg"},{"bike_id":"f9d75ea9-5200-4923-a43d-efc0b484fbe9","system_id":"levelo_inurba_marseille","lat":43.24394,"lon":5.3707,"is_reserved":false,"is_disabled":false,"rental_uris":{"android":"levelo://app?vid=f9d75ea9-5200-4923-a43d-efc0b484fbe9","ios":"levelo://app?vid=f9d75ea9-5200-4923-a43d-efc0b484fbe9"},"vehicle_type_id":"4","last_reported":1768829847,"current_range_meters":6000,"station_id":"ce4bhhh2rcd13ifvqfk0","pricing_plan_id":"cebpf4jnsgd1na2vs0mg"},{"bike_id":"b2391b9e-f074-477f-8048-319d96c713c1","system_id":"levelo_inurba_marseille","lat":43.314841,"lon":5.373066,"is_reserved":false,"is_disabled":false,"rental_uris":{"android":"levelo://app?vid=b2391b9e-f074-477f-8048-319d96c713c1","ios":"levelo://app?vid=b2391b9e-f074-477f-8048-319d96c713c1"},"vehicle_type_id":"4","last_reported":1768829847,"current_range_meters":6000,"station_id":"ce4bgt12rcd13ifvqcd0","pricing_plan_id":"cebpf4jnsgd1na2vs0mg"},{"bike_id":"cce7be02-80bd-4769-b012-dc06457e18d6","system_id":"levelo_inurba_marseille","lat":43.24184,"lon":5.39723,"is_reserved":false,"is_disabled":false,"rental_uris":{"android":"levelo://app?vid=cce7be02-80bd-4769-b012-dc06457e18d6","ios":"levelo://app?vid=cce7be02-80bd-4769-b012-dc06457e18d6"},"vehicle_type_id":"4","last_reported":1768829847,"current_range_meters":6000,"station_id":"ce4bhn12rcd13ifvqgpg","pricing_plan_id":"cebpf4jnsgd1na2vs0mg"},{"bike_id":"ccad3eb7-a9a3-45c6-8607-cdb7d76de2c7","system_id":"levelo_inurba_marseille","lat":43.33719,"lon":5.39183,"is_reserved":false,"is_disabled":false,"rental_uris":{"android":"levelo://app?vid=ccad3eb7-a9a3-45c6-8607-cdb7d76de2c7","ios":"levelo://app?vid=ccad3eb7-a9a3-45c6-8607-cdb7d76de2c7"},"vehicle_type_id":"4","last_reported":1768829847,"current_range_meters":6000,"station_id":"ce4bhr92rcd13ifvqhsg","pricing_plan_id":"cebpf4jnsgd1na2vs0mg"},{"bike_id":"0431c530-a435-4150-a944-1b40bee617f3","system_id":"levelo_inurba_marseille","lat":43.26255,"lon":5.40538,"is_reserved":false,"is_disabled":false,"rental_uris":{"android":"levelo://app?vid=0431c530-a435-4150-a944-1b40bee617f3","ios":"levelo://app?vid=0431c530-a435-4150-a944-1b40bee617f3"},"vehicle_type_id":"4","last_reported":1768829847,"current_range_meters":6000,"station_id":"ce4bhmh2rcd13ifvqgmg","pricing_plan_id":"cebpf4jnsgd1na2vs0mg"},{"bike_id":"117903ef-5bd6-4546-bff1-baffee665714","system_id":"levelo_inurba_marseille","lat":43.28475,"lon":5.48354,"is_reserved":false,"is_disabled":false,"rental_uris":{"android":"levelo://app?vid=117903ef-5bd6-4546-bff1-baffee665714","ios":"levelo://app?vid=117903ef-5bd6-4546-bff1-baffee665714"},"vehicle_type_id":"4","last_reported":1768829847,"current_range_meters":6000,"station_id":"st_d3svhcjqgbts73a3dn0g","pricing_plan_id":"cebpf4jnsgd1na2vs0mg"},{"bike_id":"89738f7c-685b-44d7-93f1-60b67cb64c01","system_id":"levelo_inurba_marseille","lat":43.31036,"lon":5.37153,"is_reserved":false,"is_disabled":false,"rental_uris":{"android":"levelo://app?vid=89738f7c-685b-44d7-93f1-60b67cb64c01","ios":"levelo://app?vid=89738f7c-685b-44d7-93f1-60b67cb64c01"},"vehicle_type_id":"4","last_reported":1768829847,"current_range_meters":6000,"station_id":"st_d4kl2rp97mjs73e7tdfg","pricing_plan_id":"cebpf4jnsgd1na2vs0mg"},{"bike_id":"8fc40975-6cc9-4b56-9cfb-b7a269b5783c","system_id":"levelo_inurba_marseille","lat":43.26062,"lon":5.39384,"is_reserved":false,"is_disabled":false,"rental_uris":{"android":"levelo://app?vid=8fc40975-6cc9-4b56-9cfb-b7a269b5783c","ios":"levelo://app?vid=8fc40975-6cc9-4b56-9cfb-b7a269b5783c"},"vehicle_type_id":"4","last_reported":1768829847,"current_range_meters":6400,"station_id":"ce4bhh92rcd13ifvqfj0","pricing_plan_id":"cebpf4jnsgd1na2vs0mg"},{"bike_id":"2a387084-a6cc-4af4-b63f-1443441fc658","system_id":"levelo_inurba_marseille","lat":43.27616,"lon":5.3611,"is_reserved":false,"is_disabled":false,"rental_uris":{"android":"levelo://app?vid=2a387084-a6cc-4af4-b63f-1443441fc658","ios":"levelo://app?vid=2a387084-a6cc-4af4-b63f-1443441fc658"},"vehicle_type_id":"4","last_reported":1768829847,"current_range_meters":6400,"station_id":"ce4bgj92rcd13ifvqbe0","pricing_plan_id":"cebpf4jnsgd1na2vs0mg"},{"bike_id":"1e064ac5-997e-4102-a700-a96ce59a5367","system_id":"levelo_inurba_marseille","lat":43.285318,"lon":5.441042,"is_reserved":false,"is_disabled":false,"rental_uris":{"android":"levelo://app?vid=1e064ac5-997e-4102-a700-a96ce59a5367","ios":"levelo://app?vid=1e064ac5-997e-4102-a700-a96ce59a5367"},"vehicle_type_id":"4","last_reported":1768829847,"current_range_meters":6400,"station_id":"st_d3j3df2ikq2c7380ej80","pricing_plan_id":"cebpf4jnsgd1na2vs0mg"},{"bike_id":"02cd3930-b468-4e52-820a-d36f0a9c3e8d","system_id":"levelo_inurba_marseille","lat":43.31491,"lon":5.37309,"is_reserved":false,"is_disabled":false,"rental_uris":{"android":"levelo://app?vid=02cd3930-b468-4e52-820a-d36f0a9c3e8d","ios":"levelo://app?vid=02cd3930-b468-4e52-820a-d36f0a9c3e8d"},"vehicle_type_id":"4","last_reported":1768829847,"current_range_meters":6400,"station_id":"ce4bgt12rcd13ifvqcd0","pricing_plan_id":"cebpf4jnsgd1na2vs0mg"},{"bike_id":"20ff67e5-d319-4566-8b20-7f51d229e5de","system_id":"levelo_inurba_marseille","lat":43.23806,"lon":5.36616,"is_reserved":false,"is_disabled":false,"rental_uris":{"android":"levelo://app?vid=20ff67e5-d319-4566-8b20-7f51d229e5de","ios":"levelo://app?vid=20ff67e5-d319-4566-8b20-7f51d229e5de"},"vehicle_type_id":"4","last_reported":1768829847,"current_range_meters":6400,"station_id":"st_d3nk18o9ro0c73en2l3g","pricing_plan_id":"cebpf4jnsgd1na2vs0mg"},{"bike_id":"f1c80f6c-c2e2-4d00-a87e-9869d5a8261b","system_id":"levelo_inurba_marseille","lat":43.30488,"lon":5.37896,"is_reserved":false,"is_disabled":false,"rental_uris":{"android":"levelo://app?vid=f1c80f6c-c2e2-4d00-a87e-9869d5a8261b","ios":"levelo://app?vid=f1c80f6c-c2e2-4d00-a87e-9869d5a8261b"},"vehicle_type_id":"4","last_reported":1768829847,"current_range_meters":6400,"station_id":"ce4bgup2rcd13ifvqcn0","pricing_plan_id":"cebpf4jnsgd1na2vs0mg"},{"bike_id":"3d8a5239-eb14-468f-be90-3f7ff969a036","system_id":"levelo_inurba_marseille","lat":43.30543,"lon":5.365,"is_reserved":false,"is_disabled":false,"rental_uris":{"android":"levelo://app?vid=3d8a5239-eb14-468f-be90-3f7ff969a036","ios":"levelo://app?vid=3d8a5239-eb14-468f-be90-3f7ff969a036"},"vehicle_type_id":"4","last_reported":1768829847,"current_range_meters":6400,"station_id":"","pricing_plan_id":"cebpf4jnsgd1na2vs0mg"},{"bike_id":"58713724-2b25-4434-ac95-768a9f7f218a","system_id":"levelo_inurba_marseille","lat":43.25221,"lon":5.38037,"is_reserved":false,"is_disabled":false,"rental_uris":{"android":"levelo://app?vid=58713724-2b25-4434-ac95-768a9f7f218a","ios":"levelo://app?vid=58713724-2b25-4434-ac95-768a9f7f218a"},"vehicle_type_id":"4","last_reported":1768829847,"current_range_meters":6400,"station_id":"","pricing_plan_id":"cebpf4jnsgd1na2vs0mg"},{"bike_id":"467f44a2-4aac-402d-9663-a51e693758f3","system_id":"levelo_inurba_marseille","lat":43.30587,"lon":5.39354,"is_reserved":false,"is_disabled":false,"rental_uris":{"android":"levelo://app?vid=467f44a2-4aac-402d-9663-a51e693758f3","ios":"levelo://app?vid=467f44a2-4aac-402d-9663-a51e693758f3"},"vehicle_type_id":"4","last_reported":1768829847,"current_range_meters":6400,"station_id":"ce4bh0p2rcd13ifvqd80","pricing_plan_id":"cebpf4jnsgd1na2vs0mg"},{"bike_id":"ddc9e117-7fb8-4cb9-87ea-9a0bb1767c17","system_id":"levelo_inurba_marseille","lat":43.213824,"lon":5.350399,"is_reserved":false,"is_disabled":false,"rental_uris":{"android":"levelo://app?vid=ddc9e117-7fb8-4cb9-87ea-9a0bb1767c17","ios":"levelo://app?vid=ddc9e117-7fb8-4cb9-87ea-9a0bb1767c17"},"vehicle_type_id":"4","last_reported":1768829847,"current_range_meters":6400,"station_id":"","pricing_plan_id":"cebpf4jnsgd1na2vs0mg"},{"bike_id":"c2d78561-7337-4974-8b58-fc8e6c5f41c9","system_id":"levelo_inurba_marseille","lat":43.29582,"lon":5.39965,"is_reserved":false,"is_disabled":false,"rental_uris":{"android":"levelo://app?vid=c2d78561-7337-4974-8b58-fc8e6c5f41c9","ios":"levelo://app?vid=c2d78561-7337-4974-8b58-fc8e6c5f41c9"},"vehicle_type_id":"4","last_reported":1768829847,"current_range_meters":6400,"station_id":"ce4bh312rcd13ifvqdj0","pricing_plan_id":"cebpf4jnsgd1na2vs0mg"},{"bike_id":"22d645e4-a18e-4f38-ad77-74fccb068b5a","system_id":"levelo_inurba_marseille","lat":43.25506,"lon":5.37647,"is_reserved":false,"is_disabled":false,"rental_uris":{"android":"levelo://app?vid=22d645e4-a18e-4f38-ad77-74fccb068b5a","ios":"levelo://app?vid=22d645e4-a18e-4f38-ad77-74fccb068b5a"},"vehicle_type_id":"4","last_reported":1768829847,"current_range_meters":6400,"station_id":"ce4bhh12rcd13ifvqff0","pricing_plan_id":"cebpf4jnsgd1na2vs0mg"},{"bike_id":"b9bf2e2d-8fb6-4c6f-8c6b-9ec2946bd5c5","system_id":"levelo_inurba_marseille","lat":43.27992,"lon":5.41667,"is_reserved":false,"is_disabled":false,"rental_uris":{"android":"levelo://app?vid=b9bf2e2d-8fb6-4c6f-8c6b-9ec2946bd5c5","ios":"levelo://app?vid=b9bf2e2d-8fb6-4c6f-8c6b-9ec2946bd5c5"},"vehicle_type_id":"4","last_reported":1768829847,"current_range_meters":6800,"station_id":"ce4bho12rcd13ifvqh1g","pricing_plan_id":"cebpf4jnsgd1na2vs0mg"},{"bike_id":"7cc9c6fa-bf6c-480e-a632-7ea9d845bdf0","system_id":"levelo_inurba_marseille","lat":43.2455,"lon":5.39519,"is_reserved":false,"is_disabled":false,"rental_uris":{"android":"levelo://app?vid=7cc9c6fa-bf6c-480e-a632-7ea9d845bdf0","ios":"levelo://app?vid=7cc9c6fa-bf6c-480e-a632-7ea9d845bdf0"},"vehicle_type_id":"4","last_reported":1768829847,"current_range_meters":6800,"station_id":"ce4bhlp2rcd13ifvqgjg","pricing_plan_id":"cebpf4jnsgd1na2vs0mg"},{"bike_id":"57d29cba-b269-4d3a-9f6a-9e2e25fad12b","system_id":"levelo_inurba_marseille","lat":43.24816,"lon":5.37437,"is_reserved":false,"is_disabled":false,"rental_uris":{"android":"levelo://app?vid=57d29cba-b269-4d3a-9f6a-9e2e25fad12b","ios":"levelo://app?vid=57d29cba-b269-4d3a-9f6a-9e2e25fad12b"},"vehicle_type_id":"4","last_reported":1768829847,"current_range_meters":6800,"station_id":"ce4bhgh2rcd13ifvqfb0","pricing_plan_id":"cebpf4jnsgd1na2vs0mg"},{"bike_id":"9fc6ac0d-bade-4fb6-8533-07cc6e23f68c","system_id":"levelo_inurba_marseille","lat":43.26942,"lon":5.40261,"is_reserved":false,"is_disabled":false,"rental_uris":{"android":"levelo://app?vid=9fc6ac0d-bade-4fb6-8533-07cc6e23f68c","ios":"levelo://app?vid=9fc6ac0d-bade-4fb6-8533-07cc6e23f68c"},"vehicle_type_id":"4","last_reported":1768829847,"current_range_meters":6800,"station_id":"cjm6bp8fraef2m0cb0m0","pricing_plan_id":"cebpf4jnsgd1na2vs0mg"},{"bike_id":"06aa1e22-882b-4a8c-bb89-f22e976a2f36","system_id":"levelo_inurba_marseille","lat":43.24164,"lon":5.39694,"is_reserved":false,"is_disabled":false,"rental_uris":{"android":"levelo://app?vid=06aa1e22-882b-4a8c-bb89-f22e976a2f36","ios":"levelo://app?vid=06aa1e22-882b-4a8c-bb89-f22e976a2f36"},"vehicle_type_id":"4","last_reported":1768829847,"current_range_meters":6800,"station_id":"ce4bhn12rcd13ifvqgpg","pricing_plan_id":"cebpf4jnsgd1na2vs0mg"},{"bike_id":"021245d1-2447-411c-ae8b-dc86f3fa4f87","system_id":"levelo_inurba_marseille","lat":43.26485,"lon":5.39537,"is_reserved":false,"is_disabled":false,"rental_uris":{"android":"levelo://app?vid=021245d1-2447-411c-ae8b-dc86f3fa4f87","ios":"levelo://app?vid=021245d1-2447-411c-ae8b-dc86f3fa4f87"},"vehicle_type_id":"4","last_reported":1768829847,"current_range_meters":6800,"station_id":"ce4bhi12rcd13ifvqfq0","pricing_plan_id":"cebpf4jnsgd1na2vs0mg"},{"bike_id":"5704e9bd-5b46-470f-b72c-dc5633415471","system_id":"levelo_inurba_marseille","lat":43.23154,"lon":5.43689,"is_reserved":false,"is_disabled":true,"rental_uris":{"android":"levelo://app?vid=5704e9bd-5b46-470f-b72c-dc5633415471","ios":"levelo://app?vid=5704e9bd-5b46-470f-b72c-dc5633415471"},"vehicle_type_id":"4","last_reported":1768829847,"current_range_meters":6800,"station_id":"ce4bhmp2rcd13ifvqgog","pricing_plan_id":"cebpf4jnsgd1na2vs0mg"},{"bike_id":"d3812b38-2182-4903-b326-c4852403c5ce","system_id":"levelo_inurba_marseille","lat":43.28757,"lon":5.3716,"is_reserved":false,"is_disabled":false,"rental_uris":{"android":"levelo://app?vid=d3812b38-2182-4903-b326-c4852403c5ce","ios":"levelo://app?vid=d3812b38-2182-4903-b326-c4852403c5ce"},"vehicle_type_id":"4","last_reported":1768829847,"current_range_meters":6800,"station_id":"","pricing_plan_id":"cebpf4jnsgd1na2vs0mg"},{"bike_id":"d868b1d1-383c-4450-891d-a85ef90edc98","system_id":"levelo_inurba_marseille","lat":43.29031,"lon":5.37574,"is_reserved":false,"is_disabled":false,"rental_uris":{"android":"levelo://app?vid=d868b1d1-383c-4450-891d-a85ef90edc98","ios":"levelo://app?vid=d868b1d1-383c-4450-891d-a85ef90edc98"},"vehicle_type_id":"4","last_reported":1768829847,"current_range_meters":6800,"station_id":"ce4bh692rcd13ifvqe90","pricing_plan_id":"cebpf4jnsgd1na2vs0mg"},{"bike_id":"10bd453f-e454-49dd-80dc-07bb3d4d5197","system_id":"levelo_inurba_marseille","lat":43.24944,"lon":5.40482,"is_reserved":false,"is_disabled":false,"rental_uris":{"android":"levelo://app?vid=10bd453f-e454-49dd-80dc-07bb3d4d5197","ios":"levelo://app?vid=10bd453f-e454-49dd-80dc-07bb3d4d5197"},"vehicle_type_id":"4","last_reported":1768829847,"current_range_meters":6800,"station_id":"st_d2ngiaodas8pm72gd1h0","pricing_plan_id":"cebpf4jnsgd1na2vs0mg"},{"bike_id":"bd17d1b9-bbcd-4bf8-aa9a-6c69b6b5c5fa","system_id":"levelo_inurba_marseille","lat":43.30963,"lon":5.39047,"is_reserved":false,"is_disabled":false,"rental_uris":{"android":"levelo://app?vid=bd17d1b9-bbcd-4bf8-aa9a-6c69b6b5c5fa","ios":"levelo://app?vid=bd17d1b9-bbcd-4bf8-aa9a-6c69b6b5c5fa"},"vehicle_type_id":"4","last_reported":1768829847,"current_range_meters":6800,"station_id":"ce4bgup2rcd13ifvqco0","pricing_plan_id":"cebpf4jnsgd1na2vs0mg"},{"bike_id":"5bdbac83-4ca9-4acc-953c-d7ce0bac2fc0","system_id":"levelo_inurba_marseille","lat":43.33753,"lon":5.37462,"is_reserved":false,"is_disabled":false,"rental_uris":{"android":"levelo://app?vid=5bdbac83-4ca9-4acc-953c-d7ce0bac2fc0","ios":"levelo://app?vid=5bdbac83-4ca9-4acc-953c-d7ce0bac2fc0"},"vehicle_type_id":"4","last_reported":1768829847,"current_range_meters":6800,"station_id":"","pricing_plan_id":"cebpf4jnsgd1na2vs0mg"},{"bike_id":"306ae422-344d-4e31-b790-440e968153a0","system_id":"levelo_inurba_marseille","lat":43.25336,"lon":5.37976,"is_reserved":false,"is_disabled":false,"rental_uris":{"android":"levelo://app?vid=306ae422-344d-4e31-b790-440e968153a0","ios":"levelo://app?vid=306ae422-344d-4e31-b790-440e968153a0"},"vehicle_type_id":"4","last_reported":1768829847,"current_range_meters":6800,"station_id":"","pricing_plan_id":"cebpf4jnsgd1na2vs0mg"},{"bike_id":"5ae88bbd-8cbd-41bb-a736-0a14706247a2","system_id":"levelo_inurba_marseille","lat":43.26573,"lon":5.40323,"is_reserved":false,"is_disabled":false,"rental_uris":{"android":"levelo://app?vid=5ae88bbd-8cbd-41bb-a736-0a14706247a2","ios":"levelo://app?vid=5ae88bbd-8cbd-41bb-a736-0a14706247a2"},"vehicle_type_id":"4","last_reported":1768829847,"current_range_meters":6800,"station_id":"ce4bhmp2rcd13ifvqgng","pricing_plan_id":"cebpf4jnsgd1na2vs0mg"},{"bike_id":"5534c176-090e-4cd1-b55f-4273d90ee04f","system_id":"levelo_inurba_marseille","lat":43.24102,"lon":5.37753,"is_reserved":false,"is_disabled":false,"rental_uris":{"android":"levelo://app?vid=5534c176-090e-4cd1-b55f-4273d90ee04f","ios":"levelo://app?vid=5534c176-090e-4cd1-b55f-4273d90ee04f"},"vehicle_type_id":"4","last_reported":1768829847,"current_range_meters":6800,"station_id":"ce4bhnp2rcd13ifvqgvg","pricing_plan_id":"cebpf4jnsgd1na2vs0mg"},{"bike_id":"eb243468-bdf5-4b02-8303-fec3406f4620","system_id":"levelo_inurba_marseille","lat":43.289213,"lon":5.383965,"is_reserved":false,"is_disabled":true,"rental_uris":{"android":"levelo://app?vid=eb243468-bdf5-4b02-8303-fec3406f4620","ios":"levelo://app?vid=eb243468-bdf5-4b02-8303-fec3406f4620"},"vehicle_type_id":"4","last_reported":1768829847,"current_range_meters":6800,"station_id":"ce4bh612rcd13ifvqe6g","pricing_plan_id":"cebpf4jnsgd1na2vs0mg"},{"bike_id":"588be245-bbde-495b-9796-212ba245cf4a","system_id":"levelo_inurba_marseille","lat":43.24173,"lon":5.39721,"is_reserved":false,"is_disabled":false,"rental_uris":{"android":"levelo://app?vid=588be245-bbde-495b-9796-212ba245cf4a","ios":"levelo://app?vid=588be245-bbde-495b-9796-212ba245cf4a"},"vehicle_type_id":"4","last_reported":1768829847,"current_range_meters":6800,"station_id":"ce4bhn12rcd13ifvqgpg","pricing_plan_id":"cebpf4jnsgd1na2vs0mg"},{"bike_id":"20df884b-a2b2-44f7-a1cf-24de25e06883","system_id":"levelo_inurba_marseille","lat":43.27212,"lon":5.39178,"is_reserved":false,"is_disabled":false,"rental_uris":{"android":"levelo://app?vid=20df884b-a2b2-44f7-a1cf-24de25e06883","ios":"levelo://app?vid=20df884b-a2b2-44f7-a1cf-24de25e06883"},"vehicle_type_id":"4","last_reported":1768829847,"current_range_meters":7200,"station_id":"ce4bhhp2rcd13ifvqfm0","pricing_plan_id":"cebpf4jnsgd1na2vs0mg"},{"bike_id":"83394c5c-d598-4f02-8287-a23be8f8aac1","system_id":"levelo_inurba_marseille","lat":43.29709,"lon":5.36612,"is_reserved":false,"is_disabled":false,"rental_uris":{"android":"levelo://app?vid=83394c5c-d598-4f02-8287-a23be8f8aac1","ios":"levelo://app?vid=83394c5c-d598-4f02-8287-a23be8f8aac1"},"vehicle_type_id":"4","last_reported":1768829847,"current_range_meters":7200,"station_id":"ce4bgn12rcd13ifvqbt0","pricing_plan_id":"cebpf4jnsgd1na2vs0mg"},{"bike_id":"a83679e3-65d3-49c0-aa96-4844e203de21","system_id":"levelo_inurba_marseille","lat":43.33758,"lon":5.37493,"is_reserved":false,"is_disabled":false,"rental_uris":{"android":"levelo://app?vid=a83679e3-65d3-49c0-aa96-4844e203de21","ios":"levelo://app?vid=a83679e3-65d3-49c0-aa96-4844e203de21"},"vehicle_type_id":"4","last_reported":1768829847,"current_range_meters":7200,"station_id":"","pricing_plan_id":"cebpf4jnsgd1na2vs0mg"},{"bike_id":"ccc4ff47-1441-4ab4-a8dc-dc13c4eaa1c1","system_id":"levelo_inurba_marseille","lat":43.22572,"lon":5.41639,"is_reserved":false,"is_disabled":false,"rental_uris":{"android":"levelo://app?vid=ccc4ff47-1441-4ab4-a8dc-dc13c4eaa1c1","ios":"levelo://app?vid=ccc4ff47-1441-4ab4-a8dc-dc13c4eaa1c1"},"vehicle_type_id":"4","last_reported":1768829847,"current_range_meters":7200,"station_id":"st_d2o4gvlbi1j2169b742g","pricing_plan_id":"cebpf4jnsgd1na2vs0mg"},{"bike_id":"3bff1722-2d94-4fad-b0de-e97e95277ca6","system_id":"levelo_inurba_marseille","lat":43.25205,"lon":5.40061,"is_reserved":false,"is_disabled":false,"rental_uris":{"android":"levelo://app?vid=3bff1722-2d94-4fad-b0de-e97e95277ca6","ios":"levelo://app?vid=3bff1722-2d94-4fad-b0de-e97e95277ca6"},"vehicle_type_id":"4","last_reported":1768829847,"current_range_meters":7200,"station_id":"","pricing_plan_id":"cebpf4jnsgd1na2vs0mg"},{"bike_id":"1dd59fdd-775c-4c2f-a5a5-3355fae7a44c","system_id":"levelo_inurba_marseille","lat":43.27811,"lon":5.40709,"is_reserved":false,"is_disabled":false,"rental_uris":{"android":"levelo://app?vid=1dd59fdd-775c-4c2f-a5a5-3355fae7a44c","ios":"levelo://app?vid=1dd59fdd-775c-4c2f-a5a5-3355fae7a44c"},"vehicle_type_id":"4","last_reported":1768829847,"current_range_meters":7200,"station_id":"ce4bhnh2rcd13ifvqgtg","pricing_plan_id":"cebpf4jnsgd1na2vs0mg"},{"bike_id":"6953e04b-d84b-4640-98c6-da96d77ec4a6","system_id":"levelo_inurba_marseille","lat":43.284731,"lon":5.384309,"is_reserved":false,"is_disabled":true,"rental_uris":{"android":"levelo://app?vid=6953e04b-d84b-4640-98c6-da96d77ec4a6","ios":"levelo://app?vid=6953e04b-d84b-4640-98c6-da96d77ec4a6"},"vehicle_type_id":"4","last_reported":1768829847,"current_range_meters":7200,"station_id":"ce4bh512rcd13ifvqe3g","pricing_plan_id":"cebpf4jnsgd1na2vs0mg"},{"bike_id":"cc6944a3-010b-4be8-863a-786debb11f95","system_id":"levelo_inurba_marseille","lat":43.29264,"lon":5.38432,"is_reserved":false,"is_disabled":false,"rental_uris":{"android":"levelo://app?vid=cc6944a3-010b-4be8-863a-786debb11f95","ios":"levelo://app?vid=cc6944a3-010b-4be8-863a-786debb11f95"},"vehicle_type_id":"4","last_reported":1768829847,"current_range_meters":7200,"station_id":"ce4bh692rcd13ifvqea0","pricing_plan_id":"cebpf4jnsgd1na2vs0mg"},{"bike_id":"43565008-54b6-415c-9faf-fa9e6acb1f2c","system_id":"levelo_inurba_marseille","lat":43.27986,"lon":5.39955,"is_reserved":false,"is_disabled":false,"rental_uris":{"android":"levelo://app?vid=43565008-54b6-415c-9faf-fa9e6acb1f2c","ios":"levelo://app?vid=43565008-54b6-415c-9faf-fa9e6acb1f2c"},"vehicle_type_id":"4","last_reported":1768829847,"current_range_meters":7200,"station_id":"ce4bho92rcd13ifvqh4g","pricing_plan_id":"cebpf4jnsgd1na2vs0mg"},{"bike_id":"1d53d8bc-f0dc-422e-b6d0-a0abdf57df70","system_id":"levelo_inurba_marseille","lat":43.298,"lon":5.39319,"is_reserved":false,"is_disabled":false,"rental_uris":{"android":"levelo://app?vid=1d53d8bc-f0dc-422e-b6d0-a0abdf57df70","ios":"levelo://app?vid=1d53d8bc-f0dc-422e-b6d0-a0abdf57df70"},"vehicle_type_id":"4","last_reported":1768829847,"current_range_meters":7200,"station_id":"chh1huq6cuj3fo74tm60","pricing_plan_id":"cebpf4jnsgd1na2vs0mg"},{"bike_id":"88d3af62-307c-472a-850a-91fe2fd8ba0c","system_id":"levelo_inurba_marseille","lat":43.28517,"lon":5.44111,"is_reserved":false,"is_disabled":false,"rental_uris":{"android":"levelo://app?vid=88d3af62-307c-472a-850a-91fe2fd8ba0c","ios":"levelo://app?vid=88d3af62-307c-472a-850a-91fe2fd8ba0c"},"vehicle_type_id":"4","last_reported":1768829847,"current_range_meters":7200,"station_id":"st_d3j3df2ikq2c7380ej80","pricing_plan_id":"cebpf4jnsgd1na2vs0mg"},{"bike_id":"6f837731-cf54-4967-8659-d0cccc748050","system_id":"levelo_inurba_marseille","lat":43.263601,"lon":5.41086,"is_reserved":false,"is_disabled":false,"rental_uris":{"android":"levelo://app?vid=6f837731-cf54-4967-8659-d0cccc748050","ios":"levelo://app?vid=6f837731-cf54-4967-8659-d0cccc748050"},"vehicle_type_id":"4","last_reported":1768829847,"current_range_meters":7200,"station_id":"st_d4e5ca6na9uc73bfl5fg","pricing_plan_id":"cebpf4jnsgd1na2vs0mg"},{"bike_id":"1c9c535a-0e0c-4d30-b79f-90067fffd249","system_id":"levelo_inurba_marseille","lat":43.25344,"lon":5.42154,"is_reserved":false,"is_disabled":false,"rental_uris":{"android":"levelo://app?vid=1c9c535a-0e0c-4d30-b79f-90067fffd249","ios":"levelo://app?vid=1c9c535a-0e0c-4d30-b79f-90067fffd249"},"vehicle_type_id":"4","last_reported":1768829847,"current_range_meters":7200,"station_id":"st_d2m65c5bi1j21697t3ng","pricing_plan_id":"cebpf4jnsgd1na2vs0mg"},{"bike_id":"3732903a-6500-49f8-a8ed-1bea0eb70d1c","system_id":"levelo_inurba_marseille","lat":43.28109,"lon":5.37839,"is_reserved":false,"is_disabled":false,"rental_uris":{"android":"levelo://app?vid=3732903a-6500-49f8-a8ed-1bea0eb70d1c","ios":"levelo://app?vid=3732903a-6500-49f8-a8ed-1bea0eb70d1c"},"vehicle_type_id":"4","last_reported":1768829847,"current_range_meters":7200,"station_id":"ce4bha12rcd13ifvqee0","pricing_plan_id":"cebpf4jnsgd1na2vs0mg"},{"bike_id":"34a3c7f4-c8be-4749-b66c-ec9e01cc5793","system_id":"levelo_inurba_marseille","lat":43.25339,"lon":5.42166,"is_reserved":false,"is_disabled":false,"rental_uris":{"android":"levelo://app?vid=34a3c7f4-c8be-4749-b66c-ec9e01cc5793","ios":"levelo://app?vid=34a3c7f4-c8be-4749-b66c-ec9e01cc5793"},"vehicle_type_id":"4","last_reported":1768829847,"current_range_meters":8000,"station_id":"st_d2m65c5bi1j21697t3ng","pricing_plan_id":"cebpf4jnsgd1na2vs0mg"},{"bike_id":"13da125f-4521-4fe2-a137-a13bd6fc1b34","system_id":"levelo_inurba_marseille","lat":43.253352,"lon":5.421661,"is_reserved":false,"is_disabled":false,"rental_uris":{"android":"levelo://app?vid=13da125f-4521-4fe2-a137-a13bd6fc1b34","ios":"levelo://app?vid=13da125f-4521-4fe2-a137-a13bd6fc1b34"},"vehicle_type_id":"4","last_reported":1768829847,"current_range_meters":8000,"station_id":"st_d2m65c5bi1j21697t3ng","pricing_plan_id":"cebpf4jnsgd1na2vs0mg"},{"bike_id":"aa3643ff-356f-46c2-b40b-dc28ae448ae1","system_id":"levelo_inurba_marseille","lat":43.312284,"lon":5.368443,"is_reserved":false,"is_disabled":false,"rental_uris":{"android":"levelo://app?vid=aa3643ff-356f-46c2-b40b-dc28ae448ae1","ios":"levelo://app?vid=aa3643ff-356f-46c2-b40b-dc28ae448ae1"},"vehicle_type_id":"4","last_reported":1768829847,"current_range_meters":8000,"station_id":"ce4bgl92rcd13ifvqbq0","pricing_plan_id":"cebpf4jnsgd1na2vs0mg"},{"bike_id":"f3fe69b8-de29-44f7-9ad3-b92ace1be15e","system_id":"levelo_inurba_marseille","lat":43.30956,"lon":5.39031,"is_reserved":false,"is_disabled":false,"rental_uris":{"android":"levelo://app?vid=f3fe69b8-de29-44f7-9ad3-b92ace1be15e","ios":"levelo://app?vid=f3fe69b8-de29-44f7-9ad3-b92ace1be15e"},"vehicle_type_id":"4","last_reported":1768829847,"current_range_meters":8000,"station_id":"ce4bgup2rcd13ifvqco0","pricing_plan_id":"cebpf4jnsgd1na2vs0mg"},{"bike_id":"46d6d074-0010-4db5-a3ab-441825cc65bb","system_id":"levelo_inurba_marseille","lat":43.30196,"lon":5.37987,"is_reserved":false,"is_disabled":false,"rental_uris":{"android":"levelo://app?vid=46d6d074-0010-4db5-a3ab-441825cc65bb","ios":"levelo://app?vid=46d6d074-0010-4db5-a3ab-441825cc65bb"},"vehicle_type_id":"4","last_reported":1768829847,"current_range_meters":8000,"station_id":"","pricing_plan_id":"cebpf4jnsgd1na2vs0mg"},{"bike_id":"fb170a31-36a9-4476-9f35-99bbf21c7f4b","system_id":"levelo_inurba_marseille","lat":43.31267,"lon":5.36845,"is_reserved":false,"is_disabled":false,"rental_uris":{"android":"levelo://app?vid=fb170a31-36a9-4476-9f35-99bbf21c7f4b","ios":"levelo://app?vid=fb170a31-36a9-4476-9f35-99bbf21c7f4b"},"vehicle_type_id":"4","last_reported":1768829847,"current_range_meters":8000,"station_id":"ce4bgl92rcd13ifvqbq0","pricing_plan_id":"cebpf4jnsgd1na2vs0mg"},{"bike_id":"f336c3d1-92f0-437c-8a24-0fd4f7906c2d","system_id":"levelo_inurba_marseille","lat":43.265,"lon":5.39543,"is_reserved":false,"is_disabled":false,"rental_uris":{"android":"levelo://app?vid=f336c3d1-92f0-437c-8a24-0fd4f7906c2d","ios":"levelo://app?vid=f336c3d1-92f0-437c-8a24-0fd4f7906c2d"},"vehicle_type_id":"4","last_reported":1768829847,"current_range_meters":8000,"station_id":"","pricing_plan_id":"cebpf4jnsgd1na2vs0mg"},{"bike_id":"d6daaaa9-f946-4eab-92b9-574cc16557f1","system_id":"levelo_inurba_marseille","lat":43.27808,"lon":5.40709,"is_reserved":false,"is_disabled":false,"rental_uris":{"android":"levelo://app?vid=d6daaaa9-f946-4eab-92b9-574cc16557f1","ios":"levelo://app?vid=d6daaaa9-f946-4eab-92b9-574cc16557f1"},"vehicle_type_id":"4","last_reported":1768829847,"current_range_meters":8000,"station_id":"ce4bhnh2rcd13ifvqgtg","pricing_plan_id":"cebpf4jnsgd1na2vs0mg"},{"bike_id":"0328d966-1bb8-4104-bc8c-65287b271812","system_id":"levelo_inurba_marseille","lat":43.22938,"lon":5.35374,"is_reserved":false,"is_disabled":false,"rental_uris":{"android":"levelo://app?vid=0328d966-1bb8-4104-bc8c-65287b271812","ios":"levelo://app?vid=0328d966-1bb8-4104-bc8c-65287b271812"},"vehicle_type_id":"4","last_reported":1768829847,"current_range_meters":8000,"station_id":"cpo3532slgdg3j2ikp40","pricing_plan_id":"cebpf4jnsgd1na2vs0mg"},{"bike_id":"acaa8ffd-d6bb-453e-8ba1-c98b6c468cd3","system_id":"levelo_inurba_marseille","lat":43.22942,"lon":5.35364,"is_reserved":false,"is_disabled":false,"rental_uris":{"android":"levelo://app?vid=acaa8ffd-d6bb-453e-8ba1-c98b6c468cd3","ios":"levelo://app?vid=acaa8ffd-d6bb-453e-8ba1-c98b6c468cd3"},"vehicle_type_id":"4","last_reported":1768829847,"current_range_meters":8000,"station_id":"cpo3532slgdg3j2ikp40","pricing_plan_id":"cebpf4jnsgd1na2vs0mg"},{"bike_id":"2f41e160-ae0e-4981-a182-e0ec9c9778a7","system_id":"levelo_inurba_marseille","lat":43.264946,"lon":5.395401,"is_reserved":false,"is_disabled":false,"rental_uris":{"android":"levelo://app?vid=2f41e160-ae0e-4981-a182-e0ec9c9778a7","ios":"levelo://app?vid=2f41e160-ae0e-4981-a182-e0ec9c9778a7"},"vehicle_type_id":"4","last_reported":1768829847,"current_range_meters":8000,"station_id":"ce4bhi12rcd13ifvqfq0","pricing_plan_id":"cebpf4jnsgd1na2vs0mg"},{"bike_id":"5f195323-5623-4e6c-81ad-6a125f1ac01b","system_id":"levelo_inurba_marseille","lat":43.27316,"lon":5.39099,"is_reserved":false,"is_disabled":false,"rental_uris":{"android":"levelo://app?vid=5f195323-5623-4e6c-81ad-6a125f1ac01b","ios":"levelo://app?vid=5f195323-5623-4e6c-81ad-6a125f1ac01b"},"vehicle_type_id":"4","last_reported":1768829847,"current_range_meters":8000,"station_id":"ce4bhgp2rcd13ifvqfe0","pricing_plan_id":"cebpf4jnsgd1na2vs0mg"},{"bike_id":"f46e4a11-c8c2-4ae2-8e66-bac5d8a4fdea","system_id":"levelo_inurba_marseille","lat":43.28378,"lon":5.38641,"is_reserved":false,"is_disabled":true,"rental_uris":{"android":"levelo://app?vid=f46e4a11-c8c2-4ae2-8e66-bac5d8a4fdea","ios":"levelo://app?vid=f46e4a11-c8c2-4ae2-8e66-bac5d8a4fdea"},"vehicle_type_id":"4","last_reported":1768829847,"current_range_meters":8000,"station_id":"ce4bh492rcd13ifvqdvg","pricing_plan_id":"cebpf4jnsgd1na2vs0mg"},{"bike_id":"20cce54d-4fe3-4962-8f56-5be743a1400b","system_id":"levelo_inurba_marseille","lat":43.240748,"lon":5.377623,"is_reserved":false,"is_disabled":false,"rental_uris":{"android":"levelo://app?vid=20cce54d-4fe3-4962-8f56-5be743a1400b","ios":"levelo://app?vid=20cce54d-4fe3-4962-8f56-5be743a1400b"},"vehicle_type_id":"4","last_reported":1768829847,"current_range_meters":8000,"station_id":"ce4bhnp2rcd13ifvqgvg","pricing_plan_id":"cebpf4jnsgd1na2vs0mg"},{"bike_id":"c02f3c43-1dcb-4841-afae-273aa31ff239","system_id":"levelo_inurba_marseille","lat":43.24089,"lon":5.37766,"is_reserved":false,"is_disabled":false,"rental_uris":{"android":"levelo://app?vid=c02f3c43-1dcb-4841-afae-273aa31ff239","ios":"levelo://app?vid=c02f3c43-1dcb-4841-afae-273aa31ff239"},"vehicle_type_id":"4","last_reported":1768829847,"current_range_meters":8000,"station_id":"ce4bhnp2rcd13ifvqgvg","pricing_plan_id":"cebpf4jnsgd1na2vs0mg"},{"bike_id":"64b17c91-97e7-4b8e-92a6-d8f8e0775f78","system_id":"levelo_inurba_marseille","lat":43.27578,"lon":5.38413,"is_reserved":false,"is_disabled":false,"rental_uris":{"android":"levelo://app?vid=64b17c91-97e7-4b8e-92a6-d8f8e0775f78","ios":"levelo://app?vid=64b17c91-97e7-4b8e-92a6-d8f8e0775f78"},"vehicle_type_id":"4","last_reported":1768829847,"current_range_meters":8000,"station_id":"ce4bhh92rcd13ifvqfi0","pricing_plan_id":"cebpf4jnsgd1na2vs0mg"},{"bike_id":"6b92093d-c29d-463b-9fc5-b0f4c4640037","system_id":"levelo_inurba_marseille","lat":43.30547,"lon":5.36742,"is_reserved":false,"is_disabled":false,"rental_uris":{"android":"levelo://app?vid=6b92093d-c29d-463b-9fc5-b0f4c4640037","ios":"levelo://app?vid=6b92093d-c29d-463b-9fc5-b0f4c4640037"},"vehicle_type_id":"4","last_reported":1768829847,"current_range_meters":8000,"station_id":"ce4bgrp2rcd13ifvqc9g","pricing_plan_id":"cebpf4jnsgd1na2vs0mg"},{"bike_id":"e8a2ddc7-2a2d-4f6b-9d53-e3a3233c7517","system_id":"levelo_inurba_marseille","lat":43.26692,"lon":5.38256,"is_reserved":false,"is_disabled":false,"rental_uris":{"android":"levelo://app?vid=e8a2ddc7-2a2d-4f6b-9d53-e3a3233c7517","ios":"levelo://app?vid=e8a2ddc7-2a2d-4f6b-9d53-e3a3233c7517"},"vehicle_type_id":"4","last_reported":1768829847,"current_range_meters":8000,"station_id":"ce4bhg92rcd13ifvqf90","pricing_plan_id":"cebpf4jnsgd1na2vs0mg"},{"bike_id":"95b3dd57-3210-46c8-9f17-d3344248f023","system_id":"levelo_inurba_marseille","lat":43.28106,"lon":5.37836,"is_reserved":false,"is_disabled":false,"rental_uris":{"android":"levelo://app?vid=95b3dd57-3210-46c8-9f17-d3344248f023","ios":"levelo://app?vid=95b3dd57-3210-46c8-9f17-d3344248f023"},"vehicle_type_id":"4","last_reported":1768829847,"current_range_meters":8000,"station_id":"ce4bha12rcd13ifvqee0","pricing_plan_id":"cebpf4jnsgd1na2vs0mg"},{"bike_id":"f9f8a8f1-3e83-422a-be3f-b4b0ecb4bfda","system_id":"levelo_inurba_marseille","lat":43.3363,"lon":5.41036,"is_reserved":false,"is_disabled":false,"rental_uris":{"android":"levelo://app?vid=f9f8a8f1-3e83-422a-be3f-b4b0ecb4bfda","ios":"levelo://app?vid=f9f8a8f1-3e83-422a-be3f-b4b0ecb4bfda"},"vehicle_type_id":"4","last_reported":1768829847,"current_range_meters":8000,"station_id":"ce4bhqh2rcd13ifvqhmg","pricing_plan_id":"cebpf4jnsgd1na2vs0mg"},{"bike_id":"57be3e91-b810-4f66-9bd9-c6a2219dc40e","system_id":"levelo_inurba_marseille","lat":43.31144,"lon":5.37972,"is_reserved":false,"is_disabled":false,"rental_uris":{"android":"levelo://app?vid=57be3e91-b810-4f66-9bd9-c6a2219dc40e","ios":"levelo://app?vid=57be3e91-b810-4f66-9bd9-c6a2219dc40e"},"vehicle_type_id":"4","last_reported":1768829847,"current_range_meters":8000,"station_id":"","pricing_plan_id":"cebpf4jnsgd1na2vs0mg"},{"bike_id":"fa24b0c3-1f06-4db7-a0e8-ec443ee534f0","system_id":"levelo_inurba_marseille","lat":43.23185,"lon":5.43712,"is_reserved":false,"is_disabled":false,"rental_uris":{"android":"levelo://app?vid=fa24b0c3-1f06-4db7-a0e8-ec443ee534f0","ios":"levelo://app?vid=fa24b0c3-1f06-4db7-a0e8-ec443ee534f0"},"vehicle_type_id":"4","last_reported":1768829847,"current_range_meters":8000,"station_id":"ce4bhmp2rcd13ifvqgog","pricing_plan_id":"cebpf4jnsgd1na2vs0mg"},{"bike_id":"66be4975-a998-4194-9935-b43dc8ede75e","system_id":"levelo_inurba_marseille","lat":43.29045,"lon":5.39971,"is_reserved":false,"is_disabled":false,"rental_uris":{"android":"levelo://app?vid=66be4975-a998-4194-9935-b43dc8ede75e","ios":"levelo://app?vid=66be4975-a998-4194-9935-b43dc8ede75e"},"vehicle_type_id":"4","last_reported":1768829847,"current_range_meters":8000,"station_id":"ce4bh392rcd13ifvqdm0","pricing_plan_id":"cebpf4jnsgd1na2vs0mg"},{"bike_id":"f4e48943-7c61-4e64-a2bb-8ed9a5946f73","system_id":"levelo_inurba_marseille","lat":43.27993,"lon":5.40009,"is_reserved":false,"is_disabled":false,"rental_uris":{"android":"levelo://app?vid=f4e48943-7c61-4e64-a2bb-8ed9a5946f73","ios":"levelo://app?vid=f4e48943-7c61-4e64-a2bb-8ed9a5946f73"},"vehicle_type_id":"4","last_reported":1768829847,"current_range_meters":8400,"station_id":"ce4bho92rcd13ifvqh4g","pricing_plan_id":"cebpf4jnsgd1na2vs0mg"},{"bike_id":"780cff24-2f0b-4214-a9d2-0d7056d089ce","system_id":"levelo_inurba_marseille","lat":43.26403,"lon":5.41049,"is_reserved":false,"is_disabled":false,"rental_uris":{"android":"levelo://app?vid=780cff24-2f0b-4214-a9d2-0d7056d089ce","ios":"levelo://app?vid=780cff24-2f0b-4214-a9d2-0d7056d089ce"},"vehicle_type_id":"4","last_reported":1768829847,"current_range_meters":8400,"station_id":"st_d4e5ca6na9uc73bfl5fg","pricing_plan_id":"cebpf4jnsgd1na2vs0mg"},{"bike_id":"3e9f82a3-b362-419d-ac3c-48b328f4d313","system_id":"levelo_inurba_marseille","lat":43.30541,"lon":5.38413,"is_reserved":false,"is_disabled":false,"rental_uris":{"android":"levelo://app?vid=3e9f82a3-b362-419d-ac3c-48b328f4d313","ios":"levelo://app?vid=3e9f82a3-b362-419d-ac3c-48b328f4d313"},"vehicle_type_id":"4","last_reported":1768829847,"current_range_meters":8400,"station_id":"ce4bgg92rcd13ifvqb30","pricing_plan_id":"cebpf4jnsgd1na2vs0mg"},{"bike_id":"afef40a4-d60a-4b10-8526-4ff9f145813a","system_id":"levelo_inurba_marseille","lat":43.31405,"lon":5.36693,"is_reserved":false,"is_disabled":false,"rental_uris":{"android":"levelo://app?vid=afef40a4-d60a-4b10-8526-4ff9f145813a","ios":"levelo://app?vid=afef40a4-d60a-4b10-8526-4ff9f145813a"},"vehicle_type_id":"4","last_reported":1768829847,"current_range_meters":8400,"station_id":"","pricing_plan_id":"cebpf4jnsgd1na2vs0mg"},{"bike_id":"bb2c52a2-480e-4028-95f2-76eee39af4f9","system_id":"levelo_inurba_marseille","lat":43.24101,"lon":5.37728,"is_reserved":false,"is_disabled":false,"rental_uris":{"android":"levelo://app?vid=bb2c52a2-480e-4028-95f2-76eee39af4f9","ios":"levelo://app?vid=bb2c52a2-480e-4028-95f2-76eee39af4f9"},"vehicle_type_id":"4","last_reported":1768829847,"current_range_meters":8400,"station_id":"ce4bhnp2rcd13ifvqgvg","pricing_plan_id":"cebpf4jnsgd1na2vs0mg"},{"bike_id":"05cd7e5a-b4bd-4b6f-b3d6-497cfd8d5643","system_id":"levelo_inurba_marseille","lat":43.25818,"lon":5.39442,"is_reserved":false,"is_disabled":false,"rental_uris":{"android":"levelo://app?vid=05cd7e5a-b4bd-4b6f-b3d6-497cfd8d5643","ios":"levelo://app?vid=05cd7e5a-b4bd-4b6f-b3d6-497cfd8d5643"},"vehicle_type_id":"4","last_reported":1768829847,"current_range_meters":8400,"station_id":"ce4bhip2rcd13ifvqft0","pricing_plan_id":"cebpf4jnsgd1na2vs0mg"},{"bike_id":"da0ad026-b199-4969-84a3-287aa818d529","system_id":"levelo_inurba_marseille","lat":43.2819,"lon":5.42635,"is_reserved":false,"is_disabled":false,"rental_uris":{"android":"levelo://app?vid=da0ad026-b199-4969-84a3-287aa818d529","ios":"levelo://app?vid=da0ad026-b199-4969-84a3-287aa818d529"},"vehicle_type_id":"4","last_reported":1768829847,"current_range_meters":8400,"station_id":"ce4bhnh2rcd13ifvqgug","pricing_plan_id":"cebpf4jnsgd1na2vs0mg"},{"bike_id":"4754b381-ed0a-4074-a1f1-a72a1d20517f","system_id":"levelo_inurba_marseille","lat":43.24471,"lon":5.42576,"is_reserved":false,"is_disabled":false,"rental_uris":{"android":"levelo://app?vid=4754b381-ed0a-4074-a1f1-a72a1d20517f","ios":"levelo://app?vid=4754b381-ed0a-4074-a1f1-a72a1d20517f"},"vehicle_type_id":"4","last_reported":1768829847,"current_range_meters":8400,"station_id":"st_d4a3vfp97mjs738cd8kg","pricing_plan_id":"cebpf4jnsgd1na2vs0mg"},{"bike_id":"9c2cab59-c676-4adf-8cce-a29c3421246b","system_id":"levelo_inurba_marseille","lat":43.29585,"lon":5.38095,"is_reserved":false,"is_disabled":false,"rental_uris":{"android":"levelo://app?vid=9c2cab59-c676-4adf-8cce-a29c3421246b","ios":"levelo://app?vid=9c2cab59-c676-4adf-8cce-a29c3421246b"},"vehicle_type_id":"4","last_reported":1768829847,"current_range_meters":8400,"station_id":"ce4bgl12rcd13ifvqbo0","pricing_plan_id":"cebpf4jnsgd1na2vs0mg"},{"bike_id":"5151743b-c714-4a58-b647-a359c3085256","system_id":"levelo_inurba_marseille","lat":43.30571,"lon":5.36719,"is_reserved":false,"is_disabled":false,"rental_uris":{"android":"levelo://app?vid=5151743b-c714-4a58-b647-a359c3085256","ios":"levelo://app?vid=5151743b-c714-4a58-b647-a359c3085256"},"vehicle_type_id":"4","last_reported":1768829847,"current_range_meters":8400,"station_id":"ce4bgrp2rcd13ifvqc9g","pricing_plan_id":"cebpf4jnsgd1na2vs0mg"},{"bike_id":"27518759-38d9-42ea-b78d-e449d75c6098","system_id":"levelo_inurba_marseille","lat":43.30577,"lon":5.3668,"is_reserved":false,"is_disabled":false,"rental_uris":{"android":"levelo://app?vid=27518759-38d9-42ea-b78d-e449d75c6098","ios":"levelo://app?vid=27518759-38d9-42ea-b78d-e449d75c6098"},"vehicle_type_id":"4","last_reported":1768829847,"current_range_meters":8400,"station_id":"ce4bgrp2rcd13ifvqc9g","pricing_plan_id":"cebpf4jnsgd1na2vs0mg"},{"bike_id":"c52c00da-1d63-40d0-b484-be6c25252029","system_id":"levelo_inurba_marseille","lat":43.27995,"lon":5.41657,"is_reserved":false,"is_disabled":false,"rental_uris":{"android":"levelo://app?vid=c52c00da-1d63-40d0-b484-be6c25252029","ios":"levelo://app?vid=c52c00da-1d63-40d0-b484-be6c25252029"},"vehicle_type_id":"4","last_reported":1768829847,"current_range_meters":8400,"station_id":"ce4bho12rcd13ifvqh1g","pricing_plan_id":"cebpf4jnsgd1na2vs0mg"},{"bike_id":"52a54695-2fa8-4dbc-af4e-de36e0c11ef7","system_id":"levelo_inurba_marseille","lat":43.24951,"lon":5.40489,"is_reserved":false,"is_disabled":true,"rental_uris":{"android":"levelo://app?vid=52a54695-2fa8-4dbc-af4e-de36e0c11ef7","ios":"levelo://app?vid=52a54695-2fa8-4dbc-af4e-de36e0c11ef7"},"vehicle_type_id":"4","last_reported":1768829847,"current_range_meters":8400,"station_id":"st_d2ngiaodas8pm72gd1h0","pricing_plan_id":"cebpf4jnsgd1na2vs0mg"},{"bike_id":"a00e0aa8-4a99-49cd-aebf-45acf1723135","system_id":"levelo_inurba_marseille","lat":43.3044,"lon":5.38878,"is_reserved":false,"is_disabled":false,"rental_uris":{"android":"levelo://app?vid=a00e0aa8-4a99-49cd-aebf-45acf1723135","ios":"levelo://app?vid=a00e0aa8-4a99-49cd-aebf-45acf1723135"},"vehicle_type_id":"4","last_reported":1768829847,"current_range_meters":8400,"station_id":"ce4bgk12rcd13ifvqbi0","pricing_plan_id":"cebpf4jnsgd1na2vs0mg"},{"bike_id":"fc7f2684-8a59-4c6e-99f6-7a7e3cf7beac","system_id":"levelo_inurba_marseille","lat":43.23169,"lon":5.43696,"is_reserved":false,"is_disabled":false,"rental_uris":{"android":"levelo://app?vid=fc7f2684-8a59-4c6e-99f6-7a7e3cf7beac","ios":"levelo://app?vid=fc7f2684-8a59-4c6e-99f6-7a7e3cf7beac"},"vehicle_type_id":"4","last_reported":1768829847,"current_range_meters":8400,"station_id":"ce4bhmp2rcd13ifvqgog","pricing_plan_id":"cebpf4jnsgd1na2vs0mg"},{"bike_id":"90d23a06-db44-47d5-94c7-72d407e95b38","system_id":"levelo_inurba_marseille","lat":43.27896,"lon":5.37409,"is_reserved":false,"is_disabled":false,"rental_uris":{"android":"levelo://app?vid=90d23a06-db44-47d5-94c7-72d407e95b38","ios":"levelo://app?vid=90d23a06-db44-47d5-94c7-72d407e95b38"},"vehicle_type_id":"4","last_reported":1768829847,"current_range_meters":8400,"station_id":"","pricing_plan_id":"cebpf4jnsgd1na2vs0mg"},{"bike_id":"f7662739-d69c-4274-a8c7-8f29a69d71e7","system_id":"levelo_inurba_marseille","lat":43.217387,"lon":5.346013,"is_reserved":false,"is_disabled":false,"rental_uris":{"android":"levelo://app?vid=f7662739-d69c-4274-a8c7-8f29a69d71e7","ios":"levelo://app?vid=f7662739-d69c-4274-a8c7-8f29a69d71e7"},"vehicle_type_id":"4","last_reported":1768829847,"current_range_meters":8400,"station_id":"st_cvj6r9ubvosntc0bgbag","pricing_plan_id":"cebpf4jnsgd1na2vs0mg"},{"bike_id":"5dbff422-dd1f-46e7-9d1a-61bdd6bff1c6","system_id":"levelo_inurba_marseille","lat":43.26571,"lon":5.39026,"is_reserved":false,"is_disabled":false,"rental_uris":{"android":"levelo://app?vid=5dbff422-dd1f-46e7-9d1a-61bdd6bff1c6","ios":"levelo://app?vid=5dbff422-dd1f-46e7-9d1a-61bdd6bff1c6"},"vehicle_type_id":"4","last_reported":1768829847,"current_range_meters":8400,"station_id":"ce4bhe12rcd13ifvqf30","pricing_plan_id":"cebpf4jnsgd1na2vs0mg"},{"bike_id":"4fd17409-1968-4c6c-a239-c20887dcb84a","system_id":"levelo_inurba_marseille","lat":43.23141,"lon":5.43687,"is_reserved":false,"is_disabled":false,"rental_uris":{"android":"levelo://app?vid=4fd17409-1968-4c6c-a239-c20887dcb84a","ios":"levelo://app?vid=4fd17409-1968-4c6c-a239-c20887dcb84a"},"vehicle_type_id":"4","last_reported":1768829847,"current_range_meters":8400,"station_id":"ce4bhmp2rcd13ifvqgog","pricing_plan_id":"cebpf4jnsgd1na2vs0mg"},{"bike_id":"40fa3246-9652-432d-aff7-2fb56fccf5da","system_id":"levelo_inurba_marseille","lat":43.32501,"lon":5.382928,"is_reserved":false,"is_disabled":false,"rental_uris":{"android":"levelo://app?vid=40fa3246-9652-432d-aff7-2fb56fccf5da","ios":"levelo://app?vid=40fa3246-9652-432d-aff7-2fb56fccf5da"},"vehicle_type_id":"4","last_reported":1768829847,"current_range_meters":8400,"station_id":"st_d4asgbiv49dc73anf9m0","pricing_plan_id":"cebpf4jnsgd1na2vs0mg"},{"bike_id":"0a38285d-18fe-4b1f-86c3-ab262685e66a","system_id":"levelo_inurba_marseille","lat":43.26778,"lon":5.39421,"is_reserved":false,"is_disabled":false,"rental_uris":{"android":"levelo://app?vid=0a38285d-18fe-4b1f-86c3-ab262685e66a","ios":"levelo://app?vid=0a38285d-18fe-4b1f-86c3-ab262685e66a"},"vehicle_type_id":"4","last_reported":1768829847,"current_range_meters":8800,"station_id":"ce4bhh12rcd13ifvqfg0","pricing_plan_id":"cebpf4jnsgd1na2vs0mg"},{"bike_id":"7dd13941-101d-45cd-b1ba-9319f32c063f","system_id":"levelo_inurba_marseille","lat":43.323496,"lon":5.367318,"is_reserved":false,"is_disabled":false,"rental_uris":{"android":"levelo://app?vid=7dd13941-101d-45cd-b1ba-9319f32c063f","ios":"levelo://app?vid=7dd13941-101d-45cd-b1ba-9319f32c063f"},"vehicle_type_id":"4","last_reported":1768829847,"current_range_meters":8800,"station_id":"ce4bhsh2rcd13ifvqi2g","pricing_plan_id":"cebpf4jnsgd1na2vs0mg"},{"bike_id":"4650f407-bc82-4c79-8bf1-e1e423078e7c","system_id":"levelo_inurba_marseille","lat":43.27982,"lon":5.40034,"is_reserved":false,"is_disabled":false,"rental_uris":{"android":"levelo://app?vid=4650f407-bc82-4c79-8bf1-e1e423078e7c","ios":"levelo://app?vid=4650f407-bc82-4c79-8bf1-e1e423078e7c"},"vehicle_type_id":"4","last_reported":1768829847,"current_range_meters":8800,"station_id":"ce4bho92rcd13ifvqh4g","pricing_plan_id":"cebpf4jnsgd1na2vs0mg"},{"bike_id":"86265432-a1f8-4465-89b4-518a4facc392","system_id":"levelo_inurba_marseille","lat":43.24181,"lon":5.39716,"is_reserved":false,"is_disabled":false,"rental_uris":{"android":"levelo://app?vid=86265432-a1f8-4465-89b4-518a4facc392","ios":"levelo://app?vid=86265432-a1f8-4465-89b4-518a4facc392"},"vehicle_type_id":"4","last_reported":1768829847,"current_range_meters":8800,"station_id":"ce4bhn12rcd13ifvqgpg","pricing_plan_id":"cebpf4jnsgd1na2vs0mg"},{"bike_id":"ff8745c4-faf1-4826-a408-20955957778b","system_id":"levelo_inurba_marseille","lat":43.29775,"lon":5.42778,"is_reserved":false,"is_disabled":false,"rental_uris":{"android":"levelo://app?vid=ff8745c4-faf1-4826-a408-20955957778b","ios":"levelo://app?vid=ff8745c4-faf1-4826-a408-20955957778b"},"vehicle_type_id":"4","last_reported":1768829847,"current_range_meters":8800,"station_id":"st_d3md5207bmas73dh9klg","pricing_plan_id":"cebpf4jnsgd1na2vs0mg"},{"bike_id":"de5f3ca3-22fd-4c8c-afac-8827e3455c9d","system_id":"levelo_inurba_marseille","lat":43.29037,"lon":5.37551,"is_reserved":false,"is_disabled":false,"rental_uris":{"android":"levelo://app?vid=de5f3ca3-22fd-4c8c-afac-8827e3455c9d","ios":"levelo://app?vid=de5f3ca3-22fd-4c8c-afac-8827e3455c9d"},"vehicle_type_id":"4","last_reported":1768829847,"current_range_meters":8800,"station_id":"ce4bh692rcd13ifvqe90","pricing_plan_id":"cebpf4jnsgd1na2vs0mg"},{"bike_id":"48026642-6379-4746-85b8-aa6582d42114","system_id":"levelo_inurba_marseille","lat":43.25004,"lon":5.38937,"is_reserved":false,"is_disabled":false,"rental_uris":{"android":"levelo://app?vid=48026642-6379-4746-85b8-aa6582d42114","ios":"levelo://app?vid=48026642-6379-4746-85b8-aa6582d42114"},"vehicle_type_id":"4","last_reported":1768829847,"current_range_meters":8800,"station_id":"ce4bhgp2rcd13ifvqfd0","pricing_plan_id":"cebpf4jnsgd1na2vs0mg"},{"bike_id":"aeae1784-df8e-4539-a5cb-2ea89128ab39","system_id":"levelo_inurba_marseille","lat":43.301868,"lon":5.366142,"is_reserved":false,"is_disabled":false,"rental_uris":{"android":"levelo://app?vid=aeae1784-df8e-4539-a5cb-2ea89128ab39","ios":"levelo://app?vid=aeae1784-df8e-4539-a5cb-2ea89128ab39"},"vehicle_type_id":"4","last_reported":1768829847,"current_range_meters":8800,"station_id":"ce4bgrh2rcd13ifvqc8g","pricing_plan_id":"cebpf4jnsgd1na2vs0mg"},{"bike_id":"23cd1750-1739-4dbf-9ddb-11ce92ae1347","system_id":"levelo_inurba_marseille","lat":43.25962,"lon":5.40893,"is_reserved":false,"is_disabled":false,"rental_uris":{"android":"levelo://app?vid=23cd1750-1739-4dbf-9ddb-11ce92ae1347","ios":"levelo://app?vid=23cd1750-1739-4dbf-9ddb-11ce92ae1347"},"vehicle_type_id":"4","last_reported":1768829847,"current_range_meters":8800,"station_id":"ce4bhm92rcd13ifvqglg","pricing_plan_id":"cebpf4jnsgd1na2vs0mg"},{"bike_id":"87a0bd82-0485-42a9-8ea8-2c44da12ad98","system_id":"levelo_inurba_marseille","lat":43.30112,"lon":5.43121,"is_reserved":false,"is_disabled":false,"rental_uris":{"android":"levelo://app?vid=87a0bd82-0485-42a9-8ea8-2c44da12ad98","ios":"levelo://app?vid=87a0bd82-0485-42a9-8ea8-2c44da12ad98"},"vehicle_type_id":"4","last_reported":1768829847,"current_range_meters":8800,"station_id":"st_d3js3co5814s73ftftug","pricing_plan_id":"cebpf4jnsgd1na2vs0mg"},{"bike_id":"a354e8f1-0376-4a9c-a066-f6ef75bdf134","system_id":"levelo_inurba_marseille","lat":43.26867,"lon":5.39594,"is_reserved":false,"is_disabled":false,"rental_uris":{"android":"levelo://app?vid=a354e8f1-0376-4a9c-a066-f6ef75bdf134","ios":"levelo://app?vid=a354e8f1-0376-4a9c-a066-f6ef75bdf134"},"vehicle_type_id":"4","last_reported":1768829847,"current_range_meters":8800,"station_id":"","pricing_plan_id":"cebpf4jnsgd1na2vs0mg"},{"bike_id":"fe691611-82ba-4f61-981f-88c3cc8482ae","system_id":"levelo_inurba_marseille","lat":43.27948,"lon":5.41051,"is_reserved":false,"is_disabled":false,"rental_uris":{"android":"levelo://app?vid=fe691611-82ba-4f61-981f-88c3cc8482ae","ios":"levelo://app?vid=fe691611-82ba-4f61-981f-88c3cc8482ae"},"vehicle_type_id":"4","last_reported":1768829847,"current_range_meters":8800,"station_id":"ce4bhnp2rcd13ifvqh0g","pricing_plan_id":"cebpf4jnsgd1na2vs0mg"},{"bike_id":"160068fb-85f0-4670-999b-6e5179c968a8","system_id":"levelo_inurba_marseille","lat":43.31205,"lon":5.36847,"is_reserved":false,"is_disabled":false,"rental_uris":{"android":"levelo://app?vid=160068fb-85f0-4670-999b-6e5179c968a8","ios":"levelo://app?vid=160068fb-85f0-4670-999b-6e5179c968a8"},"vehicle_type_id":"4","last_reported":1768829847,"current_range_meters":8800,"station_id":"ce4bgl92rcd13ifvqbq0","pricing_plan_id":"cebpf4jnsgd1na2vs0mg"},{"bike_id":"d8172597-a2a9-416d-aa9c-f9d345a032da","system_id":"levelo_inurba_marseille","lat":43.2497,"lon":5.38967,"is_reserved":false,"is_disabled":false,"rental_uris":{"android":"levelo://app?vid=d8172597-a2a9-416d-aa9c-f9d345a032da","ios":"levelo://app?vid=d8172597-a2a9-416d-aa9c-f9d345a032da"},"vehicle_type_id":"4","last_reported":1768829847,"current_range_meters":8800,"station_id":"","pricing_plan_id":"cebpf4jnsgd1na2vs0mg"},{"bike_id":"528feb04-ccab-4a53-91c2-b4b8dddcf48f","system_id":"levelo_inurba_marseille","lat":43.285338,"lon":5.440969,"is_reserved":false,"is_disabled":false,"rental_uris":{"android":"levelo://app?vid=528feb04-ccab-4a53-91c2-b4b8dddcf48f","ios":"levelo://app?vid=528feb04-ccab-4a53-91c2-b4b8dddcf48f"},"vehicle_type_id":"4","last_reported":1768829847,"current_range_meters":8800,"station_id":"st_d3j3df2ikq2c7380ej80","pricing_plan_id":"cebpf4jnsgd1na2vs0mg"},{"bike_id":"eb40b9ae-40f2-450b-a3d3-a215b2c06bfd","system_id":"levelo_inurba_marseille","lat":43.31567,"lon":5.38023,"is_reserved":false,"is_disabled":false,"rental_uris":{"android":"levelo://app?vid=eb40b9ae-40f2-450b-a3d3-a215b2c06bfd","ios":"levelo://app?vid=eb40b9ae-40f2-450b-a3d3-a215b2c06bfd"},"vehicle_type_id":"4","last_reported":1768829847,"current_range_meters":8800,"station_id":"ce4bhsp2rcd13ifvqi50","pricing_plan_id":"cebpf4jnsgd1na2vs0mg"},{"bike_id":"8b85e06b-a35c-4e7b-b0cd-fdd8d626d85a","system_id":"levelo_inurba_marseille","lat":43.31231,"lon":5.36908,"is_reserved":false,"is_disabled":false,"rental_uris":{"android":"levelo://app?vid=8b85e06b-a35c-4e7b-b0cd-fdd8d626d85a","ios":"levelo://app?vid=8b85e06b-a35c-4e7b-b0cd-fdd8d626d85a"},"vehicle_type_id":"4","last_reported":1768829847,"current_range_meters":8800,"station_id":"ce4bgl92rcd13ifvqbq0","pricing_plan_id":"cebpf4jnsgd1na2vs0mg"},{"bike_id":"3b7d1059-f493-4af7-a3db-225bb265c0d6","system_id":"levelo_inurba_marseille","lat":43.25851,"lon":5.39435,"is_reserved":false,"is_disabled":false,"rental_uris":{"android":"levelo://app?vid=3b7d1059-f493-4af7-a3db-225bb265c0d6","ios":"levelo://app?vid=3b7d1059-f493-4af7-a3db-225bb265c0d6"},"vehicle_type_id":"4","last_reported":1768829847,"current_range_meters":8800,"station_id":"ce4bhip2rcd13ifvqft0","pricing_plan_id":"cebpf4jnsgd1na2vs0mg"},{"bike_id":"2723bfbb-fe38-4d7f-b03c-9c11f9b02499","system_id":"levelo_inurba_marseille","lat":43.28884,"lon":5.42472,"is_reserved":false,"is_disabled":false,"rental_uris":{"android":"levelo://app?vid=2723bfbb-fe38-4d7f-b03c-9c11f9b02499","ios":"levelo://app?vid=2723bfbb-fe38-4d7f-b03c-9c11f9b02499"},"vehicle_type_id":"4","last_reported":1768829847,"current_range_meters":8800,"station_id":"","pricing_plan_id":"cebpf4jnsgd1na2vs0mg"},{"bike_id":"bcddf850-3b2f-4444-aa5f-b022b7614ec1","system_id":"levelo_inurba_marseille","lat":43.29768,"lon":5.42772,"is_reserved":false,"is_disabled":false,"rental_uris":{"android":"levelo://app?vid=bcddf850-3b2f-4444-aa5f-b022b7614ec1","ios":"levelo://app?vid=bcddf850-3b2f-4444-aa5f-b022b7614ec1"},"vehicle_type_id":"4","last_reported":1768829847,"current_range_meters":8800,"station_id":"st_d3md5207bmas73dh9klg","pricing_plan_id":"cebpf4jnsgd1na2vs0mg"},{"bike_id":"593b643a-c803-4d19-a281-cacea4f9d88e","system_id":"levelo_inurba_marseille","lat":43.27894,"lon":5.40995,"is_reserved":false,"is_disabled":false,"rental_uris":{"android":"levelo://app?vid=593b643a-c803-4d19-a281-cacea4f9d88e","ios":"levelo://app?vid=593b643a-c803-4d19-a281-cacea4f9d88e"},"vehicle_type_id":"4","last_reported":1768829847,"current_range_meters":9200,"station_id":"","pricing_plan_id":"cebpf4jnsgd1na2vs0mg"},{"bike_id":"a6eb309a-af83-4cbb-8a37-5d6d4de190ee","system_id":"levelo_inurba_marseille","lat":43.26518,"lon":5.39552,"is_reserved":false,"is_disabled":false,"rental_uris":{"android":"levelo://app?vid=a6eb309a-af83-4cbb-8a37-5d6d4de190ee","ios":"levelo://app?vid=a6eb309a-af83-4cbb-8a37-5d6d4de190ee"},"vehicle_type_id":"4","last_reported":1768829847,"current_range_meters":9200,"station_id":"ce4bhi12rcd13ifvqfq0","pricing_plan_id":"cebpf4jnsgd1na2vs0mg"},{"bike_id":"3ba0d64d-9f7f-4707-9a7e-d2bb874e31bf","system_id":"levelo_inurba_marseille","lat":43.24466,"lon":5.42536,"is_reserved":false,"is_disabled":false,"rental_uris":{"android":"levelo://app?vid=3ba0d64d-9f7f-4707-9a7e-d2bb874e31bf","ios":"levelo://app?vid=3ba0d64d-9f7f-4707-9a7e-d2bb874e31bf"},"vehicle_type_id":"4","last_reported":1768829847,"current_range_meters":9200,"station_id":"st_d4a3vfp97mjs738cd8kg","pricing_plan_id":"cebpf4jnsgd1na2vs0mg"},{"bike_id":"7d5056bc-d995-40a2-b862-14a61c203225","system_id":"levelo_inurba_marseille","lat":43.27814,"lon":5.40699,"is_reserved":false,"is_disabled":false,"rental_uris":{"android":"levelo://app?vid=7d5056bc-d995-40a2-b862-14a61c203225","ios":"levelo://app?vid=7d5056bc-d995-40a2-b862-14a61c203225"},"vehicle_type_id":"4","last_reported":1768829847,"current_range_meters":9200,"station_id":"ce4bhnh2rcd13ifvqgtg","pricing_plan_id":"cebpf4jnsgd1na2vs0mg"},{"bike_id":"031ceb54-6f26-4623-bb87-6fe6a644af73","system_id":"levelo_inurba_marseille","lat":43.24164,"lon":5.36393,"is_reserved":false,"is_disabled":false,"rental_uris":{"android":"levelo://app?vid=031ceb54-6f26-4623-bb87-6fe6a644af73","ios":"levelo://app?vid=031ceb54-6f26-4623-bb87-6fe6a644af73"},"vehicle_type_id":"4","last_reported":1768829847,"current_range_meters":9200,"station_id":"cpo36qri1sfpv3e86is0","pricing_plan_id":"cebpf4jnsgd1na2vs0mg"},{"bike_id":"d938f418-a6a7-4fd7-bdf0-363eac71fa5b","system_id":"levelo_inurba_marseille","lat":43.24171,"lon":5.39729,"is_reserved":false,"is_disabled":false,"rental_uris":{"android":"levelo://app?vid=d938f418-a6a7-4fd7-bdf0-363eac71fa5b","ios":"levelo://app?vid=d938f418-a6a7-4fd7-bdf0-363eac71fa5b"},"vehicle_type_id":"4","last_reported":1768829847,"current_range_meters":9200,"station_id":"ce4bhn12rcd13ifvqgpg","pricing_plan_id":"cebpf4jnsgd1na2vs0mg"},{"bike_id":"60252f81-4612-4f0f-b1f8-33dbf352ebfb","system_id":"levelo_inurba_marseille","lat":43.29746,"lon":5.3731,"is_reserved":false,"is_disabled":false,"rental_uris":{"android":"levelo://app?vid=60252f81-4612-4f0f-b1f8-33dbf352ebfb","ios":"levelo://app?vid=60252f81-4612-4f0f-b1f8-33dbf352ebfb"},"vehicle_type_id":"4","last_reported":1768829847,"current_range_meters":9200,"station_id":"","pricing_plan_id":"cebpf4jnsgd1na2vs0mg"},{"bike_id":"4632152f-a8df-490e-ac09-407a881c6ecf","system_id":"levelo_inurba_marseille","lat":43.30133,"lon":5.37464,"is_reserved":false,"is_disabled":false,"rental_uris":{"android":"levelo://app?vid=4632152f-a8df-490e-ac09-407a881c6ecf","ios":"levelo://app?vid=4632152f-a8df-490e-ac09-407a881c6ecf"},"vehicle_type_id":"4","last_reported":1768829847,"current_range_meters":9200,"station_id":"ce4bgs92rcd13ifvqcc0","pricing_plan_id":"cebpf4jnsgd1na2vs0mg"},{"bike_id":"c8df4b98-1cdd-4d91-a5ac-a7f9348f51a6","system_id":"levelo_inurba_marseille","lat":43.26021,"lon":5.41738,"is_reserved":false,"is_disabled":false,"rental_uris":{"android":"levelo://app?vid=c8df4b98-1cdd-4d91-a5ac-a7f9348f51a6","ios":"levelo://app?vid=c8df4b98-1cdd-4d91-a5ac-a7f9348f51a6"},"vehicle_type_id":"4","last_reported":1768829847,"current_range_meters":9200,"station_id":"","pricing_plan_id":"cebpf4jnsgd1na2vs0mg"},{"bike_id":"5fc52565-6f50-4d9d-9a50-78581b9e2c33","system_id":"levelo_inurba_marseille","lat":43.22559,"lon":5.41647,"is_reserved":false,"is_disabled":false,"rental_uris":{"android":"levelo://app?vid=5fc52565-6f50-4d9d-9a50-78581b9e2c33","ios":"levelo://app?vid=5fc52565-6f50-4d9d-9a50-78581b9e2c33"},"vehicle_type_id":"4","last_reported":1768829847,"current_range_meters":9200,"station_id":"st_d2o4gvlbi1j2169b742g","pricing_plan_id":"cebpf4jnsgd1na2vs0mg"},{"bike_id":"45f6d4ac-5181-4355-ba56-f8b29b34911e","system_id":"levelo_inurba_marseille","lat":43.23777,"lon":5.36647,"is_reserved":false,"is_disabled":false,"rental_uris":{"android":"levelo://app?vid=45f6d4ac-5181-4355-ba56-f8b29b34911e","ios":"levelo://app?vid=45f6d4ac-5181-4355-ba56-f8b29b34911e"},"vehicle_type_id":"4","last_reported":1768829847,"current_range_meters":9200,"station_id":"st_d3nk18o9ro0c73en2l3g","pricing_plan_id":"cebpf4jnsgd1na2vs0mg"},{"bike_id":"f62b459f-1a86-4618-bcb4-2c01f05d64f1","system_id":"levelo_inurba_marseille","lat":43.28155,"lon":5.43167,"is_reserved":false,"is_disabled":false,"rental_uris":{"android":"levelo://app?vid=f62b459f-1a86-4618-bcb4-2c01f05d64f1","ios":"levelo://app?vid=f62b459f-1a86-4618-bcb4-2c01f05d64f1"},"vehicle_type_id":"4","last_reported":1768829847,"current_range_meters":9200,"station_id":"","pricing_plan_id":"cebpf4jnsgd1na2vs0mg"},{"bike_id":"b7c580e6-6952-48df-a12d-631c94c85558","system_id":"levelo_inurba_marseille","lat":43.28891,"lon":5.42984,"is_reserved":false,"is_disabled":false,"rental_uris":{"android":"levelo://app?vid=b7c580e6-6952-48df-a12d-631c94c85558","ios":"levelo://app?vid=b7c580e6-6952-48df-a12d-631c94c85558"},"vehicle_type_id":"4","last_reported":1768829847,"current_range_meters":9200,"station_id":"","pricing_plan_id":"cebpf4jnsgd1na2vs0mg"},{"bike_id":"6656b804-573d-4bd7-beec-255d1319f693","system_id":"levelo_inurba_marseille","lat":43.28,"lon":5.4001,"is_reserved":false,"is_disabled":false,"rental_uris":{"android":"levelo://app?vid=6656b804-573d-4bd7-beec-255d1319f693","ios":"levelo://app?vid=6656b804-573d-4bd7-beec-255d1319f693"},"vehicle_type_id":"4","last_reported":1768829847,"current_range_meters":9600,"station_id":"ce4bho92rcd13ifvqh4g","pricing_plan_id":"cebpf4jnsgd1na2vs0mg"},{"bike_id":"b115d95f-740a-4cca-98ff-e2f399e732c0","system_id":"levelo_inurba_marseille","lat":43.30273,"lon":5.377197,"is_reserved":false,"is_disabled":false,"rental_uris":{"android":"levelo://app?vid=b115d95f-740a-4cca-98ff-e2f399e732c0","ios":"levelo://app?vid=b115d95f-740a-4cca-98ff-e2f399e732c0"},"vehicle_type_id":"4","last_reported":1768829847,"current_range_meters":9600,"station_id":"ce4bguh2rcd13ifvqcj0","pricing_plan_id":"cebpf4jnsgd1na2vs0mg"},{"bike_id":"bc6ef339-77f0-43c0-9a51-d222e054e209","system_id":"levelo_inurba_marseille","lat":43.260693,"lon":5.393958,"is_reserved":false,"is_disabled":false,"rental_uris":{"android":"levelo://app?vid=bc6ef339-77f0-43c0-9a51-d222e054e209","ios":"levelo://app?vid=bc6ef339-77f0-43c0-9a51-d222e054e209"},"vehicle_type_id":"4","last_reported":1768829847,"current_range_meters":9600,"station_id":"ce4bhh92rcd13ifvqfj0","pricing_plan_id":"cebpf4jnsgd1na2vs0mg"},{"bike_id":"26e3a85f-ffb5-4828-97af-3a2ce907364e","system_id":"levelo_inurba_marseille","lat":43.26555,"lon":5.40317,"is_reserved":false,"is_disabled":false,"rental_uris":{"android":"levelo://app?vid=26e3a85f-ffb5-4828-97af-3a2ce907364e","ios":"levelo://app?vid=26e3a85f-ffb5-4828-97af-3a2ce907364e"},"vehicle_type_id":"4","last_reported":1768829847,"current_range_meters":9600,"station_id":"ce4bhmp2rcd13ifvqgng","pricing_plan_id":"cebpf4jnsgd1na2vs0mg"},{"bike_id":"d334b5d1-1eb6-44b0-859e-d76e3af2d49c","system_id":"levelo_inurba_marseille","lat":43.30146,"lon":5.37411,"is_reserved":false,"is_disabled":false,"rental_uris":{"android":"levelo://app?vid=d334b5d1-1eb6-44b0-859e-d76e3af2d49c","ios":"levelo://app?vid=d334b5d1-1eb6-44b0-859e-d76e3af2d49c"},"vehicle_type_id":"4","last_reported":1768829847,"current_range_meters":9600,"station_id":"ce4bgs92rcd13ifvqcc0","pricing_plan_id":"cebpf4jnsgd1na2vs0mg"},{"bike_id":"6f8b575c-ec29-419c-982d-883da8eaf4ae","system_id":"levelo_inurba_marseille","lat":43.33181,"lon":5.37693,"is_reserved":false,"is_disabled":false,"rental_uris":{"android":"levelo://app?vid=6f8b575c-ec29-419c-982d-883da8eaf4ae","ios":"levelo://app?vid=6f8b575c-ec29-419c-982d-883da8eaf4ae"},"vehicle_type_id":"4","last_reported":1768829847,"current_range_meters":9600,"station_id":"st_d46cu089ee8s73dldbu0","pricing_plan_id":"cebpf4jnsgd1na2vs0mg"},{"bike_id":"9ef6d50b-736f-4b19-9438-898789aac48f","system_id":"levelo_inurba_marseille","lat":43.289738,"lon":5.378389,"is_reserved":false,"is_disabled":false,"rental_uris":{"android":"levelo://app?vid=9ef6d50b-736f-4b19-9438-898789aac48f","ios":"levelo://app?vid=9ef6d50b-736f-4b19-9438-898789aac48f"},"vehicle_type_id":"4","last_reported":1768829847,"current_range_meters":9600,"station_id":"ce4bh9p2rcd13ifvqed0","pricing_plan_id":"cebpf4jnsgd1na2vs0mg"},{"bike_id":"597fd967-89d0-4f00-a092-ffecad62bc9a","system_id":"levelo_inurba_marseille","lat":43.29109,"lon":5.38928,"is_reserved":false,"is_disabled":false,"rental_uris":{"android":"levelo://app?vid=597fd967-89d0-4f00-a092-ffecad62bc9a","ios":"levelo://app?vid=597fd967-89d0-4f00-a092-ffecad62bc9a"},"vehicle_type_id":"4","last_reported":1768829847,"current_range_meters":9600,"station_id":"","pricing_plan_id":"cebpf4jnsgd1na2vs0mg"},{"bike_id":"bcd356d2-e481-40ce-9575-c122d8805aa1","system_id":"levelo_inurba_marseille","lat":43.26063,"lon":5.39399,"is_reserved":false,"is_disabled":false,"rental_uris":{"android":"levelo://app?vid=bcd356d2-e481-40ce-9575-c122d8805aa1","ios":"levelo://app?vid=bcd356d2-e481-40ce-9575-c122d8805aa1"},"vehicle_type_id":"4","last_reported":1768829847,"current_range_meters":9600,"station_id":"ce4bhh92rcd13ifvqfj0","pricing_plan_id":"cebpf4jnsgd1na2vs0mg"},{"bike_id":"273940dc-fc51-44ba-bd6c-cbff66b7d839","system_id":"levelo_inurba_marseille","lat":43.28613,"lon":5.3987,"is_reserved":false,"is_disabled":false,"rental_uris":{"android":"levelo://app?vid=273940dc-fc51-44ba-bd6c-cbff66b7d839","ios":"levelo://app?vid=273940dc-fc51-44ba-bd6c-cbff66b7d839"},"vehicle_type_id":"4","last_reported":1768829847,"current_range_meters":9600,"station_id":"st_d4a7ka997mjs738ck50g","pricing_plan_id":"cebpf4jnsgd1na2vs0mg"},{"bike_id":"7425d75a-c7de-46b5-bd84-85c19ab69f2d","system_id":"levelo_inurba_marseille","lat":43.24139,"lon":5.39714,"is_reserved":false,"is_disabled":false,"rental_uris":{"android":"levelo://app?vid=7425d75a-c7de-46b5-bd84-85c19ab69f2d","ios":"levelo://app?vid=7425d75a-c7de-46b5-bd84-85c19ab69f2d"},"vehicle_type_id":"4","last_reported":1768829847,"current_range_meters":9600,"station_id":"ce4bhn12rcd13ifvqgpg","pricing_plan_id":"cebpf4jnsgd1na2vs0mg"},{"bike_id":"ca8b8680-ae93-4726-b3a7-678c11a0f6e0","system_id":"levelo_inurba_marseille","lat":43.28468,"lon":5.38415,"is_reserved":false,"is_disabled":false,"rental_uris":{"android":"levelo://app?vid=ca8b8680-ae93-4726-b3a7-678c11a0f6e0","ios":"levelo://app?vid=ca8b8680-ae93-4726-b3a7-678c11a0f6e0"},"vehicle_type_id":"4","last_reported":1768829847,"current_range_meters":9600,"station_id":"ce4bh512rcd13ifvqe3g","pricing_plan_id":"cebpf4jnsgd1na2vs0mg"},{"bike_id":"5f5964b5-b803-47a0-9177-202b08126eb3","system_id":"levelo_inurba_marseille","lat":43.30614,"lon":5.37231,"is_reserved":false,"is_disabled":false,"rental_uris":{"android":"levelo://app?vid=5f5964b5-b803-47a0-9177-202b08126eb3","ios":"levelo://app?vid=5f5964b5-b803-47a0-9177-202b08126eb3"},"vehicle_type_id":"4","last_reported":1768829847,"current_range_meters":9600,"station_id":"ce4bgqh2rcd13ifvqc4g","pricing_plan_id":"cebpf4jnsgd1na2vs0mg"},{"bike_id":"1d2efba0-fa53-4ce2-9e4d-81c1694f8245","system_id":"levelo_inurba_marseille","lat":43.30539,"lon":5.36549,"is_reserved":false,"is_disabled":true,"rental_uris":{"android":"levelo://app?vid=1d2efba0-fa53-4ce2-9e4d-81c1694f8245","ios":"levelo://app?vid=1d2efba0-fa53-4ce2-9e4d-81c1694f8245"},"vehicle_type_id":"4","last_reported":1768829847,"current_range_meters":9600,"station_id":"ce4bgs12rcd13ifvqcag","pricing_plan_id":"cebpf4jnsgd1na2vs0mg"},{"bike_id":"7a9970f4-d5ca-401b-a87a-c89a7fd126bf","system_id":"levelo_inurba_marseille","lat":43.3057,"lon":5.36715,"is_reserved":false,"is_disabled":false,"rental_uris":{"android":"levelo://app?vid=7a9970f4-d5ca-401b-a87a-c89a7fd126bf","ios":"levelo://app?vid=7a9970f4-d5ca-401b-a87a-c89a7fd126bf"},"vehicle_type_id":"4","last_reported":1768829847,"current_range_meters":9600,"station_id":"ce4bgrp2rcd13ifvqc9g","pricing_plan_id":"cebpf4jnsgd1na2vs0mg"},{"bike_id":"aba1b4c5-be49-4ccb-ae72-110cae12e06e","system_id":"levelo_inurba_marseille","lat":43.28666,"lon":5.38671,"is_reserved":false,"is_disabled":false,"rental_uris":{"android":"levelo://app?vid=aba1b4c5-be49-4ccb-ae72-110cae12e06e","ios":"levelo://app?vid=aba1b4c5-be49-4ccb-ae72-110cae12e06e"},"vehicle_type_id":"4","last_reported":1768829847,"current_range_meters":9600,"station_id":"ce4bh492rcd13ifvqdug","pricing_plan_id":"cebpf4jnsgd1na2vs0mg"},{"bike_id":"d60d1a27-683d-4fc6-b03d-099740ed2de5","system_id":"levelo_inurba_marseille","lat":43.23155,"lon":5.43713,"is_reserved":false,"is_disabled":false,"rental_uris":{"android":"levelo://app?vid=d60d1a27-683d-4fc6-b03d-099740ed2de5","ios":"levelo://app?vid=d60d1a27-683d-4fc6-b03d-099740ed2de5"},"vehicle_type_id":"4","last_reported":1768829847,"current_range_meters":9600,"station_id":"ce4bhmp2rcd13ifvqgog","pricing_plan_id":"cebpf4jnsgd1na2vs0mg"},{"bike_id":"556386fb-6c93-4670-ad31-cccd049685ec","system_id":"levelo_inurba_marseille","lat":43.28007,"lon":5.41653,"is_reserved":false,"is_disabled":false,"rental_uris":{"android":"levelo://app?vid=556386fb-6c93-4670-ad31-cccd049685ec","ios":"levelo://app?vid=556386fb-6c93-4670-ad31-cccd049685ec"},"vehicle_type_id":"4","last_reported":1768829847,"current_range_meters":9600,"station_id":"ce4bho12rcd13ifvqh1g","pricing_plan_id":"cebpf4jnsgd1na2vs0mg"},{"bike_id":"12c44366-fa85-4bab-8df7-d1749aa645a7","system_id":"levelo_inurba_marseille","lat":43.31719,"lon":5.40459,"is_reserved":false,"is_disabled":false,"rental_uris":{"android":"levelo://app?vid=12c44366-fa85-4bab-8df7-d1749aa645a7","ios":"levelo://app?vid=12c44366-fa85-4bab-8df7-d1749aa645a7"},"vehicle_type_id":"4","last_reported":1768829847,"current_range_meters":9600,"station_id":"ce4bh012rcd13ifvqd00","pricing_plan_id":"cebpf4jnsgd1na2vs0mg"},{"bike_id":"e83b2dec-c502-4ce5-8695-2b74293a1817","system_id":"levelo_inurba_marseille","lat":43.26582,"lon":5.39029,"is_reserved":false,"is_disabled":false,"rental_uris":{"android":"levelo://app?vid=e83b2dec-c502-4ce5-8695-2b74293a1817","ios":"levelo://app?vid=e83b2dec-c502-4ce5-8695-2b74293a1817"},"vehicle_type_id":"4","last_reported":1768829847,"current_range_meters":10000,"station_id":"ce4bhe12rcd13ifvqf30","pricing_plan_id":"cebpf4jnsgd1na2vs0mg"},{"bike_id":"c880fea0-0c23-4e8d-9711-3753ebeafced","system_id":"levelo_inurba_marseille","lat":43.31116,"lon":5.37763,"is_reserved":false,"is_disabled":false,"rental_uris":{"android":"levelo://app?vid=c880fea0-0c23-4e8d-9711-3753ebeafced","ios":"levelo://app?vid=c880fea0-0c23-4e8d-9711-3753ebeafced"},"vehicle_type_id":"4","last_reported":1768829847,"current_range_meters":10000,"station_id":"ce4bgt92rcd13ifvqcg0","pricing_plan_id":"cebpf4jnsgd1na2vs0mg"},{"bike_id":"460c38b8-de49-4a2a-a083-dbdc1bb1e2ea","system_id":"levelo_inurba_marseille","lat":43.27998,"lon":5.41665,"is_reserved":false,"is_disabled":false,"rental_uris":{"android":"levelo://app?vid=460c38b8-de49-4a2a-a083-dbdc1bb1e2ea","ios":"levelo://app?vid=460c38b8-de49-4a2a-a083-dbdc1bb1e2ea"},"vehicle_type_id":"4","last_reported":1768829847,"current_range_meters":10000,"station_id":"ce4bho12rcd13ifvqh1g","pricing_plan_id":"cebpf4jnsgd1na2vs0mg"},{"bike_id":"464f5fd3-d3aa-44ea-99ed-958e899847b1","system_id":"levelo_inurba_marseille","lat":43.30718,"lon":5.36585,"is_reserved":false,"is_disabled":false,"rental_uris":{"android":"levelo://app?vid=464f5fd3-d3aa-44ea-99ed-958e899847b1","ios":"levelo://app?vid=464f5fd3-d3aa-44ea-99ed-958e899847b1"},"vehicle_type_id":"4","last_reported":1768829847,"current_range_meters":10000,"station_id":"","pricing_plan_id":"cebpf4jnsgd1na2vs0mg"},