{"last_updated":1746364660,"ttl":60,"version":"2.2","data":{"bikes":[{"bike_id":"d11b7274-ad1d-4343-a0b8-143798db8be1","system_id":"levelo_inurba_marseille","lat":43.22954,"lon":5.35278,"is_reserved":false,"is_disabled":false,"rental_uris":{"android":"levelo://app?vid=d11b7274-ad1d-4343-a0b8-143798db8be1","ios":"levelo://app?vid=d11b7274-ad1d-4343-a0b8-143798db8be1"},"vehicle_type_id":"4","last_reported":1746364660,"current_range_meters":2800,"station_id":"cpo3532slgdg3j2ikp40","pricing_plan_id":"cebpf4jnsgd1na2vs0mg"},{"bike_id":"4341dfab-438e-4d1a-8a6a-87a65b8fed8c","system_id":"levelo_inurba_marseille","lat":43.29894,"lon":5.38132,"is_reserved":false,"is_disabled":true,"rental_uris":{"android":"levelo://app?vid=4341dfab-438e-4d1a-8a6a-87a65b8fed8c","ios":"levelo://app?vid=4341dfab-438e-4d1a-8a6a-87a65b8fed8c"},"vehicle_type_id":"4","last_reported":1746364660,"current_range_meters":2800,"station_id":"ce4bgj12rcd13ifvqbc0","pricing_plan_id":"cebpf4jnsgd1na2vs0mg"},{"bike_id":"23a60c96-15e7-4d94-98e9-c24bb06c8170","system_id":"levelo_inurba_marseille","lat":43.2857,"lon":5.39489,"is_reserved":false,"is_disabled":false,"rental_uris":{"android":"levelo://app?vid=23a60c96-15e7-4d94-98e9-c24bb06c8170","ios":"levelo://app?vid=23a60c96-15e7-4d94-98e9-c24bb06c8170"},"vehicle_type_id":"4","last_reported":1746364660,"current_range_meters":2800,"station_id":"ce4bh292rcd13ifvqdg0","pricing_plan_id":"cebpf4jnsgd1na2vs0mg"},{"bike_id":"523fb1a4-264e-4f7c-962c-30a14c695e35","system_id":"levelo_inurba_marseille","lat":43.31712,"lon":5.43702,"is_reserved":false,"is_disabled":true,"rental_uris":{"android":"levelo://app?vid=523fb1a4-264e-4f7c-962c-30a14c695e35","ios":"levelo://app?vid=523fb1a4-264e-4f7c-962c-30a14c695e35"},"vehicle_type_id":"4","last_reported":1746364660,"current_range_meters":2800,"station_id":"ce4bhp92rcd13ifvqhcg","pricing_plan_id":"cebpf4jnsgd1na2vs0mg"},{"bike_id":"ee431cbb-877d-4c13-8c16-79999e3facb4","system_id":"levelo_inurba_marseille","lat":43.33177,"lon":5.43127,"is_reserved":false,"is_disabled":false,"rental_uris":{"android":"levelo://app?vid=ee431cbb-877d-4c13-8c16-79999e3facb4","ios":"levelo://app?vid=ee431cbb-877d-4c13-8c16-79999e3facb4"},"vehicle_type_id":"4","last_reported":1746364660,"current_range_meters":3200,"station_id":"","pricing_plan_id":"cebpf4jnsgd1na2vs0mg"},{"bike_id":"e7fce64f-bb6e-4503-9481-9be251c388e5","system_id":"levelo_inurba_marseille","lat":43.28486,"lon":5.38402,"is_reserved":false,"is_disabled":false,"rental_uris":{"android":"levelo://app?vid=e7fce64f-bb6e-4503-9481-9be251c388e5","ios":"levelo://app?vid=e7fce64f-bb6e-4503-9481-9be251c388e5"},"vehicle_type_id":"4","last_reported":1746364660,"current_range_meters":3200,"station_id":"ce4bh512rcd13ifvqe3g","pricing_plan_id":"cebpf4jnsgd1na2vs0mg"},{"bike_id":"e341752c-8655-4500-bdaa-1fbfa4780079","system_id":"levelo_inurba_marseille","lat":43.290634,"lon":5.37152,"is_reserved":false,"is_disabled":true,"rental_uris":{"android":"levelo://app?vid=e341752c-8655-4500-bdaa-1fbfa4780079","ios":"levelo://app?vid=e341752c-8655-4500-bdaa-1fbfa4780079"},"vehicle_type_id":"4","last_reported":1746364660,"current_range_meters":3600,"station_id":"ce4bh5p2rcd13ifvqe4g","pricing_plan_id":"cebpf4jnsgd1na2vs0mg"},{"bike_id":"9c9a7491-1b73-44f8-bd52-1e33e6355303","system_id":"levelo_inurba_marseille","lat":43.26545,"lon":5.39543,"is_reserved":false,"is_disabled":false,"rental_uris":{"android":"levelo://app?vid=9c9a7491-1b73-44f8-bd52-1e33e6355303","ios":"levelo://app?vid=9c9a7491-1b73-44f8-bd52-1e33e6355303"},"vehicle_type_id":"4","last_reported":1746364660,"current_range_meters":3600,"station_id":"ce4bhi12rcd13ifvqfq0","pricing_plan_id":"cebpf4jnsgd1na2vs0mg"},{"bike_id":"dffe801c-54a4-4856-aa3d-e70caa285be4","system_id":"levelo_inurba_marseille","lat":43.29237,"lon":5.36136,"is_reserved":false,"is_disabled":true,"rental_uris":{"android":"levelo://app?vid=dffe801c-54a4-4856-aa3d-e70caa285be4","ios":"levelo://app?vid=dffe801c-54a4-4856-aa3d-e70caa285be4"},"vehicle_type_id":"4","last_reported":1746364660,"current_range_meters":3600,"station_id":"","pricing_plan_id":"cebpf4jnsgd1na2vs0mg"},{"bike_id":"75c35565-89f3-4f92-b3b3-af9134ea6aba","system_id":"levelo_inurba_marseille","lat":43.3072,"lon":5.42435,"is_reserved":false,"is_disabled":false,"rental_uris":{"android":"levelo://app?vid=75c35565-89f3-4f92-b3b3-af9134ea6aba","ios":"levelo://app?vid=75c35565-89f3-4f92-b3b3-af9134ea6aba"},"vehicle_type_id":"4","last_reported":1746364660,"current_range_meters":3600,"station_id":"st_cvj6ca6bvosntc0bfgr0","pricing_plan_id":"cebpf4jnsgd1na2vs0mg"},{"bike_id":"ce020ff3-3b0f-4252-b99b-656eb8b9ad2e","system_id":"levelo_inurba_marseille","lat":43.29565,"lon":5.37518,"is_reserved":false,"is_disabled":false,"rental_uris":{"android":"levelo://app?vid=ce020ff3-3b0f-4252-b99b-656eb8b9ad2e","ios":"levelo://app?vid=ce020ff3-3b0f-4252-b99b-656eb8b9ad2e"},"vehicle_type_id":"4","last_reported":1746364660,"current_range_meters":4000,"station_id":"ce4bgh92rcd13ifvqb50","pricing_plan_id":"cebpf4jnsgd1na2vs0mg"},{"bike_id":"441771cd-0001-4237-b26e-f2e1502d0768","system_id":"levelo_inurba_marseille","lat":43.2363,"lon":5.36596,"is_reserved":false,"is_disabled":false,"rental_uris":{"android":"levelo://app?vid=441771cd-0001-4237-b26e-f2e1502d0768","ios":"levelo://app?vid=441771cd-0001-4237-b26e-f2e1502d0768"},"vehicle_type_id":"4","last_reported":1746364660,"current_range_meters":4000,"station_id":"","pricing_plan_id":"cebpf4jnsgd1na2vs0mg"},{"bike_id":"bb7de9c9-c1b6-420d-8956-643d9ead5056","system_id":"levelo_inurba_marseille","lat":43.30741,"lon":5.42432,"is_reserved":false,"is_disabled":false,"rental_uris":{"android":"levelo://app?vid=bb7de9c9-c1b6-420d-8956-643d9ead5056","ios":"levelo://app?vid=bb7de9c9-c1b6-420d-8956-643d9ead5056"},"vehicle_type_id":"4","last_reported":1746364660,"current_range_meters":4400,"station_id":"st_cvj6ca6bvosntc0bfgr0","pricing_plan_id":"cebpf4jnsgd1na2vs0mg"},{"bike_id":"5270c636-bfdb-423d-9a97-66adc64b9307","system_id":"levelo_inurba_marseille","lat":43.31354,"lon":5.38483,"is_reserved":false,"is_disabled":false,"rental_uris":{"android":"levelo://app?vid=5270c636-bfdb-423d-9a97-66adc64b9307","ios":"levelo://app?vid=5270c636-bfdb-423d-9a97-66adc64b9307"},"vehicle_type_id":"4","last_reported":1746364660,"current_range_meters":4400,"station_id":"ce4bgt92rcd13ifvqcf0","pricing_plan_id":"cebpf4jnsgd1na2vs0mg"},{"bike_id":"570b486c-50df-4f1f-97df-caa86c0d419e","system_id":"levelo_inurba_marseille","lat":43.33689,"lon":5.35578,"is_reserved":false,"is_disabled":false,"rental_uris":{"android":"levelo://app?vid=570b486c-50df-4f1f-97df-caa86c0d419e","ios":"levelo://app?vid=570b486c-50df-4f1f-97df-caa86c0d419e"},"vehicle_type_id":"4","last_reported":1746364660,"current_range_meters":4400,"station_id":"","pricing_plan_id":"cebpf4jnsgd1na2vs0mg"},{"bike_id":"b27d5220-ecb3-475c-850e-28403401a541","system_id":"levelo_inurba_marseille","lat":43.32372,"lon":5.38882,"is_reserved":false,"is_disabled":false,"rental_uris":{"android":"levelo://app?vid=b27d5220-ecb3-475c-850e-28403401a541","ios":"levelo://app?vid=b27d5220-ecb3-475c-850e-28403401a541"},"vehicle_type_id":"4","last_reported":1746364660,"current_range_meters":4400,"station_id":"ce4bhqp2rcd13ifvqhog","pricing_plan_id":"cebpf4jnsgd1na2vs0mg"},{"bike_id":"286fd739-1574-49ba-8b9d-a691b98fc6ac","system_id":"levelo_inurba_marseille","lat":43.30522,"lon":5.36516,"is_reserved":false,"is_disabled":false,"rental_uris":{"android":"levelo://app?vid=286fd739-1574-49ba-8b9d-a691b98fc6ac","ios":"levelo://app?vid=286fd739-1574-49ba-8b9d-a691b98fc6ac"},"vehicle_type_id":"4","last_reported":1746364660,"current_range_meters":4400,"station_id":"","pricing_plan_id":"cebpf4jnsgd1na2vs0mg"},{"bike_id":"39d83911-e17e-4776-b8f2-6450602c8696","system_id":"levelo_inurba_marseille","lat":43.299018,"lon":5.436564,"is_reserved":false,"is_disabled":false,"rental_uris":{"android":"levelo://app?vid=39d83911-e17e-4776-b8f2-6450602c8696","ios":"levelo://app?vid=39d83911-e17e-4776-b8f2-6450602c8696"},"vehicle_type_id":"4","last_reported":1746364660,"current_range_meters":4800,"station_id":"ce4bhpp2rcd13ifvqhfg","pricing_plan_id":"cebpf4jnsgd1na2vs0mg"},{"bike_id":"c34bb776-fde6-48e3-ada0-bf8e36286670","system_id":"levelo_inurba_marseille","lat":43.26215,"lon":5.37439,"is_reserved":false,"is_disabled":false,"rental_uris":{"android":"levelo://app?vid=c34bb776-fde6-48e3-ada0-bf8e36286670","ios":"levelo://app?vid=c34bb776-fde6-48e3-ada0-bf8e36286670"},"vehicle_type_id":"4","last_reported":1746364660,"current_range_meters":4800,"station_id":"ce4bhgp2rcd13ifvqfc0","pricing_plan_id":"cebpf4jnsgd1na2vs0mg"},{"bike_id":"c12ef081-c3b0-47b0-8bc8-2aa31d3df1dd","system_id":"levelo_inurba_marseille","lat":43.2307,"lon":5.35487,"is_reserved":false,"is_disabled":false,"rental_uris":{"android":"levelo://app?vid=c12ef081-c3b0-47b0-8bc8-2aa31d3df1dd","ios":"levelo://app?vid=c12ef081-c3b0-47b0-8bc8-2aa31d3df1dd"},"vehicle_type_id":"4","last_reported":1746364660,"current_range_meters":4800,"station_id":"cpo3342slgdg3j2ifvpg","pricing_plan_id":"cebpf4jnsgd1na2vs0mg"},{"bike_id":"35145cef-b32c-4327-8f54-2c039278b0f6","system_id":"levelo_inurba_marseille","lat":43.21753,"lon":5.34589,"is_reserved":false,"is_disabled":true,"rental_uris":{"android":"levelo://app?vid=35145cef-b32c-4327-8f54-2c039278b0f6","ios":"levelo://app?vid=35145cef-b32c-4327-8f54-2c039278b0f6"},"vehicle_type_id":"4","last_reported":1746364660,"current_range_meters":4800,"station_id":"st_cvj6r9ubvosntc0bgbag","pricing_plan_id":"cebpf4jnsgd1na2vs0mg"},{"bike_id":"909825d5-7ad2-409e-b0de-cec7d5b4fa06","system_id":"levelo_inurba_marseille","lat":43.24223,"lon":5.36729,"is_reserved":false,"is_disabled":false,"rental_uris":{"android":"levelo://app?vid=909825d5-7ad2-409e-b0de-cec7d5b4fa06","ios":"levelo://app?vid=909825d5-7ad2-409e-b0de-cec7d5b4fa06"},"vehicle_type_id":"4","last_reported":1746364660,"current_range_meters":4800,"station_id":"","pricing_plan_id":"cebpf4jnsgd1na2vs0mg"},{"bike_id":"5395236a-e34f-4097-a8fd-16eb5288738c","system_id":"levelo_inurba_marseille","lat":43.31267,"lon":5.40162,"is_reserved":false,"is_disabled":false,"rental_uris":{"android":"levelo://app?vid=5395236a-e34f-4097-a8fd-16eb5288738c","ios":"levelo://app?vid=5395236a-e34f-4097-a8fd-16eb5288738c"},"vehicle_type_id":"4","last_reported":1746364660,"current_range_meters":5600,"station_id":"ce4bh092rcd13ifvqd30","pricing_plan_id":"cebpf4jnsgd1na2vs0mg"},{"bike_id":"9fe0a404-0337-4c5d-9d7c-b46996f69d91","system_id":"levelo_inurba_marseille","lat":43.29563,"lon":5.3751,"is_reserved":false,"is_disabled":false,"rental_uris":{"android":"levelo://app?vid=9fe0a404-0337-4c5d-9d7c-b46996f69d91","ios":"levelo://app?vid=9fe0a404-0337-4c5d-9d7c-b46996f69d91"},"vehicle_type_id":"4","last_reported":1746364660,"current_range_meters":7200,"station_id":"ce4bgh92rcd13ifvqb50","pricing_plan_id":"cebpf4jnsgd1na2vs0mg"},{"bike_id":"c7e47698-0020-47cf-94a4-404079760935","system_id":"levelo_inurba_marseille","lat":43.28408,"lon":5.37515,"is_reserved":false,"is_disabled":true,"rental_uris":{"android":"levelo://app?vid=c7e47698-0020-47cf-94a4-404079760935","ios":"levelo://app?vid=c7e47698-0020-47cf-94a4-404079760935"},"vehicle_type_id":"4","last_reported":1746364660,"current_range_meters":6000,"station_id":"ce4bh412rcd13ifvqds0","pricing_plan_id":"cebpf4jnsgd1na2vs0mg"},{"bike_id":"ad0e2457-4cab-4d34-97db-d89489b1603a","system_id":"levelo_inurba_marseille","lat":43.27363,"lon":5.3625,"is_reserved":false,"is_disabled":false,"rental_uris":{"android":"levelo://app?vid=ad0e2457-4cab-4d34-97db-d89489b1603a","ios":"levelo://app?vid=ad0e2457-4cab-4d34-97db-d89489b1603a"},"vehicle_type_id":"4","last_reported":1746364660,"current_range_meters":6000,"station_id":"ce4bhbh2rcd13ifvqeo0","pricing_plan_id":"cebpf4jnsgd1na2vs0mg"},{"bike_id":"6012e73f-a97d-4080-8451-31be47c04cb3","system_id":"levelo_inurba_marseille","lat":43.24194,"lon":5.39723,"is_reserved":false,"is_disabled":false,"rental_uris":{"android":"levelo://app?vid=6012e73f-a97d-4080-8451-31be47c04cb3","ios":"levelo://app?vid=6012e73f-a97d-4080-8451-31be47c04cb3"},"vehicle_type_id":"4","last_reported":1746364660,"current_range_meters":6000,"station_id":"ce4bhn12rcd13ifvqgpg","pricing_plan_id":"cebpf4jnsgd1na2vs0mg"},{"bike_id":"33d984bb-57d7-4933-bc68-507510f5f8a6","system_id":"levelo_inurba_marseille","lat":43.24176,"lon":5.3973,"is_reserved":false,"is_disabled":false,"rental_uris":{"android":"levelo://app?vid=33d984bb-57d7-4933-bc68-507510f5f8a6","ios":"levelo://app?vid=33d984bb-57d7-4933-bc68-507510f5f8a6"},"vehicle_type_id":"4","last_reported":1746364660,"current_range_meters":6000,"station_id":"ce4bhn12rcd13ifvqgpg","pricing_plan_id":"cebpf4jnsgd1na2vs0mg"},{"bike_id":"b7351ae1-b7b6-4733-8649-24bbbdfba4ca","system_id":"levelo_inurba_marseille","lat":43.21761,"lon":5.34595,"is_reserved":false,"is_disabled":false,"rental_uris":{"android":"levelo://app?vid=b7351ae1-b7b6-4733-8649-24bbbdfba4ca","ios":"levelo://app?vid=b7351ae1-b7b6-4733-8649-24bbbdfba4ca"},"vehicle_type_id":"4","last_reported":1746364660,"current_range_meters":6000,"station_id":"st_cvj6r9ubvosntc0bgbag","pricing_plan_id":"cebpf4jnsgd1na2vs0mg"},{"bike_id":"bea46793-027d-4dd1-8907-5c53323be1f3","system_id":"levelo_inurba_marseille","lat":43.28702,"lon":5.3738,"is_reserved":false,"is_disabled":false,"rental_uris":{"android":"levelo://app?vid=bea46793-027d-4dd1-8907-5c53323be1f3","ios":"levelo://app?vid=bea46793-027d-4dd1-8907-5c53323be1f3"},"vehicle_type_id":"4","last_reported":1746364660,"current_range_meters":6400,"station_id":"ce4bh3p2rcd13ifvqdq0","pricing_plan_id":"cebpf4jnsgd1na2vs0mg"},{"bike_id":"8df37787-a611-4ce6-9e65-032cb168f59b","system_id":"levelo_inurba_marseille","lat":43.21202,"lon":5.35069,"is_reserved":false,"is_disabled":false,"rental_uris":{"android":"levelo://app?vid=8df37787-a611-4ce6-9e65-032cb168f59b","ios":"levelo://app?vid=8df37787-a611-4ce6-9e65-032cb168f59b"},"vehicle_type_id":"4","last_reported":1746364660,"current_range_meters":6400,"station_id":"st_cvj6sg6p6f1abm77japg","pricing_plan_id":"cebpf4jnsgd1na2vs0mg"},{"bike_id":"dfb3396e-96f5-457c-af11-f6f27dad33e9","system_id":"levelo_inurba_marseille","lat":43.27191,"lon":5.36475,"is_reserved":false,"is_disabled":false,"rental_uris":{"android":"levelo://app?vid=dfb3396e-96f5-457c-af11-f6f27dad33e9","ios":"levelo://app?vid=dfb3396e-96f5-457c-af11-f6f27dad33e9"},"vehicle_type_id":"4","last_reported":1746364660,"current_range_meters":6800,"station_id":"","pricing_plan_id":"cebpf4jnsgd1na2vs0mg"},{"bike_id":"be9042c4-716a-416e-af52-c92d47776467","system_id":"levelo_inurba_marseille","lat":43.30942,"lon":5.40141,"is_reserved":false,"is_disabled":true,"rental_uris":{"android":"levelo://app?vid=be9042c4-716a-416e-af52-c92d47776467","ios":"levelo://app?vid=be9042c4-716a-416e-af52-c92d47776467"},"vehicle_type_id":"4","last_reported":1746364660,"current_range_meters":6800,"station_id":"ce4bgvp2rcd13ifvqct0","pricing_plan_id":"cebpf4jnsgd1na2vs0mg"},{"bike_id":"2f400e75-7c89-400b-9aaa-091bebe7c15c","system_id":"levelo_inurba_marseille","lat":43.31056,"lon":5.38338,"is_reserved":false,"is_disabled":true,"rental_uris":{"android":"levelo://app?vid=2f400e75-7c89-400b-9aaa-091bebe7c15c","ios":"levelo://app?vid=2f400e75-7c89-400b-9aaa-091bebe7c15c"},"vehicle_type_id":"4","last_reported":1746364660,"current_range_meters":6800,"station_id":"ce4bgv92rcd13ifvqcr0","pricing_plan_id":"cebpf4jnsgd1na2vs0mg"},{"bike_id":"ada8ab0f-1b01-4903-a3dc-5bc2eb40022b","system_id":"levelo_inurba_marseille","lat":43.27379,"lon":5.36241,"is_reserved":false,"is_disabled":false,"rental_uris":{"android":"levelo://app?vid=ada8ab0f-1b01-4903-a3dc-5bc2eb40022b","ios":"levelo://app?vid=ada8ab0f-1b01-4903-a3dc-5bc2eb40022b"},"vehicle_type_id":"4","last_reported":1746364660,"current_range_meters":6800,"station_id":"ce4bhbh2rcd13ifvqeo0","pricing_plan_id":"cebpf4jnsgd1na2vs0mg"},{"bike_id":"8df6e310-0880-40a9-a691-cd475dfa3928","system_id":"levelo_inurba_marseille","lat":43.285843,"lon":5.442499,"is_reserved":false,"is_disabled":false,"rental_uris":{"android":"levelo://app?vid=8df6e310-0880-40a9-a691-cd475dfa3928","ios":"levelo://app?vid=8df6e310-0880-40a9-a691-cd475dfa3928"},"vehicle_type_id":"4","last_reported":1746364660,"current_range_meters":6800,"station_id":"","pricing_plan_id":"cebpf4jnsgd1na2vs0mg"},{"bike_id":"fefd08ec-5881-4aed-9781-2a8173dd5fb9","system_id":"levelo_inurba_marseille","lat":43.29445,"lon":5.38238,"is_reserved":false,"is_disabled":false,"rental_uris":{"android":"levelo://app?vid=fefd08ec-5881-4aed-9781-2a8173dd5fb9","ios":"levelo://app?vid=fefd08ec-5881-4aed-9781-2a8173dd5fb9"},"vehicle_type_id":"4","last_reported":1746364660,"current_range_meters":6800,"station_id":"","pricing_plan_id":"cebpf4jnsgd1na2vs0mg"},{"bike_id":"71d39b50-1938-404d-b2b1-c639bf5a8588","system_id":"levelo_inurba_marseille","lat":43.29376,"lon":5.37832,"is_reserved":false,"is_disabled":false,"rental_uris":{"android":"levelo://app?vid=71d39b50-1938-404d-b2b1-c639bf5a8588","ios":"levelo://app?vid=71d39b50-1938-404d-b2b1-c639bf5a8588"},"vehicle_type_id":"4","last_reported":1746364660,"current_range_meters":6800,"station_id":"ce4bgjh2rcd13ifvqbf0","pricing_plan_id":"cebpf4jnsgd1na2vs0mg"},{"bike_id":"5836c399-8fed-4dac-9b13-34520d8fc1e1","system_id":"levelo_inurba_marseille","lat":43.26569,"lon":5.39005,"is_reserved":false,"is_disabled":false,"rental_uris":{"android":"levelo://app?vid=5836c399-8fed-4dac-9b13-34520d8fc1e1","ios":"levelo://app?vid=5836c399-8fed-4dac-9b13-34520d8fc1e1"},"vehicle_type_id":"4","last_reported":1746364660,"current_range_meters":6800,"station_id":"ce4bhe12rcd13ifvqf30","pricing_plan_id":"cebpf4jnsgd1na2vs0mg"},{"bike_id":"7cb8c40f-c37a-4937-badb-742589f8e547","system_id":"levelo_inurba_marseille","lat":43.29626,"lon":5.37718,"is_reserved":false,"is_disabled":false,"rental_uris":{"android":"levelo://app?vid=7cb8c40f-c37a-4937-badb-742589f8e547","ios":"levelo://app?vid=7cb8c40f-c37a-4937-badb-742589f8e547"},"vehicle_type_id":"4","last_reported":1746364660,"current_range_meters":7200,"station_id":"ce4bgi92rcd13ifvqb90","pricing_plan_id":"cebpf4jnsgd1na2vs0mg"},{"bike_id":"3ab3c86e-8d2f-4e36-8bad-85bca3eb2e34","system_id":"levelo_inurba_marseille","lat":43.21753,"lon":5.34597,"is_reserved":false,"is_disabled":true,"rental_uris":{"android":"levelo://app?vid=3ab3c86e-8d2f-4e36-8bad-85bca3eb2e34","ios":"levelo://app?vid=3ab3c86e-8d2f-4e36-8bad-85bca3eb2e34"},"vehicle_type_id":"4","last_reported":1746364660,"current_range_meters":7200,"station_id":"","pricing_plan_id":"cebpf4jnsgd1na2vs0mg"},{"bike_id":"6ac55f96-fae6-4aea-ba9b-5ce78a976e01","system_id":"levelo_inurba_marseille","lat":43.28976,"lon":5.37824,"is_reserved":false,"is_disabled":false,"rental_uris":{"android":"levelo://app?vid=6ac55f96-fae6-4aea-ba9b-5ce78a976e01","ios":"levelo://app?vid=6ac55f96-fae6-4aea-ba9b-5ce78a976e01"},"vehicle_type_id":"4","last_reported":1746364660,"current_range_meters":7200,"station_id":"ce4bh9p2rcd13ifvqed0","pricing_plan_id":"cebpf4jnsgd1na2vs0mg"},{"bike_id":"ee6fc684-f760-429d-b603-077f5f37f4bb","system_id":"levelo_inurba_marseille","lat":43.24392,"lon":5.37051,"is_reserved":false,"is_disabled":false,"rental_uris":{"android":"levelo://app?vid=ee6fc684-f760-429d-b603-077f5f37f4bb","ios":"levelo://app?vid=ee6fc684-f760-429d-b603-077f5f37f4bb"},"vehicle_type_id":"4","last_reported":1746364660,"current_range_meters":7200,"station_id":"ce4bhhh2rcd13ifvqfk0","pricing_plan_id":"cebpf4jnsgd1na2vs0mg"},{"bike_id":"17cd42e0-f3d6-4b5d-a7a7-aae4daea5f81","system_id":"levelo_inurba_marseille","lat":43.211783,"lon":5.350838,"is_reserved":false,"is_disabled":false,"rental_uris":{"android":"levelo://app?vid=17cd42e0-f3d6-4b5d-a7a7-aae4daea5f81","ios":"levelo://app?vid=17cd42e0-f3d6-4b5d-a7a7-aae4daea5f81"},"vehicle_type_id":"4","last_reported":1746364660,"current_range_meters":7200,"station_id":"","pricing_plan_id":"cebpf4jnsgd1na2vs0mg"},{"bike_id":"9f4674d4-7cdb-4958-9049-02d5f3b52e20","system_id":"levelo_inurba_marseille","lat":43.29895,"lon":5.4367,"is_reserved":false,"is_disabled":false,"rental_uris":{"android":"levelo://app?vid=9f4674d4-7cdb-4958-9049-02d5f3b52e20","ios":"levelo://app?vid=9f4674d4-7cdb-4958-9049-02d5f3b52e20"},"vehicle_type_id":"4","last_reported":1746364660,"current_range_meters":7200,"station_id":"ce4bhpp2rcd13ifvqhfg","pricing_plan_id":"cebpf4jnsgd1na2vs0mg"},{"bike_id":"6ae9068b-8534-47e2-832a-cb0e5255371d","system_id":"levelo_inurba_marseille","lat":43.337444,"lon":5.374475,"is_reserved":false,"is_disabled":false,"rental_uris":{"android":"levelo://app?vid=6ae9068b-8534-47e2-832a-cb0e5255371d","ios":"levelo://app?vid=6ae9068b-8534-47e2-832a-cb0e5255371d"},"vehicle_type_id":"4","last_reported":1746364660,"current_range_meters":8000,"station_id":"ce4bgvp2rcd13ifvqct0","pricing_plan_id":"cebpf4jnsgd1na2vs0mg"},{"bike_id":"0e0be7bc-20e5-424a-89ff-1b6d292738ac","system_id":"levelo_inurba_marseille","lat":43.21798,"lon":5.34608,"is_reserved":false,"is_disabled":false,"rental_uris":{"android":"levelo://app?vid=0e0be7bc-20e5-424a-89ff-1b6d292738ac","ios":"levelo://app?vid=0e0be7bc-20e5-424a-89ff-1b6d292738ac"},"vehicle_type_id":"4","last_reported":1746364660,"current_range_meters":8000,"station_id":"st_cvj6r9ubvosntc0bgbag","pricing_plan_id":"cebpf4jnsgd1na2vs0mg"},{"bike_id":"0e34a68a-1e7e-4217-99de-5fd03012d1b6","system_id":"levelo_inurba_marseille","lat":43.23966,"lon":5.3662,"is_reserved":false,"is_disabled":false,"rental_uris":{"android":"levelo://app?vid=0e34a68a-1e7e-4217-99de-5fd03012d1b6","ios":"levelo://app?vid=0e34a68a-1e7e-4217-99de-5fd03012d1b6"},"vehicle_type_id":"4","last_reported":1746364660,"current_range_meters":8000,"station_id":"ce4bhi12rcd13ifvqfp0","pricing_plan_id":"cebpf4jnsgd1na2vs0mg"},{"bike_id":"589d3348-efea-4fad-9e2a-6480a5096cd4","system_id":"levelo_inurba_marseille","lat":43.255,"lon":5.37646,"is_reserved":false,"is_disabled":false,"rental_uris":{"android":"levelo://app?vid=589d3348-efea-4fad-9e2a-6480a5096cd4","ios":"levelo://app?vid=589d3348-efea-4fad-9e2a-6480a5096cd4"},"vehicle_type_id":"4","last_reported":1746364660,"current_range_meters":8000,"station_id":"ce4bhh12rcd13ifvqff0","pricing_plan_id":"cebpf4jnsgd1na2vs0mg"},{"bike_id":"7a7cc1a7-1f19-4fe9-92b7-af6741b88a86","system_id":"levelo_inurba_marseille","lat":43.278093,"lon":5.407097,"is_reserved":false,"is_disabled":false,"rental_uris":{"android":"levelo://app?vid=7a7cc1a7-1f19-4fe9-92b7-af6741b88a86","ios":"levelo://app?vid=7a7cc1a7-1f19-4fe9-92b7-af6741b88a86"},"vehicle_type_id":"4","last_reported":1746364660,"current_range_meters":8000,"station_id":"ce4bhnh2rcd13ifvqgtg","pricing_plan_id":"cebpf4jnsgd1na2vs0mg"},{"bike_id":"3a83645c-00d8-466e-8b17-791b60dbe88a","system_id":"levelo_inurba_marseille","lat":43.29265,"lon":5.38442,"is_reserved":false,"is_disabled":false,"rental_uris":{"android":"levelo://app?vid=3a83645c-00d8-466e-8b17-791b60dbe88a","ios":"levelo://app?vid=3a83645c-00d8-466e-8b17-791b60dbe88a"},"vehicle_type_id":"4","last_reported":1746364660,"current_range_meters":7200,"station_id":"ce4bh692rcd13ifvqea0","pricing_plan_id":"cebpf4jnsgd1na2vs0mg"},{"bike_id":"79e87880-d7b6-422a-a0d9-b8fafe80eaae","system_id":"levelo_inurba_marseille","lat":43.31264,"lon":5.38518,"is_reserved":false,"is_disabled":false,"rental_uris":{"android":"levelo://app?vid=79e87880-d7b6-422a-a0d9-b8fafe80eaae","ios":"levelo://app?vid=79e87880-d7b6-422a-a0d9-b8fafe80eaae"},"vehicle_type_id":"4","last_reported":1746364660,"current_range_meters":8000,"station_id":"","pricing_plan_id":"cebpf4jnsgd1na2vs0mg"},{"bike_id":"f0259f55-382d-4317-a5a3-c63365a0d76b","system_id":"levelo_inurba_marseille","lat":43.25581,"lon":5.4176,"is_reserved":false,"is_disabled":false,"rental_uris":{"android":"levelo://app?vid=f0259f55-382d-4317-a5a3-c63365a0d76b","ios":"levelo://app?vid=f0259f55-382d-4317-a5a3-c63365a0d76b"},"vehicle_type_id":"4","last_reported":1746364660,"current_range_meters":8400,"station_id":"","pricing_plan_id":"cebpf4jnsgd1na2vs0mg"},{"bike_id":"fb582505-15b6-40c6-97cc-2feebea7d568","system_id":"levelo_inurba_marseille","lat":43.30426,"lon":5.39746,"is_reserved":false,"is_disabled":true,"rental_uris":{"android":"levelo://app?vid=fb582505-15b6-40c6-97cc-2feebea7d568","ios":"levelo://app?vid=fb582505-15b6-40c6-97cc-2feebea7d568"},"vehicle_type_id":"4","last_reported":1746364660,"current_range_meters":8400,"station_id":"ce4bh092rcd13ifvqd20","pricing_plan_id":"cebpf4jnsgd1na2vs0mg"},{"bike_id":"59c05668-9a78-4683-b670-a7794c85b3b0","system_id":"levelo_inurba_marseille","lat":43.29391,"lon":5.37847,"is_reserved":false,"is_disabled":true,"rental_uris":{"android":"levelo://app?vid=59c05668-9a78-4683-b670-a7794c85b3b0","ios":"levelo://app?vid=59c05668-9a78-4683-b670-a7794c85b3b0"},"vehicle_type_id":"4","last_reported":1746364660,"current_range_meters":8400,"station_id":"ce4bgjh2rcd13ifvqbf0","pricing_plan_id":"cebpf4jnsgd1na2vs0mg"},{"bike_id":"4e2e9830-7561-4981-ae5d-e44b286e92de","system_id":"levelo_inurba_marseille","lat":43.21196,"lon":5.3507,"is_reserved":false,"is_disabled":false,"rental_uris":{"android":"levelo://app?vid=4e2e9830-7561-4981-ae5d-e44b286e92de","ios":"levelo://app?vid=4e2e9830-7561-4981-ae5d-e44b286e92de"},"vehicle_type_id":"4","last_reported":1746364660,"current_range_meters":8400,"station_id":"st_cvj6sg6p6f1abm77japg","pricing_plan_id":"cebpf4jnsgd1na2vs0mg"},{"bike_id":"d2244a86-df7a-45b5-a2fa-b1c12c1c5def","system_id":"levelo_inurba_marseille","lat":43.282219,"lon":5.350885,"is_reserved":false,"is_disabled":false,"rental_uris":{"android":"levelo://app?vid=d2244a86-df7a-45b5-a2fa-b1c12c1c5def","ios":"levelo://app?vid=d2244a86-df7a-45b5-a2fa-b1c12c1c5def"},"vehicle_type_id":"4","last_reported":1746364660,"current_range_meters":8400,"station_id":"ce4bhgp2rcd13ifvqfc0","pricing_plan_id":"cebpf4jnsgd1na2vs0mg"},{"bike_id":"aafdb1b0-0003-4d37-8806-51070b05306d","system_id":"levelo_inurba_marseille","lat":43.25726,"lon":5.41109,"is_reserved":false,"is_disabled":false,"rental_uris":{"android":"levelo://app?vid=aafdb1b0-0003-4d37-8806-51070b05306d","ios":"levelo://app?vid=aafdb1b0-0003-4d37-8806-51070b05306d"},"vehicle_type_id":"4","last_reported":1746364660,"current_range_meters":8400,"station_id":"ce4bhkp2rcd13ifvqgd0","pricing_plan_id":"cebpf4jnsgd1na2vs0mg"},{"bike_id":"ca11cd51-d2cd-4069-888b-894bb0ced97e","system_id":"levelo_inurba_marseille","lat":43.29566,"lon":5.42262,"is_reserved":false,"is_disabled":false,"rental_uris":{"android":"levelo://app?vid=ca11cd51-d2cd-4069-888b-894bb0ced97e","ios":"levelo://app?vid=ca11cd51-d2cd-4069-888b-894bb0ced97e"},"vehicle_type_id":"4","last_reported":1746364660,"current_range_meters":8400,"station_id":"ce4bhph2rcd13ifvqhdg","pricing_plan_id":"cebpf4jnsgd1na2vs0mg"},{"bike_id":"0ecfd02f-f853-4362-9dcd-e959b1ad8321","system_id":"levelo_inurba_marseille","lat":43.24191,"lon":5.39724,"is_reserved":false,"is_disabled":false,"rental_uris":{"android":"levelo://app?vid=0ecfd02f-f853-4362-9dcd-e959b1ad8321","ios":"levelo://app?vid=0ecfd02f-f853-4362-9dcd-e959b1ad8321"},"vehicle_type_id":"4","last_reported":1746364660,"current_range_meters":8400,"station_id":"ce4bhn12rcd13ifvqgpg","pricing_plan_id":"cebpf4jnsgd1na2vs0mg"},{"bike_id":"f06c4667-9ef9-4dc2-8fda-8d26a990386f","system_id":"levelo_inurba_marseille","lat":43.2816,"lon":5.42645,"is_reserved":false,"is_disabled":false,"rental_uris":{"android":"levelo://app?vid=f06c4667-9ef9-4dc2-8fda-8d26a990386f","ios":"levelo://app?vid=f06c4667-9ef9-4dc2-8fda-8d26a990386f"},"vehicle_type_id":"4","last_reported":1746364660,"current_range_meters":8400,"station_id":"ce4bhnh2rcd13ifvqgug","pricing_plan_id":"cebpf4jnsgd1na2vs0mg"},{"bike_id":"3d50e061-2338-48bb-a554-f3c16844579a","system_id":"levelo_inurba_marseille","lat":43.23065,"lon":5.35487,"is_reserved":false,"is_disabled":false,"rental_uris":{"android":"levelo://app?vid=3d50e061-2338-48bb-a554-f3c16844579a","ios":"levelo://app?vid=3d50e061-2338-48bb-a554-f3c16844579a"},"vehicle_type_id":"4","last_reported":1746364660,"current_range_meters":8800,"station_id":"cpo3342slgdg3j2ifvpg","pricing_plan_id":"cebpf4jnsgd1na2vs0mg"},{"bike_id":"75fa9943-cbe0-4940-a9be-f80f8dede2da","system_id":"levelo_inurba_marseille","lat":43.22504,"lon":5.34774,"is_reserved":false,"is_disabled":true,"rental_uris":{"android":"levelo://app?vid=75fa9943-cbe0-4940-a9be-f80f8dede2da","ios":"levelo://app?vid=75fa9943-cbe0-4940-a9be-f80f8dede2da"},"vehicle_type_id":"4","last_reported":1746364660,"current_range_meters":8800,"station_id":"st_cvj5dfep6f1abm77gieg","pricing_plan_id":"cebpf4jnsgd1na2vs0mg"},{"bike_id":"4d9c785a-6a14-4f60-8bcb-eb74d56c9262","system_id":"levelo_inurba_marseille","lat":43.27069,"lon":5.42296,"is_reserved":false,"is_disabled":false,"rental_uris":{"android":"levelo://app?vid=4d9c785a-6a14-4f60-8bcb-eb74d56c9262","ios":"levelo://app?vid=4d9c785a-6a14-4f60-8bcb-eb74d56c9262"},"vehicle_type_id":"4","last_reported":1746364660,"current_range_meters":8800,"station_id":"ce4bhk92rcd13ifvqgb0","pricing_plan_id":"cebpf4jnsgd1na2vs0mg"},{"bike_id":"5050f915-9f20-4b54-a2e8-ef6281638656","system_id":"levelo_inurba_marseille","lat":43.26556,"lon":5.37281,"is_reserved":false,"is_disabled":false,"rental_uris":{"android":"levelo://app?vid=5050f915-9f20-4b54-a2e8-ef6281638656","ios":"levelo://app?vid=5050f915-9f20-4b54-a2e8-ef6281638656"},"vehicle_type_id":"4","last_reported":1746364660,"current_range_meters":8800,"station_id":"ce4bhg12rcd13ifvqf70","pricing_plan_id":"cebpf4jnsgd1na2vs0mg"},{"bike_id":"6f8dd7c8-5eff-4509-9853-53af8780b6d6","system_id":"levelo_inurba_marseille","lat":43.245497,"lon":5.395255,"is_reserved":false,"is_disabled":false,"rental_uris":{"android":"levelo://app?vid=6f8dd7c8-5eff-4509-9853-53af8780b6d6","ios":"levelo://app?vid=6f8dd7c8-5eff-4509-9853-53af8780b6d6"},"vehicle_type_id":"4","last_reported":1746364660,"current_range_meters":8800,"station_id":"ce4bhlp2rcd13ifvqgjg","pricing_plan_id":"cebpf4jnsgd1na2vs0mg"},{"bike_id":"7c9f302f-84ec-4062-ae0c-5788a6786ad9","system_id":"levelo_inurba_marseille","lat":43.21754,"lon":5.34605,"is_reserved":false,"is_disabled":false,"rental_uris":{"android":"levelo://app?vid=7c9f302f-84ec-4062-ae0c-5788a6786ad9","ios":"levelo://app?vid=7c9f302f-84ec-4062-ae0c-5788a6786ad9"},"vehicle_type_id":"4","last_reported":1746364660,"current_range_meters":9200,"station_id":"st_cvj6r9ubvosntc0bgbag","pricing_plan_id":"cebpf4jnsgd1na2vs0mg"},{"bike_id":"e4856e11-0139-477e-a022-4b979369719b","system_id":"levelo_inurba_marseille","lat":43.23978,"lon":5.36604,"is_reserved":false,"is_disabled":false,"rental_uris":{"android":"levelo://app?vid=e4856e11-0139-477e-a022-4b979369719b","ios":"levelo://app?vid=e4856e11-0139-477e-a022-4b979369719b"},"vehicle_type_id":"4","last_reported":1746364660,"current_range_meters":9200,"station_id":"ce4bhi12rcd13ifvqfp0","pricing_plan_id":"cebpf4jnsgd1na2vs0mg"},{"bike_id":"149c95b4-f578-461b-97eb-b1c79b5173cd","system_id":"levelo_inurba_marseille","lat":43.29915,"lon":5.38133,"is_reserved":false,"is_disabled":true,"rental_uris":{"android":"levelo://app?vid=149c95b4-f578-461b-97eb-b1c79b5173cd","ios":"levelo://app?vid=149c95b4-f578-461b-97eb-b1c79b5173cd"},"vehicle_type_id":"4","last_reported":1746364660,"current_range_meters":9200,"station_id":"ce4bgj12rcd13ifvqbc0","pricing_plan_id":"cebpf4jnsgd1na2vs0mg"},{"bike_id":"2f2e2422-0ca9-4635-8561-f770e540dc91","system_id":"levelo_inurba_marseille","lat":43.29782,"lon":5.37007,"is_reserved":false,"is_disabled":false,"rental_uris":{"android":"levelo://app?vid=2f2e2422-0ca9-4635-8561-f770e540dc91","ios":"levelo://app?vid=2f2e2422-0ca9-4635-8561-f770e540dc91"},"vehicle_type_id":"4","last_reported":1746364660,"current_range_meters":9200,"station_id":"","pricing_plan_id":"cebpf4jnsgd1na2vs0mg"},{"bike_id":"89c5a075-7c7e-4ffe-b42c-f3bda787ff75","system_id":"levelo_inurba_marseille","lat":43.32292,"lon":5.374527,"is_reserved":false,"is_disabled":false,"rental_uris":{"android":"levelo://app?vid=89c5a075-7c7e-4ffe-b42c-f3bda787ff75","ios":"levelo://app?vid=89c5a075-7c7e-4ffe-b42c-f3bda787ff75"},"vehicle_type_id":"4","last_reported":1746364660,"current_range_meters":9200,"station_id":"","pricing_plan_id":"cebpf4jnsgd1na2vs0mg"},{"bike_id":"c7f4afc9-b362-4fd1-922d-bd12cc090763","system_id":"levelo_inurba_marseille","lat":43.24171,"lon":5.39723,"is_reserved":false,"is_disabled":false,"rental_uris":{"android":"levelo://app?vid=c7f4afc9-b362-4fd1-922d-bd12cc090763","ios":"levelo://app?vid=c7f4afc9-b362-4fd1-922d-bd12cc090763"},"vehicle_type_id":"4","last_reported":1746364660,"current_range_meters":9200,"station_id":"ce4bhn12rcd13ifvqgpg","pricing_plan_id":"cebpf4jnsgd1na2vs0mg"},{"bike_id":"fd2c3c67-23a6-4380-b7ca-8f23c8f78921","system_id":"levelo_inurba_marseille","lat":43.323639,"lon":5.367387,"is_reserved":false,"is_disabled":false,"rental_uris":{"android":"levelo://app?vid=fd2c3c67-23a6-4380-b7ca-8f23c8f78921","ios":"levelo://app?vid=fd2c3c67-23a6-4380-b7ca-8f23c8f78921"},"vehicle_type_id":"4","last_reported":1746364660,"current_range_meters":9200,"station_id":"ce4bhsh2rcd13ifvqi2g","pricing_plan_id":"cebpf4jnsgd1na2vs0mg"},{"bike_id":"d55c8237-2304-4efd-993e-dc727f0f1b6a","system_id":"levelo_inurba_marseille","lat":43.225006,"lon":5.347841,"is_reserved":false,"is_disabled":false,"rental_uris":{"android":"levelo://app?vid=d55c8237-2304-4efd-993e-dc727f0f1b6a","ios":"levelo://app?vid=d55c8237-2304-4efd-993e-dc727f0f1b6a"},"vehicle_type_id":"4","last_reported":1746364660,"current_range_meters":9600,"station_id":"st_cvj5dfep6f1abm77gieg","pricing_plan_id":"cebpf4jnsgd1na2vs0mg"},{"bike_id":"09bdc497-6f0c-4139-ad1d-2e8ac08b6ab1","system_id":"levelo_inurba_marseille","lat":43.28616,"lon":5.35094,"is_reserved":false,"is_disabled":false,"rental_uris":{"android":"levelo://app?vid=09bdc497-6f0c-4139-ad1d-2e8ac08b6ab1","ios":"levelo://app?vid=09bdc497-6f0c-4139-ad1d-2e8ac08b6ab1"},"vehicle_type_id":"4","last_reported":1746364660,"current_range_meters":9600,"station_id":"ce4bhch2rcd13ifvqeug","pricing_plan_id":"cebpf4jnsgd1na2vs0mg"},{"bike_id":"e2ecc61c-bf0a-439a-a2ad-12b45e527c5e","system_id":"levelo_inurba_marseille","lat":43.29841,"lon":5.36281,"is_reserved":false,"is_disabled":false,"rental_uris":{"android":"levelo://app?vid=e2ecc61c-bf0a-439a-a2ad-12b45e527c5e","ios":"levelo://app?vid=e2ecc61c-bf0a-439a-a2ad-12b45e527c5e"},"vehicle_type_id":"4","last_reported":1746364660,"current_range_meters":9600,"station_id":"ce4bgpp2rcd13ifvqc3g","pricing_plan_id":"cebpf4jnsgd1na2vs0mg"},{"bike_id":"1c53114f-12ea-4131-9a1b-7fbb80d9df57","system_id":"levelo_inurba_marseille","lat":43.27053,"lon":5.42268,"is_reserved":false,"is_disabled":false,"rental_uris":{"android":"levelo://app?vid=1c53114f-12ea-4131-9a1b-7fbb80d9df57","ios":"levelo://app?vid=1c53114f-12ea-4131-9a1b-7fbb80d9df57"},"vehicle_type_id":"4","last_reported":1746364660,"current_range_meters":9600,"station_id":"ce4bhk92rcd13ifvqgb0","pricing_plan_id":"cebpf4jnsgd1na2vs0mg"},{"bike_id":"f7a277eb-d388-493b-a59b-09b010af0aee","system_id":"levelo_inurba_marseille","lat":43.28482,"lon":5.38422,"is_reserved":false,"is_disabled":true,"rental_uris":{"android":"levelo://app?vid=f7a277eb-d388-493b-a59b-09b010af0aee","ios":"levelo://app?vid=f7a277eb-d388-493b-a59b-09b010af0aee"},"vehicle_type_id":"4","last_reported":1746364660,"current_range_meters":9600,"station_id":"ce4bh512rcd13ifvqe3g","pricing_plan_id":"cebpf4jnsgd1na2vs0mg"},{"bike_id":"ffc9295a-c8de-4abf-a419-3f95ebf3b246","system_id":"levelo_inurba_marseille","lat":43.31779,"lon":5.38981,"is_reserved":false,"is_disabled":false,"rental_uris":{"android":"levelo://app?vid=ffc9295a-c8de-4abf-a419-3f95ebf3b246","ios":"levelo://app?vid=ffc9295a-c8de-4abf-a419-3f95ebf3b246"},"vehicle_type_id":"4","last_reported":1746364660,"current_range_meters":9600,"station_id":"ce4bhqp2rcd13ifvqhng","pricing_plan_id":"cebpf4jnsgd1na2vs0mg"},{"bike_id":"274ad913-cb5d-44ea-8484-26eae07424ea","system_id":"levelo_inurba_marseille","lat":43.25868,"lon":5.39903,"is_reserved":false,"is_disabled":true,"rental_uris":{"android":"levelo://app?vid=274ad913-cb5d-44ea-8484-26eae07424ea","ios":"levelo://app?vid=274ad913-cb5d-44ea-8484-26eae07424ea"},"vehicle_type_id":"4","last_reported":1746364660,"current_range_meters":9600,"station_id":"ce4bhl92rcd13ifvqghg","pricing_plan_id":"cebpf4jnsgd1na2vs0mg"},{"bike_id":"c2c5beff-ec8e-48ee-825a-e3cdf2e54b49","system_id":"levelo_inurba_marseille","lat":43.29229,"lon":5.39986,"is_reserved":false,"is_disabled":false,"rental_uris":{"android":"levelo://app?vid=c2c5beff-ec8e-48ee-825a-e3cdf2e54b49","ios":"levelo://app?vid=c2c5beff-ec8e-48ee-825a-e3cdf2e54b49"},"vehicle_type_id":"4","last_reported":1746364660,"current_range_meters":9600,"station_id":"","pricing_plan_id":"cebpf4jnsgd1na2vs0mg"},{"bike_id":"5ff5a205-0d25-4f57-8642-703a7ee0a05b","system_id":"levelo_inurba_marseille","lat":43.27207,"lon":5.39181,"is_reserved":false,"is_disabled":false,"rental_uris":{"android":"levelo://app?vid=5ff5a205-0d25-4f57-8642-703a7ee0a05b","ios":"levelo://app?vid=5ff5a205-0d25-4f57-8642-703a7ee0a05b"},"vehicle_type_id":"4","last_reported":1746364660,"current_range_meters":9200,"station_id":"ce4bhhp2rcd13ifvqfm0","pricing_plan_id":"cebpf4jnsgd1na2vs0mg"},{"bike_id":"a6483b50-8824-440c-82e4-3d40e9e0d7c9","system_id":"levelo_inurba_marseille","lat":43.2738,"lon":5.36256,"is_reserved":false,"is_disabled":false,"rental_uris":{"android":"levelo://app?vid=a6483b50-8824-440c-82e4-3d40e9e0d7c9","ios":"levelo://app?vid=a6483b50-8824-440c-82e4-3d40e9e0d7c9"},"vehicle_type_id":"4","last_reported":1746364660,"current_range_meters":9600,"station_id":"ce4bhbh2rcd13ifvqeo0","pricing_plan_id":"cebpf4jnsgd1na2vs0mg"},{"bike_id":"6338e318-2f80-4349-ae11-615c887b4fb9","system_id":"levelo_inurba_marseille","lat":43.25943,"lon":5.40901,"is_reserved":false,"is_disabled":false,"rental_uris":{"android":"levelo://app?vid=6338e318-2f80-4349-ae11-615c887b4fb9","ios":"levelo://app?vid=6338e318-2f80-4349-ae11-615c887b4fb9"},"vehicle_type_id":"4","last_reported":1746364660,"current_range_meters":9600,"station_id":"ce4bhm92rcd13ifvqglg","pricing_plan_id":"cebpf4jnsgd1na2vs0mg"},{"bike_id":"aedf206f-89f3-4f30-9da6-56fb7ff8915b","system_id":"levelo_inurba_marseille","lat":43.281173,"lon":5.403971,"is_reserved":false,"is_disabled":false,"rental_uris":{"android":"levelo://app?vid=aedf206f-89f3-4f30-9da6-56fb7ff8915b","ios":"levelo://app?vid=aedf206f-89f3-4f30-9da6-56fb7ff8915b"},"vehicle_type_id":"4","last_reported":1746364660,"current_range_meters":10000,"station_id":"","pricing_plan_id":"cebpf4jnsgd1na2vs0mg"},{"bike_id":"1d59b5c9-cca4-43f9-a7f4-1bb7ebcfb8ae","system_id":"levelo_inurba_marseille","lat":43.27373,"lon":5.362545,"is_reserved":false,"is_disabled":true,"rental_uris":{"android":"levelo://app?vid=1d59b5c9-cca4-43f9-a7f4-1bb7ebcfb8ae","ios":"levelo://app?vid=1d59b5c9-cca4-43f9-a7f4-1bb7ebcfb8ae"},"vehicle_type_id":"4","last_reported":1746364660,"current_range_meters":10000,"station_id":"","pricing_plan_id":"cebpf4jnsgd1na2vs0mg"},{"bike_id":"e27ce41e-d31e-4411-a762-387f29d91877","system_id":"levelo_inurba_marseille","lat":43.29542,"lon":5.42299,"is_reserved":false,"is_disabled":false,"rental_uris":{"android":"levelo://app?vid=e27ce41e-d31e-4411-a762-387f29d91877","ios":"levelo://app?vid=e27ce41e-d31e-4411-a762-387f29d91877"},"vehicle_type_id":"4","last_reported":1746364660,"current_range_meters":10000,"station_id":"ce4bhph2rcd13ifvqhdg","pricing_plan_id":"cebpf4jnsgd1na2vs0mg"},{"bike_id":"4badb9b6-3851-4c8c-a36e-7c02f91ea1d9","system_id":"levelo_inurba_marseille","lat":43.21192,"lon":5.35062,"is_reserved":false,"is_disabled":false,"rental_uris":{"android":"levelo://app?vid=4badb9b6-3851-4c8c-a36e-7c02f91ea1d9","ios":"levelo://app?vid=4badb9b6-3851-4c8c-a36e-7c02f91ea1d9"},"vehicle_type_id":"4","last_reported":1746364660,"current_range_meters":10000,"station_id":"st_cvj6sg6p6f1abm77japg","pricing_plan_id":"cebpf4jnsgd1na2vs0mg"},{"bike_id":"781cc95c-e552-4a1c-902d-acd5c2a38e87","system_id":"levelo_inurba_marseille","lat":43.27071,"lon":5.42278,"is_reserved":false,"is_disabled":false,"rental_uris":{"android":"levelo://app?vid=781cc95c-e552-4a1c-902d-acd5c2a38e87","ios":"levelo://app?vid=781cc95c-e552-4a1c-902d-acd5c2a38e87"},"vehicle_type_id":"4","last_reported":1746364660,"current_range_meters":10000,"station_id":"ce4bhk92rcd13ifvqgb0","pricing_plan_id":"cebpf4jnsgd1na2vs0mg"},{"bike_id":"c59dd5c1-a195-4870-b3d7-afb523598e23","system_id":"levelo_inurba_marseille","lat":43.30803,"lon":5.43517,"is_reserved":false,"is_disabled":false,"rental_uris":{"android":"levelo://app?vid=c59dd5c1-a195-4870-b3d7-afb523598e23","ios":"levelo://app?vid=c59dd5c1-a195-4870-b3d7-afb523598e23"},"vehicle_type_id":"4","last_reported":1746364660,"current_range_meters":10800,"station_id":"ce4bhph2rcd13ifvqheg","pricing_plan_id":"cebpf4jnsgd1na2vs0mg"},{"bike_id":"ea0cd9c9-7dac-4572-8bbc-8de52ef43f57","system_id":"levelo_inurba_marseille","lat":43.29709,"lon":5.37688,"is_reserved":false,"is_disabled":false,"rental_uris":{"android":"levelo://app?vid=ea0cd9c9-7dac-4572-8bbc-8de52ef43f57","ios":"levelo://app?vid=ea0cd9c9-7dac-4572-8bbc-8de52ef43f57"},"vehicle_type_id":"4","last_reported":1746364660,"current_range_meters":10000,"station_id":"ce4bgkh2rcd13ifvqbl0","pricing_plan_id":"cebpf4jnsgd1na2vs0mg"},{"bike_id":"b10901bc-afb6-4657-8344-f1f4848ffd7a","system_id":"levelo_inurba_marseille","lat":43.31889,"lon":5.40725,"is_reserved":false,"is_disabled":false,"rental_uris":{"android":"levelo://app?vid=b10901bc-afb6-4657-8344-f1f4848ffd7a","ios":"levelo://app?vid=b10901bc-afb6-4657-8344-f1f4848ffd7a"},"vehicle_type_id":"4","last_reported":1746364660,"current_range_meters":10800,"station_id":"ce4bhq12rcd13ifvqhig","pricing_plan_id":"cebpf4jnsgd1na2vs0mg"},{"bike_id":"125ca05d-5a4c-4327-ae64-e200198cedf3","system_id":"levelo_inurba_marseille","lat":43.29563,"lon":5.42286,"is_reserved":false,"is_disabled":false,"rental_uris":{"android":"levelo://app?vid=125ca05d-5a4c-4327-ae64-e200198cedf3","ios":"levelo://app?vid=125ca05d-5a4c-4327-ae64-e200198cedf3"},"vehicle_type_id":"4","last_reported":1746364660,"current_range_meters":10800,"station_id":"ce4bhph2rcd13ifvqhdg","pricing_plan_id":"cebpf4jnsgd1na2vs0mg"},{"bike_id":"422cf72a-b94e-4299-95f8-0897502daa93","system_id":"levelo_inurba_marseille","lat":43.31266,"lon":5.40158,"is_reserved":false,"is_disabled":false,"rental_uris":{"android":"levelo://app?vid=422cf72a-b94e-4299-95f8-0897502daa93","ios":"levelo://app?vid=422cf72a-b94e-4299-95f8-0897502daa93"},"vehicle_type_id":"4","last_reported":1746364660,"current_range_meters":10800,"station_id":"ce4bh092rcd13ifvqd30","pricing_plan_id":"cebpf4jnsgd1na2vs0mg"},{"bike_id":"f07cfc50-1350-4568-9581-0845ede0b590","system_id":"levelo_inurba_marseille","lat":43.27065,"lon":5.42268,"is_reserved":false,"is_disabled":false,"rental_uris":{"android":"levelo://app?vid=f07cfc50-1350-4568-9581-0845ede0b590","ios":"levelo://app?vid=f07cfc50-1350-4568-9581-0845ede0b590"},"vehicle_type_id":"4","last_reported":1746364660,"current_range_meters":10800,"station_id":"ce4bhk92rcd13ifvqgb0","pricing_plan_id":"cebpf4jnsgd1na2vs0mg"},{"bike_id":"67581e18-04b6-4896-80f8-3350fcb149c5","system_id":"levelo_inurba_marseille","lat":43.23152,"lon":5.43716,"is_reserved":false,"is_disabled":false,"rental_uris":{"android":"levelo://app?vid=67581e18-04b6-4896-80f8-3350fcb149c5","ios":"levelo://app?vid=67581e18-04b6-4896-80f8-3350fcb149c5"},"vehicle_type_id":"4","last_reported":1746364660,"current_range_meters":10800,"station_id":"ce4bhmp2rcd13ifvqgog","pricing_plan_id":"cebpf4jnsgd1na2vs0mg"},{"bike_id":"0397570e-b83d-4017-8742-c3d74b4e8593","system_id":"levelo_inurba_marseille","lat":43.288041,"lon":5.388209,"is_reserved":false,"is_disabled":true,"rental_uris":{"android":"levelo://app?vid=0397570e-b83d-4017-8742-c3d74b4e8593","ios":"levelo://app?vid=0397570e-b83d-4017-8742-c3d74b4e8593"},"vehicle_type_id":"4","last_reported":1746364660,"current_range_meters":10800,"station_id":"","pricing_plan_id":"cebpf4jnsgd1na2vs0mg"},{"bike_id":"2ca7e5d2-f4a6-48bc-8c06-76ef7156ed2e","system_id":"levelo_inurba_marseille","lat":43.24179,"lon":5.39726,"is_reserved":false,"is_disabled":false,"rental_uris":{"android":"levelo://app?vid=2ca7e5d2-f4a6-48bc-8c06-76ef7156ed2e","ios":"levelo://app?vid=2ca7e5d2-f4a6-48bc-8c06-76ef7156ed2e"},"vehicle_type_id":"4","last_reported":1746364660,"current_range_meters":11200,"station_id":"ce4bhn12rcd13ifvqgpg","pricing_plan_id":"cebpf4jnsgd1na2vs0mg"},{"bike_id":"5e558887-0deb-4b53-8fc6-04f34417149b","system_id":"levelo_inurba_marseille","lat":43.25503,"lon":5.37646,"is_reserved":false,"is_disabled":false,"rental_uris":{"android":"levelo://app?vid=5e558887-0deb-4b53-8fc6-04f34417149b","ios":"levelo://app?vid=5e558887-0deb-4b53-8fc6-04f34417149b"},"vehicle_type_id":"4","last_reported":1746364660,"current_range_meters":11200,"station_id":"ce4bhh12rcd13ifvqff0","pricing_plan_id":"cebpf4jnsgd1na2vs0mg"},{"bike_id":"af4e8ef3-6f7a-4594-adbc-e86ff05207ad","system_id":"levelo_inurba_marseille","lat":43.27833,"lon":5.39208,"is_reserved":false,"is_disabled":false,"rental_uris":{"android":"levelo://app?vid=af4e8ef3-6f7a-4594-adbc-e86ff05207ad","ios":"levelo://app?vid=af4e8ef3-6f7a-4594-adbc-e86ff05207ad"},"vehicle_type_id":"4","last_reported":1746364660,"current_range_meters":11200,"station_id":"ce4bhjp2rcd13ifvqga0","pricing_plan_id":"cebpf4jnsgd1na2vs0mg"},{"bike_id":"77e5fc0c-8247-4eae-976e-b65c5c479c47","system_id":"levelo_inurba_marseille","lat":43.24386,"lon":5.37027,"is_reserved":false,"is_disabled":false,"rental_uris":{"android":"levelo://app?vid=77e5fc0c-8247-4eae-976e-b65c5c479c47","ios":"levelo://app?vid=77e5fc0c-8247-4eae-976e-b65c5c479c47"},"vehicle_type_id":"4","last_reported":1746364660,"current_range_meters":11200,"station_id":"ce4bhhh2rcd13ifvqfk0","pricing_plan_id":"cebpf4jnsgd1na2vs0mg"},{"bike_id":"3599356d-b29a-4b62-9e98-7b2ad18bc1d8","system_id":"levelo_inurba_marseille","lat":43.29293,"lon":5.37469,"is_reserved":false,"is_disabled":false,"rental_uris":{"android":"levelo://app?vid=3599356d-b29a-4b62-9e98-7b2ad18bc1d8","ios":"levelo://app?vid=3599356d-b29a-4b62-9e98-7b2ad18bc1d8"},"vehicle_type_id":"4","last_reported":1746364660,"current_range_meters":11600,"station_id":"ce4bgi12rcd13ifvqb70","pricing_plan_id":"cebpf4jnsgd1na2vs0mg"},{"bike_id":"bb3b05b5-ebd4-4a3b-9423-e82bcd351de5","system_id":"levelo_inurba_marseille","lat":43.25495,"lon":5.37646,"is_reserved":false,"is_disabled":false,"rental_uris":{"android":"levelo://app?vid=bb3b05b5-ebd4-4a3b-9423-e82bcd351de5","ios":"levelo://app?vid=bb3b05b5-ebd4-4a3b-9423-e82bcd351de5"},"vehicle_type_id":"4","last_reported":1746364660,"current_range_meters":11600,"station_id":"ce4bhh12rcd13ifvqff0","pricing_plan_id":"cebpf4jnsgd1na2vs0mg"},{"bike_id":"b51e8583-0fb2-49ca-9c11-9dbce28dfa5d","system_id":"levelo_inurba_marseille","lat":43.23188,"lon":5.35557,"is_reserved":false,"is_disabled":false,"rental_uris":{"android":"levelo://app?vid=b51e8583-0fb2-49ca-9c11-9dbce28dfa5d","ios":"levelo://app?vid=b51e8583-0fb2-49ca-9c11-9dbce28dfa5d"},"vehicle_type_id":"4","last_reported":1746364660,"current_range_meters":12000,"station_id":"ce4bhu92rcd13ifvqi70","pricing_plan_id":"cebpf4jnsgd1na2vs0mg"},{"bike_id":"cc2abaf6-9f57-4c05-a1ce-c34571431afd","system_id":"levelo_inurba_marseille","lat":43.309447,"lon":5.390208,"is_reserved":false,"is_disabled":false,"rental_uris":{"android":"levelo://app?vid=cc2abaf6-9f57-4c05-a1ce-c34571431afd","ios":"levelo://app?vid=cc2abaf6-9f57-4c05-a1ce-c34571431afd"},"vehicle_type_id":"4","last_reported":1746364660,"current_range_meters":12000,"station_id":"ce4bgup2rcd13ifvqco0","pricing_plan_id":"cebpf4jnsgd1na2vs0mg"},{"bike_id":"150de57d-b375-4979-bc4e-8e850e6e9426","system_id":"levelo_inurba_marseille","lat":43.25005,"lon":5.38924,"is_reserved":false,"is_disabled":false,"rental_uris":{"android":"levelo://app?vid=150de57d-b375-4979-bc4e-8e850e6e9426","ios":"levelo://app?vid=150de57d-b375-4979-bc4e-8e850e6e9426"},"vehicle_type_id":"4","last_reported":1746364660,"current_range_meters":12000,"station_id":"ce4bhgp2rcd13ifvqfd0","pricing_plan_id":"cebpf4jnsgd1na2vs0mg"},{"bike_id":"af7a8234-1ac7-4d1a-ade6-bbf533fa22fa","system_id":"levelo_inurba_marseille","lat":43.29177,"lon":5.37148,"is_reserved":false,"is_disabled":false,"rental_uris":{"android":"levelo://app?vid=af7a8234-1ac7-4d1a-ade6-bbf533fa22fa","ios":"levelo://app?vid=af7a8234-1ac7-4d1a-ade6-bbf533fa22fa"},"vehicle_type_id":"4","last_reported":1746364660,"current_range_meters":12000,"station_id":"ce4bha92rcd13ifvqeh0","pricing_plan_id":"cebpf4jnsgd1na2vs0mg"},{"bike_id":"57b577a6-05e4-403f-8e08-8a8bb593ff51","system_id":"levelo_inurba_marseille","lat":43.28942,"lon":5.36623,"is_reserved":false,"is_disabled":true,"rental_uris":{"android":"levelo://app?vid=57b577a6-05e4-403f-8e08-8a8bb593ff51","ios":"levelo://app?vid=57b577a6-05e4-403f-8e08-8a8bb593ff51"},"vehicle_type_id":"4","last_reported":1746364660,"current_range_meters":12400,"station_id":"ce4bhap2rcd13ifvqek0","pricing_plan_id":"cebpf4jnsgd1na2vs0mg"},{"bike_id":"0b129035-0684-4973-86f9-9565ae3930ad","system_id":"levelo_inurba_marseille","lat":43.23163,"lon":5.39939,"is_reserved":false,"is_disabled":false,"rental_uris":{"android":"levelo://app?vid=0b129035-0684-4973-86f9-9565ae3930ad","ios":"levelo://app?vid=0b129035-0684-4973-86f9-9565ae3930ad"},"vehicle_type_id":"4","last_reported":1746364660,"current_range_meters":12800,"station_id":"ce4bhn12rcd13ifvqgqg","pricing_plan_id":"cebpf4jnsgd1na2vs0mg"},{"bike_id":"55e3c661-1301-4b9b-ae44-d8a778caa8b6","system_id":"levelo_inurba_marseille","lat":43.31713,"lon":5.37749,"is_reserved":false,"is_disabled":false,"rental_uris":{"android":"levelo://app?vid=55e3c661-1301-4b9b-ae44-d8a778caa8b6","ios":"levelo://app?vid=55e3c661-1301-4b9b-ae44-d8a778caa8b6"},"vehicle_type_id":"4","last_reported":1746364660,"current_range_meters":12800,"station_id":"ce4bgth2rcd13ifvqch0","pricing_plan_id":"cebpf4jnsgd1na2vs0mg"},{"bike_id":"d447b317-7fe8-4b25-a86f-02fbc65ddcfa","system_id":"levelo_inurba_marseille","lat":43.23152,"lon":5.43749,"is_reserved":false,"is_disabled":false,"rental_uris":{"android":"levelo://app?vid=d447b317-7fe8-4b25-a86f-02fbc65ddcfa","ios":"levelo://app?vid=d447b317-7fe8-4b25-a86f-02fbc65ddcfa"},"vehicle_type_id":"4","last_reported":1746364660,"current_range_meters":12800,"station_id":"ce4bhmp2rcd13ifvqgog","pricing_plan_id":"cebpf4jnsgd1na2vs0mg"},{"bike_id":"2faa8cff-f7ca-4102-9f6b-2122faacc248","system_id":"levelo_inurba_marseille","lat":43.28474,"lon":5.38427,"is_reserved":false,"is_disabled":false,"rental_uris":{"android":"levelo://app?vid=2faa8cff-f7ca-4102-9f6b-2122faacc248","ios":"levelo://app?vid=2faa8cff-f7ca-4102-9f6b-2122faacc248"},"vehicle_type_id":"4","last_reported":1746364660,"current_range_meters":12800,"station_id":"ce4bh512rcd13ifvqe3g","pricing_plan_id":"cebpf4jnsgd1na2vs0mg"},{"bike_id":"30130a2e-5a9f-4b7a-93b9-7279c2d89df7","system_id":"levelo_inurba_marseille","lat":43.296323,"lon":5.377196,"is_reserved":false,"is_disabled":false,"rental_uris":{"android":"levelo://app?vid=30130a2e-5a9f-4b7a-93b9-7279c2d89df7","ios":"levelo://app?vid=30130a2e-5a9f-4b7a-93b9-7279c2d89df7"},"vehicle_type_id":"4","last_reported":1746364660,"current_range_meters":14000,"station_id":"ce4bgi92rcd13ifvqb90","pricing_plan_id":"cebpf4jnsgd1na2vs0mg"},{"bike_id":"28e611f2-6a6b-4b91-b50d-de03e92a87cc","system_id":"levelo_inurba_marseille","lat":43.28414,"lon":5.34988,"is_reserved":false,"is_disabled":false,"rental_uris":{"android":"levelo://app?vid=28e611f2-6a6b-4b91-b50d-de03e92a87cc","ios":"levelo://app?vid=28e611f2-6a6b-4b91-b50d-de03e92a87cc"},"vehicle_type_id":"4","last_reported":1746364660,"current_range_meters":14000,"station_id":"ce4bhbh2rcd13ifvqepg","pricing_plan_id":"cebpf4jnsgd1na2vs0mg"},{"bike_id":"fb80c1da-d845-467b-9c3b-2f591f4d56ae","system_id":"levelo_inurba_marseille","lat":43.323406,"lon":5.37422,"is_reserved":false,"is_disabled":false,"rental_uris":{"android":"levelo://app?vid=fb80c1da-d845-467b-9c3b-2f591f4d56ae","ios":"levelo://app?vid=fb80c1da-d845-467b-9c3b-2f591f4d56ae"},"vehicle_type_id":"4","last_reported":1746364660,"current_range_meters":14400,"station_id":"","pricing_plan_id":"cebpf4jnsgd1na2vs0mg"},{"bike_id":"5b2b7329-4e0e-4992-a580-5cfe1d98785e","system_id":"levelo_inurba_marseille","lat":43.28425,"lon":5.34979,"is_reserved":false,"is_disabled":false,"rental_uris":{"android":"levelo://app?vid=5b2b7329-4e0e-4992-a580-5cfe1d98785e","ios":"levelo://app?vid=5b2b7329-4e0e-4992-a580-5cfe1d98785e"},"vehicle_type_id":"4","last_reported":1746364660,"current_range_meters":14400,"station_id":"ce4bhbh2rcd13ifvqepg","pricing_plan_id":"cebpf4jnsgd1na2vs0mg"},{"bike_id":"6808712c-211a-48eb-b77e-22e68b1e9b69","system_id":"levelo_inurba_marseille","lat":43.30594,"lon":5.37214,"is_reserved":false,"is_disabled":false,"rental_uris":{"android":"levelo://app?vid=6808712c-211a-48eb-b77e-22e68b1e9b69","ios":"levelo://app?vid=6808712c-211a-48eb-b77e-22e68b1e9b69"},"vehicle_type_id":"4","last_reported":1746364660,"current_range_meters":14000,"station_id":"ce4bgqh2rcd13ifvqc4g","pricing_plan_id":"cebpf4jnsgd1na2vs0mg"},{"bike_id":"fdef9e55-be0f-41e0-8526-8e8fa7260880","system_id":"levelo_inurba_marseille","lat":43.31301,"lon":5.37392,"is_reserved":false,"is_disabled":false,"rental_uris":{"android":"levelo://app?vid=fdef9e55-be0f-41e0-8526-8e8fa7260880","ios":"levelo://app?vid=fdef9e55-be0f-41e0-8526-8e8fa7260880"},"vehicle_type_id":"4","last_reported":1746364660,"current_range_meters":14800,"station_id":"","pricing_plan_id":"cebpf4jnsgd1na2vs0mg"},{"bike_id":"e84eee43-7ebe-4b56-a08b-27d6e58561fd","system_id":"levelo_inurba_marseille","lat":43.24177,"lon":5.39716,"is_reserved":false,"is_disabled":false,"rental_uris":{"android":"levelo://app?vid=e84eee43-7ebe-4b56-a08b-27d6e58561fd","ios":"levelo://app?vid=e84eee43-7ebe-4b56-a08b-27d6e58561fd"},"vehicle_type_id":"4","last_reported":1746364660,"current_range_meters":14800,"station_id":"ce4bhn12rcd13ifvqgpg","pricing_plan_id":"cebpf4jnsgd1na2vs0mg"},{"bike_id":"ce7e06eb-b040-4a1c-b1b9-b8a759460472","system_id":"levelo_inurba_marseille","lat":43.251034,"lon":5.403296,"is_reserved":false,"is_disabled":false,"rental_uris":{"android":"levelo://app?vid=ce7e06eb-b040-4a1c-b1b9-b8a759460472","ios":"levelo://app?vid=ce7e06eb-b040-4a1c-b1b9-b8a759460472"},"vehicle_type_id":"4","last_reported":1746364660,"current_range_meters":14800,"station_id":"ce4bhlh2rcd13ifvqgig","pricing_plan_id":"cebpf4jnsgd1na2vs0mg"},{"bike_id":"43f220ab-0408-46b3-abe5-60437ce3bc1e","system_id":"levelo_inurba_marseille","lat":43.23191,"lon":5.35541,"is_reserved":false,"is_disabled":false,"rental_uris":{"android":"levelo://app?vid=43f220ab-0408-46b3-abe5-60437ce3bc1e","ios":"levelo://app?vid=43f220ab-0408-46b3-abe5-60437ce3bc1e"},"vehicle_type_id":"4","last_reported":1746364660,"current_range_meters":15200,"station_id":"ce4bhu92rcd13ifvqi70","pricing_plan_id":"cebpf4jnsgd1na2vs0mg"},{"bike_id":"9ebef22b-5dc5-41f4-b80e-25f01b74505b","system_id":"levelo_inurba_marseille","lat":43.303742,"lon":5.424747,"is_reserved":false,"is_disabled":false,"rental_uris":{"android":"levelo://app?vid=9ebef22b-5dc5-41f4-b80e-25f01b74505b","ios":"levelo://app?vid=9ebef22b-5dc5-41f4-b80e-25f01b74505b"},"vehicle_type_id":"4","last_reported":1746364660,"current_range_meters":15200,"station_id":"ce4bhoh2rcd13ifvqh6g","pricing_plan_id":"cebpf4jnsgd1na2vs0mg"},{"bike_id":"64d6bf21-2f84-4f32-aecd-a463b5259e3e","system_id":"levelo_inurba_marseille","lat":43.21735,"lon":5.346,"is_reserved":false,"is_disabled":false,"rental_uris":{"android":"levelo://app?vid=64d6bf21-2f84-4f32-aecd-a463b5259e3e","ios":"levelo://app?vid=64d6bf21-2f84-4f32-aecd-a463b5259e3e"},"vehicle_type_id":"4","last_reported":1746364660,"current_range_meters":16000,"station_id":"st_cvj6r9ubvosntc0bgbag","pricing_plan_id":"cebpf4jnsgd1na2vs0mg"},{"bike_id":"dbe92701-d1ca-4be9-85d9-e339a4544330","system_id":"levelo_inurba_marseille","lat":43.29047,"lon":5.35912,"is_reserved":false,"is_disabled":false,"rental_uris":{"android":"levelo://app?vid=dbe92701-d1ca-4be9-85d9-e339a4544330","ios":"levelo://app?vid=dbe92701-d1ca-4be9-85d9-e339a4544330"},"vehicle_type_id":"4","last_reported":1746364660,"current_range_meters":16000,"station_id":"ce4bha92rcd13ifvqeg0","pricing_plan_id":"cebpf4jnsgd1na2vs0mg"},{"bike_id":"5ce61c7b-83d8-4c0a-8cf4-c335734fb4a5","system_id":"levelo_inurba_marseille","lat":43.28275,"lon":5.35053,"is_reserved":false,"is_disabled":false,"rental_uris":{"android":"levelo://app?vid=5ce61c7b-83d8-4c0a-8cf4-c335734fb4a5","ios":"levelo://app?vid=5ce61c7b-83d8-4c0a-8cf4-c335734fb4a5"},"vehicle_type_id":"4","last_reported":1746364660,"current_range_meters":16000,"station_id":"ce4bhbp2rcd13ifvqerg","pricing_plan_id":"cebpf4jnsgd1na2vs0mg"},{"bike_id":"f1ffd2b9-91e9-4bf5-a319-6e95940b0de6","system_id":"levelo_inurba_marseille","lat":43.29559,"lon":5.42291,"is_reserved":false,"is_disabled":false,"rental_uris":{"android":"levelo://app?vid=f1ffd2b9-91e9-4bf5-a319-6e95940b0de6","ios":"levelo://app?vid=f1ffd2b9-91e9-4bf5-a319-6e95940b0de6"},"vehicle_type_id":"4","last_reported":1746364660,"current_range_meters":15200,"station_id":"ce4bhph2rcd13ifvqhdg","pricing_plan_id":"cebpf4jnsgd1na2vs0mg"},{"bike_id":"d94ace2f-a694-4d2b-9fa0-6d215239b455","system_id":"levelo_inurba_marseille","lat":43.243875,"lon":5.37072,"is_reserved":false,"is_disabled":false,"rental_uris":{"android":"levelo://app?vid=d94ace2f-a694-4d2b-9fa0-6d215239b455","ios":"levelo://app?vid=d94ace2f-a694-4d2b-9fa0-6d215239b455"},"vehicle_type_id":"4","last_reported":1746364660,"current_range_meters":16000,"station_id":"ce4bhhh2rcd13ifvqfk0","pricing_plan_id":"cebpf4jnsgd1na2vs0mg"},{"bike_id":"a0a1c929-f596-448d-bfb1-3d451c912374","system_id":"levelo_inurba_marseille","lat":43.26933,"lon":5.38926,"is_reserved":false,"is_disabled":false,"rental_uris":{"android":"levelo://app?vid=a0a1c929-f596-448d-bfb1-3d451c912374","ios":"levelo://app?vid=a0a1c929-f596-448d-bfb1-3d451c912374"},"vehicle_type_id":"4","last_reported":1746364660,"current_range_meters":16000,"station_id":"ce4bhhh2rcd13ifvqfl0","pricing_plan_id":"cebpf4jnsgd1na2vs0mg"},{"bike_id":"909fa856-7409-487a-9f14-12b37a084050","system_id":"levelo_inurba_marseille","lat":43.29928,"lon":5.36542,"is_reserved":false,"is_disabled":false,"rental_uris":{"android":"levelo://app?vid=909fa856-7409-487a-9f14-12b37a084050","ios":"levelo://app?vid=909fa856-7409-487a-9f14-12b37a084050"},"vehicle_type_id":"4","last_reported":1746364660,"current_range_meters":16000,"station_id":"ce4bgm92rcd13ifvqbr0","pricing_plan_id":"cebpf4jnsgd1na2vs0mg"},{"bike_id":"2fe87682-0508-478f-81b5-46cd5aa3a7b8","system_id":"levelo_inurba_marseille","lat":43.26557,"lon":5.39028,"is_reserved":false,"is_disabled":false,"rental_uris":{"android":"levelo://app?vid=2fe87682-0508-478f-81b5-46cd5aa3a7b8","ios":"levelo://app?vid=2fe87682-0508-478f-81b5-46cd5aa3a7b8"},"vehicle_type_id":"4","last_reported":1746364660,"current_range_meters":16000,"station_id":"ce4bhe12rcd13ifvqf30","pricing_plan_id":"cebpf4jnsgd1na2vs0mg"},{"bike_id":"511d3ecd-53d9-4a35-a2a8-bdb44806dc7b","system_id":"levelo_inurba_marseille","lat":43.24808,"lon":5.37459,"is_reserved":false,"is_disabled":false,"rental_uris":{"android":"levelo://app?vid=511d3ecd-53d9-4a35-a2a8-bdb44806dc7b","ios":"levelo://app?vid=511d3ecd-53d9-4a35-a2a8-bdb44806dc7b"},"vehicle_type_id":"4","last_reported":1746364660,"current_range_meters":16400,"station_id":"ce4bhgh2rcd13ifvqfb0","pricing_plan_id":"cebpf4jnsgd1na2vs0mg"},{"bike_id":"4f86003a-4bda-480f-becc-b4f53e6e3826","system_id":"levelo_inurba_marseille","lat":43.24545,"lon":5.39521,"is_reserved":false,"is_disabled":false,"rental_uris":{"android":"levelo://app?vid=4f86003a-4bda-480f-becc-b4f53e6e3826","ios":"levelo://app?vid=4f86003a-4bda-480f-becc-b4f53e6e3826"},"vehicle_type_id":"4","last_reported":1746364660,"current_range_meters":16400,"station_id":"ce4bhlp2rcd13ifvqgjg","pricing_plan_id":"cebpf4jnsgd1na2vs0mg"},{"bike_id":"578732df-51ae-47a2-8d9a-a3a489ba150f","system_id":"levelo_inurba_marseille","lat":43.2954,"lon":5.42277,"is_reserved":false,"is_disabled":true,"rental_uris":{"android":"levelo://app?vid=578732df-51ae-47a2-8d9a-a3a489ba150f","ios":"levelo://app?vid=578732df-51ae-47a2-8d9a-a3a489ba150f"},"vehicle_type_id":"4","last_reported":1746364660,"current_range_meters":16400,"station_id":"ce4bhph2rcd13ifvqhdg","pricing_plan_id":"cebpf4jnsgd1na2vs0mg"},{"bike_id":"0332aa8c-d9fb-49fa-9f2a-1adfb3b96028","system_id":"levelo_inurba_marseille","lat":43.29054,"lon":5.35911,"is_reserved":false,"is_disabled":false,"rental_uris":{"android":"levelo://app?vid=0332aa8c-d9fb-49fa-9f2a-1adfb3b96028","ios":"levelo://app?vid=0332aa8c-d9fb-49fa-9f2a-1adfb3b96028"},"vehicle_type_id":"4","last_reported":1746364660,"current_range_meters":16400,"station_id":"ce4bha92rcd13ifvqeg0","pricing_plan_id":"cebpf4jnsgd1na2vs0mg"},{"bike_id":"98cfa4db-2ca8-4ac3-812b-8b21cfe99d05","system_id":"levelo_inurba_marseille","lat":43.29275,"lon":5.36841,"is_reserved":false,"is_disabled":false,"rental_uris":{"android":"levelo://app?vid=98cfa4db-2ca8-4ac3-812b-8b21cfe99d05","ios":"levelo://app?vid=98cfa4db-2ca8-4ac3-812b-8b21cfe99d05"},"vehicle_type_id":"4","last_reported":1746364660,"current_range_meters":16400,"station_id":"ce4bhbp2rcd13ifvqesg","pricing_plan_id":"cebpf4jnsgd1na2vs0mg"},{"bike_id":"17708ba2-801a-4c4b-8c8d-d088d4e29b76","system_id":"levelo_inurba_marseille","lat":43.2928,"lon":5.36845,"is_reserved":false,"is_disabled":false,"rental_uris":{"android":"levelo://app?vid=17708ba2-801a-4c4b-8c8d-d088d4e29b76","ios":"levelo://app?vid=17708ba2-801a-4c4b-8c8d-d088d4e29b76"},"vehicle_type_id":"4","last_reported":1746364660,"current_range_meters":16800,"station_id":"ce4bhbp2rcd13ifvqesg","pricing_plan_id":"cebpf4jnsgd1na2vs0mg"},{"bike_id":"a2d2ad2a-a30c-401a-82e6-519c3d59db74","system_id":"levelo_inurba_marseille","lat":43.27386,"lon":5.36262,"is_reserved":false,"is_disabled":false,"rental_uris":{"android":"levelo://app?vid=a2d2ad2a-a30c-401a-82e6-519c3d59db74","ios":"levelo://app?vid=a2d2ad2a-a30c-401a-82e6-519c3d59db74"},"vehicle_type_id":"4","last_reported":1746364660,"current_range_meters":16800,"station_id":"ce4bhbh2rcd13ifvqeo0","pricing_plan_id":"cebpf4jnsgd1na2vs0mg"},{"bike_id":"3cf456d9-6f3d-4e20-a33c-7df158071c81","system_id":"levelo_inurba_marseille","lat":43.24392,"lon":5.37055,"is_reserved":false,"is_disabled":false,"rental_uris":{"android":"levelo://app?vid=3cf456d9-6f3d-4e20-a33c-7df158071c81","ios":"levelo://app?vid=3cf456d9-6f3d-4e20-a33c-7df158071c81"},"vehicle_type_id":"4","last_reported":1746364660,"current_range_meters":16800,"station_id":"ce4bhhh2rcd13ifvqfk0","pricing_plan_id":"cebpf4jnsgd1na2vs0mg"},{"bike_id":"0abe7365-362a-4c2d-949a-e32faf9d4099","system_id":"levelo_inurba_marseille","lat":43.21153,"lon":5.34984,"is_reserved":false,"is_disabled":false,"rental_uris":{"android":"levelo://app?vid=0abe7365-362a-4c2d-949a-e32faf9d4099","ios":"levelo://app?vid=0abe7365-362a-4c2d-949a-e32faf9d4099"},"vehicle_type_id":"4","last_reported":1746364660,"current_range_meters":16800,"station_id":"","pricing_plan_id":"cebpf4jnsgd1na2vs0mg"},{"bike_id":"c934a038-999c-4097-b244-e68883d621e3","system_id":"levelo_inurba_marseille","lat":43.30568,"lon":5.36537,"is_reserved":false,"is_disabled":true,"rental_uris":{"android":"levelo://app?vid=c934a038-999c-4097-b244-e68883d621e3","ios":"levelo://app?vid=c934a038-999c-4097-b244-e68883d621e3"},"vehicle_type_id":"4","last_reported":1746364660,"current_range_meters":16800,"station_id":"ce4bgs12rcd13ifvqcag","pricing_plan_id":"cebpf4jnsgd1na2vs0mg"},{"bike_id":"bb98d5f1-dd02-4678-bc53-f0d3e46451ba","system_id":"levelo_inurba_marseille","lat":43.30947,"lon":5.39023,"is_reserved":false,"is_disabled":false,"rental_uris":{"android":"levelo://app?vid=bb98d5f1-dd02-4678-bc53-f0d3e46451ba","ios":"levelo://app?vid=bb98d5f1-dd02-4678-bc53-f0d3e46451ba"},"vehicle_type_id":"4","last_reported":1746364660,"current_range_meters":16800,"station_id":"ce4bgup2rcd13ifvqco0","pricing_plan_id":"cebpf4jnsgd1na2vs0mg"},{"bike_id":"a6815b73-1172-4c50-b8e7-4691da578e99","system_id":"levelo_inurba_marseille","lat":43.2968,"lon":5.37292,"is_reserved":false,"is_disabled":false,"rental_uris":{"android":"levelo://app?vid=a6815b73-1172-4c50-b8e7-4691da578e99","ios":"levelo://app?vid=a6815b73-1172-4c50-b8e7-4691da578e99"},"vehicle_type_id":"4","last_reported":1746364660,"current_range_meters":16800,"station_id":"ce4bgk12rcd13ifvqbj0","pricing_plan_id":"cebpf4jnsgd1na2vs0mg"},{"bike_id":"e92fce78-c3e5-4ede-a030-8b47fd93206e","system_id":"levelo_inurba_marseille","lat":43.28425,"lon":5.34988,"is_reserved":false,"is_disabled":false,"rental_uris":{"android":"levelo://app?vid=e92fce78-c3e5-4ede-a030-8b47fd93206e","ios":"levelo://app?vid=e92fce78-c3e5-4ede-a030-8b47fd93206e"},"vehicle_type_id":"4","last_reported":1746364660,"current_range_meters":17200,"station_id":"ce4bhbh2rcd13ifvqepg","pricing_plan_id":"cebpf4jnsgd1na2vs0mg"},{"bike_id":"cb0a7ff5-b4ff-4d3e-8306-c149ade4bdfb","system_id":"levelo_inurba_marseille","lat":43.272046,"lon":5.391864,"is_reserved":false,"is_disabled":true,"rental_uris":{"android":"levelo://app?vid=cb0a7ff5-b4ff-4d3e-8306-c149ade4bdfb","ios":"levelo://app?vid=cb0a7ff5-b4ff-4d3e-8306-c149ade4bdfb"},"vehicle_type_id":"4","last_reported":1746364660,"current_range_meters":17200,"station_id":"ce4bhhp2rcd13ifvqfm0","pricing_plan_id":"cebpf4jnsgd1na2vs0mg"},{"bike_id":"5fad3039-9cb1-45b2-8a41-e1bb6fbdee6e","system_id":"levelo_inurba_marseille","lat":43.30954,"lon":5.3903,"is_reserved":false,"is_disabled":false,"rental_uris":{"android":"levelo://app?vid=5fad3039-9cb1-45b2-8a41-e1bb6fbdee6e","ios":"levelo://app?vid=5fad3039-9cb1-45b2-8a41-e1bb6fbdee6e"},"vehicle_type_id":"4","last_reported":1746364660,"current_range_meters":16800,"station_id":"ce4bgup2rcd13ifvqco0","pricing_plan_id":"cebpf4jnsgd1na2vs0mg"},{"bike_id":"0a0ece37-539d-4aa3-b235-deb8a4daf593","system_id":"levelo_inurba_marseille","lat":43.33082,"lon":5.40831,"is_reserved":false,"is_disabled":false,"rental_uris":{"android":"levelo://app?vid=0a0ece37-539d-4aa3-b235-deb8a4daf593","ios":"levelo://app?vid=0a0ece37-539d-4aa3-b235-deb8a4daf593"},"vehicle_type_id":"4","last_reported":1746364660,"current_range_meters":17200,"station_id":"","pricing_plan_id":"cebpf4jnsgd1na2vs0mg"},{"bike_id":"1885e4e4-787e-4399-a182-13afb5671e8f","system_id":"levelo_inurba_marseille","lat":43.31765,"lon":5.38999,"is_reserved":false,"is_disabled":false,"rental_uris":{"android":"levelo://app?vid=1885e4e4-787e-4399-a182-13afb5671e8f","ios":"levelo://app?vid=1885e4e4-787e-4399-a182-13afb5671e8f"},"vehicle_type_id":"4","last_reported":1746364660,"current_range_meters":17600,"station_id":"ce4bhqp2rcd13ifvqhng","pricing_plan_id":"cebpf4jnsgd1na2vs0mg"},{"bike_id":"1c46e67a-e855-48dd-b2ee-f21107af2fb6","system_id":"levelo_inurba_marseille","lat":43.27176,"lon":5.40975,"is_reserved":false,"is_disabled":false,"rental_uris":{"android":"levelo://app?vid=1c46e67a-e855-48dd-b2ee-f21107af2fb6","ios":"levelo://app?vid=1c46e67a-e855-48dd-b2ee-f21107af2fb6"},"vehicle_type_id":"4","last_reported":1746364660,"current_range_meters":17600,"station_id":"ce4bhl12rcd13ifvqgf0","pricing_plan_id":"cebpf4jnsgd1na2vs0mg"},{"bike_id":"b3cbb21e-793f-478c-9965-8205d52774c6","system_id":"levelo_inurba_marseille","lat":43.307329,"lon":5.424369,"is_reserved":false,"is_disabled":false,"rental_uris":{"android":"levelo://app?vid=b3cbb21e-793f-478c-9965-8205d52774c6","ios":"levelo://app?vid=b3cbb21e-793f-478c-9965-8205d52774c6"},"vehicle_type_id":"4","last_reported":1746364660,"current_range_meters":17600,"station_id":"st_cvj6ca6bvosntc0bfgr0","pricing_plan_id":"cebpf4jnsgd1na2vs0mg"},{"bike_id":"8536704e-961e-4868-ad07-81df77fc76eb","system_id":"levelo_inurba_marseille","lat":43.29005,"lon":5.35611,"is_reserved":false,"is_disabled":true,"rental_uris":{"android":"levelo://app?vid=8536704e-961e-4868-ad07-81df77fc76eb","ios":"levelo://app?vid=8536704e-961e-4868-ad07-81df77fc76eb"},"vehicle_type_id":"4","last_reported":1746364660,"current_range_meters":18000,"station_id":"ce4bhb92rcd13ifvqen0","pricing_plan_id":"cebpf4jnsgd1na2vs0mg"},{"bike_id":"33191492-6dc5-44bf-89c4-d5dd2ee98f69","system_id":"levelo_inurba_marseille","lat":43.29277,"lon":5.3684,"is_reserved":false,"is_disabled":false,"rental_uris":{"android":"levelo://app?vid=33191492-6dc5-44bf-89c4-d5dd2ee98f69","ios":"levelo://app?vid=33191492-6dc5-44bf-89c4-d5dd2ee98f69"},"vehicle_type_id":"4","last_reported":1746364660,"current_range_meters":18000,"station_id":"ce4bhbp2rcd13ifvqesg","pricing_plan_id":"cebpf4jnsgd1na2vs0mg"},{"bike_id":"b54eb496-fc58-4d57-8f85-5e33f698c7a4","system_id":"levelo_inurba_marseille","lat":43.23061,"lon":5.35496,"is_reserved":false,"is_disabled":false,"rental_uris":{"android":"levelo://app?vid=b54eb496-fc58-4d57-8f85-5e33f698c7a4","ios":"levelo://app?vid=b54eb496-fc58-4d57-8f85-5e33f698c7a4"},"vehicle_type_id":"4","last_reported":1746364660,"current_range_meters":18000,"station_id":"cpo3342slgdg3j2ifvpg","pricing_plan_id":"cebpf4jnsgd1na2vs0mg"},{"bike_id":"e40c6458-de4d-498a-8d1d-173a0da5f5e8","system_id":"levelo_inurba_marseille","lat":43.30535,"lon":5.36688,"is_reserved":false,"is_disabled":false,"rental_uris":{"android":"levelo://app?vid=e40c6458-de4d-498a-8d1d-173a0da5f5e8","ios":"levelo://app?vid=e40c6458-de4d-498a-8d1d-173a0da5f5e8"},"vehicle_type_id":"4","last_reported":1746364660,"current_range_meters":18000,"station_id":"ce4bgrp2rcd13ifvqc9g","pricing_plan_id":"cebpf4jnsgd1na2vs0mg"},{"bike_id":"3ff1331f-d2b9-4db6-9af0-17b5a04341a5","system_id":"levelo_inurba_marseille","lat":43.2434,"lon":5.37988,"is_reserved":false,"is_disabled":false,"rental_uris":{"android":"levelo://app?vid=3ff1331f-d2b9-4db6-9af0-17b5a04341a5","ios":"levelo://app?vid=3ff1331f-d2b9-4db6-9af0-17b5a04341a5"},"vehicle_type_id":"4","last_reported":1746364660,"current_range_meters":18000,"station_id":"","pricing_plan_id":"cebpf4jnsgd1na2vs0mg"},{"bike_id":"fb2d1257-ea5f-48b2-b7cc-8a76fc26acf1","system_id":"levelo_inurba_marseille","lat":43.31758,"lon":5.39015,"is_reserved":false,"is_disabled":false,"rental_uris":{"android":"levelo://app?vid=fb2d1257-ea5f-48b2-b7cc-8a76fc26acf1","ios":"levelo://app?vid=fb2d1257-ea5f-48b2-b7cc-8a76fc26acf1"},"vehicle_type_id":"4","last_reported":1746364660,"current_range_meters":17600,"station_id":"ce4bhqp2rcd13ifvqhng","pricing_plan_id":"cebpf4jnsgd1na2vs0mg"},{"bike_id":"b14928a7-ffd5-4cec-9466-7d81b6e1f264","system_id":"levelo_inurba_marseille","lat":43.27431,"lon":5.39408,"is_reserved":false,"is_disabled":false,"rental_uris":{"android":"levelo://app?vid=b14928a7-ffd5-4cec-9466-7d81b6e1f264","ios":"levelo://app?vid=b14928a7-ffd5-4cec-9466-7d81b6e1f264"},"vehicle_type_id":"4","last_reported":1746364660,"current_range_meters":18000,"station_id":"ce4bhdp2rcd13ifvqf20","pricing_plan_id":"cebpf4jnsgd1na2vs0mg"},{"bike_id":"72a6dbed-e201-4668-929f-9cbcebb51e7b","system_id":"levelo_inurba_marseille","lat":43.29627,"lon":5.37734,"is_reserved":false,"is_disabled":false,"rental_uris":{"android":"levelo://app?vid=72a6dbed-e201-4668-929f-9cbcebb51e7b","ios":"levelo://app?vid=72a6dbed-e201-4668-929f-9cbcebb51e7b"},"vehicle_type_id":"4","last_reported":1746364660,"current_range_meters":18800,"station_id":"ce4bgi92rcd13ifvqb90","pricing_plan_id":"cebpf4jnsgd1na2vs0mg"},{"bike_id":"ce8e560e-1e4b-4351-82ce-88820496d36a","system_id":"levelo_inurba_marseille","lat":43.26567,"lon":5.3902,"is_reserved":false,"is_disabled":false,"rental_uris":{"android":"levelo://app?vid=ce8e560e-1e4b-4351-82ce-88820496d36a","ios":"levelo://app?vid=ce8e560e-1e4b-4351-82ce-88820496d36a"},"vehicle_type_id":"4","last_reported":1746364660,"current_range_meters":18800,"station_id":"ce4bhe12rcd13ifvqf30","pricing_plan_id":"cebpf4jnsgd1na2vs0mg"},{"bike_id":"7ad04c1b-fc26-4c94-a72f-89c6e3ca5c32","system_id":"levelo_inurba_marseille","lat":43.31191,"lon":5.40759,"is_reserved":false,"is_disabled":false,"rental_uris":{"android":"levelo://app?vid=7ad04c1b-fc26-4c94-a72f-89c6e3ca5c32","ios":"levelo://app?vid=7ad04c1b-fc26-4c94-a72f-89c6e3ca5c32"},"vehicle_type_id":"4","last_reported":1746364660,"current_range_meters":18800,"station_id":"","pricing_plan_id":"cebpf4jnsgd1na2vs0mg"},{"bike_id":"a7393548-1ca4-426f-bec8-e094325f844e","system_id":"levelo_inurba_marseille","lat":43.26318,"lon":5.37427,"is_reserved":false,"is_disabled":false,"rental_uris":{"android":"levelo://app?vid=a7393548-1ca4-426f-bec8-e094325f844e","ios":"levelo://app?vid=a7393548-1ca4-426f-bec8-e094325f844e"},"vehicle_type_id":"4","last_reported":1746364660,"current_range_meters":18800,"station_id":"","pricing_plan_id":"cebpf4jnsgd1na2vs0mg"},{"bike_id":"89c1c22e-4deb-4a12-b25d-9d0f09a1f79b","system_id":"levelo_inurba_marseille","lat":43.21747,"lon":5.34601,"is_reserved":false,"is_disabled":false,"rental_uris":{"android":"levelo://app?vid=89c1c22e-4deb-4a12-b25d-9d0f09a1f79b","ios":"levelo://app?vid=89c1c22e-4deb-4a12-b25d-9d0f09a1f79b"},"vehicle_type_id":"4","last_reported":1746364660,"current_range_meters":18800,"station_id":"st_cvj6r9ubvosntc0bgbag","pricing_plan_id":"cebpf4jnsgd1na2vs0mg"},{"bike_id":"d252a272-7b85-44ee-b117-a17b072d1a91","system_id":"levelo_inurba_marseille","lat":43.21739,"lon":5.34609,"is_reserved":false,"is_disabled":false,"rental_uris":{"android":"levelo://app?vid=d252a272-7b85-44ee-b117-a17b072d1a91","ios":"levelo://app?vid=d252a272-7b85-44ee-b117-a17b072d1a91"},"vehicle_type_id":"4","last_reported":1746364660,"current_range_meters":18800,"station_id":"st_cvj6r9ubvosntc0bgbag","pricing_plan_id":"cebpf4jnsgd1na2vs0mg"},{"bike_id":"082ac56b-3d9f-4f13-bc0f-c2060386c881","system_id":"levelo_inurba_marseille","lat":43.29032,"lon":5.35622,"is_reserved":false,"is_disabled":true,"rental_uris":{"android":"levelo://app?vid=082ac56b-3d9f-4f13-bc0f-c2060386c881","ios":"levelo://app?vid=082ac56b-3d9f-4f13-bc0f-c2060386c881"},"vehicle_type_id":"4","last_reported":1746364660,"current_range_meters":18800,"station_id":"ce4bhb92rcd13ifvqen0","pricing_plan_id":"cebpf4jnsgd1na2vs0mg"},{"bike_id":"8e69649f-d5a0-4ead-b212-c5b5612beda7","system_id":"levelo_inurba_marseille","lat":43.25494,"lon":5.376378,"is_reserved":false,"is_disabled":true,"rental_uris":{"android":"levelo://app?vid=8e69649f-d5a0-4ead-b212-c5b5612beda7","ios":"levelo://app?vid=8e69649f-d5a0-4ead-b212-c5b5612beda7"},"vehicle_type_id":"4","last_reported":1746364660,"current_range_meters":18800,"station_id":"ce4bhh12rcd13ifvqff0","pricing_plan_id":"cebpf4jnsgd1na2vs0mg"},{"bike_id":"c7d53f6a-6ffb-4901-bb4b-7c4df8b276c3","system_id":"levelo_inurba_marseille","lat":43.28268,"lon":5.35056,"is_reserved":false,"is_disabled":false,"rental_uris":{"android":"levelo://app?vid=c7d53f6a-6ffb-4901-bb4b-7c4df8b276c3","ios":"levelo://app?vid=c7d53f6a-6ffb-4901-bb4b-7c4df8b276c3"},"vehicle_type_id":"4","last_reported":1746364660,"current_range_meters":18800,"station_id":"ce4bhbp2rcd13ifvqerg","pricing_plan_id":"cebpf4jnsgd1na2vs0mg"},{"bike_id":"f589fc42-057a-43b9-81ad-55c2a575aecf","system_id":"levelo_inurba_marseille","lat":43.31053,"lon":5.3835,"is_reserved":false,"is_disabled":true,"rental_uris":{"android":"levelo://app?vid=f589fc42-057a-43b9-81ad-55c2a575aecf","ios":"levelo://app?vid=f589fc42-057a-43b9-81ad-55c2a575aecf"},"vehicle_type_id":"4","last_reported":1746364660,"current_range_meters":19200,"station_id":"ce4bgv92rcd13ifvqcr0","pricing_plan_id":"cebpf4jnsgd1na2vs0mg"},{"bike_id":"fe038c53-4859-4c59-b01d-b91f2fc86a70","system_id":"levelo_inurba_marseille","lat":43.28979,"lon":5.37824,"is_reserved":false,"is_disabled":false,"rental_uris":{"android":"levelo://app?vid=fe038c53-4859-4c59-b01d-b91f2fc86a70","ios":"levelo://app?vid=fe038c53-4859-4c59-b01d-b91f2fc86a70"},"vehicle_type_id":"4","last_reported":1746364660,"current_range_meters":19200,"station_id":"ce4bh9p2rcd13ifvqed0","pricing_plan_id":"cebpf4jnsgd1na2vs0mg"},{"bike_id":"a8a5d03d-9153-4179-835f-415d347401e8","system_id":"levelo_inurba_marseille","lat":43.29545,"lon":5.42283,"is_reserved":false,"is_disabled":false,"rental_uris":{"android":"levelo://app?vid=a8a5d03d-9153-4179-835f-415d347401e8","ios":"levelo://app?vid=a8a5d03d-9153-4179-835f-415d347401e8"},"vehicle_type_id":"4","last_reported":1746364660,"current_range_meters":19200,"station_id":"ce4bhph2rcd13ifvqhdg","pricing_plan_id":"cebpf4jnsgd1na2vs0mg"},{"bike_id":"e676ec0b-8357-4797-bdac-ebb98219046f","system_id":"levelo_inurba_marseille","lat":43.31279,"lon":5.40173,"is_reserved":false,"is_disabled":false,"rental_uris":{"android":"levelo://app?vid=e676ec0b-8357-4797-bdac-ebb98219046f","ios":"levelo://app?vid=e676ec0b-8357-4797-bdac-ebb98219046f"},"vehicle_type_id":"4","last_reported":1746364660,"current_range_meters":18800,"station_id":"ce4bh092rcd13ifvqd30","pricing_plan_id":"cebpf4jnsgd1na2vs0mg"},{"bike_id":"d62eceed-23eb-4f3d-a6fe-a61cd2ad4365","system_id":"levelo_inurba_marseille","lat":43.28405,"lon":5.35593,"is_reserved":false,"is_disabled":false,"rental_uris":{"android":"levelo://app?vid=d62eceed-23eb-4f3d-a6fe-a61cd2ad4365","ios":"levelo://app?vid=d62eceed-23eb-4f3d-a6fe-a61cd2ad4365"},"vehicle_type_id":"4","last_reported":1746364660,"current_range_meters":19200,"station_id":"","pricing_plan_id":"cebpf4jnsgd1na2vs0mg"},{"bike_id":"f3147f4d-a592-4c49-a57a-525d2d090d8f","system_id":"levelo_inurba_marseille","lat":43.29173,"lon":5.37158,"is_reserved":false,"is_disabled":false,"rental_uris":{"android":"levelo://app?vid=f3147f4d-a592-4c49-a57a-525d2d090d8f","ios":"levelo://app?vid=f3147f4d-a592-4c49-a57a-525d2d090d8f"},"vehicle_type_id":"4","last_reported":1746364660,"current_range_meters":19200,"station_id":"ce4bha92rcd13ifvqeh0","pricing_plan_id":"cebpf4jnsgd1na2vs0mg"},{"bike_id":"edbf20fb-ac0b-494b-a361-501dceb65602","system_id":"levelo_inurba_marseille","lat":43.28464,"lon":5.35886,"is_reserved":false,"is_disabled":false,"rental_uris":{"android":"levelo://app?vid=edbf20fb-ac0b-494b-a361-501dceb65602","ios":"levelo://app?vid=edbf20fb-ac0b-494b-a361-501dceb65602"},"vehicle_type_id":"4","last_reported":1746364660,"current_range_meters":20400,"station_id":"ce4bhah2rcd13ifvqei0","pricing_plan_id":"cebpf4jnsgd1na2vs0mg"},{"bike_id":"14ca223e-0aab-4990-afff-325152cdd058","system_id":"levelo_inurba_marseille","lat":43.29945,"lon":5.36533,"is_reserved":false,"is_disabled":false,"rental_uris":{"android":"levelo://app?vid=14ca223e-0aab-4990-afff-325152cdd058","ios":"levelo://app?vid=14ca223e-0aab-4990-afff-325152cdd058"},"vehicle_type_id":"4","last_reported":1746364660,"current_range_meters":19200,"station_id":"ce4bgm92rcd13ifvqbr0","pricing_plan_id":"cebpf4jnsgd1na2vs0mg"},{"bike_id":"725d8748-1f17-463a-879e-9f6908374adb","system_id":"levelo_inurba_marseille","lat":43.231899,"lon":5.355537,"is_reserved":false,"is_disabled":true,"rental_uris":{"android":"levelo://app?vid=725d8748-1f17-463a-879e-9f6908374adb","ios":"levelo://app?vid=725d8748-1f17-463a-879e-9f6908374adb"},"vehicle_type_id":"4","last_reported":1746364660,"current_range_meters":19600,"station_id":"ce4bhu92rcd13ifvqi70","pricing_plan_id":"cebpf4jnsgd1na2vs0mg"},{"bike_id":"f3c2f482-0841-4146-93ad-a763309c68ea","system_id":"levelo_inurba_marseille","lat":43.28268,"lon":5.35074,"is_reserved":false,"is_disabled":false,"rental_uris":{"android":"levelo://app?vid=f3c2f482-0841-4146-93ad-a763309c68ea","ios":"levelo://app?vid=f3c2f482-0841-4146-93ad-a763309c68ea"},"vehicle_type_id":"4","last_reported":1746364660,"current_range_meters":19600,"station_id":"ce4bhbp2rcd13ifvqerg","pricing_plan_id":"cebpf4jnsgd1na2vs0mg"},{"bike_id":"88f64703-e845-4dd4-92d0-bc3e9f57b6e4","system_id":"levelo_inurba_marseille","lat":43.30881,"lon":5.37176,"is_reserved":false,"is_disabled":false,"rental_uris":{"android":"levelo://app?vid=88f64703-e845-4dd4-92d0-bc3e9f57b6e4","ios":"levelo://app?vid=88f64703-e845-4dd4-92d0-bc3e9f57b6e4"},"vehicle_type_id":"4","last_reported":1746364660,"current_range_meters":19600,"station_id":"ce4bguh2rcd13ifvqckg","pricing_plan_id":"cebpf4jnsgd1na2vs0mg"},{"bike_id":"7e1e01b6-6e57-4850-b2f0-aacfecbd9a61","system_id":"levelo_inurba_marseille","lat":43.28273,"lon":5.35067,"is_reserved":false,"is_disabled":false,"rental_uris":{"android":"levelo://app?vid=7e1e01b6-6e57-4850-b2f0-aacfecbd9a61","ios":"levelo://app?vid=7e1e01b6-6e57-4850-b2f0-aacfecbd9a61"},"vehicle_type_id":"4","last_reported":1746364660,"current_range_meters":19600,"station_id":"ce4bhbp2rcd13ifvqerg","pricing_plan_id":"cebpf4jnsgd1na2vs0mg"},{"bike_id":"a9417710-8ce4-4be1-ba9f-4b130d549101","system_id":"levelo_inurba_marseille","lat":43.26064,"lon":5.39394,"is_reserved":false,"is_disabled":false,"rental_uris":{"android":"levelo://app?vid=a9417710-8ce4-4be1-ba9f-4b130d549101","ios":"levelo://app?vid=a9417710-8ce4-4be1-ba9f-4b130d549101"},"vehicle_type_id":"4","last_reported":1746364660,"current_range_meters":19600,"station_id":"ce4bhh92rcd13ifvqfj0","pricing_plan_id":"cebpf4jnsgd1na2vs0mg"},{"bike_id":"bbba4a42-41f1-4d4c-a0ec-15062e1d6496","system_id":"levelo_inurba_marseille","lat":43.30812,"lon":5.43522,"is_reserved":false,"is_disabled":false,"rental_uris":{"android":"levelo://app?vid=bbba4a42-41f1-4d4c-a0ec-15062e1d6496","ios":"levelo://app?vid=bbba4a42-41f1-4d4c-a0ec-15062e1d6496"},"vehicle_type_id":"4","last_reported":1746364660,"current_range_meters":20000,"station_id":"ce4bhph2rcd13ifvqheg","pricing_plan_id":"cebpf4jnsgd1na2vs0mg"},{"bike_id":"ef7522cc-8014-40bc-9598-b978ef8d62ed","system_id":"levelo_inurba_marseille","lat":43.30218,"lon":5.40054,"is_reserved":false,"is_disabled":true,"rental_uris":{"android":"levelo://app?vid=ef7522cc-8014-40bc-9598-b978ef8d62ed","ios":"levelo://app?vid=ef7522cc-8014-40bc-9598-b978ef8d62ed"},"vehicle_type_id":"4","last_reported":1746364660,"current_range_meters":20000,"station_id":"ce4bgvh2rcd13ifvqcs0","pricing_plan_id":"cebpf4jnsgd1na2vs0mg"},{"bike_id":"3ae94265-ab77-4214-a2e0-e1bdc82ade3b","system_id":"levelo_inurba_marseille","lat":43.25504,"lon":5.37647,"is_reserved":false,"is_disabled":false,"rental_uris":{"android":"levelo://app?vid=3ae94265-ab77-4214-a2e0-e1bdc82ade3b","ios":"levelo://app?vid=3ae94265-ab77-4214-a2e0-e1bdc82ade3b"},"vehicle_type_id":"4","last_reported":1746364660,"current_range_meters":19600,"station_id":"","pricing_plan_id":"cebpf4jnsgd1na2vs0mg"},{"bike_id":"3bf96f6c-1138-425e-99d5-253ba6181d5e","system_id":"levelo_inurba_marseille","lat":43.304345,"lon":5.398428,"is_reserved":false,"is_disabled":true,"rental_uris":{"android":"levelo://app?vid=3bf96f6c-1138-425e-99d5-253ba6181d5e","ios":"levelo://app?vid=3bf96f6c-1138-425e-99d5-253ba6181d5e"},"vehicle_type_id":"4","last_reported":1746364660,"current_range_meters":20400,"station_id":"","pricing_plan_id":"cebpf4jnsgd1na2vs0mg"},{"bike_id":"c8dd0741-d802-4cae-94ca-433f088b9d8d","system_id":"levelo_inurba_marseille","lat":43.28423,"lon":5.3498,"is_reserved":false,"is_disabled":false,"rental_uris":{"android":"levelo://app?vid=c8dd0741-d802-4cae-94ca-433f088b9d8d","ios":"levelo://app?vid=c8dd0741-d802-4cae-94ca-433f088b9d8d"},"vehicle_type_id":"4","last_reported":1746364660,"current_range_meters":20400,"station_id":"ce4bhbh2rcd13ifvqepg","pricing_plan_id":"cebpf4jnsgd1na2vs0mg"},{"bike_id":"df987d76-3692-47f1-a4e9-eb9c027c89a7","system_id":"levelo_inurba_marseille","lat":43.23191,"lon":5.39997,"is_reserved":false,"is_disabled":false,"rental_uris":{"android":"levelo://app?vid=df987d76-3692-47f1-a4e9-eb9c027c89a7","ios":"levelo://app?vid=df987d76-3692-47f1-a4e9-eb9c027c89a7"},"vehicle_type_id":"4","last_reported":1746364660,"current_range_meters":20400,"station_id":"ce4bhn12rcd13ifvqgqg","pricing_plan_id":"cebpf4jnsgd1na2vs0mg"},{"bike_id":"9e174534-0b7f-41f7-9bb7-f68172cda9ce","system_id":"levelo_inurba_marseille","lat":43.21189,"lon":5.35063,"is_reserved":false,"is_disabled":false,"rental_uris":{"android":"levelo://app?vid=9e174534-0b7f-41f7-9bb7-f68172cda9ce","ios":"levelo://app?vid=9e174534-0b7f-41f7-9bb7-f68172cda9ce"},"vehicle_type_id":"4","last_reported":1746364660,"current_range_meters":20400,"station_id":"st_cvj6sg6p6f1abm77japg","pricing_plan_id":"cebpf4jnsgd1na2vs0mg"},{"bike_id":"a3eccdb9-63c9-4af7-a546-62ce7eea30d4","system_id":"levelo_inurba_marseille","lat":43.290616,"lon":5.371552,"is_reserved":false,"is_disabled":true,"rental_uris":{"android":"levelo://app?vid=a3eccdb9-63c9-4af7-a546-62ce7eea30d4","ios":"levelo://app?vid=a3eccdb9-63c9-4af7-a546-62ce7eea30d4"},"vehicle_type_id":"4","last_reported":1746364660,"current_range_meters":20400,"station_id":"ce4bh5p2rcd13ifvqe4g","pricing_plan_id":"cebpf4jnsgd1na2vs0mg"},{"bike_id":"5a6980da-6f96-4213-89df-0b7fe2d26ba4","system_id":"levelo_inurba_marseille","lat":43.31687,"lon":5.40468,"is_reserved":false,"is_disabled":false,"rental_uris":{"android":"levelo://app?vid=5a6980da-6f96-4213-89df-0b7fe2d26ba4","ios":"levelo://app?vid=5a6980da-6f96-4213-89df-0b7fe2d26ba4"},"vehicle_type_id":"4","last_reported":1746364660,"current_range_meters":20800,"station_id":"ce4bh012rcd13ifvqd00","pricing_plan_id":"cebpf4jnsgd1na2vs0mg"},{"bike_id":"be08d0c5-8233-46ce-a16a-10ba0e6ee589","system_id":"levelo_inurba_marseille","lat":43.26957,"lon":5.38653,"is_reserved":false,"is_disabled":true,"rental_uris":{"android":"levelo://app?vid=be08d0c5-8233-46ce-a16a-10ba0e6ee589","ios":"levelo://app?vid=be08d0c5-8233-46ce-a16a-10ba0e6ee589"},"vehicle_type_id":"4","last_reported":1746364660,"current_range_meters":20800,"station_id":"ce4bhh92rcd13ifvqfh0","pricing_plan_id":"cebpf4jnsgd1na2vs0mg"},{"bike_id":"b212db87-e197-43f7-9b5a-58b33a4d1cb9","system_id":"levelo_inurba_marseille","lat":43.32012,"lon":5.38144,"is_reserved":false,"is_disabled":true,"rental_uris":{"android":"levelo://app?vid=b212db87-e197-43f7-9b5a-58b33a4d1cb9","ios":"levelo://app?vid=b212db87-e197-43f7-9b5a-58b33a4d1cb9"},"vehicle_type_id":"4","last_reported":1746364660,"current_range_meters":20800,"station_id":"ce4bhr12rcd13ifvqhpg","pricing_plan_id":"cebpf4jnsgd1na2vs0mg"},{"bike_id":"6ace0f1a-c51b-49f5-8806-7ffd8c7e5fce","system_id":"levelo_inurba_marseille","lat":43.31739,"lon":5.40412,"is_reserved":false,"is_disabled":false,"rental_uris":{"android":"levelo://app?vid=6ace0f1a-c51b-49f5-8806-7ffd8c7e5fce","ios":"levelo://app?vid=6ace0f1a-c51b-49f5-8806-7ffd8c7e5fce"},"vehicle_type_id":"4","last_reported":1746364660,"current_range_meters":20800,"station_id":"ce4bh012rcd13ifvqd00","pricing_plan_id":"cebpf4jnsgd1na2vs0mg"},{"bike_id":"2dce38cf-a8d4-49cd-9fcf-ef494d90a125","system_id":"levelo_inurba_marseille","lat":43.27139,"lon":5.36361,"is_reserved":false,"is_disabled":false,"rental_uris":{"android":"levelo://app?vid=2dce38cf-a8d4-49cd-9fcf-ef494d90a125","ios":"levelo://app?vid=2dce38cf-a8d4-49cd-9fcf-ef494d90a125"},"vehicle_type_id":"4","last_reported":1746364660,"current_range_meters":20800,"station_id":"","pricing_plan_id":"cebpf4jnsgd1na2vs0mg"},{"bike_id":"bcdc0033-282e-4006-acda-7c1e0fdfff9e","system_id":"levelo_inurba_marseille","lat":43.31744,"lon":5.42406,"is_reserved":false,"is_disabled":false,"rental_uris":{"android":"levelo://app?vid=bcdc0033-282e-4006-acda-7c1e0fdfff9e","ios":"levelo://app?vid=bcdc0033-282e-4006-acda-7c1e0fdfff9e"},"vehicle_type_id":"4","last_reported":1746364660,"current_range_meters":20800,"station_id":"ce4bhp92rcd13ifvqhbg","pricing_plan_id":"cebpf4jnsgd1na2vs0mg"},{"bike_id":"fbb93680-70cb-46f7-8c0d-c0221091fd0e","system_id":"levelo_inurba_marseille","lat":43.28272,"lon":5.3506,"is_reserved":false,"is_disabled":false,"rental_uris":{"android":"levelo://app?vid=fbb93680-70cb-46f7-8c0d-c0221091fd0e","ios":"levelo://app?vid=fbb93680-70cb-46f7-8c0d-c0221091fd0e"},"vehicle_type_id":"4","last_reported":1746364660,"current_range_meters":20800,"station_id":"ce4bhbp2rcd13ifvqerg","pricing_plan_id":"cebpf4jnsgd1na2vs0mg"},{"bike_id":"1ce5faab-c057-44d0-b6f7-996b2962169c","system_id":"levelo_inurba_marseille","lat":43.32366,"lon":5.36754,"is_reserved":false,"is_disabled":false,"rental_uris":{"android":"levelo://app?vid=1ce5faab-c057-44d0-b6f7-996b2962169c","ios":"levelo://app?vid=1ce5faab-c057-44d0-b6f7-996b2962169c"},"vehicle_type_id":"4","last_reported":1746364660,"current_range_meters":21600,"station_id":"ce4bhsh2rcd13ifvqi2g","pricing_plan_id":"cebpf4jnsgd1na2vs0mg"},{"bike_id":"4210a781-9922-4b8c-8449-7424b7d5d740","system_id":"levelo_inurba_marseille","lat":43.25707,"lon":5.41071,"is_reserved":false,"is_disabled":false,"rental_uris":{"android":"levelo://app?vid=4210a781-9922-4b8c-8449-7424b7d5d740","ios":"levelo://app?vid=4210a781-9922-4b8c-8449-7424b7d5d740"},"vehicle_type_id":"4","last_reported":1746364660,"current_range_meters":21600,"station_id":"ce4bhkp2rcd13ifvqgd0","pricing_plan_id":"cebpf4jnsgd1na2vs0mg"},{"bike_id":"93b551cc-d098-4d71-9ddb-2d168f3ce293","system_id":"levelo_inurba_marseille","lat":43.30596,"lon":5.37217,"is_reserved":false,"is_disabled":false,"rental_uris":{"android":"levelo://app?vid=93b551cc-d098-4d71-9ddb-2d168f3ce293","ios":"levelo://app?vid=93b551cc-d098-4d71-9ddb-2d168f3ce293"},"vehicle_type_id":"4","last_reported":1746364660,"current_range_meters":21600,"station_id":"ce4bgqh2rcd13ifvqc4g","pricing_plan_id":"cebpf4jnsgd1na2vs0mg"},{"bike_id":"c327407c-5e47-44b4-ae88-e0290ce31b0c","system_id":"levelo_inurba_marseille","lat":43.322997,"lon":5.367828,"is_reserved":false,"is_disabled":false,"rental_uris":{"android":"levelo://app?vid=c327407c-5e47-44b4-ae88-e0290ce31b0c","ios":"levelo://app?vid=c327407c-5e47-44b4-ae88-e0290ce31b0c"},"vehicle_type_id":"4","last_reported":1746364660,"current_range_meters":21600,"station_id":"ce4bhs12rcd13ifvqhvg","pricing_plan_id":"cebpf4jnsgd1na2vs0mg"},{"bike_id":"9eb8e190-00bc-4074-ab0e-5e4b5cae6632","system_id":"levelo_inurba_marseille","lat":43.290558,"lon":5.359132,"is_reserved":false,"is_disabled":false,"rental_uris":{"android":"levelo://app?vid=9eb8e190-00bc-4074-ab0e-5e4b5cae6632","ios":"levelo://app?vid=9eb8e190-00bc-4074-ab0e-5e4b5cae6632"},"vehicle_type_id":"4","last_reported":1746364660,"current_range_meters":21600,"station_id":"ce4bha92rcd13ifvqeg0","pricing_plan_id":"cebpf4jnsgd1na2vs0mg"},{"bike_id":"7c3b0624-74cb-4dcb-aac3-e1baa16d10d2","system_id":"levelo_inurba_marseille","lat":43.28939,"lon":5.36634,"is_reserved":false,"is_disabled":false,"rental_uris":{"android":"levelo://app?vid=7c3b0624-74cb-4dcb-aac3-e1baa16d10d2","ios":"levelo://app?vid=7c3b0624-74cb-4dcb-aac3-e1baa16d10d2"},"vehicle_type_id":"4","last_reported":1746364660,"current_range_meters":22000,"station_id":"ce4bhap2rcd13ifvqek0","pricing_plan_id":"cebpf4jnsgd1na2vs0mg"},{"bike_id":"46f50a66-f9c5-4135-bb33-50651d2d2548","system_id":"levelo_inurba_marseille","lat":43.28273,"lon":5.35069,"is_reserved":false,"is_disabled":false,"rental_uris":{"android":"levelo://app?vid=46f50a66-f9c5-4135-bb33-50651d2d2548","ios":"levelo://app?vid=46f50a66-f9c5-4135-bb33-50651d2d2548"},"vehicle_type_id":"4","last_reported":1746364660,"current_range_meters":22000,"station_id":"ce4bhbp2rcd13ifvqerg","pricing_plan_id":"cebpf4jnsgd1na2vs0mg"},{"bike_id":"b4d2fdc2-5140-4e14-b8a1-27b66fb70047","system_id":"levelo_inurba_marseille","lat":43.23064,"lon":5.35516,"is_reserved":false,"is_disabled":false,"rental_uris":{"android":"levelo://app?vid=b4d2fdc2-5140-4e14-b8a1-27b66fb70047","ios":"levelo://app?vid=b4d2fdc2-5140-4e14-b8a1-27b66fb70047"},"vehicle_type_id":"4","last_reported":1746364660,"current_range_meters":22000,"station_id":"cpo3342slgdg3j2ifvpg","pricing_plan_id":"cebpf4jnsgd1na2vs0mg"},{"bike_id":"df017969-5ed4-4173-b38d-7260d3e4cc8e","system_id":"levelo_inurba_marseille","lat":43.26231,"lon":5.40438,"is_reserved":false,"is_disabled":false,"rental_uris":{"android":"levelo://app?vid=df017969-5ed4-4173-b38d-7260d3e4cc8e","ios":"levelo://app?vid=df017969-5ed4-4173-b38d-7260d3e4cc8e"},"vehicle_type_id":"4","last_reported":1746364660,"current_range_meters":22000,"station_id":"ce4bhmh2rcd13ifvqgmg","pricing_plan_id":"cebpf4jnsgd1na2vs0mg"},{"bike_id":"4cc8406a-47e3-45a9-8555-9f7679595686","system_id":"levelo_inurba_marseille","lat":43.23147,"lon":5.43713,"is_reserved":false,"is_disabled":false,"rental_uris":{"android":"levelo://app?vid=4cc8406a-47e3-45a9-8555-9f7679595686","ios":"levelo://app?vid=4cc8406a-47e3-45a9-8555-9f7679595686"},"vehicle_type_id":"4","last_reported":1746364660,"current_range_meters":21600,"station_id":"ce4bhmp2rcd13ifvqgog","pricing_plan_id":"cebpf4jnsgd1na2vs0mg"},{"bike_id":"cb18f575-9c1e-4e54-ba38-fab988ce4b38","system_id":"levelo_inurba_marseille","lat":43.29274,"lon":5.40891,"is_reserved":false,"is_disabled":false,"rental_uris":{"android":"levelo://app?vid=cb18f575-9c1e-4e54-ba38-fab988ce4b38","ios":"levelo://app?vid=cb18f575-9c1e-4e54-ba38-fab988ce4b38"},"vehicle_type_id":"4","last_reported":1746364660,"current_range_meters":22400,"station_id":"ce4bh192rcd13ifvqdc0","pricing_plan_id":"cebpf4jnsgd1na2vs0mg"},{"bike_id":"035f01f4-dafb-4c98-a0e6-083a221c784e","system_id":"levelo_inurba_marseille","lat":43.29032,"lon":5.37557,"is_reserved":false,"is_disabled":false,"rental_uris":{"android":"levelo://app?vid=035f01f4-dafb-4c98-a0e6-083a221c784e","ios":"levelo://app?vid=035f01f4-dafb-4c98-a0e6-083a221c784e"},"vehicle_type_id":"4","last_reported":1746364660,"current_range_meters":22400,"station_id":"ce4bh692rcd13ifvqe90","pricing_plan_id":"cebpf4jnsgd1na2vs0mg"},{"bike_id":"55e2365c-b270-4dfe-a830-699a54b79cdb","system_id":"levelo_inurba_marseille","lat":43.255782,"lon":5.421015,"is_reserved":false,"is_disabled":false,"rental_uris":{"android":"levelo://app?vid=55e2365c-b270-4dfe-a830-699a54b79cdb","ios":"levelo://app?vid=55e2365c-b270-4dfe-a830-699a54b79cdb"},"vehicle_type_id":"4","last_reported":1746364660,"current_range_meters":22400,"station_id":"","pricing_plan_id":"cebpf4jnsgd1na2vs0mg"},{"bike_id":"de3f76b1-58ea-42d0-99f1-347daf91f0b4","system_id":"levelo_inurba_marseille","lat":43.21192,"lon":5.35068,"is_reserved":false,"is_disabled":false,"rental_uris":{"android":"levelo://app?vid=de3f76b1-58ea-42d0-99f1-347daf91f0b4","ios":"levelo://app?vid=de3f76b1-58ea-42d0-99f1-347daf91f0b4"},"vehicle_type_id":"4","last_reported":1746364660,"current_range_meters":22400,"station_id":"st_cvj6sg6p6f1abm77japg","pricing_plan_id":"cebpf4jnsgd1na2vs0mg"},{"bike_id":"3f9fddb3-4d57-4ad0-8fd2-61341dad0fd3","system_id":"levelo_inurba_marseille","lat":43.296029,"lon":5.380931,"is_reserved":false,"is_disabled":true,"rental_uris":{"android":"levelo://app?vid=3f9fddb3-4d57-4ad0-8fd2-61341dad0fd3","ios":"levelo://app?vid=3f9fddb3-4d57-4ad0-8fd2-61341dad0fd3"},"vehicle_type_id":"4","last_reported":1746364660,"current_range_meters":22400,"station_id":"ce4bgl12rcd13ifvqbo0","pricing_plan_id":"cebpf4jnsgd1na2vs0mg"},{"bike_id":"937f2118-40e1-42a0-8db6-dee0acc20f60","system_id":"levelo_inurba_marseille","lat":43.27089,"lon":5.42278,"is_reserved":false,"is_disabled":false,"rental_uris":{"android":"levelo://app?vid=937f2118-40e1-42a0-8db6-dee0acc20f60","ios":"levelo://app?vid=937f2118-40e1-42a0-8db6-dee0acc20f60"},"vehicle_type_id":"4","last_reported":1746364660,"current_range_meters":22800,"station_id":"ce4bhk92rcd13ifvqgb0","pricing_plan_id":"cebpf4jnsgd1na2vs0mg"},{"bike_id":"e11ad706-38bf-44e7-a3bc-1cd9adcc3e09","system_id":"levelo_inurba_marseille","lat":43.27316,"lon":5.39092,"is_reserved":false,"is_disabled":false,"rental_uris":{"android":"levelo://app?vid=e11ad706-38bf-44e7-a3bc-1cd9adcc3e09","ios":"levelo://app?vid=e11ad706-38bf-44e7-a3bc-1cd9adcc3e09"},"vehicle_type_id":"4","last_reported":1746364660,"current_range_meters":22800,"station_id":"ce4bhgp2rcd13ifvqfe0","pricing_plan_id":"cebpf4jnsgd1na2vs0mg"},{"bike_id":"e02dd004-549e-4245-8590-bc3a3bd0ad0b","system_id":"levelo_inurba_marseille","lat":43.32,"lon":5.3814,"is_reserved":false,"is_disabled":false,"rental_uris":{"android":"levelo://app?vid=e02dd004-549e-4245-8590-bc3a3bd0ad0b","ios":"levelo://app?vid=e02dd004-549e-4245-8590-bc3a3bd0ad0b"},"vehicle_type_id":"4","last_reported":1746364660,"current_range_meters":22800,"station_id":"ce4bhr12rcd13ifvqhpg","pricing_plan_id":"cebpf4jnsgd1na2vs0mg"},{"bike_id":"d1ec814b-7128-4cb1-a05f-d59b2ec94248","system_id":"levelo_inurba_marseille","lat":43.22673,"lon":5.3481,"is_reserved":false,"is_disabled":false,"rental_uris":{"android":"levelo://app?vid=d1ec814b-7128-4cb1-a05f-d59b2ec94248","ios":"levelo://app?vid=d1ec814b-7128-4cb1-a05f-d59b2ec94248"},"vehicle_type_id":"4","last_reported":1746364660,"current_range_meters":22800,"station_id":"","pricing_plan_id":"cebpf4jnsgd1na2vs0mg"},{"bike_id":"99caa5c9-73c6-4674-850e-ae7cd663deab","system_id":"levelo_inurba_marseille","lat":43.21194,"lon":5.35062,"is_reserved":false,"is_disabled":false,"rental_uris":{"android":"levelo://app?vid=99caa5c9-73c6-4674-850e-ae7cd663deab","ios":"levelo://app?vid=99caa5c9-73c6-4674-850e-ae7cd663deab"},"vehicle_type_id":"4","last_reported":1746364660,"current_range_meters":22800,"station_id":"st_cvj6sg6p6f1abm77japg","pricing_plan_id":"cebpf4jnsgd1na2vs0mg"},{"bike_id":"ea7f957d-f727-48c3-aced-c4d99ce21025","system_id":"levelo_inurba_marseille","lat":43.2926,"lon":5.38427,"is_reserved":false,"is_disabled":false,"rental_uris":{"android":"levelo://app?vid=ea7f957d-f727-48c3-aced-c4d99ce21025","ios":"levelo://app?vid=ea7f957d-f727-48c3-aced-c4d99ce21025"},"vehicle_type_id":"4","last_reported":1746364660,"current_range_meters":22800,"station_id":"ce4bh692rcd13ifvqea0","pricing_plan_id":"cebpf4jnsgd1na2vs0mg"},{"bike_id":"85a49e90-bcb9-4a08-bbce-c6aed0c88a4b","system_id":"levelo_inurba_marseille","lat":43.30536,"lon":5.36696,"is_reserved":false,"is_disabled":false,"rental_uris":{"android":"levelo://app?vid=85a49e90-bcb9-4a08-bbce-c6aed0c88a4b","ios":"levelo://app?vid=85a49e90-bcb9-4a08-bbce-c6aed0c88a4b"},"vehicle_type_id":"4","last_reported":1746364660,"current_range_meters":22800,"station_id":"ce4bgrp2rcd13ifvqc9g","pricing_plan_id":"cebpf4jnsgd1na2vs0mg"},{"bike_id":"bac744ef-7ecd-456b-ac22-4b77caa0fc9d","system_id":"levelo_inurba_marseille","lat":43.23155,"lon":5.43705,"is_reserved":false,"is_disabled":false,"rental_uris":{"android":"levelo://app?vid=bac744ef-7ecd-456b-ac22-4b77caa0fc9d","ios":"levelo://app?vid=bac744ef-7ecd-456b-ac22-4b77caa0fc9d"},"vehicle_type_id":"4","last_reported":1746364660,"current_range_meters":23200,"station_id":"ce4bhmp2rcd13ifvqgog","pricing_plan_id":"cebpf4jnsgd1na2vs0mg"},{"bike_id":"6b48b14d-70c3-4bc5-9f5f-ff66b5897c0c","system_id":"levelo_inurba_marseille","lat":43.27366,"lon":5.362491,"is_reserved":false,"is_disabled":false,"rental_uris":{"android":"levelo://app?vid=6b48b14d-70c3-4bc5-9f5f-ff66b5897c0c","ios":"levelo://app?vid=6b48b14d-70c3-4bc5-9f5f-ff66b5897c0c"},"vehicle_type_id":"4","last_reported":1746364660,"current_range_meters":23200,"station_id":"ce4bhbh2rcd13ifvqeo0","pricing_plan_id":"cebpf4jnsgd1na2vs0mg"},{"bike_id":"9ac9a44f-6abe-4743-a6fe-974f0f86c6c4","system_id":"levelo_inurba_marseille","lat":43.23964,"lon":5.36619,"is_reserved":false,"is_disabled":true,"rental_uris":{"android":"levelo://app?vid=9ac9a44f-6abe-4743-a6fe-974f0f86c6c4","ios":"levelo://app?vid=9ac9a44f-6abe-4743-a6fe-974f0f86c6c4"},"vehicle_type_id":"4","last_reported":1746364660,"current_range_meters":23200,"station_id":"ce4bhi12rcd13ifvqfp0","pricing_plan_id":"cebpf4jnsgd1na2vs0mg"},{"bike_id":"203d91f5-6c36-4523-963d-b10eff730e29","system_id":"levelo_inurba_marseille","lat":43.30726,"lon":5.42438,"is_reserved":false,"is_disabled":false,"rental_uris":{"android":"levelo://app?vid=203d91f5-6c36-4523-963d-b10eff730e29","ios":"levelo://app?vid=203d91f5-6c36-4523-963d-b10eff730e29"},"vehicle_type_id":"4","last_reported":1746364660,"current_range_meters":23200,"station_id":"st_cvj6ca6bvosntc0bfgr0","pricing_plan_id":"cebpf4jnsgd1na2vs0mg"},{"bike_id":"d0bcf1fb-cbba-4142-876b-db3b580f0e4d","system_id":"levelo_inurba_marseille","lat":43.29513,"lon":5.42302,"is_reserved":false,"is_disabled":false,"rental_uris":{"android":"levelo://app?vid=d0bcf1fb-cbba-4142-876b-db3b580f0e4d","ios":"levelo://app?vid=d0bcf1fb-cbba-4142-876b-db3b580f0e4d"},"vehicle_type_id":"4","last_reported":1746364660,"current_range_meters":23200,"station_id":"ce4bhph2rcd13ifvqhdg","pricing_plan_id":"cebpf4jnsgd1na2vs0mg"},