{"last_updated":1751008285,"ttl":60,"version":"2.2","data":{"bikes":[{"bike_id":"3da29fb8-fc97-44c6-b9ac-31dd456b2fd4","system_id":"levelo_inurba_marseille","lat":43.33771,"lon":5.37424,"is_reserved":false,"is_disabled":true,"rental_uris":{"android":"levelo://app?vid=3da29fb8-fc97-44c6-b9ac-31dd456b2fd4","ios":"levelo://app?vid=3da29fb8-fc97-44c6-b9ac-31dd456b2fd4"},"vehicle_type_id":"4","last_reported":1751008285,"current_range_meters":0,"station_id":"","pricing_plan_id":"cebpf4jnsgd1na2vs0mg"},{"bike_id":"01861ad8-a8d7-4be6-816e-651927c87584","system_id":"levelo_inurba_marseille","lat":43.33751,"lon":5.37456,"is_reserved":false,"is_disabled":true,"rental_uris":{"android":"levelo://app?vid=01861ad8-a8d7-4be6-816e-651927c87584","ios":"levelo://app?vid=01861ad8-a8d7-4be6-816e-651927c87584"},"vehicle_type_id":"4","last_reported":1751008285,"current_range_meters":0,"station_id":"","pricing_plan_id":"cebpf4jnsgd1na2vs0mg"},{"bike_id":"7d5d4f17-3bf3-4858-860d-f62ae939381f","system_id":"levelo_inurba_marseille","lat":43.309053,"lon":5.405383,"is_reserved":false,"is_disabled":true,"rental_uris":{"android":"levelo://app?vid=7d5d4f17-3bf3-4858-860d-f62ae939381f","ios":"levelo://app?vid=7d5d4f17-3bf3-4858-860d-f62ae939381f"},"vehicle_type_id":"4","last_reported":1751008285,"current_range_meters":0,"station_id":"","pricing_plan_id":"cebpf4jnsgd1na2vs0mg"},{"bike_id":"a147e67d-e0b1-425e-bbda-ae9524df353e","system_id":"levelo_inurba_marseille","lat":43.337541,"lon":5.374577,"is_reserved":false,"is_disabled":true,"rental_uris":{"android":"levelo://app?vid=a147e67d-e0b1-425e-bbda-ae9524df353e","ios":"levelo://app?vid=a147e67d-e0b1-425e-bbda-ae9524df353e"},"vehicle_type_id":"4","last_reported":1751008285,"current_range_meters":0,"station_id":"","pricing_plan_id":"cebpf4jnsgd1na2vs0mg"},{"bike_id":"d7ab0e84-3bbe-4115-b0ab-ab05a5f13dfd","system_id":"levelo_inurba_marseille","lat":43.33034,"lon":5.41035,"is_reserved":false,"is_disabled":true,"rental_uris":{"android":"levelo://app?vid=d7ab0e84-3bbe-4115-b0ab-ab05a5f13dfd","ios":"levelo://app?vid=d7ab0e84-3bbe-4115-b0ab-ab05a5f13dfd"},"vehicle_type_id":"4","last_reported":1751008285,"current_range_meters":0,"station_id":"","pricing_plan_id":"cebpf4jnsgd1na2vs0mg"},{"bike_id":"2c5ab5ef-6e3c-47bf-9405-4e96ff645858","system_id":"levelo_inurba_marseille","lat":43.340304,"lon":5.429032,"is_reserved":false,"is_disabled":true,"rental_uris":{"android":"levelo://app?vid=2c5ab5ef-6e3c-47bf-9405-4e96ff645858","ios":"levelo://app?vid=2c5ab5ef-6e3c-47bf-9405-4e96ff645858"},"vehicle_type_id":"4","last_reported":1751008285,"current_range_meters":0,"station_id":"","pricing_plan_id":"cebpf4jnsgd1na2vs0mg"},{"bike_id":"4d064f95-6dcb-4234-9e98-7c70fbb74351","system_id":"levelo_inurba_marseille","lat":43.337444,"lon":5.374475,"is_reserved":false,"is_disabled":true,"rental_uris":{"android":"levelo://app?vid=4d064f95-6dcb-4234-9e98-7c70fbb74351","ios":"levelo://app?vid=4d064f95-6dcb-4234-9e98-7c70fbb74351"},"vehicle_type_id":"4","last_reported":1751008285,"current_range_meters":0,"station_id":"","pricing_plan_id":"cebpf4jnsgd1na2vs0mg"},{"bike_id":"d6609b4f-333b-43c1-9ebe-8726f5e76e88","system_id":"levelo_inurba_marseille","lat":43.337444,"lon":5.374475,"is_reserved":false,"is_disabled":true,"rental_uris":{"android":"levelo://app?vid=d6609b4f-333b-43c1-9ebe-8726f5e76e88","ios":"levelo://app?vid=d6609b4f-333b-43c1-9ebe-8726f5e76e88"},"vehicle_type_id":"4","last_reported":1751008285,"current_range_meters":0,"station_id":"","pricing_plan_id":"cebpf4jnsgd1na2vs0mg"},{"bike_id":"14903f35-1eaf-4a5d-86c3-23007b361999","system_id":"levelo_inurba_marseille","lat":43.27064,"lon":5.42274,"is_reserved":false,"is_disabled":true,"rental_uris":{"android":"levelo://app?vid=14903f35-1eaf-4a5d-86c3-23007b361999","ios":"levelo://app?vid=14903f35-1eaf-4a5d-86c3-23007b361999"},"vehicle_type_id":"4","last_reported":1751008285,"current_range_meters":0,"station_id":"","pricing_plan_id":"cebpf4jnsgd1na2vs0mg"},{"bike_id":"8af7d8f5-8c0a-4790-b1d9-8347fb13a606","system_id":"levelo_inurba_marseille","lat":43.31426,"lon":5.40618,"is_reserved":false,"is_disabled":true,"rental_uris":{"android":"levelo://app?vid=8af7d8f5-8c0a-4790-b1d9-8347fb13a606","ios":"levelo://app?vid=8af7d8f5-8c0a-4790-b1d9-8347fb13a606"},"vehicle_type_id":"4","last_reported":1751008285,"current_range_meters":0,"station_id":"","pricing_plan_id":"cebpf4jnsgd1na2vs0mg"},{"bike_id":"bf027107-0fe5-47a2-8fef-6473f83bb647","system_id":"levelo_inurba_marseille","lat":43.32933,"lon":5.36445,"is_reserved":false,"is_disabled":true,"rental_uris":{"android":"levelo://app?vid=bf027107-0fe5-47a2-8fef-6473f83bb647","ios":"levelo://app?vid=bf027107-0fe5-47a2-8fef-6473f83bb647"},"vehicle_type_id":"4","last_reported":1751008285,"current_range_meters":0,"station_id":"","pricing_plan_id":"cebpf4jnsgd1na2vs0mg"},{"bike_id":"b17b6606-336a-4606-9b65-af139c49de26","system_id":"levelo_inurba_marseille","lat":43.25674,"lon":5.42713,"is_reserved":false,"is_disabled":true,"rental_uris":{"android":"levelo://app?vid=b17b6606-336a-4606-9b65-af139c49de26","ios":"levelo://app?vid=b17b6606-336a-4606-9b65-af139c49de26"},"vehicle_type_id":"4","last_reported":1751008285,"current_range_meters":0,"station_id":"","pricing_plan_id":"cebpf4jnsgd1na2vs0mg"},{"bike_id":"9d3724b1-0dc8-4689-9d6a-55005a9503cb","system_id":"levelo_inurba_marseille","lat":43.286154,"lon":5.428194,"is_reserved":false,"is_disabled":true,"rental_uris":{"android":"levelo://app?vid=9d3724b1-0dc8-4689-9d6a-55005a9503cb","ios":"levelo://app?vid=9d3724b1-0dc8-4689-9d6a-55005a9503cb"},"vehicle_type_id":"4","last_reported":1751008285,"current_range_meters":0,"station_id":"","pricing_plan_id":"cebpf4jnsgd1na2vs0mg"},{"bike_id":"ce774a04-a4be-4eca-a30f-78eb921955bd","system_id":"levelo_inurba_marseille","lat":43.33879,"lon":5.35533,"is_reserved":false,"is_disabled":true,"rental_uris":{"android":"levelo://app?vid=ce774a04-a4be-4eca-a30f-78eb921955bd","ios":"levelo://app?vid=ce774a04-a4be-4eca-a30f-78eb921955bd"},"vehicle_type_id":"4","last_reported":1751008285,"current_range_meters":0,"station_id":"","pricing_plan_id":"cebpf4jnsgd1na2vs0mg"},{"bike_id":"242b9084-2bbf-4482-b994-16c82e2a4195","system_id":"levelo_inurba_marseille","lat":43.32651,"lon":5.42173,"is_reserved":false,"is_disabled":true,"rental_uris":{"android":"levelo://app?vid=242b9084-2bbf-4482-b994-16c82e2a4195","ios":"levelo://app?vid=242b9084-2bbf-4482-b994-16c82e2a4195"},"vehicle_type_id":"4","last_reported":1751008285,"current_range_meters":0,"station_id":"","pricing_plan_id":"cebpf4jnsgd1na2vs0mg"},{"bike_id":"479aa0bd-0750-43c9-a904-e911c8e7fc23","system_id":"levelo_inurba_marseille","lat":43.311462,"lon":5.382868,"is_reserved":false,"is_disabled":true,"rental_uris":{"android":"levelo://app?vid=479aa0bd-0750-43c9-a904-e911c8e7fc23","ios":"levelo://app?vid=479aa0bd-0750-43c9-a904-e911c8e7fc23"},"vehicle_type_id":"4","last_reported":1751008285,"current_range_meters":0,"station_id":"","pricing_plan_id":"cebpf4jnsgd1na2vs0mg"},{"bike_id":"a32620ef-af8c-4a52-8cd8-c52eda23c7e2","system_id":"levelo_inurba_marseille","lat":43.30534,"lon":5.38425,"is_reserved":false,"is_disabled":true,"rental_uris":{"android":"levelo://app?vid=a32620ef-af8c-4a52-8cd8-c52eda23c7e2","ios":"levelo://app?vid=a32620ef-af8c-4a52-8cd8-c52eda23c7e2"},"vehicle_type_id":"4","last_reported":1751008285,"current_range_meters":0,"station_id":"ce4bgg92rcd13ifvqb30","pricing_plan_id":"cebpf4jnsgd1na2vs0mg"},{"bike_id":"4dc67f61-3f5d-4d7d-931d-b02a327ccd43","system_id":"levelo_inurba_marseille","lat":43.31227,"lon":5.36882,"is_reserved":false,"is_disabled":true,"rental_uris":{"android":"levelo://app?vid=4dc67f61-3f5d-4d7d-931d-b02a327ccd43","ios":"levelo://app?vid=4dc67f61-3f5d-4d7d-931d-b02a327ccd43"},"vehicle_type_id":"4","last_reported":1751008285,"current_range_meters":0,"station_id":"ce4bgl92rcd13ifvqbq0","pricing_plan_id":"cebpf4jnsgd1na2vs0mg"},{"bike_id":"c7eed5aa-3763-4943-a069-c935e143ab01","system_id":"levelo_inurba_marseille","lat":43.29713,"lon":5.3661,"is_reserved":false,"is_disabled":true,"rental_uris":{"android":"levelo://app?vid=c7eed5aa-3763-4943-a069-c935e143ab01","ios":"levelo://app?vid=c7eed5aa-3763-4943-a069-c935e143ab01"},"vehicle_type_id":"4","last_reported":1751008285,"current_range_meters":0,"station_id":"ce4bgn12rcd13ifvqbt0","pricing_plan_id":"cebpf4jnsgd1na2vs0mg"},{"bike_id":"6f71c9d3-4380-4ac0-81d7-201924ec113c","system_id":"levelo_inurba_marseille","lat":43.31124,"lon":5.37807,"is_reserved":false,"is_disabled":true,"rental_uris":{"android":"levelo://app?vid=6f71c9d3-4380-4ac0-81d7-201924ec113c","ios":"levelo://app?vid=6f71c9d3-4380-4ac0-81d7-201924ec113c"},"vehicle_type_id":"4","last_reported":1751008285,"current_range_meters":0,"station_id":"ce4bgt92rcd13ifvqcg0","pricing_plan_id":"cebpf4jnsgd1na2vs0mg"},{"bike_id":"130fd3b1-7e84-47c4-97a9-9edd92f6cd4b","system_id":"levelo_inurba_marseille","lat":43.30468,"lon":5.379,"is_reserved":false,"is_disabled":true,"rental_uris":{"android":"levelo://app?vid=130fd3b1-7e84-47c4-97a9-9edd92f6cd4b","ios":"levelo://app?vid=130fd3b1-7e84-47c4-97a9-9edd92f6cd4b"},"vehicle_type_id":"4","last_reported":1751008285,"current_range_meters":0,"station_id":"ce4bgup2rcd13ifvqcn0","pricing_plan_id":"cebpf4jnsgd1na2vs0mg"},{"bike_id":"4f04c610-95f0-4b08-a8d6-e168005e71f9","system_id":"levelo_inurba_marseille","lat":43.31694,"lon":5.40465,"is_reserved":false,"is_disabled":true,"rental_uris":{"android":"levelo://app?vid=4f04c610-95f0-4b08-a8d6-e168005e71f9","ios":"levelo://app?vid=4f04c610-95f0-4b08-a8d6-e168005e71f9"},"vehicle_type_id":"4","last_reported":1751008285,"current_range_meters":0,"station_id":"ce4bh012rcd13ifvqd00","pricing_plan_id":"cebpf4jnsgd1na2vs0mg"},{"bike_id":"d7bbf4b4-bc0a-48b7-9375-49724515f96d","system_id":"levelo_inurba_marseille","lat":43.31282,"lon":5.4017,"is_reserved":false,"is_disabled":true,"rental_uris":{"android":"levelo://app?vid=d7bbf4b4-bc0a-48b7-9375-49724515f96d","ios":"levelo://app?vid=d7bbf4b4-bc0a-48b7-9375-49724515f96d"},"vehicle_type_id":"4","last_reported":1751008285,"current_range_meters":0,"station_id":"ce4bh092rcd13ifvqd30","pricing_plan_id":"cebpf4jnsgd1na2vs0mg"},{"bike_id":"474acca3-0618-4c88-9a84-6a1c10a000cb","system_id":"levelo_inurba_marseille","lat":43.29641,"lon":5.40599,"is_reserved":false,"is_disabled":true,"rental_uris":{"android":"levelo://app?vid=474acca3-0618-4c88-9a84-6a1c10a000cb","ios":"levelo://app?vid=474acca3-0618-4c88-9a84-6a1c10a000cb"},"vehicle_type_id":"4","last_reported":1751008285,"current_range_meters":0,"station_id":"ce4bh0h2rcd13ifvqd60","pricing_plan_id":"cebpf4jnsgd1na2vs0mg"},{"bike_id":"671440f5-f5c7-46fd-96d6-038235cedd7d","system_id":"levelo_inurba_marseille","lat":43.3066,"lon":5.4009,"is_reserved":false,"is_disabled":true,"rental_uris":{"android":"levelo://app?vid=671440f5-f5c7-46fd-96d6-038235cedd7d","ios":"levelo://app?vid=671440f5-f5c7-46fd-96d6-038235cedd7d"},"vehicle_type_id":"4","last_reported":1751008285,"current_range_meters":0,"station_id":"ce4bh112rcd13ifvqda0","pricing_plan_id":"cebpf4jnsgd1na2vs0mg"},{"bike_id":"b3a9b08b-b1a0-438c-b5e7-d3023e781cfa","system_id":"levelo_inurba_marseille","lat":43.290091,"lon":5.355984,"is_reserved":false,"is_disabled":true,"rental_uris":{"android":"levelo://app?vid=b3a9b08b-b1a0-438c-b5e7-d3023e781cfa","ios":"levelo://app?vid=b3a9b08b-b1a0-438c-b5e7-d3023e781cfa"},"vehicle_type_id":"4","last_reported":1751008285,"current_range_meters":0,"station_id":"ce4bhb92rcd13ifvqen0","pricing_plan_id":"cebpf4jnsgd1na2vs0mg"},{"bike_id":"e0546e22-71ac-4733-968b-c1722b4f5277","system_id":"levelo_inurba_marseille","lat":43.29276,"lon":5.36839,"is_reserved":false,"is_disabled":true,"rental_uris":{"android":"levelo://app?vid=e0546e22-71ac-4733-968b-c1722b4f5277","ios":"levelo://app?vid=e0546e22-71ac-4733-968b-c1722b4f5277"},"vehicle_type_id":"4","last_reported":1751008285,"current_range_meters":0,"station_id":"ce4bhbp2rcd13ifvqesg","pricing_plan_id":"cebpf4jnsgd1na2vs0mg"},{"bike_id":"2d84c625-d1cd-47b6-9be9-d67b3dc32e88","system_id":"levelo_inurba_marseille","lat":43.26588,"lon":5.37253,"is_reserved":false,"is_disabled":true,"rental_uris":{"android":"levelo://app?vid=2d84c625-d1cd-47b6-9be9-d67b3dc32e88","ios":"levelo://app?vid=2d84c625-d1cd-47b6-9be9-d67b3dc32e88"},"vehicle_type_id":"4","last_reported":1751008285,"current_range_meters":0,"station_id":"ce4bhg12rcd13ifvqf70","pricing_plan_id":"cebpf4jnsgd1na2vs0mg"},{"bike_id":"c1ba4986-182f-404a-acfc-c3c538a08d7d","system_id":"levelo_inurba_marseille","lat":43.243933,"lon":5.37049,"is_reserved":false,"is_disabled":true,"rental_uris":{"android":"levelo://app?vid=c1ba4986-182f-404a-acfc-c3c538a08d7d","ios":"levelo://app?vid=c1ba4986-182f-404a-acfc-c3c538a08d7d"},"vehicle_type_id":"4","last_reported":1751008285,"current_range_meters":0,"station_id":"ce4bhhh2rcd13ifvqfk0","pricing_plan_id":"cebpf4jnsgd1na2vs0mg"},{"bike_id":"e80f1b6d-c0ed-48b5-bd1d-89afc9d0f489","system_id":"levelo_inurba_marseille","lat":43.270596,"lon":5.402583,"is_reserved":false,"is_disabled":true,"rental_uris":{"android":"levelo://app?vid=e80f1b6d-c0ed-48b5-bd1d-89afc9d0f489","ios":"levelo://app?vid=e80f1b6d-c0ed-48b5-bd1d-89afc9d0f489"},"vehicle_type_id":"4","last_reported":1751008285,"current_range_meters":0,"station_id":"ce4bhk92rcd13ifvqgc0","pricing_plan_id":"cebpf4jnsgd1na2vs0mg"},{"bike_id":"b5b34be9-07b5-4db7-963c-2c7146c1cfd1","system_id":"levelo_inurba_marseille","lat":43.27199,"lon":5.41004,"is_reserved":false,"is_disabled":true,"rental_uris":{"android":"levelo://app?vid=b5b34be9-07b5-4db7-963c-2c7146c1cfd1","ios":"levelo://app?vid=b5b34be9-07b5-4db7-963c-2c7146c1cfd1"},"vehicle_type_id":"4","last_reported":1751008285,"current_range_meters":0,"station_id":"ce4bhl12rcd13ifvqgf0","pricing_plan_id":"cebpf4jnsgd1na2vs0mg"},{"bike_id":"9362c064-ed9a-4592-83d1-ae4809359f57","system_id":"levelo_inurba_marseille","lat":43.25863,"lon":5.39903,"is_reserved":false,"is_disabled":true,"rental_uris":{"android":"levelo://app?vid=9362c064-ed9a-4592-83d1-ae4809359f57","ios":"levelo://app?vid=9362c064-ed9a-4592-83d1-ae4809359f57"},"vehicle_type_id":"4","last_reported":1751008285,"current_range_meters":0,"station_id":"ce4bhl92rcd13ifvqghg","pricing_plan_id":"cebpf4jnsgd1na2vs0mg"},{"bike_id":"292dbc76-05b9-4f00-a7d0-72de35e956aa","system_id":"levelo_inurba_marseille","lat":43.25941,"lon":5.40903,"is_reserved":false,"is_disabled":true,"rental_uris":{"android":"levelo://app?vid=292dbc76-05b9-4f00-a7d0-72de35e956aa","ios":"levelo://app?vid=292dbc76-05b9-4f00-a7d0-72de35e956aa"},"vehicle_type_id":"4","last_reported":1751008285,"current_range_meters":0,"station_id":"ce4bhm92rcd13ifvqglg","pricing_plan_id":"cebpf4jnsgd1na2vs0mg"},{"bike_id":"5ffa5afd-4e72-47a2-b2f1-bd0867aa67d8","system_id":"levelo_inurba_marseille","lat":43.24177,"lon":5.39714,"is_reserved":false,"is_disabled":true,"rental_uris":{"android":"levelo://app?vid=5ffa5afd-4e72-47a2-b2f1-bd0867aa67d8","ios":"levelo://app?vid=5ffa5afd-4e72-47a2-b2f1-bd0867aa67d8"},"vehicle_type_id":"4","last_reported":1751008285,"current_range_meters":0,"station_id":"ce4bhn12rcd13ifvqgpg","pricing_plan_id":"cebpf4jnsgd1na2vs0mg"},{"bike_id":"9b7f8f83-5ec3-4199-b6bc-42f9887f69a3","system_id":"levelo_inurba_marseille","lat":43.22529,"lon":5.34802,"is_reserved":false,"is_disabled":true,"rental_uris":{"android":"levelo://app?vid=9b7f8f83-5ec3-4199-b6bc-42f9887f69a3","ios":"levelo://app?vid=9b7f8f83-5ec3-4199-b6bc-42f9887f69a3"},"vehicle_type_id":"4","last_reported":1751008285,"current_range_meters":0,"station_id":"st_cvj5dfep6f1abm77gieg","pricing_plan_id":"cebpf4jnsgd1na2vs0mg"},{"bike_id":"5a3dab73-c126-4de6-a97f-f9ca71f0b35f","system_id":"levelo_inurba_marseille","lat":43.217466,"lon":5.346024,"is_reserved":false,"is_disabled":true,"rental_uris":{"android":"levelo://app?vid=5a3dab73-c126-4de6-a97f-f9ca71f0b35f","ios":"levelo://app?vid=5a3dab73-c126-4de6-a97f-f9ca71f0b35f"},"vehicle_type_id":"4","last_reported":1751008285,"current_range_meters":0,"station_id":"st_cvj6r9ubvosntc0bgbag","pricing_plan_id":"cebpf4jnsgd1na2vs0mg"},{"bike_id":"9fadf070-1086-4b7b-a999-d69cb737ac07","system_id":"levelo_inurba_marseille","lat":43.21756,"lon":5.34586,"is_reserved":false,"is_disabled":true,"rental_uris":{"android":"levelo://app?vid=9fadf070-1086-4b7b-a999-d69cb737ac07","ios":"levelo://app?vid=9fadf070-1086-4b7b-a999-d69cb737ac07"},"vehicle_type_id":"4","last_reported":1751008285,"current_range_meters":0,"station_id":"st_cvj6r9ubvosntc0bgbag","pricing_plan_id":"cebpf4jnsgd1na2vs0mg"},{"bike_id":"cdb687b2-0322-480a-b17b-d5f5160446f9","system_id":"levelo_inurba_marseille","lat":43.21752,"lon":5.34612,"is_reserved":false,"is_disabled":true,"rental_uris":{"android":"levelo://app?vid=cdb687b2-0322-480a-b17b-d5f5160446f9","ios":"levelo://app?vid=cdb687b2-0322-480a-b17b-d5f5160446f9"},"vehicle_type_id":"4","last_reported":1751008285,"current_range_meters":0,"station_id":"st_cvj6r9ubvosntc0bgbag","pricing_plan_id":"cebpf4jnsgd1na2vs0mg"},{"bike_id":"2ae278c9-8939-43b6-ae64-1735e91cccaf","system_id":"levelo_inurba_marseille","lat":43.21195,"lon":5.35057,"is_reserved":false,"is_disabled":true,"rental_uris":{"android":"levelo://app?vid=2ae278c9-8939-43b6-ae64-1735e91cccaf","ios":"levelo://app?vid=2ae278c9-8939-43b6-ae64-1735e91cccaf"},"vehicle_type_id":"4","last_reported":1751008285,"current_range_meters":0,"station_id":"st_cvj6sg6p6f1abm77japg","pricing_plan_id":"cebpf4jnsgd1na2vs0mg"},{"bike_id":"19c74902-3837-4ad8-b947-55503c37a6f9","system_id":"levelo_inurba_marseille","lat":43.29768,"lon":5.38112,"is_reserved":false,"is_disabled":true,"rental_uris":{"android":"levelo://app?vid=19c74902-3837-4ad8-b947-55503c37a6f9","ios":"levelo://app?vid=19c74902-3837-4ad8-b947-55503c37a6f9"},"vehicle_type_id":"4","last_reported":1751008285,"current_range_meters":400,"station_id":"ce4bgip2rcd13ifvqbb0","pricing_plan_id":"cebpf4jnsgd1na2vs0mg"},{"bike_id":"236d89ec-8432-4dfa-8055-947062315dbf","system_id":"levelo_inurba_marseille","lat":43.3211,"lon":5.36791,"is_reserved":false,"is_disabled":true,"rental_uris":{"android":"levelo://app?vid=236d89ec-8432-4dfa-8055-947062315dbf","ios":"levelo://app?vid=236d89ec-8432-4dfa-8055-947062315dbf"},"vehicle_type_id":"4","last_reported":1751008285,"current_range_meters":400,"station_id":"ce4bhrh2rcd13ifvqhug","pricing_plan_id":"cebpf4jnsgd1na2vs0mg"},{"bike_id":"446c66be-a677-44c2-9116-79a23398a824","system_id":"levelo_inurba_marseille","lat":43.27616,"lon":5.43209,"is_reserved":false,"is_disabled":true,"rental_uris":{"android":"levelo://app?vid=446c66be-a677-44c2-9116-79a23398a824","ios":"levelo://app?vid=446c66be-a677-44c2-9116-79a23398a824"},"vehicle_type_id":"4","last_reported":1751008285,"current_range_meters":800,"station_id":"","pricing_plan_id":"cebpf4jnsgd1na2vs0mg"},{"bike_id":"963e5e85-0de7-4b7c-a81c-d70f05d22694","system_id":"levelo_inurba_marseille","lat":43.337189,"lon":5.39194,"is_reserved":false,"is_disabled":true,"rental_uris":{"android":"levelo://app?vid=963e5e85-0de7-4b7c-a81c-d70f05d22694","ios":"levelo://app?vid=963e5e85-0de7-4b7c-a81c-d70f05d22694"},"vehicle_type_id":"4","last_reported":1751008285,"current_range_meters":800,"station_id":"","pricing_plan_id":"cebpf4jnsgd1na2vs0mg"},{"bike_id":"0d08da16-1767-44dc-ab30-4b3f4c13c065","system_id":"levelo_inurba_marseille","lat":43.301332,"lon":5.387753,"is_reserved":false,"is_disabled":true,"rental_uris":{"android":"levelo://app?vid=0d08da16-1767-44dc-ab30-4b3f4c13c065","ios":"levelo://app?vid=0d08da16-1767-44dc-ab30-4b3f4c13c065"},"vehicle_type_id":"4","last_reported":1751008285,"current_range_meters":800,"station_id":"ce4bghh2rcd13ifvqb60","pricing_plan_id":"cebpf4jnsgd1na2vs0mg"},{"bike_id":"6079e442-00ce-4de5-b923-0828a19796e8","system_id":"levelo_inurba_marseille","lat":43.290454,"lon":5.37803,"is_reserved":false,"is_disabled":true,"rental_uris":{"android":"levelo://app?vid=6079e442-00ce-4de5-b923-0828a19796e8","ios":"levelo://app?vid=6079e442-00ce-4de5-b923-0828a19796e8"},"vehicle_type_id":"4","last_reported":1751008285,"current_range_meters":800,"station_id":"ce4bgi12rcd13ifvqb80","pricing_plan_id":"cebpf4jnsgd1na2vs0mg"},{"bike_id":"f2003eee-f6a0-4924-ac42-42d6e2660a78","system_id":"levelo_inurba_marseille","lat":43.27835,"lon":5.39213,"is_reserved":false,"is_disabled":true,"rental_uris":{"android":"levelo://app?vid=f2003eee-f6a0-4924-ac42-42d6e2660a78","ios":"levelo://app?vid=f2003eee-f6a0-4924-ac42-42d6e2660a78"},"vehicle_type_id":"4","last_reported":1751008285,"current_range_meters":800,"station_id":"ce4bhjp2rcd13ifvqga0","pricing_plan_id":"cebpf4jnsgd1na2vs0mg"},{"bike_id":"67a5051a-b32e-408a-8389-c22b54eb81f6","system_id":"levelo_inurba_marseille","lat":43.33015,"lon":5.45576,"is_reserved":false,"is_disabled":true,"rental_uris":{"android":"levelo://app?vid=67a5051a-b32e-408a-8389-c22b54eb81f6","ios":"levelo://app?vid=67a5051a-b32e-408a-8389-c22b54eb81f6"},"vehicle_type_id":"4","last_reported":1751008285,"current_range_meters":1200,"station_id":"","pricing_plan_id":"cebpf4jnsgd1na2vs0mg"},{"bike_id":"0a4849b8-d7e0-4f0c-a5b5-e80e4e7dcdde","system_id":"levelo_inurba_marseille","lat":43.305395,"lon":5.365303,"is_reserved":false,"is_disabled":true,"rental_uris":{"android":"levelo://app?vid=0a4849b8-d7e0-4f0c-a5b5-e80e4e7dcdde","ios":"levelo://app?vid=0a4849b8-d7e0-4f0c-a5b5-e80e4e7dcdde"},"vehicle_type_id":"4","last_reported":1751008285,"current_range_meters":1200,"station_id":"ce4bgs12rcd13ifvqcag","pricing_plan_id":"cebpf4jnsgd1na2vs0mg"},{"bike_id":"86d1b195-49ae-46ca-9f00-5e893617fffd","system_id":"levelo_inurba_marseille","lat":43.28401,"lon":5.37517,"is_reserved":false,"is_disabled":true,"rental_uris":{"android":"levelo://app?vid=86d1b195-49ae-46ca-9f00-5e893617fffd","ios":"levelo://app?vid=86d1b195-49ae-46ca-9f00-5e893617fffd"},"vehicle_type_id":"4","last_reported":1751008285,"current_range_meters":1200,"station_id":"ce4bh412rcd13ifvqds0","pricing_plan_id":"cebpf4jnsgd1na2vs0mg"},{"bike_id":"a4f1e828-c247-405d-9c09-f0723ee8b9ea","system_id":"levelo_inurba_marseille","lat":43.29265,"lon":5.36842,"is_reserved":false,"is_disabled":true,"rental_uris":{"android":"levelo://app?vid=a4f1e828-c247-405d-9c09-f0723ee8b9ea","ios":"levelo://app?vid=a4f1e828-c247-405d-9c09-f0723ee8b9ea"},"vehicle_type_id":"4","last_reported":1751008285,"current_range_meters":1200,"station_id":"ce4bhbp2rcd13ifvqesg","pricing_plan_id":"cebpf4jnsgd1na2vs0mg"},{"bike_id":"85dc0418-70ec-4595-8028-d42e88652ea4","system_id":"levelo_inurba_marseille","lat":43.32483,"lon":5.36574,"is_reserved":false,"is_disabled":true,"rental_uris":{"android":"levelo://app?vid=85dc0418-70ec-4595-8028-d42e88652ea4","ios":"levelo://app?vid=85dc0418-70ec-4595-8028-d42e88652ea4"},"vehicle_type_id":"4","last_reported":1751008285,"current_range_meters":1200,"station_id":"ce4bhs12rcd13ifvqhvg","pricing_plan_id":"cebpf4jnsgd1na2vs0mg"},{"bike_id":"133723f7-ccd0-4e11-bd54-2726011c5335","system_id":"levelo_inurba_marseille","lat":43.24175,"lon":5.36402,"is_reserved":false,"is_disabled":true,"rental_uris":{"android":"levelo://app?vid=133723f7-ccd0-4e11-bd54-2726011c5335","ios":"levelo://app?vid=133723f7-ccd0-4e11-bd54-2726011c5335"},"vehicle_type_id":"4","last_reported":1751008285,"current_range_meters":1200,"station_id":"cpo36qri1sfpv3e86is0","pricing_plan_id":"cebpf4jnsgd1na2vs0mg"},{"bike_id":"a1ae4fee-cbeb-43dc-a969-5827f87e448d","system_id":"levelo_inurba_marseille","lat":43.383843,"lon":5.3654,"is_reserved":false,"is_disabled":true,"rental_uris":{"android":"levelo://app?vid=a1ae4fee-cbeb-43dc-a969-5827f87e448d","ios":"levelo://app?vid=a1ae4fee-cbeb-43dc-a969-5827f87e448d"},"vehicle_type_id":"4","last_reported":1751008285,"current_range_meters":1600,"station_id":"","pricing_plan_id":"cebpf4jnsgd1na2vs0mg"},{"bike_id":"a3640222-40dc-4324-9c73-be22c55e4423","system_id":"levelo_inurba_marseille","lat":43.29794,"lon":5.38107,"is_reserved":false,"is_disabled":true,"rental_uris":{"android":"levelo://app?vid=a3640222-40dc-4324-9c73-be22c55e4423","ios":"levelo://app?vid=a3640222-40dc-4324-9c73-be22c55e4423"},"vehicle_type_id":"4","last_reported":1751008285,"current_range_meters":1600,"station_id":"ce4bgip2rcd13ifvqbb0","pricing_plan_id":"cebpf4jnsgd1na2vs0mg"},{"bike_id":"6c419886-c2e0-4da3-ab21-07a3b3359ac7","system_id":"levelo_inurba_marseille","lat":43.30464,"lon":5.37913,"is_reserved":false,"is_disabled":true,"rental_uris":{"android":"levelo://app?vid=6c419886-c2e0-4da3-ab21-07a3b3359ac7","ios":"levelo://app?vid=6c419886-c2e0-4da3-ab21-07a3b3359ac7"},"vehicle_type_id":"4","last_reported":1751008285,"current_range_meters":1600,"station_id":"ce4bgup2rcd13ifvqcn0","pricing_plan_id":"cebpf4jnsgd1na2vs0mg"},{"bike_id":"b0646ca7-34d4-408a-9688-31b8725f2028","system_id":"levelo_inurba_marseille","lat":43.28477,"lon":5.38434,"is_reserved":false,"is_disabled":true,"rental_uris":{"android":"levelo://app?vid=b0646ca7-34d4-408a-9688-31b8725f2028","ios":"levelo://app?vid=b0646ca7-34d4-408a-9688-31b8725f2028"},"vehicle_type_id":"4","last_reported":1751008285,"current_range_meters":1600,"station_id":"ce4bh512rcd13ifvqe3g","pricing_plan_id":"cebpf4jnsgd1na2vs0mg"},{"bike_id":"a86d2f9f-83d8-4f17-8422-d08e982c4a2a","system_id":"levelo_inurba_marseille","lat":43.29743,"lon":5.44896,"is_reserved":false,"is_disabled":true,"rental_uris":{"android":"levelo://app?vid=a86d2f9f-83d8-4f17-8422-d08e982c4a2a","ios":"levelo://app?vid=a86d2f9f-83d8-4f17-8422-d08e982c4a2a"},"vehicle_type_id":"4","last_reported":1751008285,"current_range_meters":2000,"station_id":"","pricing_plan_id":"cebpf4jnsgd1na2vs0mg"},{"bike_id":"f28ec81c-ada1-4f7e-80e1-051dfdab9137","system_id":"levelo_inurba_marseille","lat":43.29301,"lon":5.37469,"is_reserved":false,"is_disabled":true,"rental_uris":{"android":"levelo://app?vid=f28ec81c-ada1-4f7e-80e1-051dfdab9137","ios":"levelo://app?vid=f28ec81c-ada1-4f7e-80e1-051dfdab9137"},"vehicle_type_id":"4","last_reported":1751008285,"current_range_meters":2000,"station_id":"ce4bgi12rcd13ifvqb70","pricing_plan_id":"cebpf4jnsgd1na2vs0mg"},{"bike_id":"3644b1d7-5e3f-44e5-bbda-dd1c98d459c8","system_id":"levelo_inurba_marseille","lat":43.31343,"lon":5.36719,"is_reserved":false,"is_disabled":true,"rental_uris":{"android":"levelo://app?vid=3644b1d7-5e3f-44e5-bbda-dd1c98d459c8","ios":"levelo://app?vid=3644b1d7-5e3f-44e5-bbda-dd1c98d459c8"},"vehicle_type_id":"4","last_reported":1751008285,"current_range_meters":2000,"station_id":"ce4bgr92rcd13ifvqc6g","pricing_plan_id":"cebpf4jnsgd1na2vs0mg"},{"bike_id":"c284777a-f415-44cf-b131-0eaf89eb8575","system_id":"levelo_inurba_marseille","lat":43.3048,"lon":5.37903,"is_reserved":false,"is_disabled":true,"rental_uris":{"android":"levelo://app?vid=c284777a-f415-44cf-b131-0eaf89eb8575","ios":"levelo://app?vid=c284777a-f415-44cf-b131-0eaf89eb8575"},"vehicle_type_id":"4","last_reported":1751008285,"current_range_meters":2000,"station_id":"ce4bgup2rcd13ifvqcn0","pricing_plan_id":"cebpf4jnsgd1na2vs0mg"},{"bike_id":"fd7442a7-de73-4724-8cad-140ff47ef82e","system_id":"levelo_inurba_marseille","lat":43.26957,"lon":5.38631,"is_reserved":false,"is_disabled":false,"rental_uris":{"android":"levelo://app?vid=fd7442a7-de73-4724-8cad-140ff47ef82e","ios":"levelo://app?vid=fd7442a7-de73-4724-8cad-140ff47ef82e"},"vehicle_type_id":"4","last_reported":1751008285,"current_range_meters":2000,"station_id":"ce4bhh92rcd13ifvqfh0","pricing_plan_id":"cebpf4jnsgd1na2vs0mg"},{"bike_id":"6e7f2064-13e5-4bb7-8eb8-ce6b0bf509c3","system_id":"levelo_inurba_marseille","lat":43.29698,"lon":5.37918,"is_reserved":false,"is_disabled":false,"rental_uris":{"android":"levelo://app?vid=6e7f2064-13e5-4bb7-8eb8-ce6b0bf509c3","ios":"levelo://app?vid=6e7f2064-13e5-4bb7-8eb8-ce6b0bf509c3"},"vehicle_type_id":"4","last_reported":1751008285,"current_range_meters":2800,"station_id":"","pricing_plan_id":"cebpf4jnsgd1na2vs0mg"},{"bike_id":"7da7258a-4890-44d6-85a2-379bddb9a6c7","system_id":"levelo_inurba_marseille","lat":43.30529,"lon":5.38428,"is_reserved":false,"is_disabled":false,"rental_uris":{"android":"levelo://app?vid=7da7258a-4890-44d6-85a2-379bddb9a6c7","ios":"levelo://app?vid=7da7258a-4890-44d6-85a2-379bddb9a6c7"},"vehicle_type_id":"4","last_reported":1751008285,"current_range_meters":3200,"station_id":"ce4bgg92rcd13ifvqb30","pricing_plan_id":"cebpf4jnsgd1na2vs0mg"},{"bike_id":"d60113c8-3387-46de-adde-b2b1abf1350a","system_id":"levelo_inurba_marseille","lat":43.29938,"lon":5.4128,"is_reserved":false,"is_disabled":false,"rental_uris":{"android":"levelo://app?vid=d60113c8-3387-46de-adde-b2b1abf1350a","ios":"levelo://app?vid=d60113c8-3387-46de-adde-b2b1abf1350a"},"vehicle_type_id":"4","last_reported":1751008285,"current_range_meters":3200,"station_id":"ce4bhp12rcd13ifvqh9g","pricing_plan_id":"cebpf4jnsgd1na2vs0mg"},{"bike_id":"7ac2d6ad-16d3-463d-9f49-789f3bb8e5d0","system_id":"levelo_inurba_marseille","lat":43.33719,"lon":5.39185,"is_reserved":false,"is_disabled":false,"rental_uris":{"android":"levelo://app?vid=7ac2d6ad-16d3-463d-9f49-789f3bb8e5d0","ios":"levelo://app?vid=7ac2d6ad-16d3-463d-9f49-789f3bb8e5d0"},"vehicle_type_id":"4","last_reported":1751008285,"current_range_meters":3200,"station_id":"ce4bhr92rcd13ifvqhsg","pricing_plan_id":"cebpf4jnsgd1na2vs0mg"},{"bike_id":"9bf2e489-2e69-4086-a35d-650ed4bcf176","system_id":"levelo_inurba_marseille","lat":43.26675,"lon":5.38267,"is_reserved":false,"is_disabled":false,"rental_uris":{"android":"levelo://app?vid=9bf2e489-2e69-4086-a35d-650ed4bcf176","ios":"levelo://app?vid=9bf2e489-2e69-4086-a35d-650ed4bcf176"},"vehicle_type_id":"4","last_reported":1751008285,"current_range_meters":3600,"station_id":"ce4bhg92rcd13ifvqf90","pricing_plan_id":"cebpf4jnsgd1na2vs0mg"},{"bike_id":"2f02bc29-30f5-42b8-99c0-f30d0ec3cb24","system_id":"levelo_inurba_marseille","lat":43.25936,"lon":5.40906,"is_reserved":false,"is_disabled":false,"rental_uris":{"android":"levelo://app?vid=2f02bc29-30f5-42b8-99c0-f30d0ec3cb24","ios":"levelo://app?vid=2f02bc29-30f5-42b8-99c0-f30d0ec3cb24"},"vehicle_type_id":"4","last_reported":1751008285,"current_range_meters":3600,"station_id":"ce4bhm92rcd13ifvqglg","pricing_plan_id":"cebpf4jnsgd1na2vs0mg"},{"bike_id":"d80271ca-6863-4af0-aedc-35e3c4bde8f5","system_id":"levelo_inurba_marseille","lat":43.30457,"lon":5.3791,"is_reserved":false,"is_disabled":false,"rental_uris":{"android":"levelo://app?vid=d80271ca-6863-4af0-aedc-35e3c4bde8f5","ios":"levelo://app?vid=d80271ca-6863-4af0-aedc-35e3c4bde8f5"},"vehicle_type_id":"4","last_reported":1751008285,"current_range_meters":4000,"station_id":"ce4bgup2rcd13ifvqcn0","pricing_plan_id":"cebpf4jnsgd1na2vs0mg"},{"bike_id":"f0b9059f-ce2f-46c5-a059-486084ab34b2","system_id":"levelo_inurba_marseille","lat":43.26568,"lon":5.39,"is_reserved":false,"is_disabled":false,"rental_uris":{"android":"levelo://app?vid=f0b9059f-ce2f-46c5-a059-486084ab34b2","ios":"levelo://app?vid=f0b9059f-ce2f-46c5-a059-486084ab34b2"},"vehicle_type_id":"4","last_reported":1751008285,"current_range_meters":4000,"station_id":"ce4bhe12rcd13ifvqf30","pricing_plan_id":"cebpf4jnsgd1na2vs0mg"},{"bike_id":"d11d9de4-1470-44c8-a91c-2680690a5e39","system_id":"levelo_inurba_marseille","lat":43.303131,"lon":5.36901,"is_reserved":false,"is_disabled":false,"rental_uris":{"android":"levelo://app?vid=d11d9de4-1470-44c8-a91c-2680690a5e39","ios":"levelo://app?vid=d11d9de4-1470-44c8-a91c-2680690a5e39"},"vehicle_type_id":"4","last_reported":1751008285,"current_range_meters":4400,"station_id":"","pricing_plan_id":"cebpf4jnsgd1na2vs0mg"},{"bike_id":"af112b62-19de-41d4-b8d7-e14d0172315d","system_id":"levelo_inurba_marseille","lat":43.326762,"lon":5.39266,"is_reserved":false,"is_disabled":false,"rental_uris":{"android":"levelo://app?vid=af112b62-19de-41d4-b8d7-e14d0172315d","ios":"levelo://app?vid=af112b62-19de-41d4-b8d7-e14d0172315d"},"vehicle_type_id":"4","last_reported":1751008285,"current_range_meters":4400,"station_id":"","pricing_plan_id":"cebpf4jnsgd1na2vs0mg"},{"bike_id":"26a14eba-87a9-47b8-9607-30bd0042d428","system_id":"levelo_inurba_marseille","lat":43.314605,"lon":5.394254,"is_reserved":false,"is_disabled":false,"rental_uris":{"android":"levelo://app?vid=26a14eba-87a9-47b8-9607-30bd0042d428","ios":"levelo://app?vid=26a14eba-87a9-47b8-9607-30bd0042d428"},"vehicle_type_id":"4","last_reported":1751008285,"current_range_meters":4800,"station_id":"","pricing_plan_id":"cebpf4jnsgd1na2vs0mg"},{"bike_id":"8bd75004-a797-4362-8e8a-5faa8bac72ba","system_id":"levelo_inurba_marseille","lat":43.29924,"lon":5.37466,"is_reserved":false,"is_disabled":false,"rental_uris":{"android":"levelo://app?vid=8bd75004-a797-4362-8e8a-5faa8bac72ba","ios":"levelo://app?vid=8bd75004-a797-4362-8e8a-5faa8bac72ba"},"vehicle_type_id":"4","last_reported":1751008285,"current_range_meters":4800,"station_id":"ce4bgjh2rcd13ifvqbg0","pricing_plan_id":"cebpf4jnsgd1na2vs0mg"},{"bike_id":"784b48b6-254f-44fc-addf-bb5f2aa170fc","system_id":"levelo_inurba_marseille","lat":43.309357,"lon":5.368202,"is_reserved":false,"is_disabled":false,"rental_uris":{"android":"levelo://app?vid=784b48b6-254f-44fc-addf-bb5f2aa170fc","ios":"levelo://app?vid=784b48b6-254f-44fc-addf-bb5f2aa170fc"},"vehicle_type_id":"4","last_reported":1751008285,"current_range_meters":4800,"station_id":"ce4bgn92rcd13ifvqbvg","pricing_plan_id":"cebpf4jnsgd1na2vs0mg"},{"bike_id":"d264b286-5b3d-4d4f-8a58-65ceeecea18a","system_id":"levelo_inurba_marseille","lat":43.30316,"lon":5.36894,"is_reserved":false,"is_disabled":false,"rental_uris":{"android":"levelo://app?vid=d264b286-5b3d-4d4f-8a58-65ceeecea18a","ios":"levelo://app?vid=d264b286-5b3d-4d4f-8a58-65ceeecea18a"},"vehicle_type_id":"4","last_reported":1751008285,"current_range_meters":4800,"station_id":"ce4bgqh2rcd13ifvqc5g","pricing_plan_id":"cebpf4jnsgd1na2vs0mg"},{"bike_id":"3e91f52a-ed92-455d-869f-b8b63376f894","system_id":"levelo_inurba_marseille","lat":43.21757,"lon":5.34603,"is_reserved":false,"is_disabled":false,"rental_uris":{"android":"levelo://app?vid=3e91f52a-ed92-455d-869f-b8b63376f894","ios":"levelo://app?vid=3e91f52a-ed92-455d-869f-b8b63376f894"},"vehicle_type_id":"4","last_reported":1751008285,"current_range_meters":4800,"station_id":"st_cvj6r9ubvosntc0bgbag","pricing_plan_id":"cebpf4jnsgd1na2vs0mg"},{"bike_id":"8c3af7af-45dc-4873-983b-b8926e736e48","system_id":"levelo_inurba_marseille","lat":43.31273,"lon":5.36661,"is_reserved":false,"is_disabled":false,"rental_uris":{"android":"levelo://app?vid=8c3af7af-45dc-4873-983b-b8926e736e48","ios":"levelo://app?vid=8c3af7af-45dc-4873-983b-b8926e736e48"},"vehicle_type_id":"4","last_reported":1751008285,"current_range_meters":5600,"station_id":"","pricing_plan_id":"cebpf4jnsgd1na2vs0mg"},{"bike_id":"eadb486e-1088-4b6d-8ed6-d2c6b94ec299","system_id":"levelo_inurba_marseille","lat":43.29976,"lon":5.38484,"is_reserved":false,"is_disabled":false,"rental_uris":{"android":"levelo://app?vid=eadb486e-1088-4b6d-8ed6-d2c6b94ec299","ios":"levelo://app?vid=eadb486e-1088-4b6d-8ed6-d2c6b94ec299"},"vehicle_type_id":"4","last_reported":1751008285,"current_range_meters":5600,"station_id":"ce4bgj92rcd13ifvqbd0","pricing_plan_id":"cebpf4jnsgd1na2vs0mg"},{"bike_id":"7e0ba476-8dc3-477c-890f-6122d026887f","system_id":"levelo_inurba_marseille","lat":43.29798,"lon":5.40407,"is_reserved":false,"is_disabled":false,"rental_uris":{"android":"levelo://app?vid=7e0ba476-8dc3-477c-890f-6122d026887f","ios":"levelo://app?vid=7e0ba476-8dc3-477c-890f-6122d026887f"},"vehicle_type_id":"4","last_reported":1751008285,"current_range_meters":5600,"station_id":"ce4bh112rcd13ifvqd90","pricing_plan_id":"cebpf4jnsgd1na2vs0mg"},{"bike_id":"2fe5fbc5-ccfe-4846-8c4b-91e7493edb3e","system_id":"levelo_inurba_marseille","lat":43.24174,"lon":5.39725,"is_reserved":false,"is_disabled":false,"rental_uris":{"android":"levelo://app?vid=2fe5fbc5-ccfe-4846-8c4b-91e7493edb3e","ios":"levelo://app?vid=2fe5fbc5-ccfe-4846-8c4b-91e7493edb3e"},"vehicle_type_id":"4","last_reported":1751008285,"current_range_meters":5600,"station_id":"ce4bhn12rcd13ifvqgpg","pricing_plan_id":"cebpf4jnsgd1na2vs0mg"},{"bike_id":"9ce852fe-9449-4c16-b29b-642a7abdbbbf","system_id":"levelo_inurba_marseille","lat":43.27418,"lon":5.36202,"is_reserved":false,"is_disabled":false,"rental_uris":{"android":"levelo://app?vid=9ce852fe-9449-4c16-b29b-642a7abdbbbf","ios":"levelo://app?vid=9ce852fe-9449-4c16-b29b-642a7abdbbbf"},"vehicle_type_id":"4","last_reported":1751008285,"current_range_meters":6000,"station_id":"","pricing_plan_id":"cebpf4jnsgd1na2vs0mg"},{"bike_id":"fe78de29-6f01-4c97-b1ea-fd1cbf40c3f5","system_id":"levelo_inurba_marseille","lat":43.31348,"lon":5.36722,"is_reserved":false,"is_disabled":false,"rental_uris":{"android":"levelo://app?vid=fe78de29-6f01-4c97-b1ea-fd1cbf40c3f5","ios":"levelo://app?vid=fe78de29-6f01-4c97-b1ea-fd1cbf40c3f5"},"vehicle_type_id":"4","last_reported":1751008285,"current_range_meters":6000,"station_id":"ce4bgr92rcd13ifvqc6g","pricing_plan_id":"cebpf4jnsgd1na2vs0mg"},{"bike_id":"3d7542cd-3c3a-4725-a6b7-27bb4e19fbd6","system_id":"levelo_inurba_marseille","lat":43.305553,"lon":5.36559,"is_reserved":false,"is_disabled":false,"rental_uris":{"android":"levelo://app?vid=3d7542cd-3c3a-4725-a6b7-27bb4e19fbd6","ios":"levelo://app?vid=3d7542cd-3c3a-4725-a6b7-27bb4e19fbd6"},"vehicle_type_id":"4","last_reported":1751008285,"current_range_meters":6000,"station_id":"ce4bgs12rcd13ifvqcag","pricing_plan_id":"cebpf4jnsgd1na2vs0mg"},{"bike_id":"73cc2acb-7ef2-42fa-8107-2a562cffe33c","system_id":"levelo_inurba_marseille","lat":43.30955,"lon":5.39043,"is_reserved":false,"is_disabled":false,"rental_uris":{"android":"levelo://app?vid=73cc2acb-7ef2-42fa-8107-2a562cffe33c","ios":"levelo://app?vid=73cc2acb-7ef2-42fa-8107-2a562cffe33c"},"vehicle_type_id":"4","last_reported":1751008285,"current_range_meters":6000,"station_id":"ce4bgup2rcd13ifvqco0","pricing_plan_id":"cebpf4jnsgd1na2vs0mg"},{"bike_id":"5b9b6345-6374-44a2-b7a9-780425daf2bb","system_id":"levelo_inurba_marseille","lat":43.290427,"lon":5.399433,"is_reserved":false,"is_disabled":false,"rental_uris":{"android":"levelo://app?vid=5b9b6345-6374-44a2-b7a9-780425daf2bb","ios":"levelo://app?vid=5b9b6345-6374-44a2-b7a9-780425daf2bb"},"vehicle_type_id":"4","last_reported":1751008285,"current_range_meters":6000,"station_id":"ce4bh392rcd13ifvqdm0","pricing_plan_id":"cebpf4jnsgd1na2vs0mg"},{"bike_id":"4b92842c-367c-4a99-9cb7-673d8185e0f9","system_id":"levelo_inurba_marseille","lat":43.26211,"lon":5.3744,"is_reserved":false,"is_disabled":false,"rental_uris":{"android":"levelo://app?vid=4b92842c-367c-4a99-9cb7-673d8185e0f9","ios":"levelo://app?vid=4b92842c-367c-4a99-9cb7-673d8185e0f9"},"vehicle_type_id":"4","last_reported":1751008285,"current_range_meters":6000,"station_id":"ce4bhgp2rcd13ifvqfc0","pricing_plan_id":"cebpf4jnsgd1na2vs0mg"},{"bike_id":"ab256362-2ed2-4d16-8316-40303f3c89d4","system_id":"levelo_inurba_marseille","lat":43.233429,"lon":5.435994,"is_reserved":false,"is_disabled":false,"rental_uris":{"android":"levelo://app?vid=ab256362-2ed2-4d16-8316-40303f3c89d4","ios":"levelo://app?vid=ab256362-2ed2-4d16-8316-40303f3c89d4"},"vehicle_type_id":"4","last_reported":1751008285,"current_range_meters":6000,"station_id":"ce4bhmp2rcd13ifvqgog","pricing_plan_id":"cebpf4jnsgd1na2vs0mg"},{"bike_id":"a7251671-f4fd-4ca1-acac-59c442621b5e","system_id":"levelo_inurba_marseille","lat":43.2319,"lon":5.355522,"is_reserved":false,"is_disabled":false,"rental_uris":{"android":"levelo://app?vid=a7251671-f4fd-4ca1-acac-59c442621b5e","ios":"levelo://app?vid=a7251671-f4fd-4ca1-acac-59c442621b5e"},"vehicle_type_id":"4","last_reported":1751008285,"current_range_meters":6000,"station_id":"ce4bhu92rcd13ifvqi70","pricing_plan_id":"cebpf4jnsgd1na2vs0mg"},{"bike_id":"64cc8189-4e16-4d02-9abd-fe628d6bfad3","system_id":"levelo_inurba_marseille","lat":43.30943,"lon":5.39038,"is_reserved":false,"is_disabled":false,"rental_uris":{"android":"levelo://app?vid=64cc8189-4e16-4d02-9abd-fe628d6bfad3","ios":"levelo://app?vid=64cc8189-4e16-4d02-9abd-fe628d6bfad3"},"vehicle_type_id":"4","last_reported":1751008285,"current_range_meters":6400,"station_id":"ce4bgup2rcd13ifvqco0","pricing_plan_id":"cebpf4jnsgd1na2vs0mg"},{"bike_id":"bd3131b2-46f5-44cd-9009-199fc140b5b3","system_id":"levelo_inurba_marseille","lat":43.29021,"lon":5.40005,"is_reserved":false,"is_disabled":false,"rental_uris":{"android":"levelo://app?vid=bd3131b2-46f5-44cd-9009-199fc140b5b3","ios":"levelo://app?vid=bd3131b2-46f5-44cd-9009-199fc140b5b3"},"vehicle_type_id":"4","last_reported":1751008285,"current_range_meters":6400,"station_id":"ce4bh392rcd13ifvqdm0","pricing_plan_id":"cebpf4jnsgd1na2vs0mg"},{"bike_id":"e1fc530c-7fa2-4752-8161-6a65c418fc79","system_id":"levelo_inurba_marseille","lat":43.31751,"lon":5.39035,"is_reserved":false,"is_disabled":false,"rental_uris":{"android":"levelo://app?vid=e1fc530c-7fa2-4752-8161-6a65c418fc79","ios":"levelo://app?vid=e1fc530c-7fa2-4752-8161-6a65c418fc79"},"vehicle_type_id":"4","last_reported":1751008285,"current_range_meters":6400,"station_id":"ce4bhqp2rcd13ifvqhng","pricing_plan_id":"cebpf4jnsgd1na2vs0mg"},{"bike_id":"736bc0fc-fc3a-4b52-a880-a3d41a5a5156","system_id":"levelo_inurba_marseille","lat":43.29963,"lon":5.38499,"is_reserved":false,"is_disabled":false,"rental_uris":{"android":"levelo://app?vid=736bc0fc-fc3a-4b52-a880-a3d41a5a5156","ios":"levelo://app?vid=736bc0fc-fc3a-4b52-a880-a3d41a5a5156"},"vehicle_type_id":"4","last_reported":1751008285,"current_range_meters":6800,"station_id":"ce4bgj92rcd13ifvqbd0","pricing_plan_id":"cebpf4jnsgd1na2vs0mg"},{"bike_id":"3b6b35f9-1d47-4a50-bdcd-5d6607396dac","system_id":"levelo_inurba_marseille","lat":43.30475,"lon":5.37904,"is_reserved":false,"is_disabled":false,"rental_uris":{"android":"levelo://app?vid=3b6b35f9-1d47-4a50-bdcd-5d6607396dac","ios":"levelo://app?vid=3b6b35f9-1d47-4a50-bdcd-5d6607396dac"},"vehicle_type_id":"4","last_reported":1751008285,"current_range_meters":6800,"station_id":"ce4bgup2rcd13ifvqcn0","pricing_plan_id":"cebpf4jnsgd1na2vs0mg"},{"bike_id":"e2f5b300-4a63-4778-aada-c29a8a0ea1e8","system_id":"levelo_inurba_marseille","lat":43.327943,"lon":5.391934,"is_reserved":false,"is_disabled":false,"rental_uris":{"android":"levelo://app?vid=e2f5b300-4a63-4778-aada-c29a8a0ea1e8","ios":"levelo://app?vid=e2f5b300-4a63-4778-aada-c29a8a0ea1e8"},"vehicle_type_id":"4","last_reported":1751008285,"current_range_meters":7200,"station_id":"","pricing_plan_id":"cebpf4jnsgd1na2vs0mg"},{"bike_id":"607a4d36-784c-4bdc-af6d-1aaf161b26e3","system_id":"levelo_inurba_marseille","lat":43.30918,"lon":5.36847,"is_reserved":false,"is_disabled":false,"rental_uris":{"android":"levelo://app?vid=607a4d36-784c-4bdc-af6d-1aaf161b26e3","ios":"levelo://app?vid=607a4d36-784c-4bdc-af6d-1aaf161b26e3"},"vehicle_type_id":"4","last_reported":1751008285,"current_range_meters":7200,"station_id":"ce4bgn92rcd13ifvqbvg","pricing_plan_id":"cebpf4jnsgd1na2vs0mg"},{"bike_id":"043c761b-e520-4e3e-8ecc-be309699ee14","system_id":"levelo_inurba_marseille","lat":43.305561,"lon":5.36558,"is_reserved":false,"is_disabled":false,"rental_uris":{"android":"levelo://app?vid=043c761b-e520-4e3e-8ecc-be309699ee14","ios":"levelo://app?vid=043c761b-e520-4e3e-8ecc-be309699ee14"},"vehicle_type_id":"4","last_reported":1751008285,"current_range_meters":7200,"station_id":"ce4bgs12rcd13ifvqcag","pricing_plan_id":"cebpf4jnsgd1na2vs0mg"},{"bike_id":"3565ed08-bb2a-419d-8de5-ff8aa6452baf","system_id":"levelo_inurba_marseille","lat":43.30475,"lon":5.37915,"is_reserved":false,"is_disabled":false,"rental_uris":{"android":"levelo://app?vid=3565ed08-bb2a-419d-8de5-ff8aa6452baf","ios":"levelo://app?vid=3565ed08-bb2a-419d-8de5-ff8aa6452baf"},"vehicle_type_id":"4","last_reported":1751008285,"current_range_meters":7200,"station_id":"ce4bgup2rcd13ifvqcn0","pricing_plan_id":"cebpf4jnsgd1na2vs0mg"},{"bike_id":"6b7cfd75-9f46-4bac-9a61-7ed145f17214","system_id":"levelo_inurba_marseille","lat":43.32288,"lon":5.3827,"is_reserved":false,"is_disabled":false,"rental_uris":{"android":"levelo://app?vid=6b7cfd75-9f46-4bac-9a61-7ed145f17214","ios":"levelo://app?vid=6b7cfd75-9f46-4bac-9a61-7ed145f17214"},"vehicle_type_id":"4","last_reported":1751008285,"current_range_meters":7200,"station_id":"ce4bhr12rcd13ifvqhqg","pricing_plan_id":"cebpf4jnsgd1na2vs0mg"},{"bike_id":"c28558cd-be52-44e5-bc70-dc2683ae53e4","system_id":"levelo_inurba_marseille","lat":43.31359,"lon":5.36726,"is_reserved":false,"is_disabled":false,"rental_uris":{"android":"levelo://app?vid=c28558cd-be52-44e5-bc70-dc2683ae53e4","ios":"levelo://app?vid=c28558cd-be52-44e5-bc70-dc2683ae53e4"},"vehicle_type_id":"4","last_reported":1751008285,"current_range_meters":8000,"station_id":"ce4bgr92rcd13ifvqc6g","pricing_plan_id":"cebpf4jnsgd1na2vs0mg"},{"bike_id":"2a1b6331-d27f-4c02-917e-0c21dda0fde8","system_id":"levelo_inurba_marseille","lat":43.30821,"lon":5.3815,"is_reserved":false,"is_disabled":false,"rental_uris":{"android":"levelo://app?vid=2a1b6331-d27f-4c02-917e-0c21dda0fde8","ios":"levelo://app?vid=2a1b6331-d27f-4c02-917e-0c21dda0fde8"},"vehicle_type_id":"4","last_reported":1751008285,"current_range_meters":8000,"station_id":"ce4bgt12rcd13ifvqce0","pricing_plan_id":"cebpf4jnsgd1na2vs0mg"},{"bike_id":"9ea5f347-6ebf-42c3-93f4-45f1951dd202","system_id":"levelo_inurba_marseille","lat":43.292825,"lon":5.401146,"is_reserved":false,"is_disabled":false,"rental_uris":{"android":"levelo://app?vid=9ea5f347-6ebf-42c3-93f4-45f1951dd202","ios":"levelo://app?vid=9ea5f347-6ebf-42c3-93f4-45f1951dd202"},"vehicle_type_id":"4","last_reported":1751008285,"current_range_meters":8400,"station_id":"","pricing_plan_id":"cebpf4jnsgd1na2vs0mg"},{"bike_id":"a9d25cad-d480-4c75-aec5-3969f1a4e6c7","system_id":"levelo_inurba_marseille","lat":43.329329,"lon":5.390439,"is_reserved":false,"is_disabled":false,"rental_uris":{"android":"levelo://app?vid=a9d25cad-d480-4c75-aec5-3969f1a4e6c7","ios":"levelo://app?vid=a9d25cad-d480-4c75-aec5-3969f1a4e6c7"},"vehicle_type_id":"4","last_reported":1751008285,"current_range_meters":8400,"station_id":"","pricing_plan_id":"cebpf4jnsgd1na2vs0mg"},{"bike_id":"3ed97791-4fd1-4beb-9e6b-4998740d59d9","system_id":"levelo_inurba_marseille","lat":43.271719,"lon":5.410008,"is_reserved":false,"is_disabled":false,"rental_uris":{"android":"levelo://app?vid=3ed97791-4fd1-4beb-9e6b-4998740d59d9","ios":"levelo://app?vid=3ed97791-4fd1-4beb-9e6b-4998740d59d9"},"vehicle_type_id":"4","last_reported":1751008285,"current_range_meters":8400,"station_id":"","pricing_plan_id":"cebpf4jnsgd1na2vs0mg"},{"bike_id":"3694279b-b5f3-4713-b3a9-f36a7bf37753","system_id":"levelo_inurba_marseille","lat":43.292657,"lon":5.384369,"is_reserved":false,"is_disabled":false,"rental_uris":{"android":"levelo://app?vid=3694279b-b5f3-4713-b3a9-f36a7bf37753","ios":"levelo://app?vid=3694279b-b5f3-4713-b3a9-f36a7bf37753"},"vehicle_type_id":"4","last_reported":1751008285,"current_range_meters":8400,"station_id":"ce4bh692rcd13ifvqea0","pricing_plan_id":"cebpf4jnsgd1na2vs0mg"},{"bike_id":"db4e2ea3-c22f-48f0-b53e-224aec501d16","system_id":"levelo_inurba_marseille","lat":43.32369,"lon":5.36767,"is_reserved":false,"is_disabled":false,"rental_uris":{"android":"levelo://app?vid=db4e2ea3-c22f-48f0-b53e-224aec501d16","ios":"levelo://app?vid=db4e2ea3-c22f-48f0-b53e-224aec501d16"},"vehicle_type_id":"4","last_reported":1751008285,"current_range_meters":8400,"station_id":"ce4bhsh2rcd13ifvqi2g","pricing_plan_id":"cebpf4jnsgd1na2vs0mg"},{"bike_id":"f47876d7-9c85-474e-92c5-7a242e08b67c","system_id":"levelo_inurba_marseille","lat":43.30569,"lon":5.37525,"is_reserved":false,"is_disabled":false,"rental_uris":{"android":"levelo://app?vid=f47876d7-9c85-474e-92c5-7a242e08b67c","ios":"levelo://app?vid=f47876d7-9c85-474e-92c5-7a242e08b67c"},"vehicle_type_id":"4","last_reported":1751008285,"current_range_meters":8800,"station_id":"","pricing_plan_id":"cebpf4jnsgd1na2vs0mg"},{"bike_id":"3e3662a5-822a-4efc-96da-5bac7875ccc6","system_id":"levelo_inurba_marseille","lat":43.30188,"lon":5.366,"is_reserved":false,"is_disabled":false,"rental_uris":{"android":"levelo://app?vid=3e3662a5-822a-4efc-96da-5bac7875ccc6","ios":"levelo://app?vid=3e3662a5-822a-4efc-96da-5bac7875ccc6"},"vehicle_type_id":"4","last_reported":1751008285,"current_range_meters":8800,"station_id":"ce4bgrh2rcd13ifvqc8g","pricing_plan_id":"cebpf4jnsgd1na2vs0mg"},{"bike_id":"e16a1280-68eb-4e9b-ba42-b271a5586071","system_id":"levelo_inurba_marseille","lat":43.23154,"lon":5.43705,"is_reserved":false,"is_disabled":false,"rental_uris":{"android":"levelo://app?vid=e16a1280-68eb-4e9b-ba42-b271a5586071","ios":"levelo://app?vid=e16a1280-68eb-4e9b-ba42-b271a5586071"},"vehicle_type_id":"4","last_reported":1751008285,"current_range_meters":8800,"station_id":"ce4bhmp2rcd13ifvqgog","pricing_plan_id":"cebpf4jnsgd1na2vs0mg"},{"bike_id":"fc55dcef-d641-4c3b-91cb-2ab649b8dd89","system_id":"levelo_inurba_marseille","lat":43.27495,"lon":5.4245,"is_reserved":false,"is_disabled":false,"rental_uris":{"android":"levelo://app?vid=fc55dcef-d641-4c3b-91cb-2ab649b8dd89","ios":"levelo://app?vid=fc55dcef-d641-4c3b-91cb-2ab649b8dd89"},"vehicle_type_id":"4","last_reported":1751008285,"current_range_meters":8800,"station_id":"ce4bhn92rcd13ifvqgrg","pricing_plan_id":"cebpf4jnsgd1na2vs0mg"},{"bike_id":"a8827dfe-6a8e-485c-bbc2-dd6970b4d26d","system_id":"levelo_inurba_marseille","lat":43.26196,"lon":5.37511,"is_reserved":false,"is_disabled":false,"rental_uris":{"android":"levelo://app?vid=a8827dfe-6a8e-485c-bbc2-dd6970b4d26d","ios":"levelo://app?vid=a8827dfe-6a8e-485c-bbc2-dd6970b4d26d"},"vehicle_type_id":"4","last_reported":1751008285,"current_range_meters":9200,"station_id":"","pricing_plan_id":"cebpf4jnsgd1na2vs0mg"},{"bike_id":"af1ba19a-81f2-45a3-9bbf-f0d74fa0eb75","system_id":"levelo_inurba_marseille","lat":43.31354,"lon":5.3671,"is_reserved":false,"is_disabled":false,"rental_uris":{"android":"levelo://app?vid=af1ba19a-81f2-45a3-9bbf-f0d74fa0eb75","ios":"levelo://app?vid=af1ba19a-81f2-45a3-9bbf-f0d74fa0eb75"},"vehicle_type_id":"4","last_reported":1751008285,"current_range_meters":9200,"station_id":"ce4bgr92rcd13ifvqc6g","pricing_plan_id":"cebpf4jnsgd1na2vs0mg"},{"bike_id":"10551629-f911-491f-b84a-db41f4f70b47","system_id":"levelo_inurba_marseille","lat":43.293335,"lon":5.388676,"is_reserved":false,"is_disabled":false,"rental_uris":{"android":"levelo://app?vid=10551629-f911-491f-b84a-db41f4f70b47","ios":"levelo://app?vid=10551629-f911-491f-b84a-db41f4f70b47"},"vehicle_type_id":"4","last_reported":1751008285,"current_range_meters":9200,"station_id":"ce4bh192rcd13ifvqdd0","pricing_plan_id":"cebpf4jnsgd1na2vs0mg"},{"bike_id":"c9233017-cd13-4c69-83a2-4d83e62c3873","system_id":"levelo_inurba_marseille","lat":43.24996,"lon":5.38935,"is_reserved":false,"is_disabled":false,"rental_uris":{"android":"levelo://app?vid=c9233017-cd13-4c69-83a2-4d83e62c3873","ios":"levelo://app?vid=c9233017-cd13-4c69-83a2-4d83e62c3873"},"vehicle_type_id":"4","last_reported":1751008285,"current_range_meters":9200,"station_id":"ce4bhgp2rcd13ifvqfd0","pricing_plan_id":"cebpf4jnsgd1na2vs0mg"},{"bike_id":"03b5348c-ee39-4d54-8f25-73a9c6bc36df","system_id":"levelo_inurba_marseille","lat":43.30365,"lon":5.4249,"is_reserved":false,"is_disabled":false,"rental_uris":{"android":"levelo://app?vid=03b5348c-ee39-4d54-8f25-73a9c6bc36df","ios":"levelo://app?vid=03b5348c-ee39-4d54-8f25-73a9c6bc36df"},"vehicle_type_id":"4","last_reported":1751008285,"current_range_meters":9200,"station_id":"ce4bhoh2rcd13ifvqh6g","pricing_plan_id":"cebpf4jnsgd1na2vs0mg"},{"bike_id":"b2f65b77-6c4d-463a-b12d-03ec0ed31397","system_id":"levelo_inurba_marseille","lat":43.21766,"lon":5.34597,"is_reserved":false,"is_disabled":false,"rental_uris":{"android":"levelo://app?vid=b2f65b77-6c4d-463a-b12d-03ec0ed31397","ios":"levelo://app?vid=b2f65b77-6c4d-463a-b12d-03ec0ed31397"},"vehicle_type_id":"4","last_reported":1751008285,"current_range_meters":9200,"station_id":"st_cvj6r9ubvosntc0bgbag","pricing_plan_id":"cebpf4jnsgd1na2vs0mg"},{"bike_id":"5371c9bc-3061-4745-8ac9-2fc5914ff687","system_id":"levelo_inurba_marseille","lat":43.249168,"lon":5.387327,"is_reserved":false,"is_disabled":false,"rental_uris":{"android":"levelo://app?vid=5371c9bc-3061-4745-8ac9-2fc5914ff687","ios":"levelo://app?vid=5371c9bc-3061-4745-8ac9-2fc5914ff687"},"vehicle_type_id":"4","last_reported":1751008285,"current_range_meters":9600,"station_id":"","pricing_plan_id":"cebpf4jnsgd1na2vs0mg"},{"bike_id":"b4f2b905-6273-4161-bdfd-356e8f69d331","system_id":"levelo_inurba_marseille","lat":43.305355,"lon":5.384338,"is_reserved":false,"is_disabled":false,"rental_uris":{"android":"levelo://app?vid=b4f2b905-6273-4161-bdfd-356e8f69d331","ios":"levelo://app?vid=b4f2b905-6273-4161-bdfd-356e8f69d331"},"vehicle_type_id":"4","last_reported":1751008285,"current_range_meters":9600,"station_id":"ce4bgg92rcd13ifvqb30","pricing_plan_id":"cebpf4jnsgd1na2vs0mg"},{"bike_id":"94e84186-d780-461a-b647-8d1cf3f036ad","system_id":"levelo_inurba_marseille","lat":43.31717,"lon":5.37715,"is_reserved":false,"is_disabled":false,"rental_uris":{"android":"levelo://app?vid=94e84186-d780-461a-b647-8d1cf3f036ad","ios":"levelo://app?vid=94e84186-d780-461a-b647-8d1cf3f036ad"},"vehicle_type_id":"4","last_reported":1751008285,"current_range_meters":9600,"station_id":"ce4bgth2rcd13ifvqch0","pricing_plan_id":"cebpf4jnsgd1na2vs0mg"},{"bike_id":"4483ad56-4f80-4d2b-9785-8ee8fe84f2f8","system_id":"levelo_inurba_marseille","lat":43.30278,"lon":5.37712,"is_reserved":false,"is_disabled":false,"rental_uris":{"android":"levelo://app?vid=4483ad56-4f80-4d2b-9785-8ee8fe84f2f8","ios":"levelo://app?vid=4483ad56-4f80-4d2b-9785-8ee8fe84f2f8"},"vehicle_type_id":"4","last_reported":1751008285,"current_range_meters":9600,"station_id":"ce4bguh2rcd13ifvqcj0","pricing_plan_id":"cebpf4jnsgd1na2vs0mg"},{"bike_id":"ece13c86-f651-4a50-adbd-677eff3dfa6a","system_id":"levelo_inurba_marseille","lat":43.29026,"lon":5.39974,"is_reserved":false,"is_disabled":false,"rental_uris":{"android":"levelo://app?vid=ece13c86-f651-4a50-adbd-677eff3dfa6a","ios":"levelo://app?vid=ece13c86-f651-4a50-adbd-677eff3dfa6a"},"vehicle_type_id":"4","last_reported":1751008285,"current_range_meters":9600,"station_id":"ce4bh392rcd13ifvqdm0","pricing_plan_id":"cebpf4jnsgd1na2vs0mg"},{"bike_id":"9ae469cc-56e7-4a21-afb2-cb749ff0e89f","system_id":"levelo_inurba_marseille","lat":43.2862,"lon":5.35104,"is_reserved":false,"is_disabled":false,"rental_uris":{"android":"levelo://app?vid=9ae469cc-56e7-4a21-afb2-cb749ff0e89f","ios":"levelo://app?vid=9ae469cc-56e7-4a21-afb2-cb749ff0e89f"},"vehicle_type_id":"4","last_reported":1751008285,"current_range_meters":9600,"station_id":"ce4bhch2rcd13ifvqeug","pricing_plan_id":"cebpf4jnsgd1na2vs0mg"},{"bike_id":"009395d9-20fd-43d7-baa7-245d1ccedbd0","system_id":"levelo_inurba_marseille","lat":43.25106,"lon":5.40321,"is_reserved":false,"is_disabled":false,"rental_uris":{"android":"levelo://app?vid=009395d9-20fd-43d7-baa7-245d1ccedbd0","ios":"levelo://app?vid=009395d9-20fd-43d7-baa7-245d1ccedbd0"},"vehicle_type_id":"4","last_reported":1751008285,"current_range_meters":9600,"station_id":"ce4bhlh2rcd13ifvqgig","pricing_plan_id":"cebpf4jnsgd1na2vs0mg"},{"bike_id":"69a9b7bf-69b2-47a2-8bc4-bb00821e8199","system_id":"levelo_inurba_marseille","lat":43.211886,"lon":5.350816,"is_reserved":false,"is_disabled":false,"rental_uris":{"android":"levelo://app?vid=69a9b7bf-69b2-47a2-8bc4-bb00821e8199","ios":"levelo://app?vid=69a9b7bf-69b2-47a2-8bc4-bb00821e8199"},"vehicle_type_id":"4","last_reported":1751008285,"current_range_meters":9600,"station_id":"st_cvj6sg6p6f1abm77japg","pricing_plan_id":"cebpf4jnsgd1na2vs0mg"},{"bike_id":"4b8da722-ee9e-48a4-a5e5-3a8a10364708","system_id":"levelo_inurba_marseille","lat":43.31218,"lon":5.37826,"is_reserved":false,"is_disabled":false,"rental_uris":{"android":"levelo://app?vid=4b8da722-ee9e-48a4-a5e5-3a8a10364708","ios":"levelo://app?vid=4b8da722-ee9e-48a4-a5e5-3a8a10364708"},"vehicle_type_id":"4","last_reported":1751008285,"current_range_meters":10000,"station_id":"","pricing_plan_id":"cebpf4jnsgd1na2vs0mg"},{"bike_id":"f15a2dd8-3329-4647-87f1-16eee51cf672","system_id":"levelo_inurba_marseille","lat":43.30542,"lon":5.38441,"is_reserved":false,"is_disabled":false,"rental_uris":{"android":"levelo://app?vid=f15a2dd8-3329-4647-87f1-16eee51cf672","ios":"levelo://app?vid=f15a2dd8-3329-4647-87f1-16eee51cf672"},"vehicle_type_id":"4","last_reported":1751008285,"current_range_meters":10000,"station_id":"ce4bgg92rcd13ifvqb30","pricing_plan_id":"cebpf4jnsgd1na2vs0mg"},{"bike_id":"d7fb52e7-923c-4cee-bfa7-08681c73fba2","system_id":"levelo_inurba_marseille","lat":43.24996,"lon":5.38923,"is_reserved":false,"is_disabled":false,"rental_uris":{"android":"levelo://app?vid=d7fb52e7-923c-4cee-bfa7-08681c73fba2","ios":"levelo://app?vid=d7fb52e7-923c-4cee-bfa7-08681c73fba2"},"vehicle_type_id":"4","last_reported":1751008285,"current_range_meters":10000,"station_id":"ce4bhgp2rcd13ifvqfd0","pricing_plan_id":"cebpf4jnsgd1na2vs0mg"},{"bike_id":"a9788619-98e9-4a7f-8e11-51219d142a63","system_id":"levelo_inurba_marseille","lat":43.3056,"lon":5.36527,"is_reserved":false,"is_disabled":false,"rental_uris":{"android":"levelo://app?vid=a9788619-98e9-4a7f-8e11-51219d142a63","ios":"levelo://app?vid=a9788619-98e9-4a7f-8e11-51219d142a63"},"vehicle_type_id":"4","last_reported":1751008285,"current_range_meters":10800,"station_id":"ce4bgs12rcd13ifvqcag","pricing_plan_id":"cebpf4jnsgd1na2vs0mg"},{"bike_id":"d2541864-294e-4fa8-8ed4-da3902bb58d5","system_id":"levelo_inurba_marseille","lat":43.229321,"lon":5.353761,"is_reserved":false,"is_disabled":false,"rental_uris":{"android":"levelo://app?vid=d2541864-294e-4fa8-8ed4-da3902bb58d5","ios":"levelo://app?vid=d2541864-294e-4fa8-8ed4-da3902bb58d5"},"vehicle_type_id":"4","last_reported":1751008285,"current_range_meters":10800,"station_id":"cpo3532slgdg3j2ikp40","pricing_plan_id":"cebpf4jnsgd1na2vs0mg"},{"bike_id":"38ee6c99-ed1c-4320-bb3c-b1d717388b30","system_id":"levelo_inurba_marseille","lat":43.229428,"lon":5.353979,"is_reserved":false,"is_disabled":false,"rental_uris":{"android":"levelo://app?vid=38ee6c99-ed1c-4320-bb3c-b1d717388b30","ios":"levelo://app?vid=38ee6c99-ed1c-4320-bb3c-b1d717388b30"},"vehicle_type_id":"4","last_reported":1751008285,"current_range_meters":10800,"station_id":"cpo3532slgdg3j2ikp40","pricing_plan_id":"cebpf4jnsgd1na2vs0mg"},{"bike_id":"6e333cad-8154-4d5d-9ce4-405ad8359f75","system_id":"levelo_inurba_marseille","lat":43.229339,"lon":5.353845,"is_reserved":false,"is_disabled":false,"rental_uris":{"android":"levelo://app?vid=6e333cad-8154-4d5d-9ce4-405ad8359f75","ios":"levelo://app?vid=6e333cad-8154-4d5d-9ce4-405ad8359f75"},"vehicle_type_id":"4","last_reported":1751008285,"current_range_meters":10800,"station_id":"cpo3532slgdg3j2ikp40","pricing_plan_id":"cebpf4jnsgd1na2vs0mg"},{"bike_id":"fffd8b4e-c29a-486c-a3c8-3e10dbe7db4f","system_id":"levelo_inurba_marseille","lat":43.32475,"lon":5.36564,"is_reserved":false,"is_disabled":false,"rental_uris":{"android":"levelo://app?vid=fffd8b4e-c29a-486c-a3c8-3e10dbe7db4f","ios":"levelo://app?vid=fffd8b4e-c29a-486c-a3c8-3e10dbe7db4f"},"vehicle_type_id":"4","last_reported":1751008285,"current_range_meters":11200,"station_id":"ce4bhs12rcd13ifvqhvg","pricing_plan_id":"cebpf4jnsgd1na2vs0mg"},{"bike_id":"08e40a95-5220-46f3-aef8-4bb428e0a4cc","system_id":"levelo_inurba_marseille","lat":43.30186,"lon":5.38026,"is_reserved":false,"is_disabled":false,"rental_uris":{"android":"levelo://app?vid=08e40a95-5220-46f3-aef8-4bb428e0a4cc","ios":"levelo://app?vid=08e40a95-5220-46f3-aef8-4bb428e0a4cc"},"vehicle_type_id":"4","last_reported":1751008285,"current_range_meters":11600,"station_id":"","pricing_plan_id":"cebpf4jnsgd1na2vs0mg"},{"bike_id":"bd357f89-27b2-4bc4-b14f-5ffc5df38d5f","system_id":"levelo_inurba_marseille","lat":43.31235,"lon":5.36849,"is_reserved":false,"is_disabled":false,"rental_uris":{"android":"levelo://app?vid=bd357f89-27b2-4bc4-b14f-5ffc5df38d5f","ios":"levelo://app?vid=bd357f89-27b2-4bc4-b14f-5ffc5df38d5f"},"vehicle_type_id":"4","last_reported":1751008285,"current_range_meters":11600,"station_id":"ce4bgl92rcd13ifvqbq0","pricing_plan_id":"cebpf4jnsgd1na2vs0mg"},{"bike_id":"c5177bfa-6994-4fc9-9acf-13a7b166bbd0","system_id":"levelo_inurba_marseille","lat":43.31734,"lon":5.40459,"is_reserved":false,"is_disabled":false,"rental_uris":{"android":"levelo://app?vid=c5177bfa-6994-4fc9-9acf-13a7b166bbd0","ios":"levelo://app?vid=c5177bfa-6994-4fc9-9acf-13a7b166bbd0"},"vehicle_type_id":"4","last_reported":1751008285,"current_range_meters":11600,"station_id":"ce4bh012rcd13ifvqd00","pricing_plan_id":"cebpf4jnsgd1na2vs0mg"},{"bike_id":"f36b80ee-9f4b-4c11-8c25-1ffba4463247","system_id":"levelo_inurba_marseille","lat":43.28674,"lon":5.38672,"is_reserved":false,"is_disabled":false,"rental_uris":{"android":"levelo://app?vid=f36b80ee-9f4b-4c11-8c25-1ffba4463247","ios":"levelo://app?vid=f36b80ee-9f4b-4c11-8c25-1ffba4463247"},"vehicle_type_id":"4","last_reported":1751008285,"current_range_meters":11600,"station_id":"ce4bh492rcd13ifvqdug","pricing_plan_id":"cebpf4jnsgd1na2vs0mg"},{"bike_id":"502d9e6e-6827-4f22-8dc0-9b8a38de8c25","system_id":"levelo_inurba_marseille","lat":43.292652,"lon":5.384368,"is_reserved":false,"is_disabled":false,"rental_uris":{"android":"levelo://app?vid=502d9e6e-6827-4f22-8dc0-9b8a38de8c25","ios":"levelo://app?vid=502d9e6e-6827-4f22-8dc0-9b8a38de8c25"},"vehicle_type_id":"4","last_reported":1751008285,"current_range_meters":11600,"station_id":"ce4bh692rcd13ifvqea0","pricing_plan_id":"cebpf4jnsgd1na2vs0mg"},{"bike_id":"6dc487ff-0425-4f5d-bd3a-aea32105bd8c","system_id":"levelo_inurba_marseille","lat":43.292679,"lon":5.368525,"is_reserved":false,"is_disabled":false,"rental_uris":{"android":"levelo://app?vid=6dc487ff-0425-4f5d-bd3a-aea32105bd8c","ios":"levelo://app?vid=6dc487ff-0425-4f5d-bd3a-aea32105bd8c"},"vehicle_type_id":"4","last_reported":1751008285,"current_range_meters":11600,"station_id":"ce4bhbp2rcd13ifvqesg","pricing_plan_id":"cebpf4jnsgd1na2vs0mg"},{"bike_id":"a87d2e08-b948-4111-b2a3-ff37a8b262c3","system_id":"levelo_inurba_marseille","lat":43.26682,"lon":5.38273,"is_reserved":false,"is_disabled":false,"rental_uris":{"android":"levelo://app?vid=a87d2e08-b948-4111-b2a3-ff37a8b262c3","ios":"levelo://app?vid=a87d2e08-b948-4111-b2a3-ff37a8b262c3"},"vehicle_type_id":"4","last_reported":1751008285,"current_range_meters":11600,"station_id":"ce4bhg92rcd13ifvqf90","pricing_plan_id":"cebpf4jnsgd1na2vs0mg"},{"bike_id":"f4a8ced0-f61b-47e5-a263-7db64c3728f7","system_id":"levelo_inurba_marseille","lat":43.25,"lon":5.38929,"is_reserved":false,"is_disabled":false,"rental_uris":{"android":"levelo://app?vid=f4a8ced0-f61b-47e5-a263-7db64c3728f7","ios":"levelo://app?vid=f4a8ced0-f61b-47e5-a263-7db64c3728f7"},"vehicle_type_id":"4","last_reported":1751008285,"current_range_meters":11600,"station_id":"ce4bhgp2rcd13ifvqfd0","pricing_plan_id":"cebpf4jnsgd1na2vs0mg"},{"bike_id":"76e91db4-090e-40b8-853a-e1856d0619f2","system_id":"levelo_inurba_marseille","lat":43.241768,"lon":5.397305,"is_reserved":false,"is_disabled":false,"rental_uris":{"android":"levelo://app?vid=76e91db4-090e-40b8-853a-e1856d0619f2","ios":"levelo://app?vid=76e91db4-090e-40b8-853a-e1856d0619f2"},"vehicle_type_id":"4","last_reported":1751008285,"current_range_meters":11600,"station_id":"ce4bhn12rcd13ifvqgpg","pricing_plan_id":"cebpf4jnsgd1na2vs0mg"},{"bike_id":"265d8c88-cfa8-489a-b231-fe990549cc70","system_id":"levelo_inurba_marseille","lat":43.32286,"lon":5.38262,"is_reserved":false,"is_disabled":false,"rental_uris":{"android":"levelo://app?vid=265d8c88-cfa8-489a-b231-fe990549cc70","ios":"levelo://app?vid=265d8c88-cfa8-489a-b231-fe990549cc70"},"vehicle_type_id":"4","last_reported":1751008285,"current_range_meters":11600,"station_id":"ce4bhr12rcd13ifvqhqg","pricing_plan_id":"cebpf4jnsgd1na2vs0mg"},{"bike_id":"b7d0d8a1-c5dd-4278-8b3b-f5786872fe32","system_id":"levelo_inurba_marseille","lat":43.320905,"lon":5.367625,"is_reserved":false,"is_disabled":false,"rental_uris":{"android":"levelo://app?vid=b7d0d8a1-c5dd-4278-8b3b-f5786872fe32","ios":"levelo://app?vid=b7d0d8a1-c5dd-4278-8b3b-f5786872fe32"},"vehicle_type_id":"4","last_reported":1751008285,"current_range_meters":11600,"station_id":"ce4bhrh2rcd13ifvqhug","pricing_plan_id":"cebpf4jnsgd1na2vs0mg"},{"bike_id":"277d6f3a-b9b5-4d88-bf0d-6c597782848e","system_id":"levelo_inurba_marseille","lat":43.231943,"lon":5.355551,"is_reserved":false,"is_disabled":false,"rental_uris":{"android":"levelo://app?vid=277d6f3a-b9b5-4d88-bf0d-6c597782848e","ios":"levelo://app?vid=277d6f3a-b9b5-4d88-bf0d-6c597782848e"},"vehicle_type_id":"4","last_reported":1751008285,"current_range_meters":11600,"station_id":"ce4bhu92rcd13ifvqi70","pricing_plan_id":"cebpf4jnsgd1na2vs0mg"},{"bike_id":"aeb0de9c-8bc2-4a20-a2a8-e415216b81a8","system_id":"levelo_inurba_marseille","lat":43.28961,"lon":5.35523,"is_reserved":false,"is_disabled":false,"rental_uris":{"android":"levelo://app?vid=aeb0de9c-8bc2-4a20-a2a8-e415216b81a8","ios":"levelo://app?vid=aeb0de9c-8bc2-4a20-a2a8-e415216b81a8"},"vehicle_type_id":"4","last_reported":1751008285,"current_range_meters":12000,"station_id":"","pricing_plan_id":"cebpf4jnsgd1na2vs0mg"},{"bike_id":"de34346d-3d4d-482e-bf81-fbd352668352","system_id":"levelo_inurba_marseille","lat":43.30912,"lon":5.36856,"is_reserved":false,"is_disabled":false,"rental_uris":{"android":"levelo://app?vid=de34346d-3d4d-482e-bf81-fbd352668352","ios":"levelo://app?vid=de34346d-3d4d-482e-bf81-fbd352668352"},"vehicle_type_id":"4","last_reported":1751008285,"current_range_meters":12000,"station_id":"ce4bgn92rcd13ifvqbvg","pricing_plan_id":"cebpf4jnsgd1na2vs0mg"},{"bike_id":"1b068c7f-9b8c-47c9-b9a6-8c4d6f0b607d","system_id":"levelo_inurba_marseille","lat":43.29573,"lon":5.39983,"is_reserved":false,"is_disabled":false,"rental_uris":{"android":"levelo://app?vid=1b068c7f-9b8c-47c9-b9a6-8c4d6f0b607d","ios":"levelo://app?vid=1b068c7f-9b8c-47c9-b9a6-8c4d6f0b607d"},"vehicle_type_id":"4","last_reported":1751008285,"current_range_meters":12000,"station_id":"ce4bh312rcd13ifvqdj0","pricing_plan_id":"cebpf4jnsgd1na2vs0mg"},{"bike_id":"3404729a-7540-4ff7-94b5-a8f3e98a161f","system_id":"levelo_inurba_marseille","lat":43.27907,"lon":5.38019,"is_reserved":false,"is_disabled":false,"rental_uris":{"android":"levelo://app?vid=3404729a-7540-4ff7-94b5-a8f3e98a161f","ios":"levelo://app?vid=3404729a-7540-4ff7-94b5-a8f3e98a161f"},"vehicle_type_id":"4","last_reported":1751008285,"current_range_meters":12000,"station_id":"ce4bhf92rcd13ifvqf50","pricing_plan_id":"cebpf4jnsgd1na2vs0mg"},{"bike_id":"a162a594-1892-4135-8cfb-b08b7437ab12","system_id":"levelo_inurba_marseille","lat":43.31525,"lon":5.38056,"is_reserved":false,"is_disabled":false,"rental_uris":{"android":"levelo://app?vid=a162a594-1892-4135-8cfb-b08b7437ab12","ios":"levelo://app?vid=a162a594-1892-4135-8cfb-b08b7437ab12"},"vehicle_type_id":"4","last_reported":1751008285,"current_range_meters":12000,"station_id":"ce4bhsp2rcd13ifvqi50","pricing_plan_id":"cebpf4jnsgd1na2vs0mg"},{"bike_id":"ab875138-c754-4b3b-82d7-2da5a11b45cf","system_id":"levelo_inurba_marseille","lat":43.217535,"lon":5.345915,"is_reserved":false,"is_disabled":false,"rental_uris":{"android":"levelo://app?vid=ab875138-c754-4b3b-82d7-2da5a11b45cf","ios":"levelo://app?vid=ab875138-c754-4b3b-82d7-2da5a11b45cf"},"vehicle_type_id":"4","last_reported":1751008285,"current_range_meters":12000,"station_id":"st_cvj6r9ubvosntc0bgbag","pricing_plan_id":"cebpf4jnsgd1na2vs0mg"},{"bike_id":"27fda73d-ecf8-479a-a5f9-9bb6563c8086","system_id":"levelo_inurba_marseille","lat":43.321121,"lon":5.367906,"is_reserved":false,"is_disabled":false,"rental_uris":{"android":"levelo://app?vid=27fda73d-ecf8-479a-a5f9-9bb6563c8086","ios":"levelo://app?vid=27fda73d-ecf8-479a-a5f9-9bb6563c8086"},"vehicle_type_id":"4","last_reported":1751008285,"current_range_meters":12400,"station_id":"ce4bhrh2rcd13ifvqhug","pricing_plan_id":"cebpf4jnsgd1na2vs0mg"},{"bike_id":"d93518a7-acea-49d1-8b1d-66917831e25a","system_id":"levelo_inurba_marseille","lat":43.28363,"lon":5.39575,"is_reserved":false,"is_disabled":false,"rental_uris":{"android":"levelo://app?vid=d93518a7-acea-49d1-8b1d-66917831e25a","ios":"levelo://app?vid=d93518a7-acea-49d1-8b1d-66917831e25a"},"vehicle_type_id":"4","last_reported":1751008285,"current_range_meters":12800,"station_id":"","pricing_plan_id":"cebpf4jnsgd1na2vs0mg"},{"bike_id":"7bd50861-db40-4187-b251-a758e4f552ed","system_id":"levelo_inurba_marseille","lat":43.24087,"lon":5.37753,"is_reserved":false,"is_disabled":false,"rental_uris":{"android":"levelo://app?vid=7bd50861-db40-4187-b251-a758e4f552ed","ios":"levelo://app?vid=7bd50861-db40-4187-b251-a758e4f552ed"},"vehicle_type_id":"4","last_reported":1751008285,"current_range_meters":12800,"station_id":"ce4bhnp2rcd13ifvqgvg","pricing_plan_id":"cebpf4jnsgd1na2vs0mg"},{"bike_id":"e29d8ad8-9715-46e4-9991-43c9092253e4","system_id":"levelo_inurba_marseille","lat":43.27937,"lon":5.41043,"is_reserved":false,"is_disabled":false,"rental_uris":{"android":"levelo://app?vid=e29d8ad8-9715-46e4-9991-43c9092253e4","ios":"levelo://app?vid=e29d8ad8-9715-46e4-9991-43c9092253e4"},"vehicle_type_id":"4","last_reported":1751008285,"current_range_meters":12800,"station_id":"ce4bhnp2rcd13ifvqh0g","pricing_plan_id":"cebpf4jnsgd1na2vs0mg"},{"bike_id":"a440f2f6-8cf8-4348-9ba1-e21002a18a07","system_id":"levelo_inurba_marseille","lat":43.32117,"lon":5.36792,"is_reserved":false,"is_disabled":false,"rental_uris":{"android":"levelo://app?vid=a440f2f6-8cf8-4348-9ba1-e21002a18a07","ios":"levelo://app?vid=a440f2f6-8cf8-4348-9ba1-e21002a18a07"},"vehicle_type_id":"4","last_reported":1751008285,"current_range_meters":12800,"station_id":"ce4bhrh2rcd13ifvqhug","pricing_plan_id":"cebpf4jnsgd1na2vs0mg"},{"bike_id":"348936c8-7c8d-4b8a-988e-b0a979920804","system_id":"levelo_inurba_marseille","lat":43.21199,"lon":5.35067,"is_reserved":false,"is_disabled":false,"rental_uris":{"android":"levelo://app?vid=348936c8-7c8d-4b8a-988e-b0a979920804","ios":"levelo://app?vid=348936c8-7c8d-4b8a-988e-b0a979920804"},"vehicle_type_id":"4","last_reported":1751008285,"current_range_meters":12800,"station_id":"st_cvj6sg6p6f1abm77japg","pricing_plan_id":"cebpf4jnsgd1na2vs0mg"},{"bike_id":"b8954a9f-7ce8-456c-a0b7-ca33c9473361","system_id":"levelo_inurba_marseille","lat":43.31984,"lon":5.38107,"is_reserved":false,"is_disabled":false,"rental_uris":{"android":"levelo://app?vid=b8954a9f-7ce8-456c-a0b7-ca33c9473361","ios":"levelo://app?vid=b8954a9f-7ce8-456c-a0b7-ca33c9473361"},"vehicle_type_id":"4","last_reported":1751008285,"current_range_meters":13600,"station_id":"","pricing_plan_id":"cebpf4jnsgd1na2vs0mg"},{"bike_id":"677c78ce-3460-4eef-a82f-58efe72fef03","system_id":"levelo_inurba_marseille","lat":43.29771,"lon":5.3709,"is_reserved":false,"is_disabled":false,"rental_uris":{"android":"levelo://app?vid=677c78ce-3460-4eef-a82f-58efe72fef03","ios":"levelo://app?vid=677c78ce-3460-4eef-a82f-58efe72fef03"},"vehicle_type_id":"4","last_reported":1751008285,"current_range_meters":13600,"station_id":"ce4bgop2rcd13ifvqc1g","pricing_plan_id":"cebpf4jnsgd1na2vs0mg"},{"bike_id":"b4278742-7cee-4bb0-92d3-c5cce8debcd1","system_id":"levelo_inurba_marseille","lat":43.30134,"lon":5.37415,"is_reserved":false,"is_disabled":false,"rental_uris":{"android":"levelo://app?vid=b4278742-7cee-4bb0-92d3-c5cce8debcd1","ios":"levelo://app?vid=b4278742-7cee-4bb0-92d3-c5cce8debcd1"},"vehicle_type_id":"4","last_reported":1751008285,"current_range_meters":13600,"station_id":"ce4bgs92rcd13ifvqcc0","pricing_plan_id":"cebpf4jnsgd1na2vs0mg"},{"bike_id":"7f5d0d2d-50d9-4026-8ca7-9da04e153b9b","system_id":"levelo_inurba_marseille","lat":43.26677,"lon":5.38291,"is_reserved":false,"is_disabled":false,"rental_uris":{"android":"levelo://app?vid=7f5d0d2d-50d9-4026-8ca7-9da04e153b9b","ios":"levelo://app?vid=7f5d0d2d-50d9-4026-8ca7-9da04e153b9b"},"vehicle_type_id":"4","last_reported":1751008285,"current_range_meters":13600,"station_id":"ce4bhg92rcd13ifvqf90","pricing_plan_id":"cebpf4jnsgd1na2vs0mg"},{"bike_id":"87af0b52-e1e5-4839-be7d-804961070197","system_id":"levelo_inurba_marseille","lat":43.27069,"lon":5.42243,"is_reserved":false,"is_disabled":false,"rental_uris":{"android":"levelo://app?vid=87af0b52-e1e5-4839-be7d-804961070197","ios":"levelo://app?vid=87af0b52-e1e5-4839-be7d-804961070197"},"vehicle_type_id":"4","last_reported":1751008285,"current_range_meters":13600,"station_id":"ce4bhk92rcd13ifvqgb0","pricing_plan_id":"cebpf4jnsgd1na2vs0mg"},{"bike_id":"1c8ab180-05fd-405f-9922-b2b2c2d5142f","system_id":"levelo_inurba_marseille","lat":43.32113,"lon":5.36776,"is_reserved":false,"is_disabled":false,"rental_uris":{"android":"levelo://app?vid=1c8ab180-05fd-405f-9922-b2b2c2d5142f","ios":"levelo://app?vid=1c8ab180-05fd-405f-9922-b2b2c2d5142f"},"vehicle_type_id":"4","last_reported":1751008285,"current_range_meters":13600,"station_id":"ce4bhrh2rcd13ifvqhug","pricing_plan_id":"cebpf4jnsgd1na2vs0mg"},{"bike_id":"3f2e5038-cd5f-466d-9578-2783163f088e","system_id":"levelo_inurba_marseille","lat":43.32117,"lon":5.36768,"is_reserved":false,"is_disabled":false,"rental_uris":{"android":"levelo://app?vid=3f2e5038-cd5f-466d-9578-2783163f088e","ios":"levelo://app?vid=3f2e5038-cd5f-466d-9578-2783163f088e"},"vehicle_type_id":"4","last_reported":1751008285,"current_range_meters":13600,"station_id":"ce4bhrh2rcd13ifvqhug","pricing_plan_id":"cebpf4jnsgd1na2vs0mg"},{"bike_id":"28088631-91f6-4679-9cfa-4602908b7642","system_id":"levelo_inurba_marseille","lat":43.31357,"lon":5.36726,"is_reserved":false,"is_disabled":false,"rental_uris":{"android":"levelo://app?vid=28088631-91f6-4679-9cfa-4602908b7642","ios":"levelo://app?vid=28088631-91f6-4679-9cfa-4602908b7642"},"vehicle_type_id":"4","last_reported":1751008285,"current_range_meters":14000,"station_id":"ce4bgr92rcd13ifvqc6g","pricing_plan_id":"cebpf4jnsgd1na2vs0mg"},{"bike_id":"70891058-531a-4818-bcfa-5f4f26f1e918","system_id":"levelo_inurba_marseille","lat":43.25936,"lon":5.40912,"is_reserved":false,"is_disabled":false,"rental_uris":{"android":"levelo://app?vid=70891058-531a-4818-bcfa-5f4f26f1e918","ios":"levelo://app?vid=70891058-531a-4818-bcfa-5f4f26f1e918"},"vehicle_type_id":"4","last_reported":1751008285,"current_range_meters":14000,"station_id":"ce4bhm92rcd13ifvqglg","pricing_plan_id":"cebpf4jnsgd1na2vs0mg"},{"bike_id":"91aeba14-3aa9-4096-b109-f078ae211c7a","system_id":"levelo_inurba_marseille","lat":43.30151,"lon":5.3809,"is_reserved":false,"is_disabled":false,"rental_uris":{"android":"levelo://app?vid=91aeba14-3aa9-4096-b109-f078ae211c7a","ios":"levelo://app?vid=91aeba14-3aa9-4096-b109-f078ae211c7a"},"vehicle_type_id":"4","last_reported":1751008285,"current_range_meters":14400,"station_id":"ce4bgjp2rcd13ifvqbh0","pricing_plan_id":"cebpf4jnsgd1na2vs0mg"},{"bike_id":"61b49229-59bb-4ac4-8b3d-637d0f18333f","system_id":"levelo_inurba_marseille","lat":43.26192,"lon":5.37909,"is_reserved":false,"is_disabled":false,"rental_uris":{"android":"levelo://app?vid=61b49229-59bb-4ac4-8b3d-637d0f18333f","ios":"levelo://app?vid=61b49229-59bb-4ac4-8b3d-637d0f18333f"},"vehicle_type_id":"4","last_reported":1751008285,"current_range_meters":14400,"station_id":"ce4bhjp2rcd13ifvqg90","pricing_plan_id":"cebpf4jnsgd1na2vs0mg"},{"bike_id":"104d9a39-d4fe-4577-bd3e-dfa2a6c208e7","system_id":"levelo_inurba_marseille","lat":43.2721,"lon":5.40988,"is_reserved":false,"is_disabled":false,"rental_uris":{"android":"levelo://app?vid=104d9a39-d4fe-4577-bd3e-dfa2a6c208e7","ios":"levelo://app?vid=104d9a39-d4fe-4577-bd3e-dfa2a6c208e7"},"vehicle_type_id":"4","last_reported":1751008285,"current_range_meters":14400,"station_id":"ce4bhl12rcd13ifvqgf0","pricing_plan_id":"cebpf4jnsgd1na2vs0mg"},{"bike_id":"4e8bdfb4-f0e2-4fad-8dff-84fadc0d58be","system_id":"levelo_inurba_marseille","lat":43.29305,"lon":5.37456,"is_reserved":false,"is_disabled":false,"rental_uris":{"android":"levelo://app?vid=4e8bdfb4-f0e2-4fad-8dff-84fadc0d58be","ios":"levelo://app?vid=4e8bdfb4-f0e2-4fad-8dff-84fadc0d58be"},"vehicle_type_id":"4","last_reported":1751008285,"current_range_meters":14800,"station_id":"ce4bgi12rcd13ifvqb70","pricing_plan_id":"cebpf4jnsgd1na2vs0mg"},{"bike_id":"b8094826-a7d8-439e-81ea-79ce926552e6","system_id":"levelo_inurba_marseille","lat":43.30908,"lon":5.36841,"is_reserved":false,"is_disabled":false,"rental_uris":{"android":"levelo://app?vid=b8094826-a7d8-439e-81ea-79ce926552e6","ios":"levelo://app?vid=b8094826-a7d8-439e-81ea-79ce926552e6"},"vehicle_type_id":"4","last_reported":1751008285,"current_range_meters":14800,"station_id":"ce4bgn92rcd13ifvqbvg","pricing_plan_id":"cebpf4jnsgd1na2vs0mg"},{"bike_id":"4680b3e2-9e9c-40d4-8e0d-f060fdcf1d41","system_id":"levelo_inurba_marseille","lat":43.3012,"lon":5.3742,"is_reserved":false,"is_disabled":false,"rental_uris":{"android":"levelo://app?vid=4680b3e2-9e9c-40d4-8e0d-f060fdcf1d41","ios":"levelo://app?vid=4680b3e2-9e9c-40d4-8e0d-f060fdcf1d41"},"vehicle_type_id":"4","last_reported":1751008285,"current_range_meters":14800,"station_id":"ce4bgs92rcd13ifvqcc0","pricing_plan_id":"cebpf4jnsgd1na2vs0mg"},{"bike_id":"4dd8b835-f458-4116-a59d-47d62d0b6a24","system_id":"levelo_inurba_marseille","lat":43.31279,"lon":5.40167,"is_reserved":false,"is_disabled":false,"rental_uris":{"android":"levelo://app?vid=4dd8b835-f458-4116-a59d-47d62d0b6a24","ios":"levelo://app?vid=4dd8b835-f458-4116-a59d-47d62d0b6a24"},"vehicle_type_id":"4","last_reported":1751008285,"current_range_meters":14800,"station_id":"ce4bh092rcd13ifvqd30","pricing_plan_id":"cebpf4jnsgd1na2vs0mg"},{"bike_id":"e5ae1fdd-ad1c-4e69-ac70-f715e6402e6b","system_id":"levelo_inurba_marseille","lat":43.277347,"lon":5.398724,"is_reserved":false,"is_disabled":false,"rental_uris":{"android":"levelo://app?vid=e5ae1fdd-ad1c-4e69-ac70-f715e6402e6b","ios":"levelo://app?vid=e5ae1fdd-ad1c-4e69-ac70-f715e6402e6b"},"vehicle_type_id":"4","last_reported":1751008285,"current_range_meters":15200,"station_id":"","pricing_plan_id":"cebpf4jnsgd1na2vs0mg"},{"bike_id":"5a01ae6d-9064-484c-8d77-2d9e141e2313","system_id":"levelo_inurba_marseille","lat":43.24477,"lon":5.39009,"is_reserved":false,"is_disabled":false,"rental_uris":{"android":"levelo://app?vid=5a01ae6d-9064-484c-8d77-2d9e141e2313","ios":"levelo://app?vid=5a01ae6d-9064-484c-8d77-2d9e141e2313"},"vehicle_type_id":"4","last_reported":1751008285,"current_range_meters":15200,"station_id":"","pricing_plan_id":"cebpf4jnsgd1na2vs0mg"},{"bike_id":"ad31fae6-4da4-4b6b-8844-651d9203a873","system_id":"levelo_inurba_marseille","lat":43.30917,"lon":5.36862,"is_reserved":false,"is_disabled":false,"rental_uris":{"android":"levelo://app?vid=ad31fae6-4da4-4b6b-8844-651d9203a873","ios":"levelo://app?vid=ad31fae6-4da4-4b6b-8844-651d9203a873"},"vehicle_type_id":"4","last_reported":1751008285,"current_range_meters":15200,"station_id":"ce4bgn92rcd13ifvqbvg","pricing_plan_id":"cebpf4jnsgd1na2vs0mg"},{"bike_id":"10d6cd07-b09d-4977-8a68-35ded481e21c","system_id":"levelo_inurba_marseille","lat":43.26929,"lon":5.38926,"is_reserved":false,"is_disabled":false,"rental_uris":{"android":"levelo://app?vid=10d6cd07-b09d-4977-8a68-35ded481e21c","ios":"levelo://app?vid=10d6cd07-b09d-4977-8a68-35ded481e21c"},"vehicle_type_id":"4","last_reported":1751008285,"current_range_meters":15200,"station_id":"ce4bhhh2rcd13ifvqfl0","pricing_plan_id":"cebpf4jnsgd1na2vs0mg"},{"bike_id":"db50fffa-258c-449c-a603-dbd1384192dd","system_id":"levelo_inurba_marseille","lat":43.27836,"lon":5.39215,"is_reserved":false,"is_disabled":false,"rental_uris":{"android":"levelo://app?vid=db50fffa-258c-449c-a603-dbd1384192dd","ios":"levelo://app?vid=db50fffa-258c-449c-a603-dbd1384192dd"},"vehicle_type_id":"4","last_reported":1751008285,"current_range_meters":15200,"station_id":"ce4bhjp2rcd13ifvqga0","pricing_plan_id":"cebpf4jnsgd1na2vs0mg"},{"bike_id":"bb69c1e1-7084-4be7-966a-57a7bcdfcb6c","system_id":"levelo_inurba_marseille","lat":43.2462,"lon":5.41616,"is_reserved":false,"is_disabled":false,"rental_uris":{"android":"levelo://app?vid=bb69c1e1-7084-4be7-966a-57a7bcdfcb6c","ios":"levelo://app?vid=bb69c1e1-7084-4be7-966a-57a7bcdfcb6c"},"vehicle_type_id":"4","last_reported":1751008285,"current_range_meters":16000,"station_id":"","pricing_plan_id":"cebpf4jnsgd1na2vs0mg"},{"bike_id":"cefc4803-4bc8-49e1-b0ee-01e83e6bf58d","system_id":"levelo_inurba_marseille","lat":43.30532,"lon":5.3843,"is_reserved":false,"is_disabled":false,"rental_uris":{"android":"levelo://app?vid=cefc4803-4bc8-49e1-b0ee-01e83e6bf58d","ios":"levelo://app?vid=cefc4803-4bc8-49e1-b0ee-01e83e6bf58d"},"vehicle_type_id":"4","last_reported":1751008285,"current_range_meters":16000,"station_id":"ce4bgg92rcd13ifvqb30","pricing_plan_id":"cebpf4jnsgd1na2vs0mg"},{"bike_id":"813a10b9-97b0-47ba-ac76-065bf3d0a85e","system_id":"levelo_inurba_marseille","lat":43.312146,"lon":5.368175,"is_reserved":false,"is_disabled":false,"rental_uris":{"android":"levelo://app?vid=813a10b9-97b0-47ba-ac76-065bf3d0a85e","ios":"levelo://app?vid=813a10b9-97b0-47ba-ac76-065bf3d0a85e"},"vehicle_type_id":"4","last_reported":1751008285,"current_range_meters":16000,"station_id":"ce4bgl92rcd13ifvqbq0","pricing_plan_id":"cebpf4jnsgd1na2vs0mg"},{"bike_id":"b58df8d7-f48b-4514-85ba-5e3f93999bd6","system_id":"levelo_inurba_marseille","lat":43.31701,"lon":5.37803,"is_reserved":false,"is_disabled":false,"rental_uris":{"android":"levelo://app?vid=b58df8d7-f48b-4514-85ba-5e3f93999bd6","ios":"levelo://app?vid=b58df8d7-f48b-4514-85ba-5e3f93999bd6"},"vehicle_type_id":"4","last_reported":1751008285,"current_range_meters":16000,"station_id":"ce4bgth2rcd13ifvqch0","pricing_plan_id":"cebpf4jnsgd1na2vs0mg"},{"bike_id":"50d3c4c6-3325-4cfa-ab9d-16355ff02c2a","system_id":"levelo_inurba_marseille","lat":43.292802,"lon":5.401122,"is_reserved":false,"is_disabled":false,"rental_uris":{"android":"levelo://app?vid=50d3c4c6-3325-4cfa-ab9d-16355ff02c2a","ios":"levelo://app?vid=50d3c4c6-3325-4cfa-ab9d-16355ff02c2a"},"vehicle_type_id":"4","last_reported":1751008285,"current_range_meters":16000,"station_id":"ce4bh312rcd13ifvqdk0","pricing_plan_id":"cebpf4jnsgd1na2vs0mg"},{"bike_id":"f129fa92-190c-47d3-bca3-83cc448b457b","system_id":"levelo_inurba_marseille","lat":43.28096,"lon":5.37844,"is_reserved":false,"is_disabled":false,"rental_uris":{"android":"levelo://app?vid=f129fa92-190c-47d3-bca3-83cc448b457b","ios":"levelo://app?vid=f129fa92-190c-47d3-bca3-83cc448b457b"},"vehicle_type_id":"4","last_reported":1751008285,"current_range_meters":16000,"station_id":"ce4bha12rcd13ifvqee0","pricing_plan_id":"cebpf4jnsgd1na2vs0mg"},{"bike_id":"15d128bd-cfe4-4fde-84e3-861a91e21785","system_id":"levelo_inurba_marseille","lat":43.33722,"lon":5.39182,"is_reserved":false,"is_disabled":false,"rental_uris":{"android":"levelo://app?vid=15d128bd-cfe4-4fde-84e3-861a91e21785","ios":"levelo://app?vid=15d128bd-cfe4-4fde-84e3-861a91e21785"},"vehicle_type_id":"4","last_reported":1751008285,"current_range_meters":16000,"station_id":"ce4bhr92rcd13ifvqhsg","pricing_plan_id":"cebpf4jnsgd1na2vs0mg"},{"bike_id":"46fc1da8-b21e-49ec-9f51-bd3892d403d9","system_id":"levelo_inurba_marseille","lat":43.24187,"lon":5.36377,"is_reserved":false,"is_disabled":false,"rental_uris":{"android":"levelo://app?vid=46fc1da8-b21e-49ec-9f51-bd3892d403d9","ios":"levelo://app?vid=46fc1da8-b21e-49ec-9f51-bd3892d403d9"},"vehicle_type_id":"4","last_reported":1751008285,"current_range_meters":16000,"station_id":"cpo36qri1sfpv3e86is0","pricing_plan_id":"cebpf4jnsgd1na2vs0mg"},{"bike_id":"e3aa9769-07bd-40fc-b1ee-9cc66211ab32","system_id":"levelo_inurba_marseille","lat":43.33765,"lon":5.37429,"is_reserved":false,"is_disabled":false,"rental_uris":{"android":"levelo://app?vid=e3aa9769-07bd-40fc-b1ee-9cc66211ab32","ios":"levelo://app?vid=e3aa9769-07bd-40fc-b1ee-9cc66211ab32"},"vehicle_type_id":"4","last_reported":1751008285,"current_range_meters":16400,"station_id":"","pricing_plan_id":"cebpf4jnsgd1na2vs0mg"},{"bike_id":"141c1452-8d18-4b22-b991-6f0f413a5ac8","system_id":"levelo_inurba_marseille","lat":43.29074,"lon":5.37168,"is_reserved":false,"is_disabled":false,"rental_uris":{"android":"levelo://app?vid=141c1452-8d18-4b22-b991-6f0f413a5ac8","ios":"levelo://app?vid=141c1452-8d18-4b22-b991-6f0f413a5ac8"},"vehicle_type_id":"4","last_reported":1751008285,"current_range_meters":16400,"station_id":"ce4bh5p2rcd13ifvqe4g","pricing_plan_id":"cebpf4jnsgd1na2vs0mg"},{"bike_id":"21babc29-7299-4fce-915d-9a91d3b42f4f","system_id":"levelo_inurba_marseille","lat":43.24391,"lon":5.37066,"is_reserved":false,"is_disabled":false,"rental_uris":{"android":"levelo://app?vid=21babc29-7299-4fce-915d-9a91d3b42f4f","ios":"levelo://app?vid=21babc29-7299-4fce-915d-9a91d3b42f4f"},"vehicle_type_id":"4","last_reported":1751008285,"current_range_meters":16400,"station_id":"ce4bhhh2rcd13ifvqfk0","pricing_plan_id":"cebpf4jnsgd1na2vs0mg"},{"bike_id":"a522d619-f4ee-42ab-97a1-2363e9142654","system_id":"levelo_inurba_marseille","lat":43.24385,"lon":5.37065,"is_reserved":false,"is_disabled":false,"rental_uris":{"android":"levelo://app?vid=a522d619-f4ee-42ab-97a1-2363e9142654","ios":"levelo://app?vid=a522d619-f4ee-42ab-97a1-2363e9142654"},"vehicle_type_id":"4","last_reported":1751008285,"current_range_meters":16400,"station_id":"ce4bhhh2rcd13ifvqfk0","pricing_plan_id":"cebpf4jnsgd1na2vs0mg"},{"bike_id":"68561858-944b-4741-9947-820d92bac007","system_id":"levelo_inurba_marseille","lat":43.30474,"lon":5.37913,"is_reserved":false,"is_disabled":false,"rental_uris":{"android":"levelo://app?vid=68561858-944b-4741-9947-820d92bac007","ios":"levelo://app?vid=68561858-944b-4741-9947-820d92bac007"},"vehicle_type_id":"4","last_reported":1751008285,"current_range_meters":16800,"station_id":"ce4bgup2rcd13ifvqcn0","pricing_plan_id":"cebpf4jnsgd1na2vs0mg"},{"bike_id":"2b3bafa5-3b63-40dc-930a-5966ca32b39b","system_id":"levelo_inurba_marseille","lat":43.24995,"lon":5.38913,"is_reserved":false,"is_disabled":false,"rental_uris":{"android":"levelo://app?vid=2b3bafa5-3b63-40dc-930a-5966ca32b39b","ios":"levelo://app?vid=2b3bafa5-3b63-40dc-930a-5966ca32b39b"},"vehicle_type_id":"4","last_reported":1751008285,"current_range_meters":16800,"station_id":"ce4bhgp2rcd13ifvqfd0","pricing_plan_id":"cebpf4jnsgd1na2vs0mg"},{"bike_id":"facfcf93-ab85-4d16-b148-8bc9369e6f17","system_id":"levelo_inurba_marseille","lat":43.211953,"lon":5.350715,"is_reserved":false,"is_disabled":false,"rental_uris":{"android":"levelo://app?vid=facfcf93-ab85-4d16-b148-8bc9369e6f17","ios":"levelo://app?vid=facfcf93-ab85-4d16-b148-8bc9369e6f17"},"vehicle_type_id":"4","last_reported":1751008285,"current_range_meters":16800,"station_id":"st_cvj6sg6p6f1abm77japg","pricing_plan_id":"cebpf4jnsgd1na2vs0mg"},{"bike_id":"f0057ca2-de2d-4464-8902-068dc3677e00","system_id":"levelo_inurba_marseille","lat":43.211938,"lon":5.350723,"is_reserved":false,"is_disabled":false,"rental_uris":{"android":"levelo://app?vid=f0057ca2-de2d-4464-8902-068dc3677e00","ios":"levelo://app?vid=f0057ca2-de2d-4464-8902-068dc3677e00"},"vehicle_type_id":"4","last_reported":1751008285,"current_range_meters":16800,"station_id":"st_cvj6sg6p6f1abm77japg","pricing_plan_id":"cebpf4jnsgd1na2vs0mg"},{"bike_id":"e6ce70f7-9138-485c-a4db-2c9174614cff","system_id":"levelo_inurba_marseille","lat":43.31776,"lon":5.3689,"is_reserved":false,"is_disabled":false,"rental_uris":{"android":"levelo://app?vid=e6ce70f7-9138-485c-a4db-2c9174614cff","ios":"levelo://app?vid=e6ce70f7-9138-485c-a4db-2c9174614cff"},"vehicle_type_id":"4","last_reported":1751008285,"current_range_meters":17200,"station_id":"","pricing_plan_id":"cebpf4jnsgd1na2vs0mg"},{"bike_id":"28d3b597-796e-42c3-8380-ed79e16f1d7f","system_id":"levelo_inurba_marseille","lat":43.29608,"lon":5.42184,"is_reserved":false,"is_disabled":false,"rental_uris":{"android":"levelo://app?vid=28d3b597-796e-42c3-8380-ed79e16f1d7f","ios":"levelo://app?vid=28d3b597-796e-42c3-8380-ed79e16f1d7f"},"vehicle_type_id":"4","last_reported":1751008285,"current_range_meters":17200,"station_id":"","pricing_plan_id":"cebpf4jnsgd1na2vs0mg"},{"bike_id":"1bb45745-2381-4516-bb5c-dd2059f72883","system_id":"levelo_inurba_marseille","lat":43.31313,"lon":5.40188,"is_reserved":false,"is_disabled":false,"rental_uris":{"android":"levelo://app?vid=1bb45745-2381-4516-bb5c-dd2059f72883","ios":"levelo://app?vid=1bb45745-2381-4516-bb5c-dd2059f72883"},"vehicle_type_id":"4","last_reported":1751008285,"current_range_meters":17200,"station_id":"ce4bh092rcd13ifvqd30","pricing_plan_id":"cebpf4jnsgd1na2vs0mg"},{"bike_id":"a2a77698-b9bc-4f96-83a9-97a8d75bac6a","system_id":"levelo_inurba_marseille","lat":43.25713,"lon":5.41127,"is_reserved":false,"is_disabled":false,"rental_uris":{"android":"levelo://app?vid=a2a77698-b9bc-4f96-83a9-97a8d75bac6a","ios":"levelo://app?vid=a2a77698-b9bc-4f96-83a9-97a8d75bac6a"},"vehicle_type_id":"4","last_reported":1751008285,"current_range_meters":17200,"station_id":"ce4bhkp2rcd13ifvqgd0","pricing_plan_id":"cebpf4jnsgd1na2vs0mg"},{"bike_id":"57d6eb9e-33e5-482e-9465-914c364d7397","system_id":"levelo_inurba_marseille","lat":43.32284,"lon":5.38276,"is_reserved":false,"is_disabled":false,"rental_uris":{"android":"levelo://app?vid=57d6eb9e-33e5-482e-9465-914c364d7397","ios":"levelo://app?vid=57d6eb9e-33e5-482e-9465-914c364d7397"},"vehicle_type_id":"4","last_reported":1751008285,"current_range_meters":17200,"station_id":"ce4bhr12rcd13ifvqhqg","pricing_plan_id":"cebpf4jnsgd1na2vs0mg"},{"bike_id":"1b39abf9-3a3f-4d80-915b-22905554f4a6","system_id":"levelo_inurba_marseille","lat":43.30118,"lon":5.36426,"is_reserved":false,"is_disabled":false,"rental_uris":{"android":"levelo://app?vid=1b39abf9-3a3f-4d80-915b-22905554f4a6","ios":"levelo://app?vid=1b39abf9-3a3f-4d80-915b-22905554f4a6"},"vehicle_type_id":"4","last_reported":1751008285,"current_range_meters":17600,"station_id":"","pricing_plan_id":"cebpf4jnsgd1na2vs0mg"},{"bike_id":"494d5dcf-d1d0-47d0-965e-962e16507e42","system_id":"levelo_inurba_marseille","lat":43.30542,"lon":5.38405,"is_reserved":false,"is_disabled":false,"rental_uris":{"android":"levelo://app?vid=494d5dcf-d1d0-47d0-965e-962e16507e42","ios":"levelo://app?vid=494d5dcf-d1d0-47d0-965e-962e16507e42"},"vehicle_type_id":"4","last_reported":1751008285,"current_range_meters":17600,"station_id":"ce4bgg92rcd13ifvqb30","pricing_plan_id":"cebpf4jnsgd1na2vs0mg"},{"bike_id":"d1ff490d-28c6-4db3-81ad-124ac78e5076","system_id":"levelo_inurba_marseille","lat":43.25729,"lon":5.41105,"is_reserved":false,"is_disabled":false,"rental_uris":{"android":"levelo://app?vid=d1ff490d-28c6-4db3-81ad-124ac78e5076","ios":"levelo://app?vid=d1ff490d-28c6-4db3-81ad-124ac78e5076"},"vehicle_type_id":"4","last_reported":1751008285,"current_range_meters":17600,"station_id":"ce4bhkp2rcd13ifvqgd0","pricing_plan_id":"cebpf4jnsgd1na2vs0mg"},{"bike_id":"935c8062-ae25-46e0-901d-4b81929b99b7","system_id":"levelo_inurba_marseille","lat":43.217456,"lon":5.346088,"is_reserved":false,"is_disabled":false,"rental_uris":{"android":"levelo://app?vid=935c8062-ae25-46e0-901d-4b81929b99b7","ios":"levelo://app?vid=935c8062-ae25-46e0-901d-4b81929b99b7"},"vehicle_type_id":"4","last_reported":1751008285,"current_range_meters":17600,"station_id":"st_cvj6r9ubvosntc0bgbag","pricing_plan_id":"cebpf4jnsgd1na2vs0mg"},{"bike_id":"1a23948e-522f-4e95-8795-c2eaa1af670a","system_id":"levelo_inurba_marseille","lat":43.28128,"lon":5.39847,"is_reserved":false,"is_disabled":false,"rental_uris":{"android":"levelo://app?vid=1a23948e-522f-4e95-8795-c2eaa1af670a","ios":"levelo://app?vid=1a23948e-522f-4e95-8795-c2eaa1af670a"},"vehicle_type_id":"4","last_reported":1751008285,"current_range_meters":18000,"station_id":"","pricing_plan_id":"cebpf4jnsgd1na2vs0mg"},{"bike_id":"9fd15b51-c27a-4a76-996a-644caac9cee1","system_id":"levelo_inurba_marseille","lat":43.299134,"lon":5.400635,"is_reserved":false,"is_disabled":false,"rental_uris":{"android":"levelo://app?vid=9fd15b51-c27a-4a76-996a-644caac9cee1","ios":"levelo://app?vid=9fd15b51-c27a-4a76-996a-644caac9cee1"},"vehicle_type_id":"4","last_reported":1751008285,"current_range_meters":18000,"station_id":"","pricing_plan_id":"cebpf4jnsgd1na2vs0mg"},{"bike_id":"815201a7-dbbe-4827-ab77-bd49f80ea5ee","system_id":"levelo_inurba_marseille","lat":43.29739,"lon":5.4599,"is_reserved":false,"is_disabled":false,"rental_uris":{"android":"levelo://app?vid=815201a7-dbbe-4827-ab77-bd49f80ea5ee","ios":"levelo://app?vid=815201a7-dbbe-4827-ab77-bd49f80ea5ee"},"vehicle_type_id":"4","last_reported":1751008285,"current_range_meters":18000,"station_id":"","pricing_plan_id":"cebpf4jnsgd1na2vs0mg"},{"bike_id":"0cc0ec0e-d4d6-4a3d-b9d4-e3ec038af02e","system_id":"levelo_inurba_marseille","lat":43.30137,"lon":5.38076,"is_reserved":false,"is_disabled":false,"rental_uris":{"android":"levelo://app?vid=0cc0ec0e-d4d6-4a3d-b9d4-e3ec038af02e","ios":"levelo://app?vid=0cc0ec0e-d4d6-4a3d-b9d4-e3ec038af02e"},"vehicle_type_id":"4","last_reported":1751008285,"current_range_meters":18000,"station_id":"ce4bgjp2rcd13ifvqbh0","pricing_plan_id":"cebpf4jnsgd1na2vs0mg"},{"bike_id":"7b9561a3-f7ea-4a59-9836-27499b8951c1","system_id":"levelo_inurba_marseille","lat":43.30947,"lon":5.39046,"is_reserved":false,"is_disabled":false,"rental_uris":{"android":"levelo://app?vid=7b9561a3-f7ea-4a59-9836-27499b8951c1","ios":"levelo://app?vid=7b9561a3-f7ea-4a59-9836-27499b8951c1"},"vehicle_type_id":"4","last_reported":1751008285,"current_range_meters":18000,"station_id":"ce4bgup2rcd13ifvqco0","pricing_plan_id":"cebpf4jnsgd1na2vs0mg"},{"bike_id":"1b798512-0bd2-485a-bc34-58ae3fa913b5","system_id":"levelo_inurba_marseille","lat":43.26223,"lon":5.37453,"is_reserved":false,"is_disabled":false,"rental_uris":{"android":"levelo://app?vid=1b798512-0bd2-485a-bc34-58ae3fa913b5","ios":"levelo://app?vid=1b798512-0bd2-485a-bc34-58ae3fa913b5"},"vehicle_type_id":"4","last_reported":1751008285,"current_range_meters":18000,"station_id":"ce4bhgp2rcd13ifvqfc0","pricing_plan_id":"cebpf4jnsgd1na2vs0mg"},{"bike_id":"7cd226de-db4a-453b-8c0d-718a3a5dc987","system_id":"levelo_inurba_marseille","lat":43.25939,"lon":5.40897,"is_reserved":false,"is_disabled":false,"rental_uris":{"android":"levelo://app?vid=7cd226de-db4a-453b-8c0d-718a3a5dc987","ios":"levelo://app?vid=7cd226de-db4a-453b-8c0d-718a3a5dc987"},"vehicle_type_id":"4","last_reported":1751008285,"current_range_meters":18000,"station_id":"ce4bhm92rcd13ifvqglg","pricing_plan_id":"cebpf4jnsgd1na2vs0mg"},{"bike_id":"6fe24f7c-7869-48ec-b7da-d8eb471bab12","system_id":"levelo_inurba_marseille","lat":43.30527,"lon":5.38413,"is_reserved":false,"is_disabled":false,"rental_uris":{"android":"levelo://app?vid=6fe24f7c-7869-48ec-b7da-d8eb471bab12","ios":"levelo://app?vid=6fe24f7c-7869-48ec-b7da-d8eb471bab12"},"vehicle_type_id":"4","last_reported":1751008285,"current_range_meters":18800,"station_id":"ce4bgg92rcd13ifvqb30","pricing_plan_id":"cebpf4jnsgd1na2vs0mg"},{"bike_id":"a8156b53-afee-43f4-803c-de26c85a00a6","system_id":"levelo_inurba_marseille","lat":43.30468,"lon":5.37901,"is_reserved":false,"is_disabled":false,"rental_uris":{"android":"levelo://app?vid=a8156b53-afee-43f4-803c-de26c85a00a6","ios":"levelo://app?vid=a8156b53-afee-43f4-803c-de26c85a00a6"},"vehicle_type_id":"4","last_reported":1751008285,"current_range_meters":18800,"station_id":"ce4bgup2rcd13ifvqcn0","pricing_plan_id":"cebpf4jnsgd1na2vs0mg"},{"bike_id":"c35aa7a6-a20a-410d-9ec5-ee53979f91a0","system_id":"levelo_inurba_marseille","lat":43.269538,"lon":5.38636,"is_reserved":false,"is_disabled":false,"rental_uris":{"android":"levelo://app?vid=c35aa7a6-a20a-410d-9ec5-ee53979f91a0","ios":"levelo://app?vid=c35aa7a6-a20a-410d-9ec5-ee53979f91a0"},"vehicle_type_id":"4","last_reported":1751008285,"current_range_meters":18800,"station_id":"ce4bhg92rcd13ifvqf90","pricing_plan_id":"cebpf4jnsgd1na2vs0mg"},{"bike_id":"f30d9ad2-f633-4991-a3c0-3db896f8b4a2","system_id":"levelo_inurba_marseille","lat":43.27326,"lon":5.39088,"is_reserved":false,"is_disabled":false,"rental_uris":{"android":"levelo://app?vid=f30d9ad2-f633-4991-a3c0-3db896f8b4a2","ios":"levelo://app?vid=f30d9ad2-f633-4991-a3c0-3db896f8b4a2"},"vehicle_type_id":"4","last_reported":1751008285,"current_range_meters":18800,"station_id":"ce4bhgp2rcd13ifvqfe0","pricing_plan_id":"cebpf4jnsgd1na2vs0mg"},{"bike_id":"9c007d2b-99e0-4469-ba73-06c57adc38c5","system_id":"levelo_inurba_marseille","lat":43.25937,"lon":5.40891,"is_reserved":false,"is_disabled":false,"rental_uris":{"android":"levelo://app?vid=9c007d2b-99e0-4469-ba73-06c57adc38c5","ios":"levelo://app?vid=9c007d2b-99e0-4469-ba73-06c57adc38c5"},"vehicle_type_id":"4","last_reported":1751008285,"current_range_meters":18800,"station_id":"ce4bhm92rcd13ifvqglg","pricing_plan_id":"cebpf4jnsgd1na2vs0mg"},{"bike_id":"682141d1-75d6-4c6a-8ef5-a4a71ea61b17","system_id":"levelo_inurba_marseille","lat":43.330243,"lon":5.390368,"is_reserved":false,"is_disabled":false,"rental_uris":{"android":"levelo://app?vid=682141d1-75d6-4c6a-8ef5-a4a71ea61b17","ios":"levelo://app?vid=682141d1-75d6-4c6a-8ef5-a4a71ea61b17"},"vehicle_type_id":"4","last_reported":1751008285,"current_range_meters":18800,"station_id":"ce4bhr92rcd13ifvqhrg","pricing_plan_id":"cebpf4jnsgd1na2vs0mg"},{"bike_id":"68ba553f-21c6-4e54-95b0-38cf227ee3c9","system_id":"levelo_inurba_marseille","lat":43.262498,"lon":5.401533,"is_reserved":false,"is_disabled":false,"rental_uris":{"android":"levelo://app?vid=68ba553f-21c6-4e54-95b0-38cf227ee3c9","ios":"levelo://app?vid=68ba553f-21c6-4e54-95b0-38cf227ee3c9"},"vehicle_type_id":"4","last_reported":1751008285,"current_range_meters":19200,"station_id":"","pricing_plan_id":"cebpf4jnsgd1na2vs0mg"},{"bike_id":"221d21df-e3aa-4d81-82d1-a7775e65f5df","system_id":"levelo_inurba_marseille","lat":43.301387,"lon":5.380655,"is_reserved":false,"is_disabled":false,"rental_uris":{"android":"levelo://app?vid=221d21df-e3aa-4d81-82d1-a7775e65f5df","ios":"levelo://app?vid=221d21df-e3aa-4d81-82d1-a7775e65f5df"},"vehicle_type_id":"4","last_reported":1751008285,"current_range_meters":19200,"station_id":"","pricing_plan_id":"cebpf4jnsgd1na2vs0mg"},{"bike_id":"721165c1-ef6f-40cc-8d33-af3a7999864b","system_id":"levelo_inurba_marseille","lat":43.32738,"lon":5.37946,"is_reserved":false,"is_disabled":false,"rental_uris":{"android":"levelo://app?vid=721165c1-ef6f-40cc-8d33-af3a7999864b","ios":"levelo://app?vid=721165c1-ef6f-40cc-8d33-af3a7999864b"},"vehicle_type_id":"4","last_reported":1751008285,"current_range_meters":19200,"station_id":"","pricing_plan_id":"cebpf4jnsgd1na2vs0mg"},{"bike_id":"f96d55ff-617b-4b2b-a82b-14787e65c285","system_id":"levelo_inurba_marseille","lat":43.30485,"lon":5.37903,"is_reserved":false,"is_disabled":false,"rental_uris":{"android":"levelo://app?vid=f96d55ff-617b-4b2b-a82b-14787e65c285","ios":"levelo://app?vid=f96d55ff-617b-4b2b-a82b-14787e65c285"},"vehicle_type_id":"4","last_reported":1751008285,"current_range_meters":19200,"station_id":"ce4bgup2rcd13ifvqcn0","pricing_plan_id":"cebpf4jnsgd1na2vs0mg"},{"bike_id":"bdd6ac82-fdce-4217-91ef-2112eedadc36","system_id":"levelo_inurba_marseille","lat":43.28486,"lon":5.38424,"is_reserved":false,"is_disabled":false,"rental_uris":{"android":"levelo://app?vid=bdd6ac82-fdce-4217-91ef-2112eedadc36","ios":"levelo://app?vid=bdd6ac82-fdce-4217-91ef-2112eedadc36"},"vehicle_type_id":"4","last_reported":1751008285,"current_range_meters":19200,"station_id":"ce4bh512rcd13ifvqe3g","pricing_plan_id":"cebpf4jnsgd1na2vs0mg"},{"bike_id":"81115363-d7ba-42ce-969b-a1d7ad97fa06","system_id":"levelo_inurba_marseille","lat":43.33712,"lon":5.39189,"is_reserved":false,"is_disabled":false,"rental_uris":{"android":"levelo://app?vid=81115363-d7ba-42ce-969b-a1d7ad97fa06","ios":"levelo://app?vid=81115363-d7ba-42ce-969b-a1d7ad97fa06"},"vehicle_type_id":"4","last_reported":1751008285,"current_range_meters":19200,"station_id":"ce4bhr92rcd13ifvqhsg","pricing_plan_id":"cebpf4jnsgd1na2vs0mg"},{"bike_id":"87266b58-02c1-43ad-8d7c-67f8303b1381","system_id":"levelo_inurba_marseille","lat":43.324823,"lon":5.365717,"is_reserved":false,"is_disabled":false,"rental_uris":{"android":"levelo://app?vid=87266b58-02c1-43ad-8d7c-67f8303b1381","ios":"levelo://app?vid=87266b58-02c1-43ad-8d7c-67f8303b1381"},"vehicle_type_id":"4","last_reported":1751008285,"current_range_meters":19200,"station_id":"ce4bhs12rcd13ifvqhvg","pricing_plan_id":"cebpf4jnsgd1na2vs0mg"},