{"last_updated":1739221724,"ttl":60,"version":"2.2","data":{"bikes":[{"bike_id":"5cda301b-bce8-41d3-abea-2e981f99524e","system_id":"levelo_inurba_marseille","lat":43.2983,"lon":5.36329,"is_reserved":false,"is_disabled":false,"rental_uris":{"android":"levelo://app?vid=5cda301b-bce8-41d3-abea-2e981f99524e","ios":"levelo://app?vid=5cda301b-bce8-41d3-abea-2e981f99524e"},"vehicle_type_id":"4","last_reported":1739221724,"current_range_meters":28000,"station_id":"ce4bgpp2rcd13ifvqc3g","pricing_plan_id":"cebpf4jnsgd1na2vs0mg"},{"bike_id":"6bebc4c8-69ea-4172-940f-fcdebdb6f8aa","system_id":"levelo_inurba_marseille","lat":43.29254,"lon":5.38395,"is_reserved":false,"is_disabled":false,"rental_uris":{"android":"levelo://app?vid=6bebc4c8-69ea-4172-940f-fcdebdb6f8aa","ios":"levelo://app?vid=6bebc4c8-69ea-4172-940f-fcdebdb6f8aa"},"vehicle_type_id":"4","last_reported":1739221724,"current_range_meters":32400,"station_id":"ce4bh692rcd13ifvqea0","pricing_plan_id":"cebpf4jnsgd1na2vs0mg"},{"bike_id":"e7d8ed8c-85a3-44c3-8805-56fbe310205d","system_id":"levelo_inurba_marseille","lat":43.28413,"lon":5.37485,"is_reserved":false,"is_disabled":false,"rental_uris":{"android":"levelo://app?vid=e7d8ed8c-85a3-44c3-8805-56fbe310205d","ios":"levelo://app?vid=e7d8ed8c-85a3-44c3-8805-56fbe310205d"},"vehicle_type_id":"4","last_reported":1739221724,"current_range_meters":37600,"station_id":"ce4bh412rcd13ifvqds0","pricing_plan_id":"cebpf4jnsgd1na2vs0mg"},{"bike_id":"b068362a-3288-489d-9388-78d1aec4149d","system_id":"levelo_inurba_marseille","lat":43.26564,"lon":5.38993,"is_reserved":false,"is_disabled":false,"rental_uris":{"android":"levelo://app?vid=b068362a-3288-489d-9388-78d1aec4149d","ios":"levelo://app?vid=b068362a-3288-489d-9388-78d1aec4149d"},"vehicle_type_id":"4","last_reported":1739221724,"current_range_meters":38800,"station_id":"ce4bhe12rcd13ifvqf30","pricing_plan_id":"cebpf4jnsgd1na2vs0mg"},{"bike_id":"aea22414-8882-4231-a807-5a523523cb10","system_id":"levelo_inurba_marseille","lat":43.28915,"lon":5.38415,"is_reserved":false,"is_disabled":false,"rental_uris":{"android":"levelo://app?vid=aea22414-8882-4231-a807-5a523523cb10","ios":"levelo://app?vid=aea22414-8882-4231-a807-5a523523cb10"},"vehicle_type_id":"4","last_reported":1739221724,"current_range_meters":38000,"station_id":"ce4bh612rcd13ifvqe6g","pricing_plan_id":"cebpf4jnsgd1na2vs0mg"},{"bike_id":"a0dd54ee-e890-4da0-a7d9-a7f80b816a23","system_id":"levelo_inurba_marseille","lat":43.27997,"lon":5.41669,"is_reserved":false,"is_disabled":false,"rental_uris":{"android":"levelo://app?vid=a0dd54ee-e890-4da0-a7d9-a7f80b816a23","ios":"levelo://app?vid=a0dd54ee-e890-4da0-a7d9-a7f80b816a23"},"vehicle_type_id":"4","last_reported":1739221724,"current_range_meters":36400,"station_id":"ce4bho12rcd13ifvqh1g","pricing_plan_id":"cebpf4jnsgd1na2vs0mg"},{"bike_id":"1e432c46-6902-4068-bc83-c8d18cce47cc","system_id":"levelo_inurba_marseille","lat":43.260571,"lon":5.393888,"is_reserved":false,"is_disabled":false,"rental_uris":{"android":"levelo://app?vid=1e432c46-6902-4068-bc83-c8d18cce47cc","ios":"levelo://app?vid=1e432c46-6902-4068-bc83-c8d18cce47cc"},"vehicle_type_id":"4","last_reported":1739221724,"current_range_meters":38800,"station_id":"ce4bhh92rcd13ifvqfj0","pricing_plan_id":"cebpf4jnsgd1na2vs0mg"},{"bike_id":"e2bb75ff-cce2-4717-a340-856c347dcb42","system_id":"levelo_inurba_marseille","lat":43.30472,"lon":5.37922,"is_reserved":false,"is_disabled":false,"rental_uris":{"android":"levelo://app?vid=e2bb75ff-cce2-4717-a340-856c347dcb42","ios":"levelo://app?vid=e2bb75ff-cce2-4717-a340-856c347dcb42"},"vehicle_type_id":"4","last_reported":1739221724,"current_range_meters":36400,"station_id":"ce4bgup2rcd13ifvqcn0","pricing_plan_id":"cebpf4jnsgd1na2vs0mg"},{"bike_id":"3887b386-3ca2-4422-b535-49b5419b189a","system_id":"levelo_inurba_marseille","lat":43.2835,"lon":5.38107,"is_reserved":false,"is_disabled":false,"rental_uris":{"android":"levelo://app?vid=3887b386-3ca2-4422-b535-49b5419b189a","ios":"levelo://app?vid=3887b386-3ca2-4422-b535-49b5419b189a"},"vehicle_type_id":"4","last_reported":1739221724,"current_range_meters":31200,"station_id":"ce4bh412rcd13ifvqdr0","pricing_plan_id":"cebpf4jnsgd1na2vs0mg"},{"bike_id":"ff82ee3e-6927-4929-9ab9-69d9ba0b2981","system_id":"levelo_inurba_marseille","lat":43.27942,"lon":5.41042,"is_reserved":false,"is_disabled":true,"rental_uris":{"android":"levelo://app?vid=ff82ee3e-6927-4929-9ab9-69d9ba0b2981","ios":"levelo://app?vid=ff82ee3e-6927-4929-9ab9-69d9ba0b2981"},"vehicle_type_id":"4","last_reported":1739221724,"current_range_meters":0,"station_id":"ce4bhnp2rcd13ifvqh0g","pricing_plan_id":"cebpf4jnsgd1na2vs0mg"},{"bike_id":"acfa6e83-9dec-41be-a012-0d6b6130d9d9","system_id":"levelo_inurba_marseille","lat":43.3112,"lon":5.37769,"is_reserved":false,"is_disabled":false,"rental_uris":{"android":"levelo://app?vid=acfa6e83-9dec-41be-a012-0d6b6130d9d9","ios":"levelo://app?vid=acfa6e83-9dec-41be-a012-0d6b6130d9d9"},"vehicle_type_id":"4","last_reported":1739221724,"current_range_meters":35200,"station_id":"ce4bgt92rcd13ifvqcg0","pricing_plan_id":"cebpf4jnsgd1na2vs0mg"},{"bike_id":"b4ad1114-6670-433a-b10e-39de272543b1","system_id":"levelo_inurba_marseille","lat":43.30126,"lon":5.39843,"is_reserved":false,"is_disabled":false,"rental_uris":{"android":"levelo://app?vid=b4ad1114-6670-433a-b10e-39de272543b1","ios":"levelo://app?vid=b4ad1114-6670-433a-b10e-39de272543b1"},"vehicle_type_id":"4","last_reported":1739221724,"current_range_meters":17600,"station_id":"ce4bh0h2rcd13ifvqd40","pricing_plan_id":"cebpf4jnsgd1na2vs0mg"},{"bike_id":"6137e2b6-9f28-4b0a-8923-7198ab8d9ffc","system_id":"levelo_inurba_marseille","lat":43.29037,"lon":5.38607,"is_reserved":false,"is_disabled":false,"rental_uris":{"android":"levelo://app?vid=6137e2b6-9f28-4b0a-8923-7198ab8d9ffc","ios":"levelo://app?vid=6137e2b6-9f28-4b0a-8923-7198ab8d9ffc"},"vehicle_type_id":"4","last_reported":1739221724,"current_range_meters":23200,"station_id":"ce4bh4p2rcd13ifvqe0g","pricing_plan_id":"cebpf4jnsgd1na2vs0mg"},{"bike_id":"6bd428a5-feea-4bd8-8317-4bf65413ce8e","system_id":"levelo_inurba_marseille","lat":43.28463,"lon":5.35878,"is_reserved":false,"is_disabled":false,"rental_uris":{"android":"levelo://app?vid=6bd428a5-feea-4bd8-8317-4bf65413ce8e","ios":"levelo://app?vid=6bd428a5-feea-4bd8-8317-4bf65413ce8e"},"vehicle_type_id":"4","last_reported":1739221724,"current_range_meters":20800,"station_id":"ce4bhah2rcd13ifvqei0","pricing_plan_id":"cebpf4jnsgd1na2vs0mg"},{"bike_id":"783ee94b-6044-42f0-85b3-7d1aca1b3d61","system_id":"levelo_inurba_marseille","lat":43.29582,"lon":5.37499,"is_reserved":false,"is_disabled":true,"rental_uris":{"android":"levelo://app?vid=783ee94b-6044-42f0-85b3-7d1aca1b3d61","ios":"levelo://app?vid=783ee94b-6044-42f0-85b3-7d1aca1b3d61"},"vehicle_type_id":"4","last_reported":1739221724,"current_range_meters":23200,"station_id":"ce4bgh92rcd13ifvqb50","pricing_plan_id":"cebpf4jnsgd1na2vs0mg"},{"bike_id":"fc63d1c6-39db-42fc-a5f0-8ec761e9b064","system_id":"levelo_inurba_marseille","lat":43.3171,"lon":5.4048,"is_reserved":false,"is_disabled":false,"rental_uris":{"android":"levelo://app?vid=fc63d1c6-39db-42fc-a5f0-8ec761e9b064","ios":"levelo://app?vid=fc63d1c6-39db-42fc-a5f0-8ec761e9b064"},"vehicle_type_id":"4","last_reported":1739221724,"current_range_meters":39200,"station_id":"ce4bh012rcd13ifvqd00","pricing_plan_id":"cebpf4jnsgd1na2vs0mg"},{"bike_id":"9e4564f0-0519-46c9-beea-73f529a3ce6a","system_id":"levelo_inurba_marseille","lat":43.248,"lon":5.3746,"is_reserved":false,"is_disabled":false,"rental_uris":{"android":"levelo://app?vid=9e4564f0-0519-46c9-beea-73f529a3ce6a","ios":"levelo://app?vid=9e4564f0-0519-46c9-beea-73f529a3ce6a"},"vehicle_type_id":"4","last_reported":1739221724,"current_range_meters":36400,"station_id":"ce4bhgh2rcd13ifvqfb0","pricing_plan_id":"cebpf4jnsgd1na2vs0mg"},{"bike_id":"c06e4f36-e54b-428e-ae8e-e2084d39a4ca","system_id":"levelo_inurba_marseille","lat":43.30104,"lon":5.39084,"is_reserved":false,"is_disabled":false,"rental_uris":{"android":"levelo://app?vid=c06e4f36-e54b-428e-ae8e-e2084d39a4ca","ios":"levelo://app?vid=c06e4f36-e54b-428e-ae8e-e2084d39a4ca"},"vehicle_type_id":"4","last_reported":1739221724,"current_range_meters":27600,"station_id":"ce4bh192rcd13ifvqdb0","pricing_plan_id":"cebpf4jnsgd1na2vs0mg"},{"bike_id":"4fec62a4-5d14-461f-a07c-ceeb3a48fbed","system_id":"levelo_inurba_marseille","lat":43.31058,"lon":5.38299,"is_reserved":false,"is_disabled":false,"rental_uris":{"android":"levelo://app?vid=4fec62a4-5d14-461f-a07c-ceeb3a48fbed","ios":"levelo://app?vid=4fec62a4-5d14-461f-a07c-ceeb3a48fbed"},"vehicle_type_id":"4","last_reported":1739221724,"current_range_meters":38800,"station_id":"","pricing_plan_id":"cebpf4jnsgd1na2vs0mg"},{"bike_id":"072d3ca1-ecff-4f62-b448-9bece6c27d45","system_id":"levelo_inurba_marseille","lat":43.30894,"lon":5.39632,"is_reserved":false,"is_disabled":false,"rental_uris":{"android":"levelo://app?vid=072d3ca1-ecff-4f62-b448-9bece6c27d45","ios":"levelo://app?vid=072d3ca1-ecff-4f62-b448-9bece6c27d45"},"vehicle_type_id":"4","last_reported":1739221724,"current_range_meters":38800,"station_id":"ce4bh012rcd13ifvqcv0","pricing_plan_id":"cebpf4jnsgd1na2vs0mg"},{"bike_id":"ab859326-8c26-4d6c-a7c6-3f98b177784c","system_id":"levelo_inurba_marseille","lat":43.27065,"lon":5.42291,"is_reserved":false,"is_disabled":false,"rental_uris":{"android":"levelo://app?vid=ab859326-8c26-4d6c-a7c6-3f98b177784c","ios":"levelo://app?vid=ab859326-8c26-4d6c-a7c6-3f98b177784c"},"vehicle_type_id":"4","last_reported":1739221724,"current_range_meters":38800,"station_id":"ce4bhk92rcd13ifvqgb0","pricing_plan_id":"cebpf4jnsgd1na2vs0mg"},{"bike_id":"111672d5-ab51-46ac-b98d-b7bc77f4bbf9","system_id":"levelo_inurba_marseille","lat":43.28104,"lon":5.39621,"is_reserved":false,"is_disabled":false,"rental_uris":{"android":"levelo://app?vid=111672d5-ab51-46ac-b98d-b7bc77f4bbf9","ios":"levelo://app?vid=111672d5-ab51-46ac-b98d-b7bc77f4bbf9"},"vehicle_type_id":"4","last_reported":1739221724,"current_range_meters":34000,"station_id":"ce4bho12rcd13ifvqh2g","pricing_plan_id":"cebpf4jnsgd1na2vs0mg"},{"bike_id":"8e7ce03c-394f-4066-aafd-5b16027f082f","system_id":"levelo_inurba_marseille","lat":43.28356,"lon":5.38124,"is_reserved":false,"is_disabled":false,"rental_uris":{"android":"levelo://app?vid=8e7ce03c-394f-4066-aafd-5b16027f082f","ios":"levelo://app?vid=8e7ce03c-394f-4066-aafd-5b16027f082f"},"vehicle_type_id":"4","last_reported":1739221724,"current_range_meters":38000,"station_id":"ce4bh412rcd13ifvqdr0","pricing_plan_id":"cebpf4jnsgd1na2vs0mg"},{"bike_id":"7d18835e-2bb6-48d1-a917-dddfd83c7562","system_id":"levelo_inurba_marseille","lat":43.29364,"lon":5.37837,"is_reserved":false,"is_disabled":false,"rental_uris":{"android":"levelo://app?vid=7d18835e-2bb6-48d1-a917-dddfd83c7562","ios":"levelo://app?vid=7d18835e-2bb6-48d1-a917-dddfd83c7562"},"vehicle_type_id":"4","last_reported":1739221724,"current_range_meters":26000,"station_id":"ce4bgjh2rcd13ifvqbf0","pricing_plan_id":"cebpf4jnsgd1na2vs0mg"},{"bike_id":"6803ddfa-d502-42a2-ad93-8e0a9a783768","system_id":"levelo_inurba_marseille","lat":43.26033,"lon":5.37544,"is_reserved":false,"is_disabled":false,"rental_uris":{"android":"levelo://app?vid=6803ddfa-d502-42a2-ad93-8e0a9a783768","ios":"levelo://app?vid=6803ddfa-d502-42a2-ad93-8e0a9a783768"},"vehicle_type_id":"4","last_reported":1739221724,"current_range_meters":23200,"station_id":"ce4bhgh2rcd13ifvqfa0","pricing_plan_id":"cebpf4jnsgd1na2vs0mg"},{"bike_id":"ec577290-415e-4adf-bee8-70a702854fd7","system_id":"levelo_inurba_marseille","lat":43.28457,"lon":5.359,"is_reserved":false,"is_disabled":false,"rental_uris":{"android":"levelo://app?vid=ec577290-415e-4adf-bee8-70a702854fd7","ios":"levelo://app?vid=ec577290-415e-4adf-bee8-70a702854fd7"},"vehicle_type_id":"4","last_reported":1739221724,"current_range_meters":38800,"station_id":"ce4bhah2rcd13ifvqei0","pricing_plan_id":"cebpf4jnsgd1na2vs0mg"},{"bike_id":"e1a1cb17-6051-49c6-8a5e-b8f5a47c715d","system_id":"levelo_inurba_marseille","lat":43.28857,"lon":5.35849,"is_reserved":false,"is_disabled":false,"rental_uris":{"android":"levelo://app?vid=e1a1cb17-6051-49c6-8a5e-b8f5a47c715d","ios":"levelo://app?vid=e1a1cb17-6051-49c6-8a5e-b8f5a47c715d"},"vehicle_type_id":"4","last_reported":1739221724,"current_range_meters":19200,"station_id":"ce4bhb12rcd13ifvqem0","pricing_plan_id":"cebpf4jnsgd1na2vs0mg"},{"bike_id":"f798cbc4-a869-471f-bce8-f64397eebe81","system_id":"levelo_inurba_marseille","lat":43.23966,"lon":5.36612,"is_reserved":false,"is_disabled":false,"rental_uris":{"android":"levelo://app?vid=f798cbc4-a869-471f-bce8-f64397eebe81","ios":"levelo://app?vid=f798cbc4-a869-471f-bce8-f64397eebe81"},"vehicle_type_id":"4","last_reported":1739221724,"current_range_meters":24800,"station_id":"ce4bhi12rcd13ifvqfp0","pricing_plan_id":"cebpf4jnsgd1na2vs0mg"},{"bike_id":"264b25e9-1248-43d8-81fd-7c8e7aeaf427","system_id":"levelo_inurba_marseille","lat":43.29582,"lon":5.37507,"is_reserved":false,"is_disabled":false,"rental_uris":{"android":"levelo://app?vid=264b25e9-1248-43d8-81fd-7c8e7aeaf427","ios":"levelo://app?vid=264b25e9-1248-43d8-81fd-7c8e7aeaf427"},"vehicle_type_id":"4","last_reported":1739221724,"current_range_meters":30000,"station_id":"ce4bgh92rcd13ifvqb50","pricing_plan_id":"cebpf4jnsgd1na2vs0mg"},{"bike_id":"67fb0221-0f3c-44e3-8ac0-5b796de6981d","system_id":"levelo_inurba_marseille","lat":43.31321,"lon":5.39711,"is_reserved":false,"is_disabled":false,"rental_uris":{"android":"levelo://app?vid=67fb0221-0f3c-44e3-8ac0-5b796de6981d","ios":"levelo://app?vid=67fb0221-0f3c-44e3-8ac0-5b796de6981d"},"vehicle_type_id":"4","last_reported":1739221724,"current_range_meters":38800,"station_id":"ce4bgvp2rcd13ifvqcu0","pricing_plan_id":"cebpf4jnsgd1na2vs0mg"},{"bike_id":"82432e1b-c28c-4f7d-a515-670f97b6b6c0","system_id":"levelo_inurba_marseille","lat":43.29037,"lon":5.39955,"is_reserved":false,"is_disabled":false,"rental_uris":{"android":"levelo://app?vid=82432e1b-c28c-4f7d-a515-670f97b6b6c0","ios":"levelo://app?vid=82432e1b-c28c-4f7d-a515-670f97b6b6c0"},"vehicle_type_id":"4","last_reported":1739221724,"current_range_meters":30000,"station_id":"ce4bh392rcd13ifvqdm0","pricing_plan_id":"cebpf4jnsgd1na2vs0mg"},{"bike_id":"4040bf92-0ac9-42a4-ae82-9be1ee718abf","system_id":"levelo_inurba_marseille","lat":43.28699,"lon":5.39999,"is_reserved":false,"is_disabled":false,"rental_uris":{"android":"levelo://app?vid=4040bf92-0ac9-42a4-ae82-9be1ee718abf","ios":"levelo://app?vid=4040bf92-0ac9-42a4-ae82-9be1ee718abf"},"vehicle_type_id":"4","last_reported":1739221724,"current_range_meters":31200,"station_id":"ce4bho92rcd13ifvqh3g","pricing_plan_id":"cebpf4jnsgd1na2vs0mg"},{"bike_id":"e1665d4f-cded-4a89-a1bb-25651a56c5e6","system_id":"levelo_inurba_marseille","lat":43.269133,"lon":5.388834,"is_reserved":false,"is_disabled":false,"rental_uris":{"android":"levelo://app?vid=e1665d4f-cded-4a89-a1bb-25651a56c5e6","ios":"levelo://app?vid=e1665d4f-cded-4a89-a1bb-25651a56c5e6"},"vehicle_type_id":"4","last_reported":1739221724,"current_range_meters":29600,"station_id":"","pricing_plan_id":"cebpf4jnsgd1na2vs0mg"},{"bike_id":"574027e3-5276-4f53-8dd6-55a3dd83dba2","system_id":"levelo_inurba_marseille","lat":43.31111,"lon":5.37762,"is_reserved":false,"is_disabled":false,"rental_uris":{"android":"levelo://app?vid=574027e3-5276-4f53-8dd6-55a3dd83dba2","ios":"levelo://app?vid=574027e3-5276-4f53-8dd6-55a3dd83dba2"},"vehicle_type_id":"4","last_reported":1739221724,"current_range_meters":25200,"station_id":"ce4bgt92rcd13ifvqcg0","pricing_plan_id":"cebpf4jnsgd1na2vs0mg"},{"bike_id":"bf8cd02e-ccdc-4523-894a-3fce83d782e3","system_id":"levelo_inurba_marseille","lat":43.33728,"lon":5.39176,"is_reserved":false,"is_disabled":false,"rental_uris":{"android":"levelo://app?vid=bf8cd02e-ccdc-4523-894a-3fce83d782e3","ios":"levelo://app?vid=bf8cd02e-ccdc-4523-894a-3fce83d782e3"},"vehicle_type_id":"4","last_reported":1739221724,"current_range_meters":38000,"station_id":"ce4bhr92rcd13ifvqhsg","pricing_plan_id":"cebpf4jnsgd1na2vs0mg"},{"bike_id":"7c6bbf7f-41d8-44ee-ba01-3c107a914dec","system_id":"levelo_inurba_marseille","lat":43.3075,"lon":5.37077,"is_reserved":false,"is_disabled":false,"rental_uris":{"android":"levelo://app?vid=7c6bbf7f-41d8-44ee-ba01-3c107a914dec","ios":"levelo://app?vid=7c6bbf7f-41d8-44ee-ba01-3c107a914dec"},"vehicle_type_id":"4","last_reported":1739221724,"current_range_meters":26000,"station_id":"","pricing_plan_id":"cebpf4jnsgd1na2vs0mg"},{"bike_id":"84685336-137b-4bb8-a6a6-5d572c1c7f63","system_id":"levelo_inurba_marseille","lat":43.29375,"lon":5.37857,"is_reserved":false,"is_disabled":false,"rental_uris":{"android":"levelo://app?vid=84685336-137b-4bb8-a6a6-5d572c1c7f63","ios":"levelo://app?vid=84685336-137b-4bb8-a6a6-5d572c1c7f63"},"vehicle_type_id":"4","last_reported":1739221724,"current_range_meters":36000,"station_id":"ce4bgjh2rcd13ifvqbf0","pricing_plan_id":"cebpf4jnsgd1na2vs0mg"},{"bike_id":"7ca80e67-cb2b-490a-b839-a5cc2b6a357b","system_id":"levelo_inurba_marseille","lat":43.291882,"lon":5.357937,"is_reserved":false,"is_disabled":false,"rental_uris":{"android":"levelo://app?vid=7ca80e67-cb2b-490a-b839-a5cc2b6a357b","ios":"levelo://app?vid=7ca80e67-cb2b-490a-b839-a5cc2b6a357b"},"vehicle_type_id":"4","last_reported":1739221724,"current_range_meters":39200,"station_id":"ce4bhb12rcd13ifvqel0","pricing_plan_id":"cebpf4jnsgd1na2vs0mg"},{"bike_id":"4dc8f479-26f8-47bd-8349-c21a9116fcc7","system_id":"levelo_inurba_marseille","lat":43.28101,"lon":5.37839,"is_reserved":false,"is_disabled":false,"rental_uris":{"android":"levelo://app?vid=4dc8f479-26f8-47bd-8349-c21a9116fcc7","ios":"levelo://app?vid=4dc8f479-26f8-47bd-8349-c21a9116fcc7"},"vehicle_type_id":"4","last_reported":1739221724,"current_range_meters":27200,"station_id":"ce4bha12rcd13ifvqee0","pricing_plan_id":"cebpf4jnsgd1na2vs0mg"},{"bike_id":"19960a70-299a-46fc-b870-b8b89ff7fb9c","system_id":"levelo_inurba_marseille","lat":43.28843,"lon":5.39306,"is_reserved":false,"is_disabled":false,"rental_uris":{"android":"levelo://app?vid=19960a70-299a-46fc-b870-b8b89ff7fb9c","ios":"levelo://app?vid=19960a70-299a-46fc-b870-b8b89ff7fb9c"},"vehicle_type_id":"4","last_reported":1739221724,"current_range_meters":24000,"station_id":"ce4bh2p2rcd13ifvqdi0","pricing_plan_id":"cebpf4jnsgd1na2vs0mg"},{"bike_id":"ecc287c0-75f2-4eae-852c-c0cf91f75759","system_id":"levelo_inurba_marseille","lat":43.26947,"lon":5.38898,"is_reserved":false,"is_disabled":false,"rental_uris":{"android":"levelo://app?vid=ecc287c0-75f2-4eae-852c-c0cf91f75759","ios":"levelo://app?vid=ecc287c0-75f2-4eae-852c-c0cf91f75759"},"vehicle_type_id":"4","last_reported":1739221724,"current_range_meters":38000,"station_id":"ce4bhhh2rcd13ifvqfl0","pricing_plan_id":"cebpf4jnsgd1na2vs0mg"},{"bike_id":"a1e1c154-9e5a-4afc-9a7e-cedaf38d9921","system_id":"levelo_inurba_marseille","lat":43.28994,"lon":5.35623,"is_reserved":false,"is_disabled":false,"rental_uris":{"android":"levelo://app?vid=a1e1c154-9e5a-4afc-9a7e-cedaf38d9921","ios":"levelo://app?vid=a1e1c154-9e5a-4afc-9a7e-cedaf38d9921"},"vehicle_type_id":"4","last_reported":1739221724,"current_range_meters":33200,"station_id":"ce4bhb92rcd13ifvqen0","pricing_plan_id":"cebpf4jnsgd1na2vs0mg"},{"bike_id":"4ed2f75a-8eb5-42e2-8b44-19aece7300bb","system_id":"levelo_inurba_marseille","lat":43.28454,"lon":5.39198,"is_reserved":false,"is_disabled":false,"rental_uris":{"android":"levelo://app?vid=4ed2f75a-8eb5-42e2-8b44-19aece7300bb","ios":"levelo://app?vid=4ed2f75a-8eb5-42e2-8b44-19aece7300bb"},"vehicle_type_id":"4","last_reported":1739221724,"current_range_meters":36400,"station_id":"ce4bhoh2rcd13ifvqh5g","pricing_plan_id":"cebpf4jnsgd1na2vs0mg"},{"bike_id":"726fb099-c3d7-4106-beb8-89951bfba46d","system_id":"levelo_inurba_marseille","lat":43.295652,"lon":5.374956,"is_reserved":false,"is_disabled":true,"rental_uris":{"android":"levelo://app?vid=726fb099-c3d7-4106-beb8-89951bfba46d","ios":"levelo://app?vid=726fb099-c3d7-4106-beb8-89951bfba46d"},"vehicle_type_id":"4","last_reported":1739221724,"current_range_meters":32800,"station_id":"ce4bgh92rcd13ifvqb50","pricing_plan_id":"cebpf4jnsgd1na2vs0mg"},{"bike_id":"9c87e926-4686-4357-a4e8-7bc756a9015d","system_id":"levelo_inurba_marseille","lat":43.28855,"lon":5.39306,"is_reserved":false,"is_disabled":false,"rental_uris":{"android":"levelo://app?vid=9c87e926-4686-4357-a4e8-7bc756a9015d","ios":"levelo://app?vid=9c87e926-4686-4357-a4e8-7bc756a9015d"},"vehicle_type_id":"4","last_reported":1739221724,"current_range_meters":20800,"station_id":"ce4bh2p2rcd13ifvqdi0","pricing_plan_id":"cebpf4jnsgd1na2vs0mg"},{"bike_id":"d644e0b7-67dc-43a4-bfbd-e654dfa91777","system_id":"levelo_inurba_marseille","lat":43.30184,"lon":5.36613,"is_reserved":false,"is_disabled":false,"rental_uris":{"android":"levelo://app?vid=d644e0b7-67dc-43a4-bfbd-e654dfa91777","ios":"levelo://app?vid=d644e0b7-67dc-43a4-bfbd-e654dfa91777"},"vehicle_type_id":"4","last_reported":1739221724,"current_range_meters":36400,"station_id":"ce4bgrh2rcd13ifvqc8g","pricing_plan_id":"cebpf4jnsgd1na2vs0mg"},{"bike_id":"f7497ba6-7f7b-48c4-bbde-c8698d95bccc","system_id":"levelo_inurba_marseille","lat":43.28468,"lon":5.35893,"is_reserved":false,"is_disabled":false,"rental_uris":{"android":"levelo://app?vid=f7497ba6-7f7b-48c4-bbde-c8698d95bccc","ios":"levelo://app?vid=f7497ba6-7f7b-48c4-bbde-c8698d95bccc"},"vehicle_type_id":"4","last_reported":1739221724,"current_range_meters":38800,"station_id":"ce4bhah2rcd13ifvqei0","pricing_plan_id":"cebpf4jnsgd1na2vs0mg"},{"bike_id":"9836b973-7234-4581-b5b7-19d8b751167e","system_id":"levelo_inurba_marseille","lat":43.24174,"lon":5.39732,"is_reserved":false,"is_disabled":false,"rental_uris":{"android":"levelo://app?vid=9836b973-7234-4581-b5b7-19d8b751167e","ios":"levelo://app?vid=9836b973-7234-4581-b5b7-19d8b751167e"},"vehicle_type_id":"4","last_reported":1739221724,"current_range_meters":4000,"station_id":"ce4bhn12rcd13ifvqgpg","pricing_plan_id":"cebpf4jnsgd1na2vs0mg"},{"bike_id":"071d8f4d-aad8-4eae-8d94-5a24dab01612","system_id":"levelo_inurba_marseille","lat":43.29303,"lon":5.37164,"is_reserved":false,"is_disabled":false,"rental_uris":{"android":"levelo://app?vid=071d8f4d-aad8-4eae-8d94-5a24dab01612","ios":"levelo://app?vid=071d8f4d-aad8-4eae-8d94-5a24dab01612"},"vehicle_type_id":"4","last_reported":1739221724,"current_range_meters":36800,"station_id":"ce4bgh92rcd13ifvqb40","pricing_plan_id":"cebpf4jnsgd1na2vs0mg"},{"bike_id":"55fe04a7-d37a-4ee4-965a-2262a655cb55","system_id":"levelo_inurba_marseille","lat":43.23188,"lon":5.39995,"is_reserved":false,"is_disabled":false,"rental_uris":{"android":"levelo://app?vid=55fe04a7-d37a-4ee4-965a-2262a655cb55","ios":"levelo://app?vid=55fe04a7-d37a-4ee4-965a-2262a655cb55"},"vehicle_type_id":"4","last_reported":1739221724,"current_range_meters":38800,"station_id":"ce4bhn12rcd13ifvqgqg","pricing_plan_id":"cebpf4jnsgd1na2vs0mg"},{"bike_id":"3441c74a-282b-45aa-b329-9e43a88c8a80","system_id":"levelo_inurba_marseille","lat":43.24811,"lon":5.37469,"is_reserved":false,"is_disabled":false,"rental_uris":{"android":"levelo://app?vid=3441c74a-282b-45aa-b329-9e43a88c8a80","ios":"levelo://app?vid=3441c74a-282b-45aa-b329-9e43a88c8a80"},"vehicle_type_id":"4","last_reported":1739221724,"current_range_meters":18800,"station_id":"ce4bhgh2rcd13ifvqfb0","pricing_plan_id":"cebpf4jnsgd1na2vs0mg"},{"bike_id":"e00cd517-4a6d-40d8-b46e-27fb98e2bb39","system_id":"levelo_inurba_marseille","lat":43.28453,"lon":5.35907,"is_reserved":false,"is_disabled":false,"rental_uris":{"android":"levelo://app?vid=e00cd517-4a6d-40d8-b46e-27fb98e2bb39","ios":"levelo://app?vid=e00cd517-4a6d-40d8-b46e-27fb98e2bb39"},"vehicle_type_id":"4","last_reported":1739221724,"current_range_meters":38800,"station_id":"ce4bhah2rcd13ifvqei0","pricing_plan_id":"cebpf4jnsgd1na2vs0mg"},{"bike_id":"3964663c-b0ef-4fd9-bca2-5e6eb580081e","system_id":"levelo_inurba_marseille","lat":43.2813,"lon":5.39858,"is_reserved":false,"is_disabled":false,"rental_uris":{"android":"levelo://app?vid=3964663c-b0ef-4fd9-bca2-5e6eb580081e","ios":"levelo://app?vid=3964663c-b0ef-4fd9-bca2-5e6eb580081e"},"vehicle_type_id":"4","last_reported":1739221724,"current_range_meters":18800,"station_id":"","pricing_plan_id":"cebpf4jnsgd1na2vs0mg"},{"bike_id":"8e2f681c-56b3-4dbe-acf6-d95949b97842","system_id":"levelo_inurba_marseille","lat":43.301561,"lon":5.380922,"is_reserved":false,"is_disabled":true,"rental_uris":{"android":"levelo://app?vid=8e2f681c-56b3-4dbe-acf6-d95949b97842","ios":"levelo://app?vid=8e2f681c-56b3-4dbe-acf6-d95949b97842"},"vehicle_type_id":"4","last_reported":1739221724,"current_range_meters":25200,"station_id":"","pricing_plan_id":"cebpf4jnsgd1na2vs0mg"},{"bike_id":"6e1b6112-cd26-421f-b157-6ac716f542d7","system_id":"levelo_inurba_marseille","lat":43.27208,"lon":5.40981,"is_reserved":false,"is_disabled":false,"rental_uris":{"android":"levelo://app?vid=6e1b6112-cd26-421f-b157-6ac716f542d7","ios":"levelo://app?vid=6e1b6112-cd26-421f-b157-6ac716f542d7"},"vehicle_type_id":"4","last_reported":1739221724,"current_range_meters":37600,"station_id":"ce4bhl12rcd13ifvqgf0","pricing_plan_id":"cebpf4jnsgd1na2vs0mg"},{"bike_id":"a3334905-d408-452d-a361-b335eb040aac","system_id":"levelo_inurba_marseille","lat":43.29039,"lon":5.35933,"is_reserved":false,"is_disabled":false,"rental_uris":{"android":"levelo://app?vid=a3334905-d408-452d-a361-b335eb040aac","ios":"levelo://app?vid=a3334905-d408-452d-a361-b335eb040aac"},"vehicle_type_id":"4","last_reported":1739221724,"current_range_meters":39200,"station_id":"ce4bha92rcd13ifvqeg0","pricing_plan_id":"cebpf4jnsgd1na2vs0mg"},{"bike_id":"5a712f7b-faea-4b41-b7bd-078b067ddb56","system_id":"levelo_inurba_marseille","lat":43.25575,"lon":5.38238,"is_reserved":false,"is_disabled":true,"rental_uris":{"android":"levelo://app?vid=5a712f7b-faea-4b41-b7bd-078b067ddb56","ios":"levelo://app?vid=5a712f7b-faea-4b41-b7bd-078b067ddb56"},"vehicle_type_id":"4","last_reported":1739221724,"current_range_meters":31200,"station_id":"ce4bhih2rcd13ifvqfs0","pricing_plan_id":"cebpf4jnsgd1na2vs0mg"},{"bike_id":"b41d8475-1b61-4022-b648-2777adae10ea","system_id":"levelo_inurba_marseille","lat":43.241669,"lon":5.364002,"is_reserved":false,"is_disabled":false,"rental_uris":{"android":"levelo://app?vid=b41d8475-1b61-4022-b648-2777adae10ea","ios":"levelo://app?vid=b41d8475-1b61-4022-b648-2777adae10ea"},"vehicle_type_id":"4","last_reported":1739221724,"current_range_meters":28400,"station_id":"cpo36qri1sfpv3e86is0","pricing_plan_id":"cebpf4jnsgd1na2vs0mg"},{"bike_id":"797c91fd-a875-467b-999b-207e5af3706b","system_id":"levelo_inurba_marseille","lat":43.27901,"lon":5.37988,"is_reserved":false,"is_disabled":false,"rental_uris":{"android":"levelo://app?vid=797c91fd-a875-467b-999b-207e5af3706b","ios":"levelo://app?vid=797c91fd-a875-467b-999b-207e5af3706b"},"vehicle_type_id":"4","last_reported":1739221724,"current_range_meters":38800,"station_id":"ce4bhf92rcd13ifvqf50","pricing_plan_id":"cebpf4jnsgd1na2vs0mg"},{"bike_id":"7b5c34b2-7c2c-47ae-aba7-1d05083c4781","system_id":"levelo_inurba_marseille","lat":43.33008,"lon":5.39094,"is_reserved":false,"is_disabled":false,"rental_uris":{"android":"levelo://app?vid=7b5c34b2-7c2c-47ae-aba7-1d05083c4781","ios":"levelo://app?vid=7b5c34b2-7c2c-47ae-aba7-1d05083c4781"},"vehicle_type_id":"4","last_reported":1739221724,"current_range_meters":17200,"station_id":"ce4bhr92rcd13ifvqhrg","pricing_plan_id":"cebpf4jnsgd1na2vs0mg"},{"bike_id":"fa1d3426-6924-4679-877d-315e8d2e7c0a","system_id":"levelo_inurba_marseille","lat":43.251,"lon":5.40407,"is_reserved":false,"is_disabled":false,"rental_uris":{"android":"levelo://app?vid=fa1d3426-6924-4679-877d-315e8d2e7c0a","ios":"levelo://app?vid=fa1d3426-6924-4679-877d-315e8d2e7c0a"},"vehicle_type_id":"4","last_reported":1739221724,"current_range_meters":38800,"station_id":"","pricing_plan_id":"cebpf4jnsgd1na2vs0mg"},{"bike_id":"c6d668f6-941c-4533-8dc4-268029ce8ce4","system_id":"levelo_inurba_marseille","lat":43.27828,"lon":5.39219,"is_reserved":false,"is_disabled":false,"rental_uris":{"android":"levelo://app?vid=c6d668f6-941c-4533-8dc4-268029ce8ce4","ios":"levelo://app?vid=c6d668f6-941c-4533-8dc4-268029ce8ce4"},"vehicle_type_id":"4","last_reported":1739221724,"current_range_meters":36800,"station_id":"ce4bhjp2rcd13ifvqga0","pricing_plan_id":"cebpf4jnsgd1na2vs0mg"},{"bike_id":"ab8b8851-fc81-4397-b7ae-787e68797f4f","system_id":"levelo_inurba_marseille","lat":43.31756,"lon":5.39042,"is_reserved":false,"is_disabled":false,"rental_uris":{"android":"levelo://app?vid=ab8b8851-fc81-4397-b7ae-787e68797f4f","ios":"levelo://app?vid=ab8b8851-fc81-4397-b7ae-787e68797f4f"},"vehicle_type_id":"4","last_reported":1739221724,"current_range_meters":38400,"station_id":"ce4bhqp2rcd13ifvqhng","pricing_plan_id":"cebpf4jnsgd1na2vs0mg"},{"bike_id":"92f07dea-90ac-401f-aa24-d823119dcbf1","system_id":"levelo_inurba_marseille","lat":43.28852,"lon":5.39326,"is_reserved":false,"is_disabled":false,"rental_uris":{"android":"levelo://app?vid=92f07dea-90ac-401f-aa24-d823119dcbf1","ios":"levelo://app?vid=92f07dea-90ac-401f-aa24-d823119dcbf1"},"vehicle_type_id":"4","last_reported":1739221724,"current_range_meters":38000,"station_id":"ce4bh2p2rcd13ifvqdi0","pricing_plan_id":"cebpf4jnsgd1na2vs0mg"},{"bike_id":"51ab7186-5043-4bed-baca-73708608a302","system_id":"levelo_inurba_marseille","lat":43.29584,"lon":5.37026,"is_reserved":false,"is_disabled":true,"rental_uris":{"android":"levelo://app?vid=51ab7186-5043-4bed-baca-73708608a302","ios":"levelo://app?vid=51ab7186-5043-4bed-baca-73708608a302"},"vehicle_type_id":"4","last_reported":1739221724,"current_range_meters":10000,"station_id":"","pricing_plan_id":"cebpf4jnsgd1na2vs0mg"},{"bike_id":"3664dbbc-23a1-4cc8-b192-1f5bf82ad2ae","system_id":"levelo_inurba_marseille","lat":43.27199,"lon":5.40986,"is_reserved":false,"is_disabled":false,"rental_uris":{"android":"levelo://app?vid=3664dbbc-23a1-4cc8-b192-1f5bf82ad2ae","ios":"levelo://app?vid=3664dbbc-23a1-4cc8-b192-1f5bf82ad2ae"},"vehicle_type_id":"4","last_reported":1739221724,"current_range_meters":38400,"station_id":"ce4bhl12rcd13ifvqgf0","pricing_plan_id":"cebpf4jnsgd1na2vs0mg"},{"bike_id":"7aea78e9-6742-4e6c-8617-877f951312f7","system_id":"levelo_inurba_marseille","lat":43.30088,"lon":5.39092,"is_reserved":false,"is_disabled":false,"rental_uris":{"android":"levelo://app?vid=7aea78e9-6742-4e6c-8617-877f951312f7","ios":"levelo://app?vid=7aea78e9-6742-4e6c-8617-877f951312f7"},"vehicle_type_id":"4","last_reported":1739221724,"current_range_meters":17600,"station_id":"ce4bh192rcd13ifvqdb0","pricing_plan_id":"cebpf4jnsgd1na2vs0mg"},{"bike_id":"a8158c90-43cd-485b-b227-ab2c6a7833b6","system_id":"levelo_inurba_marseille","lat":43.27999,"lon":5.37035,"is_reserved":false,"is_disabled":false,"rental_uris":{"android":"levelo://app?vid=a8158c90-43cd-485b-b227-ab2c6a7833b6","ios":"levelo://app?vid=a8158c90-43cd-485b-b227-ab2c6a7833b6"},"vehicle_type_id":"4","last_reported":1739221724,"current_range_meters":31200,"station_id":"ce4bha12rcd13ifvqef0","pricing_plan_id":"cebpf4jnsgd1na2vs0mg"},{"bike_id":"0b2730f4-2761-48a6-b43d-961c9e696ec1","system_id":"levelo_inurba_marseille","lat":43.28445,"lon":5.35895,"is_reserved":false,"is_disabled":false,"rental_uris":{"android":"levelo://app?vid=0b2730f4-2761-48a6-b43d-961c9e696ec1","ios":"levelo://app?vid=0b2730f4-2761-48a6-b43d-961c9e696ec1"},"vehicle_type_id":"4","last_reported":1739221724,"current_range_meters":38800,"station_id":"ce4bhah2rcd13ifvqei0","pricing_plan_id":"cebpf4jnsgd1na2vs0mg"},{"bike_id":"890464c4-7185-412e-a93b-79d798bd90c9","system_id":"levelo_inurba_marseille","lat":43.28436,"lon":5.39191,"is_reserved":false,"is_disabled":false,"rental_uris":{"android":"levelo://app?vid=890464c4-7185-412e-a93b-79d798bd90c9","ios":"levelo://app?vid=890464c4-7185-412e-a93b-79d798bd90c9"},"vehicle_type_id":"4","last_reported":1739221724,"current_range_meters":39200,"station_id":"ce4bhoh2rcd13ifvqh5g","pricing_plan_id":"cebpf4jnsgd1na2vs0mg"},{"bike_id":"3e4d7c8f-9582-4c93-bb17-a6912e323d2f","system_id":"levelo_inurba_marseille","lat":43.30265,"lon":5.40059,"is_reserved":false,"is_disabled":false,"rental_uris":{"android":"levelo://app?vid=3e4d7c8f-9582-4c93-bb17-a6912e323d2f","ios":"levelo://app?vid=3e4d7c8f-9582-4c93-bb17-a6912e323d2f"},"vehicle_type_id":"4","last_reported":1739221724,"current_range_meters":24800,"station_id":"ce4bgvh2rcd13ifvqcs0","pricing_plan_id":"cebpf4jnsgd1na2vs0mg"},{"bike_id":"8517ba79-8da0-4668-8cee-0db8d18cba54","system_id":"levelo_inurba_marseille","lat":43.29506,"lon":5.39056,"is_reserved":false,"is_disabled":false,"rental_uris":{"android":"levelo://app?vid=8517ba79-8da0-4668-8cee-0db8d18cba54","ios":"levelo://app?vid=8517ba79-8da0-4668-8cee-0db8d18cba54"},"vehicle_type_id":"4","last_reported":1739221724,"current_range_meters":25200,"station_id":"ce4bh3p2rcd13ifvqdp0","pricing_plan_id":"cebpf4jnsgd1na2vs0mg"},{"bike_id":"6a61494c-64e7-4150-8260-115f4cb420a4","system_id":"levelo_inurba_marseille","lat":43.2925,"lon":5.38441,"is_reserved":false,"is_disabled":false,"rental_uris":{"android":"levelo://app?vid=6a61494c-64e7-4150-8260-115f4cb420a4","ios":"levelo://app?vid=6a61494c-64e7-4150-8260-115f4cb420a4"},"vehicle_type_id":"4","last_reported":1739221724,"current_range_meters":11600,"station_id":"ce4bh692rcd13ifvqea0","pricing_plan_id":"cebpf4jnsgd1na2vs0mg"},{"bike_id":"d77ebab4-8330-4bd8-b943-62e52e95c5a3","system_id":"levelo_inurba_marseille","lat":43.29882,"lon":5.39737,"is_reserved":false,"is_disabled":false,"rental_uris":{"android":"levelo://app?vid=d77ebab4-8330-4bd8-b943-62e52e95c5a3","ios":"levelo://app?vid=d77ebab4-8330-4bd8-b943-62e52e95c5a3"},"vehicle_type_id":"4","last_reported":1739221724,"current_range_meters":38000,"station_id":"ce4bh0h2rcd13ifvqd50","pricing_plan_id":"cebpf4jnsgd1na2vs0mg"},{"bike_id":"0cdcc8f7-f674-43f1-9b73-0f1949650402","system_id":"levelo_inurba_marseille","lat":43.2396,"lon":5.36633,"is_reserved":false,"is_disabled":false,"rental_uris":{"android":"levelo://app?vid=0cdcc8f7-f674-43f1-9b73-0f1949650402","ios":"levelo://app?vid=0cdcc8f7-f674-43f1-9b73-0f1949650402"},"vehicle_type_id":"4","last_reported":1739221724,"current_range_meters":37600,"station_id":"ce4bhi12rcd13ifvqfp0","pricing_plan_id":"cebpf4jnsgd1na2vs0mg"},{"bike_id":"4870585a-4997-49e1-9e28-6a4b32e0b968","system_id":"levelo_inurba_marseille","lat":43.28666,"lon":5.36362,"is_reserved":false,"is_disabled":false,"rental_uris":{"android":"levelo://app?vid=4870585a-4997-49e1-9e28-6a4b32e0b968","ios":"levelo://app?vid=4870585a-4997-49e1-9e28-6a4b32e0b968"},"vehicle_type_id":"4","last_reported":1739221724,"current_range_meters":34000,"station_id":"ce4bhah2rcd13ifvqej0","pricing_plan_id":"cebpf4jnsgd1na2vs0mg"},{"bike_id":"de77abfa-6f74-40e9-8131-b7884eda37eb","system_id":"levelo_inurba_marseille","lat":43.29928,"lon":5.39407,"is_reserved":false,"is_disabled":false,"rental_uris":{"android":"levelo://app?vid=de77abfa-6f74-40e9-8131-b7884eda37eb","ios":"levelo://app?vid=de77abfa-6f74-40e9-8131-b7884eda37eb"},"vehicle_type_id":"4","last_reported":1739221724,"current_range_meters":30800,"station_id":"","pricing_plan_id":"cebpf4jnsgd1na2vs0mg"},{"bike_id":"44dd6324-cf8b-4645-bc5d-6f2dbec52f2a","system_id":"levelo_inurba_marseille","lat":43.26558,"lon":5.39045,"is_reserved":false,"is_disabled":false,"rental_uris":{"android":"levelo://app?vid=44dd6324-cf8b-4645-bc5d-6f2dbec52f2a","ios":"levelo://app?vid=44dd6324-cf8b-4645-bc5d-6f2dbec52f2a"},"vehicle_type_id":"4","last_reported":1739221724,"current_range_meters":17200,"station_id":"ce4bhe12rcd13ifvqf30","pricing_plan_id":"cebpf4jnsgd1na2vs0mg"},{"bike_id":"285e5b07-7c3a-4cba-987c-82ba60fc3d44","system_id":"levelo_inurba_marseille","lat":43.29382,"lon":5.37826,"is_reserved":false,"is_disabled":false,"rental_uris":{"android":"levelo://app?vid=285e5b07-7c3a-4cba-987c-82ba60fc3d44","ios":"levelo://app?vid=285e5b07-7c3a-4cba-987c-82ba60fc3d44"},"vehicle_type_id":"4","last_reported":1739221724,"current_range_meters":15200,"station_id":"ce4bgjh2rcd13ifvqbf0","pricing_plan_id":"cebpf4jnsgd1na2vs0mg"},{"bike_id":"ee079ffa-4416-4a91-bc98-3bd665acea3b","system_id":"levelo_inurba_marseille","lat":43.3375,"lon":5.39183,"is_reserved":false,"is_disabled":false,"rental_uris":{"android":"levelo://app?vid=ee079ffa-4416-4a91-bc98-3bd665acea3b","ios":"levelo://app?vid=ee079ffa-4416-4a91-bc98-3bd665acea3b"},"vehicle_type_id":"4","last_reported":1739221724,"current_range_meters":38800,"station_id":"ce4bhr92rcd13ifvqhsg","pricing_plan_id":"cebpf4jnsgd1na2vs0mg"},{"bike_id":"1fa82dc6-47d4-4356-bbca-393bf4461726","system_id":"levelo_inurba_marseille","lat":43.239598,"lon":5.366254,"is_reserved":false,"is_disabled":false,"rental_uris":{"android":"levelo://app?vid=1fa82dc6-47d4-4356-bbca-393bf4461726","ios":"levelo://app?vid=1fa82dc6-47d4-4356-bbca-393bf4461726"},"vehicle_type_id":"4","last_reported":1739221724,"current_range_meters":22000,"station_id":"ce4bhi12rcd13ifvqfp0","pricing_plan_id":"cebpf4jnsgd1na2vs0mg"},{"bike_id":"2dac4cac-0ca1-47aa-85e8-e9060b209935","system_id":"levelo_inurba_marseille","lat":43.29353,"lon":5.3785,"is_reserved":false,"is_disabled":false,"rental_uris":{"android":"levelo://app?vid=2dac4cac-0ca1-47aa-85e8-e9060b209935","ios":"levelo://app?vid=2dac4cac-0ca1-47aa-85e8-e9060b209935"},"vehicle_type_id":"4","last_reported":1739221724,"current_range_meters":6400,"station_id":"ce4bgjh2rcd13ifvqbf0","pricing_plan_id":"cebpf4jnsgd1na2vs0mg"},{"bike_id":"1b222d92-0766-4553-98e5-5fe5b4e88883","system_id":"levelo_inurba_marseille","lat":43.23066,"lon":5.35496,"is_reserved":false,"is_disabled":false,"rental_uris":{"android":"levelo://app?vid=1b222d92-0766-4553-98e5-5fe5b4e88883","ios":"levelo://app?vid=1b222d92-0766-4553-98e5-5fe5b4e88883"},"vehicle_type_id":"4","last_reported":1739221724,"current_range_meters":7200,"station_id":"cpo3342slgdg3j2ifvpg","pricing_plan_id":"cebpf4jnsgd1na2vs0mg"},{"bike_id":"3fb479a7-ac98-409e-977d-caf933510e13","system_id":"levelo_inurba_marseille","lat":43.28712,"lon":5.36121,"is_reserved":false,"is_disabled":false,"rental_uris":{"android":"levelo://app?vid=3fb479a7-ac98-409e-977d-caf933510e13","ios":"levelo://app?vid=3fb479a7-ac98-409e-977d-caf933510e13"},"vehicle_type_id":"4","last_reported":1739221724,"current_range_meters":16400,"station_id":"cki0cbj6b192h4jlfktg","pricing_plan_id":"cebpf4jnsgd1na2vs0mg"},{"bike_id":"67c77a93-95e0-4dde-b030-1b6a0f65cf9a","system_id":"levelo_inurba_marseille","lat":43.27159,"lon":5.41013,"is_reserved":false,"is_disabled":false,"rental_uris":{"android":"levelo://app?vid=67c77a93-95e0-4dde-b030-1b6a0f65cf9a","ios":"levelo://app?vid=67c77a93-95e0-4dde-b030-1b6a0f65cf9a"},"vehicle_type_id":"4","last_reported":1739221724,"current_range_meters":11600,"station_id":"ce4bhl12rcd13ifvqgf0","pricing_plan_id":"cebpf4jnsgd1na2vs0mg"},{"bike_id":"5be1b852-4177-4fb0-8e88-fab375ad7817","system_id":"levelo_inurba_marseille","lat":43.27075,"lon":5.42276,"is_reserved":false,"is_disabled":false,"rental_uris":{"android":"levelo://app?vid=5be1b852-4177-4fb0-8e88-fab375ad7817","ios":"levelo://app?vid=5be1b852-4177-4fb0-8e88-fab375ad7817"},"vehicle_type_id":"4","last_reported":1739221724,"current_range_meters":24400,"station_id":"ce4bhk92rcd13ifvqgb0","pricing_plan_id":"cebpf4jnsgd1na2vs0mg"},{"bike_id":"d0d8ec2f-c95a-46f3-be60-0d8863b57c52","system_id":"levelo_inurba_marseille","lat":43.28353,"lon":5.38105,"is_reserved":false,"is_disabled":false,"rental_uris":{"android":"levelo://app?vid=d0d8ec2f-c95a-46f3-be60-0d8863b57c52","ios":"levelo://app?vid=d0d8ec2f-c95a-46f3-be60-0d8863b57c52"},"vehicle_type_id":"4","last_reported":1739221724,"current_range_meters":39200,"station_id":"ce4bh412rcd13ifvqdr0","pricing_plan_id":"cebpf4jnsgd1na2vs0mg"},{"bike_id":"496fa2ad-a547-4095-b8b9-a29f1a78ab4b","system_id":"levelo_inurba_marseille","lat":43.27837,"lon":5.40675,"is_reserved":false,"is_disabled":false,"rental_uris":{"android":"levelo://app?vid=496fa2ad-a547-4095-b8b9-a29f1a78ab4b","ios":"levelo://app?vid=496fa2ad-a547-4095-b8b9-a29f1a78ab4b"},"vehicle_type_id":"4","last_reported":1739221724,"current_range_meters":38400,"station_id":"ce4bhnh2rcd13ifvqgtg","pricing_plan_id":"cebpf4jnsgd1na2vs0mg"},{"bike_id":"f53564a4-cbf9-4b55-bb72-8eda8cad3a05","system_id":"levelo_inurba_marseille","lat":43.27068,"lon":5.42283,"is_reserved":false,"is_disabled":false,"rental_uris":{"android":"levelo://app?vid=f53564a4-cbf9-4b55-bb72-8eda8cad3a05","ios":"levelo://app?vid=f53564a4-cbf9-4b55-bb72-8eda8cad3a05"},"vehicle_type_id":"4","last_reported":1739221724,"current_range_meters":20800,"station_id":"ce4bhk92rcd13ifvqgb0","pricing_plan_id":"cebpf4jnsgd1na2vs0mg"},{"bike_id":"01ea49d7-471f-408d-84c4-55b6e9d5f5e2","system_id":"levelo_inurba_marseille","lat":43.28113,"lon":5.37808,"is_reserved":false,"is_disabled":false,"rental_uris":{"android":"levelo://app?vid=01ea49d7-471f-408d-84c4-55b6e9d5f5e2","ios":"levelo://app?vid=01ea49d7-471f-408d-84c4-55b6e9d5f5e2"},"vehicle_type_id":"4","last_reported":1739221724,"current_range_meters":38000,"station_id":"ce4bha12rcd13ifvqee0","pricing_plan_id":"cebpf4jnsgd1na2vs0mg"},{"bike_id":"05f6ac8f-0127-4e39-bd11-d53a74225ef8","system_id":"levelo_inurba_marseille","lat":43.27874,"lon":5.40597,"is_reserved":false,"is_disabled":true,"rental_uris":{"android":"levelo://app?vid=05f6ac8f-0127-4e39-bd11-d53a74225ef8","ios":"levelo://app?vid=05f6ac8f-0127-4e39-bd11-d53a74225ef8"},"vehicle_type_id":"4","last_reported":1739221724,"current_range_meters":0,"station_id":"","pricing_plan_id":"cebpf4jnsgd1na2vs0mg"},{"bike_id":"ee46fe34-80dd-4fca-bf66-6ae38f13df4f","system_id":"levelo_inurba_marseille","lat":43.31168,"lon":5.38724,"is_reserved":false,"is_disabled":false,"rental_uris":{"android":"levelo://app?vid=ee46fe34-80dd-4fca-bf66-6ae38f13df4f","ios":"levelo://app?vid=ee46fe34-80dd-4fca-bf66-6ae38f13df4f"},"vehicle_type_id":"4","last_reported":1739221724,"current_range_meters":17600,"station_id":"ce4bgv12rcd13ifvqcp0","pricing_plan_id":"cebpf4jnsgd1na2vs0mg"},{"bike_id":"76f3170e-3ff7-41ad-9bc5-e166406e18c1","system_id":"levelo_inurba_marseille","lat":43.28435,"lon":5.35072,"is_reserved":false,"is_disabled":false,"rental_uris":{"android":"levelo://app?vid=76f3170e-3ff7-41ad-9bc5-e166406e18c1","ios":"levelo://app?vid=76f3170e-3ff7-41ad-9bc5-e166406e18c1"},"vehicle_type_id":"4","last_reported":1739221724,"current_range_meters":28800,"station_id":"ce4bhbh2rcd13ifvqepg","pricing_plan_id":"cebpf4jnsgd1na2vs0mg"},{"bike_id":"ff19b20c-ce22-4998-8731-8e01fed701e6","system_id":"levelo_inurba_marseille","lat":43.26551,"lon":5.37288,"is_reserved":false,"is_disabled":false,"rental_uris":{"android":"levelo://app?vid=ff19b20c-ce22-4998-8731-8e01fed701e6","ios":"levelo://app?vid=ff19b20c-ce22-4998-8731-8e01fed701e6"},"vehicle_type_id":"4","last_reported":1739221724,"current_range_meters":6400,"station_id":"ce4bhg12rcd13ifvqf70","pricing_plan_id":"cebpf4jnsgd1na2vs0mg"},{"bike_id":"6e3e39c4-4cfd-48ef-adc9-bf45ceb437b4","system_id":"levelo_inurba_marseille","lat":43.30251,"lon":5.40066,"is_reserved":false,"is_disabled":false,"rental_uris":{"android":"levelo://app?vid=6e3e39c4-4cfd-48ef-adc9-bf45ceb437b4","ios":"levelo://app?vid=6e3e39c4-4cfd-48ef-adc9-bf45ceb437b4"},"vehicle_type_id":"4","last_reported":1739221724,"current_range_meters":24000,"station_id":"ce4bgvh2rcd13ifvqcs0","pricing_plan_id":"cebpf4jnsgd1na2vs0mg"},{"bike_id":"888de15d-5155-402d-af0b-510ff5556f61","system_id":"levelo_inurba_marseille","lat":43.32367,"lon":5.38879,"is_reserved":false,"is_disabled":false,"rental_uris":{"android":"levelo://app?vid=888de15d-5155-402d-af0b-510ff5556f61","ios":"levelo://app?vid=888de15d-5155-402d-af0b-510ff5556f61"},"vehicle_type_id":"4","last_reported":1739221724,"current_range_meters":23200,"station_id":"ce4bhqp2rcd13ifvqhog","pricing_plan_id":"cebpf4jnsgd1na2vs0mg"},{"bike_id":"a384a881-f6fc-4863-a475-dcb79df35412","system_id":"levelo_inurba_marseille","lat":43.2942,"lon":5.38618,"is_reserved":false,"is_disabled":false,"rental_uris":{"android":"levelo://app?vid=a384a881-f6fc-4863-a475-dcb79df35412","ios":"levelo://app?vid=a384a881-f6fc-4863-a475-dcb79df35412"},"vehicle_type_id":"4","last_reported":1739221724,"current_range_meters":34800,"station_id":"ce4bh2h2rcd13ifvqdh0","pricing_plan_id":"cebpf4jnsgd1na2vs0mg"},{"bike_id":"04564863-f1f2-443b-b8f1-fcbab471f36d","system_id":"levelo_inurba_marseille","lat":43.29519,"lon":5.39034,"is_reserved":false,"is_disabled":false,"rental_uris":{"android":"levelo://app?vid=04564863-f1f2-443b-b8f1-fcbab471f36d","ios":"levelo://app?vid=04564863-f1f2-443b-b8f1-fcbab471f36d"},"vehicle_type_id":"4","last_reported":1739221724,"current_range_meters":38800,"station_id":"ce4bh3p2rcd13ifvqdp0","pricing_plan_id":"cebpf4jnsgd1na2vs0mg"},{"bike_id":"3eedc124-81a7-4614-9478-cebc39530283","system_id":"levelo_inurba_marseille","lat":43.30254,"lon":5.40059,"is_reserved":false,"is_disabled":false,"rental_uris":{"android":"levelo://app?vid=3eedc124-81a7-4614-9478-cebc39530283","ios":"levelo://app?vid=3eedc124-81a7-4614-9478-cebc39530283"},"vehicle_type_id":"4","last_reported":1739221724,"current_range_meters":23200,"station_id":"ce4bgvh2rcd13ifvqcs0","pricing_plan_id":"cebpf4jnsgd1na2vs0mg"},{"bike_id":"6b9426ba-665f-4e02-bdf9-1ee9f0f98801","system_id":"levelo_inurba_marseille","lat":43.2907,"lon":5.3711,"is_reserved":false,"is_disabled":false,"rental_uris":{"android":"levelo://app?vid=6b9426ba-665f-4e02-bdf9-1ee9f0f98801","ios":"levelo://app?vid=6b9426ba-665f-4e02-bdf9-1ee9f0f98801"},"vehicle_type_id":"4","last_reported":1739221724,"current_range_meters":38800,"station_id":"ce4bh5p2rcd13ifvqe4g","pricing_plan_id":"cebpf4jnsgd1na2vs0mg"},{"bike_id":"fd7cd6eb-8023-4160-9061-39fa556cf25c","system_id":"levelo_inurba_marseille","lat":43.30293,"lon":5.40483,"is_reserved":false,"is_disabled":true,"rental_uris":{"android":"levelo://app?vid=fd7cd6eb-8023-4160-9061-39fa556cf25c","ios":"levelo://app?vid=fd7cd6eb-8023-4160-9061-39fa556cf25c"},"vehicle_type_id":"4","last_reported":1739221724,"current_range_meters":31200,"station_id":"ce4bh012rcd13ifvqd10","pricing_plan_id":"cebpf4jnsgd1na2vs0mg"},{"bike_id":"a5168041-1b3d-49a6-9f44-b7b9bc9707e0","system_id":"levelo_inurba_marseille","lat":43.29241,"lon":5.38447,"is_reserved":false,"is_disabled":false,"rental_uris":{"android":"levelo://app?vid=a5168041-1b3d-49a6-9f44-b7b9bc9707e0","ios":"levelo://app?vid=a5168041-1b3d-49a6-9f44-b7b9bc9707e0"},"vehicle_type_id":"4","last_reported":1739221724,"current_range_meters":38000,"station_id":"ce4bh692rcd13ifvqea0","pricing_plan_id":"cebpf4jnsgd1na2vs0mg"},{"bike_id":"d32849cf-4c14-4032-9063-172d06d3f04f","system_id":"levelo_inurba_marseille","lat":43.23187,"lon":5.35552,"is_reserved":false,"is_disabled":false,"rental_uris":{"android":"levelo://app?vid=d32849cf-4c14-4032-9063-172d06d3f04f","ios":"levelo://app?vid=d32849cf-4c14-4032-9063-172d06d3f04f"},"vehicle_type_id":"4","last_reported":1739221724,"current_range_meters":36800,"station_id":"ce4bhu92rcd13ifvqi70","pricing_plan_id":"cebpf4jnsgd1na2vs0mg"},{"bike_id":"8874a213-102d-48ef-b2d7-c6104bb686b2","system_id":"levelo_inurba_marseille","lat":43.29552,"lon":5.42292,"is_reserved":false,"is_disabled":false,"rental_uris":{"android":"levelo://app?vid=8874a213-102d-48ef-b2d7-c6104bb686b2","ios":"levelo://app?vid=8874a213-102d-48ef-b2d7-c6104bb686b2"},"vehicle_type_id":"4","last_reported":1739221724,"current_range_meters":38800,"station_id":"ce4bhph2rcd13ifvqhdg","pricing_plan_id":"cebpf4jnsgd1na2vs0mg"},{"bike_id":"a6b5776b-449a-4723-8d97-0d90502e8bfe","system_id":"levelo_inurba_marseille","lat":43.27938,"lon":5.41066,"is_reserved":false,"is_disabled":false,"rental_uris":{"android":"levelo://app?vid=a6b5776b-449a-4723-8d97-0d90502e8bfe","ios":"levelo://app?vid=a6b5776b-449a-4723-8d97-0d90502e8bfe"},"vehicle_type_id":"4","last_reported":1739221724,"current_range_meters":38800,"station_id":"ce4bhnp2rcd13ifvqh0g","pricing_plan_id":"cebpf4jnsgd1na2vs0mg"},{"bike_id":"e8fc2879-b3d9-4b04-a54d-53719f8d30ec","system_id":"levelo_inurba_marseille","lat":43.29517,"lon":5.39414,"is_reserved":false,"is_disabled":false,"rental_uris":{"android":"levelo://app?vid=e8fc2879-b3d9-4b04-a54d-53719f8d30ec","ios":"levelo://app?vid=e8fc2879-b3d9-4b04-a54d-53719f8d30ec"},"vehicle_type_id":"4","last_reported":1739221724,"current_range_meters":29600,"station_id":"ce4bh292rcd13ifvqdf0","pricing_plan_id":"cebpf4jnsgd1na2vs0mg"},{"bike_id":"e1029be0-be01-4650-9688-fd931cb2f277","system_id":"levelo_inurba_marseille","lat":43.29023,"lon":5.38642,"is_reserved":false,"is_disabled":false,"rental_uris":{"android":"levelo://app?vid=e1029be0-be01-4650-9688-fd931cb2f277","ios":"levelo://app?vid=e1029be0-be01-4650-9688-fd931cb2f277"},"vehicle_type_id":"4","last_reported":1739221724,"current_range_meters":11200,"station_id":"ce4bh4p2rcd13ifvqe0g","pricing_plan_id":"cebpf4jnsgd1na2vs0mg"},{"bike_id":"b7cfafc0-fba3-47fa-8c3d-d96c6bee1f7a","system_id":"levelo_inurba_marseille","lat":43.24384,"lon":5.37061,"is_reserved":false,"is_disabled":false,"rental_uris":{"android":"levelo://app?vid=b7cfafc0-fba3-47fa-8c3d-d96c6bee1f7a","ios":"levelo://app?vid=b7cfafc0-fba3-47fa-8c3d-d96c6bee1f7a"},"vehicle_type_id":"4","last_reported":1739221724,"current_range_meters":36000,"station_id":"ce4bhhh2rcd13ifvqfk0","pricing_plan_id":"cebpf4jnsgd1na2vs0mg"},{"bike_id":"c0a57509-ecb2-4c0f-8c5a-e9f966c72e02","system_id":"levelo_inurba_marseille","lat":43.28678,"lon":5.38663,"is_reserved":false,"is_disabled":false,"rental_uris":{"android":"levelo://app?vid=c0a57509-ecb2-4c0f-8c5a-e9f966c72e02","ios":"levelo://app?vid=c0a57509-ecb2-4c0f-8c5a-e9f966c72e02"},"vehicle_type_id":"4","last_reported":1739221724,"current_range_meters":36000,"station_id":"ce4bh492rcd13ifvqdug","pricing_plan_id":"cebpf4jnsgd1na2vs0mg"},{"bike_id":"7ad2debf-586d-4c17-96ee-4293391683d1","system_id":"levelo_inurba_marseille","lat":43.28152,"lon":5.42623,"is_reserved":false,"is_disabled":false,"rental_uris":{"android":"levelo://app?vid=7ad2debf-586d-4c17-96ee-4293391683d1","ios":"levelo://app?vid=7ad2debf-586d-4c17-96ee-4293391683d1"},"vehicle_type_id":"4","last_reported":1739221724,"current_range_meters":20800,"station_id":"ce4bhnh2rcd13ifvqgug","pricing_plan_id":"cebpf4jnsgd1na2vs0mg"},{"bike_id":"3053beb1-cf70-417b-badc-581ea0c267b6","system_id":"levelo_inurba_marseille","lat":43.31894,"lon":5.40717,"is_reserved":false,"is_disabled":false,"rental_uris":{"android":"levelo://app?vid=3053beb1-cf70-417b-badc-581ea0c267b6","ios":"levelo://app?vid=3053beb1-cf70-417b-badc-581ea0c267b6"},"vehicle_type_id":"4","last_reported":1739221724,"current_range_meters":28800,"station_id":"ce4bhq12rcd13ifvqhig","pricing_plan_id":"cebpf4jnsgd1na2vs0mg"},{"bike_id":"386a5c6b-0374-40ee-8fee-068f2ec38f9b","system_id":"levelo_inurba_marseille","lat":43.23953,"lon":5.36627,"is_reserved":false,"is_disabled":false,"rental_uris":{"android":"levelo://app?vid=386a5c6b-0374-40ee-8fee-068f2ec38f9b","ios":"levelo://app?vid=386a5c6b-0374-40ee-8fee-068f2ec38f9b"},"vehicle_type_id":"4","last_reported":1739221724,"current_range_meters":14400,"station_id":"ce4bhi12rcd13ifvqfp0","pricing_plan_id":"cebpf4jnsgd1na2vs0mg"},{"bike_id":"a6635dcb-e63d-4619-a55b-5c428c50d4ed","system_id":"levelo_inurba_marseille","lat":43.30523,"lon":5.36694,"is_reserved":false,"is_disabled":false,"rental_uris":{"android":"levelo://app?vid=a6635dcb-e63d-4619-a55b-5c428c50d4ed","ios":"levelo://app?vid=a6635dcb-e63d-4619-a55b-5c428c50d4ed"},"vehicle_type_id":"4","last_reported":1739221724,"current_range_meters":24400,"station_id":"ce4bgrp2rcd13ifvqc9g","pricing_plan_id":"cebpf4jnsgd1na2vs0mg"},{"bike_id":"502ef3f2-f2b5-43fe-81f4-a7e02f827024","system_id":"levelo_inurba_marseille","lat":43.32662,"lon":5.40983,"is_reserved":false,"is_disabled":false,"rental_uris":{"android":"levelo://app?vid=502ef3f2-f2b5-43fe-81f4-a7e02f827024","ios":"levelo://app?vid=502ef3f2-f2b5-43fe-81f4-a7e02f827024"},"vehicle_type_id":"4","last_reported":1739221724,"current_range_meters":27200,"station_id":"ce4bhpp2rcd13ifvqhgg","pricing_plan_id":"cebpf4jnsgd1na2vs0mg"},{"bike_id":"27970130-9f58-408f-85a6-eea1ca4029cd","system_id":"levelo_inurba_marseille","lat":43.2949,"lon":5.39047,"is_reserved":false,"is_disabled":false,"rental_uris":{"android":"levelo://app?vid=27970130-9f58-408f-85a6-eea1ca4029cd","ios":"levelo://app?vid=27970130-9f58-408f-85a6-eea1ca4029cd"},"vehicle_type_id":"4","last_reported":1739221724,"current_range_meters":38800,"station_id":"ce4bh3p2rcd13ifvqdp0","pricing_plan_id":"cebpf4jnsgd1na2vs0mg"},{"bike_id":"3ad78980-d954-4439-b88d-56e0dcfe7b89","system_id":"levelo_inurba_marseille","lat":43.23962,"lon":5.36632,"is_reserved":false,"is_disabled":false,"rental_uris":{"android":"levelo://app?vid=3ad78980-d954-4439-b88d-56e0dcfe7b89","ios":"levelo://app?vid=3ad78980-d954-4439-b88d-56e0dcfe7b89"},"vehicle_type_id":"4","last_reported":1739221724,"current_range_meters":12800,"station_id":"ce4bhi12rcd13ifvqfp0","pricing_plan_id":"cebpf4jnsgd1na2vs0mg"},{"bike_id":"663330ed-b9a6-4d26-9389-f7d9bedb3ab6","system_id":"levelo_inurba_marseille","lat":43.30649,"lon":5.40086,"is_reserved":false,"is_disabled":false,"rental_uris":{"android":"levelo://app?vid=663330ed-b9a6-4d26-9389-f7d9bedb3ab6","ios":"levelo://app?vid=663330ed-b9a6-4d26-9389-f7d9bedb3ab6"},"vehicle_type_id":"4","last_reported":1739221724,"current_range_meters":29600,"station_id":"ce4bh112rcd13ifvqda0","pricing_plan_id":"cebpf4jnsgd1na2vs0mg"},{"bike_id":"57bb23cc-aacd-4798-9d5f-20a9fef2ce8a","system_id":"levelo_inurba_marseille","lat":43.30651,"lon":5.40071,"is_reserved":false,"is_disabled":false,"rental_uris":{"android":"levelo://app?vid=57bb23cc-aacd-4798-9d5f-20a9fef2ce8a","ios":"levelo://app?vid=57bb23cc-aacd-4798-9d5f-20a9fef2ce8a"},"vehicle_type_id":"4","last_reported":1739221724,"current_range_meters":28000,"station_id":"ce4bh112rcd13ifvqda0","pricing_plan_id":"cebpf4jnsgd1na2vs0mg"},{"bike_id":"f69cd6be-4142-4fae-b32e-2ad56ba1af59","system_id":"levelo_inurba_marseille","lat":43.31663,"lon":5.40495,"is_reserved":false,"is_disabled":false,"rental_uris":{"android":"levelo://app?vid=f69cd6be-4142-4fae-b32e-2ad56ba1af59","ios":"levelo://app?vid=f69cd6be-4142-4fae-b32e-2ad56ba1af59"},"vehicle_type_id":"4","last_reported":1739221724,"current_range_meters":38400,"station_id":"ce4bh012rcd13ifvqd00","pricing_plan_id":"cebpf4jnsgd1na2vs0mg"},{"bike_id":"01b0e03f-7b96-4ac3-a2a1-cc92043b5081","system_id":"levelo_inurba_marseille","lat":43.29189,"lon":5.39305,"is_reserved":false,"is_disabled":true,"rental_uris":{"android":"levelo://app?vid=01b0e03f-7b96-4ac3-a2a1-cc92043b5081","ios":"levelo://app?vid=01b0e03f-7b96-4ac3-a2a1-cc92043b5081"},"vehicle_type_id":"4","last_reported":1739221724,"current_range_meters":26000,"station_id":"ce4bh192rcd13ifvqdd0","pricing_plan_id":"cebpf4jnsgd1na2vs0mg"},{"bike_id":"0c6f46dc-c218-4346-a97c-49f6de189966","system_id":"levelo_inurba_marseille","lat":43.30932,"lon":5.40149,"is_reserved":false,"is_disabled":false,"rental_uris":{"android":"levelo://app?vid=0c6f46dc-c218-4346-a97c-49f6de189966","ios":"levelo://app?vid=0c6f46dc-c218-4346-a97c-49f6de189966"},"vehicle_type_id":"4","last_reported":1739221724,"current_range_meters":20800,"station_id":"ce4bgvp2rcd13ifvqct0","pricing_plan_id":"cebpf4jnsgd1na2vs0mg"},{"bike_id":"685a393f-51db-46f0-b2e2-fc7a6afd3cdf","system_id":"levelo_inurba_marseille","lat":43.28616,"lon":5.35119,"is_reserved":false,"is_disabled":false,"rental_uris":{"android":"levelo://app?vid=685a393f-51db-46f0-b2e2-fc7a6afd3cdf","ios":"levelo://app?vid=685a393f-51db-46f0-b2e2-fc7a6afd3cdf"},"vehicle_type_id":"4","last_reported":1739221724,"current_range_meters":37600,"station_id":"ce4bhch2rcd13ifvqeug","pricing_plan_id":"cebpf4jnsgd1na2vs0mg"},{"bike_id":"c31537fd-075d-4850-be08-65a07ef89633","system_id":"levelo_inurba_marseille","lat":43.28833,"lon":5.35866,"is_reserved":false,"is_disabled":false,"rental_uris":{"android":"levelo://app?vid=c31537fd-075d-4850-be08-65a07ef89633","ios":"levelo://app?vid=c31537fd-075d-4850-be08-65a07ef89633"},"vehicle_type_id":"4","last_reported":1739221724,"current_range_meters":38800,"station_id":"ce4bhb12rcd13ifvqem0","pricing_plan_id":"cebpf4jnsgd1na2vs0mg"},{"bike_id":"0dd5e10d-0fc8-48ea-b29d-3a910b2ad591","system_id":"levelo_inurba_marseille","lat":43.29195,"lon":5.39308,"is_reserved":false,"is_disabled":false,"rental_uris":{"android":"levelo://app?vid=0dd5e10d-0fc8-48ea-b29d-3a910b2ad591","ios":"levelo://app?vid=0dd5e10d-0fc8-48ea-b29d-3a910b2ad591"},"vehicle_type_id":"4","last_reported":1739221724,"current_range_meters":38800,"station_id":"ce4bh192rcd13ifvqdd0","pricing_plan_id":"cebpf4jnsgd1na2vs0mg"},{"bike_id":"28952774-b021-450c-9485-5a83967a4dd4","system_id":"levelo_inurba_marseille","lat":43.29617,"lon":5.37738,"is_reserved":false,"is_disabled":false,"rental_uris":{"android":"levelo://app?vid=28952774-b021-450c-9485-5a83967a4dd4","ios":"levelo://app?vid=28952774-b021-450c-9485-5a83967a4dd4"},"vehicle_type_id":"4","last_reported":1739221724,"current_range_meters":38400,"station_id":"ce4bgi92rcd13ifvqb90","pricing_plan_id":"cebpf4jnsgd1na2vs0mg"},{"bike_id":"3bb91385-514e-4bb7-bbc6-ce3aa19ccbeb","system_id":"levelo_inurba_marseille","lat":43.32002,"lon":5.38152,"is_reserved":false,"is_disabled":false,"rental_uris":{"android":"levelo://app?vid=3bb91385-514e-4bb7-bbc6-ce3aa19ccbeb","ios":"levelo://app?vid=3bb91385-514e-4bb7-bbc6-ce3aa19ccbeb"},"vehicle_type_id":"4","last_reported":1739221724,"current_range_meters":39200,"station_id":"ce4bhr12rcd13ifvqhpg","pricing_plan_id":"cebpf4jnsgd1na2vs0mg"},{"bike_id":"9f443121-e8ff-4aac-bc9a-d9077c8e664b","system_id":"levelo_inurba_marseille","lat":43.27061,"lon":5.42289,"is_reserved":false,"is_disabled":false,"rental_uris":{"android":"levelo://app?vid=9f443121-e8ff-4aac-bc9a-d9077c8e664b","ios":"levelo://app?vid=9f443121-e8ff-4aac-bc9a-d9077c8e664b"},"vehicle_type_id":"4","last_reported":1739221724,"current_range_meters":28400,"station_id":"ce4bhk92rcd13ifvqgb0","pricing_plan_id":"cebpf4jnsgd1na2vs0mg"},{"bike_id":"ca4ef645-a9d5-4dec-bc8e-46d920a6e7cd","system_id":"levelo_inurba_marseille","lat":43.31117,"lon":5.3776,"is_reserved":false,"is_disabled":false,"rental_uris":{"android":"levelo://app?vid=ca4ef645-a9d5-4dec-bc8e-46d920a6e7cd","ios":"levelo://app?vid=ca4ef645-a9d5-4dec-bc8e-46d920a6e7cd"},"vehicle_type_id":"4","last_reported":1739221724,"current_range_meters":38400,"station_id":"ce4bgt92rcd13ifvqcg0","pricing_plan_id":"cebpf4jnsgd1na2vs0mg"},{"bike_id":"62aecec9-28e9-420e-b00f-f2030f389647","system_id":"levelo_inurba_marseille","lat":43.29719,"lon":5.36606,"is_reserved":false,"is_disabled":false,"rental_uris":{"android":"levelo://app?vid=62aecec9-28e9-420e-b00f-f2030f389647","ios":"levelo://app?vid=62aecec9-28e9-420e-b00f-f2030f389647"},"vehicle_type_id":"4","last_reported":1739221724,"current_range_meters":14000,"station_id":"ce4bgn12rcd13ifvqbt0","pricing_plan_id":"cebpf4jnsgd1na2vs0mg"},{"bike_id":"c03e3e74-2231-4470-8600-8fa32748c474","system_id":"levelo_inurba_marseille","lat":43.24812,"lon":5.37441,"is_reserved":false,"is_disabled":false,"rental_uris":{"android":"levelo://app?vid=c03e3e74-2231-4470-8600-8fa32748c474","ios":"levelo://app?vid=c03e3e74-2231-4470-8600-8fa32748c474"},"vehicle_type_id":"4","last_reported":1739221724,"current_range_meters":36800,"station_id":"ce4bhgh2rcd13ifvqfb0","pricing_plan_id":"cebpf4jnsgd1na2vs0mg"},{"bike_id":"4591023d-5c1e-434a-8f93-a035257c7caf","system_id":"levelo_inurba_marseille","lat":43.283543,"lon":5.381055,"is_reserved":false,"is_disabled":false,"rental_uris":{"android":"levelo://app?vid=4591023d-5c1e-434a-8f93-a035257c7caf","ios":"levelo://app?vid=4591023d-5c1e-434a-8f93-a035257c7caf"},"vehicle_type_id":"4","last_reported":1739221724,"current_range_meters":30000,"station_id":"ce4bh412rcd13ifvqdr0","pricing_plan_id":"cebpf4jnsgd1na2vs0mg"},{"bike_id":"c2250f20-2283-4e17-b7ce-382f2f740aa1","system_id":"levelo_inurba_marseille","lat":43.24813,"lon":5.37457,"is_reserved":false,"is_disabled":false,"rental_uris":{"android":"levelo://app?vid=c2250f20-2283-4e17-b7ce-382f2f740aa1","ios":"levelo://app?vid=c2250f20-2283-4e17-b7ce-382f2f740aa1"},"vehicle_type_id":"4","last_reported":1739221724,"current_range_meters":38800,"station_id":"ce4bhgh2rcd13ifvqfb0","pricing_plan_id":"cebpf4jnsgd1na2vs0mg"},{"bike_id":"f3e6dcd4-0bb7-49b0-8654-b55263181a8d","system_id":"levelo_inurba_marseille","lat":43.28846,"lon":5.39318,"is_reserved":false,"is_disabled":false,"rental_uris":{"android":"levelo://app?vid=f3e6dcd4-0bb7-49b0-8654-b55263181a8d","ios":"levelo://app?vid=f3e6dcd4-0bb7-49b0-8654-b55263181a8d"},"vehicle_type_id":"4","last_reported":1739221724,"current_range_meters":38800,"station_id":"ce4bh2p2rcd13ifvqdi0","pricing_plan_id":"cebpf4jnsgd1na2vs0mg"},{"bike_id":"15dd1a83-8caa-43c7-8d12-1b01002176aa","system_id":"levelo_inurba_marseille","lat":43.29416,"lon":5.38676,"is_reserved":false,"is_disabled":false,"rental_uris":{"android":"levelo://app?vid=15dd1a83-8caa-43c7-8d12-1b01002176aa","ios":"levelo://app?vid=15dd1a83-8caa-43c7-8d12-1b01002176aa"},"vehicle_type_id":"4","last_reported":1739221724,"current_range_meters":28400,"station_id":"ce4bh2h2rcd13ifvqdh0","pricing_plan_id":"cebpf4jnsgd1na2vs0mg"},{"bike_id":"8e7b398d-afd6-49c7-931a-57082626117b","system_id":"levelo_inurba_marseille","lat":43.26559,"lon":5.37297,"is_reserved":false,"is_disabled":false,"rental_uris":{"android":"levelo://app?vid=8e7b398d-afd6-49c7-931a-57082626117b","ios":"levelo://app?vid=8e7b398d-afd6-49c7-931a-57082626117b"},"vehicle_type_id":"4","last_reported":1739221724,"current_range_meters":19200,"station_id":"ce4bhg12rcd13ifvqf70","pricing_plan_id":"cebpf4jnsgd1na2vs0mg"},{"bike_id":"fdcb41f8-a4c8-462f-a3ed-fdbca4069024","system_id":"levelo_inurba_marseille","lat":43.28097,"lon":5.39612,"is_reserved":false,"is_disabled":false,"rental_uris":{"android":"levelo://app?vid=fdcb41f8-a4c8-462f-a3ed-fdbca4069024","ios":"levelo://app?vid=fdcb41f8-a4c8-462f-a3ed-fdbca4069024"},"vehicle_type_id":"4","last_reported":1739221724,"current_range_meters":39200,"station_id":"ce4bho12rcd13ifvqh2g","pricing_plan_id":"cebpf4jnsgd1na2vs0mg"},{"bike_id":"441756a0-4bd6-444f-844a-706673d06d5d","system_id":"levelo_inurba_marseille","lat":43.28122,"lon":5.39859,"is_reserved":false,"is_disabled":false,"rental_uris":{"android":"levelo://app?vid=441756a0-4bd6-444f-844a-706673d06d5d","ios":"levelo://app?vid=441756a0-4bd6-444f-844a-706673d06d5d"},"vehicle_type_id":"4","last_reported":1739221724,"current_range_meters":10800,"station_id":"","pricing_plan_id":"cebpf4jnsgd1na2vs0mg"},{"bike_id":"46364d9d-9e7c-4b5a-9d07-d05c87074a64","system_id":"levelo_inurba_marseille","lat":43.29502,"lon":5.39064,"is_reserved":false,"is_disabled":true,"rental_uris":{"android":"levelo://app?vid=46364d9d-9e7c-4b5a-9d07-d05c87074a64","ios":"levelo://app?vid=46364d9d-9e7c-4b5a-9d07-d05c87074a64"},"vehicle_type_id":"4","last_reported":1739221724,"current_range_meters":23200,"station_id":"ce4bh3p2rcd13ifvqdp0","pricing_plan_id":"cebpf4jnsgd1na2vs0mg"},{"bike_id":"b9d74321-a497-4f2b-975f-5934661f64d2","system_id":"levelo_inurba_marseille","lat":43.28703,"lon":5.40003,"is_reserved":false,"is_disabled":false,"rental_uris":{"android":"levelo://app?vid=b9d74321-a497-4f2b-975f-5934661f64d2","ios":"levelo://app?vid=b9d74321-a497-4f2b-975f-5934661f64d2"},"vehicle_type_id":"4","last_reported":1739221724,"current_range_meters":12400,"station_id":"ce4bho92rcd13ifvqh3g","pricing_plan_id":"cebpf4jnsgd1na2vs0mg"},{"bike_id":"9250c9b2-797c-4732-8fd5-42f42ec1c970","system_id":"levelo_inurba_marseille","lat":43.3127,"lon":5.40178,"is_reserved":false,"is_disabled":false,"rental_uris":{"android":"levelo://app?vid=9250c9b2-797c-4732-8fd5-42f42ec1c970","ios":"levelo://app?vid=9250c9b2-797c-4732-8fd5-42f42ec1c970"},"vehicle_type_id":"4","last_reported":1739221724,"current_range_meters":27600,"station_id":"ce4bh092rcd13ifvqd30","pricing_plan_id":"cebpf4jnsgd1na2vs0mg"},{"bike_id":"afc17562-3144-48d4-9cc5-555f7f658280","system_id":"levelo_inurba_marseille","lat":43.23191,"lon":5.35544,"is_reserved":false,"is_disabled":false,"rental_uris":{"android":"levelo://app?vid=afc17562-3144-48d4-9cc5-555f7f658280","ios":"levelo://app?vid=afc17562-3144-48d4-9cc5-555f7f658280"},"vehicle_type_id":"4","last_reported":1739221724,"current_range_meters":20400,"station_id":"ce4bhu92rcd13ifvqi70","pricing_plan_id":"cebpf4jnsgd1na2vs0mg"},{"bike_id":"87559b12-04e2-484c-a007-c1577916bc84","system_id":"levelo_inurba_marseille","lat":43.29867,"lon":5.3976,"is_reserved":false,"is_disabled":false,"rental_uris":{"android":"levelo://app?vid=87559b12-04e2-484c-a007-c1577916bc84","ios":"levelo://app?vid=87559b12-04e2-484c-a007-c1577916bc84"},"vehicle_type_id":"4","last_reported":1739221724,"current_range_meters":24800,"station_id":"ce4bh0h2rcd13ifvqd50","pricing_plan_id":"cebpf4jnsgd1na2vs0mg"},{"bike_id":"f2bb126f-643d-4a25-858d-fedf5173828e","system_id":"levelo_inurba_marseille","lat":43.28462,"lon":5.35884,"is_reserved":false,"is_disabled":false,"rental_uris":{"android":"levelo://app?vid=f2bb126f-643d-4a25-858d-fedf5173828e","ios":"levelo://app?vid=f2bb126f-643d-4a25-858d-fedf5173828e"},"vehicle_type_id":"4","last_reported":1739221724,"current_range_meters":36800,"station_id":"ce4bhah2rcd13ifvqei0","pricing_plan_id":"cebpf4jnsgd1na2vs0mg"},{"bike_id":"aa11e593-fb23-42e8-ac9a-9189f6145ec1","system_id":"levelo_inurba_marseille","lat":43.29535,"lon":5.39026,"is_reserved":false,"is_disabled":false,"rental_uris":{"android":"levelo://app?vid=aa11e593-fb23-42e8-ac9a-9189f6145ec1","ios":"levelo://app?vid=aa11e593-fb23-42e8-ac9a-9189f6145ec1"},"vehicle_type_id":"4","last_reported":1739221724,"current_range_meters":38800,"station_id":"ce4bh3p2rcd13ifvqdp0","pricing_plan_id":"cebpf4jnsgd1na2vs0mg"},{"bike_id":"7778ab7e-867c-4916-9ab5-8e4d9b2f9cfc","system_id":"levelo_inurba_marseille","lat":43.29007,"lon":5.356,"is_reserved":false,"is_disabled":false,"rental_uris":{"android":"levelo://app?vid=7778ab7e-867c-4916-9ab5-8e4d9b2f9cfc","ios":"levelo://app?vid=7778ab7e-867c-4916-9ab5-8e4d9b2f9cfc"},"vehicle_type_id":"4","last_reported":1739221724,"current_range_meters":34000,"station_id":"ce4bhb92rcd13ifvqen0","pricing_plan_id":"cebpf4jnsgd1na2vs0mg"},{"bike_id":"2f016618-2147-48d7-a4c9-c32f1b8bbb3b","system_id":"levelo_inurba_marseille","lat":43.31888,"lon":5.40741,"is_reserved":false,"is_disabled":false,"rental_uris":{"android":"levelo://app?vid=2f016618-2147-48d7-a4c9-c32f1b8bbb3b","ios":"levelo://app?vid=2f016618-2147-48d7-a4c9-c32f1b8bbb3b"},"vehicle_type_id":"4","last_reported":1739221724,"current_range_meters":28400,"station_id":"ce4bhq12rcd13ifvqhig","pricing_plan_id":"cebpf4jnsgd1na2vs0mg"},{"bike_id":"062456ee-bcc2-4d85-8a6a-b3e620e445e1","system_id":"levelo_inurba_marseille","lat":43.31272,"lon":5.40163,"is_reserved":false,"is_disabled":false,"rental_uris":{"android":"levelo://app?vid=062456ee-bcc2-4d85-8a6a-b3e620e445e1","ios":"levelo://app?vid=062456ee-bcc2-4d85-8a6a-b3e620e445e1"},"vehicle_type_id":"4","last_reported":1739221724,"current_range_meters":24800,"station_id":"ce4bh092rcd13ifvqd30","pricing_plan_id":"cebpf4jnsgd1na2vs0mg"},{"bike_id":"b0912897-5adc-4071-9880-38365ba902c0","system_id":"levelo_inurba_marseille","lat":43.31076,"lon":5.38344,"is_reserved":false,"is_disabled":false,"rental_uris":{"android":"levelo://app?vid=b0912897-5adc-4071-9880-38365ba902c0","ios":"levelo://app?vid=b0912897-5adc-4071-9880-38365ba902c0"},"vehicle_type_id":"4","last_reported":1739221724,"current_range_meters":10800,"station_id":"ce4bgv92rcd13ifvqcr0","pricing_plan_id":"cebpf4jnsgd1na2vs0mg"},{"bike_id":"1d2000e3-6e82-4c8d-9a0a-5d8181e36eb3","system_id":"levelo_inurba_marseille","lat":43.250137,"lon":5.389163,"is_reserved":false,"is_disabled":false,"rental_uris":{"android":"levelo://app?vid=1d2000e3-6e82-4c8d-9a0a-5d8181e36eb3","ios":"levelo://app?vid=1d2000e3-6e82-4c8d-9a0a-5d8181e36eb3"},"vehicle_type_id":"4","last_reported":1739221724,"current_range_meters":9200,"station_id":"ce4bhgp2rcd13ifvqfd0","pricing_plan_id":"cebpf4jnsgd1na2vs0mg"},{"bike_id":"18de598c-8984-48ca-bcb3-e9d09f7b954c","system_id":"levelo_inurba_marseille","lat":43.28802,"lon":5.35766,"is_reserved":false,"is_disabled":false,"rental_uris":{"android":"levelo://app?vid=18de598c-8984-48ca-bcb3-e9d09f7b954c","ios":"levelo://app?vid=18de598c-8984-48ca-bcb3-e9d09f7b954c"},"vehicle_type_id":"4","last_reported":1739221724,"current_range_meters":27200,"station_id":"","pricing_plan_id":"cebpf4jnsgd1na2vs0mg"},{"bike_id":"ab056ecb-7c4d-4f3a-98d2-8a94e69e20b2","system_id":"levelo_inurba_marseille","lat":43.28612,"lon":5.35108,"is_reserved":false,"is_disabled":false,"rental_uris":{"android":"levelo://app?vid=ab056ecb-7c4d-4f3a-98d2-8a94e69e20b2","ios":"levelo://app?vid=ab056ecb-7c4d-4f3a-98d2-8a94e69e20b2"},"vehicle_type_id":"4","last_reported":1739221724,"current_range_meters":29600,"station_id":"ce4bhch2rcd13ifvqeug","pricing_plan_id":"cebpf4jnsgd1na2vs0mg"},{"bike_id":"943ba238-d366-46cc-a98f-ba2ce1a87934","system_id":"levelo_inurba_marseille","lat":43.28641,"lon":5.36386,"is_reserved":false,"is_disabled":false,"rental_uris":{"android":"levelo://app?vid=943ba238-d366-46cc-a98f-ba2ce1a87934","ios":"levelo://app?vid=943ba238-d366-46cc-a98f-ba2ce1a87934"},"vehicle_type_id":"4","last_reported":1739221724,"current_range_meters":19600,"station_id":"ce4bhah2rcd13ifvqej0","pricing_plan_id":"cebpf4jnsgd1na2vs0mg"},{"bike_id":"1abd69e6-51a5-4fe7-a390-4a600d63c770","system_id":"levelo_inurba_marseille","lat":43.2926,"lon":5.40181,"is_reserved":false,"is_disabled":false,"rental_uris":{"android":"levelo://app?vid=1abd69e6-51a5-4fe7-a390-4a600d63c770","ios":"levelo://app?vid=1abd69e6-51a5-4fe7-a390-4a600d63c770"},"vehicle_type_id":"4","last_reported":1739221724,"current_range_meters":6400,"station_id":"","pricing_plan_id":"cebpf4jnsgd1na2vs0mg"},{"bike_id":"608985ea-b118-4737-bd01-dd2be4e84635","system_id":"levelo_inurba_marseille","lat":43.315,"lon":5.37283,"is_reserved":false,"is_disabled":false,"rental_uris":{"android":"levelo://app?vid=608985ea-b118-4737-bd01-dd2be4e84635","ios":"levelo://app?vid=608985ea-b118-4737-bd01-dd2be4e84635"},"vehicle_type_id":"4","last_reported":1739221724,"current_range_meters":26000,"station_id":"ce4bgt12rcd13ifvqcd0","pricing_plan_id":"cebpf4jnsgd1na2vs0mg"},{"bike_id":"79c27d1b-6e84-42bc-bef4-d8fc6ca0d19a","system_id":"levelo_inurba_marseille","lat":43.28668,"lon":5.40011,"is_reserved":false,"is_disabled":true,"rental_uris":{"android":"levelo://app?vid=79c27d1b-6e84-42bc-bef4-d8fc6ca0d19a","ios":"levelo://app?vid=79c27d1b-6e84-42bc-bef4-d8fc6ca0d19a"},"vehicle_type_id":"4","last_reported":1739221724,"current_range_meters":38800,"station_id":"","pricing_plan_id":"cebpf4jnsgd1na2vs0mg"},{"bike_id":"d5a37605-4e0b-406c-a924-7ca9f964c4e0","system_id":"levelo_inurba_marseille","lat":43.24814,"lon":5.37465,"is_reserved":false,"is_disabled":false,"rental_uris":{"android":"levelo://app?vid=d5a37605-4e0b-406c-a924-7ca9f964c4e0","ios":"levelo://app?vid=d5a37605-4e0b-406c-a924-7ca9f964c4e0"},"vehicle_type_id":"4","last_reported":1739221724,"current_range_meters":28400,"station_id":"ce4bhgh2rcd13ifvqfb0","pricing_plan_id":"cebpf4jnsgd1na2vs0mg"},{"bike_id":"2f9906fe-0c89-4b86-a39b-e1b3d8114c06","system_id":"levelo_inurba_marseille","lat":43.28925,"lon":5.36625,"is_reserved":false,"is_disabled":false,"rental_uris":{"android":"levelo://app?vid=2f9906fe-0c89-4b86-a39b-e1b3d8114c06","ios":"levelo://app?vid=2f9906fe-0c89-4b86-a39b-e1b3d8114c06"},"vehicle_type_id":"4","last_reported":1739221724,"current_range_meters":32000,"station_id":"ce4bhap2rcd13ifvqek0","pricing_plan_id":"cebpf4jnsgd1na2vs0mg"},{"bike_id":"ddaf09b0-2c3b-4688-b484-14cdfe4165fc","system_id":"levelo_inurba_marseille","lat":43.28703,"lon":5.37374,"is_reserved":false,"is_disabled":false,"rental_uris":{"android":"levelo://app?vid=ddaf09b0-2c3b-4688-b484-14cdfe4165fc","ios":"levelo://app?vid=ddaf09b0-2c3b-4688-b484-14cdfe4165fc"},"vehicle_type_id":"4","last_reported":1739221724,"current_range_meters":23200,"station_id":"ce4bh3p2rcd13ifvqdq0","pricing_plan_id":"cebpf4jnsgd1na2vs0mg"},{"bike_id":"04d4b8ab-1d4d-44ab-9d49-e10f569c0553","system_id":"levelo_inurba_marseille","lat":43.298477,"lon":5.362527,"is_reserved":false,"is_disabled":false,"rental_uris":{"android":"levelo://app?vid=04d4b8ab-1d4d-44ab-9d49-e10f569c0553","ios":"levelo://app?vid=04d4b8ab-1d4d-44ab-9d49-e10f569c0553"},"vehicle_type_id":"4","last_reported":1739221724,"current_range_meters":12400,"station_id":"ce4bgpp2rcd13ifvqc3g","pricing_plan_id":"cebpf4jnsgd1na2vs0mg"},{"bike_id":"a97f3a8d-e1f7-4ede-af5a-b155aa57a80e","system_id":"levelo_inurba_marseille","lat":43.25571,"lon":5.38229,"is_reserved":false,"is_disabled":false,"rental_uris":{"android":"levelo://app?vid=a97f3a8d-e1f7-4ede-af5a-b155aa57a80e","ios":"levelo://app?vid=a97f3a8d-e1f7-4ede-af5a-b155aa57a80e"},"vehicle_type_id":"4","last_reported":1739221724,"current_range_meters":17600,"station_id":"ce4bhih2rcd13ifvqfs0","pricing_plan_id":"cebpf4jnsgd1na2vs0mg"},{"bike_id":"e7978a9e-c76d-49c3-b991-c2733ada93ec","system_id":"levelo_inurba_marseille","lat":43.26945,"lon":5.40254,"is_reserved":false,"is_disabled":false,"rental_uris":{"android":"levelo://app?vid=e7978a9e-c76d-49c3-b991-c2733ada93ec","ios":"levelo://app?vid=e7978a9e-c76d-49c3-b991-c2733ada93ec"},"vehicle_type_id":"4","last_reported":1739221724,"current_range_meters":38800,"station_id":"cjm6bp8fraef2m0cb0m0","pricing_plan_id":"cebpf4jnsgd1na2vs0mg"},{"bike_id":"07baf43e-fc57-48a3-beea-0bd26e095e21","system_id":"levelo_inurba_marseille","lat":43.29199,"lon":5.39309,"is_reserved":false,"is_disabled":false,"rental_uris":{"android":"levelo://app?vid=07baf43e-fc57-48a3-beea-0bd26e095e21","ios":"levelo://app?vid=07baf43e-fc57-48a3-beea-0bd26e095e21"},"vehicle_type_id":"4","last_reported":1739221724,"current_range_meters":25200,"station_id":"ce4bh192rcd13ifvqdd0","pricing_plan_id":"cebpf4jnsgd1na2vs0mg"},{"bike_id":"1af00a82-b32d-4f50-8686-c27833a37a2d","system_id":"levelo_inurba_marseille","lat":43.30323,"lon":5.40419,"is_reserved":false,"is_disabled":false,"rental_uris":{"android":"levelo://app?vid=1af00a82-b32d-4f50-8686-c27833a37a2d","ios":"levelo://app?vid=1af00a82-b32d-4f50-8686-c27833a37a2d"},"vehicle_type_id":"4","last_reported":1739221724,"current_range_meters":38000,"station_id":"ce4bh012rcd13ifvqd10","pricing_plan_id":"cebpf4jnsgd1na2vs0mg"},{"bike_id":"c4813b27-4250-43ea-8be5-ccd7321d2af3","system_id":"levelo_inurba_marseille","lat":43.28215,"lon":5.36987,"is_reserved":false,"is_disabled":false,"rental_uris":{"android":"levelo://app?vid=c4813b27-4250-43ea-8be5-ccd7321d2af3","ios":"levelo://app?vid=c4813b27-4250-43ea-8be5-ccd7321d2af3"},"vehicle_type_id":"4","last_reported":1739221724,"current_range_meters":24800,"station_id":"","pricing_plan_id":"cebpf4jnsgd1na2vs0mg"},{"bike_id":"93bc07c8-c5e8-4508-b353-1c2773c131f8","system_id":"levelo_inurba_marseille","lat":43.33605,"lon":5.41044,"is_reserved":false,"is_disabled":false,"rental_uris":{"android":"levelo://app?vid=93bc07c8-c5e8-4508-b353-1c2773c131f8","ios":"levelo://app?vid=93bc07c8-c5e8-4508-b353-1c2773c131f8"},"vehicle_type_id":"4","last_reported":1739221724,"current_range_meters":39200,"station_id":"ce4bhqh2rcd13ifvqhmg","pricing_plan_id":"cebpf4jnsgd1na2vs0mg"},{"bike_id":"db45b2ad-8e58-4df6-8875-abc370f12198","system_id":"levelo_inurba_marseille","lat":43.31748,"lon":5.39011,"is_reserved":false,"is_disabled":false,"rental_uris":{"android":"levelo://app?vid=db45b2ad-8e58-4df6-8875-abc370f12198","ios":"levelo://app?vid=db45b2ad-8e58-4df6-8875-abc370f12198"},"vehicle_type_id":"4","last_reported":1739221724,"current_range_meters":24800,"station_id":"ce4bhqp2rcd13ifvqhng","pricing_plan_id":"cebpf4jnsgd1na2vs0mg"},{"bike_id":"e37c9fdc-db44-44ae-b88a-8beacc270b7e","system_id":"levelo_inurba_marseille","lat":43.27946,"lon":5.41055,"is_reserved":false,"is_disabled":false,"rental_uris":{"android":"levelo://app?vid=e37c9fdc-db44-44ae-b88a-8beacc270b7e","ios":"levelo://app?vid=e37c9fdc-db44-44ae-b88a-8beacc270b7e"},"vehicle_type_id":"4","last_reported":1739221724,"current_range_meters":26000,"station_id":"ce4bhnp2rcd13ifvqh0g","pricing_plan_id":"cebpf4jnsgd1na2vs0mg"},{"bike_id":"30040434-0ce6-4639-9cfb-4b7e126d7c60","system_id":"levelo_inurba_marseille","lat":43.27498,"lon":5.42447,"is_reserved":false,"is_disabled":false,"rental_uris":{"android":"levelo://app?vid=30040434-0ce6-4639-9cfb-4b7e126d7c60","ios":"levelo://app?vid=30040434-0ce6-4639-9cfb-4b7e126d7c60"},"vehicle_type_id":"4","last_reported":1739221724,"current_range_meters":38800,"station_id":"ce4bhn92rcd13ifvqgrg","pricing_plan_id":"cebpf4jnsgd1na2vs0mg"},{"bike_id":"a117d062-891c-464b-a886-0833e3677149","system_id":"levelo_inurba_marseille","lat":43.29842,"lon":5.36264,"is_reserved":false,"is_disabled":false,"rental_uris":{"android":"levelo://app?vid=a117d062-891c-464b-a886-0833e3677149","ios":"levelo://app?vid=a117d062-891c-464b-a886-0833e3677149"},"vehicle_type_id":"4","last_reported":1739221724,"current_range_meters":16800,"station_id":"ce4bgpp2rcd13ifvqc3g","pricing_plan_id":"cebpf4jnsgd1na2vs0mg"},{"bike_id":"88e80728-2653-4cc5-b165-3c0335fad05c","system_id":"levelo_inurba_marseille","lat":43.24807,"lon":5.37456,"is_reserved":false,"is_disabled":false,"rental_uris":{"android":"levelo://app?vid=88e80728-2653-4cc5-b165-3c0335fad05c","ios":"levelo://app?vid=88e80728-2653-4cc5-b165-3c0335fad05c"},"vehicle_type_id":"4","last_reported":1739221724,"current_range_meters":30000,"station_id":"ce4bhgh2rcd13ifvqfb0","pricing_plan_id":"cebpf4jnsgd1na2vs0mg"},{"bike_id":"addd07a1-34d8-46c5-813c-e5860355448f","system_id":"levelo_inurba_marseille","lat":43.28424,"lon":5.37512,"is_reserved":false,"is_disabled":false,"rental_uris":{"android":"levelo://app?vid=addd07a1-34d8-46c5-813c-e5860355448f","ios":"levelo://app?vid=addd07a1-34d8-46c5-813c-e5860355448f"},"vehicle_type_id":"4","last_reported":1739221724,"current_range_meters":29600,"station_id":"ce4bho92rcd13ifvqh3g","pricing_plan_id":"cebpf4jnsgd1na2vs0mg"},{"bike_id":"868bab58-7fb6-4926-8070-cd9a4296d6f1","system_id":"levelo_inurba_marseille","lat":43.28356,"lon":5.38101,"is_reserved":false,"is_disabled":false,"rental_uris":{"android":"levelo://app?vid=868bab58-7fb6-4926-8070-cd9a4296d6f1","ios":"levelo://app?vid=868bab58-7fb6-4926-8070-cd9a4296d6f1"},"vehicle_type_id":"4","last_reported":1739221724,"current_range_meters":38000,"station_id":"ce4bh412rcd13ifvqdr0","pricing_plan_id":"cebpf4jnsgd1na2vs0mg"},{"bike_id":"ce4a7ce0-e12e-4e73-b43d-a872476e1c85","system_id":"levelo_inurba_marseille","lat":43.3093,"lon":5.40139,"is_reserved":false,"is_disabled":false,"rental_uris":{"android":"levelo://app?vid=ce4a7ce0-e12e-4e73-b43d-a872476e1c85","ios":"levelo://app?vid=ce4a7ce0-e12e-4e73-b43d-a872476e1c85"},"vehicle_type_id":"4","last_reported":1739221724,"current_range_meters":16400,"station_id":"ce4bgvp2rcd13ifvqct0","pricing_plan_id":"cebpf4jnsgd1na2vs0mg"},{"bike_id":"d8e60575-dd75-42cd-9b3b-ddc5b6951e4c","system_id":"levelo_inurba_marseille","lat":43.30363,"lon":5.41866,"is_reserved":false,"is_disabled":false,"rental_uris":{"android":"levelo://app?vid=d8e60575-dd75-42cd-9b3b-ddc5b6951e4c","ios":"levelo://app?vid=d8e60575-dd75-42cd-9b3b-ddc5b6951e4c"},"vehicle_type_id":"4","last_reported":1739221724,"current_range_meters":37600,"station_id":"ce4bhop2rcd13ifvqh7g","pricing_plan_id":"cebpf4jnsgd1na2vs0mg"},{"bike_id":"841e0f04-b00a-44de-83b7-b9b92c40d93b","system_id":"levelo_inurba_marseille","lat":43.28157,"lon":5.42611,"is_reserved":false,"is_disabled":false,"rental_uris":{"android":"levelo://app?vid=841e0f04-b00a-44de-83b7-b9b92c40d93b","ios":"levelo://app?vid=841e0f04-b00a-44de-83b7-b9b92c40d93b"},"vehicle_type_id":"4","last_reported":1739221724,"current_range_meters":16800,"station_id":"ce4bhnh2rcd13ifvqgug","pricing_plan_id":"cebpf4jnsgd1na2vs0mg"},{"bike_id":"4740ba17-16bf-4c07-b1cb-0cf663b53a6e","system_id":"levelo_inurba_marseille","lat":43.311225,"lon":5.377767,"is_reserved":false,"is_disabled":false,"rental_uris":{"android":"levelo://app?vid=4740ba17-16bf-4c07-b1cb-0cf663b53a6e","ios":"levelo://app?vid=4740ba17-16bf-4c07-b1cb-0cf663b53a6e"},"vehicle_type_id":"4","last_reported":1739221724,"current_range_meters":39200,"station_id":"ce4bgt92rcd13ifvqcg0","pricing_plan_id":"cebpf4jnsgd1na2vs0mg"},{"bike_id":"88379eaf-5a6d-4117-a07a-21ee5231369a","system_id":"levelo_inurba_marseille","lat":43.31539,"lon":5.38032,"is_reserved":false,"is_disabled":false,"rental_uris":{"android":"levelo://app?vid=88379eaf-5a6d-4117-a07a-21ee5231369a","ios":"levelo://app?vid=88379eaf-5a6d-4117-a07a-21ee5231369a"},"vehicle_type_id":"4","last_reported":1739221724,"current_range_meters":38800,"station_id":"ce4bhsp2rcd13ifvqi50","pricing_plan_id":"cebpf4jnsgd1na2vs0mg"},{"bike_id":"94e65cad-5027-4e43-a6cb-62490b8dcb87","system_id":"levelo_inurba_marseille","lat":43.31493,"lon":5.37314,"is_reserved":false,"is_disabled":false,"rental_uris":{"android":"levelo://app?vid=94e65cad-5027-4e43-a6cb-62490b8dcb87","ios":"levelo://app?vid=94e65cad-5027-4e43-a6cb-62490b8dcb87"},"vehicle_type_id":"4","last_reported":1739221724,"current_range_meters":19600,"station_id":"ce4bgt12rcd13ifvqcd0","pricing_plan_id":"cebpf4jnsgd1na2vs0mg"},{"bike_id":"3b02c059-a9f7-4a50-ad3f-06428f011e73","system_id":"levelo_inurba_marseille","lat":43.26813,"lon":5.39467,"is_reserved":false,"is_disabled":false,"rental_uris":{"android":"levelo://app?vid=3b02c059-a9f7-4a50-ad3f-06428f011e73","ios":"levelo://app?vid=3b02c059-a9f7-4a50-ad3f-06428f011e73"},"vehicle_type_id":"4","last_reported":1739221724,"current_range_meters":38000,"station_id":"ce4bhh12rcd13ifvqfg0","pricing_plan_id":"cebpf4jnsgd1na2vs0mg"},{"bike_id":"73e31d25-afb3-49ff-b748-3fe454da947d","system_id":"levelo_inurba_marseille","lat":43.28926,"lon":5.36647,"is_reserved":false,"is_disabled":false,"rental_uris":{"android":"levelo://app?vid=73e31d25-afb3-49ff-b748-3fe454da947d","ios":"levelo://app?vid=73e31d25-afb3-49ff-b748-3fe454da947d"},"vehicle_type_id":"4","last_reported":1739221724,"current_range_meters":39200,"station_id":"ce4bhap2rcd13ifvqek0","pricing_plan_id":"cebpf4jnsgd1na2vs0mg"},{"bike_id":"b8cbd248-db62-4d84-b3a4-fd8e7e00f9d3","system_id":"levelo_inurba_marseille","lat":43.280339,"lon":5.369478,"is_reserved":false,"is_disabled":false,"rental_uris":{"android":"levelo://app?vid=b8cbd248-db62-4d84-b3a4-fd8e7e00f9d3","ios":"levelo://app?vid=b8cbd248-db62-4d84-b3a4-fd8e7e00f9d3"},"vehicle_type_id":"4","last_reported":1739221724,"current_range_meters":32400,"station_id":"ce4bha12rcd13ifvqef0","pricing_plan_id":"cebpf4jnsgd1na2vs0mg"},{"bike_id":"1ec14052-2d33-4aa1-9ab8-58cc71db74d1","system_id":"levelo_inurba_marseille","lat":43.24168,"lon":5.36412,"is_reserved":false,"is_disabled":false,"rental_uris":{"android":"levelo://app?vid=1ec14052-2d33-4aa1-9ab8-58cc71db74d1","ios":"levelo://app?vid=1ec14052-2d33-4aa1-9ab8-58cc71db74d1"},"vehicle_type_id":"4","last_reported":1739221724,"current_range_meters":17600,"station_id":"cpo36qri1sfpv3e86is0","pricing_plan_id":"cebpf4jnsgd1na2vs0mg"},{"bike_id":"6e99eac2-ce29-457d-b4dd-f5cd87e6b34c","system_id":"levelo_inurba_marseille","lat":43.2834,"lon":5.38119,"is_reserved":false,"is_disabled":false,"rental_uris":{"android":"levelo://app?vid=6e99eac2-ce29-457d-b4dd-f5cd87e6b34c","ios":"levelo://app?vid=6e99eac2-ce29-457d-b4dd-f5cd87e6b34c"},"vehicle_type_id":"4","last_reported":1739221724,"current_range_meters":39200,"station_id":"ce4bh412rcd13ifvqdr0","pricing_plan_id":"cebpf4jnsgd1na2vs0mg"},{"bike_id":"01a4ff33-ad46-4a1a-85a1-5db5e810cad1","system_id":"levelo_inurba_marseille","lat":43.29635,"lon":5.4059,"is_reserved":false,"is_disabled":false,"rental_uris":{"android":"levelo://app?vid=01a4ff33-ad46-4a1a-85a1-5db5e810cad1","ios":"levelo://app?vid=01a4ff33-ad46-4a1a-85a1-5db5e810cad1"},"vehicle_type_id":"4","last_reported":1739221724,"current_range_meters":33600,"station_id":"ce4bh0h2rcd13ifvqd60","pricing_plan_id":"cebpf4jnsgd1na2vs0mg"},{"bike_id":"a8eb7d54-da88-4020-a71f-24fa02f4c4b2","system_id":"levelo_inurba_marseille","lat":43.3234,"lon":5.40622,"is_reserved":false,"is_disabled":false,"rental_uris":{"android":"levelo://app?vid=a8eb7d54-da88-4020-a71f-24fa02f4c4b2","ios":"levelo://app?vid=a8eb7d54-da88-4020-a71f-24fa02f4c4b2"},"vehicle_type_id":"4","last_reported":1739221724,"current_range_meters":7200,"station_id":"ce4bhq92rcd13ifvqhjg","pricing_plan_id":"cebpf4jnsgd1na2vs0mg"},{"bike_id":"1fc2e01a-39db-473e-9340-05e46c2bfee3","system_id":"levelo_inurba_marseille","lat":43.28557,"lon":5.39519,"is_reserved":false,"is_disabled":false,"rental_uris":{"android":"levelo://app?vid=1fc2e01a-39db-473e-9340-05e46c2bfee3","ios":"levelo://app?vid=1fc2e01a-39db-473e-9340-05e46c2bfee3"},"vehicle_type_id":"4","last_reported":1739221724,"current_range_meters":39200,"station_id":"ce4bh292rcd13ifvqdg0","pricing_plan_id":"cebpf4jnsgd1na2vs0mg"},{"bike_id":"609de531-9d7a-43f1-8281-bbda2a56fe01","system_id":"levelo_inurba_marseille","lat":43.30928,"lon":5.40155,"is_reserved":false,"is_disabled":false,"rental_uris":{"android":"levelo://app?vid=609de531-9d7a-43f1-8281-bbda2a56fe01","ios":"levelo://app?vid=609de531-9d7a-43f1-8281-bbda2a56fe01"},"vehicle_type_id":"4","last_reported":1739221724,"current_range_meters":38800,"station_id":"ce4bgvp2rcd13ifvqct0","pricing_plan_id":"cebpf4jnsgd1na2vs0mg"},{"bike_id":"fbb98623-bd6f-4427-9463-8f7fc3b3bd20","system_id":"levelo_inurba_marseille","lat":43.2803,"lon":5.3695,"is_reserved":false,"is_disabled":false,"rental_uris":{"android":"levelo://app?vid=fbb98623-bd6f-4427-9463-8f7fc3b3bd20","ios":"levelo://app?vid=fbb98623-bd6f-4427-9463-8f7fc3b3bd20"},"vehicle_type_id":"4","last_reported":1739221724,"current_range_meters":31200,"station_id":"ce4bha12rcd13ifvqef0","pricing_plan_id":"cebpf4jnsgd1na2vs0mg"},{"bike_id":"d37a56cf-7136-4e6e-a35d-b588d1bd39ab","system_id":"levelo_inurba_marseille","lat":43.31534,"lon":5.3803,"is_reserved":false,"is_disabled":false,"rental_uris":{"android":"levelo://app?vid=d37a56cf-7136-4e6e-a35d-b588d1bd39ab","ios":"levelo://app?vid=d37a56cf-7136-4e6e-a35d-b588d1bd39ab"},"vehicle_type_id":"4","last_reported":1739221724,"current_range_meters":31200,"station_id":"ce4bhsp2rcd13ifvqi50","pricing_plan_id":"cebpf4jnsgd1na2vs0mg"},{"bike_id":"1f4035c9-8a5c-4fac-87cb-146b8f52eaaa","system_id":"levelo_inurba_marseille","lat":43.28426,"lon":5.39186,"is_reserved":false,"is_disabled":false,"rental_uris":{"android":"levelo://app?vid=1f4035c9-8a5c-4fac-87cb-146b8f52eaaa","ios":"levelo://app?vid=1f4035c9-8a5c-4fac-87cb-146b8f52eaaa"},"vehicle_type_id":"4","last_reported":1739221724,"current_range_meters":32800,"station_id":"ce4bhoh2rcd13ifvqh5g","pricing_plan_id":"cebpf4jnsgd1na2vs0mg"},{"bike_id":"7ed0d402-b754-4ce0-9a11-53924e97981e","system_id":"levelo_inurba_marseille","lat":43.3014,"lon":5.39863,"is_reserved":false,"is_disabled":false,"rental_uris":{"android":"levelo://app?vid=7ed0d402-b754-4ce0-9a11-53924e97981e","ios":"levelo://app?vid=7ed0d402-b754-4ce0-9a11-53924e97981e"},"vehicle_type_id":"4","last_reported":1739221724,"current_range_meters":15200,"station_id":"ce4bh0h2rcd13ifvqd40","pricing_plan_id":"cebpf4jnsgd1na2vs0mg"},{"bike_id":"bc273e0f-e8b2-4c30-8655-61daca2eeed0","system_id":"levelo_inurba_marseille","lat":43.25144,"lon":5.40268,"is_reserved":false,"is_disabled":false,"rental_uris":{"android":"levelo://app?vid=bc273e0f-e8b2-4c30-8655-61daca2eeed0","ios":"levelo://app?vid=bc273e0f-e8b2-4c30-8655-61daca2eeed0"},"vehicle_type_id":"4","last_reported":1739221724,"current_range_meters":38800,"station_id":"ce4bhlh2rcd13ifvqgig","pricing_plan_id":"cebpf4jnsgd1na2vs0mg"},{"bike_id":"5d5b9d52-4005-4b8d-8e03-12940e9796d0","system_id":"levelo_inurba_marseille","lat":43.24073,"lon":5.37756,"is_reserved":false,"is_disabled":true,"rental_uris":{"android":"levelo://app?vid=5d5b9d52-4005-4b8d-8e03-12940e9796d0","ios":"levelo://app?vid=5d5b9d52-4005-4b8d-8e03-12940e9796d0"},"vehicle_type_id":"4","last_reported":1739221724,"current_range_meters":19200,"station_id":"ce4bhnp2rcd13ifvqgvg","pricing_plan_id":"cebpf4jnsgd1na2vs0mg"},{"bike_id":"e74edd37-0ec7-4f56-b77f-e7249fd01314","system_id":"levelo_inurba_marseille","lat":43.30543,"lon":5.36534,"is_reserved":false,"is_disabled":true,"rental_uris":{"android":"levelo://app?vid=e74edd37-0ec7-4f56-b77f-e7249fd01314","ios":"levelo://app?vid=e74edd37-0ec7-4f56-b77f-e7249fd01314"},"vehicle_type_id":"4","last_reported":1739221724,"current_range_meters":17200,"station_id":"ce4bgs12rcd13ifvqcag","pricing_plan_id":"cebpf4jnsgd1na2vs0mg"},{"bike_id":"d65a14c4-ecf3-4048-b05f-9a757ce2f182","system_id":"levelo_inurba_marseille","lat":43.24692,"lon":5.3819,"is_reserved":false,"is_disabled":false,"rental_uris":{"android":"levelo://app?vid=d65a14c4-ecf3-4048-b05f-9a757ce2f182","ios":"levelo://app?vid=d65a14c4-ecf3-4048-b05f-9a757ce2f182"},"vehicle_type_id":"4","last_reported":1739221724,"current_range_meters":38400,"station_id":"ce4bhih2rcd13ifvqfr0","pricing_plan_id":"cebpf4jnsgd1na2vs0mg"},{"bike_id":"30db7edd-65c7-44bd-b75f-c19d0961bc8f","system_id":"levelo_inurba_marseille","lat":43.27569,"lon":5.38441,"is_reserved":false,"is_disabled":false,"rental_uris":{"android":"levelo://app?vid=30db7edd-65c7-44bd-b75f-c19d0961bc8f","ios":"levelo://app?vid=30db7edd-65c7-44bd-b75f-c19d0961bc8f"},"vehicle_type_id":"4","last_reported":1739221724,"current_range_meters":38400,"station_id":"ce4bhh92rcd13ifvqfi0","pricing_plan_id":"cebpf4jnsgd1na2vs0mg"},{"bike_id":"ca63d75f-d551-49cb-bec7-e060cadddd73","system_id":"levelo_inurba_marseille","lat":43.28094,"lon":5.44191,"is_reserved":false,"is_disabled":false,"rental_uris":{"android":"levelo://app?vid=ca63d75f-d551-49cb-bec7-e060cadddd73","ios":"levelo://app?vid=ca63d75f-d551-49cb-bec7-e060cadddd73"},"vehicle_type_id":"4","last_reported":1739221724,"current_range_meters":17200,"station_id":"","pricing_plan_id":"cebpf4jnsgd1na2vs0mg"},{"bike_id":"12dd2297-6b4c-4197-8a7d-3abdc217b6a2","system_id":"levelo_inurba_marseille","lat":43.2841,"lon":5.37497,"is_reserved":false,"is_disabled":false,"rental_uris":{"android":"levelo://app?vid=12dd2297-6b4c-4197-8a7d-3abdc217b6a2","ios":"levelo://app?vid=12dd2297-6b4c-4197-8a7d-3abdc217b6a2"},"vehicle_type_id":"4","last_reported":1739221724,"current_range_meters":32000,"station_id":"ce4bh412rcd13ifvqds0","pricing_plan_id":"cebpf4jnsgd1na2vs0mg"},{"bike_id":"914b4589-1568-4fa3-b21a-87516ec733ab","system_id":"levelo_inurba_marseille","lat":43.28455,"lon":5.35888,"is_reserved":false,"is_disabled":false,"rental_uris":{"android":"levelo://app?vid=914b4589-1568-4fa3-b21a-87516ec733ab","ios":"levelo://app?vid=914b4589-1568-4fa3-b21a-87516ec733ab"},"vehicle_type_id":"4","last_reported":1739221724,"current_range_meters":32000,"station_id":"ce4bhah2rcd13ifvqei0","pricing_plan_id":"cebpf4jnsgd1na2vs0mg"},{"bike_id":"e7e82525-0af3-42b9-9242-aabf5a8fb1ce","system_id":"levelo_inurba_marseille","lat":43.2987,"lon":5.39782,"is_reserved":false,"is_disabled":false,"rental_uris":{"android":"levelo://app?vid=e7e82525-0af3-42b9-9242-aabf5a8fb1ce","ios":"levelo://app?vid=e7e82525-0af3-42b9-9242-aabf5a8fb1ce"},"vehicle_type_id":"4","last_reported":1739221724,"current_range_meters":22000,"station_id":"ce4bh0h2rcd13ifvqd50","pricing_plan_id":"cebpf4jnsgd1na2vs0mg"},{"bike_id":"79d0b172-0217-44e3-bae8-123b0260e5bd","system_id":"levelo_inurba_marseille","lat":43.2753,"lon":5.38422,"is_reserved":false,"is_disabled":false,"rental_uris":{"android":"levelo://app?vid=79d0b172-0217-44e3-bae8-123b0260e5bd","ios":"levelo://app?vid=79d0b172-0217-44e3-bae8-123b0260e5bd"},"vehicle_type_id":"4","last_reported":1739221724,"current_range_meters":38800,"station_id":"ce4bhh92rcd13ifvqfi0","pricing_plan_id":"cebpf4jnsgd1na2vs0mg"},{"bike_id":"e5491c41-467c-40d9-b58c-33959b38346b","system_id":"levelo_inurba_marseille","lat":43.28729,"lon":5.36076,"is_reserved":false,"is_disabled":false,"rental_uris":{"android":"levelo://app?vid=e5491c41-467c-40d9-b58c-33959b38346b","ios":"levelo://app?vid=e5491c41-467c-40d9-b58c-33959b38346b"},"vehicle_type_id":"4","last_reported":1739221724,"current_range_meters":14400,"station_id":"cki0cbj6b192h4jlfktg","pricing_plan_id":"cebpf4jnsgd1na2vs0mg"},{"bike_id":"e1918a80-e061-48ff-a7f0-f6cb259b93c9","system_id":"levelo_inurba_marseille","lat":43.29506,"lon":5.39063,"is_reserved":false,"is_disabled":false,"rental_uris":{"android":"levelo://app?vid=e1918a80-e061-48ff-a7f0-f6cb259b93c9","ios":"levelo://app?vid=e1918a80-e061-48ff-a7f0-f6cb259b93c9"},"vehicle_type_id":"4","last_reported":1739221724,"current_range_meters":28000,"station_id":"ce4bh3p2rcd13ifvqdp0","pricing_plan_id":"cebpf4jnsgd1na2vs0mg"},{"bike_id":"5358169e-a2e1-47b0-b952-6bf9dcad2df6","system_id":"levelo_inurba_marseille","lat":43.27954,"lon":5.4103,"is_reserved":false,"is_disabled":false,"rental_uris":{"android":"levelo://app?vid=5358169e-a2e1-47b0-b952-6bf9dcad2df6","ios":"levelo://app?vid=5358169e-a2e1-47b0-b952-6bf9dcad2df6"},"vehicle_type_id":"4","last_reported":1739221724,"current_range_meters":27200,"station_id":"ce4bhnp2rcd13ifvqh0g","pricing_plan_id":"cebpf4jnsgd1na2vs0mg"},{"bike_id":"f2a19d6d-1c3c-4ae5-a155-e51d34c1aabd","system_id":"levelo_inurba_marseille","lat":43.28573,"lon":5.39519,"is_reserved":false,"is_disabled":false,"rental_uris":{"android":"levelo://app?vid=f2a19d6d-1c3c-4ae5-a155-e51d34c1aabd","ios":"levelo://app?vid=f2a19d6d-1c3c-4ae5-a155-e51d34c1aabd"},"vehicle_type_id":"4","last_reported":1739221724,"current_range_meters":39200,"station_id":"ce4bh292rcd13ifvqdg0","pricing_plan_id":"cebpf4jnsgd1na2vs0mg"},{"bike_id":"118acaa8-c377-4759-a8f9-c3303973ef34","system_id":"levelo_inurba_marseille","lat":43.29883,"lon":5.38865,"is_reserved":false,"is_disabled":false,"rental_uris":{"android":"levelo://app?vid=118acaa8-c377-4759-a8f9-c3303973ef34","ios":"levelo://app?vid=118acaa8-c377-4759-a8f9-c3303973ef34"},"vehicle_type_id":"4","last_reported":1739221724,"current_range_meters":27600,"station_id":"ce4bh392rcd13ifvqdl0","pricing_plan_id":"cebpf4jnsgd1na2vs0mg"},{"bike_id":"141ded67-afba-4ee6-a000-d4e9ab96ed2a","system_id":"levelo_inurba_marseille","lat":43.29795,"lon":5.38104,"is_reserved":false,"is_disabled":false,"rental_uris":{"android":"levelo://app?vid=141ded67-afba-4ee6-a000-d4e9ab96ed2a","ios":"levelo://app?vid=141ded67-afba-4ee6-a000-d4e9ab96ed2a"},"vehicle_type_id":"4","last_reported":1739221724,"current_range_meters":11600,"station_id":"ce4bgip2rcd13ifvqbb0","pricing_plan_id":"cebpf4jnsgd1na2vs0mg"},{"bike_id":"0222dd83-169a-4bec-9f83-dcd97173601f","system_id":"levelo_inurba_marseille","lat":43.29793,"lon":5.3934,"is_reserved":false,"is_disabled":false,"rental_uris":{"android":"levelo://app?vid=0222dd83-169a-4bec-9f83-dcd97173601f","ios":"levelo://app?vid=0222dd83-169a-4bec-9f83-dcd97173601f"},"vehicle_type_id":"4","last_reported":1739221724,"current_range_meters":39200,"station_id":"chh1huq6cuj3fo74tm60","pricing_plan_id":"cebpf4jnsgd1na2vs0mg"},{"bike_id":"009c85e4-baec-4633-b1b4-45e9257f05c1","system_id":"levelo_inurba_marseille","lat":43.28347,"lon":5.38098,"is_reserved":false,"is_disabled":false,"rental_uris":{"android":"levelo://app?vid=009c85e4-baec-4633-b1b4-45e9257f05c1","ios":"levelo://app?vid=009c85e4-baec-4633-b1b4-45e9257f05c1"},"vehicle_type_id":"4","last_reported":1739221724,"current_range_meters":36400,"station_id":"ce4bh412rcd13ifvqdr0","pricing_plan_id":"cebpf4jnsgd1na2vs0mg"},{"bike_id":"1578c83e-5788-4e45-b5b9-7c07f927503a","system_id":"levelo_inurba_marseille","lat":43.28705,"lon":5.37399,"is_reserved":false,"is_disabled":false,"rental_uris":{"android":"levelo://app?vid=1578c83e-5788-4e45-b5b9-7c07f927503a","ios":"levelo://app?vid=1578c83e-5788-4e45-b5b9-7c07f927503a"},"vehicle_type_id":"4","last_reported":1739221724,"current_range_meters":28800,"station_id":"ce4bh3p2rcd13ifvqdq0","pricing_plan_id":"cebpf4jnsgd1na2vs0mg"},{"bike_id":"489ac8a5-aa2e-478a-b57e-8f3df1d6a265","system_id":"levelo_inurba_marseille","lat":43.31884,"lon":5.40754,"is_reserved":false,"is_disabled":false,"rental_uris":{"android":"levelo://app?vid=489ac8a5-aa2e-478a-b57e-8f3df1d6a265","ios":"levelo://app?vid=489ac8a5-aa2e-478a-b57e-8f3df1d6a265"},"vehicle_type_id":"4","last_reported":1739221724,"current_range_meters":22800,"station_id":"ce4bhq12rcd13ifvqhig","pricing_plan_id":"cebpf4jnsgd1na2vs0mg"},{"bike_id":"d71f001f-8ca6-4a73-b5e1-69c44959f4e6","system_id":"levelo_inurba_marseille","lat":43.29044,"lon":5.35914,"is_reserved":false,"is_disabled":false,"rental_uris":{"android":"levelo://app?vid=d71f001f-8ca6-4a73-b5e1-69c44959f4e6","ios":"levelo://app?vid=d71f001f-8ca6-4a73-b5e1-69c44959f4e6"},"vehicle_type_id":"4","last_reported":1739221724,"current_range_meters":36800,"station_id":"ce4bha92rcd13ifvqeg0","pricing_plan_id":"cebpf4jnsgd1na2vs0mg"},{"bike_id":"54ce597b-1ca1-4d62-923d-d4b29eec04b3","system_id":"levelo_inurba_marseille","lat":43.31131,"lon":5.38261,"is_reserved":false,"is_disabled":false,"rental_uris":{"android":"levelo://app?vid=54ce597b-1ca1-4d62-923d-d4b29eec04b3","ios":"levelo://app?vid=54ce597b-1ca1-4d62-923d-d4b29eec04b3"},"vehicle_type_id":"4","last_reported":1739221724,"current_range_meters":24000,"station_id":"","pricing_plan_id":"cebpf4jnsgd1na2vs0mg"},{"bike_id":"b4765ae2-b7fb-4718-bf68-ce7ba2c817f9","system_id":"levelo_inurba_marseille","lat":43.27072,"lon":5.42281,"is_reserved":false,"is_disabled":false,"rental_uris":{"android":"levelo://app?vid=b4765ae2-b7fb-4718-bf68-ce7ba2c817f9","ios":"levelo://app?vid=b4765ae2-b7fb-4718-bf68-ce7ba2c817f9"},"vehicle_type_id":"4","last_reported":1739221724,"current_range_meters":26800,"station_id":"ce4bhk92rcd13ifvqgb0","pricing_plan_id":"cebpf4jnsgd1na2vs0mg"},{"bike_id":"a208325e-37e5-4c4e-8da6-ada4810a13ed","system_id":"levelo_inurba_marseille","lat":43.26061,"lon":5.39394,"is_reserved":false,"is_disabled":false,"rental_uris":{"android":"levelo://app?vid=a208325e-37e5-4c4e-8da6-ada4810a13ed","ios":"levelo://app?vid=a208325e-37e5-4c4e-8da6-ada4810a13ed"},"vehicle_type_id":"4","last_reported":1739221724,"current_range_meters":38800,"station_id":"ce4bhh92rcd13ifvqfj0","pricing_plan_id":"cebpf4jnsgd1na2vs0mg"},{"bike_id":"28d378e6-36c4-4b00-a3bf-d0ec65a75739","system_id":"levelo_inurba_marseille","lat":43.2827,"lon":5.35097,"is_reserved":false,"is_disabled":false,"rental_uris":{"android":"levelo://app?vid=28d378e6-36c4-4b00-a3bf-d0ec65a75739","ios":"levelo://app?vid=28d378e6-36c4-4b00-a3bf-d0ec65a75739"},"vehicle_type_id":"4","last_reported":1739221724,"current_range_meters":18000,"station_id":"ce4bhbp2rcd13ifvqerg","pricing_plan_id":"cebpf4jnsgd1na2vs0mg"},{"bike_id":"5bfdbfd0-271d-4848-8783-bd28be0c2263","system_id":"levelo_inurba_marseille","lat":43.28848,"lon":5.39308,"is_reserved":false,"is_disabled":false,"rental_uris":{"android":"levelo://app?vid=5bfdbfd0-271d-4848-8783-bd28be0c2263","ios":"levelo://app?vid=5bfdbfd0-271d-4848-8783-bd28be0c2263"},"vehicle_type_id":"4","last_reported":1739221724,"current_range_meters":11200,"station_id":"ce4bh2p2rcd13ifvqdi0","pricing_plan_id":"cebpf4jnsgd1na2vs0mg"},{"bike_id":"ef495f78-403f-4779-8ea3-f221acdb92f0","system_id":"levelo_inurba_marseille","lat":43.29542,"lon":5.38536,"is_reserved":false,"is_disabled":false,"rental_uris":{"android":"levelo://app?vid=ef495f78-403f-4779-8ea3-f221acdb92f0","ios":"levelo://app?vid=ef495f78-403f-4779-8ea3-f221acdb92f0"},"vehicle_type_id":"4","last_reported":1739221724,"current_range_meters":26000,"station_id":"ce4bgih2rcd13ifvqba0","pricing_plan_id":"cebpf4jnsgd1na2vs0mg"},{"bike_id":"4a6a1800-2f28-4b12-b753-98cde892230c","system_id":"levelo_inurba_marseille","lat":43.3298,"lon":5.38958,"is_reserved":false,"is_disabled":false,"rental_uris":{"android":"levelo://app?vid=4a6a1800-2f28-4b12-b753-98cde892230c","ios":"levelo://app?vid=4a6a1800-2f28-4b12-b753-98cde892230c"},"vehicle_type_id":"4","last_reported":1739221724,"current_range_meters":33200,"station_id":"ce4bhr92rcd13ifvqhrg","pricing_plan_id":"cebpf4jnsgd1na2vs0mg"},