{"last_updated":1677049645,"ttl":30,"version":"2.2","data":{"bikes":[{"bike_id":"c96893b8-1d42-4ae7-8cde-5a2870148c7c","system_id":"levelo_inurba_marseille","lat":43.312239,"lon":5.368562,"is_reserved":false,"is_disabled":false,"rental_uris":{"android":"levelo://app?vid=c96893b8-1d42-4ae7-8cde-5a2870148c7c","ios":"levelo://app?vid=c96893b8-1d42-4ae7-8cde-5a2870148c7c"},"vehicle_type_id":"4","last_reported":1677049646,"current_range_meters":23600,"station_id":"ce4bgl92rcd13ifvqbq0","pricing_plan_id":"free"},{"bike_id":"9eb418f9-1245-4072-af26-d1dbe8d17540","system_id":"levelo_inurba_marseille","lat":43.312239,"lon":5.368562,"is_reserved":false,"is_disabled":false,"rental_uris":{"android":"levelo://app?vid=9eb418f9-1245-4072-af26-d1dbe8d17540","ios":"levelo://app?vid=9eb418f9-1245-4072-af26-d1dbe8d17540"},"vehicle_type_id":"4","last_reported":1677049646,"current_range_meters":16000,"station_id":"ce4bgl92rcd13ifvqbq0","pricing_plan_id":"free"},{"bike_id":"156cf9bd-17ac-46a4-ba81-159fb6010ed7","system_id":"levelo_inurba_marseille","lat":43.312239,"lon":5.368562,"is_reserved":false,"is_disabled":false,"rental_uris":{"android":"levelo://app?vid=156cf9bd-17ac-46a4-ba81-159fb6010ed7","ios":"levelo://app?vid=156cf9bd-17ac-46a4-ba81-159fb6010ed7"},"vehicle_type_id":"4","last_reported":1677049646,"current_range_meters":29200,"station_id":"ce4bgl92rcd13ifvqbq0","pricing_plan_id":"free"},{"bike_id":"630d99c4-4ba5-48ca-92fc-be229ba73f8b","system_id":"levelo_inurba_marseille","lat":43.312239,"lon":5.368562,"is_reserved":false,"is_disabled":false,"rental_uris":{"android":"levelo://app?vid=630d99c4-4ba5-48ca-92fc-be229ba73f8b","ios":"levelo://app?vid=630d99c4-4ba5-48ca-92fc-be229ba73f8b"},"vehicle_type_id":"4","last_reported":1677049646,"current_range_meters":32000,"station_id":"ce4bgl92rcd13ifvqbq0","pricing_plan_id":"free"},{"bike_id":"f636004e-4096-4fa4-8c43-2acaff20d1b9","system_id":"levelo_inurba_marseille","lat":43.312239,"lon":5.368562,"is_reserved":false,"is_disabled":false,"rental_uris":{"android":"levelo://app?vid=f636004e-4096-4fa4-8c43-2acaff20d1b9","ios":"levelo://app?vid=f636004e-4096-4fa4-8c43-2acaff20d1b9"},"vehicle_type_id":"4","last_reported":1677049646,"current_range_meters":27600,"station_id":"ce4bgl92rcd13ifvqbq0","pricing_plan_id":"free"},{"bike_id":"2f8608bd-a4a5-4e1b-bd3d-c519c1dbe20f","system_id":"levelo_inurba_marseille","lat":43.312239,"lon":5.368562,"is_reserved":false,"is_disabled":false,"rental_uris":{"android":"levelo://app?vid=2f8608bd-a4a5-4e1b-bd3d-c519c1dbe20f","ios":"levelo://app?vid=2f8608bd-a4a5-4e1b-bd3d-c519c1dbe20f"},"vehicle_type_id":"4","last_reported":1677049646,"current_range_meters":30400,"station_id":"ce4bgl92rcd13ifvqbq0","pricing_plan_id":"free"},{"bike_id":"4d4947df-77e1-4f66-8baa-b6d9fe5f7a93","system_id":"levelo_inurba_marseille","lat":43.312239,"lon":5.368562,"is_reserved":false,"is_disabled":false,"rental_uris":{"android":"levelo://app?vid=4d4947df-77e1-4f66-8baa-b6d9fe5f7a93","ios":"levelo://app?vid=4d4947df-77e1-4f66-8baa-b6d9fe5f7a93"},"vehicle_type_id":"4","last_reported":1677049646,"current_range_meters":31600,"station_id":"ce4bgl92rcd13ifvqbq0","pricing_plan_id":"free"},{"bike_id":"cead4a2f-ba6f-4da1-b99e-ad314919c56a","system_id":"levelo_inurba_marseille","lat":43.312239,"lon":5.368562,"is_reserved":false,"is_disabled":false,"rental_uris":{"android":"levelo://app?vid=cead4a2f-ba6f-4da1-b99e-ad314919c56a","ios":"levelo://app?vid=cead4a2f-ba6f-4da1-b99e-ad314919c56a"},"vehicle_type_id":"4","last_reported":1677049646,"current_range_meters":24400,"station_id":"ce4bgl92rcd13ifvqbq0","pricing_plan_id":"free"},{"bike_id":"9ff440ba-6a5d-4672-b084-7a0baee5fdb4","system_id":"levelo_inurba_marseille","lat":43.312239,"lon":5.368562,"is_reserved":false,"is_disabled":false,"rental_uris":{"android":"levelo://app?vid=9ff440ba-6a5d-4672-b084-7a0baee5fdb4","ios":"levelo://app?vid=9ff440ba-6a5d-4672-b084-7a0baee5fdb4"},"vehicle_type_id":"4","last_reported":1677049646,"current_range_meters":31600,"station_id":"ce4bgl92rcd13ifvqbq0","pricing_plan_id":"free"},{"bike_id":"699a0233-121d-4516-85b7-0ded9059f9b8","system_id":"levelo_inurba_marseille","lat":43.312239,"lon":5.368562,"is_reserved":false,"is_disabled":false,"rental_uris":{"android":"levelo://app?vid=699a0233-121d-4516-85b7-0ded9059f9b8","ios":"levelo://app?vid=699a0233-121d-4516-85b7-0ded9059f9b8"},"vehicle_type_id":"4","last_reported":1677049646,"current_range_meters":21200,"station_id":"ce4bgl92rcd13ifvqbq0","pricing_plan_id":"free"},{"bike_id":"7762d348-6a92-450e-915a-a05760430015","system_id":"levelo_inurba_marseille","lat":43.309076,"lon":5.368465,"is_reserved":false,"is_disabled":false,"rental_uris":{"android":"levelo://app?vid=7762d348-6a92-450e-915a-a05760430015","ios":"levelo://app?vid=7762d348-6a92-450e-915a-a05760430015"},"vehicle_type_id":"4","last_reported":1677049646,"current_range_meters":30400,"station_id":"ce4bgn92rcd13ifvqbvg","pricing_plan_id":"free"},{"bike_id":"2b842827-5f3d-44be-a91e-54d7c3521748","system_id":"levelo_inurba_marseille","lat":43.30897,"lon":5.368513,"is_reserved":false,"is_disabled":false,"rental_uris":{"android":"levelo://app?vid=2b842827-5f3d-44be-a91e-54d7c3521748","ios":"levelo://app?vid=2b842827-5f3d-44be-a91e-54d7c3521748"},"vehicle_type_id":"4","last_reported":1677049646,"current_range_meters":31600,"station_id":"ce4bgn92rcd13ifvqbvg","pricing_plan_id":"free"},{"bike_id":"b6ec02ae-c5d3-45c1-989d-8191acc7ed0c","system_id":"levelo_inurba_marseille","lat":43.31497,"lon":5.37307,"is_reserved":false,"is_disabled":false,"rental_uris":{"android":"levelo://app?vid=b6ec02ae-c5d3-45c1-989d-8191acc7ed0c","ios":"levelo://app?vid=b6ec02ae-c5d3-45c1-989d-8191acc7ed0c"},"vehicle_type_id":"4","last_reported":1677049646,"current_range_meters":26400,"station_id":"","pricing_plan_id":"free"},{"bike_id":"dbe8083c-d30b-49df-be16-44bb240a0889","system_id":"levelo_inurba_marseille","lat":43.308614,"lon":5.372098,"is_reserved":false,"is_disabled":false,"rental_uris":{"android":"levelo://app?vid=dbe8083c-d30b-49df-be16-44bb240a0889","ios":"levelo://app?vid=dbe8083c-d30b-49df-be16-44bb240a0889"},"vehicle_type_id":"4","last_reported":1677049646,"current_range_meters":31600,"station_id":"ce4bguh2rcd13ifvqckg","pricing_plan_id":"free"},{"bike_id":"a686be8f-1a2c-4973-b99f-77e1316d722f","system_id":"levelo_inurba_marseille","lat":43.308614,"lon":5.372098,"is_reserved":false,"is_disabled":false,"rental_uris":{"android":"levelo://app?vid=a686be8f-1a2c-4973-b99f-77e1316d722f","ios":"levelo://app?vid=a686be8f-1a2c-4973-b99f-77e1316d722f"},"vehicle_type_id":"4","last_reported":1677049646,"current_range_meters":30000,"station_id":"ce4bguh2rcd13ifvqckg","pricing_plan_id":"free"},{"bike_id":"bdcff950-a750-483c-bbfe-ae311d4b41ff","system_id":"levelo_inurba_marseille","lat":43.308614,"lon":5.372098,"is_reserved":false,"is_disabled":false,"rental_uris":{"android":"levelo://app?vid=bdcff950-a750-483c-bbfe-ae311d4b41ff","ios":"levelo://app?vid=bdcff950-a750-483c-bbfe-ae311d4b41ff"},"vehicle_type_id":"4","last_reported":1677049646,"current_range_meters":30800,"station_id":"ce4bguh2rcd13ifvqckg","pricing_plan_id":"free"},{"bike_id":"501c89a5-184f-443f-8440-1c1f310afc8f","system_id":"levelo_inurba_marseille","lat":43.308883,"lon":5.371924,"is_reserved":false,"is_disabled":false,"rental_uris":{"android":"levelo://app?vid=501c89a5-184f-443f-8440-1c1f310afc8f","ios":"levelo://app?vid=501c89a5-184f-443f-8440-1c1f310afc8f"},"vehicle_type_id":"4","last_reported":1677049646,"current_range_meters":26800,"station_id":"","pricing_plan_id":"free"},{"bike_id":"4fac1825-bdc1-42b2-804d-60e92ed1be87","system_id":"levelo_inurba_marseille","lat":43.31669,"lon":5.372247,"is_reserved":false,"is_disabled":false,"rental_uris":{"android":"levelo://app?vid=4fac1825-bdc1-42b2-804d-60e92ed1be87","ios":"levelo://app?vid=4fac1825-bdc1-42b2-804d-60e92ed1be87"},"vehicle_type_id":"4","last_reported":1677049646,"current_range_meters":1200,"station_id":"","pricing_plan_id":"free"},{"bike_id":"fd95ebf9-bd64-436d-86d3-e79076dfd247","system_id":"levelo_inurba_marseille","lat":43.31936,"lon":5.37297,"is_reserved":false,"is_disabled":false,"rental_uris":{"android":"levelo://app?vid=fd95ebf9-bd64-436d-86d3-e79076dfd247","ios":"levelo://app?vid=fd95ebf9-bd64-436d-86d3-e79076dfd247"},"vehicle_type_id":"4","last_reported":1677049646,"current_range_meters":18400,"station_id":"","pricing_plan_id":"free"},{"bike_id":"efd6bcd4-e29b-4920-be7b-828a615cf249","system_id":"levelo_inurba_marseille","lat":43.317075,"lon":5.377367,"is_reserved":false,"is_disabled":false,"rental_uris":{"android":"levelo://app?vid=efd6bcd4-e29b-4920-be7b-828a615cf249","ios":"levelo://app?vid=efd6bcd4-e29b-4920-be7b-828a615cf249"},"vehicle_type_id":"4","last_reported":1677049646,"current_range_meters":27600,"station_id":"ce4bgth2rcd13ifvqch0","pricing_plan_id":"free"},{"bike_id":"750f393b-96c3-4331-ba3a-69f135b2b74d","system_id":"levelo_inurba_marseille","lat":43.3059,"lon":5.376255,"is_reserved":false,"is_disabled":false,"rental_uris":{"android":"levelo://app?vid=750f393b-96c3-4331-ba3a-69f135b2b74d","ios":"levelo://app?vid=750f393b-96c3-4331-ba3a-69f135b2b74d"},"vehicle_type_id":"4","last_reported":1677049646,"current_range_meters":400,"station_id":"","pricing_plan_id":"free"},{"bike_id":"3ccdbc2d-013f-41ca-ba35-8120887b7e41","system_id":"levelo_inurba_marseille","lat":43.301939,"lon":5.366286,"is_reserved":false,"is_disabled":false,"rental_uris":{"android":"levelo://app?vid=3ccdbc2d-013f-41ca-ba35-8120887b7e41","ios":"levelo://app?vid=3ccdbc2d-013f-41ca-ba35-8120887b7e41"},"vehicle_type_id":"4","last_reported":1677049646,"current_range_meters":25200,"station_id":"ce4bgrh2rcd13ifvqc8g","pricing_plan_id":"free"},{"bike_id":"fb85e0a1-8fe1-4284-8505-fd0395307b97","system_id":"levelo_inurba_marseille","lat":43.308012,"lon":5.381511,"is_reserved":false,"is_disabled":false,"rental_uris":{"android":"levelo://app?vid=fb85e0a1-8fe1-4284-8505-fd0395307b97","ios":"levelo://app?vid=fb85e0a1-8fe1-4284-8505-fd0395307b97"},"vehicle_type_id":"4","last_reported":1677049646,"current_range_meters":19200,"station_id":"ce4bgt12rcd13ifvqce0","pricing_plan_id":"free"},{"bike_id":"a501cb05-0efa-4719-b712-52685167eb03","system_id":"levelo_inurba_marseille","lat":43.308012,"lon":5.381511,"is_reserved":false,"is_disabled":false,"rental_uris":{"android":"levelo://app?vid=a501cb05-0efa-4719-b712-52685167eb03","ios":"levelo://app?vid=a501cb05-0efa-4719-b712-52685167eb03"},"vehicle_type_id":"4","last_reported":1677049646,"current_range_meters":29200,"station_id":"ce4bgt12rcd13ifvqce0","pricing_plan_id":"free"},{"bike_id":"2ad35dd3-3289-46ca-a4ae-7c31e0f0d07c","system_id":"levelo_inurba_marseille","lat":43.308012,"lon":5.381511,"is_reserved":false,"is_disabled":false,"rental_uris":{"android":"levelo://app?vid=2ad35dd3-3289-46ca-a4ae-7c31e0f0d07c","ios":"levelo://app?vid=2ad35dd3-3289-46ca-a4ae-7c31e0f0d07c"},"vehicle_type_id":"4","last_reported":1677049646,"current_range_meters":4000,"station_id":"ce4bgt12rcd13ifvqce0","pricing_plan_id":"free"},{"bike_id":"6c9d6184-a36d-48c5-8a60-ba68e0290e6e","system_id":"levelo_inurba_marseille","lat":43.308012,"lon":5.381511,"is_reserved":false,"is_disabled":false,"rental_uris":{"android":"levelo://app?vid=6c9d6184-a36d-48c5-8a60-ba68e0290e6e","ios":"levelo://app?vid=6c9d6184-a36d-48c5-8a60-ba68e0290e6e"},"vehicle_type_id":"4","last_reported":1677049646,"current_range_meters":10000,"station_id":"ce4bgt12rcd13ifvqce0","pricing_plan_id":"free"},{"bike_id":"a12c6e84-9591-4d1b-8d8b-ea526d83868a","system_id":"levelo_inurba_marseille","lat":43.308012,"lon":5.381511,"is_reserved":false,"is_disabled":false,"rental_uris":{"android":"levelo://app?vid=a12c6e84-9591-4d1b-8d8b-ea526d83868a","ios":"levelo://app?vid=a12c6e84-9591-4d1b-8d8b-ea526d83868a"},"vehicle_type_id":"4","last_reported":1677049646,"current_range_meters":18800,"station_id":"ce4bgt12rcd13ifvqce0","pricing_plan_id":"free"},{"bike_id":"21882520-4f43-4750-b988-b7f2ce1ece23","system_id":"levelo_inurba_marseille","lat":43.308012,"lon":5.381511,"is_reserved":false,"is_disabled":false,"rental_uris":{"android":"levelo://app?vid=21882520-4f43-4750-b988-b7f2ce1ece23","ios":"levelo://app?vid=21882520-4f43-4750-b988-b7f2ce1ece23"},"vehicle_type_id":"4","last_reported":1677049646,"current_range_meters":1600,"station_id":"ce4bgt12rcd13ifvqce0","pricing_plan_id":"free"},{"bike_id":"28da475e-c1fc-44fc-adde-fd5c22ad0913","system_id":"levelo_inurba_marseille","lat":43.308012,"lon":5.381511,"is_reserved":false,"is_disabled":false,"rental_uris":{"android":"levelo://app?vid=28da475e-c1fc-44fc-adde-fd5c22ad0913","ios":"levelo://app?vid=28da475e-c1fc-44fc-adde-fd5c22ad0913"},"vehicle_type_id":"4","last_reported":1677049646,"current_range_meters":25600,"station_id":"ce4bgt12rcd13ifvqce0","pricing_plan_id":"free"},{"bike_id":"fe22529a-342b-4b2f-8429-e66e3f82e84f","system_id":"levelo_inurba_marseille","lat":43.308012,"lon":5.381511,"is_reserved":false,"is_disabled":false,"rental_uris":{"android":"levelo://app?vid=fe22529a-342b-4b2f-8429-e66e3f82e84f","ios":"levelo://app?vid=fe22529a-342b-4b2f-8429-e66e3f82e84f"},"vehicle_type_id":"4","last_reported":1677049646,"current_range_meters":0,"station_id":"ce4bgt12rcd13ifvqce0","pricing_plan_id":"free"},{"bike_id":"a151c281-b7d2-491a-b172-60405f77b705","system_id":"levelo_inurba_marseille","lat":43.308012,"lon":5.381511,"is_reserved":false,"is_disabled":false,"rental_uris":{"android":"levelo://app?vid=a151c281-b7d2-491a-b172-60405f77b705","ios":"levelo://app?vid=a151c281-b7d2-491a-b172-60405f77b705"},"vehicle_type_id":"4","last_reported":1677049646,"current_range_meters":25600,"station_id":"ce4bgt12rcd13ifvqce0","pricing_plan_id":"free"},{"bike_id":"391aaf3c-7dee-4c9a-8b6b-0c4ace447734","system_id":"levelo_inurba_marseille","lat":43.308012,"lon":5.381511,"is_reserved":false,"is_disabled":false,"rental_uris":{"android":"levelo://app?vid=391aaf3c-7dee-4c9a-8b6b-0c4ace447734","ios":"levelo://app?vid=391aaf3c-7dee-4c9a-8b6b-0c4ace447734"},"vehicle_type_id":"4","last_reported":1677049646,"current_range_meters":25600,"station_id":"ce4bgt12rcd13ifvqce0","pricing_plan_id":"free"},{"bike_id":"93dd15e8-b05a-40d8-ba54-5a3297cc4369","system_id":"levelo_inurba_marseille","lat":43.308012,"lon":5.381511,"is_reserved":false,"is_disabled":false,"rental_uris":{"android":"levelo://app?vid=93dd15e8-b05a-40d8-ba54-5a3297cc4369","ios":"levelo://app?vid=93dd15e8-b05a-40d8-ba54-5a3297cc4369"},"vehicle_type_id":"4","last_reported":1677049646,"current_range_meters":0,"station_id":"ce4bgt12rcd13ifvqce0","pricing_plan_id":"free"},{"bike_id":"ba05b012-1951-48b0-bee2-8de2336f13df","system_id":"levelo_inurba_marseille","lat":43.304606,"lon":5.379026,"is_reserved":false,"is_disabled":false,"rental_uris":{"android":"levelo://app?vid=ba05b012-1951-48b0-bee2-8de2336f13df","ios":"levelo://app?vid=ba05b012-1951-48b0-bee2-8de2336f13df"},"vehicle_type_id":"4","last_reported":1677049646,"current_range_meters":12800,"station_id":"ce4bgup2rcd13ifvqcn0","pricing_plan_id":"free"},{"bike_id":"eba58ffa-cba4-42f0-a6ec-214d596e656e","system_id":"levelo_inurba_marseille","lat":43.304606,"lon":5.379026,"is_reserved":false,"is_disabled":false,"rental_uris":{"android":"levelo://app?vid=eba58ffa-cba4-42f0-a6ec-214d596e656e","ios":"levelo://app?vid=eba58ffa-cba4-42f0-a6ec-214d596e656e"},"vehicle_type_id":"4","last_reported":1677049646,"current_range_meters":27600,"station_id":"ce4bgup2rcd13ifvqcn0","pricing_plan_id":"free"},{"bike_id":"4721cb80-c685-4a93-81ab-d386a5a905e3","system_id":"levelo_inurba_marseille","lat":43.304606,"lon":5.379026,"is_reserved":false,"is_disabled":false,"rental_uris":{"android":"levelo://app?vid=4721cb80-c685-4a93-81ab-d386a5a905e3","ios":"levelo://app?vid=4721cb80-c685-4a93-81ab-d386a5a905e3"},"vehicle_type_id":"4","last_reported":1677049646,"current_range_meters":29200,"station_id":"ce4bgup2rcd13ifvqcn0","pricing_plan_id":"free"},{"bike_id":"a8c658ed-9328-47c2-b13f-100114fda932","system_id":"levelo_inurba_marseille","lat":43.304606,"lon":5.379026,"is_reserved":false,"is_disabled":false,"rental_uris":{"android":"levelo://app?vid=a8c658ed-9328-47c2-b13f-100114fda932","ios":"levelo://app?vid=a8c658ed-9328-47c2-b13f-100114fda932"},"vehicle_type_id":"4","last_reported":1677049646,"current_range_meters":10000,"station_id":"ce4bgup2rcd13ifvqcn0","pricing_plan_id":"free"},{"bike_id":"ac7ca10f-f1fa-49f8-9b03-34db2e7338f9","system_id":"levelo_inurba_marseille","lat":43.304606,"lon":5.379026,"is_reserved":false,"is_disabled":false,"rental_uris":{"android":"levelo://app?vid=ac7ca10f-f1fa-49f8-9b03-34db2e7338f9","ios":"levelo://app?vid=ac7ca10f-f1fa-49f8-9b03-34db2e7338f9"},"vehicle_type_id":"4","last_reported":1677049646,"current_range_meters":31600,"station_id":"ce4bgup2rcd13ifvqcn0","pricing_plan_id":"free"},{"bike_id":"c6d1c446-48d8-4aed-adae-d7e8241fabed","system_id":"levelo_inurba_marseille","lat":43.304606,"lon":5.379026,"is_reserved":false,"is_disabled":false,"rental_uris":{"android":"levelo://app?vid=c6d1c446-48d8-4aed-adae-d7e8241fabed","ios":"levelo://app?vid=c6d1c446-48d8-4aed-adae-d7e8241fabed"},"vehicle_type_id":"4","last_reported":1677049646,"current_range_meters":24400,"station_id":"ce4bgup2rcd13ifvqcn0","pricing_plan_id":"free"},{"bike_id":"f0da1214-ab12-453c-8122-f8b680525628","system_id":"levelo_inurba_marseille","lat":43.304606,"lon":5.379026,"is_reserved":false,"is_disabled":false,"rental_uris":{"android":"levelo://app?vid=f0da1214-ab12-453c-8122-f8b680525628","ios":"levelo://app?vid=f0da1214-ab12-453c-8122-f8b680525628"},"vehicle_type_id":"4","last_reported":1677049646,"current_range_meters":29200,"station_id":"ce4bgup2rcd13ifvqcn0","pricing_plan_id":"free"},{"bike_id":"ad8d57e3-505b-48a5-9c4f-d8ba51ac5519","system_id":"levelo_inurba_marseille","lat":43.304606,"lon":5.379026,"is_reserved":false,"is_disabled":false,"rental_uris":{"android":"levelo://app?vid=ad8d57e3-505b-48a5-9c4f-d8ba51ac5519","ios":"levelo://app?vid=ad8d57e3-505b-48a5-9c4f-d8ba51ac5519"},"vehicle_type_id":"4","last_reported":1677049646,"current_range_meters":8000,"station_id":"ce4bgup2rcd13ifvqcn0","pricing_plan_id":"free"},{"bike_id":"959b966d-94aa-45b5-8b39-ce473bf6e34b","system_id":"levelo_inurba_marseille","lat":43.304603,"lon":5.37912,"is_reserved":false,"is_disabled":false,"rental_uris":{"android":"levelo://app?vid=959b966d-94aa-45b5-8b39-ce473bf6e34b","ios":"levelo://app?vid=959b966d-94aa-45b5-8b39-ce473bf6e34b"},"vehicle_type_id":"4","last_reported":1677049646,"current_range_meters":11200,"station_id":"ce4bgup2rcd13ifvqcn0","pricing_plan_id":"free"},{"bike_id":"4829356b-f16c-4f96-8d01-034757fce32b","system_id":"levelo_inurba_marseille","lat":43.304606,"lon":5.379026,"is_reserved":false,"is_disabled":false,"rental_uris":{"android":"levelo://app?vid=4829356b-f16c-4f96-8d01-034757fce32b","ios":"levelo://app?vid=4829356b-f16c-4f96-8d01-034757fce32b"},"vehicle_type_id":"4","last_reported":1677049646,"current_range_meters":16400,"station_id":"ce4bgup2rcd13ifvqcn0","pricing_plan_id":"free"},{"bike_id":"c8d01935-02c3-4efa-8c58-241acdb3da71","system_id":"levelo_inurba_marseille","lat":43.304606,"lon":5.379026,"is_reserved":false,"is_disabled":false,"rental_uris":{"android":"levelo://app?vid=c8d01935-02c3-4efa-8c58-241acdb3da71","ios":"levelo://app?vid=c8d01935-02c3-4efa-8c58-241acdb3da71"},"vehicle_type_id":"4","last_reported":1677049646,"current_range_meters":28400,"station_id":"ce4bgup2rcd13ifvqcn0","pricing_plan_id":"free"},{"bike_id":"b05a6300-f67a-48b9-bd3e-a7761495fa05","system_id":"levelo_inurba_marseille","lat":43.304606,"lon":5.379026,"is_reserved":false,"is_disabled":false,"rental_uris":{"android":"levelo://app?vid=b05a6300-f67a-48b9-bd3e-a7761495fa05","ios":"levelo://app?vid=b05a6300-f67a-48b9-bd3e-a7761495fa05"},"vehicle_type_id":"4","last_reported":1677049646,"current_range_meters":28400,"station_id":"ce4bgup2rcd13ifvqcn0","pricing_plan_id":"free"},{"bike_id":"97fdc4c3-00dd-49b2-a47f-64f65037a6d3","system_id":"levelo_inurba_marseille","lat":43.304606,"lon":5.379026,"is_reserved":false,"is_disabled":false,"rental_uris":{"android":"levelo://app?vid=97fdc4c3-00dd-49b2-a47f-64f65037a6d3","ios":"levelo://app?vid=97fdc4c3-00dd-49b2-a47f-64f65037a6d3"},"vehicle_type_id":"4","last_reported":1677049646,"current_range_meters":30800,"station_id":"ce4bgup2rcd13ifvqcn0","pricing_plan_id":"free"},{"bike_id":"e8dc1df1-69a3-4f5a-85ea-20981d7df9db","system_id":"levelo_inurba_marseille","lat":43.304606,"lon":5.379026,"is_reserved":false,"is_disabled":false,"rental_uris":{"android":"levelo://app?vid=e8dc1df1-69a3-4f5a-85ea-20981d7df9db","ios":"levelo://app?vid=e8dc1df1-69a3-4f5a-85ea-20981d7df9db"},"vehicle_type_id":"4","last_reported":1677049646,"current_range_meters":16400,"station_id":"ce4bgup2rcd13ifvqcn0","pricing_plan_id":"free"},{"bike_id":"06ec49eb-d7c7-4771-8523-4ed369f81cf7","system_id":"levelo_inurba_marseille","lat":43.304606,"lon":5.379026,"is_reserved":false,"is_disabled":false,"rental_uris":{"android":"levelo://app?vid=06ec49eb-d7c7-4771-8523-4ed369f81cf7","ios":"levelo://app?vid=06ec49eb-d7c7-4771-8523-4ed369f81cf7"},"vehicle_type_id":"4","last_reported":1677049646,"current_range_meters":29600,"station_id":"ce4bgup2rcd13ifvqcn0","pricing_plan_id":"free"},{"bike_id":"6d6b02de-dd3e-479a-a685-330088585778","system_id":"levelo_inurba_marseille","lat":43.30141,"lon":5.37429,"is_reserved":false,"is_disabled":false,"rental_uris":{"android":"levelo://app?vid=6d6b02de-dd3e-479a-a685-330088585778","ios":"levelo://app?vid=6d6b02de-dd3e-479a-a685-330088585778"},"vehicle_type_id":"4","last_reported":1677049646,"current_range_meters":0,"station_id":"ce4bgs92rcd13ifvqcc0","pricing_plan_id":"free"},{"bike_id":"abca4ae4-fca1-4c41-9328-f01d05515968","system_id":"levelo_inurba_marseille","lat":43.313571,"lon":5.384829,"is_reserved":false,"is_disabled":false,"rental_uris":{"android":"levelo://app?vid=abca4ae4-fca1-4c41-9328-f01d05515968","ios":"levelo://app?vid=abca4ae4-fca1-4c41-9328-f01d05515968"},"vehicle_type_id":"4","last_reported":1677049646,"current_range_meters":14800,"station_id":"ce4bgt92rcd13ifvqcf0","pricing_plan_id":"free"},{"bike_id":"307f3881-a370-4717-a9b2-25a053e62a20","system_id":"levelo_inurba_marseille","lat":43.313571,"lon":5.384829,"is_reserved":false,"is_disabled":false,"rental_uris":{"android":"levelo://app?vid=307f3881-a370-4717-a9b2-25a053e62a20","ios":"levelo://app?vid=307f3881-a370-4717-a9b2-25a053e62a20"},"vehicle_type_id":"4","last_reported":1677049646,"current_range_meters":22000,"station_id":"ce4bgt92rcd13ifvqcf0","pricing_plan_id":"free"},{"bike_id":"6e79ccd8-92fc-4450-a7a1-0688e16739ff","system_id":"levelo_inurba_marseille","lat":43.313571,"lon":5.384829,"is_reserved":false,"is_disabled":false,"rental_uris":{"android":"levelo://app?vid=6e79ccd8-92fc-4450-a7a1-0688e16739ff","ios":"levelo://app?vid=6e79ccd8-92fc-4450-a7a1-0688e16739ff"},"vehicle_type_id":"4","last_reported":1677049646,"current_range_meters":21200,"station_id":"ce4bgt92rcd13ifvqcf0","pricing_plan_id":"free"},{"bike_id":"46cfe08f-8771-448f-9838-4badcc24cc30","system_id":"levelo_inurba_marseille","lat":43.313571,"lon":5.384829,"is_reserved":false,"is_disabled":false,"rental_uris":{"android":"levelo://app?vid=46cfe08f-8771-448f-9838-4badcc24cc30","ios":"levelo://app?vid=46cfe08f-8771-448f-9838-4badcc24cc30"},"vehicle_type_id":"4","last_reported":1677049646,"current_range_meters":30400,"station_id":"ce4bgt92rcd13ifvqcf0","pricing_plan_id":"free"},{"bike_id":"f35013a1-83be-4d12-86ff-18a663bd42d7","system_id":"levelo_inurba_marseille","lat":43.313571,"lon":5.384829,"is_reserved":false,"is_disabled":false,"rental_uris":{"android":"levelo://app?vid=f35013a1-83be-4d12-86ff-18a663bd42d7","ios":"levelo://app?vid=f35013a1-83be-4d12-86ff-18a663bd42d7"},"vehicle_type_id":"4","last_reported":1677049646,"current_range_meters":25600,"station_id":"ce4bgt92rcd13ifvqcf0","pricing_plan_id":"free"},{"bike_id":"26e918fa-0ee9-44d3-9673-0df1917ad95f","system_id":"levelo_inurba_marseille","lat":43.313571,"lon":5.384829,"is_reserved":false,"is_disabled":false,"rental_uris":{"android":"levelo://app?vid=26e918fa-0ee9-44d3-9673-0df1917ad95f","ios":"levelo://app?vid=26e918fa-0ee9-44d3-9673-0df1917ad95f"},"vehicle_type_id":"4","last_reported":1677049646,"current_range_meters":24800,"station_id":"ce4bgt92rcd13ifvqcf0","pricing_plan_id":"free"},{"bike_id":"eb8b95df-ff44-4869-8e9b-ac3b453d61b3","system_id":"levelo_inurba_marseille","lat":43.313571,"lon":5.384829,"is_reserved":false,"is_disabled":false,"rental_uris":{"android":"levelo://app?vid=eb8b95df-ff44-4869-8e9b-ac3b453d61b3","ios":"levelo://app?vid=eb8b95df-ff44-4869-8e9b-ac3b453d61b3"},"vehicle_type_id":"4","last_reported":1677049646,"current_range_meters":22800,"station_id":"ce4bgt92rcd13ifvqcf0","pricing_plan_id":"free"},{"bike_id":"9788c9fc-6018-4d5f-9c47-be76600328b1","system_id":"levelo_inurba_marseille","lat":43.306555,"lon":5.382837,"is_reserved":false,"is_disabled":false,"rental_uris":{"android":"levelo://app?vid=9788c9fc-6018-4d5f-9c47-be76600328b1","ios":"levelo://app?vid=9788c9fc-6018-4d5f-9c47-be76600328b1"},"vehicle_type_id":"4","last_reported":1677049646,"current_range_meters":14800,"station_id":"","pricing_plan_id":"free"},{"bike_id":"a8f5d050-2b14-4ee2-8e62-94eea08e9c03","system_id":"levelo_inurba_marseille","lat":43.313571,"lon":5.384829,"is_reserved":false,"is_disabled":false,"rental_uris":{"android":"levelo://app?vid=a8f5d050-2b14-4ee2-8e62-94eea08e9c03","ios":"levelo://app?vid=a8f5d050-2b14-4ee2-8e62-94eea08e9c03"},"vehicle_type_id":"4","last_reported":1677049646,"current_range_meters":26400,"station_id":"ce4bgt92rcd13ifvqcf0","pricing_plan_id":"free"},{"bike_id":"1301ceb8-c131-47fe-99c6-9de23c71060e","system_id":"levelo_inurba_marseille","lat":43.313571,"lon":5.384829,"is_reserved":false,"is_disabled":false,"rental_uris":{"android":"levelo://app?vid=1301ceb8-c131-47fe-99c6-9de23c71060e","ios":"levelo://app?vid=1301ceb8-c131-47fe-99c6-9de23c71060e"},"vehicle_type_id":"4","last_reported":1677049646,"current_range_meters":31600,"station_id":"ce4bgt92rcd13ifvqcf0","pricing_plan_id":"free"},{"bike_id":"52cff49a-ef02-465f-a087-4816540b8d45","system_id":"levelo_inurba_marseille","lat":43.313571,"lon":5.384829,"is_reserved":false,"is_disabled":false,"rental_uris":{"android":"levelo://app?vid=52cff49a-ef02-465f-a087-4816540b8d45","ios":"levelo://app?vid=52cff49a-ef02-465f-a087-4816540b8d45"},"vehicle_type_id":"4","last_reported":1677049646,"current_range_meters":24400,"station_id":"ce4bgt92rcd13ifvqcf0","pricing_plan_id":"free"},{"bike_id":"9bb8f531-8ae5-48d6-b9db-91bb0b7e3d45","system_id":"levelo_inurba_marseille","lat":43.313571,"lon":5.384829,"is_reserved":false,"is_disabled":false,"rental_uris":{"android":"levelo://app?vid=9bb8f531-8ae5-48d6-b9db-91bb0b7e3d45","ios":"levelo://app?vid=9bb8f531-8ae5-48d6-b9db-91bb0b7e3d45"},"vehicle_type_id":"4","last_reported":1677049646,"current_range_meters":31600,"station_id":"ce4bgt92rcd13ifvqcf0","pricing_plan_id":"free"},{"bike_id":"bc171cef-2fcf-44f7-83e4-c4bd78cfff72","system_id":"levelo_inurba_marseille","lat":43.313571,"lon":5.384829,"is_reserved":false,"is_disabled":false,"rental_uris":{"android":"levelo://app?vid=bc171cef-2fcf-44f7-83e4-c4bd78cfff72","ios":"levelo://app?vid=bc171cef-2fcf-44f7-83e4-c4bd78cfff72"},"vehicle_type_id":"4","last_reported":1677049646,"current_range_meters":28400,"station_id":"ce4bgt92rcd13ifvqcf0","pricing_plan_id":"free"},{"bike_id":"644aa06f-5d09-4f12-ae07-79fc7e1cc98b","system_id":"levelo_inurba_marseille","lat":43.313571,"lon":5.384829,"is_reserved":false,"is_disabled":false,"rental_uris":{"android":"levelo://app?vid=644aa06f-5d09-4f12-ae07-79fc7e1cc98b","ios":"levelo://app?vid=644aa06f-5d09-4f12-ae07-79fc7e1cc98b"},"vehicle_type_id":"4","last_reported":1677049646,"current_range_meters":30400,"station_id":"ce4bgt92rcd13ifvqcf0","pricing_plan_id":"free"},{"bike_id":"65acab90-be82-4eb2-8a94-61f411af61ed","system_id":"levelo_inurba_marseille","lat":43.305364,"lon":5.384119,"is_reserved":false,"is_disabled":false,"rental_uris":{"android":"levelo://app?vid=65acab90-be82-4eb2-8a94-61f411af61ed","ios":"levelo://app?vid=65acab90-be82-4eb2-8a94-61f411af61ed"},"vehicle_type_id":"4","last_reported":1677049646,"current_range_meters":18400,"station_id":"ce4bgg92rcd13ifvqb30","pricing_plan_id":"free"},{"bike_id":"d0ba0ddf-731a-47d6-a381-66aa757ec7d7","system_id":"levelo_inurba_marseille","lat":43.305364,"lon":5.384119,"is_reserved":false,"is_disabled":false,"rental_uris":{"android":"levelo://app?vid=d0ba0ddf-731a-47d6-a381-66aa757ec7d7","ios":"levelo://app?vid=d0ba0ddf-731a-47d6-a381-66aa757ec7d7"},"vehicle_type_id":"4","last_reported":1677049646,"current_range_meters":16800,"station_id":"ce4bgg92rcd13ifvqb30","pricing_plan_id":"free"},{"bike_id":"39073270-e858-4ab0-8c70-9db027b3b0c3","system_id":"levelo_inurba_marseille","lat":43.305364,"lon":5.384119,"is_reserved":false,"is_disabled":false,"rental_uris":{"android":"levelo://app?vid=39073270-e858-4ab0-8c70-9db027b3b0c3","ios":"levelo://app?vid=39073270-e858-4ab0-8c70-9db027b3b0c3"},"vehicle_type_id":"4","last_reported":1677049646,"current_range_meters":26000,"station_id":"ce4bgg92rcd13ifvqb30","pricing_plan_id":"free"},{"bike_id":"9d62c8fe-04d6-41b5-b920-cc29f890a22f","system_id":"levelo_inurba_marseille","lat":43.30535,"lon":5.384284,"is_reserved":false,"is_disabled":false,"rental_uris":{"android":"levelo://app?vid=9d62c8fe-04d6-41b5-b920-cc29f890a22f","ios":"levelo://app?vid=9d62c8fe-04d6-41b5-b920-cc29f890a22f"},"vehicle_type_id":"4","last_reported":1677049646,"current_range_meters":0,"station_id":"","pricing_plan_id":"free"},{"bike_id":"88719305-2fa5-40e7-8dc1-ce61e8c9dee9","system_id":"levelo_inurba_marseille","lat":43.311743,"lon":5.387058,"is_reserved":false,"is_disabled":false,"rental_uris":{"android":"levelo://app?vid=88719305-2fa5-40e7-8dc1-ce61e8c9dee9","ios":"levelo://app?vid=88719305-2fa5-40e7-8dc1-ce61e8c9dee9"},"vehicle_type_id":"4","last_reported":1677049646,"current_range_meters":18400,"station_id":"ce4bgv12rcd13ifvqcp0","pricing_plan_id":"free"},{"bike_id":"15e6d3d0-71a7-483f-86e7-21e50ab04c5e","system_id":"levelo_inurba_marseille","lat":43.311755,"lon":5.38707,"is_reserved":false,"is_disabled":false,"rental_uris":{"android":"levelo://app?vid=15e6d3d0-71a7-483f-86e7-21e50ab04c5e","ios":"levelo://app?vid=15e6d3d0-71a7-483f-86e7-21e50ab04c5e"},"vehicle_type_id":"4","last_reported":1677049646,"current_range_meters":22000,"station_id":"ce4bgv12rcd13ifvqcp0","pricing_plan_id":"free"},{"bike_id":"a6f377a2-c980-43bc-9e24-f19cf34e51bc","system_id":"levelo_inurba_marseille","lat":43.311722,"lon":5.387247,"is_reserved":false,"is_disabled":false,"rental_uris":{"android":"levelo://app?vid=a6f377a2-c980-43bc-9e24-f19cf34e51bc","ios":"levelo://app?vid=a6f377a2-c980-43bc-9e24-f19cf34e51bc"},"vehicle_type_id":"4","last_reported":1677049646,"current_range_meters":31600,"station_id":"ce4bgv12rcd13ifvqcp0","pricing_plan_id":"free"},{"bike_id":"c8719379-e22d-4504-9cff-fc5fb64cff79","system_id":"levelo_inurba_marseille","lat":43.311722,"lon":5.387247,"is_reserved":false,"is_disabled":false,"rental_uris":{"android":"levelo://app?vid=c8719379-e22d-4504-9cff-fc5fb64cff79","ios":"levelo://app?vid=c8719379-e22d-4504-9cff-fc5fb64cff79"},"vehicle_type_id":"4","last_reported":1677049646,"current_range_meters":30800,"station_id":"ce4bgv12rcd13ifvqcp0","pricing_plan_id":"free"},{"bike_id":"a236deff-5f26-43e3-8c2d-cf1243c2ffb4","system_id":"levelo_inurba_marseille","lat":43.311765,"lon":5.387128,"is_reserved":false,"is_disabled":false,"rental_uris":{"android":"levelo://app?vid=a236deff-5f26-43e3-8c2d-cf1243c2ffb4","ios":"levelo://app?vid=a236deff-5f26-43e3-8c2d-cf1243c2ffb4"},"vehicle_type_id":"4","last_reported":1677049646,"current_range_meters":31200,"station_id":"ce4bgv12rcd13ifvqcp0","pricing_plan_id":"free"},{"bike_id":"549fc5ff-3a37-45fd-a32b-13a3b534f344","system_id":"levelo_inurba_marseille","lat":43.31173,"lon":5.38714,"is_reserved":false,"is_disabled":false,"rental_uris":{"android":"levelo://app?vid=549fc5ff-3a37-45fd-a32b-13a3b534f344","ios":"levelo://app?vid=549fc5ff-3a37-45fd-a32b-13a3b534f344"},"vehicle_type_id":"4","last_reported":1677049646,"current_range_meters":30400,"station_id":"","pricing_plan_id":"free"},{"bike_id":"8642b95f-ca6b-447a-aeaf-a7da5c17ee87","system_id":"levelo_inurba_marseille","lat":43.311694,"lon":5.387153,"is_reserved":false,"is_disabled":false,"rental_uris":{"android":"levelo://app?vid=8642b95f-ca6b-447a-aeaf-a7da5c17ee87","ios":"levelo://app?vid=8642b95f-ca6b-447a-aeaf-a7da5c17ee87"},"vehicle_type_id":"4","last_reported":1677049646,"current_range_meters":28800,"station_id":"","pricing_plan_id":"free"},{"bike_id":"f9c0d7e2-25f2-4c6b-8414-f9d6aa9cb47a","system_id":"levelo_inurba_marseille","lat":43.311722,"lon":5.387247,"is_reserved":false,"is_disabled":false,"rental_uris":{"android":"levelo://app?vid=f9c0d7e2-25f2-4c6b-8414-f9d6aa9cb47a","ios":"levelo://app?vid=f9c0d7e2-25f2-4c6b-8414-f9d6aa9cb47a"},"vehicle_type_id":"4","last_reported":1677049646,"current_range_meters":28400,"station_id":"ce4bgv12rcd13ifvqcp0","pricing_plan_id":"free"},{"bike_id":"1665b516-6651-44a0-a109-d629dfd422c2","system_id":"levelo_inurba_marseille","lat":43.311722,"lon":5.387247,"is_reserved":false,"is_disabled":false,"rental_uris":{"android":"levelo://app?vid=1665b516-6651-44a0-a109-d629dfd422c2","ios":"levelo://app?vid=1665b516-6651-44a0-a109-d629dfd422c2"},"vehicle_type_id":"4","last_reported":1677049646,"current_range_meters":19600,"station_id":"ce4bgv12rcd13ifvqcp0","pricing_plan_id":"free"},{"bike_id":"cf223a4d-08ef-457a-a55e-4902de0b5cf5","system_id":"levelo_inurba_marseille","lat":43.311722,"lon":5.387247,"is_reserved":false,"is_disabled":false,"rental_uris":{"android":"levelo://app?vid=cf223a4d-08ef-457a-a55e-4902de0b5cf5","ios":"levelo://app?vid=cf223a4d-08ef-457a-a55e-4902de0b5cf5"},"vehicle_type_id":"4","last_reported":1677049646,"current_range_meters":31600,"station_id":"ce4bgv12rcd13ifvqcp0","pricing_plan_id":"free"},{"bike_id":"582bf060-612e-4f9d-b037-1dd6979d8dfd","system_id":"levelo_inurba_marseille","lat":43.296911,"lon":5.372727,"is_reserved":false,"is_disabled":false,"rental_uris":{"android":"levelo://app?vid=582bf060-612e-4f9d-b037-1dd6979d8dfd","ios":"levelo://app?vid=582bf060-612e-4f9d-b037-1dd6979d8dfd"},"vehicle_type_id":"4","last_reported":1677049646,"current_range_meters":29600,"station_id":"ce4bgk12rcd13ifvqbj0","pricing_plan_id":"free"},{"bike_id":"9c0e0395-0ac8-47a8-990b-26fcd1278d38","system_id":"levelo_inurba_marseille","lat":43.2968,"lon":5.37291,"is_reserved":false,"is_disabled":false,"rental_uris":{"android":"levelo://app?vid=9c0e0395-0ac8-47a8-990b-26fcd1278d38","ios":"levelo://app?vid=9c0e0395-0ac8-47a8-990b-26fcd1278d38"},"vehicle_type_id":"4","last_reported":1677049646,"current_range_meters":8000,"station_id":"ce4bgk12rcd13ifvqbj0","pricing_plan_id":"free"},{"bike_id":"d0fcb3cc-70f9-431f-8f70-fb67062d5898","system_id":"levelo_inurba_marseille","lat":43.296815,"lon":5.372775,"is_reserved":false,"is_disabled":false,"rental_uris":{"android":"levelo://app?vid=d0fcb3cc-70f9-431f-8f70-fb67062d5898","ios":"levelo://app?vid=d0fcb3cc-70f9-431f-8f70-fb67062d5898"},"vehicle_type_id":"4","last_reported":1677049646,"current_range_meters":30000,"station_id":"","pricing_plan_id":"free"},{"bike_id":"0adba3de-02d5-451e-996f-a8275635d7ea","system_id":"levelo_inurba_marseille","lat":43.2968,"lon":5.37291,"is_reserved":false,"is_disabled":false,"rental_uris":{"android":"levelo://app?vid=0adba3de-02d5-451e-996f-a8275635d7ea","ios":"levelo://app?vid=0adba3de-02d5-451e-996f-a8275635d7ea"},"vehicle_type_id":"4","last_reported":1677049646,"current_range_meters":29200,"station_id":"ce4bgk12rcd13ifvqbj0","pricing_plan_id":"free"},{"bike_id":"4c898f0c-2848-4bf9-b23f-5e4744821aaa","system_id":"levelo_inurba_marseille","lat":43.29573,"lon":5.367355,"is_reserved":false,"is_disabled":false,"rental_uris":{"android":"levelo://app?vid=4c898f0c-2848-4bf9-b23f-5e4744821aaa","ios":"levelo://app?vid=4c898f0c-2848-4bf9-b23f-5e4744821aaa"},"vehicle_type_id":"4","last_reported":1677049646,"current_range_meters":14400,"station_id":"ce4bgph2rcd13ifvqc2g","pricing_plan_id":"free"},{"bike_id":"dc47eb2c-61c4-4bf8-aaa8-b76d2d644d58","system_id":"levelo_inurba_marseille","lat":43.299028,"lon":5.381509,"is_reserved":false,"is_disabled":false,"rental_uris":{"android":"levelo://app?vid=dc47eb2c-61c4-4bf8-aaa8-b76d2d644d58","ios":"levelo://app?vid=dc47eb2c-61c4-4bf8-aaa8-b76d2d644d58"},"vehicle_type_id":"4","last_reported":1677049646,"current_range_meters":10400,"station_id":"ce4bgj12rcd13ifvqbc0","pricing_plan_id":"free"},{"bike_id":"817a8813-f9ef-4736-a77d-596f97566c97","system_id":"levelo_inurba_marseille","lat":43.299028,"lon":5.381509,"is_reserved":false,"is_disabled":false,"rental_uris":{"android":"levelo://app?vid=817a8813-f9ef-4736-a77d-596f97566c97","ios":"levelo://app?vid=817a8813-f9ef-4736-a77d-596f97566c97"},"vehicle_type_id":"4","last_reported":1677049646,"current_range_meters":10000,"station_id":"ce4bgj12rcd13ifvqbc0","pricing_plan_id":"free"},{"bike_id":"9f93d0a6-0e00-4821-9fa8-4b7bd3fa90e4","system_id":"levelo_inurba_marseille","lat":43.30946,"lon":5.3903,"is_reserved":false,"is_disabled":false,"rental_uris":{"android":"levelo://app?vid=9f93d0a6-0e00-4821-9fa8-4b7bd3fa90e4","ios":"levelo://app?vid=9f93d0a6-0e00-4821-9fa8-4b7bd3fa90e4"},"vehicle_type_id":"4","last_reported":1677049646,"current_range_meters":29600,"station_id":"ce4bgup2rcd13ifvqco0","pricing_plan_id":"free"},{"bike_id":"a821b12b-b495-4dd2-9cd5-0affebc00bf4","system_id":"levelo_inurba_marseille","lat":43.299028,"lon":5.381509,"is_reserved":false,"is_disabled":false,"rental_uris":{"android":"levelo://app?vid=a821b12b-b495-4dd2-9cd5-0affebc00bf4","ios":"levelo://app?vid=a821b12b-b495-4dd2-9cd5-0affebc00bf4"},"vehicle_type_id":"4","last_reported":1677049646,"current_range_meters":30400,"station_id":"ce4bgj12rcd13ifvqbc0","pricing_plan_id":"free"},{"bike_id":"d8a97faf-61c3-4827-9f6c-6f5fa4ead81c","system_id":"levelo_inurba_marseille","lat":43.309548,"lon":5.390343,"is_reserved":false,"is_disabled":false,"rental_uris":{"android":"levelo://app?vid=d8a97faf-61c3-4827-9f6c-6f5fa4ead81c","ios":"levelo://app?vid=d8a97faf-61c3-4827-9f6c-6f5fa4ead81c"},"vehicle_type_id":"4","last_reported":1677049646,"current_range_meters":16000,"station_id":"","pricing_plan_id":"free"},{"bike_id":"6e5bd3d8-1230-4295-b1df-f54c2aed8a47","system_id":"levelo_inurba_marseille","lat":43.309543,"lon":5.390357,"is_reserved":false,"is_disabled":false,"rental_uris":{"android":"levelo://app?vid=6e5bd3d8-1230-4295-b1df-f54c2aed8a47","ios":"levelo://app?vid=6e5bd3d8-1230-4295-b1df-f54c2aed8a47"},"vehicle_type_id":"4","last_reported":1677049646,"current_range_meters":18400,"station_id":"ce4bgup2rcd13ifvqco0","pricing_plan_id":"free"},{"bike_id":"d72bada2-84dc-423f-b620-f703ce4863cd","system_id":"levelo_inurba_marseille","lat":43.309589,"lon":5.390258,"is_reserved":false,"is_disabled":false,"rental_uris":{"android":"levelo://app?vid=d72bada2-84dc-423f-b620-f703ce4863cd","ios":"levelo://app?vid=d72bada2-84dc-423f-b620-f703ce4863cd"},"vehicle_type_id":"4","last_reported":1677049646,"current_range_meters":31600,"station_id":"ce4bgup2rcd13ifvqco0","pricing_plan_id":"free"},{"bike_id":"da182bc8-6dcd-4495-a4d7-c17d7f300b3a","system_id":"levelo_inurba_marseille","lat":43.309532,"lon":5.390417,"is_reserved":false,"is_disabled":false,"rental_uris":{"android":"levelo://app?vid=da182bc8-6dcd-4495-a4d7-c17d7f300b3a","ios":"levelo://app?vid=da182bc8-6dcd-4495-a4d7-c17d7f300b3a"},"vehicle_type_id":"4","last_reported":1677049646,"current_range_meters":18400,"station_id":"ce4bgup2rcd13ifvqco0","pricing_plan_id":"free"},{"bike_id":"ae17f027-bd8f-485c-90ba-bd88568edd86","system_id":"levelo_inurba_marseille","lat":43.309519,"lon":5.390414,"is_reserved":false,"is_disabled":false,"rental_uris":{"android":"levelo://app?vid=ae17f027-bd8f-485c-90ba-bd88568edd86","ios":"levelo://app?vid=ae17f027-bd8f-485c-90ba-bd88568edd86"},"vehicle_type_id":"4","last_reported":1677049646,"current_range_meters":28400,"station_id":"ce4bgup2rcd13ifvqco0","pricing_plan_id":"free"},{"bike_id":"512f6eb2-1b04-4b06-a749-b1d8082a3c0b","system_id":"levelo_inurba_marseille","lat":43.30951,"lon":5.390437,"is_reserved":false,"is_disabled":false,"rental_uris":{"android":"levelo://app?vid=512f6eb2-1b04-4b06-a749-b1d8082a3c0b","ios":"levelo://app?vid=512f6eb2-1b04-4b06-a749-b1d8082a3c0b"},"vehicle_type_id":"4","last_reported":1677049646,"current_range_meters":22400,"station_id":"ce4bgup2rcd13ifvqco0","pricing_plan_id":"free"},{"bike_id":"35a2688b-1f2d-4a56-b5c3-8bcb78ec0898","system_id":"levelo_inurba_marseille","lat":43.317557,"lon":5.390173,"is_reserved":false,"is_disabled":false,"rental_uris":{"android":"levelo://app?vid=35a2688b-1f2d-4a56-b5c3-8bcb78ec0898","ios":"levelo://app?vid=35a2688b-1f2d-4a56-b5c3-8bcb78ec0898"},"vehicle_type_id":"4","last_reported":1677049646,"current_range_meters":28000,"station_id":"ce4bhqp2rcd13ifvqhng","pricing_plan_id":"free"},{"bike_id":"e61fd136-e5c2-4d91-8606-27f4d2c93d2c","system_id":"levelo_inurba_marseille","lat":43.317557,"lon":5.390173,"is_reserved":false,"is_disabled":false,"rental_uris":{"android":"levelo://app?vid=e61fd136-e5c2-4d91-8606-27f4d2c93d2c","ios":"levelo://app?vid=e61fd136-e5c2-4d91-8606-27f4d2c93d2c"},"vehicle_type_id":"4","last_reported":1677049646,"current_range_meters":2400,"station_id":"ce4bhqp2rcd13ifvqhng","pricing_plan_id":"free"},{"bike_id":"a9ebcb65-fe00-40a6-9cbb-985d69de2557","system_id":"levelo_inurba_marseille","lat":43.317557,"lon":5.390173,"is_reserved":false,"is_disabled":false,"rental_uris":{"android":"levelo://app?vid=a9ebcb65-fe00-40a6-9cbb-985d69de2557","ios":"levelo://app?vid=a9ebcb65-fe00-40a6-9cbb-985d69de2557"},"vehicle_type_id":"4","last_reported":1677049646,"current_range_meters":30000,"station_id":"ce4bhqp2rcd13ifvqhng","pricing_plan_id":"free"},{"bike_id":"220117c2-3709-4d6e-85ff-185ce30da37d","system_id":"levelo_inurba_marseille","lat":43.317557,"lon":5.390173,"is_reserved":false,"is_disabled":false,"rental_uris":{"android":"levelo://app?vid=220117c2-3709-4d6e-85ff-185ce30da37d","ios":"levelo://app?vid=220117c2-3709-4d6e-85ff-185ce30da37d"},"vehicle_type_id":"4","last_reported":1677049646,"current_range_meters":22400,"station_id":"ce4bhqp2rcd13ifvqhng","pricing_plan_id":"free"},{"bike_id":"5acf2df8-fa8c-41b2-b8db-04fab423fafb","system_id":"levelo_inurba_marseille","lat":43.317557,"lon":5.390173,"is_reserved":false,"is_disabled":false,"rental_uris":{"android":"levelo://app?vid=5acf2df8-fa8c-41b2-b8db-04fab423fafb","ios":"levelo://app?vid=5acf2df8-fa8c-41b2-b8db-04fab423fafb"},"vehicle_type_id":"4","last_reported":1677049646,"current_range_meters":14800,"station_id":"ce4bhqp2rcd13ifvqhng","pricing_plan_id":"free"},{"bike_id":"0e1a583d-9aa6-42df-bf44-6f8486b81314","system_id":"levelo_inurba_marseille","lat":43.295748,"lon":5.37522,"is_reserved":false,"is_disabled":false,"rental_uris":{"android":"levelo://app?vid=0e1a583d-9aa6-42df-bf44-6f8486b81314","ios":"levelo://app?vid=0e1a583d-9aa6-42df-bf44-6f8486b81314"},"vehicle_type_id":"4","last_reported":1677049646,"current_range_meters":28400,"station_id":"ce4bgh92rcd13ifvqb50","pricing_plan_id":"free"},{"bike_id":"c2b41e54-b104-435b-b51f-8cf955bb1a73","system_id":"levelo_inurba_marseille","lat":43.295748,"lon":5.37522,"is_reserved":false,"is_disabled":false,"rental_uris":{"android":"levelo://app?vid=c2b41e54-b104-435b-b51f-8cf955bb1a73","ios":"levelo://app?vid=c2b41e54-b104-435b-b51f-8cf955bb1a73"},"vehicle_type_id":"4","last_reported":1677049646,"current_range_meters":31200,"station_id":"ce4bgh92rcd13ifvqb50","pricing_plan_id":"free"},{"bike_id":"e23bd103-e449-4d03-9ce0-dc2998a63666","system_id":"levelo_inurba_marseille","lat":43.298037,"lon":5.381066,"is_reserved":false,"is_disabled":false,"rental_uris":{"android":"levelo://app?vid=e23bd103-e449-4d03-9ce0-dc2998a63666","ios":"levelo://app?vid=e23bd103-e449-4d03-9ce0-dc2998a63666"},"vehicle_type_id":"4","last_reported":1677049646,"current_range_meters":24000,"station_id":"ce4bgip2rcd13ifvqbb0","pricing_plan_id":"free"},{"bike_id":"54b3d61f-454f-48f1-b3d0-45c8eb27bd91","system_id":"levelo_inurba_marseille","lat":43.295748,"lon":5.37522,"is_reserved":false,"is_disabled":false,"rental_uris":{"android":"levelo://app?vid=54b3d61f-454f-48f1-b3d0-45c8eb27bd91","ios":"levelo://app?vid=54b3d61f-454f-48f1-b3d0-45c8eb27bd91"},"vehicle_type_id":"4","last_reported":1677049646,"current_range_meters":29600,"station_id":"ce4bgh92rcd13ifvqb50","pricing_plan_id":"free"},{"bike_id":"ad5e29b5-4b4c-4bc3-b888-b17b4adaa258","system_id":"levelo_inurba_marseille","lat":43.29695,"lon":5.3788,"is_reserved":false,"is_disabled":false,"rental_uris":{"android":"levelo://app?vid=ad5e29b5-4b4c-4bc3-b888-b17b4adaa258","ios":"levelo://app?vid=ad5e29b5-4b4c-4bc3-b888-b17b4adaa258"},"vehicle_type_id":"4","last_reported":1677049646,"current_range_meters":0,"station_id":"","pricing_plan_id":"free"},{"bike_id":"453c391b-65ed-4e0d-88b2-b9a3b719ed36","system_id":"levelo_inurba_marseille","lat":43.295748,"lon":5.37522,"is_reserved":false,"is_disabled":false,"rental_uris":{"android":"levelo://app?vid=453c391b-65ed-4e0d-88b2-b9a3b719ed36","ios":"levelo://app?vid=453c391b-65ed-4e0d-88b2-b9a3b719ed36"},"vehicle_type_id":"4","last_reported":1677049646,"current_range_meters":28000,"station_id":"ce4bgh92rcd13ifvqb50","pricing_plan_id":"free"},{"bike_id":"24721760-ba0a-41e7-9b7f-15071b72489f","system_id":"levelo_inurba_marseille","lat":43.295748,"lon":5.37522,"is_reserved":false,"is_disabled":false,"rental_uris":{"android":"levelo://app?vid=24721760-ba0a-41e7-9b7f-15071b72489f","ios":"levelo://app?vid=24721760-ba0a-41e7-9b7f-15071b72489f"},"vehicle_type_id":"4","last_reported":1677049646,"current_range_meters":30400,"station_id":"ce4bgh92rcd13ifvqb50","pricing_plan_id":"free"},{"bike_id":"c10b80a9-a22d-463c-aa9d-d24ab0069eaf","system_id":"levelo_inurba_marseille","lat":43.295748,"lon":5.37522,"is_reserved":false,"is_disabled":false,"rental_uris":{"android":"levelo://app?vid=c10b80a9-a22d-463c-aa9d-d24ab0069eaf","ios":"levelo://app?vid=c10b80a9-a22d-463c-aa9d-d24ab0069eaf"},"vehicle_type_id":"4","last_reported":1677049646,"current_range_meters":22000,"station_id":"ce4bgh92rcd13ifvqb50","pricing_plan_id":"free"},{"bike_id":"a4531807-52f4-4b3a-be38-126b5470918a","system_id":"levelo_inurba_marseille","lat":43.304402,"lon":5.388959,"is_reserved":false,"is_disabled":false,"rental_uris":{"android":"levelo://app?vid=a4531807-52f4-4b3a-be38-126b5470918a","ios":"levelo://app?vid=a4531807-52f4-4b3a-be38-126b5470918a"},"vehicle_type_id":"4","last_reported":1677049646,"current_range_meters":21200,"station_id":"ce4bgk12rcd13ifvqbi0","pricing_plan_id":"free"},{"bike_id":"9e687f4d-09ed-479e-9163-c02c6a049089","system_id":"levelo_inurba_marseille","lat":43.296277,"lon":5.377108,"is_reserved":false,"is_disabled":false,"rental_uris":{"android":"levelo://app?vid=9e687f4d-09ed-479e-9163-c02c6a049089","ios":"levelo://app?vid=9e687f4d-09ed-479e-9163-c02c6a049089"},"vehicle_type_id":"4","last_reported":1677049646,"current_range_meters":26800,"station_id":"ce4bgi92rcd13ifvqb90","pricing_plan_id":"free"},{"bike_id":"6c7e466a-cc75-4c64-8727-33ec056f0ea6","system_id":"levelo_inurba_marseille","lat":43.295748,"lon":5.37522,"is_reserved":false,"is_disabled":false,"rental_uris":{"android":"levelo://app?vid=6c7e466a-cc75-4c64-8727-33ec056f0ea6","ios":"levelo://app?vid=6c7e466a-cc75-4c64-8727-33ec056f0ea6"},"vehicle_type_id":"4","last_reported":1677049646,"current_range_meters":6800,"station_id":"ce4bgh92rcd13ifvqb50","pricing_plan_id":"free"},{"bike_id":"e76deae3-51f1-4582-a753-6da1800d605d","system_id":"levelo_inurba_marseille","lat":43.296128,"lon":5.377285,"is_reserved":false,"is_disabled":false,"rental_uris":{"android":"levelo://app?vid=e76deae3-51f1-4582-a753-6da1800d605d","ios":"levelo://app?vid=e76deae3-51f1-4582-a753-6da1800d605d"},"vehicle_type_id":"4","last_reported":1677049646,"current_range_meters":30800,"station_id":"ce4bgi92rcd13ifvqb90","pricing_plan_id":"free"},{"bike_id":"00d53a84-19c0-4500-85ec-afa7909bbfe0","system_id":"levelo_inurba_marseille","lat":43.296263,"lon":5.377094,"is_reserved":false,"is_disabled":false,"rental_uris":{"android":"levelo://app?vid=00d53a84-19c0-4500-85ec-afa7909bbfe0","ios":"levelo://app?vid=00d53a84-19c0-4500-85ec-afa7909bbfe0"},"vehicle_type_id":"4","last_reported":1677049646,"current_range_meters":31600,"station_id":"ce4bgi92rcd13ifvqb90","pricing_plan_id":"free"},{"bike_id":"080b006e-2b56-4b39-babd-8fc59b3d7f34","system_id":"levelo_inurba_marseille","lat":43.296277,"lon":5.377108,"is_reserved":false,"is_disabled":false,"rental_uris":{"android":"levelo://app?vid=080b006e-2b56-4b39-babd-8fc59b3d7f34","ios":"levelo://app?vid=080b006e-2b56-4b39-babd-8fc59b3d7f34"},"vehicle_type_id":"4","last_reported":1677049646,"current_range_meters":31600,"station_id":"ce4bgi92rcd13ifvqb90","pricing_plan_id":"free"},{"bike_id":"44abc7fe-84cb-47b6-b553-d4c8a23092bc","system_id":"levelo_inurba_marseille","lat":43.296263,"lon":5.377094,"is_reserved":false,"is_disabled":false,"rental_uris":{"android":"levelo://app?vid=44abc7fe-84cb-47b6-b553-d4c8a23092bc","ios":"levelo://app?vid=44abc7fe-84cb-47b6-b553-d4c8a23092bc"},"vehicle_type_id":"4","last_reported":1677049646,"current_range_meters":30400,"station_id":"ce4bgi92rcd13ifvqb90","pricing_plan_id":"free"},{"bike_id":"f55eb655-7b77-4409-84ab-c24f331db4a4","system_id":"levelo_inurba_marseille","lat":43.296263,"lon":5.377094,"is_reserved":false,"is_disabled":false,"rental_uris":{"android":"levelo://app?vid=f55eb655-7b77-4409-84ab-c24f331db4a4","ios":"levelo://app?vid=f55eb655-7b77-4409-84ab-c24f331db4a4"},"vehicle_type_id":"4","last_reported":1677049646,"current_range_meters":31200,"station_id":"ce4bgi92rcd13ifvqb90","pricing_plan_id":"free"},{"bike_id":"66643016-f2c4-4f9d-8d54-5b3a5e466ecc","system_id":"levelo_inurba_marseille","lat":43.295279,"lon":5.375048,"is_reserved":false,"is_disabled":false,"rental_uris":{"android":"levelo://app?vid=66643016-f2c4-4f9d-8d54-5b3a5e466ecc","ios":"levelo://app?vid=66643016-f2c4-4f9d-8d54-5b3a5e466ecc"},"vehicle_type_id":"4","last_reported":1677049646,"current_range_meters":31600,"station_id":"ce4bgkp2rcd13ifvqbmg","pricing_plan_id":"free"},{"bike_id":"ecb9c742-5ab2-4fc4-8ab7-377a325f8791","system_id":"levelo_inurba_marseille","lat":43.295279,"lon":5.375048,"is_reserved":false,"is_disabled":false,"rental_uris":{"android":"levelo://app?vid=ecb9c742-5ab2-4fc4-8ab7-377a325f8791","ios":"levelo://app?vid=ecb9c742-5ab2-4fc4-8ab7-377a325f8791"},"vehicle_type_id":"4","last_reported":1677049646,"current_range_meters":25200,"station_id":"ce4bgkp2rcd13ifvqbmg","pricing_plan_id":"free"},{"bike_id":"9138fbaa-e658-4f96-933c-b62849c3e387","system_id":"levelo_inurba_marseille","lat":43.32359,"lon":5.38879,"is_reserved":false,"is_disabled":false,"rental_uris":{"android":"levelo://app?vid=9138fbaa-e658-4f96-933c-b62849c3e387","ios":"levelo://app?vid=9138fbaa-e658-4f96-933c-b62849c3e387"},"vehicle_type_id":"4","last_reported":1677049646,"current_range_meters":15200,"station_id":"ce4bhqp2rcd13ifvqhog","pricing_plan_id":"free"},{"bike_id":"279e6bc2-e6ee-4f40-a316-f0c47ec7182c","system_id":"levelo_inurba_marseille","lat":43.323587,"lon":5.388836,"is_reserved":false,"is_disabled":false,"rental_uris":{"android":"levelo://app?vid=279e6bc2-e6ee-4f40-a316-f0c47ec7182c","ios":"levelo://app?vid=279e6bc2-e6ee-4f40-a316-f0c47ec7182c"},"vehicle_type_id":"4","last_reported":1677049646,"current_range_meters":19600,"station_id":"ce4bhqp2rcd13ifvqhog","pricing_plan_id":"free"},{"bike_id":"636860b9-ce00-49dd-81ca-1ee40142aca4","system_id":"levelo_inurba_marseille","lat":43.32362,"lon":5.38884,"is_reserved":false,"is_disabled":false,"rental_uris":{"android":"levelo://app?vid=636860b9-ce00-49dd-81ca-1ee40142aca4","ios":"levelo://app?vid=636860b9-ce00-49dd-81ca-1ee40142aca4"},"vehicle_type_id":"4","last_reported":1677049646,"current_range_meters":19200,"station_id":"ce4bhqp2rcd13ifvqhog","pricing_plan_id":"free"},{"bike_id":"ad763750-9e7b-47c9-858a-425e7d3ebd56","system_id":"levelo_inurba_marseille","lat":43.323635,"lon":5.38883,"is_reserved":false,"is_disabled":false,"rental_uris":{"android":"levelo://app?vid=ad763750-9e7b-47c9-858a-425e7d3ebd56","ios":"levelo://app?vid=ad763750-9e7b-47c9-858a-425e7d3ebd56"},"vehicle_type_id":"4","last_reported":1677049646,"current_range_meters":23600,"station_id":"ce4bhqp2rcd13ifvqhog","pricing_plan_id":"free"},{"bike_id":"4821fcc6-3ef3-4feb-99d2-a6d88de1b7dd","system_id":"levelo_inurba_marseille","lat":43.32368,"lon":5.388833,"is_reserved":false,"is_disabled":false,"rental_uris":{"android":"levelo://app?vid=4821fcc6-3ef3-4feb-99d2-a6d88de1b7dd","ios":"levelo://app?vid=4821fcc6-3ef3-4feb-99d2-a6d88de1b7dd"},"vehicle_type_id":"4","last_reported":1677049646,"current_range_meters":10400,"station_id":"","pricing_plan_id":"free"},{"bike_id":"d4801501-57c1-4a1f-861d-3d40e5d5affb","system_id":"levelo_inurba_marseille","lat":43.32364,"lon":5.388884,"is_reserved":false,"is_disabled":false,"rental_uris":{"android":"levelo://app?vid=d4801501-57c1-4a1f-861d-3d40e5d5affb","ios":"levelo://app?vid=d4801501-57c1-4a1f-861d-3d40e5d5affb"},"vehicle_type_id":"4","last_reported":1677049646,"current_range_meters":26800,"station_id":"ce4bhqp2rcd13ifvqhog","pricing_plan_id":"free"},{"bike_id":"96d768b0-ff0b-44be-a14b-d4484e3897ac","system_id":"levelo_inurba_marseille","lat":43.322952,"lon":5.389605,"is_reserved":false,"is_disabled":false,"rental_uris":{"android":"levelo://app?vid=96d768b0-ff0b-44be-a14b-d4484e3897ac","ios":"levelo://app?vid=96d768b0-ff0b-44be-a14b-d4484e3897ac"},"vehicle_type_id":"4","last_reported":1677049646,"current_range_meters":18800,"station_id":"","pricing_plan_id":"free"},{"bike_id":"f90fe773-e798-42f1-84bb-86599321ceb5","system_id":"levelo_inurba_marseille","lat":43.29303,"lon":5.37426,"is_reserved":false,"is_disabled":false,"rental_uris":{"android":"levelo://app?vid=f90fe773-e798-42f1-84bb-86599321ceb5","ios":"levelo://app?vid=f90fe773-e798-42f1-84bb-86599321ceb5"},"vehicle_type_id":"4","last_reported":1677049646,"current_range_meters":26800,"station_id":"ce4bgi12rcd13ifvqb70","pricing_plan_id":"free"},{"bike_id":"7bb761a6-c8d2-4fba-8905-3da464bcaaef","system_id":"levelo_inurba_marseille","lat":43.305994,"lon":5.393687,"is_reserved":false,"is_disabled":false,"rental_uris":{"android":"levelo://app?vid=7bb761a6-c8d2-4fba-8905-3da464bcaaef","ios":"levelo://app?vid=7bb761a6-c8d2-4fba-8905-3da464bcaaef"},"vehicle_type_id":"4","last_reported":1677049646,"current_range_meters":26000,"station_id":"ce4bh0p2rcd13ifvqd80","pricing_plan_id":"free"},{"bike_id":"74ec574e-8ae1-444b-a664-e77d052148f2","system_id":"levelo_inurba_marseille","lat":43.305994,"lon":5.393687,"is_reserved":false,"is_disabled":false,"rental_uris":{"android":"levelo://app?vid=74ec574e-8ae1-444b-a664-e77d052148f2","ios":"levelo://app?vid=74ec574e-8ae1-444b-a664-e77d052148f2"},"vehicle_type_id":"4","last_reported":1677049646,"current_range_meters":25200,"station_id":"ce4bh0p2rcd13ifvqd80","pricing_plan_id":"free"},{"bike_id":"c03d380b-b2a5-49b4-ac6c-c1f0d60fc9dc","system_id":"levelo_inurba_marseille","lat":43.2936,"lon":5.37835,"is_reserved":false,"is_disabled":false,"rental_uris":{"android":"levelo://app?vid=c03d380b-b2a5-49b4-ac6c-c1f0d60fc9dc","ios":"levelo://app?vid=c03d380b-b2a5-49b4-ac6c-c1f0d60fc9dc"},"vehicle_type_id":"4","last_reported":1677049646,"current_range_meters":15200,"station_id":"ce4bgjh2rcd13ifvqbf0","pricing_plan_id":"free"},{"bike_id":"e6297c12-fd11-450a-98fa-840d12b92a1b","system_id":"levelo_inurba_marseille","lat":43.300852,"lon":5.390859,"is_reserved":false,"is_disabled":false,"rental_uris":{"android":"levelo://app?vid=e6297c12-fd11-450a-98fa-840d12b92a1b","ios":"levelo://app?vid=e6297c12-fd11-450a-98fa-840d12b92a1b"},"vehicle_type_id":"4","last_reported":1677049646,"current_range_meters":25200,"station_id":"ce4bh192rcd13ifvqdb0","pricing_plan_id":"free"},{"bike_id":"9a7dbc8a-1e74-4804-8cc1-3066900b49d0","system_id":"levelo_inurba_marseille","lat":43.292261,"lon":5.360699,"is_reserved":false,"is_disabled":false,"rental_uris":{"android":"levelo://app?vid=9a7dbc8a-1e74-4804-8cc1-3066900b49d0","ios":"levelo://app?vid=9a7dbc8a-1e74-4804-8cc1-3066900b49d0"},"vehicle_type_id":"4","last_reported":1677049646,"current_range_meters":0,"station_id":"ce4bhbh2rcd13ifvqeqg","pricing_plan_id":"free"},{"bike_id":"1ac251a6-3128-4855-a204-80534a2730f5","system_id":"levelo_inurba_marseille","lat":43.292311,"lon":5.360731,"is_reserved":false,"is_disabled":false,"rental_uris":{"android":"levelo://app?vid=1ac251a6-3128-4855-a204-80534a2730f5","ios":"levelo://app?vid=1ac251a6-3128-4855-a204-80534a2730f5"},"vehicle_type_id":"4","last_reported":1677049646,"current_range_meters":27200,"station_id":"ce4bhbh2rcd13ifvqeqg","pricing_plan_id":"free"},{"bike_id":"5831859b-ecd5-4c57-a419-d49e2f1f72d1","system_id":"levelo_inurba_marseille","lat":43.292311,"lon":5.360731,"is_reserved":false,"is_disabled":false,"rental_uris":{"android":"levelo://app?vid=5831859b-ecd5-4c57-a419-d49e2f1f72d1","ios":"levelo://app?vid=5831859b-ecd5-4c57-a419-d49e2f1f72d1"},"vehicle_type_id":"4","last_reported":1677049646,"current_range_meters":15200,"station_id":"ce4bhbh2rcd13ifvqeqg","pricing_plan_id":"free"},{"bike_id":"4f7a8ee7-f14c-4611-9608-49da267f7f40","system_id":"levelo_inurba_marseille","lat":43.292311,"lon":5.360731,"is_reserved":false,"is_disabled":false,"rental_uris":{"android":"levelo://app?vid=4f7a8ee7-f14c-4611-9608-49da267f7f40","ios":"levelo://app?vid=4f7a8ee7-f14c-4611-9608-49da267f7f40"},"vehicle_type_id":"4","last_reported":1677049646,"current_range_meters":29200,"station_id":"ce4bhbh2rcd13ifvqeqg","pricing_plan_id":"free"},{"bike_id":"84101e77-e901-4775-bcb3-5556e3951d9a","system_id":"levelo_inurba_marseille","lat":43.292225,"lon":5.360692,"is_reserved":false,"is_disabled":false,"rental_uris":{"android":"levelo://app?vid=84101e77-e901-4775-bcb3-5556e3951d9a","ios":"levelo://app?vid=84101e77-e901-4775-bcb3-5556e3951d9a"},"vehicle_type_id":"4","last_reported":1677049646,"current_range_meters":11600,"station_id":"ce4bhbh2rcd13ifvqeqg","pricing_plan_id":"free"},{"bike_id":"12ce5a6d-d07b-4c77-8629-e6db0df73974","system_id":"levelo_inurba_marseille","lat":43.29219,"lon":5.36064,"is_reserved":false,"is_disabled":false,"rental_uris":{"android":"levelo://app?vid=12ce5a6d-d07b-4c77-8629-e6db0df73974","ios":"levelo://app?vid=12ce5a6d-d07b-4c77-8629-e6db0df73974"},"vehicle_type_id":"4","last_reported":1677049646,"current_range_meters":16800,"station_id":"ce4bhbh2rcd13ifvqeqg","pricing_plan_id":"free"},{"bike_id":"676eeefc-f100-418d-a7ff-07764c854993","system_id":"levelo_inurba_marseille","lat":43.29885,"lon":5.38898,"is_reserved":false,"is_disabled":false,"rental_uris":{"android":"levelo://app?vid=676eeefc-f100-418d-a7ff-07764c854993","ios":"levelo://app?vid=676eeefc-f100-418d-a7ff-07764c854993"},"vehicle_type_id":"4","last_reported":1677049646,"current_range_meters":14400,"station_id":"ce4bh392rcd13ifvqdl0","pricing_plan_id":"free"},{"bike_id":"bd4404a1-0669-4afe-8e7f-4a91917d2866","system_id":"levelo_inurba_marseille","lat":43.313291,"lon":5.396838,"is_reserved":false,"is_disabled":false,"rental_uris":{"android":"levelo://app?vid=bd4404a1-0669-4afe-8e7f-4a91917d2866","ios":"levelo://app?vid=bd4404a1-0669-4afe-8e7f-4a91917d2866"},"vehicle_type_id":"4","last_reported":1677049646,"current_range_meters":27600,"station_id":"ce4bgvp2rcd13ifvqcu0","pricing_plan_id":"free"},{"bike_id":"87639c56-b448-4980-a422-e7f6f0067531","system_id":"levelo_inurba_marseille","lat":43.31325,"lon":5.39685,"is_reserved":false,"is_disabled":false,"rental_uris":{"android":"levelo://app?vid=87639c56-b448-4980-a422-e7f6f0067531","ios":"levelo://app?vid=87639c56-b448-4980-a422-e7f6f0067531"},"vehicle_type_id":"4","last_reported":1677049646,"current_range_meters":19600,"station_id":"ce4bgvp2rcd13ifvqcu0","pricing_plan_id":"free"},{"bike_id":"ae485313-65a8-408e-9a0d-5d7eed71ef10","system_id":"levelo_inurba_marseille","lat":43.31325,"lon":5.39687,"is_reserved":false,"is_disabled":false,"rental_uris":{"android":"levelo://app?vid=ae485313-65a8-408e-9a0d-5d7eed71ef10","ios":"levelo://app?vid=ae485313-65a8-408e-9a0d-5d7eed71ef10"},"vehicle_type_id":"4","last_reported":1677049646,"current_range_meters":30400,"station_id":"ce4bgvp2rcd13ifvqcu0","pricing_plan_id":"free"},{"bike_id":"b7cba92e-7626-4edc-bf57-67d2a8cd133e","system_id":"levelo_inurba_marseille","lat":43.31321,"lon":5.39688,"is_reserved":false,"is_disabled":false,"rental_uris":{"android":"levelo://app?vid=b7cba92e-7626-4edc-bf57-67d2a8cd133e","ios":"levelo://app?vid=b7cba92e-7626-4edc-bf57-67d2a8cd133e"},"vehicle_type_id":"4","last_reported":1677049646,"current_range_meters":16000,"station_id":"ce4bgvp2rcd13ifvqcu0","pricing_plan_id":"free"},{"bike_id":"b9719815-ca80-4cfa-bca3-5c028b82681b","system_id":"levelo_inurba_marseille","lat":43.313265,"lon":5.39688,"is_reserved":false,"is_disabled":false,"rental_uris":{"android":"levelo://app?vid=b9719815-ca80-4cfa-bca3-5c028b82681b","ios":"levelo://app?vid=b9719815-ca80-4cfa-bca3-5c028b82681b"},"vehicle_type_id":"4","last_reported":1677049646,"current_range_meters":26400,"station_id":"","pricing_plan_id":"free"},{"bike_id":"b83305c3-a60e-421d-9725-8127da49a0aa","system_id":"levelo_inurba_marseille","lat":43.31319,"lon":5.39689,"is_reserved":false,"is_disabled":false,"rental_uris":{"android":"levelo://app?vid=b83305c3-a60e-421d-9725-8127da49a0aa","ios":"levelo://app?vid=b83305c3-a60e-421d-9725-8127da49a0aa"},"vehicle_type_id":"4","last_reported":1677049646,"current_range_meters":29200,"station_id":"ce4bgvp2rcd13ifvqcu0","pricing_plan_id":"free"},{"bike_id":"d498c9cf-23b5-4b9b-af37-b55aef7a789b","system_id":"levelo_inurba_marseille","lat":43.31325,"lon":5.39689,"is_reserved":false,"is_disabled":false,"rental_uris":{"android":"levelo://app?vid=d498c9cf-23b5-4b9b-af37-b55aef7a789b","ios":"levelo://app?vid=d498c9cf-23b5-4b9b-af37-b55aef7a789b"},"vehicle_type_id":"4","last_reported":1677049646,"current_range_meters":24800,"station_id":"ce4bgvp2rcd13ifvqcu0","pricing_plan_id":"free"},{"bike_id":"739c22c2-f9aa-43af-8029-3445a3326736","system_id":"levelo_inurba_marseille","lat":43.313245,"lon":5.396895,"is_reserved":false,"is_disabled":false,"rental_uris":{"android":"levelo://app?vid=739c22c2-f9aa-43af-8029-3445a3326736","ios":"levelo://app?vid=739c22c2-f9aa-43af-8029-3445a3326736"},"vehicle_type_id":"4","last_reported":1677049646,"current_range_meters":22000,"station_id":"","pricing_plan_id":"free"},{"bike_id":"8b1f5dc1-bdd2-4375-a47c-eb47bf708e2c","system_id":"levelo_inurba_marseille","lat":43.3132,"lon":5.3969,"is_reserved":false,"is_disabled":false,"rental_uris":{"android":"levelo://app?vid=8b1f5dc1-bdd2-4375-a47c-eb47bf708e2c","ios":"levelo://app?vid=8b1f5dc1-bdd2-4375-a47c-eb47bf708e2c"},"vehicle_type_id":"4","last_reported":1677049646,"current_range_meters":15200,"station_id":"","pricing_plan_id":"free"},{"bike_id":"1228af27-c54f-4d3e-bc27-e5c5383d4f26","system_id":"levelo_inurba_marseille","lat":43.31322,"lon":5.3969,"is_reserved":false,"is_disabled":false,"rental_uris":{"android":"levelo://app?vid=1228af27-c54f-4d3e-bc27-e5c5383d4f26","ios":"levelo://app?vid=1228af27-c54f-4d3e-bc27-e5c5383d4f26"},"vehicle_type_id":"4","last_reported":1677049646,"current_range_meters":31600,"station_id":"ce4bgvp2rcd13ifvqcu0","pricing_plan_id":"free"},{"bike_id":"f101b930-cb59-4498-ae93-a25af2daf06e","system_id":"levelo_inurba_marseille","lat":43.31322,"lon":5.3969,"is_reserved":false,"is_disabled":false,"rental_uris":{"android":"levelo://app?vid=f101b930-cb59-4498-ae93-a25af2daf06e","ios":"levelo://app?vid=f101b930-cb59-4498-ae93-a25af2daf06e"},"vehicle_type_id":"4","last_reported":1677049646,"current_range_meters":13600,"station_id":"ce4bgvp2rcd13ifvqcu0","pricing_plan_id":"free"},{"bike_id":"1540cd4c-223a-4488-86a8-8980aefccf04","system_id":"levelo_inurba_marseille","lat":43.31325,"lon":5.39691,"is_reserved":false,"is_disabled":false,"rental_uris":{"android":"levelo://app?vid=1540cd4c-223a-4488-86a8-8980aefccf04","ios":"levelo://app?vid=1540cd4c-223a-4488-86a8-8980aefccf04"},"vehicle_type_id":"4","last_reported":1677049646,"current_range_meters":30000,"station_id":"","pricing_plan_id":"free"},{"bike_id":"b052aa27-7943-47f3-bc7d-df3d7d015386","system_id":"levelo_inurba_marseille","lat":43.31323,"lon":5.39692,"is_reserved":false,"is_disabled":false,"rental_uris":{"android":"levelo://app?vid=b052aa27-7943-47f3-bc7d-df3d7d015386","ios":"levelo://app?vid=b052aa27-7943-47f3-bc7d-df3d7d015386"},"vehicle_type_id":"4","last_reported":1677049646,"current_range_meters":15600,"station_id":"","pricing_plan_id":"free"},{"bike_id":"7921f092-353e-403e-9f01-605cd3a7f736","system_id":"levelo_inurba_marseille","lat":43.31325,"lon":5.39692,"is_reserved":false,"is_disabled":false,"rental_uris":{"android":"levelo://app?vid=7921f092-353e-403e-9f01-605cd3a7f736","ios":"levelo://app?vid=7921f092-353e-403e-9f01-605cd3a7f736"},"vehicle_type_id":"4","last_reported":1677049646,"current_range_meters":25600,"station_id":"ce4bgvp2rcd13ifvqcu0","pricing_plan_id":"free"},{"bike_id":"ec8ce9b7-7bac-4446-a93b-d911b13b5ab9","system_id":"levelo_inurba_marseille","lat":43.31326,"lon":5.39692,"is_reserved":false,"is_disabled":false,"rental_uris":{"android":"levelo://app?vid=ec8ce9b7-7bac-4446-a93b-d911b13b5ab9","ios":"levelo://app?vid=ec8ce9b7-7bac-4446-a93b-d911b13b5ab9"},"vehicle_type_id":"4","last_reported":1677049646,"current_range_meters":27200,"station_id":"ce4bgvp2rcd13ifvqcu0","pricing_plan_id":"free"},{"bike_id":"d05e7c88-a4cf-4932-b267-e7d08fb4c6d3","system_id":"levelo_inurba_marseille","lat":43.313291,"lon":5.396838,"is_reserved":false,"is_disabled":false,"rental_uris":{"android":"levelo://app?vid=d05e7c88-a4cf-4932-b267-e7d08fb4c6d3","ios":"levelo://app?vid=d05e7c88-a4cf-4932-b267-e7d08fb4c6d3"},"vehicle_type_id":"4","last_reported":1677049646,"current_range_meters":28000,"station_id":"ce4bgvp2rcd13ifvqcu0","pricing_plan_id":"free"},{"bike_id":"e610d252-6c11-4935-9ff3-ba3cf769d833","system_id":"levelo_inurba_marseille","lat":43.31329,"lon":5.39692,"is_reserved":false,"is_disabled":false,"rental_uris":{"android":"levelo://app?vid=e610d252-6c11-4935-9ff3-ba3cf769d833","ios":"levelo://app?vid=e610d252-6c11-4935-9ff3-ba3cf769d833"},"vehicle_type_id":"4","last_reported":1677049646,"current_range_meters":30000,"station_id":"","pricing_plan_id":"free"},{"bike_id":"1d0f08c2-cfdd-4455-b5dd-9a1570bf3649","system_id":"levelo_inurba_marseille","lat":43.31326,"lon":5.39693,"is_reserved":false,"is_disabled":false,"rental_uris":{"android":"levelo://app?vid=1d0f08c2-cfdd-4455-b5dd-9a1570bf3649","ios":"levelo://app?vid=1d0f08c2-cfdd-4455-b5dd-9a1570bf3649"},"vehicle_type_id":"4","last_reported":1677049646,"current_range_meters":30800,"station_id":"","pricing_plan_id":"free"},{"bike_id":"7124d977-e464-42fb-940a-e2067ce1c35f","system_id":"levelo_inurba_marseille","lat":43.31321,"lon":5.39694,"is_reserved":false,"is_disabled":false,"rental_uris":{"android":"levelo://app?vid=7124d977-e464-42fb-940a-e2067ce1c35f","ios":"levelo://app?vid=7124d977-e464-42fb-940a-e2067ce1c35f"},"vehicle_type_id":"4","last_reported":1677049646,"current_range_meters":31600,"station_id":"","pricing_plan_id":"free"},{"bike_id":"3adf8e8a-0038-4d36-9e03-99d99d13da7c","system_id":"levelo_inurba_marseille","lat":43.31327,"lon":5.39694,"is_reserved":false,"is_disabled":false,"rental_uris":{"android":"levelo://app?vid=3adf8e8a-0038-4d36-9e03-99d99d13da7c","ios":"levelo://app?vid=3adf8e8a-0038-4d36-9e03-99d99d13da7c"},"vehicle_type_id":"4","last_reported":1677049646,"current_range_meters":26800,"station_id":"ce4bgvp2rcd13ifvqcu0","pricing_plan_id":"free"},{"bike_id":"bdae90e9-65b6-4c74-afbc-7eff74cf9351","system_id":"levelo_inurba_marseille","lat":43.31329,"lon":5.39694,"is_reserved":false,"is_disabled":false,"rental_uris":{"android":"levelo://app?vid=bdae90e9-65b6-4c74-afbc-7eff74cf9351","ios":"levelo://app?vid=bdae90e9-65b6-4c74-afbc-7eff74cf9351"},"vehicle_type_id":"4","last_reported":1677049646,"current_range_meters":31600,"station_id":"","pricing_plan_id":"free"},{"bike_id":"2e7e5eef-e0f0-4bf8-867c-8d6bf377f15d","system_id":"levelo_inurba_marseille","lat":43.31329,"lon":5.39694,"is_reserved":false,"is_disabled":false,"rental_uris":{"android":"levelo://app?vid=2e7e5eef-e0f0-4bf8-867c-8d6bf377f15d","ios":"levelo://app?vid=2e7e5eef-e0f0-4bf8-867c-8d6bf377f15d"},"vehicle_type_id":"4","last_reported":1677049646,"current_range_meters":18000,"station_id":"","pricing_plan_id":"free"},{"bike_id":"65580627-6d76-4bce-b134-49d7ffd88af2","system_id":"levelo_inurba_marseille","lat":43.31329,"lon":5.39695,"is_reserved":false,"is_disabled":false,"rental_uris":{"android":"levelo://app?vid=65580627-6d76-4bce-b134-49d7ffd88af2","ios":"levelo://app?vid=65580627-6d76-4bce-b134-49d7ffd88af2"},"vehicle_type_id":"4","last_reported":1677049646,"current_range_meters":20400,"station_id":"ce4bgvp2rcd13ifvqcu0","pricing_plan_id":"free"},{"bike_id":"ccddc2c9-b2ad-4603-82a6-8be4212cd0ff","system_id":"levelo_inurba_marseille","lat":43.31321,"lon":5.39696,"is_reserved":false,"is_disabled":false,"rental_uris":{"android":"levelo://app?vid=ccddc2c9-b2ad-4603-82a6-8be4212cd0ff","ios":"levelo://app?vid=ccddc2c9-b2ad-4603-82a6-8be4212cd0ff"},"vehicle_type_id":"4","last_reported":1677049646,"current_range_meters":13200,"station_id":"","pricing_plan_id":"free"},{"bike_id":"473e1904-1e69-46fd-87c7-7f36e61661c1","system_id":"levelo_inurba_marseille","lat":43.313291,"lon":5.396838,"is_reserved":false,"is_disabled":false,"rental_uris":{"android":"levelo://app?vid=473e1904-1e69-46fd-87c7-7f36e61661c1","ios":"levelo://app?vid=473e1904-1e69-46fd-87c7-7f36e61661c1"},"vehicle_type_id":"4","last_reported":1677049646,"current_range_meters":27600,"station_id":"ce4bgvp2rcd13ifvqcu0","pricing_plan_id":"free"},{"bike_id":"75873a38-3382-4b75-bbd5-1067f9c7a609","system_id":"levelo_inurba_marseille","lat":43.29529,"lon":5.385581,"is_reserved":false,"is_disabled":false,"rental_uris":{"android":"levelo://app?vid=75873a38-3382-4b75-bbd5-1067f9c7a609","ios":"levelo://app?vid=75873a38-3382-4b75-bbd5-1067f9c7a609"},"vehicle_type_id":"4","last_reported":1677049646,"current_range_meters":0,"station_id":"ce4bgih2rcd13ifvqba0","pricing_plan_id":"free"},{"bike_id":"f7365bd6-397e-4791-b789-9c0d336c65e6","system_id":"levelo_inurba_marseille","lat":43.29529,"lon":5.385581,"is_reserved":false,"is_disabled":false,"rental_uris":{"android":"levelo://app?vid=f7365bd6-397e-4791-b789-9c0d336c65e6","ios":"levelo://app?vid=f7365bd6-397e-4791-b789-9c0d336c65e6"},"vehicle_type_id":"4","last_reported":1677049646,"current_range_meters":31600,"station_id":"ce4bgih2rcd13ifvqba0","pricing_plan_id":"free"},{"bike_id":"2cfaa544-dddc-44b9-b350-12da29d40b19","system_id":"levelo_inurba_marseille","lat":43.29529,"lon":5.385581,"is_reserved":false,"is_disabled":false,"rental_uris":{"android":"levelo://app?vid=2cfaa544-dddc-44b9-b350-12da29d40b19","ios":"levelo://app?vid=2cfaa544-dddc-44b9-b350-12da29d40b19"},"vehicle_type_id":"4","last_reported":1677049646,"current_range_meters":11200,"station_id":"ce4bgih2rcd13ifvqba0","pricing_plan_id":"free"},{"bike_id":"5670bf8e-92fc-4d56-b393-a4ba4a436abe","system_id":"levelo_inurba_marseille","lat":43.29529,"lon":5.385581,"is_reserved":false,"is_disabled":false,"rental_uris":{"android":"levelo://app?vid=5670bf8e-92fc-4d56-b393-a4ba4a436abe","ios":"levelo://app?vid=5670bf8e-92fc-4d56-b393-a4ba4a436abe"},"vehicle_type_id":"4","last_reported":1677049646,"current_range_meters":30800,"station_id":"ce4bgih2rcd13ifvqba0","pricing_plan_id":"free"},{"bike_id":"02a0cc9c-4a03-4c07-8d11-ffa93ffdf753","system_id":"levelo_inurba_marseille","lat":43.29529,"lon":5.385581,"is_reserved":false,"is_disabled":false,"rental_uris":{"android":"levelo://app?vid=02a0cc9c-4a03-4c07-8d11-ffa93ffdf753","ios":"levelo://app?vid=02a0cc9c-4a03-4c07-8d11-ffa93ffdf753"},"vehicle_type_id":"4","last_reported":1677049646,"current_range_meters":1200,"station_id":"ce4bgih2rcd13ifvqba0","pricing_plan_id":"free"},{"bike_id":"98f51941-d3eb-471d-b129-85fc1eb785bc","system_id":"levelo_inurba_marseille","lat":43.295198,"lon":5.385398,"is_reserved":false,"is_disabled":false,"rental_uris":{"android":"levelo://app?vid=98f51941-d3eb-471d-b129-85fc1eb785bc","ios":"levelo://app?vid=98f51941-d3eb-471d-b129-85fc1eb785bc"},"vehicle_type_id":"4","last_reported":1677049646,"current_range_meters":4400,"station_id":"ce4bgih2rcd13ifvqba0","pricing_plan_id":"free"},{"bike_id":"f67485f5-f42e-4e24-9917-914f885b3fdb","system_id":"levelo_inurba_marseille","lat":43.3225,"lon":5.394806,"is_reserved":false,"is_disabled":false,"rental_uris":{"android":"levelo://app?vid=f67485f5-f42e-4e24-9917-914f885b3fdb","ios":"levelo://app?vid=f67485f5-f42e-4e24-9917-914f885b3fdb"},"vehicle_type_id":"4","last_reported":1677049646,"current_range_meters":14000,"station_id":"","pricing_plan_id":"free"},{"bike_id":"49c1bdce-ae53-4183-b15a-65283f605817","system_id":"levelo_inurba_marseille","lat":43.302008,"lon":5.394694,"is_reserved":false,"is_disabled":false,"rental_uris":{"android":"levelo://app?vid=49c1bdce-ae53-4183-b15a-65283f605817","ios":"levelo://app?vid=49c1bdce-ae53-4183-b15a-65283f605817"},"vehicle_type_id":"4","last_reported":1677049646,"current_range_meters":31600,"station_id":"ce4bh0p2rcd13ifvqd70","pricing_plan_id":"free"},{"bike_id":"032c86af-de45-44db-9622-988efbf1801f","system_id":"levelo_inurba_marseille","lat":43.302008,"lon":5.394694,"is_reserved":false,"is_disabled":false,"rental_uris":{"android":"levelo://app?vid=032c86af-de45-44db-9622-988efbf1801f","ios":"levelo://app?vid=032c86af-de45-44db-9622-988efbf1801f"},"vehicle_type_id":"4","last_reported":1677049646,"current_range_meters":31600,"station_id":"ce4bh0p2rcd13ifvqd70","pricing_plan_id":"free"},{"bike_id":"11ca8ea1-6a09-4712-b7fe-7d4dd422594d","system_id":"levelo_inurba_marseille","lat":43.302008,"lon":5.394694,"is_reserved":false,"is_disabled":false,"rental_uris":{"android":"levelo://app?vid=11ca8ea1-6a09-4712-b7fe-7d4dd422594d","ios":"levelo://app?vid=11ca8ea1-6a09-4712-b7fe-7d4dd422594d"},"vehicle_type_id":"4","last_reported":1677049646,"current_range_meters":31600,"station_id":"ce4bh0p2rcd13ifvqd70","pricing_plan_id":"free"},{"bike_id":"d6170e59-49b1-4c25-ba5e-d97a62c4f0f7","system_id":"levelo_inurba_marseille","lat":43.302008,"lon":5.394694,"is_reserved":false,"is_disabled":false,"rental_uris":{"android":"levelo://app?vid=d6170e59-49b1-4c25-ba5e-d97a62c4f0f7","ios":"levelo://app?vid=d6170e59-49b1-4c25-ba5e-d97a62c4f0f7"},"vehicle_type_id":"4","last_reported":1677049646,"current_range_meters":31600,"station_id":"ce4bh0p2rcd13ifvqd70","pricing_plan_id":"free"},{"bike_id":"bd1a5b1b-2f91-4d44-95f1-247fbb8c835e","system_id":"levelo_inurba_marseille","lat":43.302008,"lon":5.394694,"is_reserved":false,"is_disabled":false,"rental_uris":{"android":"levelo://app?vid=bd1a5b1b-2f91-4d44-95f1-247fbb8c835e","ios":"levelo://app?vid=bd1a5b1b-2f91-4d44-95f1-247fbb8c835e"},"vehicle_type_id":"4","last_reported":1677049646,"current_range_meters":30400,"station_id":"ce4bh0p2rcd13ifvqd70","pricing_plan_id":"free"},{"bike_id":"0d67ce51-ba60-45da-b485-ed5144c7dfb7","system_id":"levelo_inurba_marseille","lat":43.302008,"lon":5.394694,"is_reserved":false,"is_disabled":false,"rental_uris":{"android":"levelo://app?vid=0d67ce51-ba60-45da-b485-ed5144c7dfb7","ios":"levelo://app?vid=0d67ce51-ba60-45da-b485-ed5144c7dfb7"},"vehicle_type_id":"4","last_reported":1677049646,"current_range_meters":30000,"station_id":"ce4bh0p2rcd13ifvqd70","pricing_plan_id":"free"},{"bike_id":"d8903bbd-0077-4f17-ad7a-c3027a664d94","system_id":"levelo_inurba_marseille","lat":43.302008,"lon":5.394694,"is_reserved":false,"is_disabled":false,"rental_uris":{"android":"levelo://app?vid=d8903bbd-0077-4f17-ad7a-c3027a664d94","ios":"levelo://app?vid=d8903bbd-0077-4f17-ad7a-c3027a664d94"},"vehicle_type_id":"4","last_reported":1677049646,"current_range_meters":31600,"station_id":"ce4bh0p2rcd13ifvqd70","pricing_plan_id":"free"},{"bike_id":"b2a7cfe7-b934-40f9-9ae3-41ce0f6907b8","system_id":"levelo_inurba_marseille","lat":43.302008,"lon":5.394694,"is_reserved":false,"is_disabled":false,"rental_uris":{"android":"levelo://app?vid=b2a7cfe7-b934-40f9-9ae3-41ce0f6907b8","ios":"levelo://app?vid=b2a7cfe7-b934-40f9-9ae3-41ce0f6907b8"},"vehicle_type_id":"4","last_reported":1677049646,"current_range_meters":31600,"station_id":"ce4bh0p2rcd13ifvqd70","pricing_plan_id":"free"},{"bike_id":"a6220dc0-1298-4d3b-bd8e-c4ce1038ceba","system_id":"levelo_inurba_marseille","lat":43.302008,"lon":5.394694,"is_reserved":false,"is_disabled":false,"rental_uris":{"android":"levelo://app?vid=a6220dc0-1298-4d3b-bd8e-c4ce1038ceba","ios":"levelo://app?vid=a6220dc0-1298-4d3b-bd8e-c4ce1038ceba"},"vehicle_type_id":"4","last_reported":1677049646,"current_range_meters":18400,"station_id":"ce4bh0p2rcd13ifvqd70","pricing_plan_id":"free"},{"bike_id":"2674664c-9e28-4f12-b094-18ac06c2a33b","system_id":"levelo_inurba_marseille","lat":43.302008,"lon":5.394694,"is_reserved":false,"is_disabled":false,"rental_uris":{"android":"levelo://app?vid=2674664c-9e28-4f12-b094-18ac06c2a33b","ios":"levelo://app?vid=2674664c-9e28-4f12-b094-18ac06c2a33b"},"vehicle_type_id":"4","last_reported":1677049646,"current_range_meters":9200,"station_id":"ce4bh0p2rcd13ifvqd70","pricing_plan_id":"free"},{"bike_id":"f54ed867-55d4-49f1-8677-9cc32553a206","system_id":"levelo_inurba_marseille","lat":43.302008,"lon":5.394694,"is_reserved":false,"is_disabled":false,"rental_uris":{"android":"levelo://app?vid=f54ed867-55d4-49f1-8677-9cc32553a206","ios":"levelo://app?vid=f54ed867-55d4-49f1-8677-9cc32553a206"},"vehicle_type_id":"4","last_reported":1677049646,"current_range_meters":31200,"station_id":"ce4bh0p2rcd13ifvqd70","pricing_plan_id":"free"},{"bike_id":"854f3e20-e840-490b-9da7-fd56363ed109","system_id":"levelo_inurba_marseille","lat":43.302008,"lon":5.394694,"is_reserved":false,"is_disabled":false,"rental_uris":{"android":"levelo://app?vid=854f3e20-e840-490b-9da7-fd56363ed109","ios":"levelo://app?vid=854f3e20-e840-490b-9da7-fd56363ed109"},"vehicle_type_id":"4","last_reported":1677049646,"current_range_meters":31600,"station_id":"ce4bh0p2rcd13ifvqd70","pricing_plan_id":"free"},{"bike_id":"fb59753c-414d-4f7e-94b8-a8de5eea16b3","system_id":"levelo_inurba_marseille","lat":43.302008,"lon":5.394694,"is_reserved":false,"is_disabled":false,"rental_uris":{"android":"levelo://app?vid=fb59753c-414d-4f7e-94b8-a8de5eea16b3","ios":"levelo://app?vid=fb59753c-414d-4f7e-94b8-a8de5eea16b3"},"vehicle_type_id":"4","last_reported":1677049646,"current_range_meters":24400,"station_id":"ce4bh0p2rcd13ifvqd70","pricing_plan_id":"free"},{"bike_id":"c6dcc9ae-15f8-4402-b575-81104123584e","system_id":"levelo_inurba_marseille","lat":43.302008,"lon":5.394694,"is_reserved":false,"is_disabled":false,"rental_uris":{"android":"levelo://app?vid=c6dcc9ae-15f8-4402-b575-81104123584e","ios":"levelo://app?vid=c6dcc9ae-15f8-4402-b575-81104123584e"},"vehicle_type_id":"4","last_reported":1677049646,"current_range_meters":21600,"station_id":"ce4bh0p2rcd13ifvqd70","pricing_plan_id":"free"},{"bike_id":"3eae39c1-aa5e-4205-8d94-856c06d60120","system_id":"levelo_inurba_marseille","lat":43.290624,"lon":5.359245,"is_reserved":false,"is_disabled":false,"rental_uris":{"android":"levelo://app?vid=3eae39c1-aa5e-4205-8d94-856c06d60120","ios":"levelo://app?vid=3eae39c1-aa5e-4205-8d94-856c06d60120"},"vehicle_type_id":"4","last_reported":1677049646,"current_range_meters":16000,"station_id":"ce4bha92rcd13ifvqeg0","pricing_plan_id":"free"},{"bike_id":"57eb44b0-d5a4-4624-834d-ad9e57f805b9","system_id":"levelo_inurba_marseille","lat":43.29048,"lon":5.359087,"is_reserved":false,"is_disabled":false,"rental_uris":{"android":"levelo://app?vid=57eb44b0-d5a4-4624-834d-ad9e57f805b9","ios":"levelo://app?vid=57eb44b0-d5a4-4624-834d-ad9e57f805b9"},"vehicle_type_id":"4","last_reported":1677049646,"current_range_meters":20800,"station_id":"","pricing_plan_id":"free"},{"bike_id":"d316bf91-6b81-441a-abf4-0d5354e5489a","system_id":"levelo_inurba_marseille","lat":43.290396,"lon":5.359119,"is_reserved":false,"is_disabled":false,"rental_uris":{"android":"levelo://app?vid=d316bf91-6b81-441a-abf4-0d5354e5489a","ios":"levelo://app?vid=d316bf91-6b81-441a-abf4-0d5354e5489a"},"vehicle_type_id":"4","last_reported":1677049646,"current_range_meters":12800,"station_id":"","pricing_plan_id":"free"},{"bike_id":"f4e47922-4f30-484f-9c64-583e6f129696","system_id":"levelo_inurba_marseille","lat":43.290332,"lon":5.375136,"is_reserved":false,"is_disabled":false,"rental_uris":{"android":"levelo://app?vid=f4e47922-4f30-484f-9c64-583e6f129696","ios":"levelo://app?vid=f4e47922-4f30-484f-9c64-583e6f129696"},"vehicle_type_id":"4","last_reported":1677049646,"current_range_meters":0,"station_id":"ce4bh692rcd13ifvqe90","pricing_plan_id":"free"},{"bike_id":"32022d8f-a8f4-49d3-8345-346d955b8d14","system_id":"levelo_inurba_marseille","lat":43.290332,"lon":5.375136,"is_reserved":false,"is_disabled":false,"rental_uris":{"android":"levelo://app?vid=32022d8f-a8f4-49d3-8345-346d955b8d14","ios":"levelo://app?vid=32022d8f-a8f4-49d3-8345-346d955b8d14"},"vehicle_type_id":"4","last_reported":1677049646,"current_range_meters":20400,"station_id":"ce4bh692rcd13ifvqe90","pricing_plan_id":"free"},{"bike_id":"9a204431-35c4-4052-a6e6-d0e61b6ceccd","system_id":"levelo_inurba_marseille","lat":43.289184,"lon":5.366408,"is_reserved":false,"is_disabled":false,"rental_uris":{"android":"levelo://app?vid=9a204431-35c4-4052-a6e6-d0e61b6ceccd","ios":"levelo://app?vid=9a204431-35c4-4052-a6e6-d0e61b6ceccd"},"vehicle_type_id":"4","last_reported":1677049646,"current_range_meters":31600,"station_id":"ce4bhap2rcd13ifvqek0","pricing_plan_id":"free"},{"bike_id":"bdca0d97-4cfb-4c42-aae5-7bf1c404a257","system_id":"levelo_inurba_marseille","lat":43.289405,"lon":5.36631,"is_reserved":false,"is_disabled":false,"rental_uris":{"android":"levelo://app?vid=bdca0d97-4cfb-4c42-aae5-7bf1c404a257","ios":"levelo://app?vid=bdca0d97-4cfb-4c42-aae5-7bf1c404a257"},"vehicle_type_id":"4","last_reported":1677049646,"current_range_meters":2000,"station_id":"","pricing_plan_id":"free"},{"bike_id":"23ac943d-8b87-4644-b712-1eb0389a7fc4","system_id":"levelo_inurba_marseille","lat":43.289184,"lon":5.366408,"is_reserved":false,"is_disabled":false,"rental_uris":{"android":"levelo://app?vid=23ac943d-8b87-4644-b712-1eb0389a7fc4","ios":"levelo://app?vid=23ac943d-8b87-4644-b712-1eb0389a7fc4"},"vehicle_type_id":"4","last_reported":1677049646,"current_range_meters":18400,"station_id":"ce4bhap2rcd13ifvqek0","pricing_plan_id":"free"},{"bike_id":"f320f33b-dbaf-4d92-94db-1175b41d2818","system_id":"levelo_inurba_marseille","lat":43.289184,"lon":5.366408,"is_reserved":false,"is_disabled":false,"rental_uris":{"android":"levelo://app?vid=f320f33b-dbaf-4d92-94db-1175b41d2818","ios":"levelo://app?vid=f320f33b-dbaf-4d92-94db-1175b41d2818"},"vehicle_type_id":"4","last_reported":1677049646,"current_range_meters":31600,"station_id":"ce4bhap2rcd13ifvqek0","pricing_plan_id":"free"},{"bike_id":"5d1e4629-af71-4c3f-aa78-cdcf5947cd9d","system_id":"levelo_inurba_marseille","lat":43.289184,"lon":5.366408,"is_reserved":false,"is_disabled":false,"rental_uris":{"android":"levelo://app?vid=5d1e4629-af71-4c3f-aa78-cdcf5947cd9d","ios":"levelo://app?vid=5d1e4629-af71-4c3f-aa78-cdcf5947cd9d"},"vehicle_type_id":"4","last_reported":1677049646,"current_range_meters":31600,"station_id":"ce4bhap2rcd13ifvqek0","pricing_plan_id":"free"},{"bike_id":"e1d6470d-3d30-4452-9d19-32bcd4b56732","system_id":"levelo_inurba_marseille","lat":43.289184,"lon":5.366408,"is_reserved":false,"is_disabled":false,"rental_uris":{"android":"levelo://app?vid=e1d6470d-3d30-4452-9d19-32bcd4b56732","ios":"levelo://app?vid=e1d6470d-3d30-4452-9d19-32bcd4b56732"},"vehicle_type_id":"4","last_reported":1677049646,"current_range_meters":31600,"station_id":"ce4bhap2rcd13ifvqek0","pricing_plan_id":"free"},{"bike_id":"f879db68-d695-44fd-9566-8cfbce033224","system_id":"levelo_inurba_marseille","lat":43.289184,"lon":5.366408,"is_reserved":false,"is_disabled":false,"rental_uris":{"android":"levelo://app?vid=f879db68-d695-44fd-9566-8cfbce033224","ios":"levelo://app?vid=f879db68-d695-44fd-9566-8cfbce033224"},"vehicle_type_id":"4","last_reported":1677049646,"current_range_meters":12000,"station_id":"ce4bhap2rcd13ifvqek0","pricing_plan_id":"free"},{"bike_id":"5880ae85-0a5a-4ca1-9280-83b524596af5","system_id":"levelo_inurba_marseille","lat":43.289184,"lon":5.366408,"is_reserved":false,"is_disabled":false,"rental_uris":{"android":"levelo://app?vid=5880ae85-0a5a-4ca1-9280-83b524596af5","ios":"levelo://app?vid=5880ae85-0a5a-4ca1-9280-83b524596af5"},"vehicle_type_id":"4","last_reported":1677049646,"current_range_meters":30400,"station_id":"ce4bhap2rcd13ifvqek0","pricing_plan_id":"free"},{"bike_id":"f232f5bf-a0a4-4213-9fa2-8e4f924c556f","system_id":"levelo_inurba_marseille","lat":43.289184,"lon":5.366408,"is_reserved":false,"is_disabled":false,"rental_uris":{"android":"levelo://app?vid=f232f5bf-a0a4-4213-9fa2-8e4f924c556f","ios":"levelo://app?vid=f232f5bf-a0a4-4213-9fa2-8e4f924c556f"},"vehicle_type_id":"4","last_reported":1677049646,"current_range_meters":31600,"station_id":"ce4bhap2rcd13ifvqek0","pricing_plan_id":"free"},{"bike_id":"ec8b862b-e7bf-4caf-9fa7-44641675ce5c","system_id":"levelo_inurba_marseille","lat":43.289184,"lon":5.366408,"is_reserved":false,"is_disabled":false,"rental_uris":{"android":"levelo://app?vid=ec8b862b-e7bf-4caf-9fa7-44641675ce5c","ios":"levelo://app?vid=ec8b862b-e7bf-4caf-9fa7-44641675ce5c"},"vehicle_type_id":"4","last_reported":1677049646,"current_range_meters":31600,"station_id":"ce4bhap2rcd13ifvqek0","pricing_plan_id":"free"},{"bike_id":"c3a5422f-740f-411b-8534-f28bdf36f7be","system_id":"levelo_inurba_marseille","lat":43.289184,"lon":5.366408,"is_reserved":false,"is_disabled":false,"rental_uris":{"android":"levelo://app?vid=c3a5422f-740f-411b-8534-f28bdf36f7be","ios":"levelo://app?vid=c3a5422f-740f-411b-8534-f28bdf36f7be"},"vehicle_type_id":"4","last_reported":1677049646,"current_range_meters":27600,"station_id":"ce4bhap2rcd13ifvqek0","pricing_plan_id":"free"},{"bike_id":"3bfb5a33-de19-4ed8-bca0-5ad4d43d8003","system_id":"levelo_inurba_marseille","lat":43.289184,"lon":5.366408,"is_reserved":false,"is_disabled":false,"rental_uris":{"android":"levelo://app?vid=3bfb5a33-de19-4ed8-bca0-5ad4d43d8003","ios":"levelo://app?vid=3bfb5a33-de19-4ed8-bca0-5ad4d43d8003"},"vehicle_type_id":"4","last_reported":1677049646,"current_range_meters":31200,"station_id":"ce4bhap2rcd13ifvqek0","pricing_plan_id":"free"},{"bike_id":"d76590c1-a1ff-4668-95ab-1dd2766063cc","system_id":"levelo_inurba_marseille","lat":43.289468,"lon":5.363719,"is_reserved":false,"is_disabled":false,"rental_uris":{"android":"levelo://app?vid=d76590c1-a1ff-4668-95ab-1dd2766063cc","ios":"levelo://app?vid=d76590c1-a1ff-4668-95ab-1dd2766063cc"},"vehicle_type_id":"4","last_reported":1677049646,"current_range_meters":31600,"station_id":"ce4bhc92rcd13ifvqetg","pricing_plan_id":"free"},{"bike_id":"a8cc8d83-39b2-4d64-9e37-d107be8dd71b","system_id":"levelo_inurba_marseille","lat":43.2893,"lon":5.3663,"is_reserved":false,"is_disabled":false,"rental_uris":{"android":"levelo://app?vid=a8cc8d83-39b2-4d64-9e37-d107be8dd71b","ios":"levelo://app?vid=a8cc8d83-39b2-4d64-9e37-d107be8dd71b"},"vehicle_type_id":"4","last_reported":1677049646,"current_range_meters":15200,"station_id":"ce4bhap2rcd13ifvqek0","pricing_plan_id":"free"},{"bike_id":"fbe14462-8006-4678-b411-74fdbed5a0c3","system_id":"levelo_inurba_marseille","lat":43.289376,"lon":5.364004,"is_reserved":false,"is_disabled":false,"rental_uris":{"android":"levelo://app?vid=fbe14462-8006-4678-b411-74fdbed5a0c3","ios":"levelo://app?vid=fbe14462-8006-4678-b411-74fdbed5a0c3"},"vehicle_type_id":"4","last_reported":1677049646,"current_range_meters":14400,"station_id":"ce4bhc92rcd13ifvqetg","pricing_plan_id":"free"},{"bike_id":"ff193efb-88dc-43a1-b562-440e0253edd2","system_id":"levelo_inurba_marseille","lat":43.289468,"lon":5.363719,"is_reserved":false,"is_disabled":false,"rental_uris":{"android":"levelo://app?vid=ff193efb-88dc-43a1-b562-440e0253edd2","ios":"levelo://app?vid=ff193efb-88dc-43a1-b562-440e0253edd2"},"vehicle_type_id":"4","last_reported":1677049646,"current_range_meters":29600,"station_id":"ce4bhc92rcd13ifvqetg","pricing_plan_id":"free"},{"bike_id":"1b3c325f-0d43-4031-b7de-ef1d20e34dfb","system_id":"levelo_inurba_marseille","lat":43.289468,"lon":5.363719,"is_reserved":false,"is_disabled":false,"rental_uris":{"android":"levelo://app?vid=1b3c325f-0d43-4031-b7de-ef1d20e34dfb","ios":"levelo://app?vid=1b3c325f-0d43-4031-b7de-ef1d20e34dfb"},"vehicle_type_id":"4","last_reported":1677049646,"current_range_meters":30000,"station_id":"ce4bhc92rcd13ifvqetg","pricing_plan_id":"free"},{"bike_id":"248ab4de-4272-4960-bbf5-47a51d8fc780","system_id":"levelo_inurba_marseille","lat":43.289468,"lon":5.363719,"is_reserved":false,"is_disabled":false,"rental_uris":{"android":"levelo://app?vid=248ab4de-4272-4960-bbf5-47a51d8fc780","ios":"levelo://app?vid=248ab4de-4272-4960-bbf5-47a51d8fc780"},"vehicle_type_id":"4","last_reported":1677049646,"current_range_meters":24000,"station_id":"ce4bhc92rcd13ifvqetg","pricing_plan_id":"free"},{"bike_id":"419483ad-eb4b-48e5-841b-d92f67235fb4","system_id":"levelo_inurba_marseille","lat":43.292643,"lon":5.384487,"is_reserved":false,"is_disabled":false,"rental_uris":{"android":"levelo://app?vid=419483ad-eb4b-48e5-841b-d92f67235fb4","ios":"levelo://app?vid=419483ad-eb4b-48e5-841b-d92f67235fb4"},"vehicle_type_id":"4","last_reported":1677049646,"current_range_meters":27600,"station_id":"ce4bh692rcd13ifvqea0","pricing_plan_id":"free"},{"bike_id":"a56a281b-e238-4110-8ef1-d8fbe8b20453","system_id":"levelo_inurba_marseille","lat":43.330442,"lon":5.389148,"is_reserved":false,"is_disabled":false,"rental_uris":{"android":"levelo://app?vid=a56a281b-e238-4110-8ef1-d8fbe8b20453","ios":"levelo://app?vid=a56a281b-e238-4110-8ef1-d8fbe8b20453"},"vehicle_type_id":"4","last_reported":1677049646,"current_range_meters":4800,"station_id":"ce4bhr92rcd13ifvqhrg","pricing_plan_id":"free"},{"bike_id":"8976d564-88b6-44b0-8894-679ade9c1b18","system_id":"levelo_inurba_marseille","lat":43.3304,"lon":5.38916,"is_reserved":false,"is_disabled":false,"rental_uris":{"android":"levelo://app?vid=8976d564-88b6-44b0-8894-679ade9c1b18","ios":"levelo://app?vid=8976d564-88b6-44b0-8894-679ade9c1b18"},"vehicle_type_id":"4","last_reported":1677049646,"current_range_meters":20000,"station_id":"","pricing_plan_id":"free"},{"bike_id":"65442a22-bb11-47c8-bb9f-5f72d78e5546","system_id":"levelo_inurba_marseille","lat":43.330442,"lon":5.389148,"is_reserved":false,"is_disabled":false,"rental_uris":{"android":"levelo://app?vid=65442a22-bb11-47c8-bb9f-5f72d78e5546","ios":"levelo://app?vid=65442a22-bb11-47c8-bb9f-5f72d78e5546"},"vehicle_type_id":"4","last_reported":1677049646,"current_range_meters":25200,"station_id":"ce4bhr92rcd13ifvqhrg","pricing_plan_id":"free"},{"bike_id":"1f602585-a93f-442e-9f5c-d694b0b14d0c","system_id":"levelo_inurba_marseille","lat":43.33042,"lon":5.38915,"is_reserved":false,"is_disabled":false,"rental_uris":{"android":"levelo://app?vid=1f602585-a93f-442e-9f5c-d694b0b14d0c","ios":"levelo://app?vid=1f602585-a93f-442e-9f5c-d694b0b14d0c"},"vehicle_type_id":"4","last_reported":1677049646,"current_range_meters":24400,"station_id":"ce4bhr92rcd13ifvqhrg","pricing_plan_id":"free"},{"bike_id":"fbc686b7-c9a0-42ce-b5be-bf59c21b0fca","system_id":"levelo_inurba_marseille","lat":43.33042,"lon":5.38915,"is_reserved":false,"is_disabled":false,"rental_uris":{"android":"levelo://app?vid=fbc686b7-c9a0-42ce-b5be-bf59c21b0fca","ios":"levelo://app?vid=fbc686b7-c9a0-42ce-b5be-bf59c21b0fca"},"vehicle_type_id":"4","last_reported":1677049646,"current_range_meters":18400,"station_id":"ce4bhr92rcd13ifvqhrg","pricing_plan_id":"free"},{"bike_id":"4ff4b905-6214-4d55-8490-50f1aa552805","system_id":"levelo_inurba_marseille","lat":43.33041,"lon":5.38917,"is_reserved":false,"is_disabled":false,"rental_uris":{"android":"levelo://app?vid=4ff4b905-6214-4d55-8490-50f1aa552805","ios":"levelo://app?vid=4ff4b905-6214-4d55-8490-50f1aa552805"},"vehicle_type_id":"4","last_reported":1677049646,"current_range_meters":23600,"station_id":"ce4bhr92rcd13ifvqhrg","pricing_plan_id":"free"},{"bike_id":"4233ddf7-f7c0-44df-ad78-5b391cc7adbb","system_id":"levelo_inurba_marseille","lat":43.330442,"lon":5.389148,"is_reserved":false,"is_disabled":false,"rental_uris":{"android":"levelo://app?vid=4233ddf7-f7c0-44df-ad78-5b391cc7adbb","ios":"levelo://app?vid=4233ddf7-f7c0-44df-ad78-5b391cc7adbb"},"vehicle_type_id":"4","last_reported":1677049646,"current_range_meters":20000,"station_id":"ce4bhr92rcd13ifvqhrg","pricing_plan_id":"free"},{"bike_id":"be595316-bd55-4a7e-a827-8641323e82fc","system_id":"levelo_inurba_marseille","lat":43.33043,"lon":5.38914,"is_reserved":false,"is_disabled":false,"rental_uris":{"android":"levelo://app?vid=be595316-bd55-4a7e-a827-8641323e82fc","ios":"levelo://app?vid=be595316-bd55-4a7e-a827-8641323e82fc"},"vehicle_type_id":"4","last_reported":1677049646,"current_range_meters":15600,"station_id":"ce4bhr92rcd13ifvqhrg","pricing_plan_id":"free"},{"bike_id":"eb376ea6-d84a-4137-b610-5e03150ed6fa","system_id":"levelo_inurba_marseille","lat":43.33046,"lon":5.389099,"is_reserved":false,"is_disabled":false,"rental_uris":{"android":"levelo://app?vid=eb376ea6-d84a-4137-b610-5e03150ed6fa","ios":"levelo://app?vid=eb376ea6-d84a-4137-b610-5e03150ed6fa"},"vehicle_type_id":"4","last_reported":1677049646,"current_range_meters":18000,"station_id":"ce4bhr92rcd13ifvqhrg","pricing_plan_id":"free"},{"bike_id":"38c88d95-4c08-4b63-8823-a11b79742273","system_id":"levelo_inurba_marseille","lat":43.330442,"lon":5.389148,"is_reserved":false,"is_disabled":false,"rental_uris":{"android":"levelo://app?vid=38c88d95-4c08-4b63-8823-a11b79742273","ios":"levelo://app?vid=38c88d95-4c08-4b63-8823-a11b79742273"},"vehicle_type_id":"4","last_reported":1677049646,"current_range_meters":28000,"station_id":"ce4bhr92rcd13ifvqhrg","pricing_plan_id":"free"},{"bike_id":"9b9ebb7f-6f87-4e74-b9c7-27631756ced7","system_id":"levelo_inurba_marseille","lat":43.33044,"lon":5.38914,"is_reserved":false,"is_disabled":false,"rental_uris":{"android":"levelo://app?vid=9b9ebb7f-6f87-4e74-b9c7-27631756ced7","ios":"levelo://app?vid=9b9ebb7f-6f87-4e74-b9c7-27631756ced7"},"vehicle_type_id":"4","last_reported":1677049646,"current_range_meters":18800,"station_id":"ce4bhr92rcd13ifvqhrg","pricing_plan_id":"free"},{"bike_id":"3254ca33-aae3-4918-b9b5-3aaeddcfa97f","system_id":"levelo_inurba_marseille","lat":43.33043,"lon":5.38916,"is_reserved":false,"is_disabled":false,"rental_uris":{"android":"levelo://app?vid=3254ca33-aae3-4918-b9b5-3aaeddcfa97f","ios":"levelo://app?vid=3254ca33-aae3-4918-b9b5-3aaeddcfa97f"},"vehicle_type_id":"4","last_reported":1677049646,"current_range_meters":20400,"station_id":"ce4bhr92rcd13ifvqhrg","pricing_plan_id":"free"},{"bike_id":"ddd2f434-0afe-484b-92c0-2f87cedd9da7","system_id":"levelo_inurba_marseille","lat":43.330442,"lon":5.389148,"is_reserved":false,"is_disabled":false,"rental_uris":{"android":"levelo://app?vid=ddd2f434-0afe-484b-92c0-2f87cedd9da7","ios":"levelo://app?vid=ddd2f434-0afe-484b-92c0-2f87cedd9da7"},"vehicle_type_id":"4","last_reported":1677049646,"current_range_meters":29600,"station_id":"ce4bhr92rcd13ifvqhrg","pricing_plan_id":"free"},{"bike_id":"ced15387-c628-4f04-a115-7459c77531f3","system_id":"levelo_inurba_marseille","lat":43.33044,"lon":5.38916,"is_reserved":false,"is_disabled":false,"rental_uris":{"android":"levelo://app?vid=ced15387-c628-4f04-a115-7459c77531f3","ios":"levelo://app?vid=ced15387-c628-4f04-a115-7459c77531f3"},"vehicle_type_id":"4","last_reported":1677049646,"current_range_meters":27600,"station_id":"ce4bhr92rcd13ifvqhrg","pricing_plan_id":"free"},{"bike_id":"2617cc59-6db4-4be0-a4c1-0cd1168aec94","system_id":"levelo_inurba_marseille","lat":43.330442,"lon":5.389148,"is_reserved":false,"is_disabled":false,"rental_uris":{"android":"levelo://app?vid=2617cc59-6db4-4be0-a4c1-0cd1168aec94","ios":"levelo://app?vid=2617cc59-6db4-4be0-a4c1-0cd1168aec94"},"vehicle_type_id":"4","last_reported":1677049646,"current_range_meters":30400,"station_id":"ce4bhr92rcd13ifvqhrg","pricing_plan_id":"free"},{"bike_id":"2f57434c-886c-4573-9d55-ec6b247af0ae","system_id":"levelo_inurba_marseille","lat":43.330442,"lon":5.389148,"is_reserved":false,"is_disabled":false,"rental_uris":{"android":"levelo://app?vid=2f57434c-886c-4573-9d55-ec6b247af0ae","ios":"levelo://app?vid=2f57434c-886c-4573-9d55-ec6b247af0ae"},"vehicle_type_id":"4","last_reported":1677049646,"current_range_meters":19600,"station_id":"ce4bhr92rcd13ifvqhrg","pricing_plan_id":"free"},{"bike_id":"a1b389e1-a312-4c2c-b6bd-063c978153c2","system_id":"levelo_inurba_marseille","lat":43.330442,"lon":5.389148,"is_reserved":false,"is_disabled":false,"rental_uris":{"android":"levelo://app?vid=a1b389e1-a312-4c2c-b6bd-063c978153c2","ios":"levelo://app?vid=a1b389e1-a312-4c2c-b6bd-063c978153c2"},"vehicle_type_id":"4","last_reported":1677049646,"current_range_meters":18000,"station_id":"ce4bhr92rcd13ifvqhrg","pricing_plan_id":"free"},{"bike_id":"e20b535b-3167-44d7-9176-3453c119bcd4","system_id":"levelo_inurba_marseille","lat":43.33044,"lon":5.38918,"is_reserved":false,"is_disabled":false,"rental_uris":{"android":"levelo://app?vid=e20b535b-3167-44d7-9176-3453c119bcd4","ios":"levelo://app?vid=e20b535b-3167-44d7-9176-3453c119bcd4"},"vehicle_type_id":"4","last_reported":1677049646,"current_range_meters":18000,"station_id":"","pricing_plan_id":"free"},{"bike_id":"617fdbff-7c00-47d5-a403-454d6a521411","system_id":"levelo_inurba_marseille","lat":43.330442,"lon":5.389148,"is_reserved":false,"is_disabled":false,"rental_uris":{"android":"levelo://app?vid=617fdbff-7c00-47d5-a403-454d6a521411","ios":"levelo://app?vid=617fdbff-7c00-47d5-a403-454d6a521411"},"vehicle_type_id":"4","last_reported":1677049646,"current_range_meters":24400,"station_id":"ce4bhr92rcd13ifvqhrg","pricing_plan_id":"free"},{"bike_id":"f92a914d-738a-45c2-b2a2-801bff1d71b6","system_id":"levelo_inurba_marseille","lat":43.29008,"lon":5.35607,"is_reserved":false,"is_disabled":false,"rental_uris":{"android":"levelo://app?vid=f92a914d-738a-45c2-b2a2-801bff1d71b6","ios":"levelo://app?vid=f92a914d-738a-45c2-b2a2-801bff1d71b6"},"vehicle_type_id":"4","last_reported":1677049646,"current_range_meters":20800,"station_id":"ce4bhb92rcd13ifvqen0","pricing_plan_id":"free"},{"bike_id":"4b5c614a-ae12-4ad4-b7c2-784cc95b37db","system_id":"levelo_inurba_marseille","lat":43.29006,"lon":5.35613,"is_reserved":false,"is_disabled":false,"rental_uris":{"android":"levelo://app?vid=4b5c614a-ae12-4ad4-b7c2-784cc95b37db","ios":"levelo://app?vid=4b5c614a-ae12-4ad4-b7c2-784cc95b37db"},"vehicle_type_id":"4","last_reported":1677049646,"current_range_meters":5600,"station_id":"ce4bhb92rcd13ifvqen0","pricing_plan_id":"free"},{"bike_id":"e5b56d11-91b9-4806-bc8e-991a030edc14","system_id":"levelo_inurba_marseille","lat":43.33046,"lon":5.3892,"is_reserved":false,"is_disabled":false,"rental_uris":{"android":"levelo://app?vid=e5b56d11-91b9-4806-bc8e-991a030edc14","ios":"levelo://app?vid=e5b56d11-91b9-4806-bc8e-991a030edc14"},"vehicle_type_id":"4","last_reported":1677049646,"current_range_meters":14000,"station_id":"ce4bhr92rcd13ifvqhrg","pricing_plan_id":"free"},{"bike_id":"e49e9722-f0ff-46b0-b48a-1ed9aed2d2f1","system_id":"levelo_inurba_marseille","lat":43.290104,"lon":5.356111,"is_reserved":false,"is_disabled":false,"rental_uris":{"android":"levelo://app?vid=e49e9722-f0ff-46b0-b48a-1ed9aed2d2f1","ios":"levelo://app?vid=e49e9722-f0ff-46b0-b48a-1ed9aed2d2f1"},"vehicle_type_id":"4","last_reported":1677049646,"current_range_meters":11200,"station_id":"ce4bhb92rcd13ifvqen0","pricing_plan_id":"free"},