{"last_updated":1699830377,"ttl":30,"version":"2.2","data":{"bikes":[{"bike_id":"1b555087-779f-498d-9b9f-76d96daad425","system_id":"levelo_inurba_marseille","lat":43.309076,"lon":5.368465,"is_reserved":false,"is_disabled":false,"rental_uris":{"android":"levelo://app?vid=1b555087-779f-498d-9b9f-76d96daad425","ios":"levelo://app?vid=1b555087-779f-498d-9b9f-76d96daad425"},"vehicle_type_id":"4","last_reported":1699830377,"current_range_meters":27200,"station_id":"ce4bgn92rcd13ifvqbvg","pricing_plan_id":"free"},{"bike_id":"3653c232-4624-4ad2-95cd-0d00459d443f","system_id":"levelo_inurba_marseille","lat":43.309039,"lon":5.371797,"is_reserved":false,"is_disabled":false,"rental_uris":{"android":"levelo://app?vid=3653c232-4624-4ad2-95cd-0d00459d443f","ios":"levelo://app?vid=3653c232-4624-4ad2-95cd-0d00459d443f"},"vehicle_type_id":"4","last_reported":1699830377,"current_range_meters":24800,"station_id":"ce4bguh2rcd13ifvqckg","pricing_plan_id":"free"},{"bike_id":"99e86685-13e6-4242-abb5-481ed0c1aed5","system_id":"levelo_inurba_marseille","lat":43.3089,"lon":5.371872,"is_reserved":false,"is_disabled":false,"rental_uris":{"android":"levelo://app?vid=99e86685-13e6-4242-abb5-481ed0c1aed5","ios":"levelo://app?vid=99e86685-13e6-4242-abb5-481ed0c1aed5"},"vehicle_type_id":"4","last_reported":1699830377,"current_range_meters":25200,"station_id":"ce4bguh2rcd13ifvqckg","pricing_plan_id":"free"},{"bike_id":"cc380a5a-2687-4d93-8e7f-6c6c2fd64296","system_id":"levelo_inurba_marseille","lat":43.309039,"lon":5.371797,"is_reserved":false,"is_disabled":false,"rental_uris":{"android":"levelo://app?vid=cc380a5a-2687-4d93-8e7f-6c6c2fd64296","ios":"levelo://app?vid=cc380a5a-2687-4d93-8e7f-6c6c2fd64296"},"vehicle_type_id":"4","last_reported":1699830377,"current_range_meters":28800,"station_id":"ce4bguh2rcd13ifvqckg","pricing_plan_id":"free"},{"bike_id":"76b359af-c20b-45d0-a1df-78f4c9a6553a","system_id":"levelo_inurba_marseille","lat":43.30538,"lon":5.36537,"is_reserved":false,"is_disabled":false,"rental_uris":{"android":"levelo://app?vid=76b359af-c20b-45d0-a1df-78f4c9a6553a","ios":"levelo://app?vid=76b359af-c20b-45d0-a1df-78f4c9a6553a"},"vehicle_type_id":"4","last_reported":1699830377,"current_range_meters":12800,"station_id":"ce4bgs12rcd13ifvqcag","pricing_plan_id":"free"},{"bike_id":"fa396845-a675-4aac-a950-13870462477a","system_id":"levelo_inurba_marseille","lat":43.305989,"lon":5.37225,"is_reserved":false,"is_disabled":false,"rental_uris":{"android":"levelo://app?vid=fa396845-a675-4aac-a950-13870462477a","ios":"levelo://app?vid=fa396845-a675-4aac-a950-13870462477a"},"vehicle_type_id":"4","last_reported":1699830377,"current_range_meters":28000,"station_id":"ce4bgqh2rcd13ifvqc4g","pricing_plan_id":"free"},{"bike_id":"b3a17d12-59b5-45b0-9e1b-d58316f26905","system_id":"levelo_inurba_marseille","lat":43.305989,"lon":5.37225,"is_reserved":false,"is_disabled":false,"rental_uris":{"android":"levelo://app?vid=b3a17d12-59b5-45b0-9e1b-d58316f26905","ios":"levelo://app?vid=b3a17d12-59b5-45b0-9e1b-d58316f26905"},"vehicle_type_id":"4","last_reported":1699830377,"current_range_meters":15200,"station_id":"ce4bgqh2rcd13ifvqc4g","pricing_plan_id":"free"},{"bike_id":"9a374f7b-7a75-4d22-b3ce-9c5e28ea66fd","system_id":"levelo_inurba_marseille","lat":43.311131,"lon":5.377651,"is_reserved":false,"is_disabled":false,"rental_uris":{"android":"levelo://app?vid=9a374f7b-7a75-4d22-b3ce-9c5e28ea66fd","ios":"levelo://app?vid=9a374f7b-7a75-4d22-b3ce-9c5e28ea66fd"},"vehicle_type_id":"4","last_reported":1699830377,"current_range_meters":28400,"station_id":"ce4bgt92rcd13ifvqcg0","pricing_plan_id":"free"},{"bike_id":"786935dc-de29-4830-81dc-3de65a5ddca7","system_id":"levelo_inurba_marseille","lat":43.31115,"lon":5.377677,"is_reserved":false,"is_disabled":false,"rental_uris":{"android":"levelo://app?vid=786935dc-de29-4830-81dc-3de65a5ddca7","ios":"levelo://app?vid=786935dc-de29-4830-81dc-3de65a5ddca7"},"vehicle_type_id":"4","last_reported":1699830377,"current_range_meters":0,"station_id":"ce4bgt92rcd13ifvqcg0","pricing_plan_id":"free"},{"bike_id":"d8fa75bc-d08a-4499-8d22-3afcf21c1c88","system_id":"levelo_inurba_marseille","lat":43.311131,"lon":5.377651,"is_reserved":false,"is_disabled":false,"rental_uris":{"android":"levelo://app?vid=d8fa75bc-d08a-4499-8d22-3afcf21c1c88","ios":"levelo://app?vid=d8fa75bc-d08a-4499-8d22-3afcf21c1c88"},"vehicle_type_id":"4","last_reported":1699830377,"current_range_meters":26800,"station_id":"ce4bgt92rcd13ifvqcg0","pricing_plan_id":"free"},{"bike_id":"dc4d17e7-95f2-4d89-b47b-8eafd85d4d27","system_id":"levelo_inurba_marseille","lat":43.307945,"lon":5.376487,"is_reserved":false,"is_disabled":false,"rental_uris":{"android":"levelo://app?vid=dc4d17e7-95f2-4d89-b47b-8eafd85d4d27","ios":"levelo://app?vid=dc4d17e7-95f2-4d89-b47b-8eafd85d4d27"},"vehicle_type_id":"4","last_reported":1699830377,"current_range_meters":26000,"station_id":"ce4bgv92rcd13ifvqcq0","pricing_plan_id":"free"},{"bike_id":"6469169e-b572-4d4c-93c7-5e09b70b6fd1","system_id":"levelo_inurba_marseille","lat":43.307945,"lon":5.376487,"is_reserved":false,"is_disabled":false,"rental_uris":{"android":"levelo://app?vid=6469169e-b572-4d4c-93c7-5e09b70b6fd1","ios":"levelo://app?vid=6469169e-b572-4d4c-93c7-5e09b70b6fd1"},"vehicle_type_id":"4","last_reported":1699830377,"current_range_meters":11200,"station_id":"ce4bgv92rcd13ifvqcq0","pricing_plan_id":"free"},{"bike_id":"06f6abf5-ed91-4f0b-946c-99c2297a4830","system_id":"levelo_inurba_marseille","lat":43.307945,"lon":5.376487,"is_reserved":false,"is_disabled":false,"rental_uris":{"android":"levelo://app?vid=06f6abf5-ed91-4f0b-946c-99c2297a4830","ios":"levelo://app?vid=06f6abf5-ed91-4f0b-946c-99c2297a4830"},"vehicle_type_id":"4","last_reported":1699830377,"current_range_meters":30000,"station_id":"ce4bgv92rcd13ifvqcq0","pricing_plan_id":"free"},{"bike_id":"57053367-5328-4d78-8951-737f56b37ed9","system_id":"levelo_inurba_marseille","lat":43.319924,"lon":5.373389,"is_reserved":false,"is_disabled":false,"rental_uris":{"android":"levelo://app?vid=57053367-5328-4d78-8951-737f56b37ed9","ios":"levelo://app?vid=57053367-5328-4d78-8951-737f56b37ed9"},"vehicle_type_id":"4","last_reported":1699830377,"current_range_meters":13200,"station_id":"","pricing_plan_id":"free"},{"bike_id":"a50aec8a-ea35-4c46-a0be-cf2f36e6bb69","system_id":"levelo_inurba_marseille","lat":43.317075,"lon":5.377367,"is_reserved":false,"is_disabled":false,"rental_uris":{"android":"levelo://app?vid=a50aec8a-ea35-4c46-a0be-cf2f36e6bb69","ios":"levelo://app?vid=a50aec8a-ea35-4c46-a0be-cf2f36e6bb69"},"vehicle_type_id":"4","last_reported":1699830377,"current_range_meters":14800,"station_id":"ce4bgth2rcd13ifvqch0","pricing_plan_id":"free"},{"bike_id":"d0d72da4-26d1-4ea8-896b-dc19941ff000","system_id":"levelo_inurba_marseille","lat":43.317075,"lon":5.377367,"is_reserved":false,"is_disabled":false,"rental_uris":{"android":"levelo://app?vid=d0d72da4-26d1-4ea8-896b-dc19941ff000","ios":"levelo://app?vid=d0d72da4-26d1-4ea8-896b-dc19941ff000"},"vehicle_type_id":"4","last_reported":1699830377,"current_range_meters":31200,"station_id":"ce4bgth2rcd13ifvqch0","pricing_plan_id":"free"},{"bike_id":"659c6dd4-520a-4910-a083-f93b1d256868","system_id":"levelo_inurba_marseille","lat":43.317075,"lon":5.377367,"is_reserved":false,"is_disabled":false,"rental_uris":{"android":"levelo://app?vid=659c6dd4-520a-4910-a083-f93b1d256868","ios":"levelo://app?vid=659c6dd4-520a-4910-a083-f93b1d256868"},"vehicle_type_id":"4","last_reported":1699830377,"current_range_meters":31200,"station_id":"ce4bgth2rcd13ifvqch0","pricing_plan_id":"free"},{"bike_id":"8cb9f1d2-7c56-4547-9e15-e351bd7b21ef","system_id":"levelo_inurba_marseille","lat":43.317075,"lon":5.377367,"is_reserved":false,"is_disabled":false,"rental_uris":{"android":"levelo://app?vid=8cb9f1d2-7c56-4547-9e15-e351bd7b21ef","ios":"levelo://app?vid=8cb9f1d2-7c56-4547-9e15-e351bd7b21ef"},"vehicle_type_id":"4","last_reported":1699830377,"current_range_meters":31200,"station_id":"ce4bgth2rcd13ifvqch0","pricing_plan_id":"free"},{"bike_id":"1e7f3651-93d8-4c55-ae0b-5fc1ddf4e39c","system_id":"levelo_inurba_marseille","lat":43.317075,"lon":5.377367,"is_reserved":false,"is_disabled":false,"rental_uris":{"android":"levelo://app?vid=1e7f3651-93d8-4c55-ae0b-5fc1ddf4e39c","ios":"levelo://app?vid=1e7f3651-93d8-4c55-ae0b-5fc1ddf4e39c"},"vehicle_type_id":"4","last_reported":1699830377,"current_range_meters":28800,"station_id":"ce4bgth2rcd13ifvqch0","pricing_plan_id":"free"},{"bike_id":"0fffc26d-ad28-4d18-8b7a-692662a0aded","system_id":"levelo_inurba_marseille","lat":43.315317,"lon":5.380354,"is_reserved":false,"is_disabled":false,"rental_uris":{"android":"levelo://app?vid=0fffc26d-ad28-4d18-8b7a-692662a0aded","ios":"levelo://app?vid=0fffc26d-ad28-4d18-8b7a-692662a0aded"},"vehicle_type_id":"4","last_reported":1699830377,"current_range_meters":4400,"station_id":"ce4bhsp2rcd13ifvqi50","pricing_plan_id":"free"},{"bike_id":"84aa4328-a152-475f-81f3-7bcd85c09671","system_id":"levelo_inurba_marseille","lat":43.31532,"lon":5.38036,"is_reserved":false,"is_disabled":false,"rental_uris":{"android":"levelo://app?vid=84aa4328-a152-475f-81f3-7bcd85c09671","ios":"levelo://app?vid=84aa4328-a152-475f-81f3-7bcd85c09671"},"vehicle_type_id":"4","last_reported":1699830377,"current_range_meters":18800,"station_id":"ce4bhsp2rcd13ifvqi50","pricing_plan_id":"free"},{"bike_id":"a26a672c-8f86-40f5-9e8e-9856cf399a24","system_id":"levelo_inurba_marseille","lat":43.30806,"lon":5.38156,"is_reserved":false,"is_disabled":false,"rental_uris":{"android":"levelo://app?vid=a26a672c-8f86-40f5-9e8e-9856cf399a24","ios":"levelo://app?vid=a26a672c-8f86-40f5-9e8e-9856cf399a24"},"vehicle_type_id":"4","last_reported":1699830377,"current_range_meters":20800,"station_id":"ce4bgt12rcd13ifvqce0","pricing_plan_id":"free"},{"bike_id":"c28eda5d-e9ff-410b-bb02-ea37d2f13ec2","system_id":"levelo_inurba_marseille","lat":43.308012,"lon":5.381511,"is_reserved":false,"is_disabled":false,"rental_uris":{"android":"levelo://app?vid=c28eda5d-e9ff-410b-bb02-ea37d2f13ec2","ios":"levelo://app?vid=c28eda5d-e9ff-410b-bb02-ea37d2f13ec2"},"vehicle_type_id":"4","last_reported":1699830377,"current_range_meters":17200,"station_id":"ce4bgt12rcd13ifvqce0","pricing_plan_id":"free"},{"bike_id":"3fb4984a-6013-4ebb-8773-c308071699ec","system_id":"levelo_inurba_marseille","lat":43.324749,"lon":5.365573,"is_reserved":false,"is_disabled":false,"rental_uris":{"android":"levelo://app?vid=3fb4984a-6013-4ebb-8773-c308071699ec","ios":"levelo://app?vid=3fb4984a-6013-4ebb-8773-c308071699ec"},"vehicle_type_id":"4","last_reported":1699830377,"current_range_meters":19600,"station_id":"ce4bhs12rcd13ifvqhvg","pricing_plan_id":"free"},{"bike_id":"3819deec-fe3d-41c7-8346-2b107cb07054","system_id":"levelo_inurba_marseille","lat":43.315237,"lon":5.383797,"is_reserved":false,"is_disabled":false,"rental_uris":{"android":"levelo://app?vid=3819deec-fe3d-41c7-8346-2b107cb07054","ios":"levelo://app?vid=3819deec-fe3d-41c7-8346-2b107cb07054"},"vehicle_type_id":"4","last_reported":1699830377,"current_range_meters":0,"station_id":"","pricing_plan_id":"free"},{"bike_id":"69166d53-ec8e-4a0a-864c-7a29f7650dd8","system_id":"levelo_inurba_marseille","lat":43.321109,"lon":5.380118,"is_reserved":false,"is_disabled":false,"rental_uris":{"android":"levelo://app?vid=69166d53-ec8e-4a0a-864c-7a29f7650dd8","ios":"levelo://app?vid=69166d53-ec8e-4a0a-864c-7a29f7650dd8"},"vehicle_type_id":"4","last_reported":1699830377,"current_range_meters":12400,"station_id":"","pricing_plan_id":"free"},{"bike_id":"3ebc842a-cb95-4cc1-b823-82514d1705d9","system_id":"levelo_inurba_marseille","lat":43.319919,"lon":5.381454,"is_reserved":false,"is_disabled":false,"rental_uris":{"android":"levelo://app?vid=3ebc842a-cb95-4cc1-b823-82514d1705d9","ios":"levelo://app?vid=3ebc842a-cb95-4cc1-b823-82514d1705d9"},"vehicle_type_id":"4","last_reported":1699830377,"current_range_meters":4800,"station_id":"ce4bhr12rcd13ifvqhpg","pricing_plan_id":"free"},{"bike_id":"cbc1afb7-f33e-480e-bd23-3a85578bc30d","system_id":"levelo_inurba_marseille","lat":43.3199,"lon":5.38156,"is_reserved":false,"is_disabled":false,"rental_uris":{"android":"levelo://app?vid=cbc1afb7-f33e-480e-bd23-3a85578bc30d","ios":"levelo://app?vid=cbc1afb7-f33e-480e-bd23-3a85578bc30d"},"vehicle_type_id":"4","last_reported":1699830377,"current_range_meters":16400,"station_id":"ce4bhr12rcd13ifvqhpg","pricing_plan_id":"free"},{"bike_id":"13d78257-2559-4a10-97b8-aaa7032179bc","system_id":"levelo_inurba_marseille","lat":43.319975,"lon":5.381519,"is_reserved":false,"is_disabled":false,"rental_uris":{"android":"levelo://app?vid=13d78257-2559-4a10-97b8-aaa7032179bc","ios":"levelo://app?vid=13d78257-2559-4a10-97b8-aaa7032179bc"},"vehicle_type_id":"4","last_reported":1699830377,"current_range_meters":0,"station_id":"","pricing_plan_id":"free"},{"bike_id":"a38ad7eb-f3a5-4222-9c1e-04f49ae1337a","system_id":"levelo_inurba_marseille","lat":43.31997,"lon":5.381549,"is_reserved":false,"is_disabled":false,"rental_uris":{"android":"levelo://app?vid=a38ad7eb-f3a5-4222-9c1e-04f49ae1337a","ios":"levelo://app?vid=a38ad7eb-f3a5-4222-9c1e-04f49ae1337a"},"vehicle_type_id":"4","last_reported":1699830377,"current_range_meters":20800,"station_id":"ce4bhr12rcd13ifvqhpg","pricing_plan_id":"free"},{"bike_id":"a26541db-e513-42d2-b3a4-8fe4db1c97c5","system_id":"levelo_inurba_marseille","lat":43.319906,"lon":5.381645,"is_reserved":false,"is_disabled":false,"rental_uris":{"android":"levelo://app?vid=a26541db-e513-42d2-b3a4-8fe4db1c97c5","ios":"levelo://app?vid=a26541db-e513-42d2-b3a4-8fe4db1c97c5"},"vehicle_type_id":"4","last_reported":1699830377,"current_range_meters":8400,"station_id":"ce4bhr12rcd13ifvqhpg","pricing_plan_id":"free"},{"bike_id":"d34167e3-fd07-477b-9beb-f541db7ca909","system_id":"levelo_inurba_marseille","lat":43.298433,"lon":5.362774,"is_reserved":false,"is_disabled":false,"rental_uris":{"android":"levelo://app?vid=d34167e3-fd07-477b-9beb-f541db7ca909","ios":"levelo://app?vid=d34167e3-fd07-477b-9beb-f541db7ca909"},"vehicle_type_id":"4","last_reported":1699830377,"current_range_meters":28400,"station_id":"ce4bgpp2rcd13ifvqc3g","pricing_plan_id":"free"},{"bike_id":"74856dc7-2a28-47f1-aee2-c130d267f007","system_id":"levelo_inurba_marseille","lat":43.31173,"lon":5.38706,"is_reserved":false,"is_disabled":false,"rental_uris":{"android":"levelo://app?vid=74856dc7-2a28-47f1-aee2-c130d267f007","ios":"levelo://app?vid=74856dc7-2a28-47f1-aee2-c130d267f007"},"vehicle_type_id":"4","last_reported":1699830377,"current_range_meters":2000,"station_id":"ce4bgv12rcd13ifvqcp0","pricing_plan_id":"free"},{"bike_id":"809d511e-d7e4-4879-8481-b1b6c42d5d24","system_id":"levelo_inurba_marseille","lat":43.311722,"lon":5.387247,"is_reserved":false,"is_disabled":false,"rental_uris":{"android":"levelo://app?vid=809d511e-d7e4-4879-8481-b1b6c42d5d24","ios":"levelo://app?vid=809d511e-d7e4-4879-8481-b1b6c42d5d24"},"vehicle_type_id":"4","last_reported":1699830377,"current_range_meters":29200,"station_id":"ce4bgv12rcd13ifvqcp0","pricing_plan_id":"free"},{"bike_id":"8950f55a-e75d-4fac-9a7c-f529bc0580a5","system_id":"levelo_inurba_marseille","lat":43.320464,"lon":5.384144,"is_reserved":false,"is_disabled":false,"rental_uris":{"android":"levelo://app?vid=8950f55a-e75d-4fac-9a7c-f529bc0580a5","ios":"levelo://app?vid=8950f55a-e75d-4fac-9a7c-f529bc0580a5"},"vehicle_type_id":"4","last_reported":1699830377,"current_range_meters":7600,"station_id":"","pricing_plan_id":"free"},{"bike_id":"17528ffc-2d0b-49b1-bdec-a50d5c444ece","system_id":"levelo_inurba_marseille","lat":43.30148,"lon":5.38027,"is_reserved":false,"is_disabled":false,"rental_uris":{"android":"levelo://app?vid=17528ffc-2d0b-49b1-bdec-a50d5c444ece","ios":"levelo://app?vid=17528ffc-2d0b-49b1-bdec-a50d5c444ece"},"vehicle_type_id":"4","last_reported":1699830377,"current_range_meters":3600,"station_id":"","pricing_plan_id":"free"},{"bike_id":"b55171a9-64bf-4107-ac3a-e3ce88edd6e8","system_id":"levelo_inurba_marseille","lat":43.32293,"lon":5.38258,"is_reserved":false,"is_disabled":false,"rental_uris":{"android":"levelo://app?vid=b55171a9-64bf-4107-ac3a-e3ce88edd6e8","ios":"levelo://app?vid=b55171a9-64bf-4107-ac3a-e3ce88edd6e8"},"vehicle_type_id":"4","last_reported":1699830377,"current_range_meters":30400,"station_id":"ce4bhr12rcd13ifvqhqg","pricing_plan_id":"free"},{"bike_id":"c8c4f75f-0852-499c-a4b4-1b04b6f5dd47","system_id":"levelo_inurba_marseille","lat":43.3229,"lon":5.38276,"is_reserved":false,"is_disabled":false,"rental_uris":{"android":"levelo://app?vid=c8c4f75f-0852-499c-a4b4-1b04b6f5dd47","ios":"levelo://app?vid=c8c4f75f-0852-499c-a4b4-1b04b6f5dd47"},"vehicle_type_id":"4","last_reported":1699830377,"current_range_meters":24000,"station_id":"ce4bhr12rcd13ifvqhqg","pricing_plan_id":"free"},{"bike_id":"8ea3526a-c988-40ce-bc15-be0b171d079a","system_id":"levelo_inurba_marseille","lat":43.32829,"lon":5.36683,"is_reserved":false,"is_disabled":false,"rental_uris":{"android":"levelo://app?vid=8ea3526a-c988-40ce-bc15-be0b171d079a","ios":"levelo://app?vid=8ea3526a-c988-40ce-bc15-be0b171d079a"},"vehicle_type_id":"4","last_reported":1699830377,"current_range_meters":0,"station_id":"ce4bhs92rcd13ifvqi0g","pricing_plan_id":"free"},{"bike_id":"ae335c2e-bf77-4e54-90f9-eb8725aa58bf","system_id":"levelo_inurba_marseille","lat":43.328311,"lon":5.366816,"is_reserved":false,"is_disabled":false,"rental_uris":{"android":"levelo://app?vid=ae335c2e-bf77-4e54-90f9-eb8725aa58bf","ios":"levelo://app?vid=ae335c2e-bf77-4e54-90f9-eb8725aa58bf"},"vehicle_type_id":"4","last_reported":1699830377,"current_range_meters":17600,"station_id":"ce4bhs92rcd13ifvqi0g","pricing_plan_id":"free"},{"bike_id":"9caec048-a3aa-428b-9d1e-66ad6c2d8e58","system_id":"levelo_inurba_marseille","lat":43.321469,"lon":5.386056,"is_reserved":false,"is_disabled":false,"rental_uris":{"android":"levelo://app?vid=9caec048-a3aa-428b-9d1e-66ad6c2d8e58","ios":"levelo://app?vid=9caec048-a3aa-428b-9d1e-66ad6c2d8e58"},"vehicle_type_id":"4","last_reported":1699830377,"current_range_meters":19600,"station_id":"","pricing_plan_id":"free"},{"bike_id":"f0812d0f-256a-478f-9681-2e0e9d074993","system_id":"levelo_inurba_marseille","lat":43.29601,"lon":5.36819,"is_reserved":false,"is_disabled":false,"rental_uris":{"android":"levelo://app?vid=f0812d0f-256a-478f-9681-2e0e9d074993","ios":"levelo://app?vid=f0812d0f-256a-478f-9681-2e0e9d074993"},"vehicle_type_id":"4","last_reported":1699830377,"current_range_meters":26000,"station_id":"","pricing_plan_id":"free"},{"bike_id":"d447991a-59b4-4778-a190-7d2b0920a414","system_id":"levelo_inurba_marseille","lat":43.32215,"lon":5.38613,"is_reserved":false,"is_disabled":false,"rental_uris":{"android":"levelo://app?vid=d447991a-59b4-4778-a190-7d2b0920a414","ios":"levelo://app?vid=d447991a-59b4-4778-a190-7d2b0920a414"},"vehicle_type_id":"4","last_reported":1699830377,"current_range_meters":15200,"station_id":"","pricing_plan_id":"free"},{"bike_id":"408e1bba-ac1b-479c-ad30-32026784c873","system_id":"levelo_inurba_marseille","lat":43.2966,"lon":5.37463,"is_reserved":false,"is_disabled":false,"rental_uris":{"android":"levelo://app?vid=408e1bba-ac1b-479c-ad30-32026784c873","ios":"levelo://app?vid=408e1bba-ac1b-479c-ad30-32026784c873"},"vehicle_type_id":"4","last_reported":1699830377,"current_range_meters":10000,"station_id":"","pricing_plan_id":"free"},{"bike_id":"33ad3c0f-66bd-47e3-9410-0e87927f2751","system_id":"levelo_inurba_marseille","lat":43.309572,"lon":5.390499,"is_reserved":false,"is_disabled":false,"rental_uris":{"android":"levelo://app?vid=33ad3c0f-66bd-47e3-9410-0e87927f2751","ios":"levelo://app?vid=33ad3c0f-66bd-47e3-9410-0e87927f2751"},"vehicle_type_id":"4","last_reported":1699830377,"current_range_meters":23600,"station_id":"ce4bgup2rcd13ifvqco0","pricing_plan_id":"free"},{"bike_id":"3de4008f-394a-496e-a4fd-34efd55b4ba4","system_id":"levelo_inurba_marseille","lat":43.317557,"lon":5.390173,"is_reserved":false,"is_disabled":false,"rental_uris":{"android":"levelo://app?vid=3de4008f-394a-496e-a4fd-34efd55b4ba4","ios":"levelo://app?vid=3de4008f-394a-496e-a4fd-34efd55b4ba4"},"vehicle_type_id":"4","last_reported":1699830377,"current_range_meters":15600,"station_id":"ce4bhqp2rcd13ifvqhng","pricing_plan_id":"free"},{"bike_id":"feff7d8e-9456-4b4b-b917-4f91bb23e023","system_id":"levelo_inurba_marseille","lat":43.3175,"lon":5.39022,"is_reserved":false,"is_disabled":false,"rental_uris":{"android":"levelo://app?vid=feff7d8e-9456-4b4b-b917-4f91bb23e023","ios":"levelo://app?vid=feff7d8e-9456-4b4b-b917-4f91bb23e023"},"vehicle_type_id":"4","last_reported":1699830377,"current_range_meters":13200,"station_id":"","pricing_plan_id":"free"},{"bike_id":"0f99d0b0-3484-49d4-9053-db8239abd99c","system_id":"levelo_inurba_marseille","lat":43.304274,"lon":5.388873,"is_reserved":false,"is_disabled":false,"rental_uris":{"android":"levelo://app?vid=0f99d0b0-3484-49d4-9053-db8239abd99c","ios":"levelo://app?vid=0f99d0b0-3484-49d4-9053-db8239abd99c"},"vehicle_type_id":"4","last_reported":1699830377,"current_range_meters":22400,"station_id":"ce4bgk12rcd13ifvqbi0","pricing_plan_id":"free"},{"bike_id":"e6af167d-38b9-4a17-8ded-ac386898dc8d","system_id":"levelo_inurba_marseille","lat":43.32367,"lon":5.388836,"is_reserved":false,"is_disabled":false,"rental_uris":{"android":"levelo://app?vid=e6af167d-38b9-4a17-8ded-ac386898dc8d","ios":"levelo://app?vid=e6af167d-38b9-4a17-8ded-ac386898dc8d"},"vehicle_type_id":"4","last_reported":1699830377,"current_range_meters":10000,"station_id":"ce4bhqp2rcd13ifvqhog","pricing_plan_id":"free"},{"bike_id":"67c4022e-75f7-4029-bdab-a44b2e813270","system_id":"levelo_inurba_marseille","lat":43.32367,"lon":5.388836,"is_reserved":false,"is_disabled":false,"rental_uris":{"android":"levelo://app?vid=67c4022e-75f7-4029-bdab-a44b2e813270","ios":"levelo://app?vid=67c4022e-75f7-4029-bdab-a44b2e813270"},"vehicle_type_id":"4","last_reported":1699830377,"current_range_meters":10000,"station_id":"ce4bhqp2rcd13ifvqhog","pricing_plan_id":"free"},{"bike_id":"25f49299-2eb4-47f2-be8c-dd9961910bc4","system_id":"levelo_inurba_marseille","lat":43.293259,"lon":5.371586,"is_reserved":false,"is_disabled":false,"rental_uris":{"android":"levelo://app?vid=25f49299-2eb4-47f2-be8c-dd9961910bc4","ios":"levelo://app?vid=25f49299-2eb4-47f2-be8c-dd9961910bc4"},"vehicle_type_id":"4","last_reported":1699830377,"current_range_meters":1600,"station_id":"ce4bgh92rcd13ifvqb40","pricing_plan_id":"free"},{"bike_id":"9f0d710c-8d1e-4291-9bfc-ba236c208c42","system_id":"levelo_inurba_marseille","lat":43.292749,"lon":5.368398,"is_reserved":false,"is_disabled":false,"rental_uris":{"android":"levelo://app?vid=9f0d710c-8d1e-4291-9bfc-ba236c208c42","ios":"levelo://app?vid=9f0d710c-8d1e-4291-9bfc-ba236c208c42"},"vehicle_type_id":"4","last_reported":1699830377,"current_range_meters":30400,"station_id":"ce4bhbp2rcd13ifvqesg","pricing_plan_id":"free"},{"bike_id":"507fea81-fdbc-4f1e-869a-783a510be5a0","system_id":"levelo_inurba_marseille","lat":43.29272,"lon":5.36848,"is_reserved":false,"is_disabled":false,"rental_uris":{"android":"levelo://app?vid=507fea81-fdbc-4f1e-869a-783a510be5a0","ios":"levelo://app?vid=507fea81-fdbc-4f1e-869a-783a510be5a0"},"vehicle_type_id":"4","last_reported":1699830377,"current_range_meters":30000,"station_id":"ce4bhbp2rcd13ifvqesg","pricing_plan_id":"free"},{"bike_id":"1f2edeec-835f-4188-b75a-b19c37bb1dac","system_id":"levelo_inurba_marseille","lat":43.30109,"lon":5.3894,"is_reserved":false,"is_disabled":false,"rental_uris":{"android":"levelo://app?vid=1f2edeec-835f-4188-b75a-b19c37bb1dac","ios":"levelo://app?vid=1f2edeec-835f-4188-b75a-b19c37bb1dac"},"vehicle_type_id":"4","last_reported":1699830377,"current_range_meters":0,"station_id":"","pricing_plan_id":"free"},{"bike_id":"6965bc4e-057a-46ab-beef-e9d9e5a8763f","system_id":"levelo_inurba_marseille","lat":43.305977,"lon":5.393534,"is_reserved":false,"is_disabled":false,"rental_uris":{"android":"levelo://app?vid=6965bc4e-057a-46ab-beef-e9d9e5a8763f","ios":"levelo://app?vid=6965bc4e-057a-46ab-beef-e9d9e5a8763f"},"vehicle_type_id":"4","last_reported":1699830377,"current_range_meters":9600,"station_id":"ce4bh0p2rcd13ifvqd80","pricing_plan_id":"free"},{"bike_id":"561bdb5d-62df-4259-a33e-a7c6a027558c","system_id":"levelo_inurba_marseille","lat":43.293009,"lon":5.374584,"is_reserved":false,"is_disabled":false,"rental_uris":{"android":"levelo://app?vid=561bdb5d-62df-4259-a33e-a7c6a027558c","ios":"levelo://app?vid=561bdb5d-62df-4259-a33e-a7c6a027558c"},"vehicle_type_id":"4","last_reported":1699830377,"current_range_meters":25200,"station_id":"ce4bgi12rcd13ifvqb70","pricing_plan_id":"free"},{"bike_id":"2d678dc1-ffd4-4658-9679-349ca7976730","system_id":"levelo_inurba_marseille","lat":43.302992,"lon":5.392136,"is_reserved":false,"is_disabled":false,"rental_uris":{"android":"levelo://app?vid=2d678dc1-ffd4-4658-9679-349ca7976730","ios":"levelo://app?vid=2d678dc1-ffd4-4658-9679-349ca7976730"},"vehicle_type_id":"4","last_reported":1699830377,"current_range_meters":26000,"station_id":"ce4bgkh2rcd13ifvqbk0","pricing_plan_id":"free"},{"bike_id":"541b42ad-ebce-49b1-8aa6-b522349caa8e","system_id":"levelo_inurba_marseille","lat":43.2936,"lon":5.37835,"is_reserved":false,"is_disabled":false,"rental_uris":{"android":"levelo://app?vid=541b42ad-ebce-49b1-8aa6-b522349caa8e","ios":"levelo://app?vid=541b42ad-ebce-49b1-8aa6-b522349caa8e"},"vehicle_type_id":"4","last_reported":1699830377,"current_range_meters":11200,"station_id":"ce4bgjh2rcd13ifvqbf0","pricing_plan_id":"free"},{"bike_id":"b8a96ddf-a0d6-4635-9290-bb480ac32ceb","system_id":"levelo_inurba_marseille","lat":43.300852,"lon":5.390859,"is_reserved":false,"is_disabled":false,"rental_uris":{"android":"levelo://app?vid=b8a96ddf-a0d6-4635-9290-bb480ac32ceb","ios":"levelo://app?vid=b8a96ddf-a0d6-4635-9290-bb480ac32ceb"},"vehicle_type_id":"4","last_reported":1699830377,"current_range_meters":29600,"station_id":"ce4bh192rcd13ifvqdb0","pricing_plan_id":"free"},{"bike_id":"7c3cee41-1c06-4c23-b7a1-2f7f660908a5","system_id":"levelo_inurba_marseille","lat":43.298764,"lon":5.388973,"is_reserved":false,"is_disabled":false,"rental_uris":{"android":"levelo://app?vid=7c3cee41-1c06-4c23-b7a1-2f7f660908a5","ios":"levelo://app?vid=7c3cee41-1c06-4c23-b7a1-2f7f660908a5"},"vehicle_type_id":"4","last_reported":1699830377,"current_range_meters":24000,"station_id":"ce4bh392rcd13ifvqdl0","pricing_plan_id":"free"},{"bike_id":"88a6996d-c5a0-4745-a7d7-cc64a8dec02f","system_id":"levelo_inurba_marseille","lat":43.29886,"lon":5.38901,"is_reserved":false,"is_disabled":false,"rental_uris":{"android":"levelo://app?vid=88a6996d-c5a0-4745-a7d7-cc64a8dec02f","ios":"levelo://app?vid=88a6996d-c5a0-4745-a7d7-cc64a8dec02f"},"vehicle_type_id":"4","last_reported":1699830377,"current_range_meters":0,"station_id":"ce4bh392rcd13ifvqdl0","pricing_plan_id":"free"},{"bike_id":"527fa83c-b585-41e5-b8cf-6a29ce429942","system_id":"levelo_inurba_marseille","lat":43.31135,"lon":5.39612,"is_reserved":false,"is_disabled":false,"rental_uris":{"android":"levelo://app?vid=527fa83c-b585-41e5-b8cf-6a29ce429942","ios":"levelo://app?vid=527fa83c-b585-41e5-b8cf-6a29ce429942"},"vehicle_type_id":"4","last_reported":1699830377,"current_range_meters":25600,"station_id":"","pricing_plan_id":"free"},{"bike_id":"acf1f2f6-0e7d-4f9e-bcfe-f804e9f7183a","system_id":"levelo_inurba_marseille","lat":43.29877,"lon":5.38903,"is_reserved":false,"is_disabled":false,"rental_uris":{"android":"levelo://app?vid=acf1f2f6-0e7d-4f9e-bcfe-f804e9f7183a","ios":"levelo://app?vid=acf1f2f6-0e7d-4f9e-bcfe-f804e9f7183a"},"vehicle_type_id":"4","last_reported":1699830377,"current_range_meters":4000,"station_id":"ce4bh392rcd13ifvqdl0","pricing_plan_id":"free"},{"bike_id":"9bc5d04f-c197-4489-968e-5b7981fc2de7","system_id":"levelo_inurba_marseille","lat":43.309047,"lon":5.396551,"is_reserved":false,"is_disabled":false,"rental_uris":{"android":"levelo://app?vid=9bc5d04f-c197-4489-968e-5b7981fc2de7","ios":"levelo://app?vid=9bc5d04f-c197-4489-968e-5b7981fc2de7"},"vehicle_type_id":"4","last_reported":1699830377,"current_range_meters":8000,"station_id":"ce4bh012rcd13ifvqcv0","pricing_plan_id":"free"},{"bike_id":"0d0024eb-ac5e-406c-8c38-a3eb9b487406","system_id":"levelo_inurba_marseille","lat":43.309038,"lon":5.396546,"is_reserved":false,"is_disabled":false,"rental_uris":{"android":"levelo://app?vid=0d0024eb-ac5e-406c-8c38-a3eb9b487406","ios":"levelo://app?vid=0d0024eb-ac5e-406c-8c38-a3eb9b487406"},"vehicle_type_id":"4","last_reported":1699830377,"current_range_meters":7600,"station_id":"ce4bh012rcd13ifvqcv0","pricing_plan_id":"free"},{"bike_id":"f05efe8a-6d59-4ed4-ab39-f82390363452","system_id":"levelo_inurba_marseille","lat":43.309038,"lon":5.396546,"is_reserved":false,"is_disabled":false,"rental_uris":{"android":"levelo://app?vid=f05efe8a-6d59-4ed4-ab39-f82390363452","ios":"levelo://app?vid=f05efe8a-6d59-4ed4-ab39-f82390363452"},"vehicle_type_id":"4","last_reported":1699830377,"current_range_meters":2000,"station_id":"ce4bh012rcd13ifvqcv0","pricing_plan_id":"free"},{"bike_id":"10e37d3c-0b23-4f60-bc3c-d02f71ff51b4","system_id":"levelo_inurba_marseille","lat":43.31331,"lon":5.39693,"is_reserved":false,"is_disabled":false,"rental_uris":{"android":"levelo://app?vid=10e37d3c-0b23-4f60-bc3c-d02f71ff51b4","ios":"levelo://app?vid=10e37d3c-0b23-4f60-bc3c-d02f71ff51b4"},"vehicle_type_id":"4","last_reported":1699830377,"current_range_meters":0,"station_id":"ce4bgvp2rcd13ifvqcu0","pricing_plan_id":"free"},{"bike_id":"c2d2fa66-847b-4479-8726-9b848eab9689","system_id":"levelo_inurba_marseille","lat":43.309038,"lon":5.396546,"is_reserved":false,"is_disabled":false,"rental_uris":{"android":"levelo://app?vid=c2d2fa66-847b-4479-8726-9b848eab9689","ios":"levelo://app?vid=c2d2fa66-847b-4479-8726-9b848eab9689"},"vehicle_type_id":"4","last_reported":1699830377,"current_range_meters":12800,"station_id":"ce4bh012rcd13ifvqcv0","pricing_plan_id":"free"},{"bike_id":"b39d24c6-4dec-4ffb-86b9-c2128151223b","system_id":"levelo_inurba_marseille","lat":43.309038,"lon":5.396546,"is_reserved":false,"is_disabled":false,"rental_uris":{"android":"levelo://app?vid=b39d24c6-4dec-4ffb-86b9-c2128151223b","ios":"levelo://app?vid=b39d24c6-4dec-4ffb-86b9-c2128151223b"},"vehicle_type_id":"4","last_reported":1699830377,"current_range_meters":5600,"station_id":"ce4bh012rcd13ifvqcv0","pricing_plan_id":"free"},{"bike_id":"3a97adba-8d41-47da-afa7-ee1a1d9d00e2","system_id":"levelo_inurba_marseille","lat":43.309038,"lon":5.396546,"is_reserved":false,"is_disabled":false,"rental_uris":{"android":"levelo://app?vid=3a97adba-8d41-47da-afa7-ee1a1d9d00e2","ios":"levelo://app?vid=3a97adba-8d41-47da-afa7-ee1a1d9d00e2"},"vehicle_type_id":"4","last_reported":1699830377,"current_range_meters":18000,"station_id":"ce4bh012rcd13ifvqcv0","pricing_plan_id":"free"},{"bike_id":"fee13ed3-0f19-4408-9fc9-e88875802f51","system_id":"levelo_inurba_marseille","lat":43.309038,"lon":5.396546,"is_reserved":false,"is_disabled":false,"rental_uris":{"android":"levelo://app?vid=fee13ed3-0f19-4408-9fc9-e88875802f51","ios":"levelo://app?vid=fee13ed3-0f19-4408-9fc9-e88875802f51"},"vehicle_type_id":"4","last_reported":1699830377,"current_range_meters":18800,"station_id":"ce4bh012rcd13ifvqcv0","pricing_plan_id":"free"},{"bike_id":"0c68512e-4e98-438a-991c-a994957f75d7","system_id":"levelo_inurba_marseille","lat":43.313291,"lon":5.396838,"is_reserved":false,"is_disabled":false,"rental_uris":{"android":"levelo://app?vid=0c68512e-4e98-438a-991c-a994957f75d7","ios":"levelo://app?vid=0c68512e-4e98-438a-991c-a994957f75d7"},"vehicle_type_id":"4","last_reported":1699830377,"current_range_meters":400,"station_id":"ce4bgvp2rcd13ifvqcu0","pricing_plan_id":"free"},{"bike_id":"ac3c0fa1-583b-4820-819f-47a93f49be42","system_id":"levelo_inurba_marseille","lat":43.290631,"lon":5.359244,"is_reserved":false,"is_disabled":false,"rental_uris":{"android":"levelo://app?vid=ac3c0fa1-583b-4820-819f-47a93f49be42","ios":"levelo://app?vid=ac3c0fa1-583b-4820-819f-47a93f49be42"},"vehicle_type_id":"4","last_reported":1699830377,"current_range_meters":29200,"station_id":"ce4bha92rcd13ifvqeg0","pricing_plan_id":"free"},{"bike_id":"0d06056f-3b2c-42cc-a405-d76908b93ff0","system_id":"levelo_inurba_marseille","lat":43.29059,"lon":5.3591,"is_reserved":false,"is_disabled":false,"rental_uris":{"android":"levelo://app?vid=0d06056f-3b2c-42cc-a405-d76908b93ff0","ios":"levelo://app?vid=0d06056f-3b2c-42cc-a405-d76908b93ff0"},"vehicle_type_id":"4","last_reported":1699830377,"current_range_meters":9600,"station_id":"ce4bha92rcd13ifvqeg0","pricing_plan_id":"free"},{"bike_id":"042aa885-ca0c-4e71-a489-00fce66ef954","system_id":"levelo_inurba_marseille","lat":43.29048,"lon":5.35905,"is_reserved":false,"is_disabled":false,"rental_uris":{"android":"levelo://app?vid=042aa885-ca0c-4e71-a489-00fce66ef954","ios":"levelo://app?vid=042aa885-ca0c-4e71-a489-00fce66ef954"},"vehicle_type_id":"4","last_reported":1699830377,"current_range_meters":9200,"station_id":"ce4bha92rcd13ifvqeg0","pricing_plan_id":"free"},{"bike_id":"aaba240d-5e33-44bc-9426-204bfedb8a3c","system_id":"levelo_inurba_marseille","lat":43.29046,"lon":5.35912,"is_reserved":false,"is_disabled":false,"rental_uris":{"android":"levelo://app?vid=aaba240d-5e33-44bc-9426-204bfedb8a3c","ios":"levelo://app?vid=aaba240d-5e33-44bc-9426-204bfedb8a3c"},"vehicle_type_id":"4","last_reported":1699830377,"current_range_meters":15200,"station_id":"ce4bha92rcd13ifvqeg0","pricing_plan_id":"free"},{"bike_id":"28ded399-01f9-450f-9a46-90c5b975baec","system_id":"levelo_inurba_marseille","lat":43.289184,"lon":5.366408,"is_reserved":false,"is_disabled":false,"rental_uris":{"android":"levelo://app?vid=28ded399-01f9-450f-9a46-90c5b975baec","ios":"levelo://app?vid=28ded399-01f9-450f-9a46-90c5b975baec"},"vehicle_type_id":"4","last_reported":1699830377,"current_range_meters":16400,"station_id":"ce4bhap2rcd13ifvqek0","pricing_plan_id":"free"},{"bike_id":"00653aeb-d72b-483e-8717-4307b45252ea","system_id":"levelo_inurba_marseille","lat":43.289468,"lon":5.363719,"is_reserved":false,"is_disabled":false,"rental_uris":{"android":"levelo://app?vid=00653aeb-d72b-483e-8717-4307b45252ea","ios":"levelo://app?vid=00653aeb-d72b-483e-8717-4307b45252ea"},"vehicle_type_id":"4","last_reported":1699830377,"current_range_meters":31200,"station_id":"ce4bhc92rcd13ifvqetg","pricing_plan_id":"free"},{"bike_id":"e138888a-f437-4dbe-abaa-5b74b230a60c","system_id":"levelo_inurba_marseille","lat":43.297088,"lon":5.39155,"is_reserved":false,"is_disabled":false,"rental_uris":{"android":"levelo://app?vid=e138888a-f437-4dbe-abaa-5b74b230a60c","ios":"levelo://app?vid=e138888a-f437-4dbe-abaa-5b74b230a60c"},"vehicle_type_id":"4","last_reported":1699830377,"current_range_meters":13600,"station_id":"","pricing_plan_id":"free"},{"bike_id":"7a1356b5-2437-4bfa-bb34-cf55b7f00bb1","system_id":"levelo_inurba_marseille","lat":43.33063,"lon":5.39051,"is_reserved":false,"is_disabled":false,"rental_uris":{"android":"levelo://app?vid=7a1356b5-2437-4bfa-bb34-cf55b7f00bb1","ios":"levelo://app?vid=7a1356b5-2437-4bfa-bb34-cf55b7f00bb1"},"vehicle_type_id":"4","last_reported":1699830377,"current_range_meters":9200,"station_id":"","pricing_plan_id":"free"},{"bike_id":"3088da2d-9cbf-4d17-8ed4-d244302ea1d3","system_id":"levelo_inurba_marseille","lat":43.28856,"lon":5.358371,"is_reserved":false,"is_disabled":false,"rental_uris":{"android":"levelo://app?vid=3088da2d-9cbf-4d17-8ed4-d244302ea1d3","ios":"levelo://app?vid=3088da2d-9cbf-4d17-8ed4-d244302ea1d3"},"vehicle_type_id":"4","last_reported":1699830377,"current_range_meters":29200,"station_id":"ce4bhb12rcd13ifvqem0","pricing_plan_id":"free"},{"bike_id":"3e4557fc-4327-488a-991b-85169acd426d","system_id":"levelo_inurba_marseille","lat":43.28856,"lon":5.358371,"is_reserved":false,"is_disabled":false,"rental_uris":{"android":"levelo://app?vid=3e4557fc-4327-488a-991b-85169acd426d","ios":"levelo://app?vid=3e4557fc-4327-488a-991b-85169acd426d"},"vehicle_type_id":"4","last_reported":1699830377,"current_range_meters":7200,"station_id":"ce4bhb12rcd13ifvqem0","pricing_plan_id":"free"},{"bike_id":"fff20005-fc4e-4cc7-ba9d-3139fc889d3e","system_id":"levelo_inurba_marseille","lat":43.28856,"lon":5.358371,"is_reserved":false,"is_disabled":false,"rental_uris":{"android":"levelo://app?vid=fff20005-fc4e-4cc7-ba9d-3139fc889d3e","ios":"levelo://app?vid=fff20005-fc4e-4cc7-ba9d-3139fc889d3e"},"vehicle_type_id":"4","last_reported":1699830377,"current_range_meters":23200,"station_id":"ce4bhb12rcd13ifvqem0","pricing_plan_id":"free"},{"bike_id":"5600f2f7-0eec-47e9-aee5-107b08e8dfd2","system_id":"levelo_inurba_marseille","lat":43.288438,"lon":5.358455,"is_reserved":false,"is_disabled":false,"rental_uris":{"android":"levelo://app?vid=5600f2f7-0eec-47e9-aee5-107b08e8dfd2","ios":"levelo://app?vid=5600f2f7-0eec-47e9-aee5-107b08e8dfd2"},"vehicle_type_id":"4","last_reported":1699830377,"current_range_meters":15200,"station_id":"ce4bhb12rcd13ifvqem0","pricing_plan_id":"free"},{"bike_id":"bca517f7-fb61-4bdc-8de5-02721b2e855c","system_id":"levelo_inurba_marseille","lat":43.30927,"lon":5.4014,"is_reserved":false,"is_disabled":false,"rental_uris":{"android":"levelo://app?vid=bca517f7-fb61-4bdc-8de5-02721b2e855c","ios":"levelo://app?vid=bca517f7-fb61-4bdc-8de5-02721b2e855c"},"vehicle_type_id":"4","last_reported":1699830377,"current_range_meters":1200,"station_id":"ce4bgvp2rcd13ifvqct0","pricing_plan_id":"free"},{"bike_id":"de6d2a58-097e-419c-9196-f3ab4ce52751","system_id":"levelo_inurba_marseille","lat":43.30642,"lon":5.401031,"is_reserved":false,"is_disabled":false,"rental_uris":{"android":"levelo://app?vid=de6d2a58-097e-419c-9196-f3ab4ce52751","ios":"levelo://app?vid=de6d2a58-097e-419c-9196-f3ab4ce52751"},"vehicle_type_id":"4","last_reported":1699830377,"current_range_meters":800,"station_id":"ce4bh112rcd13ifvqda0","pricing_plan_id":"free"},{"bike_id":"743f3bc5-43c9-45a3-8965-b67b169c6c30","system_id":"levelo_inurba_marseille","lat":43.30513,"lon":5.40077,"is_reserved":false,"is_disabled":false,"rental_uris":{"android":"levelo://app?vid=743f3bc5-43c9-45a3-8965-b67b169c6c30","ios":"levelo://app?vid=743f3bc5-43c9-45a3-8965-b67b169c6c30"},"vehicle_type_id":"4","last_reported":1699830377,"current_range_meters":5600,"station_id":"","pricing_plan_id":"free"},{"bike_id":"53e1caf4-f494-4c68-bdbe-8af0dd39152d","system_id":"levelo_inurba_marseille","lat":43.30131,"lon":5.39868,"is_reserved":false,"is_disabled":false,"rental_uris":{"android":"levelo://app?vid=53e1caf4-f494-4c68-bdbe-8af0dd39152d","ios":"levelo://app?vid=53e1caf4-f494-4c68-bdbe-8af0dd39152d"},"vehicle_type_id":"4","last_reported":1699830377,"current_range_meters":10400,"station_id":"ce4bh0h2rcd13ifvqd40","pricing_plan_id":"free"},{"bike_id":"388db035-208e-43fb-9237-9b5aac08acb4","system_id":"levelo_inurba_marseille","lat":43.28727,"lon":5.36078,"is_reserved":false,"is_disabled":false,"rental_uris":{"android":"levelo://app?vid=388db035-208e-43fb-9237-9b5aac08acb4","ios":"levelo://app?vid=388db035-208e-43fb-9237-9b5aac08acb4"},"vehicle_type_id":"4","last_reported":1699830377,"current_range_meters":17200,"station_id":"cki0cbj6b192h4jlfktg","pricing_plan_id":"free"},{"bike_id":"7b9e1fe5-8357-4247-9592-1a0cc2f38e11","system_id":"levelo_inurba_marseille","lat":43.28727,"lon":5.36078,"is_reserved":false,"is_disabled":false,"rental_uris":{"android":"levelo://app?vid=7b9e1fe5-8357-4247-9592-1a0cc2f38e11","ios":"levelo://app?vid=7b9e1fe5-8357-4247-9592-1a0cc2f38e11"},"vehicle_type_id":"4","last_reported":1699830377,"current_range_meters":27200,"station_id":"cki0cbj6b192h4jlfktg","pricing_plan_id":"free"},{"bike_id":"3527fc1d-4b79-4a1d-a906-b416a2bed3f6","system_id":"levelo_inurba_marseille","lat":43.286961,"lon":5.373785,"is_reserved":false,"is_disabled":false,"rental_uris":{"android":"levelo://app?vid=3527fc1d-4b79-4a1d-a906-b416a2bed3f6","ios":"levelo://app?vid=3527fc1d-4b79-4a1d-a906-b416a2bed3f6"},"vehicle_type_id":"4","last_reported":1699830377,"current_range_meters":26800,"station_id":"ce4bh3p2rcd13ifvqdq0","pricing_plan_id":"free"},{"bike_id":"cb38f85c-8434-4c47-8a81-1c772b53aec8","system_id":"levelo_inurba_marseille","lat":43.286593,"lon":5.363346,"is_reserved":false,"is_disabled":false,"rental_uris":{"android":"levelo://app?vid=cb38f85c-8434-4c47-8a81-1c772b53aec8","ios":"levelo://app?vid=cb38f85c-8434-4c47-8a81-1c772b53aec8"},"vehicle_type_id":"4","last_reported":1699830377,"current_range_meters":22000,"station_id":"ce4bhah2rcd13ifvqej0","pricing_plan_id":"free"},{"bike_id":"042323f9-e43d-422d-aed4-b13dbdf22318","system_id":"levelo_inurba_marseille","lat":43.286961,"lon":5.373785,"is_reserved":false,"is_disabled":false,"rental_uris":{"android":"levelo://app?vid=042323f9-e43d-422d-aed4-b13dbdf22318","ios":"levelo://app?vid=042323f9-e43d-422d-aed4-b13dbdf22318"},"vehicle_type_id":"4","last_reported":1699830377,"current_range_meters":17600,"station_id":"ce4bh3p2rcd13ifvqdq0","pricing_plan_id":"free"},{"bike_id":"10cce94c-3924-4d3a-b7dd-eeaa9a063960","system_id":"levelo_inurba_marseille","lat":43.286593,"lon":5.363346,"is_reserved":false,"is_disabled":false,"rental_uris":{"android":"levelo://app?vid=10cce94c-3924-4d3a-b7dd-eeaa9a063960","ios":"levelo://app?vid=10cce94c-3924-4d3a-b7dd-eeaa9a063960"},"vehicle_type_id":"4","last_reported":1699830377,"current_range_meters":18800,"station_id":"ce4bhah2rcd13ifvqej0","pricing_plan_id":"free"},{"bike_id":"4dc04377-abce-438b-889d-bd9bb875ab6a","system_id":"levelo_inurba_marseille","lat":43.287032,"lon":5.373808,"is_reserved":false,"is_disabled":false,"rental_uris":{"android":"levelo://app?vid=4dc04377-abce-438b-889d-bd9bb875ab6a","ios":"levelo://app?vid=4dc04377-abce-438b-889d-bd9bb875ab6a"},"vehicle_type_id":"4","last_reported":1699830377,"current_range_meters":14800,"station_id":"ce4bh3p2rcd13ifvqdq0","pricing_plan_id":"free"},{"bike_id":"c953b67a-ef6b-4a2a-b9bf-82b3dfd517ff","system_id":"levelo_inurba_marseille","lat":43.286983,"lon":5.373879,"is_reserved":false,"is_disabled":false,"rental_uris":{"android":"levelo://app?vid=c953b67a-ef6b-4a2a-b9bf-82b3dfd517ff","ios":"levelo://app?vid=c953b67a-ef6b-4a2a-b9bf-82b3dfd517ff"},"vehicle_type_id":"4","last_reported":1699830377,"current_range_meters":0,"station_id":"ce4bh3p2rcd13ifvqdq0","pricing_plan_id":"free"},{"bike_id":"9a58da6d-b8d5-40db-ac24-7f7388dbc137","system_id":"levelo_inurba_marseille","lat":43.298681,"lon":5.397225,"is_reserved":false,"is_disabled":false,"rental_uris":{"android":"levelo://app?vid=9a58da6d-b8d5-40db-ac24-7f7388dbc137","ios":"levelo://app?vid=9a58da6d-b8d5-40db-ac24-7f7388dbc137"},"vehicle_type_id":"4","last_reported":1699830377,"current_range_meters":27600,"station_id":"ce4bh0h2rcd13ifvqd50","pricing_plan_id":"free"},{"bike_id":"60b5d421-d54d-48a0-9ee2-d6c79a47cf61","system_id":"levelo_inurba_marseille","lat":43.289274,"lon":5.383877,"is_reserved":false,"is_disabled":false,"rental_uris":{"android":"levelo://app?vid=60b5d421-d54d-48a0-9ee2-d6c79a47cf61","ios":"levelo://app?vid=60b5d421-d54d-48a0-9ee2-d6c79a47cf61"},"vehicle_type_id":"4","last_reported":1699830377,"current_range_meters":30400,"station_id":"ce4bh612rcd13ifvqe6g","pricing_plan_id":"free"},{"bike_id":"eabf133b-85a4-48a5-8d41-2bdcac4ac496","system_id":"levelo_inurba_marseille","lat":43.289307,"lon":5.38406,"is_reserved":false,"is_disabled":false,"rental_uris":{"android":"levelo://app?vid=eabf133b-85a4-48a5-8d41-2bdcac4ac496","ios":"levelo://app?vid=eabf133b-85a4-48a5-8d41-2bdcac4ac496"},"vehicle_type_id":"4","last_reported":1699830377,"current_range_meters":30800,"station_id":"ce4bh612rcd13ifvqe6g","pricing_plan_id":"free"},{"bike_id":"5691b5b7-067a-4422-9f0c-a6907daf74a4","system_id":"levelo_inurba_marseille","lat":43.33888,"lon":5.35791,"is_reserved":false,"is_disabled":false,"rental_uris":{"android":"levelo://app?vid=5691b5b7-067a-4422-9f0c-a6907daf74a4","ios":"levelo://app?vid=5691b5b7-067a-4422-9f0c-a6907daf74a4"},"vehicle_type_id":"4","last_reported":1699830377,"current_range_meters":4400,"station_id":"","pricing_plan_id":"free"},{"bike_id":"5876f64d-1321-44f1-bcf8-16efc58870c4","system_id":"levelo_inurba_marseille","lat":43.287185,"lon":5.379373,"is_reserved":false,"is_disabled":false,"rental_uris":{"android":"levelo://app?vid=5876f64d-1321-44f1-bcf8-16efc58870c4","ios":"levelo://app?vid=5876f64d-1321-44f1-bcf8-16efc58870c4"},"vehicle_type_id":"4","last_reported":1699830377,"current_range_meters":7200,"station_id":"ce4bh9p2rcd13ifvqec0","pricing_plan_id":"free"},{"bike_id":"5cc62737-c94a-4825-b696-65fb28c637fa","system_id":"levelo_inurba_marseille","lat":43.287185,"lon":5.379373,"is_reserved":false,"is_disabled":false,"rental_uris":{"android":"levelo://app?vid=5cc62737-c94a-4825-b696-65fb28c637fa","ios":"levelo://app?vid=5cc62737-c94a-4825-b696-65fb28c637fa"},"vehicle_type_id":"4","last_reported":1699830377,"current_range_meters":26400,"station_id":"ce4bh9p2rcd13ifvqec0","pricing_plan_id":"free"},{"bike_id":"56c96b60-45e0-4a68-8a5c-155d7d08b753","system_id":"levelo_inurba_marseille","lat":43.316517,"lon":5.404375,"is_reserved":false,"is_disabled":false,"rental_uris":{"android":"levelo://app?vid=56c96b60-45e0-4a68-8a5c-155d7d08b753","ios":"levelo://app?vid=56c96b60-45e0-4a68-8a5c-155d7d08b753"},"vehicle_type_id":"4","last_reported":1699830377,"current_range_meters":23200,"station_id":"ce4bh012rcd13ifvqd00","pricing_plan_id":"free"},{"bike_id":"b631772a-6856-4dcd-80e8-7fc650467073","system_id":"levelo_inurba_marseille","lat":43.29459,"lon":5.395664,"is_reserved":false,"is_disabled":false,"rental_uris":{"android":"levelo://app?vid=b631772a-6856-4dcd-80e8-7fc650467073","ios":"levelo://app?vid=b631772a-6856-4dcd-80e8-7fc650467073"},"vehicle_type_id":"4","last_reported":1699830377,"current_range_meters":23200,"station_id":"","pricing_plan_id":"free"},{"bike_id":"e57449c2-d088-47cf-8bf2-271593713c89","system_id":"levelo_inurba_marseille","lat":43.328576,"lon":5.398841,"is_reserved":false,"is_disabled":false,"rental_uris":{"android":"levelo://app?vid=e57449c2-d088-47cf-8bf2-271593713c89","ios":"levelo://app?vid=e57449c2-d088-47cf-8bf2-271593713c89"},"vehicle_type_id":"4","last_reported":1699830377,"current_range_meters":2800,"station_id":"","pricing_plan_id":"free"},{"bike_id":"63db8af7-d0f1-4f43-8a11-a758fd427dfa","system_id":"levelo_inurba_marseille","lat":43.28465,"lon":5.358937,"is_reserved":false,"is_disabled":false,"rental_uris":{"android":"levelo://app?vid=63db8af7-d0f1-4f43-8a11-a758fd427dfa","ios":"levelo://app?vid=63db8af7-d0f1-4f43-8a11-a758fd427dfa"},"vehicle_type_id":"4","last_reported":1699830377,"current_range_meters":22400,"station_id":"ce4bhah2rcd13ifvqei0","pricing_plan_id":"free"},{"bike_id":"f7065c8d-a640-4534-ba28-84c0a7f1e603","system_id":"levelo_inurba_marseille","lat":43.28466,"lon":5.35886,"is_reserved":false,"is_disabled":false,"rental_uris":{"android":"levelo://app?vid=f7065c8d-a640-4534-ba28-84c0a7f1e603","ios":"levelo://app?vid=f7065c8d-a640-4534-ba28-84c0a7f1e603"},"vehicle_type_id":"4","last_reported":1699830377,"current_range_meters":10400,"station_id":"ce4bhah2rcd13ifvqei0","pricing_plan_id":"free"},{"bike_id":"172014e4-c032-4d91-b2b1-15f23e010f41","system_id":"levelo_inurba_marseille","lat":43.28461,"lon":5.35891,"is_reserved":false,"is_disabled":false,"rental_uris":{"android":"levelo://app?vid=172014e4-c032-4d91-b2b1-15f23e010f41","ios":"levelo://app?vid=172014e4-c032-4d91-b2b1-15f23e010f41"},"vehicle_type_id":"4","last_reported":1699830377,"current_range_meters":14400,"station_id":"ce4bhah2rcd13ifvqei0","pricing_plan_id":"free"},{"bike_id":"e8344452-9674-4ffc-b868-a64a2aa510d4","system_id":"levelo_inurba_marseille","lat":43.28461,"lon":5.35885,"is_reserved":false,"is_disabled":false,"rental_uris":{"android":"levelo://app?vid=e8344452-9674-4ffc-b868-a64a2aa510d4","ios":"levelo://app?vid=e8344452-9674-4ffc-b868-a64a2aa510d4"},"vehicle_type_id":"4","last_reported":1699830377,"current_range_meters":24800,"station_id":"ce4bhah2rcd13ifvqei0","pricing_plan_id":"free"},{"bike_id":"f11b95c5-b933-47dd-b4d7-2c04a0d27b3d","system_id":"levelo_inurba_marseille","lat":43.284619,"lon":5.358786,"is_reserved":false,"is_disabled":false,"rental_uris":{"android":"levelo://app?vid=f11b95c5-b933-47dd-b4d7-2c04a0d27b3d","ios":"levelo://app?vid=f11b95c5-b933-47dd-b4d7-2c04a0d27b3d"},"vehicle_type_id":"4","last_reported":1699830377,"current_range_meters":26400,"station_id":"ce4bhah2rcd13ifvqei0","pricing_plan_id":"free"},{"bike_id":"90b918d8-a14c-427b-9637-65ba994a69fe","system_id":"levelo_inurba_marseille","lat":43.28459,"lon":5.35893,"is_reserved":false,"is_disabled":false,"rental_uris":{"android":"levelo://app?vid=90b918d8-a14c-427b-9637-65ba994a69fe","ios":"levelo://app?vid=90b918d8-a14c-427b-9637-65ba994a69fe"},"vehicle_type_id":"4","last_reported":1699830377,"current_range_meters":1200,"station_id":"ce4bhah2rcd13ifvqei0","pricing_plan_id":"free"},{"bike_id":"2dc7e356-a684-4d2d-867f-d7ade3c73103","system_id":"levelo_inurba_marseille","lat":43.294314,"lon":5.397498,"is_reserved":false,"is_disabled":false,"rental_uris":{"android":"levelo://app?vid=2dc7e356-a684-4d2d-867f-d7ade3c73103","ios":"levelo://app?vid=2dc7e356-a684-4d2d-867f-d7ade3c73103"},"vehicle_type_id":"4","last_reported":1699830377,"current_range_meters":28800,"station_id":"ce4bh3h2rcd13ifvqdo0","pricing_plan_id":"free"},{"bike_id":"6889ebc0-3ff0-41ed-a38e-a87f75c04cc6","system_id":"levelo_inurba_marseille","lat":43.28417,"lon":5.37509,"is_reserved":false,"is_disabled":false,"rental_uris":{"android":"levelo://app?vid=6889ebc0-3ff0-41ed-a38e-a87f75c04cc6","ios":"levelo://app?vid=6889ebc0-3ff0-41ed-a38e-a87f75c04cc6"},"vehicle_type_id":"4","last_reported":1699830377,"current_range_meters":22800,"station_id":"ce4bh412rcd13ifvqds0","pricing_plan_id":"free"},{"bike_id":"0f4b0464-7d72-441b-a3cf-0027b4dc3084","system_id":"levelo_inurba_marseille","lat":43.28417,"lon":5.37523,"is_reserved":false,"is_disabled":false,"rental_uris":{"android":"levelo://app?vid=0f4b0464-7d72-441b-a3cf-0027b4dc3084","ios":"levelo://app?vid=0f4b0464-7d72-441b-a3cf-0027b4dc3084"},"vehicle_type_id":"4","last_reported":1699830377,"current_range_meters":11600,"station_id":"ce4bh412rcd13ifvqds0","pricing_plan_id":"free"},{"bike_id":"545b291d-803c-45ec-b590-7ad10fb6c7ec","system_id":"levelo_inurba_marseille","lat":43.284097,"lon":5.375062,"is_reserved":false,"is_disabled":false,"rental_uris":{"android":"levelo://app?vid=545b291d-803c-45ec-b590-7ad10fb6c7ec","ios":"levelo://app?vid=545b291d-803c-45ec-b590-7ad10fb6c7ec"},"vehicle_type_id":"4","last_reported":1699830377,"current_range_meters":0,"station_id":"ce4bh412rcd13ifvqds0","pricing_plan_id":"free"},{"bike_id":"463f92e7-e461-451b-af33-7e75f101cb39","system_id":"levelo_inurba_marseille","lat":43.286595,"lon":5.386795,"is_reserved":false,"is_disabled":false,"rental_uris":{"android":"levelo://app?vid=463f92e7-e461-451b-af33-7e75f101cb39","ios":"levelo://app?vid=463f92e7-e461-451b-af33-7e75f101cb39"},"vehicle_type_id":"4","last_reported":1699830377,"current_range_meters":3600,"station_id":"ce4bh492rcd13ifvqdug","pricing_plan_id":"free"},{"bike_id":"387e7cb8-84e2-46ee-ac88-5afa6ba18bd5","system_id":"levelo_inurba_marseille","lat":43.286595,"lon":5.386795,"is_reserved":false,"is_disabled":false,"rental_uris":{"android":"levelo://app?vid=387e7cb8-84e2-46ee-ac88-5afa6ba18bd5","ios":"levelo://app?vid=387e7cb8-84e2-46ee-ac88-5afa6ba18bd5"},"vehicle_type_id":"4","last_reported":1699830377,"current_range_meters":29200,"station_id":"ce4bh492rcd13ifvqdug","pricing_plan_id":"free"},{"bike_id":"590d9d02-2045-4e51-9fa4-4aa1722eb0a4","system_id":"levelo_inurba_marseille","lat":43.2859,"lon":5.38544,"is_reserved":false,"is_disabled":false,"rental_uris":{"android":"levelo://app?vid=590d9d02-2045-4e51-9fa4-4aa1722eb0a4","ios":"levelo://app?vid=590d9d02-2045-4e51-9fa4-4aa1722eb0a4"},"vehicle_type_id":"4","last_reported":1699830377,"current_range_meters":11200,"station_id":"","pricing_plan_id":"free"},{"bike_id":"030625bd-f8ba-4389-9944-df2973894a22","system_id":"levelo_inurba_marseille","lat":43.325731,"lon":5.404186,"is_reserved":false,"is_disabled":false,"rental_uris":{"android":"levelo://app?vid=030625bd-f8ba-4389-9944-df2973894a22","ios":"levelo://app?vid=030625bd-f8ba-4389-9944-df2973894a22"},"vehicle_type_id":"4","last_reported":1699830377,"current_range_meters":0,"station_id":"","pricing_plan_id":"free"},{"bike_id":"6be23060-1692-4ac1-9f98-95bdac6f72ad","system_id":"levelo_inurba_marseille","lat":43.33717,"lon":5.391857,"is_reserved":false,"is_disabled":false,"rental_uris":{"android":"levelo://app?vid=6be23060-1692-4ac1-9f98-95bdac6f72ad","ios":"levelo://app?vid=6be23060-1692-4ac1-9f98-95bdac6f72ad"},"vehicle_type_id":"4","last_reported":1699830377,"current_range_meters":28000,"station_id":"ce4bhr92rcd13ifvqhsg","pricing_plan_id":"free"},{"bike_id":"4503e5ea-1820-454f-823b-2b17deb58659","system_id":"levelo_inurba_marseille","lat":43.323464,"lon":5.406297,"is_reserved":false,"is_disabled":false,"rental_uris":{"android":"levelo://app?vid=4503e5ea-1820-454f-823b-2b17deb58659","ios":"levelo://app?vid=4503e5ea-1820-454f-823b-2b17deb58659"},"vehicle_type_id":"4","last_reported":1699830377,"current_range_meters":23200,"station_id":"ce4bhq92rcd13ifvqhjg","pricing_plan_id":"free"},{"bike_id":"44d7f0e1-3bea-442a-98eb-5874baba56d5","system_id":"levelo_inurba_marseille","lat":43.323464,"lon":5.406297,"is_reserved":false,"is_disabled":false,"rental_uris":{"android":"levelo://app?vid=44d7f0e1-3bea-442a-98eb-5874baba56d5","ios":"levelo://app?vid=44d7f0e1-3bea-442a-98eb-5874baba56d5"},"vehicle_type_id":"4","last_reported":1699830377,"current_range_meters":4000,"station_id":"ce4bhq92rcd13ifvqhjg","pricing_plan_id":"free"},{"bike_id":"fd4453ca-443e-40fb-8cb1-027f379fdf21","system_id":"levelo_inurba_marseille","lat":43.33717,"lon":5.391857,"is_reserved":false,"is_disabled":false,"rental_uris":{"android":"levelo://app?vid=fd4453ca-443e-40fb-8cb1-027f379fdf21","ios":"levelo://app?vid=fd4453ca-443e-40fb-8cb1-027f379fdf21"},"vehicle_type_id":"4","last_reported":1699830377,"current_range_meters":31600,"station_id":"ce4bhr92rcd13ifvqhsg","pricing_plan_id":"free"},{"bike_id":"a05047e5-9b4a-4382-be6d-9fe45326345f","system_id":"levelo_inurba_marseille","lat":43.323464,"lon":5.406297,"is_reserved":false,"is_disabled":false,"rental_uris":{"android":"levelo://app?vid=a05047e5-9b4a-4382-be6d-9fe45326345f","ios":"levelo://app?vid=a05047e5-9b4a-4382-be6d-9fe45326345f"},"vehicle_type_id":"4","last_reported":1699830377,"current_range_meters":14000,"station_id":"ce4bhq92rcd13ifvqhjg","pricing_plan_id":"free"},{"bike_id":"cb6c3b62-7d8d-4446-a5ff-308820b3bb5d","system_id":"levelo_inurba_marseille","lat":43.297946,"lon":5.404063,"is_reserved":false,"is_disabled":false,"rental_uris":{"android":"levelo://app?vid=cb6c3b62-7d8d-4446-a5ff-308820b3bb5d","ios":"levelo://app?vid=cb6c3b62-7d8d-4446-a5ff-308820b3bb5d"},"vehicle_type_id":"4","last_reported":1699830377,"current_range_meters":31200,"station_id":"ce4bh112rcd13ifvqd90","pricing_plan_id":"free"},{"bike_id":"5d733c1a-ca95-4171-85c4-54fd87a3c475","system_id":"levelo_inurba_marseille","lat":43.297946,"lon":5.404063,"is_reserved":false,"is_disabled":false,"rental_uris":{"android":"levelo://app?vid=5d733c1a-ca95-4171-85c4-54fd87a3c475","ios":"levelo://app?vid=5d733c1a-ca95-4171-85c4-54fd87a3c475"},"vehicle_type_id":"4","last_reported":1699830377,"current_range_meters":15200,"station_id":"ce4bh112rcd13ifvqd90","pricing_plan_id":"free"},{"bike_id":"694cc18d-6823-481a-9d09-67d990c2d197","system_id":"levelo_inurba_marseille","lat":43.324289,"lon":5.407562,"is_reserved":false,"is_disabled":false,"rental_uris":{"android":"levelo://app?vid=694cc18d-6823-481a-9d09-67d990c2d197","ios":"levelo://app?vid=694cc18d-6823-481a-9d09-67d990c2d197"},"vehicle_type_id":"4","last_reported":1699830377,"current_range_meters":0,"station_id":"","pricing_plan_id":"free"},{"bike_id":"871141dc-4861-4c01-9528-366541572fb0","system_id":"levelo_inurba_marseille","lat":43.282744,"lon":5.350533,"is_reserved":false,"is_disabled":false,"rental_uris":{"android":"levelo://app?vid=871141dc-4861-4c01-9528-366541572fb0","ios":"levelo://app?vid=871141dc-4861-4c01-9528-366541572fb0"},"vehicle_type_id":"4","last_reported":1699830377,"current_range_meters":15200,"station_id":"ce4bhbp2rcd13ifvqerg","pricing_plan_id":"free"},{"bike_id":"ac01859e-e023-48e5-97b0-e5d535d3d8f5","system_id":"levelo_inurba_marseille","lat":43.282744,"lon":5.350533,"is_reserved":false,"is_disabled":false,"rental_uris":{"android":"levelo://app?vid=ac01859e-e023-48e5-97b0-e5d535d3d8f5","ios":"levelo://app?vid=ac01859e-e023-48e5-97b0-e5d535d3d8f5"},"vehicle_type_id":"4","last_reported":1699830377,"current_range_meters":20800,"station_id":"ce4bhbp2rcd13ifvqerg","pricing_plan_id":"free"},{"bike_id":"20daf489-f395-4e72-b1ec-2f99edf28bb3","system_id":"levelo_inurba_marseille","lat":43.280355,"lon":5.36942,"is_reserved":false,"is_disabled":false,"rental_uris":{"android":"levelo://app?vid=20daf489-f395-4e72-b1ec-2f99edf28bb3","ios":"levelo://app?vid=20daf489-f395-4e72-b1ec-2f99edf28bb3"},"vehicle_type_id":"4","last_reported":1699830377,"current_range_meters":4800,"station_id":"ce4bha12rcd13ifvqef0","pricing_plan_id":"free"},{"bike_id":"2d817461-c69a-4cbd-b707-0e4b76b807f8","system_id":"levelo_inurba_marseille","lat":43.281044,"lon":5.378308,"is_reserved":false,"is_disabled":false,"rental_uris":{"android":"levelo://app?vid=2d817461-c69a-4cbd-b707-0e4b76b807f8","ios":"levelo://app?vid=2d817461-c69a-4cbd-b707-0e4b76b807f8"},"vehicle_type_id":"4","last_reported":1699830377,"current_range_meters":31600,"station_id":"ce4bha12rcd13ifvqee0","pricing_plan_id":"free"},{"bike_id":"da922573-24f7-4078-8272-7eba38f186de","system_id":"levelo_inurba_marseille","lat":43.281044,"lon":5.378308,"is_reserved":false,"is_disabled":false,"rental_uris":{"android":"levelo://app?vid=da922573-24f7-4078-8272-7eba38f186de","ios":"levelo://app?vid=da922573-24f7-4078-8272-7eba38f186de"},"vehicle_type_id":"4","last_reported":1699830377,"current_range_meters":8800,"station_id":"ce4bha12rcd13ifvqee0","pricing_plan_id":"free"},{"bike_id":"bf1dda2b-9dd4-4250-8f81-b890a4710215","system_id":"levelo_inurba_marseille","lat":43.281044,"lon":5.378308,"is_reserved":false,"is_disabled":false,"rental_uris":{"android":"levelo://app?vid=bf1dda2b-9dd4-4250-8f81-b890a4710215","ios":"levelo://app?vid=bf1dda2b-9dd4-4250-8f81-b890a4710215"},"vehicle_type_id":"4","last_reported":1699830377,"current_range_meters":30800,"station_id":"ce4bha12rcd13ifvqee0","pricing_plan_id":"free"},{"bike_id":"8a5a8df1-cd7b-4a4f-b199-c40e777058ca","system_id":"levelo_inurba_marseille","lat":43.281044,"lon":5.378308,"is_reserved":false,"is_disabled":false,"rental_uris":{"android":"levelo://app?vid=8a5a8df1-cd7b-4a4f-b199-c40e777058ca","ios":"levelo://app?vid=8a5a8df1-cd7b-4a4f-b199-c40e777058ca"},"vehicle_type_id":"4","last_reported":1699830377,"current_range_meters":24400,"station_id":"ce4bha12rcd13ifvqee0","pricing_plan_id":"free"},{"bike_id":"a559ba1a-05cd-4557-a27a-cbe021c6385a","system_id":"levelo_inurba_marseille","lat":43.281044,"lon":5.378308,"is_reserved":false,"is_disabled":false,"rental_uris":{"android":"levelo://app?vid=a559ba1a-05cd-4557-a27a-cbe021c6385a","ios":"levelo://app?vid=a559ba1a-05cd-4557-a27a-cbe021c6385a"},"vehicle_type_id":"4","last_reported":1699830377,"current_range_meters":31200,"station_id":"ce4bha12rcd13ifvqee0","pricing_plan_id":"free"},{"bike_id":"48c2df0e-d236-4de7-ad2f-282032805888","system_id":"levelo_inurba_marseille","lat":43.281044,"lon":5.378308,"is_reserved":false,"is_disabled":false,"rental_uris":{"android":"levelo://app?vid=48c2df0e-d236-4de7-ad2f-282032805888","ios":"levelo://app?vid=48c2df0e-d236-4de7-ad2f-282032805888"},"vehicle_type_id":"4","last_reported":1699830377,"current_range_meters":28400,"station_id":"ce4bha12rcd13ifvqee0","pricing_plan_id":"free"},{"bike_id":"5798a5b6-5fdb-45b4-9cbb-41f0495d37c9","system_id":"levelo_inurba_marseille","lat":43.281044,"lon":5.378308,"is_reserved":false,"is_disabled":false,"rental_uris":{"android":"levelo://app?vid=5798a5b6-5fdb-45b4-9cbb-41f0495d37c9","ios":"levelo://app?vid=5798a5b6-5fdb-45b4-9cbb-41f0495d37c9"},"vehicle_type_id":"4","last_reported":1699830377,"current_range_meters":30400,"station_id":"ce4bha12rcd13ifvqee0","pricing_plan_id":"free"},{"bike_id":"90556e0c-957f-463f-a467-f770fa4f97d7","system_id":"levelo_inurba_marseille","lat":43.28096,"lon":5.37848,"is_reserved":false,"is_disabled":false,"rental_uris":{"android":"levelo://app?vid=90556e0c-957f-463f-a467-f770fa4f97d7","ios":"levelo://app?vid=90556e0c-957f-463f-a467-f770fa4f97d7"},"vehicle_type_id":"4","last_reported":1699830377,"current_range_meters":31600,"station_id":"ce4bha12rcd13ifvqee0","pricing_plan_id":"free"},{"bike_id":"3c27eeae-e3cc-44c1-a46f-78f53a923e78","system_id":"levelo_inurba_marseille","lat":43.281044,"lon":5.378308,"is_reserved":false,"is_disabled":false,"rental_uris":{"android":"levelo://app?vid=3c27eeae-e3cc-44c1-a46f-78f53a923e78","ios":"levelo://app?vid=3c27eeae-e3cc-44c1-a46f-78f53a923e78"},"vehicle_type_id":"4","last_reported":1699830377,"current_range_meters":27600,"station_id":"ce4bha12rcd13ifvqee0","pricing_plan_id":"free"},{"bike_id":"2d93e3ad-4f91-4709-9f87-d447ebb78ec3","system_id":"levelo_inurba_marseille","lat":43.281044,"lon":5.378308,"is_reserved":false,"is_disabled":false,"rental_uris":{"android":"levelo://app?vid=2d93e3ad-4f91-4709-9f87-d447ebb78ec3","ios":"levelo://app?vid=2d93e3ad-4f91-4709-9f87-d447ebb78ec3"},"vehicle_type_id":"4","last_reported":1699830377,"current_range_meters":30800,"station_id":"ce4bha12rcd13ifvqee0","pricing_plan_id":"free"},{"bike_id":"c5269fde-c094-4163-a2ac-a6350e774e3c","system_id":"levelo_inurba_marseille","lat":43.323447,"lon":5.41003,"is_reserved":false,"is_disabled":false,"rental_uris":{"android":"levelo://app?vid=c5269fde-c094-4163-a2ac-a6350e774e3c","ios":"levelo://app?vid=c5269fde-c094-4163-a2ac-a6350e774e3c"},"vehicle_type_id":"4","last_reported":1699830377,"current_range_meters":0,"station_id":"","pricing_plan_id":"free"},{"bike_id":"ccf9b17e-2fb6-47d5-b5cb-73ea08fcb6e5","system_id":"levelo_inurba_marseille","lat":43.28575,"lon":5.39498,"is_reserved":false,"is_disabled":false,"rental_uris":{"android":"levelo://app?vid=ccf9b17e-2fb6-47d5-b5cb-73ea08fcb6e5","ios":"levelo://app?vid=ccf9b17e-2fb6-47d5-b5cb-73ea08fcb6e5"},"vehicle_type_id":"4","last_reported":1699830377,"current_range_meters":22400,"station_id":"ce4bh292rcd13ifvqdg0","pricing_plan_id":"free"},{"bike_id":"bc8d9225-2c94-455a-8e94-2aa77f63850e","system_id":"levelo_inurba_marseille","lat":43.28573,"lon":5.394992,"is_reserved":false,"is_disabled":false,"rental_uris":{"android":"levelo://app?vid=bc8d9225-2c94-455a-8e94-2aa77f63850e","ios":"levelo://app?vid=bc8d9225-2c94-455a-8e94-2aa77f63850e"},"vehicle_type_id":"4","last_reported":1699830377,"current_range_meters":17600,"station_id":"ce4bh292rcd13ifvqdg0","pricing_plan_id":"free"},{"bike_id":"20b426ae-780d-4a0d-961a-6415c1d2d1a5","system_id":"levelo_inurba_marseille","lat":43.28486,"lon":5.39419,"is_reserved":false,"is_disabled":false,"rental_uris":{"android":"levelo://app?vid=20b426ae-780d-4a0d-961a-6415c1d2d1a5","ios":"levelo://app?vid=20b426ae-780d-4a0d-961a-6415c1d2d1a5"},"vehicle_type_id":"4","last_reported":1699830377,"current_range_meters":0,"station_id":"","pricing_plan_id":"free"},{"bike_id":"01427365-16f3-447e-8b08-58a53891ee73","system_id":"levelo_inurba_marseille","lat":43.304188,"lon":5.412904,"is_reserved":false,"is_disabled":false,"rental_uris":{"android":"levelo://app?vid=01427365-16f3-447e-8b08-58a53891ee73","ios":"levelo://app?vid=01427365-16f3-447e-8b08-58a53891ee73"},"vehicle_type_id":"4","last_reported":1699830377,"current_range_meters":18800,"station_id":"ce4bhop2rcd13ifvqh8g","pricing_plan_id":"free"},{"bike_id":"44f87d45-4c30-4be0-a61d-c795b7b0ad56","system_id":"levelo_inurba_marseille","lat":43.30418,"lon":5.41289,"is_reserved":false,"is_disabled":false,"rental_uris":{"android":"levelo://app?vid=44f87d45-4c30-4be0-a61d-c795b7b0ad56","ios":"levelo://app?vid=44f87d45-4c30-4be0-a61d-c795b7b0ad56"},"vehicle_type_id":"4","last_reported":1699830377,"current_range_meters":0,"station_id":"ce4bhop2rcd13ifvqh8g","pricing_plan_id":"free"},{"bike_id":"ce4ab525-8f51-4974-b41e-25e8ee73f1e1","system_id":"levelo_inurba_marseille","lat":43.27907,"lon":5.38017,"is_reserved":false,"is_disabled":false,"rental_uris":{"android":"levelo://app?vid=ce4ab525-8f51-4974-b41e-25e8ee73f1e1","ios":"levelo://app?vid=ce4ab525-8f51-4974-b41e-25e8ee73f1e1"},"vehicle_type_id":"4","last_reported":1699830377,"current_range_meters":26800,"station_id":"ce4bhf92rcd13ifvqf50","pricing_plan_id":"free"},{"bike_id":"167f5626-01ee-4d32-b651-78683a377263","system_id":"levelo_inurba_marseille","lat":43.279087,"lon":5.380114,"is_reserved":false,"is_disabled":false,"rental_uris":{"android":"levelo://app?vid=167f5626-01ee-4d32-b651-78683a377263","ios":"levelo://app?vid=167f5626-01ee-4d32-b651-78683a377263"},"vehicle_type_id":"4","last_reported":1699830377,"current_range_meters":24800,"station_id":"ce4bhf92rcd13ifvqf50","pricing_plan_id":"free"},{"bike_id":"13021e19-1e9e-401d-86fc-f8ab91519eda","system_id":"levelo_inurba_marseille","lat":43.287154,"lon":5.399979,"is_reserved":false,"is_disabled":false,"rental_uris":{"android":"levelo://app?vid=13021e19-1e9e-401d-86fc-f8ab91519eda","ios":"levelo://app?vid=13021e19-1e9e-401d-86fc-f8ab91519eda"},"vehicle_type_id":"4","last_reported":1699830377,"current_range_meters":31200,"station_id":"ce4bho92rcd13ifvqh3g","pricing_plan_id":"free"},{"bike_id":"88690ce8-ad35-4c36-a05b-dfb0ceea0098","system_id":"levelo_inurba_marseille","lat":43.287154,"lon":5.399979,"is_reserved":false,"is_disabled":false,"rental_uris":{"android":"levelo://app?vid=88690ce8-ad35-4c36-a05b-dfb0ceea0098","ios":"levelo://app?vid=88690ce8-ad35-4c36-a05b-dfb0ceea0098"},"vehicle_type_id":"4","last_reported":1699830377,"current_range_meters":27200,"station_id":"ce4bho92rcd13ifvqh3g","pricing_plan_id":"free"},{"bike_id":"b86223d3-33e6-4a6e-970a-ad846cc0328e","system_id":"levelo_inurba_marseille","lat":43.287154,"lon":5.399979,"is_reserved":false,"is_disabled":false,"rental_uris":{"android":"levelo://app?vid=b86223d3-33e6-4a6e-970a-ad846cc0328e","ios":"levelo://app?vid=b86223d3-33e6-4a6e-970a-ad846cc0328e"},"vehicle_type_id":"4","last_reported":1699830377,"current_range_meters":26800,"station_id":"ce4bho92rcd13ifvqh3g","pricing_plan_id":"free"},{"bike_id":"586011bc-4fa4-4db2-8a52-c20484d6a12e","system_id":"levelo_inurba_marseille","lat":43.287154,"lon":5.399979,"is_reserved":false,"is_disabled":false,"rental_uris":{"android":"levelo://app?vid=586011bc-4fa4-4db2-8a52-c20484d6a12e","ios":"levelo://app?vid=586011bc-4fa4-4db2-8a52-c20484d6a12e"},"vehicle_type_id":"4","last_reported":1699830377,"current_range_meters":10800,"station_id":"ce4bho92rcd13ifvqh3g","pricing_plan_id":"free"},{"bike_id":"3311b625-6faa-4aa7-a8c4-02e9aaf5a09d","system_id":"levelo_inurba_marseille","lat":43.287154,"lon":5.399979,"is_reserved":false,"is_disabled":false,"rental_uris":{"android":"levelo://app?vid=3311b625-6faa-4aa7-a8c4-02e9aaf5a09d","ios":"levelo://app?vid=3311b625-6faa-4aa7-a8c4-02e9aaf5a09d"},"vehicle_type_id":"4","last_reported":1699830377,"current_range_meters":21200,"station_id":"ce4bho92rcd13ifvqh3g","pricing_plan_id":"free"},{"bike_id":"feca28d2-7019-4e39-96be-d7938cc29597","system_id":"levelo_inurba_marseille","lat":43.32435,"lon":5.4137,"is_reserved":false,"is_disabled":false,"rental_uris":{"android":"levelo://app?vid=feca28d2-7019-4e39-96be-d7938cc29597","ios":"levelo://app?vid=feca28d2-7019-4e39-96be-d7938cc29597"},"vehicle_type_id":"4","last_reported":1699830377,"current_range_meters":16000,"station_id":"","pricing_plan_id":"free"},{"bike_id":"15988bd8-c593-4766-a448-17b9550bf979","system_id":"levelo_inurba_marseille","lat":43.299579,"lon":5.413255,"is_reserved":false,"is_disabled":false,"rental_uris":{"android":"levelo://app?vid=15988bd8-c593-4766-a448-17b9550bf979","ios":"levelo://app?vid=15988bd8-c593-4766-a448-17b9550bf979"},"vehicle_type_id":"4","last_reported":1699830377,"current_range_meters":30400,"station_id":"ce4bhp12rcd13ifvqh9g","pricing_plan_id":"free"},{"bike_id":"53059404-70ba-4fa4-8212-a7639c29202a","system_id":"levelo_inurba_marseille","lat":43.299577,"lon":5.413277,"is_reserved":false,"is_disabled":false,"rental_uris":{"android":"levelo://app?vid=53059404-70ba-4fa4-8212-a7639c29202a","ios":"levelo://app?vid=53059404-70ba-4fa4-8212-a7639c29202a"},"vehicle_type_id":"4","last_reported":1699830377,"current_range_meters":29200,"station_id":"ce4bhp12rcd13ifvqh9g","pricing_plan_id":"free"},{"bike_id":"75c4cb73-2709-4a20-a226-62c7651d94cf","system_id":"levelo_inurba_marseille","lat":43.292571,"lon":5.409107,"is_reserved":false,"is_disabled":false,"rental_uris":{"android":"levelo://app?vid=75c4cb73-2709-4a20-a226-62c7651d94cf","ios":"levelo://app?vid=75c4cb73-2709-4a20-a226-62c7651d94cf"},"vehicle_type_id":"4","last_reported":1699830377,"current_range_meters":20800,"station_id":"ce4bh192rcd13ifvqdc0","pricing_plan_id":"free"},{"bike_id":"3d0d2ac2-63f2-4be3-8dcd-14f4b953b5dd","system_id":"levelo_inurba_marseille","lat":43.292569,"lon":5.409107,"is_reserved":false,"is_disabled":false,"rental_uris":{"android":"levelo://app?vid=3d0d2ac2-63f2-4be3-8dcd-14f4b953b5dd","ios":"levelo://app?vid=3d0d2ac2-63f2-4be3-8dcd-14f4b953b5dd"},"vehicle_type_id":"4","last_reported":1699830377,"current_range_meters":31200,"station_id":"ce4bh192rcd13ifvqdc0","pricing_plan_id":"free"},{"bike_id":"ea1c27da-a141-4eeb-a554-8e6c73325bfd","system_id":"levelo_inurba_marseille","lat":43.292569,"lon":5.409107,"is_reserved":false,"is_disabled":false,"rental_uris":{"android":"levelo://app?vid=ea1c27da-a141-4eeb-a554-8e6c73325bfd","ios":"levelo://app?vid=ea1c27da-a141-4eeb-a554-8e6c73325bfd"},"vehicle_type_id":"4","last_reported":1699830377,"current_range_meters":27600,"station_id":"ce4bh192rcd13ifvqdc0","pricing_plan_id":"free"},{"bike_id":"a2a276e3-8fe2-4667-a9da-cf6c0cf54913","system_id":"levelo_inurba_marseille","lat":43.29257,"lon":5.40905,"is_reserved":false,"is_disabled":false,"rental_uris":{"android":"levelo://app?vid=a2a276e3-8fe2-4667-a9da-cf6c0cf54913","ios":"levelo://app?vid=a2a276e3-8fe2-4667-a9da-cf6c0cf54913"},"vehicle_type_id":"4","last_reported":1699830377,"current_range_meters":22000,"station_id":"ce4bh192rcd13ifvqdc0","pricing_plan_id":"free"},{"bike_id":"ce45912e-5cd9-4a80-8e9a-3bfbd3d1b2f3","system_id":"levelo_inurba_marseille","lat":43.292569,"lon":5.409107,"is_reserved":false,"is_disabled":false,"rental_uris":{"android":"levelo://app?vid=ce45912e-5cd9-4a80-8e9a-3bfbd3d1b2f3","ios":"levelo://app?vid=ce45912e-5cd9-4a80-8e9a-3bfbd3d1b2f3"},"vehicle_type_id":"4","last_reported":1699830377,"current_range_meters":31600,"station_id":"ce4bh192rcd13ifvqdc0","pricing_plan_id":"free"},{"bike_id":"1d481ae9-3c24-472d-b3c5-2b0a1dd2fa20","system_id":"levelo_inurba_marseille","lat":43.292569,"lon":5.409107,"is_reserved":false,"is_disabled":false,"rental_uris":{"android":"levelo://app?vid=1d481ae9-3c24-472d-b3c5-2b0a1dd2fa20","ios":"levelo://app?vid=1d481ae9-3c24-472d-b3c5-2b0a1dd2fa20"},"vehicle_type_id":"4","last_reported":1699830377,"current_range_meters":29200,"station_id":"ce4bh192rcd13ifvqdc0","pricing_plan_id":"free"},{"bike_id":"a54e815c-c909-4373-99d0-7ff4a11a8ae6","system_id":"levelo_inurba_marseille","lat":43.292569,"lon":5.409107,"is_reserved":false,"is_disabled":false,"rental_uris":{"android":"levelo://app?vid=a54e815c-c909-4373-99d0-7ff4a11a8ae6","ios":"levelo://app?vid=a54e815c-c909-4373-99d0-7ff4a11a8ae6"},"vehicle_type_id":"4","last_reported":1699830377,"current_range_meters":19600,"station_id":"ce4bh192rcd13ifvqdc0","pricing_plan_id":"free"},{"bike_id":"4fe0fef6-4d53-4b61-95f6-ee752042efda","system_id":"levelo_inurba_marseille","lat":43.292571,"lon":5.409107,"is_reserved":false,"is_disabled":false,"rental_uris":{"android":"levelo://app?vid=4fe0fef6-4d53-4b61-95f6-ee752042efda","ios":"levelo://app?vid=4fe0fef6-4d53-4b61-95f6-ee752042efda"},"vehicle_type_id":"4","last_reported":1699830377,"current_range_meters":24800,"station_id":"ce4bh192rcd13ifvqdc0","pricing_plan_id":"free"},{"bike_id":"a067bbeb-fbec-4eff-bcfc-8a82c8c35bdb","system_id":"levelo_inurba_marseille","lat":43.292571,"lon":5.409107,"is_reserved":false,"is_disabled":false,"rental_uris":{"android":"levelo://app?vid=a067bbeb-fbec-4eff-bcfc-8a82c8c35bdb","ios":"levelo://app?vid=a067bbeb-fbec-4eff-bcfc-8a82c8c35bdb"},"vehicle_type_id":"4","last_reported":1699830377,"current_range_meters":26800,"station_id":"ce4bh192rcd13ifvqdc0","pricing_plan_id":"free"},{"bike_id":"840fbf52-1160-4d44-b302-1422b6ae8669","system_id":"levelo_inurba_marseille","lat":43.325233,"lon":5.414318,"is_reserved":false,"is_disabled":false,"rental_uris":{"android":"levelo://app?vid=840fbf52-1160-4d44-b302-1422b6ae8669","ios":"levelo://app?vid=840fbf52-1160-4d44-b302-1422b6ae8669"},"vehicle_type_id":"4","last_reported":1699830377,"current_range_meters":28800,"station_id":"ce4bhq12rcd13ifvqhhg","pricing_plan_id":"free"},{"bike_id":"503faeb9-cc81-4943-b4b6-46476e46deab","system_id":"levelo_inurba_marseille","lat":43.292569,"lon":5.409107,"is_reserved":false,"is_disabled":false,"rental_uris":{"android":"levelo://app?vid=503faeb9-cc81-4943-b4b6-46476e46deab","ios":"levelo://app?vid=503faeb9-cc81-4943-b4b6-46476e46deab"},"vehicle_type_id":"4","last_reported":1699830377,"current_range_meters":10800,"station_id":"ce4bh192rcd13ifvqdc0","pricing_plan_id":"free"},{"bike_id":"c25cb4c7-6688-4bd0-8ee7-1fae98c6580d","system_id":"levelo_inurba_marseille","lat":43.261782,"lon":5.374515,"is_reserved":false,"is_disabled":false,"rental_uris":{"android":"levelo://app?vid=c25cb4c7-6688-4bd0-8ee7-1fae98c6580d","ios":"levelo://app?vid=c25cb4c7-6688-4bd0-8ee7-1fae98c6580d"},"vehicle_type_id":"4","last_reported":1699830377,"current_range_meters":18000,"station_id":"ce4bhgp2rcd13ifvqfc0","pricing_plan_id":"free"},{"bike_id":"b25748c2-9876-46cc-90ca-ab31f1ff6617","system_id":"levelo_inurba_marseille","lat":43.303837,"lon":5.418724,"is_reserved":false,"is_disabled":false,"rental_uris":{"android":"levelo://app?vid=b25748c2-9876-46cc-90ca-ab31f1ff6617","ios":"levelo://app?vid=b25748c2-9876-46cc-90ca-ab31f1ff6617"},"vehicle_type_id":"4","last_reported":1699830377,"current_range_meters":28000,"station_id":"ce4bhop2rcd13ifvqh7g","pricing_plan_id":"free"},{"bike_id":"eef8964f-aeca-43b8-8dbf-42b22016cf33","system_id":"levelo_inurba_marseille","lat":43.278401,"lon":5.392152,"is_reserved":false,"is_disabled":false,"rental_uris":{"android":"levelo://app?vid=eef8964f-aeca-43b8-8dbf-42b22016cf33","ios":"levelo://app?vid=eef8964f-aeca-43b8-8dbf-42b22016cf33"},"vehicle_type_id":"4","last_reported":1699830377,"current_range_meters":14000,"station_id":"ce4bhjp2rcd13ifvqga0","pricing_plan_id":"free"},{"bike_id":"49695ef2-e6a6-4f51-991d-10b26dc52ea0","system_id":"levelo_inurba_marseille","lat":43.278399,"lon":5.392139,"is_reserved":false,"is_disabled":false,"rental_uris":{"android":"levelo://app?vid=49695ef2-e6a6-4f51-991d-10b26dc52ea0","ios":"levelo://app?vid=49695ef2-e6a6-4f51-991d-10b26dc52ea0"},"vehicle_type_id":"4","last_reported":1699830377,"current_range_meters":28000,"station_id":"ce4bhjp2rcd13ifvqga0","pricing_plan_id":"free"},{"bike_id":"7ff88dac-efc1-4a52-893e-e2079cf6f621","system_id":"levelo_inurba_marseille","lat":43.278401,"lon":5.392152,"is_reserved":false,"is_disabled":false,"rental_uris":{"android":"levelo://app?vid=7ff88dac-efc1-4a52-893e-e2079cf6f621","ios":"levelo://app?vid=7ff88dac-efc1-4a52-893e-e2079cf6f621"},"vehicle_type_id":"4","last_reported":1699830377,"current_range_meters":28000,"station_id":"ce4bhjp2rcd13ifvqga0","pricing_plan_id":"free"},{"bike_id":"6cde9183-24b9-4e21-8977-862b87f65a8f","system_id":"levelo_inurba_marseille","lat":43.273613,"lon":5.362705,"is_reserved":false,"is_disabled":false,"rental_uris":{"android":"levelo://app?vid=6cde9183-24b9-4e21-8977-862b87f65a8f","ios":"levelo://app?vid=6cde9183-24b9-4e21-8977-862b87f65a8f"},"vehicle_type_id":"4","last_reported":1699830377,"current_range_meters":17200,"station_id":"ce4bhbh2rcd13ifvqeo0","pricing_plan_id":"free"},{"bike_id":"1a03c32d-3d2d-43cb-8070-acf14f0401aa","system_id":"levelo_inurba_marseille","lat":43.33612,"lon":5.410321,"is_reserved":false,"is_disabled":false,"rental_uris":{"android":"levelo://app?vid=1a03c32d-3d2d-43cb-8070-acf14f0401aa","ios":"levelo://app?vid=1a03c32d-3d2d-43cb-8070-acf14f0401aa"},"vehicle_type_id":"4","last_reported":1699830377,"current_range_meters":20400,"station_id":"ce4bhqh2rcd13ifvqhmg","pricing_plan_id":"free"},{"bike_id":"305c237c-4046-4763-9a21-fa099ccb5f5e","system_id":"levelo_inurba_marseille","lat":43.336134,"lon":5.410341,"is_reserved":false,"is_disabled":false,"rental_uris":{"android":"levelo://app?vid=305c237c-4046-4763-9a21-fa099ccb5f5e","ios":"levelo://app?vid=305c237c-4046-4763-9a21-fa099ccb5f5e"},"vehicle_type_id":"4","last_reported":1699830377,"current_range_meters":30000,"station_id":"ce4bhqh2rcd13ifvqhmg","pricing_plan_id":"free"},{"bike_id":"56fc6c2c-64c4-4cbc-b368-c965f0c371ee","system_id":"levelo_inurba_marseille","lat":43.295523,"lon":5.422926,"is_reserved":false,"is_disabled":false,"rental_uris":{"android":"levelo://app?vid=56fc6c2c-64c4-4cbc-b368-c965f0c371ee","ios":"levelo://app?vid=56fc6c2c-64c4-4cbc-b368-c965f0c371ee"},"vehicle_type_id":"4","last_reported":1699830377,"current_range_meters":31200,"station_id":"ce4bhph2rcd13ifvqhdg","pricing_plan_id":"free"},{"bike_id":"6bd8ee01-8689-4f6d-87a3-d652b64d0bac","system_id":"levelo_inurba_marseille","lat":43.295511,"lon":5.422926,"is_reserved":false,"is_disabled":false,"rental_uris":{"android":"levelo://app?vid=6bd8ee01-8689-4f6d-87a3-d652b64d0bac","ios":"levelo://app?vid=6bd8ee01-8689-4f6d-87a3-d652b64d0bac"},"vehicle_type_id":"4","last_reported":1699830377,"current_range_meters":23600,"station_id":"ce4bhph2rcd13ifvqhdg","pricing_plan_id":"free"},{"bike_id":"a7451736-5614-46ba-b7bf-a541b03fc9d9","system_id":"levelo_inurba_marseille","lat":43.295511,"lon":5.422926,"is_reserved":false,"is_disabled":false,"rental_uris":{"android":"levelo://app?vid=a7451736-5614-46ba-b7bf-a541b03fc9d9","ios":"levelo://app?vid=a7451736-5614-46ba-b7bf-a541b03fc9d9"},"vehicle_type_id":"4","last_reported":1699830377,"current_range_meters":19600,"station_id":"ce4bhph2rcd13ifvqhdg","pricing_plan_id":"free"},{"bike_id":"fc23ceec-b45a-4766-9c80-384d82439159","system_id":"levelo_inurba_marseille","lat":43.295511,"lon":5.422926,"is_reserved":false,"is_disabled":false,"rental_uris":{"android":"levelo://app?vid=fc23ceec-b45a-4766-9c80-384d82439159","ios":"levelo://app?vid=fc23ceec-b45a-4766-9c80-384d82439159"},"vehicle_type_id":"4","last_reported":1699830377,"current_range_meters":28000,"station_id":"ce4bhph2rcd13ifvqhdg","pricing_plan_id":"free"},{"bike_id":"6d9289d7-7903-4242-90a4-d291f4ed4153","system_id":"levelo_inurba_marseille","lat":43.27216,"lon":5.39256,"is_reserved":false,"is_disabled":false,"rental_uris":{"android":"levelo://app?vid=6d9289d7-7903-4242-90a4-d291f4ed4153","ios":"levelo://app?vid=6d9289d7-7903-4242-90a4-d291f4ed4153"},"vehicle_type_id":"4","last_reported":1699830377,"current_range_meters":10400,"station_id":"","pricing_plan_id":"free"},{"bike_id":"9c86b824-2168-4f46-b290-9c226cef33eb","system_id":"levelo_inurba_marseille","lat":43.27192,"lon":5.39228,"is_reserved":false,"is_disabled":false,"rental_uris":{"android":"levelo://app?vid=9c86b824-2168-4f46-b290-9c226cef33eb","ios":"levelo://app?vid=9c86b824-2168-4f46-b290-9c226cef33eb"},"vehicle_type_id":"4","last_reported":1699830377,"current_range_meters":27200,"station_id":"ce4bhhp2rcd13ifvqfm0","pricing_plan_id":"free"},{"bike_id":"fe75077d-42bf-43ae-8fa2-44109df3d40a","system_id":"levelo_inurba_marseille","lat":43.27203,"lon":5.39295,"is_reserved":false,"is_disabled":false,"rental_uris":{"android":"levelo://app?vid=fe75077d-42bf-43ae-8fa2-44109df3d40a","ios":"levelo://app?vid=fe75077d-42bf-43ae-8fa2-44109df3d40a"},"vehicle_type_id":"4","last_reported":1699830377,"current_range_meters":13600,"station_id":"","pricing_plan_id":"free"},{"bike_id":"fd8a3ce9-c4cb-4565-99cf-2bbbe29b8812","system_id":"levelo_inurba_marseille","lat":43.278128,"lon":5.407195,"is_reserved":false,"is_disabled":false,"rental_uris":{"android":"levelo://app?vid=fd8a3ce9-c4cb-4565-99cf-2bbbe29b8812","ios":"levelo://app?vid=fd8a3ce9-c4cb-4565-99cf-2bbbe29b8812"},"vehicle_type_id":"4","last_reported":1699830377,"current_range_meters":23200,"station_id":"ce4bhnh2rcd13ifvqgtg","pricing_plan_id":"free"},{"bike_id":"713ff605-788c-4c64-a348-2b5dbc300042","system_id":"levelo_inurba_marseille","lat":43.279465,"lon":5.410561,"is_reserved":false,"is_disabled":false,"rental_uris":{"android":"levelo://app?vid=713ff605-788c-4c64-a348-2b5dbc300042","ios":"levelo://app?vid=713ff605-788c-4c64-a348-2b5dbc300042"},"vehicle_type_id":"4","last_reported":1699830377,"current_range_meters":13600,"station_id":"ce4bhnp2rcd13ifvqh0g","pricing_plan_id":"free"},{"bike_id":"f0f8a50f-7b12-4497-888f-209b2c9d2ce0","system_id":"levelo_inurba_marseille","lat":43.25102,"lon":5.403214,"is_reserved":false,"is_disabled":false,"rental_uris":{"android":"levelo://app?vid=f0f8a50f-7b12-4497-888f-209b2c9d2ce0","ios":"levelo://app?vid=f0f8a50f-7b12-4497-888f-209b2c9d2ce0"},"vehicle_type_id":"4","last_reported":1699830377,"current_range_meters":16000,"station_id":"ce4bhlh2rcd13ifvqgig","pricing_plan_id":"free"},{"bike_id":"93eb5247-5b48-47bf-9718-b0b83b911145","system_id":"levelo_inurba_marseille","lat":43.26559,"lon":5.37283,"is_reserved":false,"is_disabled":false,"rental_uris":{"android":"levelo://app?vid=93eb5247-5b48-47bf-9718-b0b83b911145","ios":"levelo://app?vid=93eb5247-5b48-47bf-9718-b0b83b911145"},"vehicle_type_id":"4","last_reported":1699830377,"current_range_meters":4800,"station_id":"ce4bhg12rcd13ifvqf70","pricing_plan_id":"free"},{"bike_id":"1fcb0fd6-00af-4a2a-93f9-7544061d5f90","system_id":"levelo_inurba_marseille","lat":43.26554,"lon":5.37285,"is_reserved":false,"is_disabled":false,"rental_uris":{"android":"levelo://app?vid=1fcb0fd6-00af-4a2a-93f9-7544061d5f90","ios":"levelo://app?vid=1fcb0fd6-00af-4a2a-93f9-7544061d5f90"},"vehicle_type_id":"4","last_reported":1699830377,"current_range_meters":28000,"station_id":"ce4bhg12rcd13ifvqf70","pricing_plan_id":"free"},{"bike_id":"e650b0be-4648-409b-b1d7-57f7b1e675aa","system_id":"levelo_inurba_marseille","lat":43.27997,"lon":5.41659,"is_reserved":false,"is_disabled":false,"rental_uris":{"android":"levelo://app?vid=e650b0be-4648-409b-b1d7-57f7b1e675aa","ios":"levelo://app?vid=e650b0be-4648-409b-b1d7-57f7b1e675aa"},"vehicle_type_id":"4","last_reported":1699830377,"current_range_meters":19600,"station_id":"ce4bho12rcd13ifvqh1g","pricing_plan_id":"free"},{"bike_id":"00131f3d-ce47-4fd3-8f5d-ee8430a2d0d6","system_id":"levelo_inurba_marseille","lat":43.27996,"lon":5.4166,"is_reserved":false,"is_disabled":false,"rental_uris":{"android":"levelo://app?vid=00131f3d-ce47-4fd3-8f5d-ee8430a2d0d6","ios":"levelo://app?vid=00131f3d-ce47-4fd3-8f5d-ee8430a2d0d6"},"vehicle_type_id":"4","last_reported":1699830377,"current_range_meters":800,"station_id":"ce4bho12rcd13ifvqh1g","pricing_plan_id":"free"},{"bike_id":"e5b3c414-b2f0-4a8d-91d3-128d7b7f740b","system_id":"levelo_inurba_marseille","lat":43.27996,"lon":5.416624,"is_reserved":false,"is_disabled":false,"rental_uris":{"android":"levelo://app?vid=e5b3c414-b2f0-4a8d-91d3-128d7b7f740b","ios":"levelo://app?vid=e5b3c414-b2f0-4a8d-91d3-128d7b7f740b"},"vehicle_type_id":"4","last_reported":1699830377,"current_range_meters":19200,"station_id":"ce4bho12rcd13ifvqh1g","pricing_plan_id":"free"},{"bike_id":"6946bbb3-5d70-403e-a878-af2520da657a","system_id":"levelo_inurba_marseille","lat":43.27996,"lon":5.416624,"is_reserved":false,"is_disabled":false,"rental_uris":{"android":"levelo://app?vid=6946bbb3-5d70-403e-a878-af2520da657a","ios":"levelo://app?vid=6946bbb3-5d70-403e-a878-af2520da657a"},"vehicle_type_id":"4","last_reported":1699830377,"current_range_meters":16400,"station_id":"ce4bho12rcd13ifvqh1g","pricing_plan_id":"free"},{"bike_id":"7e26a496-4271-40dc-96b8-e3d8b933a865","system_id":"levelo_inurba_marseille","lat":43.26317,"lon":5.37346,"is_reserved":false,"is_disabled":false,"rental_uris":{"android":"levelo://app?vid=7e26a496-4271-40dc-96b8-e3d8b933a865","ios":"levelo://app?vid=7e26a496-4271-40dc-96b8-e3d8b933a865"},"vehicle_type_id":"4","last_reported":1699830377,"current_range_meters":4000,"station_id":"","pricing_plan_id":"free"},{"bike_id":"575ca992-e936-4074-b7c6-852b3c666dc2","system_id":"levelo_inurba_marseille","lat":43.308051,"lon":5.43527,"is_reserved":false,"is_disabled":false,"rental_uris":{"android":"levelo://app?vid=575ca992-e936-4074-b7c6-852b3c666dc2","ios":"levelo://app?vid=575ca992-e936-4074-b7c6-852b3c666dc2"},"vehicle_type_id":"4","last_reported":1699830377,"current_range_meters":29600,"station_id":"ce4bhph2rcd13ifvqheg","pricing_plan_id":"free"},{"bike_id":"3cd6435e-73c4-437d-937d-95cd1c04e85b","system_id":"levelo_inurba_marseille","lat":43.308051,"lon":5.43527,"is_reserved":false,"is_disabled":false,"rental_uris":{"android":"levelo://app?vid=3cd6435e-73c4-437d-937d-95cd1c04e85b","ios":"levelo://app?vid=3cd6435e-73c4-437d-937d-95cd1c04e85b"},"vehicle_type_id":"4","last_reported":1699830377,"current_range_meters":29600,"station_id":"ce4bhph2rcd13ifvqheg","pricing_plan_id":"free"},{"bike_id":"033771a6-1055-48d2-9826-6454c9f5b3f7","system_id":"levelo_inurba_marseille","lat":43.307946,"lon":5.435294,"is_reserved":false,"is_disabled":false,"rental_uris":{"android":"levelo://app?vid=033771a6-1055-48d2-9826-6454c9f5b3f7","ios":"levelo://app?vid=033771a6-1055-48d2-9826-6454c9f5b3f7"},"vehicle_type_id":"4","last_reported":1699830377,"current_range_meters":0,"station_id":"ce4bhph2rcd13ifvqheg","pricing_plan_id":"free"},{"bike_id":"456193e0-5245-478c-bf36-8ed87394087d","system_id":"levelo_inurba_marseille","lat":43.26943,"lon":5.40244,"is_reserved":false,"is_disabled":false,"rental_uris":{"android":"levelo://app?vid=456193e0-5245-478c-bf36-8ed87394087d","ios":"levelo://app?vid=456193e0-5245-478c-bf36-8ed87394087d"},"vehicle_type_id":"4","last_reported":1699830377,"current_range_meters":800,"station_id":"cjm6bp8fraef2m0cb0m0","pricing_plan_id":"free"},{"bike_id":"2aa6c4b1-a67d-43b7-9eb1-fe5b5bec91bf","system_id":"levelo_inurba_marseille","lat":43.32903,"lon":5.43282,"is_reserved":false,"is_disabled":false,"rental_uris":{"android":"levelo://app?vid=2aa6c4b1-a67d-43b7-9eb1-fe5b5bec91bf","ios":"levelo://app?vid=2aa6c4b1-a67d-43b7-9eb1-fe5b5bec91bf"},"vehicle_type_id":"4","last_reported":1699830377,"current_range_meters":8000,"station_id":"","pricing_plan_id":"free"},{"bike_id":"11ef07b4-1627-4f95-8dd4-864354aa3d59","system_id":"levelo_inurba_marseille","lat":43.261782,"lon":5.374515,"is_reserved":false,"is_disabled":false,"rental_uris":{"android":"levelo://app?vid=11ef07b4-1627-4f95-8dd4-864354aa3d59","ios":"levelo://app?vid=11ef07b4-1627-4f95-8dd4-864354aa3d59"},"vehicle_type_id":"4","last_reported":1699830377,"current_range_meters":10400,"station_id":"ce4bhgp2rcd13ifvqfc0","pricing_plan_id":"free"},{"bike_id":"cfbf6d8d-381c-43fe-9ed8-d6c956f5fbdb","system_id":"levelo_inurba_marseille","lat":43.317104,"lon":5.436818,"is_reserved":false,"is_disabled":false,"rental_uris":{"android":"levelo://app?vid=cfbf6d8d-381c-43fe-9ed8-d6c956f5fbdb","ios":"levelo://app?vid=cfbf6d8d-381c-43fe-9ed8-d6c956f5fbdb"},"vehicle_type_id":"4","last_reported":1699830377,"current_range_meters":28800,"station_id":"ce4bhp92rcd13ifvqhcg","pricing_plan_id":"free"},{"bike_id":"1df80386-2ed8-457c-a1f2-c8c4b78e402e","system_id":"levelo_inurba_marseille","lat":43.271368,"lon":5.40928,"is_reserved":false,"is_disabled":false,"rental_uris":{"android":"levelo://app?vid=1df80386-2ed8-457c-a1f2-c8c4b78e402e","ios":"levelo://app?vid=1df80386-2ed8-457c-a1f2-c8c4b78e402e"},"vehicle_type_id":"4","last_reported":1699830377,"current_range_meters":16400,"station_id":"ce4bhl12rcd13ifvqgf0","pricing_plan_id":"free"},{"bike_id":"37f830c7-7ef2-48bf-a546-636135f99c0d","system_id":"levelo_inurba_marseille","lat":43.271388,"lon":5.409269,"is_reserved":false,"is_disabled":false,"rental_uris":{"android":"levelo://app?vid=37f830c7-7ef2-48bf-a546-636135f99c0d","ios":"levelo://app?vid=37f830c7-7ef2-48bf-a546-636135f99c0d"},"vehicle_type_id":"4","last_reported":1699830377,"current_range_meters":31200,"station_id":"ce4bhl12rcd13ifvqgf0","pricing_plan_id":"free"},{"bike_id":"c200c90b-75de-4678-a659-2fd82a144231","system_id":"levelo_inurba_marseille","lat":43.27177,"lon":5.40997,"is_reserved":false,"is_disabled":false,"rental_uris":{"android":"levelo://app?vid=c200c90b-75de-4678-a659-2fd82a144231","ios":"levelo://app?vid=c200c90b-75de-4678-a659-2fd82a144231"},"vehicle_type_id":"4","last_reported":1699830377,"current_range_meters":1600,"station_id":"ce4bhl12rcd13ifvqgf0","pricing_plan_id":"free"},{"bike_id":"4bafce1b-6629-430f-a5e2-11e2092cea59","system_id":"levelo_inurba_marseille","lat":43.267959,"lon":5.402687,"is_reserved":false,"is_disabled":false,"rental_uris":{"android":"levelo://app?vid=4bafce1b-6629-430f-a5e2-11e2092cea59","ios":"levelo://app?vid=4bafce1b-6629-430f-a5e2-11e2092cea59"},"vehicle_type_id":"4","last_reported":1699830377,"current_range_meters":28400,"station_id":"ce501612rcd8frsf0b60","pricing_plan_id":"free"},{"bike_id":"3a17f1e6-fc5e-4ea6-8e27-5b38260ca458","system_id":"levelo_inurba_marseille","lat":43.267959,"lon":5.402687,"is_reserved":false,"is_disabled":false,"rental_uris":{"android":"levelo://app?vid=3a17f1e6-fc5e-4ea6-8e27-5b38260ca458","ios":"levelo://app?vid=3a17f1e6-fc5e-4ea6-8e27-5b38260ca458"},"vehicle_type_id":"4","last_reported":1699830377,"current_range_meters":30800,"station_id":"ce501612rcd8frsf0b60","pricing_plan_id":"free"},{"bike_id":"a13c7f78-1111-4a67-b445-29e3bdbafa23","system_id":"levelo_inurba_marseille","lat":43.29898,"lon":5.4366,"is_reserved":false,"is_disabled":false,"rental_uris":{"android":"levelo://app?vid=a13c7f78-1111-4a67-b445-29e3bdbafa23","ios":"levelo://app?vid=a13c7f78-1111-4a67-b445-29e3bdbafa23"},"vehicle_type_id":"4","last_reported":1699830377,"current_range_meters":28400,"station_id":"ce4bhpp2rcd13ifvqhfg","pricing_plan_id":"free"},{"bike_id":"40d56399-8859-4a30-8413-a099043eaef7","system_id":"levelo_inurba_marseille","lat":43.298768,"lon":5.43643,"is_reserved":false,"is_disabled":false,"rental_uris":{"android":"levelo://app?vid=40d56399-8859-4a30-8413-a099043eaef7","ios":"levelo://app?vid=40d56399-8859-4a30-8413-a099043eaef7"},"vehicle_type_id":"4","last_reported":1699830377,"current_range_meters":31600,"station_id":"ce4bhpp2rcd13ifvqhfg","pricing_plan_id":"free"},{"bike_id":"d08c6fc3-7536-4924-9b66-edcd071f0100","system_id":"levelo_inurba_marseille","lat":43.298768,"lon":5.43643,"is_reserved":false,"is_disabled":false,"rental_uris":{"android":"levelo://app?vid=d08c6fc3-7536-4924-9b66-edcd071f0100","ios":"levelo://app?vid=d08c6fc3-7536-4924-9b66-edcd071f0100"},"vehicle_type_id":"4","last_reported":1699830377,"current_range_meters":27200,"station_id":"ce4bhpp2rcd13ifvqhfg","pricing_plan_id":"free"},{"bike_id":"4f6880f4-3164-4fc2-9cf7-3c1358040f10","system_id":"levelo_inurba_marseille","lat":43.290501,"lon":5.433305,"is_reserved":false,"is_disabled":false,"rental_uris":{"android":"levelo://app?vid=4f6880f4-3164-4fc2-9cf7-3c1358040f10","ios":"levelo://app?vid=4f6880f4-3164-4fc2-9cf7-3c1358040f10"},"vehicle_type_id":"4","last_reported":1699830377,"current_range_meters":14000,"station_id":"","pricing_plan_id":"free"},{"bike_id":"d17e2b19-1a3f-4f47-9a6d-406879e90be8","system_id":"levelo_inurba_marseille","lat":43.281548,"lon":5.42643,"is_reserved":false,"is_disabled":false,"rental_uris":{"android":"levelo://app?vid=d17e2b19-1a3f-4f47-9a6d-406879e90be8","ios":"levelo://app?vid=d17e2b19-1a3f-4f47-9a6d-406879e90be8"},"vehicle_type_id":"4","last_reported":1699830377,"current_range_meters":17200,"station_id":"ce4bhnh2rcd13ifvqgug","pricing_plan_id":"free"},{"bike_id":"9de9f395-5b36-4425-9837-95ab66dd0cda","system_id":"levelo_inurba_marseille","lat":43.28788,"lon":5.43497,"is_reserved":false,"is_disabled":false,"rental_uris":{"android":"levelo://app?vid=9de9f395-5b36-4425-9837-95ab66dd0cda","ios":"levelo://app?vid=9de9f395-5b36-4425-9837-95ab66dd0cda"},"vehicle_type_id":"4","last_reported":1699830377,"current_range_meters":400,"station_id":"","pricing_plan_id":"free"},{"bike_id":"021cb1bb-d1c8-4317-b2a7-b06a0908c8a0","system_id":"levelo_inurba_marseille","lat":43.26066,"lon":5.39394,"is_reserved":false,"is_disabled":false,"rental_uris":{"android":"levelo://app?vid=021cb1bb-d1c8-4317-b2a7-b06a0908c8a0","ios":"levelo://app?vid=021cb1bb-d1c8-4317-b2a7-b06a0908c8a0"},"vehicle_type_id":"4","last_reported":1699830377,"current_range_meters":0,"station_id":"ce4bhh92rcd13ifvqfj0","pricing_plan_id":"free"},{"bike_id":"28697511-5971-48fb-b83b-4d17441dafdf","system_id":"levelo_inurba_marseille","lat":43.26096,"lon":5.39762,"is_reserved":false,"is_disabled":false,"rental_uris":{"android":"levelo://app?vid=28697511-5971-48fb-b83b-4d17441dafdf","ios":"levelo://app?vid=28697511-5971-48fb-b83b-4d17441dafdf"},"vehicle_type_id":"4","last_reported":1699830377,"current_range_meters":10400,"station_id":"ce4bhi12rcd13ifvqfq0","pricing_plan_id":"free"},{"bike_id":"9620b760-d123-4073-a710-29a11f51fd29","system_id":"levelo_inurba_marseille","lat":43.260909,"lon":5.397591,"is_reserved":false,"is_disabled":false,"rental_uris":{"android":"levelo://app?vid=9620b760-d123-4073-a710-29a11f51fd29","ios":"levelo://app?vid=9620b760-d123-4073-a710-29a11f51fd29"},"vehicle_type_id":"4","last_reported":1699830377,"current_range_meters":16000,"station_id":"ce4bhi12rcd13ifvqfq0","pricing_plan_id":"free"},{"bike_id":"39b50ce2-616e-4d24-9a66-7f25ce523b5d","system_id":"levelo_inurba_marseille","lat":43.27493,"lon":5.42455,"is_reserved":false,"is_disabled":false,"rental_uris":{"android":"levelo://app?vid=39b50ce2-616e-4d24-9a66-7f25ce523b5d","ios":"levelo://app?vid=39b50ce2-616e-4d24-9a66-7f25ce523b5d"},"vehicle_type_id":"4","last_reported":1699830377,"current_range_meters":0,"station_id":"ce4bhn92rcd13ifvqgrg","pricing_plan_id":"free"},{"bike_id":"f2307a4c-7611-4db6-b58a-5736d1e13606","system_id":"levelo_inurba_marseille","lat":43.2583,"lon":5.39434,"is_reserved":false,"is_disabled":false,"rental_uris":{"android":"levelo://app?vid=f2307a4c-7611-4db6-b58a-5736d1e13606","ios":"levelo://app?vid=f2307a4c-7611-4db6-b58a-5736d1e13606"},"vehicle_type_id":"4","last_reported":1699830377,"current_range_meters":19600,"station_id":"ce4bhip2rcd13ifvqft0","pricing_plan_id":"free"},{"bike_id":"e749b187-1493-43b5-9b4b-a6655c7f13be","system_id":"levelo_inurba_marseille","lat":43.250966,"lon":5.395186,"is_reserved":false,"is_disabled":false,"rental_uris":{"android":"levelo://app?vid=e749b187-1493-43b5-9b4b-a6655c7f13be","ios":"levelo://app?vid=e749b187-1493-43b5-9b4b-a6655c7f13be"},"vehicle_type_id":"4","last_reported":1699830377,"current_range_meters":28800,"station_id":"ce4bhm12rcd13ifvqgkg","pricing_plan_id":"free"},{"bike_id":"09fb4565-53dc-4aea-b5c5-1e9781581ac0","system_id":"levelo_inurba_marseille","lat":43.258224,"lon":5.394369,"is_reserved":false,"is_disabled":false,"rental_uris":{"android":"levelo://app?vid=09fb4565-53dc-4aea-b5c5-1e9781581ac0","ios":"levelo://app?vid=09fb4565-53dc-4aea-b5c5-1e9781581ac0"},"vehicle_type_id":"4","last_reported":1699830377,"current_range_meters":31200,"station_id":"ce4bhip2rcd13ifvqft0","pricing_plan_id":"free"},{"bike_id":"69e90556-1136-4b9d-af9a-8e7cc2ceace7","system_id":"levelo_inurba_marseille","lat":43.258224,"lon":5.394369,"is_reserved":false,"is_disabled":false,"rental_uris":{"android":"levelo://app?vid=69e90556-1136-4b9d-af9a-8e7cc2ceace7","ios":"levelo://app?vid=69e90556-1136-4b9d-af9a-8e7cc2ceace7"},"vehicle_type_id":"4","last_reported":1699830377,"current_range_meters":15600,"station_id":"ce4bhip2rcd13ifvqft0","pricing_plan_id":"free"},{"bike_id":"d1be4948-3db8-46c6-a0e9-4eb9877553a6","system_id":"levelo_inurba_marseille","lat":43.25498,"lon":5.37655,"is_reserved":false,"is_disabled":false,"rental_uris":{"android":"levelo://app?vid=d1be4948-3db8-46c6-a0e9-4eb9877553a6","ios":"levelo://app?vid=d1be4948-3db8-46c6-a0e9-4eb9877553a6"},"vehicle_type_id":"4","last_reported":1699830377,"current_range_meters":18000,"station_id":"ce4bhh12rcd13ifvqff0","pricing_plan_id":"free"},{"bike_id":"a3f392c7-0237-49bf-956d-e4eab6a40fe6","system_id":"levelo_inurba_marseille","lat":43.254947,"lon":5.376454,"is_reserved":false,"is_disabled":false,"rental_uris":{"android":"levelo://app?vid=a3f392c7-0237-49bf-956d-e4eab6a40fe6","ios":"levelo://app?vid=a3f392c7-0237-49bf-956d-e4eab6a40fe6"},"vehicle_type_id":"4","last_reported":1699830377,"current_range_meters":30400,"station_id":"ce4bhh12rcd13ifvqff0","pricing_plan_id":"free"},{"bike_id":"7be61170-977c-4b27-9684-7da9cf08375b","system_id":"levelo_inurba_marseille","lat":43.254947,"lon":5.376454,"is_reserved":false,"is_disabled":false,"rental_uris":{"android":"levelo://app?vid=7be61170-977c-4b27-9684-7da9cf08375b","ios":"levelo://app?vid=7be61170-977c-4b27-9684-7da9cf08375b"},"vehicle_type_id":"4","last_reported":1699830377,"current_range_meters":11200,"station_id":"ce4bhh12rcd13ifvqff0","pricing_plan_id":"free"},{"bike_id":"cce421c9-cbad-426a-b834-a86a3411f32e","system_id":"levelo_inurba_marseille","lat":43.259009,"lon":5.40929,"is_reserved":false,"is_disabled":false,"rental_uris":{"android":"levelo://app?vid=cce421c9-cbad-426a-b834-a86a3411f32e","ios":"levelo://app?vid=cce421c9-cbad-426a-b834-a86a3411f32e"},"vehicle_type_id":"4","last_reported":1699830377,"current_range_meters":6400,"station_id":"ce4bhm92rcd13ifvqglg","pricing_plan_id":"free"},{"bike_id":"7db02a47-f10e-4ef9-b04e-f8faa3c33cca","system_id":"levelo_inurba_marseille","lat":43.25937,"lon":5.4091,"is_reserved":false,"is_disabled":false,"rental_uris":{"android":"levelo://app?vid=7db02a47-f10e-4ef9-b04e-f8faa3c33cca","ios":"levelo://app?vid=7db02a47-f10e-4ef9-b04e-f8faa3c33cca"},"vehicle_type_id":"4","last_reported":1699830377,"current_range_meters":20800,"station_id":"ce4bhm92rcd13ifvqglg","pricing_plan_id":"free"},{"bike_id":"61eb8050-b458-46cd-83ba-67a164399a1d","system_id":"levelo_inurba_marseille","lat":43.257079,"lon":5.411051,"is_reserved":false,"is_disabled":false,"rental_uris":{"android":"levelo://app?vid=61eb8050-b458-46cd-83ba-67a164399a1d","ios":"levelo://app?vid=61eb8050-b458-46cd-83ba-67a164399a1d"},"vehicle_type_id":"4","last_reported":1699830377,"current_range_meters":26800,"station_id":"ce4bhkp2rcd13ifvqgd0","pricing_plan_id":"free"},{"bike_id":"6f9b9015-4dd3-410d-9043-5ab950160ca2","system_id":"levelo_inurba_marseille","lat":43.250009,"lon":5.389195,"is_reserved":false,"is_disabled":false,"rental_uris":{"android":"levelo://app?vid=6f9b9015-4dd3-410d-9043-5ab950160ca2","ios":"levelo://app?vid=6f9b9015-4dd3-410d-9043-5ab950160ca2"},"vehicle_type_id":"4","last_reported":1699830377,"current_range_meters":21600,"station_id":"ce4bhgp2rcd13ifvqfd0","pricing_plan_id":"free"},{"bike_id":"62fa1369-a457-41b6-8335-4717139987b4","system_id":"levelo_inurba_marseille","lat":43.250889,"lon":5.395172,"is_reserved":false,"is_disabled":false,"rental_uris":{"android":"levelo://app?vid=62fa1369-a457-41b6-8335-4717139987b4","ios":"levelo://app?vid=62fa1369-a457-41b6-8335-4717139987b4"},"vehicle_type_id":"4","last_reported":1699830377,"current_range_meters":19200,"station_id":"ce4bhm12rcd13ifvqgkg","pricing_plan_id":"free"},{"bike_id":"684b13d1-fe6f-4f2d-b1c8-13bd8d03bc75","system_id":"levelo_inurba_marseille","lat":43.24668,"lon":5.38171,"is_reserved":false,"is_disabled":false,"rental_uris":{"android":"levelo://app?vid=684b13d1-fe6f-4f2d-b1c8-13bd8d03bc75","ios":"levelo://app?vid=684b13d1-fe6f-4f2d-b1c8-13bd8d03bc75"},"vehicle_type_id":"4","last_reported":1699830377,"current_range_meters":30000,"station_id":"ce4bhih2rcd13ifvqfr0","pricing_plan_id":"free"},