{"last_updated":1716235671,"ttl":30,"version":"2.2","data":{"bikes":[{"bike_id":"c95c7c57-9631-4fb9-a0bd-e0d4de09593e","system_id":"levelo_inurba_marseille","lat":43.313391,"lon":5.36706,"is_reserved":false,"is_disabled":false,"rental_uris":{"android":"levelo://app?vid=c95c7c57-9631-4fb9-a0bd-e0d4de09593e","ios":"levelo://app?vid=c95c7c57-9631-4fb9-a0bd-e0d4de09593e"},"vehicle_type_id":"4","last_reported":1716235671,"current_range_meters":12000,"station_id":"ce4bgr92rcd13ifvqc6g","pricing_plan_id":"cebpf4jnsgd1na2vs0mg"},{"bike_id":"5cc450e5-2ef1-4d45-b074-c29844a15f3c","system_id":"levelo_inurba_marseille","lat":43.312239,"lon":5.368562,"is_reserved":false,"is_disabled":false,"rental_uris":{"android":"levelo://app?vid=5cc450e5-2ef1-4d45-b074-c29844a15f3c","ios":"levelo://app?vid=5cc450e5-2ef1-4d45-b074-c29844a15f3c"},"vehicle_type_id":"4","last_reported":1716235671,"current_range_meters":9600,"station_id":"ce4bgl92rcd13ifvqbq0","pricing_plan_id":"cebpf4jnsgd1na2vs0mg"},{"bike_id":"daa61f29-b38e-498f-a9aa-0fdedae27b7b","system_id":"levelo_inurba_marseille","lat":43.312239,"lon":5.368562,"is_reserved":false,"is_disabled":false,"rental_uris":{"android":"levelo://app?vid=daa61f29-b38e-498f-a9aa-0fdedae27b7b","ios":"levelo://app?vid=daa61f29-b38e-498f-a9aa-0fdedae27b7b"},"vehicle_type_id":"4","last_reported":1716235671,"current_range_meters":12400,"station_id":"ce4bgl92rcd13ifvqbq0","pricing_plan_id":"cebpf4jnsgd1na2vs0mg"},{"bike_id":"d1fc999b-4798-4fe7-bef8-0a00b3c92146","system_id":"levelo_inurba_marseille","lat":43.312239,"lon":5.368562,"is_reserved":false,"is_disabled":false,"rental_uris":{"android":"levelo://app?vid=d1fc999b-4798-4fe7-bef8-0a00b3c92146","ios":"levelo://app?vid=d1fc999b-4798-4fe7-bef8-0a00b3c92146"},"vehicle_type_id":"4","last_reported":1716235671,"current_range_meters":1200,"station_id":"ce4bgl92rcd13ifvqbq0","pricing_plan_id":"cebpf4jnsgd1na2vs0mg"},{"bike_id":"36c79c2b-efc2-442c-8223-e63d004a54ba","system_id":"levelo_inurba_marseille","lat":43.312239,"lon":5.368562,"is_reserved":false,"is_disabled":false,"rental_uris":{"android":"levelo://app?vid=36c79c2b-efc2-442c-8223-e63d004a54ba","ios":"levelo://app?vid=36c79c2b-efc2-442c-8223-e63d004a54ba"},"vehicle_type_id":"4","last_reported":1716235671,"current_range_meters":800,"station_id":"ce4bgl92rcd13ifvqbq0","pricing_plan_id":"cebpf4jnsgd1na2vs0mg"},{"bike_id":"a038e371-1564-4690-9fca-7fab107858d8","system_id":"levelo_inurba_marseille","lat":43.312239,"lon":5.368562,"is_reserved":false,"is_disabled":false,"rental_uris":{"android":"levelo://app?vid=a038e371-1564-4690-9fca-7fab107858d8","ios":"levelo://app?vid=a038e371-1564-4690-9fca-7fab107858d8"},"vehicle_type_id":"4","last_reported":1716235671,"current_range_meters":400,"station_id":"ce4bgl92rcd13ifvqbq0","pricing_plan_id":"cebpf4jnsgd1na2vs0mg"},{"bike_id":"a392a47f-9744-48bb-99f3-7a26df099201","system_id":"levelo_inurba_marseille","lat":43.311996,"lon":5.368442,"is_reserved":false,"is_disabled":false,"rental_uris":{"android":"levelo://app?vid=a392a47f-9744-48bb-99f3-7a26df099201","ios":"levelo://app?vid=a392a47f-9744-48bb-99f3-7a26df099201"},"vehicle_type_id":"4","last_reported":1716235671,"current_range_meters":9600,"station_id":"ce4bgl92rcd13ifvqbq0","pricing_plan_id":"cebpf4jnsgd1na2vs0mg"},{"bike_id":"1b9b0074-aff1-4c76-a0db-3d2b4e95dc13","system_id":"levelo_inurba_marseille","lat":43.31217,"lon":5.36861,"is_reserved":false,"is_disabled":false,"rental_uris":{"android":"levelo://app?vid=1b9b0074-aff1-4c76-a0db-3d2b4e95dc13","ios":"levelo://app?vid=1b9b0074-aff1-4c76-a0db-3d2b4e95dc13"},"vehicle_type_id":"4","last_reported":1716235671,"current_range_meters":2800,"station_id":"ce4bgl92rcd13ifvqbq0","pricing_plan_id":"cebpf4jnsgd1na2vs0mg"},{"bike_id":"7c49968b-5660-4c22-bbf3-4c1f8be62d30","system_id":"levelo_inurba_marseille","lat":43.312239,"lon":5.368562,"is_reserved":false,"is_disabled":false,"rental_uris":{"android":"levelo://app?vid=7c49968b-5660-4c22-bbf3-4c1f8be62d30","ios":"levelo://app?vid=7c49968b-5660-4c22-bbf3-4c1f8be62d30"},"vehicle_type_id":"4","last_reported":1716235671,"current_range_meters":3200,"station_id":"ce4bgl92rcd13ifvqbq0","pricing_plan_id":"cebpf4jnsgd1na2vs0mg"},{"bike_id":"a27cda88-c78f-4cda-97dd-a34539eee823","system_id":"levelo_inurba_marseille","lat":43.312239,"lon":5.368562,"is_reserved":false,"is_disabled":false,"rental_uris":{"android":"levelo://app?vid=a27cda88-c78f-4cda-97dd-a34539eee823","ios":"levelo://app?vid=a27cda88-c78f-4cda-97dd-a34539eee823"},"vehicle_type_id":"4","last_reported":1716235671,"current_range_meters":15200,"station_id":"ce4bgl92rcd13ifvqbq0","pricing_plan_id":"cebpf4jnsgd1na2vs0mg"},{"bike_id":"ab3d66a1-12f6-4ea7-952f-6cad01a2fc6e","system_id":"levelo_inurba_marseille","lat":43.309076,"lon":5.368465,"is_reserved":false,"is_disabled":false,"rental_uris":{"android":"levelo://app?vid=ab3d66a1-12f6-4ea7-952f-6cad01a2fc6e","ios":"levelo://app?vid=ab3d66a1-12f6-4ea7-952f-6cad01a2fc6e"},"vehicle_type_id":"4","last_reported":1716235671,"current_range_meters":13600,"station_id":"ce4bgn92rcd13ifvqbvg","pricing_plan_id":"cebpf4jnsgd1na2vs0mg"},{"bike_id":"bbb5e49b-695c-4045-a3e1-026cdbd70d2f","system_id":"levelo_inurba_marseille","lat":43.309076,"lon":5.368465,"is_reserved":false,"is_disabled":false,"rental_uris":{"android":"levelo://app?vid=bbb5e49b-695c-4045-a3e1-026cdbd70d2f","ios":"levelo://app?vid=bbb5e49b-695c-4045-a3e1-026cdbd70d2f"},"vehicle_type_id":"4","last_reported":1716235671,"current_range_meters":8000,"station_id":"ce4bgn92rcd13ifvqbvg","pricing_plan_id":"cebpf4jnsgd1na2vs0mg"},{"bike_id":"e5a8bf6e-909a-4fed-9182-70c594766d64","system_id":"levelo_inurba_marseille","lat":43.309076,"lon":5.368465,"is_reserved":false,"is_disabled":false,"rental_uris":{"android":"levelo://app?vid=e5a8bf6e-909a-4fed-9182-70c594766d64","ios":"levelo://app?vid=e5a8bf6e-909a-4fed-9182-70c594766d64"},"vehicle_type_id":"4","last_reported":1716235671,"current_range_meters":8400,"station_id":"ce4bgn92rcd13ifvqbvg","pricing_plan_id":"cebpf4jnsgd1na2vs0mg"},{"bike_id":"c662a90b-2667-4cb1-a408-d3a70db59c26","system_id":"levelo_inurba_marseille","lat":43.309076,"lon":5.368465,"is_reserved":false,"is_disabled":false,"rental_uris":{"android":"levelo://app?vid=c662a90b-2667-4cb1-a408-d3a70db59c26","ios":"levelo://app?vid=c662a90b-2667-4cb1-a408-d3a70db59c26"},"vehicle_type_id":"4","last_reported":1716235671,"current_range_meters":29600,"station_id":"ce4bgn92rcd13ifvqbvg","pricing_plan_id":"cebpf4jnsgd1na2vs0mg"},{"bike_id":"d708bf73-474b-4e0f-8818-399d8592c219","system_id":"levelo_inurba_marseille","lat":43.309447,"lon":5.370842,"is_reserved":false,"is_disabled":false,"rental_uris":{"android":"levelo://app?vid=d708bf73-474b-4e0f-8818-399d8592c219","ios":"levelo://app?vid=d708bf73-474b-4e0f-8818-399d8592c219"},"vehicle_type_id":"4","last_reported":1716235671,"current_range_meters":4800,"station_id":"","pricing_plan_id":"cebpf4jnsgd1na2vs0mg"},{"bike_id":"2c6f10aa-92c7-4543-b858-99d7bfc09c32","system_id":"levelo_inurba_marseille","lat":43.314811,"lon":5.373103,"is_reserved":false,"is_disabled":false,"rental_uris":{"android":"levelo://app?vid=2c6f10aa-92c7-4543-b858-99d7bfc09c32","ios":"levelo://app?vid=2c6f10aa-92c7-4543-b858-99d7bfc09c32"},"vehicle_type_id":"4","last_reported":1716235671,"current_range_meters":13600,"station_id":"ce4bgt12rcd13ifvqcd0","pricing_plan_id":"cebpf4jnsgd1na2vs0mg"},{"bike_id":"f546551d-60a6-4a83-8f09-47479d0df0e3","system_id":"levelo_inurba_marseille","lat":43.309039,"lon":5.371797,"is_reserved":false,"is_disabled":false,"rental_uris":{"android":"levelo://app?vid=f546551d-60a6-4a83-8f09-47479d0df0e3","ios":"levelo://app?vid=f546551d-60a6-4a83-8f09-47479d0df0e3"},"vehicle_type_id":"4","last_reported":1716235671,"current_range_meters":18400,"station_id":"ce4bguh2rcd13ifvqckg","pricing_plan_id":"cebpf4jnsgd1na2vs0mg"},{"bike_id":"f63271e8-0c25-464a-85b9-51f8e59df3ff","system_id":"levelo_inurba_marseille","lat":43.314811,"lon":5.373103,"is_reserved":false,"is_disabled":false,"rental_uris":{"android":"levelo://app?vid=f63271e8-0c25-464a-85b9-51f8e59df3ff","ios":"levelo://app?vid=f63271e8-0c25-464a-85b9-51f8e59df3ff"},"vehicle_type_id":"4","last_reported":1716235671,"current_range_meters":2000,"station_id":"ce4bgt12rcd13ifvqcd0","pricing_plan_id":"cebpf4jnsgd1na2vs0mg"},{"bike_id":"6e0ef2da-05d0-43af-8d6a-f167c2cbee14","system_id":"levelo_inurba_marseille","lat":43.309039,"lon":5.371797,"is_reserved":false,"is_disabled":false,"rental_uris":{"android":"levelo://app?vid=6e0ef2da-05d0-43af-8d6a-f167c2cbee14","ios":"levelo://app?vid=6e0ef2da-05d0-43af-8d6a-f167c2cbee14"},"vehicle_type_id":"4","last_reported":1716235671,"current_range_meters":5600,"station_id":"ce4bguh2rcd13ifvqckg","pricing_plan_id":"cebpf4jnsgd1na2vs0mg"},{"bike_id":"e4632e7a-2deb-48a7-808d-6c5307f12802","system_id":"levelo_inurba_marseille","lat":43.31672,"lon":5.3722,"is_reserved":false,"is_disabled":false,"rental_uris":{"android":"levelo://app?vid=e4632e7a-2deb-48a7-808d-6c5307f12802","ios":"levelo://app?vid=e4632e7a-2deb-48a7-808d-6c5307f12802"},"vehicle_type_id":"4","last_reported":1716235671,"current_range_meters":17600,"station_id":"","pricing_plan_id":"cebpf4jnsgd1na2vs0mg"},{"bike_id":"c5475b79-ba31-4c85-bb68-4a0e798c5d37","system_id":"levelo_inurba_marseille","lat":43.30661,"lon":5.368875,"is_reserved":false,"is_disabled":false,"rental_uris":{"android":"levelo://app?vid=c5475b79-ba31-4c85-bb68-4a0e798c5d37","ios":"levelo://app?vid=c5475b79-ba31-4c85-bb68-4a0e798c5d37"},"vehicle_type_id":"4","last_reported":1716235671,"current_range_meters":21200,"station_id":"","pricing_plan_id":"cebpf4jnsgd1na2vs0mg"},{"bike_id":"e5577bd6-b6ca-4418-b56b-8f101921a3cb","system_id":"levelo_inurba_marseille","lat":43.305712,"lon":5.365641,"is_reserved":false,"is_disabled":false,"rental_uris":{"android":"levelo://app?vid=e5577bd6-b6ca-4418-b56b-8f101921a3cb","ios":"levelo://app?vid=e5577bd6-b6ca-4418-b56b-8f101921a3cb"},"vehicle_type_id":"4","last_reported":1716235671,"current_range_meters":2000,"station_id":"ce4bgs12rcd13ifvqcag","pricing_plan_id":"cebpf4jnsgd1na2vs0mg"},{"bike_id":"6e054a2d-fec8-4e6f-85d5-a94481591460","system_id":"levelo_inurba_marseille","lat":43.318395,"lon":5.373519,"is_reserved":false,"is_disabled":false,"rental_uris":{"android":"levelo://app?vid=6e054a2d-fec8-4e6f-85d5-a94481591460","ios":"levelo://app?vid=6e054a2d-fec8-4e6f-85d5-a94481591460"},"vehicle_type_id":"4","last_reported":1716235671,"current_range_meters":30400,"station_id":"","pricing_plan_id":"cebpf4jnsgd1na2vs0mg"},{"bike_id":"cb64b8f5-702b-4ff1-bf28-4600f91fa4c6","system_id":"levelo_inurba_marseille","lat":43.30537,"lon":5.367345,"is_reserved":false,"is_disabled":false,"rental_uris":{"android":"levelo://app?vid=cb64b8f5-702b-4ff1-bf28-4600f91fa4c6","ios":"levelo://app?vid=cb64b8f5-702b-4ff1-bf28-4600f91fa4c6"},"vehicle_type_id":"4","last_reported":1716235671,"current_range_meters":0,"station_id":"ce4bgrp2rcd13ifvqc9g","pricing_plan_id":"cebpf4jnsgd1na2vs0mg"},{"bike_id":"261f641c-11c1-4c9e-b8be-123cafa0ed9c","system_id":"levelo_inurba_marseille","lat":43.311131,"lon":5.377651,"is_reserved":false,"is_disabled":false,"rental_uris":{"android":"levelo://app?vid=261f641c-11c1-4c9e-b8be-123cafa0ed9c","ios":"levelo://app?vid=261f641c-11c1-4c9e-b8be-123cafa0ed9c"},"vehicle_type_id":"4","last_reported":1716235671,"current_range_meters":2400,"station_id":"ce4bgt92rcd13ifvqcg0","pricing_plan_id":"cebpf4jnsgd1na2vs0mg"},{"bike_id":"91ec5478-1cac-4b78-b218-ac61e6d9a0af","system_id":"levelo_inurba_marseille","lat":43.311131,"lon":5.377651,"is_reserved":false,"is_disabled":false,"rental_uris":{"android":"levelo://app?vid=91ec5478-1cac-4b78-b218-ac61e6d9a0af","ios":"levelo://app?vid=91ec5478-1cac-4b78-b218-ac61e6d9a0af"},"vehicle_type_id":"4","last_reported":1716235671,"current_range_meters":29200,"station_id":"ce4bgt92rcd13ifvqcg0","pricing_plan_id":"cebpf4jnsgd1na2vs0mg"},{"bike_id":"13df1cc1-97e5-4e15-948c-0e0ebc772cee","system_id":"levelo_inurba_marseille","lat":43.311125,"lon":5.377624,"is_reserved":false,"is_disabled":false,"rental_uris":{"android":"levelo://app?vid=13df1cc1-97e5-4e15-948c-0e0ebc772cee","ios":"levelo://app?vid=13df1cc1-97e5-4e15-948c-0e0ebc772cee"},"vehicle_type_id":"4","last_reported":1716235671,"current_range_meters":30400,"station_id":"ce4bgt92rcd13ifvqcg0","pricing_plan_id":"cebpf4jnsgd1na2vs0mg"},{"bike_id":"4aed50b3-14e6-4c16-bf4a-562412ee672c","system_id":"levelo_inurba_marseille","lat":43.307945,"lon":5.376487,"is_reserved":false,"is_disabled":false,"rental_uris":{"android":"levelo://app?vid=4aed50b3-14e6-4c16-bf4a-562412ee672c","ios":"levelo://app?vid=4aed50b3-14e6-4c16-bf4a-562412ee672c"},"vehicle_type_id":"4","last_reported":1716235671,"current_range_meters":22400,"station_id":"ce4bgv92rcd13ifvqcq0","pricing_plan_id":"cebpf4jnsgd1na2vs0mg"},{"bike_id":"8104f661-1076-4125-8501-5b606a7c45f2","system_id":"levelo_inurba_marseille","lat":43.307945,"lon":5.376487,"is_reserved":false,"is_disabled":false,"rental_uris":{"android":"levelo://app?vid=8104f661-1076-4125-8501-5b606a7c45f2","ios":"levelo://app?vid=8104f661-1076-4125-8501-5b606a7c45f2"},"vehicle_type_id":"4","last_reported":1716235671,"current_range_meters":0,"station_id":"ce4bgv92rcd13ifvqcq0","pricing_plan_id":"cebpf4jnsgd1na2vs0mg"},{"bike_id":"d50ac615-3fb0-4570-9667-9099c4fdee1f","system_id":"levelo_inurba_marseille","lat":43.307945,"lon":5.376487,"is_reserved":false,"is_disabled":false,"rental_uris":{"android":"levelo://app?vid=d50ac615-3fb0-4570-9667-9099c4fdee1f","ios":"levelo://app?vid=d50ac615-3fb0-4570-9667-9099c4fdee1f"},"vehicle_type_id":"4","last_reported":1716235671,"current_range_meters":18000,"station_id":"ce4bgv92rcd13ifvqcq0","pricing_plan_id":"cebpf4jnsgd1na2vs0mg"},{"bike_id":"0228e0b2-26e6-44a7-a7c5-d840e01c3c89","system_id":"levelo_inurba_marseille","lat":43.307945,"lon":5.376487,"is_reserved":false,"is_disabled":false,"rental_uris":{"android":"levelo://app?vid=0228e0b2-26e6-44a7-a7c5-d840e01c3c89","ios":"levelo://app?vid=0228e0b2-26e6-44a7-a7c5-d840e01c3c89"},"vehicle_type_id":"4","last_reported":1716235671,"current_range_meters":22400,"station_id":"ce4bgv92rcd13ifvqcq0","pricing_plan_id":"cebpf4jnsgd1na2vs0mg"},{"bike_id":"64923f40-89d5-4795-bf16-e5419f1d81d2","system_id":"levelo_inurba_marseille","lat":43.307945,"lon":5.376487,"is_reserved":false,"is_disabled":false,"rental_uris":{"android":"levelo://app?vid=64923f40-89d5-4795-bf16-e5419f1d81d2","ios":"levelo://app?vid=64923f40-89d5-4795-bf16-e5419f1d81d2"},"vehicle_type_id":"4","last_reported":1716235671,"current_range_meters":17600,"station_id":"ce4bgv92rcd13ifvqcq0","pricing_plan_id":"cebpf4jnsgd1na2vs0mg"},{"bike_id":"bad6f265-d313-4080-9207-0fa43c575b5b","system_id":"levelo_inurba_marseille","lat":43.307753,"lon":5.376491,"is_reserved":false,"is_disabled":false,"rental_uris":{"android":"levelo://app?vid=bad6f265-d313-4080-9207-0fa43c575b5b","ios":"levelo://app?vid=bad6f265-d313-4080-9207-0fa43c575b5b"},"vehicle_type_id":"4","last_reported":1716235671,"current_range_meters":24000,"station_id":"ce4bgv92rcd13ifvqcq0","pricing_plan_id":"cebpf4jnsgd1na2vs0mg"},{"bike_id":"5e1ff359-4fa7-44e2-a2ad-7fbcae02427a","system_id":"levelo_inurba_marseille","lat":43.30789,"lon":5.37663,"is_reserved":false,"is_disabled":false,"rental_uris":{"android":"levelo://app?vid=5e1ff359-4fa7-44e2-a2ad-7fbcae02427a","ios":"levelo://app?vid=5e1ff359-4fa7-44e2-a2ad-7fbcae02427a"},"vehicle_type_id":"4","last_reported":1716235671,"current_range_meters":18800,"station_id":"ce4bgv92rcd13ifvqcq0","pricing_plan_id":"cebpf4jnsgd1na2vs0mg"},{"bike_id":"a6cfe265-af35-49a7-b843-03ed6aed098d","system_id":"levelo_inurba_marseille","lat":43.317075,"lon":5.377367,"is_reserved":false,"is_disabled":false,"rental_uris":{"android":"levelo://app?vid=a6cfe265-af35-49a7-b843-03ed6aed098d","ios":"levelo://app?vid=a6cfe265-af35-49a7-b843-03ed6aed098d"},"vehicle_type_id":"4","last_reported":1716235671,"current_range_meters":6000,"station_id":"ce4bgth2rcd13ifvqch0","pricing_plan_id":"cebpf4jnsgd1na2vs0mg"},{"bike_id":"3db07f7e-360c-41ea-af7c-b5b05a16423a","system_id":"levelo_inurba_marseille","lat":43.317075,"lon":5.377367,"is_reserved":false,"is_disabled":false,"rental_uris":{"android":"levelo://app?vid=3db07f7e-360c-41ea-af7c-b5b05a16423a","ios":"levelo://app?vid=3db07f7e-360c-41ea-af7c-b5b05a16423a"},"vehicle_type_id":"4","last_reported":1716235671,"current_range_meters":9600,"station_id":"ce4bgth2rcd13ifvqch0","pricing_plan_id":"cebpf4jnsgd1na2vs0mg"},{"bike_id":"5a726de4-20a7-45df-854a-6b7c858b1d79","system_id":"levelo_inurba_marseille","lat":43.308012,"lon":5.381511,"is_reserved":false,"is_disabled":false,"rental_uris":{"android":"levelo://app?vid=5a726de4-20a7-45df-854a-6b7c858b1d79","ios":"levelo://app?vid=5a726de4-20a7-45df-854a-6b7c858b1d79"},"vehicle_type_id":"4","last_reported":1716235671,"current_range_meters":4400,"station_id":"ce4bgt12rcd13ifvqce0","pricing_plan_id":"cebpf4jnsgd1na2vs0mg"},{"bike_id":"79f6ce24-1393-4167-b356-96aaa14637d9","system_id":"levelo_inurba_marseille","lat":43.316384,"lon":5.379954,"is_reserved":false,"is_disabled":false,"rental_uris":{"android":"levelo://app?vid=79f6ce24-1393-4167-b356-96aaa14637d9","ios":"levelo://app?vid=79f6ce24-1393-4167-b356-96aaa14637d9"},"vehicle_type_id":"4","last_reported":1716235671,"current_range_meters":14000,"station_id":"","pricing_plan_id":"cebpf4jnsgd1na2vs0mg"},{"bike_id":"9e4723eb-76a5-4cbe-a969-46595c5b773a","system_id":"levelo_inurba_marseille","lat":43.301939,"lon":5.366286,"is_reserved":false,"is_disabled":false,"rental_uris":{"android":"levelo://app?vid=9e4723eb-76a5-4cbe-a969-46595c5b773a","ios":"levelo://app?vid=9e4723eb-76a5-4cbe-a969-46595c5b773a"},"vehicle_type_id":"4","last_reported":1716235671,"current_range_meters":4000,"station_id":"ce4bgrh2rcd13ifvqc8g","pricing_plan_id":"cebpf4jnsgd1na2vs0mg"},{"bike_id":"87a382c3-5128-4be4-ace5-e47747dbc87b","system_id":"levelo_inurba_marseille","lat":43.308012,"lon":5.381511,"is_reserved":false,"is_disabled":false,"rental_uris":{"android":"levelo://app?vid=87a382c3-5128-4be4-ace5-e47747dbc87b","ios":"levelo://app?vid=87a382c3-5128-4be4-ace5-e47747dbc87b"},"vehicle_type_id":"4","last_reported":1716235671,"current_range_meters":2400,"station_id":"ce4bgt12rcd13ifvqce0","pricing_plan_id":"cebpf4jnsgd1na2vs0mg"},{"bike_id":"58dbd84f-2d92-4e09-9fa4-28bb801b229a","system_id":"levelo_inurba_marseille","lat":43.308012,"lon":5.381511,"is_reserved":false,"is_disabled":false,"rental_uris":{"android":"levelo://app?vid=58dbd84f-2d92-4e09-9fa4-28bb801b229a","ios":"levelo://app?vid=58dbd84f-2d92-4e09-9fa4-28bb801b229a"},"vehicle_type_id":"4","last_reported":1716235671,"current_range_meters":0,"station_id":"ce4bgt12rcd13ifvqce0","pricing_plan_id":"cebpf4jnsgd1na2vs0mg"},{"bike_id":"f5a40247-d87b-4952-b902-b0945ddc366c","system_id":"levelo_inurba_marseille","lat":43.308012,"lon":5.381511,"is_reserved":false,"is_disabled":false,"rental_uris":{"android":"levelo://app?vid=f5a40247-d87b-4952-b902-b0945ddc366c","ios":"levelo://app?vid=f5a40247-d87b-4952-b902-b0945ddc366c"},"vehicle_type_id":"4","last_reported":1716235671,"current_range_meters":4000,"station_id":"ce4bgt12rcd13ifvqce0","pricing_plan_id":"cebpf4jnsgd1na2vs0mg"},{"bike_id":"bf71d70a-95a0-4d53-896d-97ad56f497b7","system_id":"levelo_inurba_marseille","lat":43.308012,"lon":5.381511,"is_reserved":false,"is_disabled":false,"rental_uris":{"android":"levelo://app?vid=bf71d70a-95a0-4d53-896d-97ad56f497b7","ios":"levelo://app?vid=bf71d70a-95a0-4d53-896d-97ad56f497b7"},"vehicle_type_id":"4","last_reported":1716235671,"current_range_meters":4800,"station_id":"ce4bgt12rcd13ifvqce0","pricing_plan_id":"cebpf4jnsgd1na2vs0mg"},{"bike_id":"e7672a27-c1d4-4e65-8bfc-37f47b79eca9","system_id":"levelo_inurba_marseille","lat":43.308012,"lon":5.381511,"is_reserved":false,"is_disabled":false,"rental_uris":{"android":"levelo://app?vid=e7672a27-c1d4-4e65-8bfc-37f47b79eca9","ios":"levelo://app?vid=e7672a27-c1d4-4e65-8bfc-37f47b79eca9"},"vehicle_type_id":"4","last_reported":1716235671,"current_range_meters":24400,"station_id":"ce4bgt12rcd13ifvqce0","pricing_plan_id":"cebpf4jnsgd1na2vs0mg"},{"bike_id":"e36756b5-b2b4-4815-99a0-0fa9c171d444","system_id":"levelo_inurba_marseille","lat":43.308012,"lon":5.381511,"is_reserved":false,"is_disabled":false,"rental_uris":{"android":"levelo://app?vid=e36756b5-b2b4-4815-99a0-0fa9c171d444","ios":"levelo://app?vid=e36756b5-b2b4-4815-99a0-0fa9c171d444"},"vehicle_type_id":"4","last_reported":1716235671,"current_range_meters":4800,"station_id":"ce4bgt12rcd13ifvqce0","pricing_plan_id":"cebpf4jnsgd1na2vs0mg"},{"bike_id":"a9851f12-66d4-461c-8846-33d04e23ca99","system_id":"levelo_inurba_marseille","lat":43.308012,"lon":5.381511,"is_reserved":false,"is_disabled":false,"rental_uris":{"android":"levelo://app?vid=a9851f12-66d4-461c-8846-33d04e23ca99","ios":"levelo://app?vid=a9851f12-66d4-461c-8846-33d04e23ca99"},"vehicle_type_id":"4","last_reported":1716235671,"current_range_meters":5200,"station_id":"ce4bgt12rcd13ifvqce0","pricing_plan_id":"cebpf4jnsgd1na2vs0mg"},{"bike_id":"b5d40948-b9f2-47e4-b663-3ddfc3c18df4","system_id":"levelo_inurba_marseille","lat":43.308012,"lon":5.381511,"is_reserved":false,"is_disabled":false,"rental_uris":{"android":"levelo://app?vid=b5d40948-b9f2-47e4-b663-3ddfc3c18df4","ios":"levelo://app?vid=b5d40948-b9f2-47e4-b663-3ddfc3c18df4"},"vehicle_type_id":"4","last_reported":1716235671,"current_range_meters":23200,"station_id":"ce4bgt12rcd13ifvqce0","pricing_plan_id":"cebpf4jnsgd1na2vs0mg"},{"bike_id":"a400baf3-1b19-434f-863d-bf89133fbef1","system_id":"levelo_inurba_marseille","lat":43.287154,"lon":5.399979,"is_reserved":false,"is_disabled":false,"rental_uris":{"android":"levelo://app?vid=a400baf3-1b19-434f-863d-bf89133fbef1","ios":"levelo://app?vid=a400baf3-1b19-434f-863d-bf89133fbef1"},"vehicle_type_id":"4","last_reported":1716235671,"current_range_meters":18800,"station_id":"ce4bho92rcd13ifvqh3g","pricing_plan_id":"cebpf4jnsgd1na2vs0mg"},{"bike_id":"03b2d0ac-4855-463a-a2f0-be21041dc802","system_id":"levelo_inurba_marseille","lat":43.304606,"lon":5.379026,"is_reserved":false,"is_disabled":false,"rental_uris":{"android":"levelo://app?vid=03b2d0ac-4855-463a-a2f0-be21041dc802","ios":"levelo://app?vid=03b2d0ac-4855-463a-a2f0-be21041dc802"},"vehicle_type_id":"4","last_reported":1716235671,"current_range_meters":28400,"station_id":"ce4bgup2rcd13ifvqcn0","pricing_plan_id":"cebpf4jnsgd1na2vs0mg"},{"bike_id":"b7627703-57ce-4c18-8803-07f6034065d6","system_id":"levelo_inurba_marseille","lat":43.308012,"lon":5.381511,"is_reserved":false,"is_disabled":false,"rental_uris":{"android":"levelo://app?vid=b7627703-57ce-4c18-8803-07f6034065d6","ios":"levelo://app?vid=b7627703-57ce-4c18-8803-07f6034065d6"},"vehicle_type_id":"4","last_reported":1716235671,"current_range_meters":18800,"station_id":"ce4bgt12rcd13ifvqce0","pricing_plan_id":"cebpf4jnsgd1na2vs0mg"},{"bike_id":"e62a8dbb-0e96-4059-a8d9-965708fb5f1e","system_id":"levelo_inurba_marseille","lat":43.324771,"lon":5.36557,"is_reserved":false,"is_disabled":false,"rental_uris":{"android":"levelo://app?vid=e62a8dbb-0e96-4059-a8d9-965708fb5f1e","ios":"levelo://app?vid=e62a8dbb-0e96-4059-a8d9-965708fb5f1e"},"vehicle_type_id":"4","last_reported":1716235671,"current_range_meters":12400,"station_id":"ce4bhs12rcd13ifvqhvg","pricing_plan_id":"cebpf4jnsgd1na2vs0mg"},{"bike_id":"ec35004e-cd23-4d19-8b19-e9db1012251f","system_id":"levelo_inurba_marseille","lat":43.324771,"lon":5.36557,"is_reserved":false,"is_disabled":false,"rental_uris":{"android":"levelo://app?vid=ec35004e-cd23-4d19-8b19-e9db1012251f","ios":"levelo://app?vid=ec35004e-cd23-4d19-8b19-e9db1012251f"},"vehicle_type_id":"4","last_reported":1716235671,"current_range_meters":2000,"station_id":"ce4bhs12rcd13ifvqhvg","pricing_plan_id":"cebpf4jnsgd1na2vs0mg"},{"bike_id":"44d8488e-db9e-4b63-861a-5959e6ab647b","system_id":"levelo_inurba_marseille","lat":43.324771,"lon":5.36557,"is_reserved":false,"is_disabled":false,"rental_uris":{"android":"levelo://app?vid=44d8488e-db9e-4b63-861a-5959e6ab647b","ios":"levelo://app?vid=44d8488e-db9e-4b63-861a-5959e6ab647b"},"vehicle_type_id":"4","last_reported":1716235671,"current_range_meters":7200,"station_id":"ce4bhs12rcd13ifvqhvg","pricing_plan_id":"cebpf4jnsgd1na2vs0mg"},{"bike_id":"7118c79d-2b19-4ddb-a8d5-6a373303c839","system_id":"levelo_inurba_marseille","lat":43.324771,"lon":5.36557,"is_reserved":false,"is_disabled":false,"rental_uris":{"android":"levelo://app?vid=7118c79d-2b19-4ddb-a8d5-6a373303c839","ios":"levelo://app?vid=7118c79d-2b19-4ddb-a8d5-6a373303c839"},"vehicle_type_id":"4","last_reported":1716235671,"current_range_meters":18400,"station_id":"ce4bhs12rcd13ifvqhvg","pricing_plan_id":"cebpf4jnsgd1na2vs0mg"},{"bike_id":"0dd97c26-11f4-41b6-8a12-71b4006f110c","system_id":"levelo_inurba_marseille","lat":43.324771,"lon":5.36557,"is_reserved":false,"is_disabled":false,"rental_uris":{"android":"levelo://app?vid=0dd97c26-11f4-41b6-8a12-71b4006f110c","ios":"levelo://app?vid=0dd97c26-11f4-41b6-8a12-71b4006f110c"},"vehicle_type_id":"4","last_reported":1716235671,"current_range_meters":4000,"station_id":"ce4bhs12rcd13ifvqhvg","pricing_plan_id":"cebpf4jnsgd1na2vs0mg"},{"bike_id":"e47bcb64-aec4-4fcd-96fc-83ec348237d4","system_id":"levelo_inurba_marseille","lat":43.324771,"lon":5.36557,"is_reserved":false,"is_disabled":false,"rental_uris":{"android":"levelo://app?vid=e47bcb64-aec4-4fcd-96fc-83ec348237d4","ios":"levelo://app?vid=e47bcb64-aec4-4fcd-96fc-83ec348237d4"},"vehicle_type_id":"4","last_reported":1716235671,"current_range_meters":20800,"station_id":"ce4bhs12rcd13ifvqhvg","pricing_plan_id":"cebpf4jnsgd1na2vs0mg"},{"bike_id":"b99aa1e8-09cd-4123-9ef7-7c407553b0f6","system_id":"levelo_inurba_marseille","lat":43.324771,"lon":5.36557,"is_reserved":false,"is_disabled":false,"rental_uris":{"android":"levelo://app?vid=b99aa1e8-09cd-4123-9ef7-7c407553b0f6","ios":"levelo://app?vid=b99aa1e8-09cd-4123-9ef7-7c407553b0f6"},"vehicle_type_id":"4","last_reported":1716235671,"current_range_meters":18800,"station_id":"ce4bhs12rcd13ifvqhvg","pricing_plan_id":"cebpf4jnsgd1na2vs0mg"},{"bike_id":"15619fa8-6a3e-49a4-a4eb-33ce7d274f9c","system_id":"levelo_inurba_marseille","lat":43.310804,"lon":5.38359,"is_reserved":false,"is_disabled":false,"rental_uris":{"android":"levelo://app?vid=15619fa8-6a3e-49a4-a4eb-33ce7d274f9c","ios":"levelo://app?vid=15619fa8-6a3e-49a4-a4eb-33ce7d274f9c"},"vehicle_type_id":"4","last_reported":1716235671,"current_range_meters":19600,"station_id":"ce4bgv92rcd13ifvqcr0","pricing_plan_id":"cebpf4jnsgd1na2vs0mg"},{"bike_id":"64ac31c0-9fd4-45a3-b155-d4ce7b4f67ae","system_id":"levelo_inurba_marseille","lat":43.30143,"lon":5.37413,"is_reserved":false,"is_disabled":false,"rental_uris":{"android":"levelo://app?vid=64ac31c0-9fd4-45a3-b155-d4ce7b4f67ae","ios":"levelo://app?vid=64ac31c0-9fd4-45a3-b155-d4ce7b4f67ae"},"vehicle_type_id":"4","last_reported":1716235671,"current_range_meters":31200,"station_id":"ce4bgs92rcd13ifvqcc0","pricing_plan_id":"cebpf4jnsgd1na2vs0mg"},{"bike_id":"b2567934-18fa-4795-93c7-10b1b33198e1","system_id":"levelo_inurba_marseille","lat":43.301389,"lon":5.374218,"is_reserved":false,"is_disabled":false,"rental_uris":{"android":"levelo://app?vid=b2567934-18fa-4795-93c7-10b1b33198e1","ios":"levelo://app?vid=b2567934-18fa-4795-93c7-10b1b33198e1"},"vehicle_type_id":"4","last_reported":1716235671,"current_range_meters":15600,"station_id":"ce4bgs92rcd13ifvqcc0","pricing_plan_id":"cebpf4jnsgd1na2vs0mg"},{"bike_id":"7339168f-69f4-4a05-afea-c26a6a047607","system_id":"levelo_inurba_marseille","lat":43.319935,"lon":5.381699,"is_reserved":false,"is_disabled":false,"rental_uris":{"android":"levelo://app?vid=7339168f-69f4-4a05-afea-c26a6a047607","ios":"levelo://app?vid=7339168f-69f4-4a05-afea-c26a6a047607"},"vehicle_type_id":"4","last_reported":1716235671,"current_range_meters":10400,"station_id":"ce4bhr12rcd13ifvqhpg","pricing_plan_id":"cebpf4jnsgd1na2vs0mg"},{"bike_id":"f9893ce7-1c1d-4bde-9d9f-21eb5d299e2b","system_id":"levelo_inurba_marseille","lat":43.319935,"lon":5.381699,"is_reserved":false,"is_disabled":false,"rental_uris":{"android":"levelo://app?vid=f9893ce7-1c1d-4bde-9d9f-21eb5d299e2b","ios":"levelo://app?vid=f9893ce7-1c1d-4bde-9d9f-21eb5d299e2b"},"vehicle_type_id":"4","last_reported":1716235671,"current_range_meters":0,"station_id":"ce4bhr12rcd13ifvqhpg","pricing_plan_id":"cebpf4jnsgd1na2vs0mg"},{"bike_id":"ff80956a-2cb3-4f80-b5fd-ba5b3e5db0d8","system_id":"levelo_inurba_marseille","lat":43.313571,"lon":5.384829,"is_reserved":false,"is_disabled":false,"rental_uris":{"android":"levelo://app?vid=ff80956a-2cb3-4f80-b5fd-ba5b3e5db0d8","ios":"levelo://app?vid=ff80956a-2cb3-4f80-b5fd-ba5b3e5db0d8"},"vehicle_type_id":"4","last_reported":1716235671,"current_range_meters":22000,"station_id":"ce4bgt92rcd13ifvqcf0","pricing_plan_id":"cebpf4jnsgd1na2vs0mg"},{"bike_id":"c4d84a78-2a61-4199-b246-ec5a28ae8e90","system_id":"levelo_inurba_marseille","lat":43.29985,"lon":5.37168,"is_reserved":false,"is_disabled":false,"rental_uris":{"android":"levelo://app?vid=c4d84a78-2a61-4199-b246-ec5a28ae8e90","ios":"levelo://app?vid=c4d84a78-2a61-4199-b246-ec5a28ae8e90"},"vehicle_type_id":"4","last_reported":1716235671,"current_range_meters":12800,"station_id":"ce4bgr92rcd13ifvqc7g","pricing_plan_id":"cebpf4jnsgd1na2vs0mg"},{"bike_id":"d811ae23-9564-47c1-9249-10f0f4eb173d","system_id":"levelo_inurba_marseille","lat":43.299222,"lon":5.365554,"is_reserved":false,"is_disabled":false,"rental_uris":{"android":"levelo://app?vid=d811ae23-9564-47c1-9249-10f0f4eb173d","ios":"levelo://app?vid=d811ae23-9564-47c1-9249-10f0f4eb173d"},"vehicle_type_id":"4","last_reported":1716235671,"current_range_meters":9600,"station_id":"ce4bgm92rcd13ifvqbr0","pricing_plan_id":"cebpf4jnsgd1na2vs0mg"},{"bike_id":"ecdbddf4-935e-47ba-a0c1-2bb6bad4dc9f","system_id":"levelo_inurba_marseille","lat":43.299724,"lon":5.371829,"is_reserved":false,"is_disabled":false,"rental_uris":{"android":"levelo://app?vid=ecdbddf4-935e-47ba-a0c1-2bb6bad4dc9f","ios":"levelo://app?vid=ecdbddf4-935e-47ba-a0c1-2bb6bad4dc9f"},"vehicle_type_id":"4","last_reported":1716235671,"current_range_meters":14000,"station_id":"ce4bgr92rcd13ifvqc7g","pricing_plan_id":"cebpf4jnsgd1na2vs0mg"},{"bike_id":"d08195e2-7761-4675-bea0-8c8d2142dcfe","system_id":"levelo_inurba_marseille","lat":43.29978,"lon":5.37196,"is_reserved":false,"is_disabled":false,"rental_uris":{"android":"levelo://app?vid=d08195e2-7761-4675-bea0-8c8d2142dcfe","ios":"levelo://app?vid=d08195e2-7761-4675-bea0-8c8d2142dcfe"},"vehicle_type_id":"4","last_reported":1716235671,"current_range_meters":7200,"station_id":"ce4bgr92rcd13ifvqc7g","pricing_plan_id":"cebpf4jnsgd1na2vs0mg"},{"bike_id":"dfc45fd6-e659-4bc8-a462-bd1cd4d84cbc","system_id":"levelo_inurba_marseille","lat":43.299724,"lon":5.371829,"is_reserved":false,"is_disabled":false,"rental_uris":{"android":"levelo://app?vid=dfc45fd6-e659-4bc8-a462-bd1cd4d84cbc","ios":"levelo://app?vid=dfc45fd6-e659-4bc8-a462-bd1cd4d84cbc"},"vehicle_type_id":"4","last_reported":1716235671,"current_range_meters":1600,"station_id":"ce4bgr92rcd13ifvqc7g","pricing_plan_id":"cebpf4jnsgd1na2vs0mg"},{"bike_id":"5192488f-8549-448d-b87e-6250e29976da","system_id":"levelo_inurba_marseille","lat":43.299724,"lon":5.371829,"is_reserved":false,"is_disabled":false,"rental_uris":{"android":"levelo://app?vid=5192488f-8549-448d-b87e-6250e29976da","ios":"levelo://app?vid=5192488f-8549-448d-b87e-6250e29976da"},"vehicle_type_id":"4","last_reported":1716235671,"current_range_meters":0,"station_id":"ce4bgr92rcd13ifvqc7g","pricing_plan_id":"cebpf4jnsgd1na2vs0mg"},{"bike_id":"e0c79ae9-2428-45a4-93cc-7eaa19875710","system_id":"levelo_inurba_marseille","lat":43.311722,"lon":5.387247,"is_reserved":false,"is_disabled":false,"rental_uris":{"android":"levelo://app?vid=e0c79ae9-2428-45a4-93cc-7eaa19875710","ios":"levelo://app?vid=e0c79ae9-2428-45a4-93cc-7eaa19875710"},"vehicle_type_id":"4","last_reported":1716235671,"current_range_meters":14000,"station_id":"ce4bgv12rcd13ifvqcp0","pricing_plan_id":"cebpf4jnsgd1na2vs0mg"},{"bike_id":"85e9d17c-b219-410a-bdda-ef47e9b309e0","system_id":"levelo_inurba_marseille","lat":43.311722,"lon":5.387247,"is_reserved":false,"is_disabled":false,"rental_uris":{"android":"levelo://app?vid=85e9d17c-b219-410a-bdda-ef47e9b309e0","ios":"levelo://app?vid=85e9d17c-b219-410a-bdda-ef47e9b309e0"},"vehicle_type_id":"4","last_reported":1716235671,"current_range_meters":19200,"station_id":"ce4bgv12rcd13ifvqcp0","pricing_plan_id":"cebpf4jnsgd1na2vs0mg"},{"bike_id":"b2798377-2264-41c2-b799-281aa55a9061","system_id":"levelo_inurba_marseille","lat":43.311722,"lon":5.387247,"is_reserved":false,"is_disabled":false,"rental_uris":{"android":"levelo://app?vid=b2798377-2264-41c2-b799-281aa55a9061","ios":"levelo://app?vid=b2798377-2264-41c2-b799-281aa55a9061"},"vehicle_type_id":"4","last_reported":1716235671,"current_range_meters":5600,"station_id":"ce4bgv12rcd13ifvqcp0","pricing_plan_id":"cebpf4jnsgd1na2vs0mg"},{"bike_id":"a38c3530-7458-4f90-af54-4d6377cccd27","system_id":"levelo_inurba_marseille","lat":43.299243,"lon":5.37481,"is_reserved":false,"is_disabled":false,"rental_uris":{"android":"levelo://app?vid=a38c3530-7458-4f90-af54-4d6377cccd27","ios":"levelo://app?vid=a38c3530-7458-4f90-af54-4d6377cccd27"},"vehicle_type_id":"4","last_reported":1716235671,"current_range_meters":22400,"station_id":"ce4bgjh2rcd13ifvqbg0","pricing_plan_id":"cebpf4jnsgd1na2vs0mg"},{"bike_id":"feb3ce99-0c04-4694-b02b-9334282d6142","system_id":"levelo_inurba_marseille","lat":43.311722,"lon":5.387247,"is_reserved":false,"is_disabled":false,"rental_uris":{"android":"levelo://app?vid=feb3ce99-0c04-4694-b02b-9334282d6142","ios":"levelo://app?vid=feb3ce99-0c04-4694-b02b-9334282d6142"},"vehicle_type_id":"4","last_reported":1716235671,"current_range_meters":0,"station_id":"ce4bgv12rcd13ifvqcp0","pricing_plan_id":"cebpf4jnsgd1na2vs0mg"},{"bike_id":"4db12bb2-047c-428a-addf-22fa2d72f822","system_id":"levelo_inurba_marseille","lat":43.297774,"lon":5.370875,"is_reserved":false,"is_disabled":false,"rental_uris":{"android":"levelo://app?vid=4db12bb2-047c-428a-addf-22fa2d72f822","ios":"levelo://app?vid=4db12bb2-047c-428a-addf-22fa2d72f822"},"vehicle_type_id":"4","last_reported":1716235671,"current_range_meters":30000,"station_id":"ce4bgop2rcd13ifvqc1g","pricing_plan_id":"cebpf4jnsgd1na2vs0mg"},{"bike_id":"ed492a4e-944e-43b3-bd26-4581a8e6f7a8","system_id":"levelo_inurba_marseille","lat":43.297794,"lon":5.370888,"is_reserved":false,"is_disabled":false,"rental_uris":{"android":"levelo://app?vid=ed492a4e-944e-43b3-bd26-4581a8e6f7a8","ios":"levelo://app?vid=ed492a4e-944e-43b3-bd26-4581a8e6f7a8"},"vehicle_type_id":"4","last_reported":1716235671,"current_range_meters":30400,"station_id":"ce4bgop2rcd13ifvqc1g","pricing_plan_id":"cebpf4jnsgd1na2vs0mg"},{"bike_id":"d8da685b-9d7c-433f-a975-1473e901d5bf","system_id":"levelo_inurba_marseille","lat":43.322872,"lon":5.382756,"is_reserved":false,"is_disabled":false,"rental_uris":{"android":"levelo://app?vid=d8da685b-9d7c-433f-a975-1473e901d5bf","ios":"levelo://app?vid=d8da685b-9d7c-433f-a975-1473e901d5bf"},"vehicle_type_id":"4","last_reported":1716235671,"current_range_meters":6800,"station_id":"ce4bhr12rcd13ifvqhqg","pricing_plan_id":"cebpf4jnsgd1na2vs0mg"},{"bike_id":"d39db37c-9f78-4b03-a1c5-3ec323bb42fe","system_id":"levelo_inurba_marseille","lat":43.322906,"lon":5.382636,"is_reserved":false,"is_disabled":false,"rental_uris":{"android":"levelo://app?vid=d39db37c-9f78-4b03-a1c5-3ec323bb42fe","ios":"levelo://app?vid=d39db37c-9f78-4b03-a1c5-3ec323bb42fe"},"vehicle_type_id":"4","last_reported":1716235671,"current_range_meters":5600,"station_id":"ce4bhr12rcd13ifvqhqg","pricing_plan_id":"cebpf4jnsgd1na2vs0mg"},{"bike_id":"b488fd65-bd5a-457c-b330-5026f2e0d6ea","system_id":"levelo_inurba_marseille","lat":43.322872,"lon":5.382756,"is_reserved":false,"is_disabled":false,"rental_uris":{"android":"levelo://app?vid=b488fd65-bd5a-457c-b330-5026f2e0d6ea","ios":"levelo://app?vid=b488fd65-bd5a-457c-b330-5026f2e0d6ea"},"vehicle_type_id":"4","last_reported":1716235671,"current_range_meters":22400,"station_id":"ce4bhr12rcd13ifvqhqg","pricing_plan_id":"cebpf4jnsgd1na2vs0mg"},{"bike_id":"16f66172-cfd1-4966-8e04-6218a5cde7c9","system_id":"levelo_inurba_marseille","lat":43.32287,"lon":5.38282,"is_reserved":false,"is_disabled":false,"rental_uris":{"android":"levelo://app?vid=16f66172-cfd1-4966-8e04-6218a5cde7c9","ios":"levelo://app?vid=16f66172-cfd1-4966-8e04-6218a5cde7c9"},"vehicle_type_id":"4","last_reported":1716235671,"current_range_meters":400,"station_id":"ce4bhr12rcd13ifvqhqg","pricing_plan_id":"cebpf4jnsgd1na2vs0mg"},{"bike_id":"c67fe492-8c66-4e0f-b450-e2efa3b5948a","system_id":"levelo_inurba_marseille","lat":43.322872,"lon":5.382756,"is_reserved":false,"is_disabled":false,"rental_uris":{"android":"levelo://app?vid=c67fe492-8c66-4e0f-b450-e2efa3b5948a","ios":"levelo://app?vid=c67fe492-8c66-4e0f-b450-e2efa3b5948a"},"vehicle_type_id":"4","last_reported":1716235671,"current_range_meters":32000,"station_id":"ce4bhr12rcd13ifvqhqg","pricing_plan_id":"cebpf4jnsgd1na2vs0mg"},{"bike_id":"d69697d9-a7f5-4486-974b-dd9fd4768a96","system_id":"levelo_inurba_marseille","lat":43.297163,"lon":5.365866,"is_reserved":false,"is_disabled":false,"rental_uris":{"android":"levelo://app?vid=d69697d9-a7f5-4486-974b-dd9fd4768a96","ios":"levelo://app?vid=d69697d9-a7f5-4486-974b-dd9fd4768a96"},"vehicle_type_id":"4","last_reported":1716235671,"current_range_meters":12000,"station_id":"ce4bgn12rcd13ifvqbt0","pricing_plan_id":"cebpf4jnsgd1na2vs0mg"},{"bike_id":"ca636206-b096-4a14-9fe1-70ee93ca08d6","system_id":"levelo_inurba_marseille","lat":43.2968,"lon":5.37291,"is_reserved":false,"is_disabled":false,"rental_uris":{"android":"levelo://app?vid=ca636206-b096-4a14-9fe1-70ee93ca08d6","ios":"levelo://app?vid=ca636206-b096-4a14-9fe1-70ee93ca08d6"},"vehicle_type_id":"4","last_reported":1716235671,"current_range_meters":26000,"station_id":"ce4bgk12rcd13ifvqbj0","pricing_plan_id":"cebpf4jnsgd1na2vs0mg"},{"bike_id":"45f9220f-dd6d-42d5-9d54-dd3ff93849bb","system_id":"levelo_inurba_marseille","lat":43.2968,"lon":5.37291,"is_reserved":false,"is_disabled":false,"rental_uris":{"android":"levelo://app?vid=45f9220f-dd6d-42d5-9d54-dd3ff93849bb","ios":"levelo://app?vid=45f9220f-dd6d-42d5-9d54-dd3ff93849bb"},"vehicle_type_id":"4","last_reported":1716235671,"current_range_meters":7600,"station_id":"ce4bgk12rcd13ifvqbj0","pricing_plan_id":"cebpf4jnsgd1na2vs0mg"},{"bike_id":"b8f46b64-5609-40a8-9e55-cf5bb4338153","system_id":"levelo_inurba_marseille","lat":43.2968,"lon":5.37291,"is_reserved":false,"is_disabled":false,"rental_uris":{"android":"levelo://app?vid=b8f46b64-5609-40a8-9e55-cf5bb4338153","ios":"levelo://app?vid=b8f46b64-5609-40a8-9e55-cf5bb4338153"},"vehicle_type_id":"4","last_reported":1716235671,"current_range_meters":25600,"station_id":"ce4bgk12rcd13ifvqbj0","pricing_plan_id":"cebpf4jnsgd1na2vs0mg"},{"bike_id":"4fdfca50-bbb8-4ad7-8abc-e8cc19e0c3fd","system_id":"levelo_inurba_marseille","lat":43.2968,"lon":5.37291,"is_reserved":false,"is_disabled":false,"rental_uris":{"android":"levelo://app?vid=4fdfca50-bbb8-4ad7-8abc-e8cc19e0c3fd","ios":"levelo://app?vid=4fdfca50-bbb8-4ad7-8abc-e8cc19e0c3fd"},"vehicle_type_id":"4","last_reported":1716235671,"current_range_meters":18800,"station_id":"ce4bgk12rcd13ifvqbj0","pricing_plan_id":"cebpf4jnsgd1na2vs0mg"},{"bike_id":"9f0ad9cd-c778-4187-a03b-37593c140723","system_id":"levelo_inurba_marseille","lat":43.296129,"lon":5.370777,"is_reserved":false,"is_disabled":false,"rental_uris":{"android":"levelo://app?vid=9f0ad9cd-c778-4187-a03b-37593c140723","ios":"levelo://app?vid=9f0ad9cd-c778-4187-a03b-37593c140723"},"vehicle_type_id":"4","last_reported":1716235671,"current_range_meters":19200,"station_id":"ce4bgnh2rcd13ifvqc0g","pricing_plan_id":"cebpf4jnsgd1na2vs0mg"},{"bike_id":"d64ef84a-b784-4c12-94c3-cbd4143f18bd","system_id":"levelo_inurba_marseille","lat":43.29573,"lon":5.367355,"is_reserved":false,"is_disabled":false,"rental_uris":{"android":"levelo://app?vid=d64ef84a-b784-4c12-94c3-cbd4143f18bd","ios":"levelo://app?vid=d64ef84a-b784-4c12-94c3-cbd4143f18bd"},"vehicle_type_id":"4","last_reported":1716235671,"current_range_meters":1600,"station_id":"ce4bgph2rcd13ifvqc2g","pricing_plan_id":"cebpf4jnsgd1na2vs0mg"},{"bike_id":"6ac192c4-45a3-4f5b-a7e1-82d31d08f855","system_id":"levelo_inurba_marseille","lat":43.29725,"lon":5.37683,"is_reserved":false,"is_disabled":false,"rental_uris":{"android":"levelo://app?vid=6ac192c4-45a3-4f5b-a7e1-82d31d08f855","ios":"levelo://app?vid=6ac192c4-45a3-4f5b-a7e1-82d31d08f855"},"vehicle_type_id":"4","last_reported":1716235671,"current_range_meters":4000,"station_id":"ce4bgkh2rcd13ifvqbl0","pricing_plan_id":"cebpf4jnsgd1na2vs0mg"},{"bike_id":"8aa53295-fc81-4de2-aa95-923b4d8ca31a","system_id":"levelo_inurba_marseille","lat":43.309589,"lon":5.390258,"is_reserved":false,"is_disabled":false,"rental_uris":{"android":"levelo://app?vid=8aa53295-fc81-4de2-aa95-923b4d8ca31a","ios":"levelo://app?vid=8aa53295-fc81-4de2-aa95-923b4d8ca31a"},"vehicle_type_id":"4","last_reported":1716235671,"current_range_meters":22000,"station_id":"ce4bgup2rcd13ifvqco0","pricing_plan_id":"cebpf4jnsgd1na2vs0mg"},{"bike_id":"00503ce8-9edf-4f9b-a51c-7b767c9d3bd2","system_id":"levelo_inurba_marseille","lat":43.298811,"lon":5.380804,"is_reserved":false,"is_disabled":false,"rental_uris":{"android":"levelo://app?vid=00503ce8-9edf-4f9b-a51c-7b767c9d3bd2","ios":"levelo://app?vid=00503ce8-9edf-4f9b-a51c-7b767c9d3bd2"},"vehicle_type_id":"4","last_reported":1716235671,"current_range_meters":28800,"station_id":"","pricing_plan_id":"cebpf4jnsgd1na2vs0mg"},{"bike_id":"ada7f7e9-4151-4b39-bd73-38789c993db0","system_id":"levelo_inurba_marseille","lat":43.299028,"lon":5.381509,"is_reserved":false,"is_disabled":false,"rental_uris":{"android":"levelo://app?vid=ada7f7e9-4151-4b39-bd73-38789c993db0","ios":"levelo://app?vid=ada7f7e9-4151-4b39-bd73-38789c993db0"},"vehicle_type_id":"4","last_reported":1716235671,"current_range_meters":5600,"station_id":"ce4bgj12rcd13ifvqbc0","pricing_plan_id":"cebpf4jnsgd1na2vs0mg"},{"bike_id":"587ebea5-a17f-497f-ac32-7439a074fadc","system_id":"levelo_inurba_marseille","lat":43.309589,"lon":5.390258,"is_reserved":false,"is_disabled":false,"rental_uris":{"android":"levelo://app?vid=587ebea5-a17f-497f-ac32-7439a074fadc","ios":"levelo://app?vid=587ebea5-a17f-497f-ac32-7439a074fadc"},"vehicle_type_id":"4","last_reported":1716235671,"current_range_meters":8800,"station_id":"ce4bgup2rcd13ifvqco0","pricing_plan_id":"cebpf4jnsgd1na2vs0mg"},{"bike_id":"622c3e0f-5291-4d0f-97de-15073dc12994","system_id":"levelo_inurba_marseille","lat":43.309589,"lon":5.390258,"is_reserved":false,"is_disabled":false,"rental_uris":{"android":"levelo://app?vid=622c3e0f-5291-4d0f-97de-15073dc12994","ios":"levelo://app?vid=622c3e0f-5291-4d0f-97de-15073dc12994"},"vehicle_type_id":"4","last_reported":1716235671,"current_range_meters":22000,"station_id":"ce4bgup2rcd13ifvqco0","pricing_plan_id":"cebpf4jnsgd1na2vs0mg"},{"bike_id":"88f107d2-b0d3-4657-ab03-146706a8b451","system_id":"levelo_inurba_marseille","lat":43.309589,"lon":5.390258,"is_reserved":false,"is_disabled":false,"rental_uris":{"android":"levelo://app?vid=88f107d2-b0d3-4657-ab03-146706a8b451","ios":"levelo://app?vid=88f107d2-b0d3-4657-ab03-146706a8b451"},"vehicle_type_id":"4","last_reported":1716235671,"current_range_meters":0,"station_id":"ce4bgup2rcd13ifvqco0","pricing_plan_id":"cebpf4jnsgd1na2vs0mg"},{"bike_id":"d51f934b-d136-4de4-8805-dc91c4ec23b3","system_id":"levelo_inurba_marseille","lat":43.309039,"lon":5.371797,"is_reserved":false,"is_disabled":false,"rental_uris":{"android":"levelo://app?vid=d51f934b-d136-4de4-8805-dc91c4ec23b3","ios":"levelo://app?vid=d51f934b-d136-4de4-8805-dc91c4ec23b3"},"vehicle_type_id":"4","last_reported":1716235671,"current_range_meters":31200,"station_id":"ce4bguh2rcd13ifvqckg","pricing_plan_id":"cebpf4jnsgd1na2vs0mg"},{"bike_id":"0b969e03-47ac-4c9c-8e7b-9cdff8c0bca4","system_id":"levelo_inurba_marseille","lat":43.309589,"lon":5.390258,"is_reserved":false,"is_disabled":false,"rental_uris":{"android":"levelo://app?vid=0b969e03-47ac-4c9c-8e7b-9cdff8c0bca4","ios":"levelo://app?vid=0b969e03-47ac-4c9c-8e7b-9cdff8c0bca4"},"vehicle_type_id":"4","last_reported":1716235671,"current_range_meters":3600,"station_id":"ce4bgup2rcd13ifvqco0","pricing_plan_id":"cebpf4jnsgd1na2vs0mg"},{"bike_id":"ac57ca26-ad23-4c1c-87b9-4c0891af2903","system_id":"levelo_inurba_marseille","lat":43.317557,"lon":5.390173,"is_reserved":false,"is_disabled":false,"rental_uris":{"android":"levelo://app?vid=ac57ca26-ad23-4c1c-87b9-4c0891af2903","ios":"levelo://app?vid=ac57ca26-ad23-4c1c-87b9-4c0891af2903"},"vehicle_type_id":"4","last_reported":1716235671,"current_range_meters":4400,"station_id":"ce4bhqp2rcd13ifvqhng","pricing_plan_id":"cebpf4jnsgd1na2vs0mg"},{"bike_id":"4a30287a-307d-45f1-af6e-bf21b88c8550","system_id":"levelo_inurba_marseille","lat":43.317557,"lon":5.390173,"is_reserved":false,"is_disabled":false,"rental_uris":{"android":"levelo://app?vid=4a30287a-307d-45f1-af6e-bf21b88c8550","ios":"levelo://app?vid=4a30287a-307d-45f1-af6e-bf21b88c8550"},"vehicle_type_id":"4","last_reported":1716235671,"current_range_meters":11600,"station_id":"ce4bhqp2rcd13ifvqhng","pricing_plan_id":"cebpf4jnsgd1na2vs0mg"},{"bike_id":"148c282e-efc1-44e6-addb-133c50df5c83","system_id":"levelo_inurba_marseille","lat":43.317532,"lon":5.390178,"is_reserved":false,"is_disabled":false,"rental_uris":{"android":"levelo://app?vid=148c282e-efc1-44e6-addb-133c50df5c83","ios":"levelo://app?vid=148c282e-efc1-44e6-addb-133c50df5c83"},"vehicle_type_id":"4","last_reported":1716235671,"current_range_meters":19600,"station_id":"ce4bhqp2rcd13ifvqhng","pricing_plan_id":"cebpf4jnsgd1na2vs0mg"},{"bike_id":"3ac2f96a-7f67-4460-8cab-51aeb90d5afb","system_id":"levelo_inurba_marseille","lat":43.317557,"lon":5.390173,"is_reserved":false,"is_disabled":false,"rental_uris":{"android":"levelo://app?vid=3ac2f96a-7f67-4460-8cab-51aeb90d5afb","ios":"levelo://app?vid=3ac2f96a-7f67-4460-8cab-51aeb90d5afb"},"vehicle_type_id":"4","last_reported":1716235671,"current_range_meters":10000,"station_id":"ce4bhqp2rcd13ifvqhng","pricing_plan_id":"cebpf4jnsgd1na2vs0mg"},{"bike_id":"1644fc64-f522-4b3e-aab6-db9b22d56ff0","system_id":"levelo_inurba_marseille","lat":43.317557,"lon":5.390173,"is_reserved":false,"is_disabled":false,"rental_uris":{"android":"levelo://app?vid=1644fc64-f522-4b3e-aab6-db9b22d56ff0","ios":"levelo://app?vid=1644fc64-f522-4b3e-aab6-db9b22d56ff0"},"vehicle_type_id":"4","last_reported":1716235671,"current_range_meters":10000,"station_id":"ce4bhqp2rcd13ifvqhng","pricing_plan_id":"cebpf4jnsgd1na2vs0mg"},{"bike_id":"9d50f318-69c2-4284-8687-e399d2c28e61","system_id":"levelo_inurba_marseille","lat":43.308012,"lon":5.381511,"is_reserved":false,"is_disabled":false,"rental_uris":{"android":"levelo://app?vid=9d50f318-69c2-4284-8687-e399d2c28e61","ios":"levelo://app?vid=9d50f318-69c2-4284-8687-e399d2c28e61"},"vehicle_type_id":"4","last_reported":1716235671,"current_range_meters":12400,"station_id":"ce4bgt12rcd13ifvqce0","pricing_plan_id":"cebpf4jnsgd1na2vs0mg"},{"bike_id":"7ba468dc-df51-4255-b7fe-54823054f0cd","system_id":"levelo_inurba_marseille","lat":43.298037,"lon":5.381066,"is_reserved":false,"is_disabled":false,"rental_uris":{"android":"levelo://app?vid=7ba468dc-df51-4255-b7fe-54823054f0cd","ios":"levelo://app?vid=7ba468dc-df51-4255-b7fe-54823054f0cd"},"vehicle_type_id":"4","last_reported":1716235671,"current_range_meters":6400,"station_id":"ce4bgip2rcd13ifvqbb0","pricing_plan_id":"cebpf4jnsgd1na2vs0mg"},{"bike_id":"2a539ff5-dcfb-46e8-95b0-233e128aded5","system_id":"levelo_inurba_marseille","lat":43.30434,"lon":5.3889,"is_reserved":false,"is_disabled":false,"rental_uris":{"android":"levelo://app?vid=2a539ff5-dcfb-46e8-95b0-233e128aded5","ios":"levelo://app?vid=2a539ff5-dcfb-46e8-95b0-233e128aded5"},"vehicle_type_id":"4","last_reported":1716235671,"current_range_meters":8000,"station_id":"","pricing_plan_id":"cebpf4jnsgd1na2vs0mg"},{"bike_id":"f0b791de-2aea-4033-9773-4db06d21651f","system_id":"levelo_inurba_marseille","lat":43.304278,"lon":5.388868,"is_reserved":false,"is_disabled":false,"rental_uris":{"android":"levelo://app?vid=f0b791de-2aea-4033-9773-4db06d21651f","ios":"levelo://app?vid=f0b791de-2aea-4033-9773-4db06d21651f"},"vehicle_type_id":"4","last_reported":1716235671,"current_range_meters":30000,"station_id":"ce4bgk12rcd13ifvqbi0","pricing_plan_id":"cebpf4jnsgd1na2vs0mg"},{"bike_id":"bb84e9a4-1abf-466f-9c31-cea36119cb7e","system_id":"levelo_inurba_marseille","lat":43.304274,"lon":5.388873,"is_reserved":false,"is_disabled":false,"rental_uris":{"android":"levelo://app?vid=bb84e9a4-1abf-466f-9c31-cea36119cb7e","ios":"levelo://app?vid=bb84e9a4-1abf-466f-9c31-cea36119cb7e"},"vehicle_type_id":"4","last_reported":1716235671,"current_range_meters":2800,"station_id":"ce4bgk12rcd13ifvqbi0","pricing_plan_id":"cebpf4jnsgd1na2vs0mg"},{"bike_id":"e8d58c16-481b-40cb-8022-47e085a46cf7","system_id":"levelo_inurba_marseille","lat":43.30429,"lon":5.38891,"is_reserved":false,"is_disabled":false,"rental_uris":{"android":"levelo://app?vid=e8d58c16-481b-40cb-8022-47e085a46cf7","ios":"levelo://app?vid=e8d58c16-481b-40cb-8022-47e085a46cf7"},"vehicle_type_id":"4","last_reported":1716235671,"current_range_meters":6400,"station_id":"ce4bgk12rcd13ifvqbi0","pricing_plan_id":"cebpf4jnsgd1na2vs0mg"},{"bike_id":"90ebd802-511b-4ab1-a8f3-ae369f217de6","system_id":"levelo_inurba_marseille","lat":43.295748,"lon":5.37522,"is_reserved":false,"is_disabled":false,"rental_uris":{"android":"levelo://app?vid=90ebd802-511b-4ab1-a8f3-ae369f217de6","ios":"levelo://app?vid=90ebd802-511b-4ab1-a8f3-ae369f217de6"},"vehicle_type_id":"4","last_reported":1716235671,"current_range_meters":0,"station_id":"ce4bgh92rcd13ifvqb50","pricing_plan_id":"cebpf4jnsgd1na2vs0mg"},{"bike_id":"26448ac3-4464-4ce3-9b5a-a7a393d7ca01","system_id":"levelo_inurba_marseille","lat":43.297784,"lon":5.381047,"is_reserved":false,"is_disabled":false,"rental_uris":{"android":"levelo://app?vid=26448ac3-4464-4ce3-9b5a-a7a393d7ca01","ios":"levelo://app?vid=26448ac3-4464-4ce3-9b5a-a7a393d7ca01"},"vehicle_type_id":"4","last_reported":1716235671,"current_range_meters":0,"station_id":"ce4bgip2rcd13ifvqbb0","pricing_plan_id":"cebpf4jnsgd1na2vs0mg"},{"bike_id":"d14dfc56-a48d-4fcc-a3ed-604b79979c11","system_id":"levelo_inurba_marseille","lat":43.305364,"lon":5.384119,"is_reserved":false,"is_disabled":false,"rental_uris":{"android":"levelo://app?vid=d14dfc56-a48d-4fcc-a3ed-604b79979c11","ios":"levelo://app?vid=d14dfc56-a48d-4fcc-a3ed-604b79979c11"},"vehicle_type_id":"4","last_reported":1716235671,"current_range_meters":3200,"station_id":"ce4bgg92rcd13ifvqb30","pricing_plan_id":"cebpf4jnsgd1na2vs0mg"},{"bike_id":"d014cf3e-048b-41f0-8f75-4b7171a47831","system_id":"levelo_inurba_marseille","lat":43.299717,"lon":5.384845,"is_reserved":false,"is_disabled":false,"rental_uris":{"android":"levelo://app?vid=d014cf3e-048b-41f0-8f75-4b7171a47831","ios":"levelo://app?vid=d014cf3e-048b-41f0-8f75-4b7171a47831"},"vehicle_type_id":"4","last_reported":1716235671,"current_range_meters":31200,"station_id":"ce4bgj92rcd13ifvqbd0","pricing_plan_id":"cebpf4jnsgd1na2vs0mg"},{"bike_id":"1da7ab1c-025a-4172-a243-511ac5d444d5","system_id":"levelo_inurba_marseille","lat":43.299724,"lon":5.384848,"is_reserved":false,"is_disabled":false,"rental_uris":{"android":"levelo://app?vid=1da7ab1c-025a-4172-a243-511ac5d444d5","ios":"levelo://app?vid=1da7ab1c-025a-4172-a243-511ac5d444d5"},"vehicle_type_id":"4","last_reported":1716235671,"current_range_meters":400,"station_id":"ce4bgj92rcd13ifvqbd0","pricing_plan_id":"cebpf4jnsgd1na2vs0mg"},{"bike_id":"a0f92116-4869-40c8-932e-493247c43572","system_id":"levelo_inurba_marseille","lat":43.299724,"lon":5.384848,"is_reserved":false,"is_disabled":false,"rental_uris":{"android":"levelo://app?vid=a0f92116-4869-40c8-932e-493247c43572","ios":"levelo://app?vid=a0f92116-4869-40c8-932e-493247c43572"},"vehicle_type_id":"4","last_reported":1716235671,"current_range_meters":0,"station_id":"ce4bgj92rcd13ifvqbd0","pricing_plan_id":"cebpf4jnsgd1na2vs0mg"},{"bike_id":"73d24a53-7f1e-447f-b1f1-5ed5cee06552","system_id":"levelo_inurba_marseille","lat":43.300819,"lon":5.386918,"is_reserved":false,"is_disabled":false,"rental_uris":{"android":"levelo://app?vid=73d24a53-7f1e-447f-b1f1-5ed5cee06552","ios":"levelo://app?vid=73d24a53-7f1e-447f-b1f1-5ed5cee06552"},"vehicle_type_id":"4","last_reported":1716235671,"current_range_meters":0,"station_id":"","pricing_plan_id":"cebpf4jnsgd1na2vs0mg"},{"bike_id":"78252e3e-8eff-4ccb-a142-6526e4cc39f4","system_id":"levelo_inurba_marseille","lat":43.30089,"lon":5.38729,"is_reserved":false,"is_disabled":false,"rental_uris":{"android":"levelo://app?vid=78252e3e-8eff-4ccb-a142-6526e4cc39f4","ios":"levelo://app?vid=78252e3e-8eff-4ccb-a142-6526e4cc39f4"},"vehicle_type_id":"4","last_reported":1716235671,"current_range_meters":18800,"station_id":"","pricing_plan_id":"cebpf4jnsgd1na2vs0mg"},{"bike_id":"0f07e7e5-da52-4283-8dab-7ba5b9ab81df","system_id":"levelo_inurba_marseille","lat":43.308012,"lon":5.381511,"is_reserved":false,"is_disabled":false,"rental_uris":{"android":"levelo://app?vid=0f07e7e5-da52-4283-8dab-7ba5b9ab81df","ios":"levelo://app?vid=0f07e7e5-da52-4283-8dab-7ba5b9ab81df"},"vehicle_type_id":"4","last_reported":1716235671,"current_range_meters":0,"station_id":"ce4bgt12rcd13ifvqce0","pricing_plan_id":"cebpf4jnsgd1na2vs0mg"},{"bike_id":"97c9ddf4-2377-45eb-a93f-81515f627b1a","system_id":"levelo_inurba_marseille","lat":43.299724,"lon":5.384848,"is_reserved":false,"is_disabled":false,"rental_uris":{"android":"levelo://app?vid=97c9ddf4-2377-45eb-a93f-81515f627b1a","ios":"levelo://app?vid=97c9ddf4-2377-45eb-a93f-81515f627b1a"},"vehicle_type_id":"4","last_reported":1716235671,"current_range_meters":19200,"station_id":"ce4bgj92rcd13ifvqbd0","pricing_plan_id":"cebpf4jnsgd1na2vs0mg"},{"bike_id":"534e668b-9e18-4477-b4dc-afc3bdfab49d","system_id":"levelo_inurba_marseille","lat":43.32365,"lon":5.38876,"is_reserved":false,"is_disabled":false,"rental_uris":{"android":"levelo://app?vid=534e668b-9e18-4477-b4dc-afc3bdfab49d","ios":"levelo://app?vid=534e668b-9e18-4477-b4dc-afc3bdfab49d"},"vehicle_type_id":"4","last_reported":1716235671,"current_range_meters":31600,"station_id":"ce4bhqp2rcd13ifvqhog","pricing_plan_id":"cebpf4jnsgd1na2vs0mg"},{"bike_id":"cabc6c92-4d0d-43b8-823b-0e53a898c88b","system_id":"levelo_inurba_marseille","lat":43.32367,"lon":5.388836,"is_reserved":false,"is_disabled":false,"rental_uris":{"android":"levelo://app?vid=cabc6c92-4d0d-43b8-823b-0e53a898c88b","ios":"levelo://app?vid=cabc6c92-4d0d-43b8-823b-0e53a898c88b"},"vehicle_type_id":"4","last_reported":1716235671,"current_range_meters":24400,"station_id":"ce4bhqp2rcd13ifvqhog","pricing_plan_id":"cebpf4jnsgd1na2vs0mg"},{"bike_id":"1e731210-6fd1-41ed-9fa3-f43977653544","system_id":"levelo_inurba_marseille","lat":43.32367,"lon":5.388836,"is_reserved":false,"is_disabled":false,"rental_uris":{"android":"levelo://app?vid=1e731210-6fd1-41ed-9fa3-f43977653544","ios":"levelo://app?vid=1e731210-6fd1-41ed-9fa3-f43977653544"},"vehicle_type_id":"4","last_reported":1716235671,"current_range_meters":0,"station_id":"ce4bhqp2rcd13ifvqhog","pricing_plan_id":"cebpf4jnsgd1na2vs0mg"},{"bike_id":"06df9d38-7e6a-4c84-b3b0-19e760d511fc","system_id":"levelo_inurba_marseille","lat":43.32368,"lon":5.38889,"is_reserved":false,"is_disabled":false,"rental_uris":{"android":"levelo://app?vid=06df9d38-7e6a-4c84-b3b0-19e760d511fc","ios":"levelo://app?vid=06df9d38-7e6a-4c84-b3b0-19e760d511fc"},"vehicle_type_id":"4","last_reported":1716235671,"current_range_meters":31600,"station_id":"ce4bhqp2rcd13ifvqhog","pricing_plan_id":"cebpf4jnsgd1na2vs0mg"},{"bike_id":"01a9e91c-78f3-4576-8872-934b4da53e38","system_id":"levelo_inurba_marseille","lat":43.293567,"lon":5.371579,"is_reserved":false,"is_disabled":false,"rental_uris":{"android":"levelo://app?vid=01a9e91c-78f3-4576-8872-934b4da53e38","ios":"levelo://app?vid=01a9e91c-78f3-4576-8872-934b4da53e38"},"vehicle_type_id":"4","last_reported":1716235671,"current_range_meters":14800,"station_id":"","pricing_plan_id":"cebpf4jnsgd1na2vs0mg"},{"bike_id":"25500253-68b7-4ebf-9386-366bfd0fc124","system_id":"levelo_inurba_marseille","lat":43.295994,"lon":5.38099,"is_reserved":false,"is_disabled":false,"rental_uris":{"android":"levelo://app?vid=25500253-68b7-4ebf-9386-366bfd0fc124","ios":"levelo://app?vid=25500253-68b7-4ebf-9386-366bfd0fc124"},"vehicle_type_id":"4","last_reported":1716235671,"current_range_meters":0,"station_id":"ce4bgl12rcd13ifvqbo0","pricing_plan_id":"cebpf4jnsgd1na2vs0mg"},{"bike_id":"3117c400-ad3f-4288-932d-0031c58a051b","system_id":"levelo_inurba_marseille","lat":43.293466,"lon":5.372257,"is_reserved":false,"is_disabled":false,"rental_uris":{"android":"levelo://app?vid=3117c400-ad3f-4288-932d-0031c58a051b","ios":"levelo://app?vid=3117c400-ad3f-4288-932d-0031c58a051b"},"vehicle_type_id":"4","last_reported":1716235671,"current_range_meters":800,"station_id":"ce4bgh92rcd13ifvqb40","pricing_plan_id":"cebpf4jnsgd1na2vs0mg"},{"bike_id":"57e13463-8ab6-4eb5-ac06-d3084a7dd520","system_id":"levelo_inurba_marseille","lat":43.29595,"lon":5.38104,"is_reserved":false,"is_disabled":false,"rental_uris":{"android":"levelo://app?vid=57e13463-8ab6-4eb5-ac06-d3084a7dd520","ios":"levelo://app?vid=57e13463-8ab6-4eb5-ac06-d3084a7dd520"},"vehicle_type_id":"4","last_reported":1716235671,"current_range_meters":12400,"station_id":"ce4bgl12rcd13ifvqbo0","pricing_plan_id":"cebpf4jnsgd1na2vs0mg"},{"bike_id":"b1bb3168-7c74-4d4a-a836-819de5ad321f","system_id":"levelo_inurba_marseille","lat":43.292806,"lon":5.368439,"is_reserved":false,"is_disabled":false,"rental_uris":{"android":"levelo://app?vid=b1bb3168-7c74-4d4a-a836-819de5ad321f","ios":"levelo://app?vid=b1bb3168-7c74-4d4a-a836-819de5ad321f"},"vehicle_type_id":"4","last_reported":1716235671,"current_range_meters":2800,"station_id":"ce4bhbp2rcd13ifvqesg","pricing_plan_id":"cebpf4jnsgd1na2vs0mg"},{"bike_id":"3959dddf-7dd1-4171-8b2c-fbbb52a9c51b","system_id":"levelo_inurba_marseille","lat":43.293259,"lon":5.371586,"is_reserved":false,"is_disabled":false,"rental_uris":{"android":"levelo://app?vid=3959dddf-7dd1-4171-8b2c-fbbb52a9c51b","ios":"levelo://app?vid=3959dddf-7dd1-4171-8b2c-fbbb52a9c51b"},"vehicle_type_id":"4","last_reported":1716235671,"current_range_meters":24400,"station_id":"ce4bgh92rcd13ifvqb40","pricing_plan_id":"cebpf4jnsgd1na2vs0mg"},{"bike_id":"74fbbd0e-65a6-4bb9-96db-0a24be01618c","system_id":"levelo_inurba_marseille","lat":43.293112,"lon":5.372107,"is_reserved":false,"is_disabled":false,"rental_uris":{"android":"levelo://app?vid=74fbbd0e-65a6-4bb9-96db-0a24be01618c","ios":"levelo://app?vid=74fbbd0e-65a6-4bb9-96db-0a24be01618c"},"vehicle_type_id":"4","last_reported":1716235671,"current_range_meters":21200,"station_id":"ce4bgh92rcd13ifvqb40","pricing_plan_id":"cebpf4jnsgd1na2vs0mg"},{"bike_id":"a286480d-4ed5-4bae-b2ee-abb8ca45588b","system_id":"levelo_inurba_marseille","lat":43.29307,"lon":5.37186,"is_reserved":false,"is_disabled":false,"rental_uris":{"android":"levelo://app?vid=a286480d-4ed5-4bae-b2ee-abb8ca45588b","ios":"levelo://app?vid=a286480d-4ed5-4bae-b2ee-abb8ca45588b"},"vehicle_type_id":"4","last_reported":1716235671,"current_range_meters":10400,"station_id":"ce4bgh92rcd13ifvqb40","pricing_plan_id":"cebpf4jnsgd1na2vs0mg"},{"bike_id":"b57aceb7-f8c7-4ce1-a0b3-332ac53d98d2","system_id":"levelo_inurba_marseille","lat":43.293259,"lon":5.371586,"is_reserved":false,"is_disabled":false,"rental_uris":{"android":"levelo://app?vid=b57aceb7-f8c7-4ce1-a0b3-332ac53d98d2","ios":"levelo://app?vid=b57aceb7-f8c7-4ce1-a0b3-332ac53d98d2"},"vehicle_type_id":"4","last_reported":1716235671,"current_range_meters":23200,"station_id":"ce4bgh92rcd13ifvqb40","pricing_plan_id":"cebpf4jnsgd1na2vs0mg"},{"bike_id":"099d9aea-5c41-4e56-b38e-20f112bd9182","system_id":"levelo_inurba_marseille","lat":43.29303,"lon":5.37169,"is_reserved":false,"is_disabled":false,"rental_uris":{"android":"levelo://app?vid=099d9aea-5c41-4e56-b38e-20f112bd9182","ios":"levelo://app?vid=099d9aea-5c41-4e56-b38e-20f112bd9182"},"vehicle_type_id":"4","last_reported":1716235671,"current_range_meters":6800,"station_id":"ce4bgh92rcd13ifvqb40","pricing_plan_id":"cebpf4jnsgd1na2vs0mg"},{"bike_id":"5f68f9ad-7c53-45d1-9a94-7deb82f7d7d1","system_id":"levelo_inurba_marseille","lat":43.29302,"lon":5.37173,"is_reserved":false,"is_disabled":false,"rental_uris":{"android":"levelo://app?vid=5f68f9ad-7c53-45d1-9a94-7deb82f7d7d1","ios":"levelo://app?vid=5f68f9ad-7c53-45d1-9a94-7deb82f7d7d1"},"vehicle_type_id":"4","last_reported":1716235671,"current_range_meters":1600,"station_id":"ce4bgh92rcd13ifvqb40","pricing_plan_id":"cebpf4jnsgd1na2vs0mg"},{"bike_id":"783cf8c6-8adc-42ad-947e-12bbf382c637","system_id":"levelo_inurba_marseille","lat":43.292749,"lon":5.368402,"is_reserved":false,"is_disabled":false,"rental_uris":{"android":"levelo://app?vid=783cf8c6-8adc-42ad-947e-12bbf382c637","ios":"levelo://app?vid=783cf8c6-8adc-42ad-947e-12bbf382c637"},"vehicle_type_id":"4","last_reported":1716235671,"current_range_meters":10000,"station_id":"ce4bhbp2rcd13ifvqesg","pricing_plan_id":"cebpf4jnsgd1na2vs0mg"},{"bike_id":"5a7b268d-50c6-49ec-a7f1-03123063d381","system_id":"levelo_inurba_marseille","lat":43.293009,"lon":5.374584,"is_reserved":false,"is_disabled":false,"rental_uris":{"android":"levelo://app?vid=5a7b268d-50c6-49ec-a7f1-03123063d381","ios":"levelo://app?vid=5a7b268d-50c6-49ec-a7f1-03123063d381"},"vehicle_type_id":"4","last_reported":1716235671,"current_range_meters":0,"station_id":"ce4bgi12rcd13ifvqb70","pricing_plan_id":"cebpf4jnsgd1na2vs0mg"},{"bike_id":"cc072177-069a-47d7-881c-6daaf3867b80","system_id":"levelo_inurba_marseille","lat":43.305994,"lon":5.393687,"is_reserved":false,"is_disabled":false,"rental_uris":{"android":"levelo://app?vid=cc072177-069a-47d7-881c-6daaf3867b80","ios":"levelo://app?vid=cc072177-069a-47d7-881c-6daaf3867b80"},"vehicle_type_id":"4","last_reported":1716235671,"current_range_meters":31600,"station_id":"ce4bh0p2rcd13ifvqd80","pricing_plan_id":"cebpf4jnsgd1na2vs0mg"},{"bike_id":"9a2d5191-9053-4be9-8137-a57ac57ebaf2","system_id":"levelo_inurba_marseille","lat":43.305994,"lon":5.393687,"is_reserved":false,"is_disabled":false,"rental_uris":{"android":"levelo://app?vid=9a2d5191-9053-4be9-8137-a57ac57ebaf2","ios":"levelo://app?vid=9a2d5191-9053-4be9-8137-a57ac57ebaf2"},"vehicle_type_id":"4","last_reported":1716235671,"current_range_meters":18800,"station_id":"ce4bh0p2rcd13ifvqd80","pricing_plan_id":"cebpf4jnsgd1na2vs0mg"},{"bike_id":"cb404cc4-7a0d-4ee9-b42d-83fc50b556df","system_id":"levelo_inurba_marseille","lat":43.305994,"lon":5.393687,"is_reserved":false,"is_disabled":false,"rental_uris":{"android":"levelo://app?vid=cb404cc4-7a0d-4ee9-b42d-83fc50b556df","ios":"levelo://app?vid=cb404cc4-7a0d-4ee9-b42d-83fc50b556df"},"vehicle_type_id":"4","last_reported":1716235671,"current_range_meters":1600,"station_id":"ce4bh0p2rcd13ifvqd80","pricing_plan_id":"cebpf4jnsgd1na2vs0mg"},{"bike_id":"ab151fd1-72f7-41c0-90da-84022dc44d36","system_id":"levelo_inurba_marseille","lat":43.305994,"lon":5.393687,"is_reserved":false,"is_disabled":false,"rental_uris":{"android":"levelo://app?vid=ab151fd1-72f7-41c0-90da-84022dc44d36","ios":"levelo://app?vid=ab151fd1-72f7-41c0-90da-84022dc44d36"},"vehicle_type_id":"4","last_reported":1716235671,"current_range_meters":0,"station_id":"ce4bh0p2rcd13ifvqd80","pricing_plan_id":"cebpf4jnsgd1na2vs0mg"},{"bike_id":"cf0f9f2b-e31f-4bd3-b64f-f091360fad58","system_id":"levelo_inurba_marseille","lat":43.305994,"lon":5.393687,"is_reserved":false,"is_disabled":false,"rental_uris":{"android":"levelo://app?vid=cf0f9f2b-e31f-4bd3-b64f-f091360fad58","ios":"levelo://app?vid=cf0f9f2b-e31f-4bd3-b64f-f091360fad58"},"vehicle_type_id":"4","last_reported":1716235671,"current_range_meters":22000,"station_id":"ce4bh0p2rcd13ifvqd80","pricing_plan_id":"cebpf4jnsgd1na2vs0mg"},{"bike_id":"fc019636-f6dd-4172-9ac2-de00660d3bcb","system_id":"levelo_inurba_marseille","lat":43.305994,"lon":5.393687,"is_reserved":false,"is_disabled":false,"rental_uris":{"android":"levelo://app?vid=fc019636-f6dd-4172-9ac2-de00660d3bcb","ios":"levelo://app?vid=fc019636-f6dd-4172-9ac2-de00660d3bcb"},"vehicle_type_id":"4","last_reported":1716235671,"current_range_meters":13600,"station_id":"ce4bh0p2rcd13ifvqd80","pricing_plan_id":"cebpf4jnsgd1na2vs0mg"},{"bike_id":"18d7bb7e-0565-4eed-9206-c7c566bb2a8d","system_id":"levelo_inurba_marseille","lat":43.305994,"lon":5.393687,"is_reserved":false,"is_disabled":false,"rental_uris":{"android":"levelo://app?vid=18d7bb7e-0565-4eed-9206-c7c566bb2a8d","ios":"levelo://app?vid=18d7bb7e-0565-4eed-9206-c7c566bb2a8d"},"vehicle_type_id":"4","last_reported":1716235671,"current_range_meters":4000,"station_id":"ce4bh0p2rcd13ifvqd80","pricing_plan_id":"cebpf4jnsgd1na2vs0mg"},{"bike_id":"c3aacb11-ae65-4658-8dff-6418d0346b2a","system_id":"levelo_inurba_marseille","lat":43.293009,"lon":5.374584,"is_reserved":false,"is_disabled":false,"rental_uris":{"android":"levelo://app?vid=c3aacb11-ae65-4658-8dff-6418d0346b2a","ios":"levelo://app?vid=c3aacb11-ae65-4658-8dff-6418d0346b2a"},"vehicle_type_id":"4","last_reported":1716235671,"current_range_meters":400,"station_id":"ce4bgi12rcd13ifvqb70","pricing_plan_id":"cebpf4jnsgd1na2vs0mg"},{"bike_id":"0b49df7a-6e6e-4886-810e-250bbddffc57","system_id":"levelo_inurba_marseille","lat":43.305994,"lon":5.393687,"is_reserved":false,"is_disabled":false,"rental_uris":{"android":"levelo://app?vid=0b49df7a-6e6e-4886-810e-250bbddffc57","ios":"levelo://app?vid=0b49df7a-6e6e-4886-810e-250bbddffc57"},"vehicle_type_id":"4","last_reported":1716235671,"current_range_meters":14800,"station_id":"ce4bh0p2rcd13ifvqd80","pricing_plan_id":"cebpf4jnsgd1na2vs0mg"},{"bike_id":"a9230e70-d2d1-4829-b8e3-e44b4f451980","system_id":"levelo_inurba_marseille","lat":43.305994,"lon":5.393687,"is_reserved":false,"is_disabled":false,"rental_uris":{"android":"levelo://app?vid=a9230e70-d2d1-4829-b8e3-e44b4f451980","ios":"levelo://app?vid=a9230e70-d2d1-4829-b8e3-e44b4f451980"},"vehicle_type_id":"4","last_reported":1716235671,"current_range_meters":19600,"station_id":"ce4bh0p2rcd13ifvqd80","pricing_plan_id":"cebpf4jnsgd1na2vs0mg"},{"bike_id":"75e8c185-e0b1-4819-b0e7-c51026abb44a","system_id":"levelo_inurba_marseille","lat":43.302992,"lon":5.392136,"is_reserved":false,"is_disabled":false,"rental_uris":{"android":"levelo://app?vid=75e8c185-e0b1-4819-b0e7-c51026abb44a","ios":"levelo://app?vid=75e8c185-e0b1-4819-b0e7-c51026abb44a"},"vehicle_type_id":"4","last_reported":1716235671,"current_range_meters":6800,"station_id":"ce4bgkh2rcd13ifvqbk0","pricing_plan_id":"cebpf4jnsgd1na2vs0mg"},{"bike_id":"f1c298d9-8b2e-4542-9cae-4967bdd0bfcf","system_id":"levelo_inurba_marseille","lat":43.29371,"lon":5.37834,"is_reserved":false,"is_disabled":false,"rental_uris":{"android":"levelo://app?vid=f1c298d9-8b2e-4542-9cae-4967bdd0bfcf","ios":"levelo://app?vid=f1c298d9-8b2e-4542-9cae-4967bdd0bfcf"},"vehicle_type_id":"4","last_reported":1716235671,"current_range_meters":20000,"station_id":"ce4bh412rcd13ifvqds0","pricing_plan_id":"cebpf4jnsgd1na2vs0mg"},{"bike_id":"84b8c4df-46b4-4d0a-bda3-dbc48def70be","system_id":"levelo_inurba_marseille","lat":43.302992,"lon":5.392136,"is_reserved":false,"is_disabled":false,"rental_uris":{"android":"levelo://app?vid=84b8c4df-46b4-4d0a-bda3-dbc48def70be","ios":"levelo://app?vid=84b8c4df-46b4-4d0a-bda3-dbc48def70be"},"vehicle_type_id":"4","last_reported":1716235671,"current_range_meters":18800,"station_id":"ce4bgkh2rcd13ifvqbk0","pricing_plan_id":"cebpf4jnsgd1na2vs0mg"},{"bike_id":"7f736aea-8da3-495b-9bde-f1ea2d0f01f1","system_id":"levelo_inurba_marseille","lat":43.292311,"lon":5.360731,"is_reserved":false,"is_disabled":false,"rental_uris":{"android":"levelo://app?vid=7f736aea-8da3-495b-9bde-f1ea2d0f01f1","ios":"levelo://app?vid=7f736aea-8da3-495b-9bde-f1ea2d0f01f1"},"vehicle_type_id":"4","last_reported":1716235671,"current_range_meters":25600,"station_id":"ce4bhbh2rcd13ifvqeqg","pricing_plan_id":"cebpf4jnsgd1na2vs0mg"},{"bike_id":"d21b44a2-418e-498f-9155-79c56b0fd74b","system_id":"levelo_inurba_marseille","lat":43.292311,"lon":5.360731,"is_reserved":false,"is_disabled":false,"rental_uris":{"android":"levelo://app?vid=d21b44a2-418e-498f-9155-79c56b0fd74b","ios":"levelo://app?vid=d21b44a2-418e-498f-9155-79c56b0fd74b"},"vehicle_type_id":"4","last_reported":1716235671,"current_range_meters":20400,"station_id":"ce4bhbh2rcd13ifvqeqg","pricing_plan_id":"cebpf4jnsgd1na2vs0mg"},{"bike_id":"e161245c-deb3-452f-b664-475113bc7f78","system_id":"levelo_inurba_marseille","lat":43.30085,"lon":5.390856,"is_reserved":false,"is_disabled":false,"rental_uris":{"android":"levelo://app?vid=e161245c-deb3-452f-b664-475113bc7f78","ios":"levelo://app?vid=e161245c-deb3-452f-b664-475113bc7f78"},"vehicle_type_id":"4","last_reported":1716235671,"current_range_meters":18400,"station_id":"ce4bh192rcd13ifvqdb0","pricing_plan_id":"cebpf4jnsgd1na2vs0mg"},{"bike_id":"ed030049-67f0-4b11-bc68-cd87cde5f5f1","system_id":"levelo_inurba_marseille","lat":43.292311,"lon":5.360731,"is_reserved":false,"is_disabled":false,"rental_uris":{"android":"levelo://app?vid=ed030049-67f0-4b11-bc68-cd87cde5f5f1","ios":"levelo://app?vid=ed030049-67f0-4b11-bc68-cd87cde5f5f1"},"vehicle_type_id":"4","last_reported":1716235671,"current_range_meters":19600,"station_id":"ce4bhbh2rcd13ifvqeqg","pricing_plan_id":"cebpf4jnsgd1na2vs0mg"},{"bike_id":"1f8b358c-ec6c-4384-8c5c-ae3a0c057e57","system_id":"levelo_inurba_marseille","lat":43.30095,"lon":5.390814,"is_reserved":false,"is_disabled":false,"rental_uris":{"android":"levelo://app?vid=1f8b358c-ec6c-4384-8c5c-ae3a0c057e57","ios":"levelo://app?vid=1f8b358c-ec6c-4384-8c5c-ae3a0c057e57"},"vehicle_type_id":"4","last_reported":1716235671,"current_range_meters":24400,"station_id":"","pricing_plan_id":"cebpf4jnsgd1na2vs0mg"},{"bike_id":"7e308180-28c0-4fbd-87d0-1c6e57398c83","system_id":"levelo_inurba_marseille","lat":43.292311,"lon":5.360731,"is_reserved":false,"is_disabled":false,"rental_uris":{"android":"levelo://app?vid=7e308180-28c0-4fbd-87d0-1c6e57398c83","ios":"levelo://app?vid=7e308180-28c0-4fbd-87d0-1c6e57398c83"},"vehicle_type_id":"4","last_reported":1716235671,"current_range_meters":21600,"station_id":"ce4bhbh2rcd13ifvqeqg","pricing_plan_id":"cebpf4jnsgd1na2vs0mg"},{"bike_id":"7c861c89-1ff0-40fa-b9a3-bfb0f6b050f2","system_id":"levelo_inurba_marseille","lat":43.300852,"lon":5.390859,"is_reserved":false,"is_disabled":false,"rental_uris":{"android":"levelo://app?vid=7c861c89-1ff0-40fa-b9a3-bfb0f6b050f2","ios":"levelo://app?vid=7c861c89-1ff0-40fa-b9a3-bfb0f6b050f2"},"vehicle_type_id":"4","last_reported":1716235671,"current_range_meters":21200,"station_id":"ce4bh192rcd13ifvqdb0","pricing_plan_id":"cebpf4jnsgd1na2vs0mg"},{"bike_id":"0e1ae9f2-3dac-4ee8-97a0-9b69380d56b6","system_id":"levelo_inurba_marseille","lat":43.30085,"lon":5.390856,"is_reserved":false,"is_disabled":false,"rental_uris":{"android":"levelo://app?vid=0e1ae9f2-3dac-4ee8-97a0-9b69380d56b6","ios":"levelo://app?vid=0e1ae9f2-3dac-4ee8-97a0-9b69380d56b6"},"vehicle_type_id":"4","last_reported":1716235671,"current_range_meters":26000,"station_id":"ce4bh192rcd13ifvqdb0","pricing_plan_id":"cebpf4jnsgd1na2vs0mg"},{"bike_id":"857a15d9-b38b-473e-b6c2-292275ad3edc","system_id":"levelo_inurba_marseille","lat":43.30085,"lon":5.390856,"is_reserved":false,"is_disabled":false,"rental_uris":{"android":"levelo://app?vid=857a15d9-b38b-473e-b6c2-292275ad3edc","ios":"levelo://app?vid=857a15d9-b38b-473e-b6c2-292275ad3edc"},"vehicle_type_id":"4","last_reported":1716235671,"current_range_meters":1600,"station_id":"ce4bh192rcd13ifvqdb0","pricing_plan_id":"cebpf4jnsgd1na2vs0mg"},{"bike_id":"d1e6b304-f1bf-4196-a38b-dd0043f0b54c","system_id":"levelo_inurba_marseille","lat":43.292311,"lon":5.360731,"is_reserved":false,"is_disabled":false,"rental_uris":{"android":"levelo://app?vid=d1e6b304-f1bf-4196-a38b-dd0043f0b54c","ios":"levelo://app?vid=d1e6b304-f1bf-4196-a38b-dd0043f0b54c"},"vehicle_type_id":"4","last_reported":1716235671,"current_range_meters":6400,"station_id":"ce4bhbh2rcd13ifvqeqg","pricing_plan_id":"cebpf4jnsgd1na2vs0mg"},{"bike_id":"d866233b-ea61-4853-a610-7a572f1acbbc","system_id":"levelo_inurba_marseille","lat":43.298764,"lon":5.388973,"is_reserved":false,"is_disabled":false,"rental_uris":{"android":"levelo://app?vid=d866233b-ea61-4853-a610-7a572f1acbbc","ios":"levelo://app?vid=d866233b-ea61-4853-a610-7a572f1acbbc"},"vehicle_type_id":"4","last_reported":1716235671,"current_range_meters":22400,"station_id":"ce4bh392rcd13ifvqdl0","pricing_plan_id":"cebpf4jnsgd1na2vs0mg"},{"bike_id":"8a93b728-fabe-4194-90e2-7fb7088dc984","system_id":"levelo_inurba_marseille","lat":43.298764,"lon":5.388973,"is_reserved":false,"is_disabled":false,"rental_uris":{"android":"levelo://app?vid=8a93b728-fabe-4194-90e2-7fb7088dc984","ios":"levelo://app?vid=8a93b728-fabe-4194-90e2-7fb7088dc984"},"vehicle_type_id":"4","last_reported":1716235671,"current_range_meters":4400,"station_id":"ce4bh392rcd13ifvqdl0","pricing_plan_id":"cebpf4jnsgd1na2vs0mg"},{"bike_id":"5a347f3a-f94b-4426-ae53-3461e087f6d7","system_id":"levelo_inurba_marseille","lat":43.29174,"lon":5.37139,"is_reserved":false,"is_disabled":false,"rental_uris":{"android":"levelo://app?vid=5a347f3a-f94b-4426-ae53-3461e087f6d7","ios":"levelo://app?vid=5a347f3a-f94b-4426-ae53-3461e087f6d7"},"vehicle_type_id":"4","last_reported":1716235671,"current_range_meters":0,"station_id":"ce4bha92rcd13ifvqeh0","pricing_plan_id":"cebpf4jnsgd1na2vs0mg"},{"bike_id":"174b436a-92c7-416c-9175-17ecff4078e4","system_id":"levelo_inurba_marseille","lat":43.291675,"lon":5.371583,"is_reserved":false,"is_disabled":false,"rental_uris":{"android":"levelo://app?vid=174b436a-92c7-416c-9175-17ecff4078e4","ios":"levelo://app?vid=174b436a-92c7-416c-9175-17ecff4078e4"},"vehicle_type_id":"4","last_reported":1716235671,"current_range_meters":6800,"station_id":"ce4bha92rcd13ifvqeh0","pricing_plan_id":"cebpf4jnsgd1na2vs0mg"},{"bike_id":"fe1786a0-b2f9-48ca-8b4a-88294c165a2f","system_id":"levelo_inurba_marseille","lat":43.298764,"lon":5.388973,"is_reserved":false,"is_disabled":false,"rental_uris":{"android":"levelo://app?vid=fe1786a0-b2f9-48ca-8b4a-88294c165a2f","ios":"levelo://app?vid=fe1786a0-b2f9-48ca-8b4a-88294c165a2f"},"vehicle_type_id":"4","last_reported":1716235671,"current_range_meters":8800,"station_id":"ce4bh392rcd13ifvqdl0","pricing_plan_id":"cebpf4jnsgd1na2vs0mg"},{"bike_id":"494ada9c-efc6-4cbd-8922-7a24fb9240d1","system_id":"levelo_inurba_marseille","lat":43.291671,"lon":5.371575,"is_reserved":false,"is_disabled":false,"rental_uris":{"android":"levelo://app?vid=494ada9c-efc6-4cbd-8922-7a24fb9240d1","ios":"levelo://app?vid=494ada9c-efc6-4cbd-8922-7a24fb9240d1"},"vehicle_type_id":"4","last_reported":1716235671,"current_range_meters":15600,"station_id":"ce4bha92rcd13ifvqeh0","pricing_plan_id":"cebpf4jnsgd1na2vs0mg"},{"bike_id":"1ab952b0-53e4-4f39-bf6c-fb032c5223f5","system_id":"levelo_inurba_marseille","lat":43.29168,"lon":5.371423,"is_reserved":false,"is_disabled":false,"rental_uris":{"android":"levelo://app?vid=1ab952b0-53e4-4f39-bf6c-fb032c5223f5","ios":"levelo://app?vid=1ab952b0-53e4-4f39-bf6c-fb032c5223f5"},"vehicle_type_id":"4","last_reported":1716235671,"current_range_meters":28000,"station_id":"ce4bha92rcd13ifvqeh0","pricing_plan_id":"cebpf4jnsgd1na2vs0mg"},{"bike_id":"861dce0c-8234-4c10-85d9-fa7a0d9a06b8","system_id":"levelo_inurba_marseille","lat":43.298764,"lon":5.388973,"is_reserved":false,"is_disabled":false,"rental_uris":{"android":"levelo://app?vid=861dce0c-8234-4c10-85d9-fa7a0d9a06b8","ios":"levelo://app?vid=861dce0c-8234-4c10-85d9-fa7a0d9a06b8"},"vehicle_type_id":"4","last_reported":1716235671,"current_range_meters":11600,"station_id":"ce4bh392rcd13ifvqdl0","pricing_plan_id":"cebpf4jnsgd1na2vs0mg"},{"bike_id":"3e53f41c-ebdf-42b2-b76c-d847a2389485","system_id":"levelo_inurba_marseille","lat":43.298764,"lon":5.388973,"is_reserved":false,"is_disabled":false,"rental_uris":{"android":"levelo://app?vid=3e53f41c-ebdf-42b2-b76c-d847a2389485","ios":"levelo://app?vid=3e53f41c-ebdf-42b2-b76c-d847a2389485"},"vehicle_type_id":"4","last_reported":1716235671,"current_range_meters":14000,"station_id":"ce4bh392rcd13ifvqdl0","pricing_plan_id":"cebpf4jnsgd1na2vs0mg"},{"bike_id":"28e0831b-60fb-44f0-934d-3254c78b1f52","system_id":"levelo_inurba_marseille","lat":43.298764,"lon":5.388973,"is_reserved":false,"is_disabled":false,"rental_uris":{"android":"levelo://app?vid=28e0831b-60fb-44f0-934d-3254c78b1f52","ios":"levelo://app?vid=28e0831b-60fb-44f0-934d-3254c78b1f52"},"vehicle_type_id":"4","last_reported":1716235671,"current_range_meters":7200,"station_id":"ce4bh392rcd13ifvqdl0","pricing_plan_id":"cebpf4jnsgd1na2vs0mg"},{"bike_id":"d577fbf8-d170-401c-8aa7-41407284ed2d","system_id":"levelo_inurba_marseille","lat":43.298764,"lon":5.388973,"is_reserved":false,"is_disabled":false,"rental_uris":{"android":"levelo://app?vid=d577fbf8-d170-401c-8aa7-41407284ed2d","ios":"levelo://app?vid=d577fbf8-d170-401c-8aa7-41407284ed2d"},"vehicle_type_id":"4","last_reported":1716235671,"current_range_meters":18800,"station_id":"ce4bh392rcd13ifvqdl0","pricing_plan_id":"cebpf4jnsgd1na2vs0mg"},{"bike_id":"bd6d4c02-caf5-43d5-bd6a-3bb888fb82dd","system_id":"levelo_inurba_marseille","lat":43.298652,"lon":5.389063,"is_reserved":false,"is_disabled":false,"rental_uris":{"android":"levelo://app?vid=bd6d4c02-caf5-43d5-bd6a-3bb888fb82dd","ios":"levelo://app?vid=bd6d4c02-caf5-43d5-bd6a-3bb888fb82dd"},"vehicle_type_id":"4","last_reported":1716235671,"current_range_meters":15200,"station_id":"ce4bh392rcd13ifvqdl0","pricing_plan_id":"cebpf4jnsgd1na2vs0mg"},{"bike_id":"9677228e-b2eb-42ad-88ec-c47c22b7101f","system_id":"levelo_inurba_marseille","lat":43.298764,"lon":5.388973,"is_reserved":false,"is_disabled":false,"rental_uris":{"android":"levelo://app?vid=9677228e-b2eb-42ad-88ec-c47c22b7101f","ios":"levelo://app?vid=9677228e-b2eb-42ad-88ec-c47c22b7101f"},"vehicle_type_id":"4","last_reported":1716235671,"current_range_meters":4000,"station_id":"ce4bh392rcd13ifvqdl0","pricing_plan_id":"cebpf4jnsgd1na2vs0mg"},{"bike_id":"927bcfcd-ad18-4fa9-8ecd-f943ff65b14a","system_id":"levelo_inurba_marseille","lat":43.313291,"lon":5.396838,"is_reserved":false,"is_disabled":false,"rental_uris":{"android":"levelo://app?vid=927bcfcd-ad18-4fa9-8ecd-f943ff65b14a","ios":"levelo://app?vid=927bcfcd-ad18-4fa9-8ecd-f943ff65b14a"},"vehicle_type_id":"4","last_reported":1716235671,"current_range_meters":27200,"station_id":"ce4bgvp2rcd13ifvqcu0","pricing_plan_id":"cebpf4jnsgd1na2vs0mg"},{"bike_id":"c148bad8-e871-4237-9410-bc1de049a9bd","system_id":"levelo_inurba_marseille","lat":43.308801,"lon":5.396307,"is_reserved":false,"is_disabled":false,"rental_uris":{"android":"levelo://app?vid=c148bad8-e871-4237-9410-bc1de049a9bd","ios":"levelo://app?vid=c148bad8-e871-4237-9410-bc1de049a9bd"},"vehicle_type_id":"4","last_reported":1716235671,"current_range_meters":19200,"station_id":"ce4bh012rcd13ifvqcv0","pricing_plan_id":"cebpf4jnsgd1na2vs0mg"},{"bike_id":"8856ad23-83f4-4971-a8c5-1329f8425f3f","system_id":"levelo_inurba_marseille","lat":43.309047,"lon":5.396551,"is_reserved":false,"is_disabled":false,"rental_uris":{"android":"levelo://app?vid=8856ad23-83f4-4971-a8c5-1329f8425f3f","ios":"levelo://app?vid=8856ad23-83f4-4971-a8c5-1329f8425f3f"},"vehicle_type_id":"4","last_reported":1716235671,"current_range_meters":28400,"station_id":"ce4bh012rcd13ifvqcv0","pricing_plan_id":"cebpf4jnsgd1na2vs0mg"},{"bike_id":"82707c4b-72bc-4edf-9f02-86505388e7a4","system_id":"levelo_inurba_marseille","lat":43.292005,"lon":5.357875,"is_reserved":false,"is_disabled":false,"rental_uris":{"android":"levelo://app?vid=82707c4b-72bc-4edf-9f02-86505388e7a4","ios":"levelo://app?vid=82707c4b-72bc-4edf-9f02-86505388e7a4"},"vehicle_type_id":"4","last_reported":1716235671,"current_range_meters":800,"station_id":"ce4bhb12rcd13ifvqel0","pricing_plan_id":"cebpf4jnsgd1na2vs0mg"},{"bike_id":"29874e61-b4bb-4dc3-9a75-43e214f827f6","system_id":"levelo_inurba_marseille","lat":43.309038,"lon":5.396546,"is_reserved":false,"is_disabled":false,"rental_uris":{"android":"levelo://app?vid=29874e61-b4bb-4dc3-9a75-43e214f827f6","ios":"levelo://app?vid=29874e61-b4bb-4dc3-9a75-43e214f827f6"},"vehicle_type_id":"4","last_reported":1716235671,"current_range_meters":25600,"station_id":"ce4bh012rcd13ifvqcv0","pricing_plan_id":"cebpf4jnsgd1na2vs0mg"},{"bike_id":"27f89cec-ec73-4e81-8ecb-e931afcdef17","system_id":"levelo_inurba_marseille","lat":43.308939,"lon":5.396381,"is_reserved":false,"is_disabled":false,"rental_uris":{"android":"levelo://app?vid=27f89cec-ec73-4e81-8ecb-e931afcdef17","ios":"levelo://app?vid=27f89cec-ec73-4e81-8ecb-e931afcdef17"},"vehicle_type_id":"4","last_reported":1716235671,"current_range_meters":6400,"station_id":"ce4bh012rcd13ifvqcv0","pricing_plan_id":"cebpf4jnsgd1na2vs0mg"},{"bike_id":"4c8960ce-efea-4863-916c-5b6e6ef3666e","system_id":"levelo_inurba_marseille","lat":43.309038,"lon":5.396546,"is_reserved":false,"is_disabled":false,"rental_uris":{"android":"levelo://app?vid=4c8960ce-efea-4863-916c-5b6e6ef3666e","ios":"levelo://app?vid=4c8960ce-efea-4863-916c-5b6e6ef3666e"},"vehicle_type_id":"4","last_reported":1716235671,"current_range_meters":10000,"station_id":"ce4bh012rcd13ifvqcv0","pricing_plan_id":"cebpf4jnsgd1na2vs0mg"},{"bike_id":"4d147f01-fdbc-4de7-acd7-941ed977fd9e","system_id":"levelo_inurba_marseille","lat":43.309038,"lon":5.396546,"is_reserved":false,"is_disabled":false,"rental_uris":{"android":"levelo://app?vid=4d147f01-fdbc-4de7-acd7-941ed977fd9e","ios":"levelo://app?vid=4d147f01-fdbc-4de7-acd7-941ed977fd9e"},"vehicle_type_id":"4","last_reported":1716235671,"current_range_meters":24800,"station_id":"ce4bh012rcd13ifvqcv0","pricing_plan_id":"cebpf4jnsgd1na2vs0mg"},{"bike_id":"b4ec62ee-726b-4bbc-b321-4a786dffda71","system_id":"levelo_inurba_marseille","lat":43.309038,"lon":5.396546,"is_reserved":false,"is_disabled":false,"rental_uris":{"android":"levelo://app?vid=b4ec62ee-726b-4bbc-b321-4a786dffda71","ios":"levelo://app?vid=b4ec62ee-726b-4bbc-b321-4a786dffda71"},"vehicle_type_id":"4","last_reported":1716235671,"current_range_meters":20800,"station_id":"ce4bh012rcd13ifvqcv0","pricing_plan_id":"cebpf4jnsgd1na2vs0mg"},{"bike_id":"a780771f-96df-4eaa-9478-8d16d242928f","system_id":"levelo_inurba_marseille","lat":43.29193,"lon":5.357932,"is_reserved":false,"is_disabled":false,"rental_uris":{"android":"levelo://app?vid=a780771f-96df-4eaa-9478-8d16d242928f","ios":"levelo://app?vid=a780771f-96df-4eaa-9478-8d16d242928f"},"vehicle_type_id":"4","last_reported":1716235671,"current_range_meters":0,"station_id":"ce4bhb12rcd13ifvqel0","pricing_plan_id":"cebpf4jnsgd1na2vs0mg"},{"bike_id":"bdf46c2b-53cb-43d0-b9f0-bbffd132f6f9","system_id":"levelo_inurba_marseille","lat":43.296592,"lon":5.387116,"is_reserved":false,"is_disabled":false,"rental_uris":{"android":"levelo://app?vid=bdf46c2b-53cb-43d0-b9f0-bbffd132f6f9","ios":"levelo://app?vid=bdf46c2b-53cb-43d0-b9f0-bbffd132f6f9"},"vehicle_type_id":"4","last_reported":1716235671,"current_range_meters":20800,"station_id":"chh1huq6cuj3fo74tm60","pricing_plan_id":"cebpf4jnsgd1na2vs0mg"},{"bike_id":"14cc3f27-b2c7-4e44-b9b2-72e6caa83491","system_id":"levelo_inurba_marseille","lat":43.309038,"lon":5.396546,"is_reserved":false,"is_disabled":false,"rental_uris":{"android":"levelo://app?vid=14cc3f27-b2c7-4e44-b9b2-72e6caa83491","ios":"levelo://app?vid=14cc3f27-b2c7-4e44-b9b2-72e6caa83491"},"vehicle_type_id":"4","last_reported":1716235671,"current_range_meters":31200,"station_id":"ce4bh012rcd13ifvqcv0","pricing_plan_id":"cebpf4jnsgd1na2vs0mg"},{"bike_id":"be9c4b68-c0bc-4260-b2c4-b238275ba2c4","system_id":"levelo_inurba_marseille","lat":43.308806,"lon":5.396452,"is_reserved":false,"is_disabled":false,"rental_uris":{"android":"levelo://app?vid=be9c4b68-c0bc-4260-b2c4-b238275ba2c4","ios":"levelo://app?vid=be9c4b68-c0bc-4260-b2c4-b238275ba2c4"},"vehicle_type_id":"4","last_reported":1716235671,"current_range_meters":24800,"station_id":"ce4bh012rcd13ifvqcv0","pricing_plan_id":"cebpf4jnsgd1na2vs0mg"},{"bike_id":"e79168d1-5efc-4f77-9fba-fb7f08355ccf","system_id":"levelo_inurba_marseille","lat":43.308814,"lon":5.396458,"is_reserved":false,"is_disabled":false,"rental_uris":{"android":"levelo://app?vid=e79168d1-5efc-4f77-9fba-fb7f08355ccf","ios":"levelo://app?vid=e79168d1-5efc-4f77-9fba-fb7f08355ccf"},"vehicle_type_id":"4","last_reported":1716235671,"current_range_meters":30400,"station_id":"ce4bh012rcd13ifvqcv0","pricing_plan_id":"cebpf4jnsgd1na2vs0mg"},{"bike_id":"2affbb5f-e3ec-4785-9458-ac8b83ed9da0","system_id":"levelo_inurba_marseille","lat":43.309038,"lon":5.396546,"is_reserved":false,"is_disabled":false,"rental_uris":{"android":"levelo://app?vid=2affbb5f-e3ec-4785-9458-ac8b83ed9da0","ios":"levelo://app?vid=2affbb5f-e3ec-4785-9458-ac8b83ed9da0"},"vehicle_type_id":"4","last_reported":1716235671,"current_range_meters":22800,"station_id":"ce4bh012rcd13ifvqcv0","pricing_plan_id":"cebpf4jnsgd1na2vs0mg"},{"bike_id":"5ce8be43-9e96-4c04-84d6-ff3875da247a","system_id":"levelo_inurba_marseille","lat":43.313291,"lon":5.396838,"is_reserved":false,"is_disabled":false,"rental_uris":{"android":"levelo://app?vid=5ce8be43-9e96-4c04-84d6-ff3875da247a","ios":"levelo://app?vid=5ce8be43-9e96-4c04-84d6-ff3875da247a"},"vehicle_type_id":"4","last_reported":1716235671,"current_range_meters":27200,"station_id":"ce4bgvp2rcd13ifvqcu0","pricing_plan_id":"cebpf4jnsgd1na2vs0mg"},{"bike_id":"20795824-3eb6-41e5-bab8-562a7a838bea","system_id":"levelo_inurba_marseille","lat":43.309038,"lon":5.396546,"is_reserved":false,"is_disabled":false,"rental_uris":{"android":"levelo://app?vid=20795824-3eb6-41e5-bab8-562a7a838bea","ios":"levelo://app?vid=20795824-3eb6-41e5-bab8-562a7a838bea"},"vehicle_type_id":"4","last_reported":1716235671,"current_range_meters":28000,"station_id":"ce4bh012rcd13ifvqcv0","pricing_plan_id":"cebpf4jnsgd1na2vs0mg"},{"bike_id":"63add58d-c501-4845-8795-9c941b6b7b7a","system_id":"levelo_inurba_marseille","lat":43.313291,"lon":5.396838,"is_reserved":false,"is_disabled":false,"rental_uris":{"android":"levelo://app?vid=63add58d-c501-4845-8795-9c941b6b7b7a","ios":"levelo://app?vid=63add58d-c501-4845-8795-9c941b6b7b7a"},"vehicle_type_id":"4","last_reported":1716235671,"current_range_meters":24400,"station_id":"ce4bgvp2rcd13ifvqcu0","pricing_plan_id":"cebpf4jnsgd1na2vs0mg"},{"bike_id":"b3999ba4-9974-4044-88ab-9bc902c3dd58","system_id":"levelo_inurba_marseille","lat":43.30892,"lon":5.396541,"is_reserved":false,"is_disabled":false,"rental_uris":{"android":"levelo://app?vid=b3999ba4-9974-4044-88ab-9bc902c3dd58","ios":"levelo://app?vid=b3999ba4-9974-4044-88ab-9bc902c3dd58"},"vehicle_type_id":"4","last_reported":1716235671,"current_range_meters":31200,"station_id":"ce4bh012rcd13ifvqcv0","pricing_plan_id":"cebpf4jnsgd1na2vs0mg"},{"bike_id":"b03850d4-2525-4483-bf41-ed760dcf92dd","system_id":"levelo_inurba_marseille","lat":43.313291,"lon":5.396838,"is_reserved":false,"is_disabled":false,"rental_uris":{"android":"levelo://app?vid=b03850d4-2525-4483-bf41-ed760dcf92dd","ios":"levelo://app?vid=b03850d4-2525-4483-bf41-ed760dcf92dd"},"vehicle_type_id":"4","last_reported":1716235671,"current_range_meters":20000,"station_id":"ce4bgvp2rcd13ifvqcu0","pricing_plan_id":"cebpf4jnsgd1na2vs0mg"},{"bike_id":"7f182f90-ee13-4500-b46c-2b4aaf8dea57","system_id":"levelo_inurba_marseille","lat":43.309038,"lon":5.396546,"is_reserved":false,"is_disabled":false,"rental_uris":{"android":"levelo://app?vid=7f182f90-ee13-4500-b46c-2b4aaf8dea57","ios":"levelo://app?vid=7f182f90-ee13-4500-b46c-2b4aaf8dea57"},"vehicle_type_id":"4","last_reported":1716235671,"current_range_meters":29200,"station_id":"ce4bh012rcd13ifvqcv0","pricing_plan_id":"cebpf4jnsgd1na2vs0mg"},{"bike_id":"3f8789b8-8734-4430-be1a-d31cd1b3ccff","system_id":"levelo_inurba_marseille","lat":43.309038,"lon":5.396546,"is_reserved":false,"is_disabled":false,"rental_uris":{"android":"levelo://app?vid=3f8789b8-8734-4430-be1a-d31cd1b3ccff","ios":"levelo://app?vid=3f8789b8-8734-4430-be1a-d31cd1b3ccff"},"vehicle_type_id":"4","last_reported":1716235671,"current_range_meters":400,"station_id":"ce4bh012rcd13ifvqcv0","pricing_plan_id":"cebpf4jnsgd1na2vs0mg"},{"bike_id":"4b90ca5d-d9b8-4490-ba92-803e63181438","system_id":"levelo_inurba_marseille","lat":43.309038,"lon":5.396546,"is_reserved":false,"is_disabled":false,"rental_uris":{"android":"levelo://app?vid=4b90ca5d-d9b8-4490-ba92-803e63181438","ios":"levelo://app?vid=4b90ca5d-d9b8-4490-ba92-803e63181438"},"vehicle_type_id":"4","last_reported":1716235671,"current_range_meters":22000,"station_id":"ce4bh012rcd13ifvqcv0","pricing_plan_id":"cebpf4jnsgd1na2vs0mg"},{"bike_id":"ca26142b-3189-488d-be31-bc7ce2731b4c","system_id":"levelo_inurba_marseille","lat":43.29529,"lon":5.385581,"is_reserved":false,"is_disabled":false,"rental_uris":{"android":"levelo://app?vid=ca26142b-3189-488d-be31-bc7ce2731b4c","ios":"levelo://app?vid=ca26142b-3189-488d-be31-bc7ce2731b4c"},"vehicle_type_id":"4","last_reported":1716235671,"current_range_meters":10800,"station_id":"ce4bgih2rcd13ifvqba0","pricing_plan_id":"cebpf4jnsgd1na2vs0mg"},{"bike_id":"203a189d-f310-463f-bd66-d2dfd3fadfea","system_id":"levelo_inurba_marseille","lat":43.29529,"lon":5.385581,"is_reserved":false,"is_disabled":false,"rental_uris":{"android":"levelo://app?vid=203a189d-f310-463f-bd66-d2dfd3fadfea","ios":"levelo://app?vid=203a189d-f310-463f-bd66-d2dfd3fadfea"},"vehicle_type_id":"4","last_reported":1716235671,"current_range_meters":4400,"station_id":"ce4bgih2rcd13ifvqba0","pricing_plan_id":"cebpf4jnsgd1na2vs0mg"},{"bike_id":"085743a2-f40b-488b-a9ab-3b3a243ad595","system_id":"levelo_inurba_marseille","lat":43.29529,"lon":5.385581,"is_reserved":false,"is_disabled":false,"rental_uris":{"android":"levelo://app?vid=085743a2-f40b-488b-a9ab-3b3a243ad595","ios":"levelo://app?vid=085743a2-f40b-488b-a9ab-3b3a243ad595"},"vehicle_type_id":"4","last_reported":1716235671,"current_range_meters":18000,"station_id":"ce4bgih2rcd13ifvqba0","pricing_plan_id":"cebpf4jnsgd1na2vs0mg"},{"bike_id":"9df6c7ef-283e-4426-aa39-7c54f4d12d6b","system_id":"levelo_inurba_marseille","lat":43.29529,"lon":5.385581,"is_reserved":false,"is_disabled":false,"rental_uris":{"android":"levelo://app?vid=9df6c7ef-283e-4426-aa39-7c54f4d12d6b","ios":"levelo://app?vid=9df6c7ef-283e-4426-aa39-7c54f4d12d6b"},"vehicle_type_id":"4","last_reported":1716235671,"current_range_meters":4000,"station_id":"ce4bgih2rcd13ifvqba0","pricing_plan_id":"cebpf4jnsgd1na2vs0mg"},{"bike_id":"5a3f0cd8-724b-47c9-931f-f84837e4f224","system_id":"levelo_inurba_marseille","lat":43.29529,"lon":5.385581,"is_reserved":false,"is_disabled":false,"rental_uris":{"android":"levelo://app?vid=5a3f0cd8-724b-47c9-931f-f84837e4f224","ios":"levelo://app?vid=5a3f0cd8-724b-47c9-931f-f84837e4f224"},"vehicle_type_id":"4","last_reported":1716235671,"current_range_meters":23200,"station_id":"ce4bgih2rcd13ifvqba0","pricing_plan_id":"cebpf4jnsgd1na2vs0mg"},{"bike_id":"091b4b5e-da0e-48d7-9e77-d8f7d04dca7e","system_id":"levelo_inurba_marseille","lat":43.29529,"lon":5.385581,"is_reserved":false,"is_disabled":false,"rental_uris":{"android":"levelo://app?vid=091b4b5e-da0e-48d7-9e77-d8f7d04dca7e","ios":"levelo://app?vid=091b4b5e-da0e-48d7-9e77-d8f7d04dca7e"},"vehicle_type_id":"4","last_reported":1716235671,"current_range_meters":22000,"station_id":"ce4bgih2rcd13ifvqba0","pricing_plan_id":"cebpf4jnsgd1na2vs0mg"},{"bike_id":"03d2c921-2f68-4f1e-9c28-830aa7076ede","system_id":"levelo_inurba_marseille","lat":43.29529,"lon":5.385581,"is_reserved":false,"is_disabled":false,"rental_uris":{"android":"levelo://app?vid=03d2c921-2f68-4f1e-9c28-830aa7076ede","ios":"levelo://app?vid=03d2c921-2f68-4f1e-9c28-830aa7076ede"},"vehicle_type_id":"4","last_reported":1716235671,"current_range_meters":31600,"station_id":"ce4bgih2rcd13ifvqba0","pricing_plan_id":"cebpf4jnsgd1na2vs0mg"},{"bike_id":"9df56f76-143a-4bc3-a6eb-287f0f1b9797","system_id":"levelo_inurba_marseille","lat":43.29533,"lon":5.38541,"is_reserved":false,"is_disabled":false,"rental_uris":{"android":"levelo://app?vid=9df56f76-143a-4bc3-a6eb-287f0f1b9797","ios":"levelo://app?vid=9df56f76-143a-4bc3-a6eb-287f0f1b9797"},"vehicle_type_id":"4","last_reported":1716235671,"current_range_meters":24000,"station_id":"ce4bgih2rcd13ifvqba0","pricing_plan_id":"cebpf4jnsgd1na2vs0mg"},{"bike_id":"88e4e615-3ecf-4db3-b524-825ccde0f284","system_id":"levelo_inurba_marseille","lat":43.29529,"lon":5.385581,"is_reserved":false,"is_disabled":false,"rental_uris":{"android":"levelo://app?vid=88e4e615-3ecf-4db3-b524-825ccde0f284","ios":"levelo://app?vid=88e4e615-3ecf-4db3-b524-825ccde0f284"},"vehicle_type_id":"4","last_reported":1716235671,"current_range_meters":25600,"station_id":"ce4bgih2rcd13ifvqba0","pricing_plan_id":"cebpf4jnsgd1na2vs0mg"},{"bike_id":"969d5ea6-e152-48af-b721-912c0c89344d","system_id":"levelo_inurba_marseille","lat":43.295264,"lon":5.385326,"is_reserved":false,"is_disabled":false,"rental_uris":{"android":"levelo://app?vid=969d5ea6-e152-48af-b721-912c0c89344d","ios":"levelo://app?vid=969d5ea6-e152-48af-b721-912c0c89344d"},"vehicle_type_id":"4","last_reported":1716235671,"current_range_meters":12800,"station_id":"ce4bgih2rcd13ifvqba0","pricing_plan_id":"cebpf4jnsgd1na2vs0mg"},{"bike_id":"cb92d645-ca99-44dc-ab2f-f638e2d3cc36","system_id":"levelo_inurba_marseille","lat":43.29534,"lon":5.38548,"is_reserved":false,"is_disabled":false,"rental_uris":{"android":"levelo://app?vid=cb92d645-ca99-44dc-ab2f-f638e2d3cc36","ios":"levelo://app?vid=cb92d645-ca99-44dc-ab2f-f638e2d3cc36"},"vehicle_type_id":"4","last_reported":1716235671,"current_range_meters":26000,"station_id":"ce4bgih2rcd13ifvqba0","pricing_plan_id":"cebpf4jnsgd1na2vs0mg"},{"bike_id":"06c6329b-cdd0-4336-b083-ae20d1a8df0a","system_id":"levelo_inurba_marseille","lat":43.295315,"lon":5.385435,"is_reserved":false,"is_disabled":false,"rental_uris":{"android":"levelo://app?vid=06c6329b-cdd0-4336-b083-ae20d1a8df0a","ios":"levelo://app?vid=06c6329b-cdd0-4336-b083-ae20d1a8df0a"},"vehicle_type_id":"4","last_reported":1716235671,"current_range_meters":6000,"station_id":"ce4bgih2rcd13ifvqba0","pricing_plan_id":"cebpf4jnsgd1na2vs0mg"},{"bike_id":"1c046ec5-1bec-4dd0-a1b5-d2275c9a99df","system_id":"levelo_inurba_marseille","lat":43.29529,"lon":5.385581,"is_reserved":false,"is_disabled":false,"rental_uris":{"android":"levelo://app?vid=1c046ec5-1bec-4dd0-a1b5-d2275c9a99df","ios":"levelo://app?vid=1c046ec5-1bec-4dd0-a1b5-d2275c9a99df"},"vehicle_type_id":"4","last_reported":1716235671,"current_range_meters":13200,"station_id":"ce4bgih2rcd13ifvqba0","pricing_plan_id":"cebpf4jnsgd1na2vs0mg"},{"bike_id":"e4502312-9069-41c4-81c9-3ce3e7906bbd","system_id":"levelo_inurba_marseille","lat":43.29529,"lon":5.385581,"is_reserved":false,"is_disabled":false,"rental_uris":{"android":"levelo://app?vid=e4502312-9069-41c4-81c9-3ce3e7906bbd","ios":"levelo://app?vid=e4502312-9069-41c4-81c9-3ce3e7906bbd"},"vehicle_type_id":"4","last_reported":1716235671,"current_range_meters":20800,"station_id":"ce4bgih2rcd13ifvqba0","pricing_plan_id":"cebpf4jnsgd1na2vs0mg"},{"bike_id":"9f927b45-bedd-4b4b-9a30-c37768a22c27","system_id":"levelo_inurba_marseille","lat":43.29529,"lon":5.385581,"is_reserved":false,"is_disabled":false,"rental_uris":{"android":"levelo://app?vid=9f927b45-bedd-4b4b-9a30-c37768a22c27","ios":"levelo://app?vid=9f927b45-bedd-4b4b-9a30-c37768a22c27"},"vehicle_type_id":"4","last_reported":1716235671,"current_range_meters":15200,"station_id":"ce4bgih2rcd13ifvqba0","pricing_plan_id":"cebpf4jnsgd1na2vs0mg"},{"bike_id":"23f57e40-fe83-49e5-a796-529faf2d95ef","system_id":"levelo_inurba_marseille","lat":43.29529,"lon":5.385581,"is_reserved":false,"is_disabled":false,"rental_uris":{"android":"levelo://app?vid=23f57e40-fe83-49e5-a796-529faf2d95ef","ios":"levelo://app?vid=23f57e40-fe83-49e5-a796-529faf2d95ef"},"vehicle_type_id":"4","last_reported":1716235671,"current_range_meters":31200,"station_id":"ce4bgih2rcd13ifvqba0","pricing_plan_id":"cebpf4jnsgd1na2vs0mg"},{"bike_id":"93cd0d14-fd17-4ced-ac8a-e9051a6f5d29","system_id":"levelo_inurba_marseille","lat":43.295325,"lon":5.385518,"is_reserved":false,"is_disabled":false,"rental_uris":{"android":"levelo://app?vid=93cd0d14-fd17-4ced-ac8a-e9051a6f5d29","ios":"levelo://app?vid=93cd0d14-fd17-4ced-ac8a-e9051a6f5d29"},"vehicle_type_id":"4","last_reported":1716235671,"current_range_meters":14800,"station_id":"ce4bgih2rcd13ifvqba0","pricing_plan_id":"cebpf4jnsgd1na2vs0mg"},{"bike_id":"c7709e16-78bf-4d56-abf9-29319947abe5","system_id":"levelo_inurba_marseille","lat":43.29529,"lon":5.385581,"is_reserved":false,"is_disabled":false,"rental_uris":{"android":"levelo://app?vid=c7709e16-78bf-4d56-abf9-29319947abe5","ios":"levelo://app?vid=c7709e16-78bf-4d56-abf9-29319947abe5"},"vehicle_type_id":"4","last_reported":1716235671,"current_range_meters":0,"station_id":"ce4bgih2rcd13ifvqba0","pricing_plan_id":"cebpf4jnsgd1na2vs0mg"},{"bike_id":"f4a13afd-69bd-46f1-886f-a1ab52ad7f85","system_id":"levelo_inurba_marseille","lat":43.29529,"lon":5.385581,"is_reserved":false,"is_disabled":false,"rental_uris":{"android":"levelo://app?vid=f4a13afd-69bd-46f1-886f-a1ab52ad7f85","ios":"levelo://app?vid=f4a13afd-69bd-46f1-886f-a1ab52ad7f85"},"vehicle_type_id":"4","last_reported":1716235671,"current_range_meters":25200,"station_id":"ce4bgih2rcd13ifvqba0","pricing_plan_id":"cebpf4jnsgd1na2vs0mg"},{"bike_id":"735c5c3d-68db-422d-bd31-5aaac407e883","system_id":"levelo_inurba_marseille","lat":43.29529,"lon":5.385581,"is_reserved":false,"is_disabled":false,"rental_uris":{"android":"levelo://app?vid=735c5c3d-68db-422d-bd31-5aaac407e883","ios":"levelo://app?vid=735c5c3d-68db-422d-bd31-5aaac407e883"},"vehicle_type_id":"4","last_reported":1716235671,"current_range_meters":31200,"station_id":"ce4bgih2rcd13ifvqba0","pricing_plan_id":"cebpf4jnsgd1na2vs0mg"},{"bike_id":"5e58e060-7ee7-4ad4-a0bd-b8d0f7f42818","system_id":"levelo_inurba_marseille","lat":43.29529,"lon":5.385581,"is_reserved":false,"is_disabled":false,"rental_uris":{"android":"levelo://app?vid=5e58e060-7ee7-4ad4-a0bd-b8d0f7f42818","ios":"levelo://app?vid=5e58e060-7ee7-4ad4-a0bd-b8d0f7f42818"},"vehicle_type_id":"4","last_reported":1716235671,"current_range_meters":3200,"station_id":"ce4bgih2rcd13ifvqba0","pricing_plan_id":"cebpf4jnsgd1na2vs0mg"},{"bike_id":"b22b8ad8-6552-4308-8828-6a8d24b4a8ba","system_id":"levelo_inurba_marseille","lat":43.29527,"lon":5.38556,"is_reserved":false,"is_disabled":false,"rental_uris":{"android":"levelo://app?vid=b22b8ad8-6552-4308-8828-6a8d24b4a8ba","ios":"levelo://app?vid=b22b8ad8-6552-4308-8828-6a8d24b4a8ba"},"vehicle_type_id":"4","last_reported":1716235671,"current_range_meters":2400,"station_id":"ce4bgih2rcd13ifvqba0","pricing_plan_id":"cebpf4jnsgd1na2vs0mg"},{"bike_id":"02569562-b678-4b64-b0e5-7c93e62384a7","system_id":"levelo_inurba_marseille","lat":43.301117,"lon":5.398795,"is_reserved":false,"is_disabled":false,"rental_uris":{"android":"levelo://app?vid=02569562-b678-4b64-b0e5-7c93e62384a7","ios":"levelo://app?vid=02569562-b678-4b64-b0e5-7c93e62384a7"},"vehicle_type_id":"4","last_reported":1716235671,"current_range_meters":18800,"station_id":"ce4bh0h2rcd13ifvqd40","pricing_plan_id":"cebpf4jnsgd1na2vs0mg"},{"bike_id":"337014eb-8c86-4b14-8966-8c351c7ab840","system_id":"levelo_inurba_marseille","lat":43.2935,"lon":5.3822,"is_reserved":false,"is_disabled":false,"rental_uris":{"android":"levelo://app?vid=337014eb-8c86-4b14-8966-8c351c7ab840","ios":"levelo://app?vid=337014eb-8c86-4b14-8966-8c351c7ab840"},"vehicle_type_id":"4","last_reported":1716235671,"current_range_meters":15200,"station_id":"","pricing_plan_id":"cebpf4jnsgd1na2vs0mg"},{"bike_id":"a245ac09-dc89-4c2d-9167-1cccd6f0ffe4","system_id":"levelo_inurba_marseille","lat":43.29528,"lon":5.38586,"is_reserved":false,"is_disabled":false,"rental_uris":{"android":"levelo://app?vid=a245ac09-dc89-4c2d-9167-1cccd6f0ffe4","ios":"levelo://app?vid=a245ac09-dc89-4c2d-9167-1cccd6f0ffe4"},