{"last_updated":1728504583,"ttl":60,"version":"2.2","data":{"bikes":[{"bike_id":"b53f77ab-ba1c-4ba1-af64-411b74248eb8","system_id":"levelo_inurba_marseille","lat":43.32804,"lon":5.38883,"is_reserved":false,"is_disabled":false,"rental_uris":{"android":"levelo://app?vid=b53f77ab-ba1c-4ba1-af64-411b74248eb8","ios":"levelo://app?vid=b53f77ab-ba1c-4ba1-af64-411b74248eb8"},"vehicle_type_id":"4","last_reported":1728504583,"current_range_meters":5600,"station_id":"","pricing_plan_id":"cebpf4jnsgd1na2vs0mg"},{"bike_id":"0b168b70-3819-4c1d-924e-889dd5ff336d","system_id":"levelo_inurba_marseille","lat":43.29024,"lon":5.38642,"is_reserved":false,"is_disabled":false,"rental_uris":{"android":"levelo://app?vid=0b168b70-3819-4c1d-924e-889dd5ff336d","ios":"levelo://app?vid=0b168b70-3819-4c1d-924e-889dd5ff336d"},"vehicle_type_id":"4","last_reported":1728504583,"current_range_meters":26000,"station_id":"ce4bh4p2rcd13ifvqe0g","pricing_plan_id":"cebpf4jnsgd1na2vs0mg"},{"bike_id":"fee2ea35-ed27-4505-8f23-2cced28f1db0","system_id":"levelo_inurba_marseille","lat":43.25109,"lon":5.40351,"is_reserved":false,"is_disabled":false,"rental_uris":{"android":"levelo://app?vid=fee2ea35-ed27-4505-8f23-2cced28f1db0","ios":"levelo://app?vid=fee2ea35-ed27-4505-8f23-2cced28f1db0"},"vehicle_type_id":"4","last_reported":1728504583,"current_range_meters":20800,"station_id":"ce4bhlh2rcd13ifvqgig","pricing_plan_id":"cebpf4jnsgd1na2vs0mg"},{"bike_id":"175d0b37-1f62-4442-b865-8d6671b50282","system_id":"levelo_inurba_marseille","lat":43.25112,"lon":5.40311,"is_reserved":false,"is_disabled":false,"rental_uris":{"android":"levelo://app?vid=175d0b37-1f62-4442-b865-8d6671b50282","ios":"levelo://app?vid=175d0b37-1f62-4442-b865-8d6671b50282"},"vehicle_type_id":"4","last_reported":1728504583,"current_range_meters":18800,"station_id":"ce4bhlh2rcd13ifvqgig","pricing_plan_id":"cebpf4jnsgd1na2vs0mg"},{"bike_id":"2b9de801-4944-4b89-ac1e-d0606188b06a","system_id":"levelo_inurba_marseille","lat":43.32196,"lon":5.39212,"is_reserved":false,"is_disabled":false,"rental_uris":{"android":"levelo://app?vid=2b9de801-4944-4b89-ac1e-d0606188b06a","ios":"levelo://app?vid=2b9de801-4944-4b89-ac1e-d0606188b06a"},"vehicle_type_id":"4","last_reported":1728504583,"current_range_meters":30000,"station_id":"","pricing_plan_id":"cebpf4jnsgd1na2vs0mg"},{"bike_id":"6b8918a4-396b-43e5-9a7f-f056357bf660","system_id":"levelo_inurba_marseille","lat":43.23064,"lon":5.35492,"is_reserved":false,"is_disabled":false,"rental_uris":{"android":"levelo://app?vid=6b8918a4-396b-43e5-9a7f-f056357bf660","ios":"levelo://app?vid=6b8918a4-396b-43e5-9a7f-f056357bf660"},"vehicle_type_id":"4","last_reported":1728504583,"current_range_meters":7200,"station_id":"cpo3342slgdg3j2ifvpg","pricing_plan_id":"cebpf4jnsgd1na2vs0mg"},{"bike_id":"68abd3f4-ea69-49e2-bd08-d04468479980","system_id":"levelo_inurba_marseille","lat":43.317147,"lon":5.436975,"is_reserved":false,"is_disabled":false,"rental_uris":{"android":"levelo://app?vid=68abd3f4-ea69-49e2-bd08-d04468479980","ios":"levelo://app?vid=68abd3f4-ea69-49e2-bd08-d04468479980"},"vehicle_type_id":"4","last_reported":1728504583,"current_range_meters":38800,"station_id":"ce4bhp92rcd13ifvqhcg","pricing_plan_id":"cebpf4jnsgd1na2vs0mg"},{"bike_id":"77e290a6-a562-4dc9-937e-5dbc03e2c369","system_id":"levelo_inurba_marseille","lat":43.29966,"lon":5.41327,"is_reserved":false,"is_disabled":false,"rental_uris":{"android":"levelo://app?vid=77e290a6-a562-4dc9-937e-5dbc03e2c369","ios":"levelo://app?vid=77e290a6-a562-4dc9-937e-5dbc03e2c369"},"vehicle_type_id":"4","last_reported":1728504583,"current_range_meters":8400,"station_id":"ce4bhp12rcd13ifvqh9g","pricing_plan_id":"cebpf4jnsgd1na2vs0mg"},{"bike_id":"19655170-db3c-4060-8fdf-0815178dd186","system_id":"levelo_inurba_marseille","lat":43.30171,"lon":5.38744,"is_reserved":false,"is_disabled":false,"rental_uris":{"android":"levelo://app?vid=19655170-db3c-4060-8fdf-0815178dd186","ios":"levelo://app?vid=19655170-db3c-4060-8fdf-0815178dd186"},"vehicle_type_id":"4","last_reported":1728504583,"current_range_meters":22400,"station_id":"ce4bghh2rcd13ifvqb60","pricing_plan_id":"cebpf4jnsgd1na2vs0mg"},{"bike_id":"10adf6ac-8a26-424b-bce6-67370c8dfb5b","system_id":"levelo_inurba_marseille","lat":43.31998,"lon":5.38163,"is_reserved":false,"is_disabled":false,"rental_uris":{"android":"levelo://app?vid=10adf6ac-8a26-424b-bce6-67370c8dfb5b","ios":"levelo://app?vid=10adf6ac-8a26-424b-bce6-67370c8dfb5b"},"vehicle_type_id":"4","last_reported":1728504583,"current_range_meters":34000,"station_id":"ce4bhr12rcd13ifvqhpg","pricing_plan_id":"cebpf4jnsgd1na2vs0mg"},{"bike_id":"ab14fd6b-7ac0-4c4e-98cb-dd24c0559b1f","system_id":"levelo_inurba_marseille","lat":43.30178,"lon":5.36607,"is_reserved":false,"is_disabled":false,"rental_uris":{"android":"levelo://app?vid=ab14fd6b-7ac0-4c4e-98cb-dd24c0559b1f","ios":"levelo://app?vid=ab14fd6b-7ac0-4c4e-98cb-dd24c0559b1f"},"vehicle_type_id":"4","last_reported":1728504583,"current_range_meters":12000,"station_id":"ce4bgrh2rcd13ifvqc8g","pricing_plan_id":"cebpf4jnsgd1na2vs0mg"},{"bike_id":"76ec85ce-c9ca-4dc4-abf7-5ce9bc6d1130","system_id":"levelo_inurba_marseille","lat":43.24076,"lon":5.37762,"is_reserved":false,"is_disabled":false,"rental_uris":{"android":"levelo://app?vid=76ec85ce-c9ca-4dc4-abf7-5ce9bc6d1130","ios":"levelo://app?vid=76ec85ce-c9ca-4dc4-abf7-5ce9bc6d1130"},"vehicle_type_id":"4","last_reported":1728504583,"current_range_meters":3600,"station_id":"ce4bhnp2rcd13ifvqgvg","pricing_plan_id":"cebpf4jnsgd1na2vs0mg"},{"bike_id":"f74e6377-c0b5-4e10-8194-fc4616df6b74","system_id":"levelo_inurba_marseille","lat":43.24544,"lon":5.3952,"is_reserved":false,"is_disabled":false,"rental_uris":{"android":"levelo://app?vid=f74e6377-c0b5-4e10-8194-fc4616df6b74","ios":"levelo://app?vid=f74e6377-c0b5-4e10-8194-fc4616df6b74"},"vehicle_type_id":"4","last_reported":1728504583,"current_range_meters":38800,"station_id":"ce4bhlp2rcd13ifvqgjg","pricing_plan_id":"cebpf4jnsgd1na2vs0mg"},{"bike_id":"64c9abdc-a744-4b43-9856-a64e8ee5db15","system_id":"levelo_inurba_marseille","lat":43.23063,"lon":5.35496,"is_reserved":false,"is_disabled":false,"rental_uris":{"android":"levelo://app?vid=64c9abdc-a744-4b43-9856-a64e8ee5db15","ios":"levelo://app?vid=64c9abdc-a744-4b43-9856-a64e8ee5db15"},"vehicle_type_id":"4","last_reported":1728504583,"current_range_meters":36800,"station_id":"cpo3342slgdg3j2ifvpg","pricing_plan_id":"cebpf4jnsgd1na2vs0mg"},{"bike_id":"cdc54f35-60ba-419d-9cd7-57190d56bf8c","system_id":"levelo_inurba_marseille","lat":43.28152,"lon":5.42649,"is_reserved":false,"is_disabled":false,"rental_uris":{"android":"levelo://app?vid=cdc54f35-60ba-419d-9cd7-57190d56bf8c","ios":"levelo://app?vid=cdc54f35-60ba-419d-9cd7-57190d56bf8c"},"vehicle_type_id":"4","last_reported":1728504583,"current_range_meters":9200,"station_id":"ce4bhnh2rcd13ifvqgug","pricing_plan_id":"cebpf4jnsgd1na2vs0mg"},{"bike_id":"bb95532b-17bc-482b-ab15-99455c538354","system_id":"levelo_inurba_marseille","lat":43.24187,"lon":5.39723,"is_reserved":false,"is_disabled":false,"rental_uris":{"android":"levelo://app?vid=bb95532b-17bc-482b-ab15-99455c538354","ios":"levelo://app?vid=bb95532b-17bc-482b-ab15-99455c538354"},"vehicle_type_id":"4","last_reported":1728504583,"current_range_meters":38800,"station_id":"ce4bhn12rcd13ifvqgpg","pricing_plan_id":"cebpf4jnsgd1na2vs0mg"},{"bike_id":"c63e83de-f5b0-4819-8f01-392a7912c20e","system_id":"levelo_inurba_marseille","lat":43.2573,"lon":5.41112,"is_reserved":false,"is_disabled":false,"rental_uris":{"android":"levelo://app?vid=c63e83de-f5b0-4819-8f01-392a7912c20e","ios":"levelo://app?vid=c63e83de-f5b0-4819-8f01-392a7912c20e"},"vehicle_type_id":"4","last_reported":1728504583,"current_range_meters":7200,"station_id":"ce4bhkp2rcd13ifvqgd0","pricing_plan_id":"cebpf4jnsgd1na2vs0mg"},{"bike_id":"f9c8d37c-c7e8-4995-8bc0-103dddee1b54","system_id":"levelo_inurba_marseille","lat":43.28476,"lon":5.385586,"is_reserved":false,"is_disabled":false,"rental_uris":{"android":"levelo://app?vid=f9c8d37c-c7e8-4995-8bc0-103dddee1b54","ios":"levelo://app?vid=f9c8d37c-c7e8-4995-8bc0-103dddee1b54"},"vehicle_type_id":"4","last_reported":1728504583,"current_range_meters":18000,"station_id":"ce4bh8p2rcd13ifvqeb0","pricing_plan_id":"cebpf4jnsgd1na2vs0mg"},{"bike_id":"f938f965-cdc0-4b98-a6d0-3a61f15e582a","system_id":"levelo_inurba_marseille","lat":43.27496,"lon":5.42446,"is_reserved":false,"is_disabled":false,"rental_uris":{"android":"levelo://app?vid=f938f965-cdc0-4b98-a6d0-3a61f15e582a","ios":"levelo://app?vid=f938f965-cdc0-4b98-a6d0-3a61f15e582a"},"vehicle_type_id":"4","last_reported":1728504583,"current_range_meters":38800,"station_id":"ce4bhn92rcd13ifvqgrg","pricing_plan_id":"cebpf4jnsgd1na2vs0mg"},{"bike_id":"058ef1ff-5858-4a6d-965f-98aeb9455f88","system_id":"levelo_inurba_marseille","lat":43.31753,"lon":5.39024,"is_reserved":false,"is_disabled":false,"rental_uris":{"android":"levelo://app?vid=058ef1ff-5858-4a6d-965f-98aeb9455f88","ios":"levelo://app?vid=058ef1ff-5858-4a6d-965f-98aeb9455f88"},"vehicle_type_id":"4","last_reported":1728504583,"current_range_meters":36800,"station_id":"ce4bhqp2rcd13ifvqhng","pricing_plan_id":"cebpf4jnsgd1na2vs0mg"},{"bike_id":"96a4c2d4-3924-4e15-9199-55d0360793e1","system_id":"levelo_inurba_marseille","lat":43.28152,"lon":5.42639,"is_reserved":false,"is_disabled":false,"rental_uris":{"android":"levelo://app?vid=96a4c2d4-3924-4e15-9199-55d0360793e1","ios":"levelo://app?vid=96a4c2d4-3924-4e15-9199-55d0360793e1"},"vehicle_type_id":"4","last_reported":1728504583,"current_range_meters":38800,"station_id":"ce4bhnh2rcd13ifvqgug","pricing_plan_id":"cebpf4jnsgd1na2vs0mg"},{"bike_id":"a64979e6-0053-4861-81e5-3c931f348c4c","system_id":"levelo_inurba_marseille","lat":43.32347,"lon":5.38899,"is_reserved":false,"is_disabled":false,"rental_uris":{"android":"levelo://app?vid=a64979e6-0053-4861-81e5-3c931f348c4c","ios":"levelo://app?vid=a64979e6-0053-4861-81e5-3c931f348c4c"},"vehicle_type_id":"4","last_reported":1728504583,"current_range_meters":9600,"station_id":"ce4bhqp2rcd13ifvqhog","pricing_plan_id":"cebpf4jnsgd1na2vs0mg"},{"bike_id":"f8a162ab-4b66-4bc7-8984-b44abdaf2e30","system_id":"levelo_inurba_marseille","lat":43.2465,"lon":5.3889,"is_reserved":false,"is_disabled":false,"rental_uris":{"android":"levelo://app?vid=f8a162ab-4b66-4bc7-8984-b44abdaf2e30","ios":"levelo://app?vid=f8a162ab-4b66-4bc7-8984-b44abdaf2e30"},"vehicle_type_id":"4","last_reported":1728504583,"current_range_meters":20400,"station_id":"ce4bhg12rcd13ifvqf60","pricing_plan_id":"cebpf4jnsgd1na2vs0mg"},{"bike_id":"0fc1ebfe-0ef8-4da4-9f7b-9fc488cf19bc","system_id":"levelo_inurba_marseille","lat":43.23189,"lon":5.39986,"is_reserved":false,"is_disabled":false,"rental_uris":{"android":"levelo://app?vid=0fc1ebfe-0ef8-4da4-9f7b-9fc488cf19bc","ios":"levelo://app?vid=0fc1ebfe-0ef8-4da4-9f7b-9fc488cf19bc"},"vehicle_type_id":"4","last_reported":1728504583,"current_range_meters":38000,"station_id":"ce4bhn12rcd13ifvqgqg","pricing_plan_id":"cebpf4jnsgd1na2vs0mg"},{"bike_id":"59a20882-e884-470e-b111-32ed424e7cc3","system_id":"levelo_inurba_marseille","lat":43.33727,"lon":5.39189,"is_reserved":false,"is_disabled":false,"rental_uris":{"android":"levelo://app?vid=59a20882-e884-470e-b111-32ed424e7cc3","ios":"levelo://app?vid=59a20882-e884-470e-b111-32ed424e7cc3"},"vehicle_type_id":"4","last_reported":1728504583,"current_range_meters":29600,"station_id":"ce4bhr92rcd13ifvqhsg","pricing_plan_id":"cebpf4jnsgd1na2vs0mg"},{"bike_id":"77b3f5e8-965b-4f90-a251-15770684e21b","system_id":"levelo_inurba_marseille","lat":43.24185,"lon":5.39721,"is_reserved":false,"is_disabled":false,"rental_uris":{"android":"levelo://app?vid=77b3f5e8-965b-4f90-a251-15770684e21b","ios":"levelo://app?vid=77b3f5e8-965b-4f90-a251-15770684e21b"},"vehicle_type_id":"4","last_reported":1728504583,"current_range_meters":38800,"station_id":"ce4bhn12rcd13ifvqgpg","pricing_plan_id":"cebpf4jnsgd1na2vs0mg"},{"bike_id":"72078f29-e154-4c5b-836a-c7e362ba1f09","system_id":"levelo_inurba_marseille","lat":43.33763,"lon":5.37467,"is_reserved":false,"is_disabled":false,"rental_uris":{"android":"levelo://app?vid=72078f29-e154-4c5b-836a-c7e362ba1f09","ios":"levelo://app?vid=72078f29-e154-4c5b-836a-c7e362ba1f09"},"vehicle_type_id":"4","last_reported":1728504583,"current_range_meters":10800,"station_id":"ce4rr2p2rcd13i802rgg","pricing_plan_id":"cebpf4jnsgd1na2vs0mg"},{"bike_id":"7d7ab187-9965-49a4-bf26-b6ade39671fc","system_id":"levelo_inurba_marseille","lat":43.23196,"lon":5.35552,"is_reserved":false,"is_disabled":false,"rental_uris":{"android":"levelo://app?vid=7d7ab187-9965-49a4-bf26-b6ade39671fc","ios":"levelo://app?vid=7d7ab187-9965-49a4-bf26-b6ade39671fc"},"vehicle_type_id":"4","last_reported":1728504583,"current_range_meters":23200,"station_id":"ce4bhu92rcd13ifvqi70","pricing_plan_id":"cebpf4jnsgd1na2vs0mg"},{"bike_id":"d51f0193-0dff-4957-8877-479daabe2300","system_id":"levelo_inurba_marseille","lat":43.337444,"lon":5.374475,"is_reserved":false,"is_disabled":false,"rental_uris":{"android":"levelo://app?vid=d51f0193-0dff-4957-8877-479daabe2300","ios":"levelo://app?vid=d51f0193-0dff-4957-8877-479daabe2300"},"vehicle_type_id":"4","last_reported":1728504583,"current_range_meters":36800,"station_id":"ce4rr2p2rcd13i802rgg","pricing_plan_id":"cebpf4jnsgd1na2vs0mg"},{"bike_id":"296004e0-5751-4935-8069-bb51f866a7db","system_id":"levelo_inurba_marseille","lat":43.231889,"lon":5.399834,"is_reserved":false,"is_disabled":false,"rental_uris":{"android":"levelo://app?vid=296004e0-5751-4935-8069-bb51f866a7db","ios":"levelo://app?vid=296004e0-5751-4935-8069-bb51f866a7db"},"vehicle_type_id":"4","last_reported":1728504583,"current_range_meters":38800,"station_id":"ce4bhn12rcd13ifvqgqg","pricing_plan_id":"cebpf4jnsgd1na2vs0mg"},{"bike_id":"bd0feaab-3ea1-4388-ac8e-ed1008efa279","system_id":"levelo_inurba_marseille","lat":43.30886,"lon":5.39651,"is_reserved":false,"is_disabled":false,"rental_uris":{"android":"levelo://app?vid=bd0feaab-3ea1-4388-ac8e-ed1008efa279","ios":"levelo://app?vid=bd0feaab-3ea1-4388-ac8e-ed1008efa279"},"vehicle_type_id":"4","last_reported":1728504583,"current_range_meters":38800,"station_id":"ce4bh012rcd13ifvqcv0","pricing_plan_id":"cebpf4jnsgd1na2vs0mg"},{"bike_id":"e5079a8b-46a0-4ba7-9792-46181fa72feb","system_id":"levelo_inurba_marseille","lat":43.30876,"lon":5.39626,"is_reserved":false,"is_disabled":false,"rental_uris":{"android":"levelo://app?vid=e5079a8b-46a0-4ba7-9792-46181fa72feb","ios":"levelo://app?vid=e5079a8b-46a0-4ba7-9792-46181fa72feb"},"vehicle_type_id":"4","last_reported":1728504583,"current_range_meters":2800,"station_id":"ce4bh012rcd13ifvqcv0","pricing_plan_id":"cebpf4jnsgd1na2vs0mg"},{"bike_id":"b149bf8c-24ec-415d-b234-f0b11661de68","system_id":"levelo_inurba_marseille","lat":43.25084,"lon":5.39516,"is_reserved":false,"is_disabled":false,"rental_uris":{"android":"levelo://app?vid=b149bf8c-24ec-415d-b234-f0b11661de68","ios":"levelo://app?vid=b149bf8c-24ec-415d-b234-f0b11661de68"},"vehicle_type_id":"4","last_reported":1728504583,"current_range_meters":30800,"station_id":"ce4bhm12rcd13ifvqgkg","pricing_plan_id":"cebpf4jnsgd1na2vs0mg"},{"bike_id":"a4729f17-ff00-42d4-ac28-b30108d96491","system_id":"levelo_inurba_marseille","lat":43.29879,"lon":5.39733,"is_reserved":false,"is_disabled":false,"rental_uris":{"android":"levelo://app?vid=a4729f17-ff00-42d4-ac28-b30108d96491","ios":"levelo://app?vid=a4729f17-ff00-42d4-ac28-b30108d96491"},"vehicle_type_id":"4","last_reported":1728504583,"current_range_meters":34800,"station_id":"ce4bh0h2rcd13ifvqd50","pricing_plan_id":"cebpf4jnsgd1na2vs0mg"},{"bike_id":"c3993a4e-b97c-4c43-aa40-3d8caa98b87d","system_id":"levelo_inurba_marseille","lat":43.29865,"lon":5.39732,"is_reserved":false,"is_disabled":false,"rental_uris":{"android":"levelo://app?vid=c3993a4e-b97c-4c43-aa40-3d8caa98b87d","ios":"levelo://app?vid=c3993a4e-b97c-4c43-aa40-3d8caa98b87d"},"vehicle_type_id":"4","last_reported":1728504583,"current_range_meters":37600,"station_id":"ce4bh0h2rcd13ifvqd50","pricing_plan_id":"cebpf4jnsgd1na2vs0mg"},{"bike_id":"1a9a3cc6-2502-4c80-8b31-7bb36d7cba31","system_id":"levelo_inurba_marseille","lat":43.22935,"lon":5.35376,"is_reserved":false,"is_disabled":false,"rental_uris":{"android":"levelo://app?vid=1a9a3cc6-2502-4c80-8b31-7bb36d7cba31","ios":"levelo://app?vid=1a9a3cc6-2502-4c80-8b31-7bb36d7cba31"},"vehicle_type_id":"4","last_reported":1728504583,"current_range_meters":38800,"station_id":"cpo3532slgdg3j2ikp40","pricing_plan_id":"cebpf4jnsgd1na2vs0mg"},{"bike_id":"40a98b6f-bb4b-4db0-944d-df8f03606adc","system_id":"levelo_inurba_marseille","lat":43.2757,"lon":5.38437,"is_reserved":false,"is_disabled":false,"rental_uris":{"android":"levelo://app?vid=40a98b6f-bb4b-4db0-944d-df8f03606adc","ios":"levelo://app?vid=40a98b6f-bb4b-4db0-944d-df8f03606adc"},"vehicle_type_id":"4","last_reported":1728504583,"current_range_meters":8800,"station_id":"ce4bhh92rcd13ifvqfi0","pricing_plan_id":"cebpf4jnsgd1na2vs0mg"},{"bike_id":"42a75535-f3eb-42ef-b616-b8fbfba19386","system_id":"levelo_inurba_marseille","lat":43.28105,"lon":5.37836,"is_reserved":false,"is_disabled":false,"rental_uris":{"android":"levelo://app?vid=42a75535-f3eb-42ef-b616-b8fbfba19386","ios":"levelo://app?vid=42a75535-f3eb-42ef-b616-b8fbfba19386"},"vehicle_type_id":"4","last_reported":1728504583,"current_range_meters":18000,"station_id":"ce4bha12rcd13ifvqee0","pricing_plan_id":"cebpf4jnsgd1na2vs0mg"},{"bike_id":"14cc985f-c073-46c4-bce8-9e5e4ec92403","system_id":"levelo_inurba_marseille","lat":43.32345,"lon":5.40612,"is_reserved":false,"is_disabled":false,"rental_uris":{"android":"levelo://app?vid=14cc985f-c073-46c4-bce8-9e5e4ec92403","ios":"levelo://app?vid=14cc985f-c073-46c4-bce8-9e5e4ec92403"},"vehicle_type_id":"4","last_reported":1728504583,"current_range_meters":7200,"station_id":"ce4bhq92rcd13ifvqhjg","pricing_plan_id":"cebpf4jnsgd1na2vs0mg"},{"bike_id":"e7631295-85e2-4f64-a554-825b3479c0dc","system_id":"levelo_inurba_marseille","lat":43.27494,"lon":5.42463,"is_reserved":false,"is_disabled":false,"rental_uris":{"android":"levelo://app?vid=e7631295-85e2-4f64-a554-825b3479c0dc","ios":"levelo://app?vid=e7631295-85e2-4f64-a554-825b3479c0dc"},"vehicle_type_id":"4","last_reported":1728504583,"current_range_meters":38800,"station_id":"ce4bhn92rcd13ifvqgrg","pricing_plan_id":"cebpf4jnsgd1na2vs0mg"},{"bike_id":"b6686461-4b48-4eae-9ce8-8178b8df331b","system_id":"levelo_inurba_marseille","lat":43.24658,"lon":5.38159,"is_reserved":false,"is_disabled":false,"rental_uris":{"android":"levelo://app?vid=b6686461-4b48-4eae-9ce8-8178b8df331b","ios":"levelo://app?vid=b6686461-4b48-4eae-9ce8-8178b8df331b"},"vehicle_type_id":"4","last_reported":1728504583,"current_range_meters":38800,"station_id":"ce4bhih2rcd13ifvqfr0","pricing_plan_id":"cebpf4jnsgd1na2vs0mg"},{"bike_id":"218cdace-a759-47f4-ae35-4c42b09ffb2c","system_id":"levelo_inurba_marseille","lat":43.25723,"lon":5.41112,"is_reserved":false,"is_disabled":false,"rental_uris":{"android":"levelo://app?vid=218cdace-a759-47f4-ae35-4c42b09ffb2c","ios":"levelo://app?vid=218cdace-a759-47f4-ae35-4c42b09ffb2c"},"vehicle_type_id":"4","last_reported":1728504583,"current_range_meters":22400,"station_id":"ce4bhkp2rcd13ifvqgd0","pricing_plan_id":"cebpf4jnsgd1na2vs0mg"},{"bike_id":"63b9cce1-f3d8-4655-b818-f5ae36bee504","system_id":"levelo_inurba_marseille","lat":43.28661,"lon":5.363563,"is_reserved":false,"is_disabled":false,"rental_uris":{"android":"levelo://app?vid=63b9cce1-f3d8-4655-b818-f5ae36bee504","ios":"levelo://app?vid=63b9cce1-f3d8-4655-b818-f5ae36bee504"},"vehicle_type_id":"4","last_reported":1728504583,"current_range_meters":36400,"station_id":"ce4bhah2rcd13ifvqej0","pricing_plan_id":"cebpf4jnsgd1na2vs0mg"},{"bike_id":"57dec29c-99f2-4f93-87d6-310aefdee041","system_id":"levelo_inurba_marseille","lat":43.27435,"lon":5.39428,"is_reserved":false,"is_disabled":false,"rental_uris":{"android":"levelo://app?vid=57dec29c-99f2-4f93-87d6-310aefdee041","ios":"levelo://app?vid=57dec29c-99f2-4f93-87d6-310aefdee041"},"vehicle_type_id":"4","last_reported":1728504583,"current_range_meters":9200,"station_id":"ce4bhdp2rcd13ifvqf20","pricing_plan_id":"cebpf4jnsgd1na2vs0mg"},{"bike_id":"dc45a7d7-2c7b-4e1c-b533-1d6d877ebbe3","system_id":"levelo_inurba_marseille","lat":43.32106,"lon":5.36781,"is_reserved":false,"is_disabled":false,"rental_uris":{"android":"levelo://app?vid=dc45a7d7-2c7b-4e1c-b533-1d6d877ebbe3","ios":"levelo://app?vid=dc45a7d7-2c7b-4e1c-b533-1d6d877ebbe3"},"vehicle_type_id":"4","last_reported":1728504583,"current_range_meters":38400,"station_id":"ce4bhrh2rcd13ifvqhug","pricing_plan_id":"cebpf4jnsgd1na2vs0mg"},{"bike_id":"97c98e27-9337-4b4a-ad7d-97e59c330dee","system_id":"levelo_inurba_marseille","lat":43.31333,"lon":5.39699,"is_reserved":false,"is_disabled":false,"rental_uris":{"android":"levelo://app?vid=97c98e27-9337-4b4a-ad7d-97e59c330dee","ios":"levelo://app?vid=97c98e27-9337-4b4a-ad7d-97e59c330dee"},"vehicle_type_id":"4","last_reported":1728504583,"current_range_meters":4400,"station_id":"ce4bgvp2rcd13ifvqcu0","pricing_plan_id":"cebpf4jnsgd1na2vs0mg"},{"bike_id":"41be5fcf-9f4b-425f-8298-427ad3b70a16","system_id":"levelo_inurba_marseille","lat":43.32537,"lon":5.4145,"is_reserved":false,"is_disabled":false,"rental_uris":{"android":"levelo://app?vid=41be5fcf-9f4b-425f-8298-427ad3b70a16","ios":"levelo://app?vid=41be5fcf-9f4b-425f-8298-427ad3b70a16"},"vehicle_type_id":"4","last_reported":1728504583,"current_range_meters":38000,"station_id":"ce4bhq12rcd13ifvqhhg","pricing_plan_id":"cebpf4jnsgd1na2vs0mg"},{"bike_id":"83d5c4a7-73f3-451a-baad-d322ba4385ff","system_id":"levelo_inurba_marseille","lat":43.281,"lon":5.37834,"is_reserved":false,"is_disabled":false,"rental_uris":{"android":"levelo://app?vid=83d5c4a7-73f3-451a-baad-d322ba4385ff","ios":"levelo://app?vid=83d5c4a7-73f3-451a-baad-d322ba4385ff"},"vehicle_type_id":"4","last_reported":1728504583,"current_range_meters":4000,"station_id":"ce4bha12rcd13ifvqee0","pricing_plan_id":"cebpf4jnsgd1na2vs0mg"},{"bike_id":"b48a7526-58cf-44ee-a43c-fa5de559b2e7","system_id":"levelo_inurba_marseille","lat":43.293518,"lon":5.406097,"is_reserved":false,"is_disabled":false,"rental_uris":{"android":"levelo://app?vid=b48a7526-58cf-44ee-a43c-fa5de559b2e7","ios":"levelo://app?vid=b48a7526-58cf-44ee-a43c-fa5de559b2e7"},"vehicle_type_id":"4","last_reported":1728504583,"current_range_meters":11600,"station_id":"ce4bh192rcd13ifvqdc0","pricing_plan_id":"cebpf4jnsgd1na2vs0mg"},{"bike_id":"2c7d09f9-70d1-437c-a3c2-5fae377a8729","system_id":"levelo_inurba_marseille","lat":43.23969,"lon":5.36623,"is_reserved":false,"is_disabled":false,"rental_uris":{"android":"levelo://app?vid=2c7d09f9-70d1-437c-a3c2-5fae377a8729","ios":"levelo://app?vid=2c7d09f9-70d1-437c-a3c2-5fae377a8729"},"vehicle_type_id":"4","last_reported":1728504583,"current_range_meters":8800,"station_id":"ce4bhi12rcd13ifvqfp0","pricing_plan_id":"cebpf4jnsgd1na2vs0mg"},{"bike_id":"4be201a3-d22e-4c46-937d-99f607eacfd8","system_id":"levelo_inurba_marseille","lat":43.29585,"lon":5.36753,"is_reserved":false,"is_disabled":false,"rental_uris":{"android":"levelo://app?vid=4be201a3-d22e-4c46-937d-99f607eacfd8","ios":"levelo://app?vid=4be201a3-d22e-4c46-937d-99f607eacfd8"},"vehicle_type_id":"4","last_reported":1728504583,"current_range_meters":32800,"station_id":"ce4bgph2rcd13ifvqc2g","pricing_plan_id":"cebpf4jnsgd1na2vs0mg"},{"bike_id":"ebc8273b-b690-4054-8cc1-e77655dcc7e9","system_id":"levelo_inurba_marseille","lat":43.29306,"lon":5.37167,"is_reserved":false,"is_disabled":false,"rental_uris":{"android":"levelo://app?vid=ebc8273b-b690-4054-8cc1-e77655dcc7e9","ios":"levelo://app?vid=ebc8273b-b690-4054-8cc1-e77655dcc7e9"},"vehicle_type_id":"4","last_reported":1728504583,"current_range_meters":4400,"station_id":"ce4bgh92rcd13ifvqb40","pricing_plan_id":"cebpf4jnsgd1na2vs0mg"},{"bike_id":"8513be67-a978-4cfc-9563-19285ed6fe5a","system_id":"levelo_inurba_marseille","lat":43.23196,"lon":5.35544,"is_reserved":false,"is_disabled":false,"rental_uris":{"android":"levelo://app?vid=8513be67-a978-4cfc-9563-19285ed6fe5a","ios":"levelo://app?vid=8513be67-a978-4cfc-9563-19285ed6fe5a"},"vehicle_type_id":"4","last_reported":1728504583,"current_range_meters":10000,"station_id":"ce4bhu92rcd13ifvqi70","pricing_plan_id":"cebpf4jnsgd1na2vs0mg"},{"bike_id":"1197f692-639d-4fb0-ae7f-c285068db770","system_id":"levelo_inurba_marseille","lat":43.25089,"lon":5.39524,"is_reserved":false,"is_disabled":false,"rental_uris":{"android":"levelo://app?vid=1197f692-639d-4fb0-ae7f-c285068db770","ios":"levelo://app?vid=1197f692-639d-4fb0-ae7f-c285068db770"},"vehicle_type_id":"4","last_reported":1728504583,"current_range_meters":24800,"station_id":"ce4bhm12rcd13ifvqgkg","pricing_plan_id":"cebpf4jnsgd1na2vs0mg"},{"bike_id":"922252e8-02c2-4987-8eed-1d6d69073568","system_id":"levelo_inurba_marseille","lat":43.26689,"lon":5.38276,"is_reserved":false,"is_disabled":false,"rental_uris":{"android":"levelo://app?vid=922252e8-02c2-4987-8eed-1d6d69073568","ios":"levelo://app?vid=922252e8-02c2-4987-8eed-1d6d69073568"},"vehicle_type_id":"4","last_reported":1728504583,"current_range_meters":30400,"station_id":"ce4bhg92rcd13ifvqf90","pricing_plan_id":"cebpf4jnsgd1na2vs0mg"},{"bike_id":"372be48e-0fb3-4336-915a-4d35d755f146","system_id":"levelo_inurba_marseille","lat":43.23184,"lon":5.39988,"is_reserved":false,"is_disabled":false,"rental_uris":{"android":"levelo://app?vid=372be48e-0fb3-4336-915a-4d35d755f146","ios":"levelo://app?vid=372be48e-0fb3-4336-915a-4d35d755f146"},"vehicle_type_id":"4","last_reported":1728504583,"current_range_meters":38800,"station_id":"ce4bhn12rcd13ifvqgqg","pricing_plan_id":"cebpf4jnsgd1na2vs0mg"},{"bike_id":"eeca066b-6bac-4664-b05d-e7e6b3f91c1b","system_id":"levelo_inurba_marseille","lat":43.26901,"lon":5.38907,"is_reserved":false,"is_disabled":false,"rental_uris":{"android":"levelo://app?vid=eeca066b-6bac-4664-b05d-e7e6b3f91c1b","ios":"levelo://app?vid=eeca066b-6bac-4664-b05d-e7e6b3f91c1b"},"vehicle_type_id":"4","last_reported":1728504583,"current_range_meters":9600,"station_id":"ce4bgkh2rcd13ifvqbl0","pricing_plan_id":"cebpf4jnsgd1na2vs0mg"},{"bike_id":"424ae5e4-2b9d-4ae9-9b45-f666499b549a","system_id":"levelo_inurba_marseille","lat":43.31539,"lon":5.38018,"is_reserved":false,"is_disabled":false,"rental_uris":{"android":"levelo://app?vid=424ae5e4-2b9d-4ae9-9b45-f666499b549a","ios":"levelo://app?vid=424ae5e4-2b9d-4ae9-9b45-f666499b549a"},"vehicle_type_id":"4","last_reported":1728504583,"current_range_meters":17200,"station_id":"ce4bhsp2rcd13ifvqi50","pricing_plan_id":"cebpf4jnsgd1na2vs0mg"},{"bike_id":"0a1adf47-9c44-4e77-b90b-e425aefb27d3","system_id":"levelo_inurba_marseille","lat":43.27178,"lon":5.40991,"is_reserved":false,"is_disabled":false,"rental_uris":{"android":"levelo://app?vid=0a1adf47-9c44-4e77-b90b-e425aefb27d3","ios":"levelo://app?vid=0a1adf47-9c44-4e77-b90b-e425aefb27d3"},"vehicle_type_id":"4","last_reported":1728504583,"current_range_meters":32800,"station_id":"ce4bhl12rcd13ifvqgf0","pricing_plan_id":"cebpf4jnsgd1na2vs0mg"},{"bike_id":"87d4b18a-a5fe-4c38-853f-0b749b7436b9","system_id":"levelo_inurba_marseille","lat":43.29198,"lon":5.39307,"is_reserved":false,"is_disabled":false,"rental_uris":{"android":"levelo://app?vid=87d4b18a-a5fe-4c38-853f-0b749b7436b9","ios":"levelo://app?vid=87d4b18a-a5fe-4c38-853f-0b749b7436b9"},"vehicle_type_id":"4","last_reported":1728504583,"current_range_meters":28000,"station_id":"ce4bh192rcd13ifvqdd0","pricing_plan_id":"cebpf4jnsgd1na2vs0mg"},{"bike_id":"d38dd870-fb35-4ebe-8242-7b8d175eed8b","system_id":"levelo_inurba_marseille","lat":43.32337,"lon":5.40616,"is_reserved":false,"is_disabled":false,"rental_uris":{"android":"levelo://app?vid=d38dd870-fb35-4ebe-8242-7b8d175eed8b","ios":"levelo://app?vid=d38dd870-fb35-4ebe-8242-7b8d175eed8b"},"vehicle_type_id":"4","last_reported":1728504583,"current_range_meters":9600,"station_id":"ce4bhq92rcd13ifvqhjg","pricing_plan_id":"cebpf4jnsgd1na2vs0mg"},{"bike_id":"943ecad0-8760-43cd-9300-5881601fce33","system_id":"levelo_inurba_marseille","lat":43.25871,"lon":5.39895,"is_reserved":false,"is_disabled":false,"rental_uris":{"android":"levelo://app?vid=943ecad0-8760-43cd-9300-5881601fce33","ios":"levelo://app?vid=943ecad0-8760-43cd-9300-5881601fce33"},"vehicle_type_id":"4","last_reported":1728504583,"current_range_meters":8800,"station_id":"ce4bhl92rcd13ifvqghg","pricing_plan_id":"cebpf4jnsgd1na2vs0mg"},{"bike_id":"7e912cba-052f-47e7-bfc0-b47e5b060ca8","system_id":"levelo_inurba_marseille","lat":43.2955,"lon":5.42275,"is_reserved":false,"is_disabled":false,"rental_uris":{"android":"levelo://app?vid=7e912cba-052f-47e7-bfc0-b47e5b060ca8","ios":"levelo://app?vid=7e912cba-052f-47e7-bfc0-b47e5b060ca8"},"vehicle_type_id":"4","last_reported":1728504583,"current_range_meters":37600,"station_id":"ce4bhph2rcd13ifvqhdg","pricing_plan_id":"cebpf4jnsgd1na2vs0mg"},{"bike_id":"2df730a7-89e5-413d-9bed-72b64744a6f2","system_id":"levelo_inurba_marseille","lat":43.22931,"lon":5.35378,"is_reserved":false,"is_disabled":false,"rental_uris":{"android":"levelo://app?vid=2df730a7-89e5-413d-9bed-72b64744a6f2","ios":"levelo://app?vid=2df730a7-89e5-413d-9bed-72b64744a6f2"},"vehicle_type_id":"4","last_reported":1728504583,"current_range_meters":38800,"station_id":"cpo3532slgdg3j2ikp40","pricing_plan_id":"cebpf4jnsgd1na2vs0mg"},{"bike_id":"74dea6e5-f1b2-476b-95da-8353d0ac07f5","system_id":"levelo_inurba_marseille","lat":43.22932,"lon":5.35376,"is_reserved":false,"is_disabled":false,"rental_uris":{"android":"levelo://app?vid=74dea6e5-f1b2-476b-95da-8353d0ac07f5","ios":"levelo://app?vid=74dea6e5-f1b2-476b-95da-8353d0ac07f5"},"vehicle_type_id":"4","last_reported":1728504583,"current_range_meters":38800,"station_id":"cpo3532slgdg3j2ikp40","pricing_plan_id":"cebpf4jnsgd1na2vs0mg"},{"bike_id":"a1fe1816-1e76-4cbd-926b-4f1fb96fff8f","system_id":"levelo_inurba_marseille","lat":43.27176,"lon":5.40996,"is_reserved":false,"is_disabled":false,"rental_uris":{"android":"levelo://app?vid=a1fe1816-1e76-4cbd-926b-4f1fb96fff8f","ios":"levelo://app?vid=a1fe1816-1e76-4cbd-926b-4f1fb96fff8f"},"vehicle_type_id":"4","last_reported":1728504583,"current_range_meters":38800,"station_id":"ce4bhl12rcd13ifvqgf0","pricing_plan_id":"cebpf4jnsgd1na2vs0mg"},{"bike_id":"29cb1526-8d04-42cd-afd9-4af7c5cbfad4","system_id":"levelo_inurba_marseille","lat":43.23197,"lon":5.35551,"is_reserved":false,"is_disabled":false,"rental_uris":{"android":"levelo://app?vid=29cb1526-8d04-42cd-afd9-4af7c5cbfad4","ios":"levelo://app?vid=29cb1526-8d04-42cd-afd9-4af7c5cbfad4"},"vehicle_type_id":"4","last_reported":1728504583,"current_range_meters":38800,"station_id":"ce4bhu92rcd13ifvqi70","pricing_plan_id":"cebpf4jnsgd1na2vs0mg"},{"bike_id":"62930a7f-74ee-49d2-82a3-62a466b84fb0","system_id":"levelo_inurba_marseille","lat":43.31639,"lon":5.39434,"is_reserved":false,"is_disabled":false,"rental_uris":{"android":"levelo://app?vid=62930a7f-74ee-49d2-82a3-62a466b84fb0","ios":"levelo://app?vid=62930a7f-74ee-49d2-82a3-62a466b84fb0"},"vehicle_type_id":"4","last_reported":1728504583,"current_range_meters":8000,"station_id":"","pricing_plan_id":"cebpf4jnsgd1na2vs0mg"},{"bike_id":"e211b911-33be-417e-a190-299793b2b374","system_id":"levelo_inurba_marseille","lat":43.2804,"lon":5.36945,"is_reserved":false,"is_disabled":false,"rental_uris":{"android":"levelo://app?vid=e211b911-33be-417e-a190-299793b2b374","ios":"levelo://app?vid=e211b911-33be-417e-a190-299793b2b374"},"vehicle_type_id":"4","last_reported":1728504583,"current_range_meters":4000,"station_id":"ce4bha12rcd13ifvqef0","pricing_plan_id":"cebpf4jnsgd1na2vs0mg"},{"bike_id":"0bfa0ee7-df55-48c5-ba71-da82bc4adcc5","system_id":"levelo_inurba_marseille","lat":43.27605,"lon":5.36111,"is_reserved":false,"is_disabled":false,"rental_uris":{"android":"levelo://app?vid=0bfa0ee7-df55-48c5-ba71-da82bc4adcc5","ios":"levelo://app?vid=0bfa0ee7-df55-48c5-ba71-da82bc4adcc5"},"vehicle_type_id":"4","last_reported":1728504583,"current_range_meters":38800,"station_id":"ce4bgj92rcd13ifvqbe0","pricing_plan_id":"cebpf4jnsgd1na2vs0mg"},{"bike_id":"72c770e7-2ce6-424a-bc5f-e9575013a379","system_id":"levelo_inurba_marseille","lat":43.32225,"lon":5.38561,"is_reserved":false,"is_disabled":false,"rental_uris":{"android":"levelo://app?vid=72c770e7-2ce6-424a-bc5f-e9575013a379","ios":"levelo://app?vid=72c770e7-2ce6-424a-bc5f-e9575013a379"},"vehicle_type_id":"4","last_reported":1728504583,"current_range_meters":15200,"station_id":"","pricing_plan_id":"cebpf4jnsgd1na2vs0mg"},{"bike_id":"2dbd5c0b-d24b-4301-a262-e7b9fe646130","system_id":"levelo_inurba_marseille","lat":43.31878,"lon":5.40734,"is_reserved":false,"is_disabled":false,"rental_uris":{"android":"levelo://app?vid=2dbd5c0b-d24b-4301-a262-e7b9fe646130","ios":"levelo://app?vid=2dbd5c0b-d24b-4301-a262-e7b9fe646130"},"vehicle_type_id":"4","last_reported":1728504583,"current_range_meters":14000,"station_id":"ce4bhpp2rcd13ifvqhgg","pricing_plan_id":"cebpf4jnsgd1na2vs0mg"},{"bike_id":"a18662f8-7c5d-40ed-a87d-88d8a14f8320","system_id":"levelo_inurba_marseille","lat":43.31752,"lon":5.39026,"is_reserved":false,"is_disabled":false,"rental_uris":{"android":"levelo://app?vid=a18662f8-7c5d-40ed-a87d-88d8a14f8320","ios":"levelo://app?vid=a18662f8-7c5d-40ed-a87d-88d8a14f8320"},"vehicle_type_id":"4","last_reported":1728504583,"current_range_meters":26800,"station_id":"ce4bhqp2rcd13ifvqhng","pricing_plan_id":"cebpf4jnsgd1na2vs0mg"},{"bike_id":"ac73cf39-5e0d-41c0-9b62-3d3a6730aa43","system_id":"levelo_inurba_marseille","lat":43.24071,"lon":5.37761,"is_reserved":false,"is_disabled":false,"rental_uris":{"android":"levelo://app?vid=ac73cf39-5e0d-41c0-9b62-3d3a6730aa43","ios":"levelo://app?vid=ac73cf39-5e0d-41c0-9b62-3d3a6730aa43"},"vehicle_type_id":"4","last_reported":1728504583,"current_range_meters":27200,"station_id":"ce4bhnp2rcd13ifvqgvg","pricing_plan_id":"cebpf4jnsgd1na2vs0mg"},{"bike_id":"3c53e08e-ee91-459e-a796-8e1cef11ecde","system_id":"levelo_inurba_marseille","lat":43.27944,"lon":5.41041,"is_reserved":false,"is_disabled":false,"rental_uris":{"android":"levelo://app?vid=3c53e08e-ee91-459e-a796-8e1cef11ecde","ios":"levelo://app?vid=3c53e08e-ee91-459e-a796-8e1cef11ecde"},"vehicle_type_id":"4","last_reported":1728504583,"current_range_meters":38800,"station_id":"ce4bhnp2rcd13ifvqh0g","pricing_plan_id":"cebpf4jnsgd1na2vs0mg"},{"bike_id":"6680e8f2-453b-4747-b4b8-b5e7f1440a05","system_id":"levelo_inurba_marseille","lat":43.28107,"lon":5.37834,"is_reserved":false,"is_disabled":false,"rental_uris":{"android":"levelo://app?vid=6680e8f2-453b-4747-b4b8-b5e7f1440a05","ios":"levelo://app?vid=6680e8f2-453b-4747-b4b8-b5e7f1440a05"},"vehicle_type_id":"4","last_reported":1728504583,"current_range_meters":18000,"station_id":"ce4bha12rcd13ifvqee0","pricing_plan_id":"cebpf4jnsgd1na2vs0mg"},{"bike_id":"17591b68-72ec-463d-917a-7a15d54c2ca6","system_id":"levelo_inurba_marseille","lat":43.24388,"lon":5.37065,"is_reserved":false,"is_disabled":false,"rental_uris":{"android":"levelo://app?vid=17591b68-72ec-463d-917a-7a15d54c2ca6","ios":"levelo://app?vid=17591b68-72ec-463d-917a-7a15d54c2ca6"},"vehicle_type_id":"4","last_reported":1728504583,"current_range_meters":32000,"station_id":"ce4bhhh2rcd13ifvqfk0","pricing_plan_id":"cebpf4jnsgd1na2vs0mg"},{"bike_id":"d8d9e195-0b53-46b7-a4e3-f2b2c532f4ae","system_id":"levelo_inurba_marseille","lat":43.23197,"lon":5.35549,"is_reserved":false,"is_disabled":false,"rental_uris":{"android":"levelo://app?vid=d8d9e195-0b53-46b7-a4e3-f2b2c532f4ae","ios":"levelo://app?vid=d8d9e195-0b53-46b7-a4e3-f2b2c532f4ae"},"vehicle_type_id":"4","last_reported":1728504583,"current_range_meters":38400,"station_id":"ce4bhu92rcd13ifvqi70","pricing_plan_id":"cebpf4jnsgd1na2vs0mg"},{"bike_id":"b9e403da-1874-4607-965e-c659ff3e389d","system_id":"levelo_inurba_marseille","lat":43.2885,"lon":5.35856,"is_reserved":false,"is_disabled":false,"rental_uris":{"android":"levelo://app?vid=b9e403da-1874-4607-965e-c659ff3e389d","ios":"levelo://app?vid=b9e403da-1874-4607-965e-c659ff3e389d"},"vehicle_type_id":"4","last_reported":1728504583,"current_range_meters":38800,"station_id":"ce4bhb12rcd13ifvqem0","pricing_plan_id":"cebpf4jnsgd1na2vs0mg"},{"bike_id":"6be6bbec-9fe7-4599-a61f-656ca2ab3db7","system_id":"levelo_inurba_marseille","lat":43.28342,"lon":5.38099,"is_reserved":false,"is_disabled":false,"rental_uris":{"android":"levelo://app?vid=6be6bbec-9fe7-4599-a61f-656ca2ab3db7","ios":"levelo://app?vid=6be6bbec-9fe7-4599-a61f-656ca2ab3db7"},"vehicle_type_id":"4","last_reported":1728504583,"current_range_meters":38800,"station_id":"ce4bh412rcd13ifvqdr0","pricing_plan_id":"cebpf4jnsgd1na2vs0mg"},{"bike_id":"59334742-14ab-48ee-bbab-969450e512a2","system_id":"levelo_inurba_marseille","lat":43.26489,"lon":5.39573,"is_reserved":false,"is_disabled":false,"rental_uris":{"android":"levelo://app?vid=59334742-14ab-48ee-bbab-969450e512a2","ios":"levelo://app?vid=59334742-14ab-48ee-bbab-969450e512a2"},"vehicle_type_id":"4","last_reported":1728504583,"current_range_meters":38800,"station_id":"ce4bhi12rcd13ifvqfq0","pricing_plan_id":"cebpf4jnsgd1na2vs0mg"},{"bike_id":"d4e093da-110a-4ae6-959a-4463f904ccd1","system_id":"levelo_inurba_marseille","lat":43.26496,"lon":5.39552,"is_reserved":false,"is_disabled":false,"rental_uris":{"android":"levelo://app?vid=d4e093da-110a-4ae6-959a-4463f904ccd1","ios":"levelo://app?vid=d4e093da-110a-4ae6-959a-4463f904ccd1"},"vehicle_type_id":"4","last_reported":1728504583,"current_range_meters":38800,"station_id":"ce4bhi12rcd13ifvqfq0","pricing_plan_id":"cebpf4jnsgd1na2vs0mg"},{"bike_id":"1adb60ab-62f8-4ed0-bdc0-7cf608a01fb2","system_id":"levelo_inurba_marseille","lat":43.28476,"lon":5.38412,"is_reserved":false,"is_disabled":false,"rental_uris":{"android":"levelo://app?vid=1adb60ab-62f8-4ed0-bdc0-7cf608a01fb2","ios":"levelo://app?vid=1adb60ab-62f8-4ed0-bdc0-7cf608a01fb2"},"vehicle_type_id":"4","last_reported":1728504583,"current_range_meters":28400,"station_id":"ce4bh512rcd13ifvqe3g","pricing_plan_id":"cebpf4jnsgd1na2vs0mg"},{"bike_id":"fb8c506a-f43f-4776-8b64-141d86711105","system_id":"levelo_inurba_marseille","lat":43.29799,"lon":5.40407,"is_reserved":false,"is_disabled":false,"rental_uris":{"android":"levelo://app?vid=fb8c506a-f43f-4776-8b64-141d86711105","ios":"levelo://app?vid=fb8c506a-f43f-4776-8b64-141d86711105"},"vehicle_type_id":"4","last_reported":1728504583,"current_range_meters":33200,"station_id":"ce4bh112rcd13ifvqd90","pricing_plan_id":"cebpf4jnsgd1na2vs0mg"},{"bike_id":"3c150316-e8ba-4f0d-9319-e8d2bd0bc57b","system_id":"levelo_inurba_marseille","lat":43.23186,"lon":5.39988,"is_reserved":false,"is_disabled":false,"rental_uris":{"android":"levelo://app?vid=3c150316-e8ba-4f0d-9319-e8d2bd0bc57b","ios":"levelo://app?vid=3c150316-e8ba-4f0d-9319-e8d2bd0bc57b"},"vehicle_type_id":"4","last_reported":1728504583,"current_range_meters":38800,"station_id":"ce4bhn12rcd13ifvqgqg","pricing_plan_id":"cebpf4jnsgd1na2vs0mg"},{"bike_id":"6550a5df-7dfa-4449-96e8-17ab2b2f0253","system_id":"levelo_inurba_marseille","lat":43.26063,"lon":5.39391,"is_reserved":false,"is_disabled":false,"rental_uris":{"android":"levelo://app?vid=6550a5df-7dfa-4449-96e8-17ab2b2f0253","ios":"levelo://app?vid=6550a5df-7dfa-4449-96e8-17ab2b2f0253"},"vehicle_type_id":"4","last_reported":1728504583,"current_range_meters":21600,"station_id":"ce4bhh92rcd13ifvqfj0","pricing_plan_id":"cebpf4jnsgd1na2vs0mg"},{"bike_id":"88b815fa-1c0a-4856-b23f-27312d03a2d8","system_id":"levelo_inurba_marseille","lat":43.33026,"lon":5.39035,"is_reserved":false,"is_disabled":false,"rental_uris":{"android":"levelo://app?vid=88b815fa-1c0a-4856-b23f-27312d03a2d8","ios":"levelo://app?vid=88b815fa-1c0a-4856-b23f-27312d03a2d8"},"vehicle_type_id":"4","last_reported":1728504583,"current_range_meters":20800,"station_id":"ce4bhr92rcd13ifvqhrg","pricing_plan_id":"cebpf4jnsgd1na2vs0mg"},{"bike_id":"f3535bf1-0333-46d7-a760-97c09e07a0d7","system_id":"levelo_inurba_marseille","lat":43.25107,"lon":5.40318,"is_reserved":false,"is_disabled":false,"rental_uris":{"android":"levelo://app?vid=f3535bf1-0333-46d7-a760-97c09e07a0d7","ios":"levelo://app?vid=f3535bf1-0333-46d7-a760-97c09e07a0d7"},"vehicle_type_id":"4","last_reported":1728504583,"current_range_meters":39200,"station_id":"ce4bhlh2rcd13ifvqgig","pricing_plan_id":"cebpf4jnsgd1na2vs0mg"},{"bike_id":"dd0d5aed-cf8d-4b46-a80e-32b37d2395f0","system_id":"levelo_inurba_marseille","lat":43.28438,"lon":5.39192,"is_reserved":false,"is_disabled":false,"rental_uris":{"android":"levelo://app?vid=dd0d5aed-cf8d-4b46-a80e-32b37d2395f0","ios":"levelo://app?vid=dd0d5aed-cf8d-4b46-a80e-32b37d2395f0"},"vehicle_type_id":"4","last_reported":1728504583,"current_range_meters":27200,"station_id":"ce4bhoh2rcd13ifvqh5g","pricing_plan_id":"cebpf4jnsgd1na2vs0mg"},{"bike_id":"8dfff532-9b92-441a-9d99-a5f3f7825690","system_id":"levelo_inurba_marseille","lat":43.28463,"lon":5.3589,"is_reserved":false,"is_disabled":false,"rental_uris":{"android":"levelo://app?vid=8dfff532-9b92-441a-9d99-a5f3f7825690","ios":"levelo://app?vid=8dfff532-9b92-441a-9d99-a5f3f7825690"},"vehicle_type_id":"4","last_reported":1728504583,"current_range_meters":21600,"station_id":"ce4bhah2rcd13ifvqei0","pricing_plan_id":"cebpf4jnsgd1na2vs0mg"},{"bike_id":"25afecff-8faf-4ca5-beb4-ce74280dcb13","system_id":"levelo_inurba_marseille","lat":43.23194,"lon":5.355517,"is_reserved":false,"is_disabled":false,"rental_uris":{"android":"levelo://app?vid=25afecff-8faf-4ca5-beb4-ce74280dcb13","ios":"levelo://app?vid=25afecff-8faf-4ca5-beb4-ce74280dcb13"},"vehicle_type_id":"4","last_reported":1728504583,"current_range_meters":38400,"station_id":"ce4bhu92rcd13ifvqi70","pricing_plan_id":"cebpf4jnsgd1na2vs0mg"},{"bike_id":"bc5da530-264e-4907-ad43-308cc5fa4656","system_id":"levelo_inurba_marseille","lat":43.33023,"lon":5.39036,"is_reserved":false,"is_disabled":false,"rental_uris":{"android":"levelo://app?vid=bc5da530-264e-4907-ad43-308cc5fa4656","ios":"levelo://app?vid=bc5da530-264e-4907-ad43-308cc5fa4656"},"vehicle_type_id":"4","last_reported":1728504583,"current_range_meters":28000,"station_id":"ce4bhr92rcd13ifvqhrg","pricing_plan_id":"cebpf4jnsgd1na2vs0mg"},{"bike_id":"7219fee0-219f-4cfa-8633-b620db7597ae","system_id":"levelo_inurba_marseille","lat":43.29837,"lon":5.37092,"is_reserved":false,"is_disabled":false,"rental_uris":{"android":"levelo://app?vid=7219fee0-219f-4cfa-8633-b620db7597ae","ios":"levelo://app?vid=7219fee0-219f-4cfa-8633-b620db7597ae"},"vehicle_type_id":"4","last_reported":1728504583,"current_range_meters":7200,"station_id":"","pricing_plan_id":"cebpf4jnsgd1na2vs0mg"},{"bike_id":"d8e14a8a-1d6e-44b2-a9af-b6af85cc102a","system_id":"levelo_inurba_marseille","lat":43.290373,"lon":5.359017,"is_reserved":false,"is_disabled":false,"rental_uris":{"android":"levelo://app?vid=d8e14a8a-1d6e-44b2-a9af-b6af85cc102a","ios":"levelo://app?vid=d8e14a8a-1d6e-44b2-a9af-b6af85cc102a"},"vehicle_type_id":"4","last_reported":1728504583,"current_range_meters":14000,"station_id":"ce4bha92rcd13ifvqeg0","pricing_plan_id":"cebpf4jnsgd1na2vs0mg"},{"bike_id":"164d759c-141a-449a-94ce-4af95c8d88c5","system_id":"levelo_inurba_marseille","lat":43.30881,"lon":5.39623,"is_reserved":false,"is_disabled":false,"rental_uris":{"android":"levelo://app?vid=164d759c-141a-449a-94ce-4af95c8d88c5","ios":"levelo://app?vid=164d759c-141a-449a-94ce-4af95c8d88c5"},"vehicle_type_id":"4","last_reported":1728504583,"current_range_meters":14400,"station_id":"ce4bh012rcd13ifvqcv0","pricing_plan_id":"cebpf4jnsgd1na2vs0mg"},{"bike_id":"c74d9bd0-5c1b-48c7-9ad7-a318cfe9f07b","system_id":"levelo_inurba_marseille","lat":43.31271,"lon":5.40178,"is_reserved":false,"is_disabled":false,"rental_uris":{"android":"levelo://app?vid=c74d9bd0-5c1b-48c7-9ad7-a318cfe9f07b","ios":"levelo://app?vid=c74d9bd0-5c1b-48c7-9ad7-a318cfe9f07b"},"vehicle_type_id":"4","last_reported":1728504583,"current_range_meters":9200,"station_id":"ce4bh092rcd13ifvqd30","pricing_plan_id":"cebpf4jnsgd1na2vs0mg"},{"bike_id":"2a032523-c958-4a4f-89c7-1eb876c0a20b","system_id":"levelo_inurba_marseille","lat":43.31531,"lon":5.38026,"is_reserved":false,"is_disabled":false,"rental_uris":{"android":"levelo://app?vid=2a032523-c958-4a4f-89c7-1eb876c0a20b","ios":"levelo://app?vid=2a032523-c958-4a4f-89c7-1eb876c0a20b"},"vehicle_type_id":"4","last_reported":1728504583,"current_range_meters":10800,"station_id":"ce4bhsp2rcd13ifvqi50","pricing_plan_id":"cebpf4jnsgd1na2vs0mg"},{"bike_id":"19c785c9-d783-48f3-b3bc-0c55ff20bca2","system_id":"levelo_inurba_marseille","lat":43.30419,"lon":5.41282,"is_reserved":false,"is_disabled":false,"rental_uris":{"android":"levelo://app?vid=19c785c9-d783-48f3-b3bc-0c55ff20bca2","ios":"levelo://app?vid=19c785c9-d783-48f3-b3bc-0c55ff20bca2"},"vehicle_type_id":"4","last_reported":1728504583,"current_range_meters":12000,"station_id":"ce4bhop2rcd13ifvqh8g","pricing_plan_id":"cebpf4jnsgd1na2vs0mg"},{"bike_id":"4c264be1-cda6-46cc-a8c2-1593de8c770a","system_id":"levelo_inurba_marseille","lat":43.27174,"lon":5.40991,"is_reserved":false,"is_disabled":false,"rental_uris":{"android":"levelo://app?vid=4c264be1-cda6-46cc-a8c2-1593de8c770a","ios":"levelo://app?vid=4c264be1-cda6-46cc-a8c2-1593de8c770a"},"vehicle_type_id":"4","last_reported":1728504583,"current_range_meters":38800,"station_id":"ce4bhl12rcd13ifvqgf0","pricing_plan_id":"cebpf4jnsgd1na2vs0mg"},{"bike_id":"7402adaa-d53c-4058-8c78-f6b6792c57ce","system_id":"levelo_inurba_marseille","lat":43.29884,"lon":5.389,"is_reserved":false,"is_disabled":false,"rental_uris":{"android":"levelo://app?vid=7402adaa-d53c-4058-8c78-f6b6792c57ce","ios":"levelo://app?vid=7402adaa-d53c-4058-8c78-f6b6792c57ce"},"vehicle_type_id":"4","last_reported":1728504583,"current_range_meters":24800,"station_id":"ce4bh392rcd13ifvqdl0","pricing_plan_id":"cebpf4jnsgd1na2vs0mg"},{"bike_id":"fb7fa753-f3d5-4240-b2bf-577e77315c03","system_id":"levelo_inurba_marseille","lat":43.29029,"lon":5.35925,"is_reserved":false,"is_disabled":false,"rental_uris":{"android":"levelo://app?vid=fb7fa753-f3d5-4240-b2bf-577e77315c03","ios":"levelo://app?vid=fb7fa753-f3d5-4240-b2bf-577e77315c03"},"vehicle_type_id":"4","last_reported":1728504583,"current_range_meters":10000,"station_id":"ce4bha92rcd13ifvqeg0","pricing_plan_id":"cebpf4jnsgd1na2vs0mg"},{"bike_id":"dca7c60b-d25d-4583-83b1-af4390c055f4","system_id":"levelo_inurba_marseille","lat":43.23189,"lon":5.35558,"is_reserved":false,"is_disabled":false,"rental_uris":{"android":"levelo://app?vid=dca7c60b-d25d-4583-83b1-af4390c055f4","ios":"levelo://app?vid=dca7c60b-d25d-4583-83b1-af4390c055f4"},"vehicle_type_id":"4","last_reported":1728504583,"current_range_meters":6800,"station_id":"ce4bhu92rcd13ifvqi70","pricing_plan_id":"cebpf4jnsgd1na2vs0mg"},{"bike_id":"ee61848d-e3d2-4c3e-ab8c-d040f8d1c7e6","system_id":"levelo_inurba_marseille","lat":43.30312,"lon":5.36899,"is_reserved":false,"is_disabled":false,"rental_uris":{"android":"levelo://app?vid=ee61848d-e3d2-4c3e-ab8c-d040f8d1c7e6","ios":"levelo://app?vid=ee61848d-e3d2-4c3e-ab8c-d040f8d1c7e6"},"vehicle_type_id":"4","last_reported":1728504583,"current_range_meters":38800,"station_id":"ce4bgqh2rcd13ifvqc5g","pricing_plan_id":"cebpf4jnsgd1na2vs0mg"},{"bike_id":"d61e6d50-35b3-4890-b332-c3648c0fd3a5","system_id":"levelo_inurba_marseille","lat":43.28107,"lon":5.3784,"is_reserved":false,"is_disabled":false,"rental_uris":{"android":"levelo://app?vid=d61e6d50-35b3-4890-b332-c3648c0fd3a5","ios":"levelo://app?vid=d61e6d50-35b3-4890-b332-c3648c0fd3a5"},"vehicle_type_id":"4","last_reported":1728504583,"current_range_meters":3200,"station_id":"ce4bha12rcd13ifvqee0","pricing_plan_id":"cebpf4jnsgd1na2vs0mg"},{"bike_id":"d98abc05-22b9-4fd1-ab63-6d0caad7ccf5","system_id":"levelo_inurba_marseille","lat":43.317,"lon":5.3775,"is_reserved":false,"is_disabled":false,"rental_uris":{"android":"levelo://app?vid=d98abc05-22b9-4fd1-ab63-6d0caad7ccf5","ios":"levelo://app?vid=d98abc05-22b9-4fd1-ab63-6d0caad7ccf5"},"vehicle_type_id":"4","last_reported":1728504583,"current_range_meters":28000,"station_id":"ce4bgth2rcd13ifvqch0","pricing_plan_id":"cebpf4jnsgd1na2vs0mg"},{"bike_id":"dcc7763e-de21-426a-9df5-961738fb2588","system_id":"levelo_inurba_marseille","lat":43.28841,"lon":5.39324,"is_reserved":false,"is_disabled":false,"rental_uris":{"android":"levelo://app?vid=dcc7763e-de21-426a-9df5-961738fb2588","ios":"levelo://app?vid=dcc7763e-de21-426a-9df5-961738fb2588"},"vehicle_type_id":"4","last_reported":1728504583,"current_range_meters":22800,"station_id":"ce4bh2p2rcd13ifvqdi0","pricing_plan_id":"cebpf4jnsgd1na2vs0mg"},{"bike_id":"b44bddb9-8341-4408-bb5c-2330f2f7cce2","system_id":"levelo_inurba_marseille","lat":43.26055,"lon":5.39395,"is_reserved":false,"is_disabled":false,"rental_uris":{"android":"levelo://app?vid=b44bddb9-8341-4408-bb5c-2330f2f7cce2","ios":"levelo://app?vid=b44bddb9-8341-4408-bb5c-2330f2f7cce2"},"vehicle_type_id":"4","last_reported":1728504583,"current_range_meters":38400,"station_id":"ce4bhh92rcd13ifvqfj0","pricing_plan_id":"cebpf4jnsgd1na2vs0mg"},{"bike_id":"681aa9ba-27f6-4b98-a511-d3fa39fb7073","system_id":"levelo_inurba_marseille","lat":43.33024,"lon":5.39038,"is_reserved":false,"is_disabled":false,"rental_uris":{"android":"levelo://app?vid=681aa9ba-27f6-4b98-a511-d3fa39fb7073","ios":"levelo://app?vid=681aa9ba-27f6-4b98-a511-d3fa39fb7073"},"vehicle_type_id":"4","last_reported":1728504583,"current_range_meters":23200,"station_id":"ce4bhr92rcd13ifvqhrg","pricing_plan_id":"cebpf4jnsgd1na2vs0mg"},{"bike_id":"90d74967-44d7-4b3b-8c40-70127f75f77d","system_id":"levelo_inurba_marseille","lat":43.30325,"lon":5.40443,"is_reserved":false,"is_disabled":false,"rental_uris":{"android":"levelo://app?vid=90d74967-44d7-4b3b-8c40-70127f75f77d","ios":"levelo://app?vid=90d74967-44d7-4b3b-8c40-70127f75f77d"},"vehicle_type_id":"4","last_reported":1728504583,"current_range_meters":9200,"station_id":"ce4bh012rcd13ifvqd10","pricing_plan_id":"cebpf4jnsgd1na2vs0mg"},{"bike_id":"1cef6d71-8378-4be7-9741-98154ccd8481","system_id":"levelo_inurba_marseille","lat":43.30315,"lon":5.36901,"is_reserved":false,"is_disabled":false,"rental_uris":{"android":"levelo://app?vid=1cef6d71-8378-4be7-9741-98154ccd8481","ios":"levelo://app?vid=1cef6d71-8378-4be7-9741-98154ccd8481"},"vehicle_type_id":"4","last_reported":1728504583,"current_range_meters":3600,"station_id":"ce4bgqh2rcd13ifvqc5g","pricing_plan_id":"cebpf4jnsgd1na2vs0mg"},{"bike_id":"4f2e5b4a-bc46-4dee-82ca-048529cfeab8","system_id":"levelo_inurba_marseille","lat":43.30644,"lon":5.40069,"is_reserved":false,"is_disabled":false,"rental_uris":{"android":"levelo://app?vid=4f2e5b4a-bc46-4dee-82ca-048529cfeab8","ios":"levelo://app?vid=4f2e5b4a-bc46-4dee-82ca-048529cfeab8"},"vehicle_type_id":"4","last_reported":1728504583,"current_range_meters":3600,"station_id":"ce4bh112rcd13ifvqda0","pricing_plan_id":"cebpf4jnsgd1na2vs0mg"},{"bike_id":"73e5476b-e1c9-4a5d-9e10-41361ad16636","system_id":"levelo_inurba_marseille","lat":43.25126,"lon":5.40314,"is_reserved":false,"is_disabled":false,"rental_uris":{"android":"levelo://app?vid=73e5476b-e1c9-4a5d-9e10-41361ad16636","ios":"levelo://app?vid=73e5476b-e1c9-4a5d-9e10-41361ad16636"},"vehicle_type_id":"4","last_reported":1728504583,"current_range_meters":39200,"station_id":"ce4bhlh2rcd13ifvqgig","pricing_plan_id":"cebpf4jnsgd1na2vs0mg"},{"bike_id":"e93943e9-cbeb-423e-98df-e53f165f2005","system_id":"levelo_inurba_marseille","lat":43.30411,"lon":5.39755,"is_reserved":false,"is_disabled":false,"rental_uris":{"android":"levelo://app?vid=e93943e9-cbeb-423e-98df-e53f165f2005","ios":"levelo://app?vid=e93943e9-cbeb-423e-98df-e53f165f2005"},"vehicle_type_id":"4","last_reported":1728504583,"current_range_meters":9200,"station_id":"ce4bh092rcd13ifvqd20","pricing_plan_id":"cebpf4jnsgd1na2vs0mg"},{"bike_id":"83094c49-8a16-4268-bb3f-b82bc8befb11","system_id":"levelo_inurba_marseille","lat":43.31083,"lon":5.42435,"is_reserved":false,"is_disabled":false,"rental_uris":{"android":"levelo://app?vid=83094c49-8a16-4268-bb3f-b82bc8befb11","ios":"levelo://app?vid=83094c49-8a16-4268-bb3f-b82bc8befb11"},"vehicle_type_id":"4","last_reported":1728504583,"current_range_meters":22000,"station_id":"ce4bhp92rcd13ifvqhag","pricing_plan_id":"cebpf4jnsgd1na2vs0mg"},{"bike_id":"d6b5cfa3-a44a-4b35-a171-f97b144308bc","system_id":"levelo_inurba_marseille","lat":43.31531,"lon":5.38032,"is_reserved":false,"is_disabled":false,"rental_uris":{"android":"levelo://app?vid=d6b5cfa3-a44a-4b35-a171-f97b144308bc","ios":"levelo://app?vid=d6b5cfa3-a44a-4b35-a171-f97b144308bc"},"vehicle_type_id":"4","last_reported":1728504583,"current_range_meters":10000,"station_id":"ce4bhsp2rcd13ifvqi50","pricing_plan_id":"cebpf4jnsgd1na2vs0mg"},{"bike_id":"4cdcd215-fc2e-4af7-9745-559a856b0ae4","system_id":"levelo_inurba_marseille","lat":43.33023,"lon":5.39047,"is_reserved":false,"is_disabled":false,"rental_uris":{"android":"levelo://app?vid=4cdcd215-fc2e-4af7-9745-559a856b0ae4","ios":"levelo://app?vid=4cdcd215-fc2e-4af7-9745-559a856b0ae4"},"vehicle_type_id":"4","last_reported":1728504583,"current_range_meters":35600,"station_id":"ce4bhr92rcd13ifvqhrg","pricing_plan_id":"cebpf4jnsgd1na2vs0mg"},{"bike_id":"6c9d17b9-7587-4e1f-a064-95fc5c59028f","system_id":"levelo_inurba_marseille","lat":43.2842,"lon":5.37514,"is_reserved":false,"is_disabled":false,"rental_uris":{"android":"levelo://app?vid=6c9d17b9-7587-4e1f-a064-95fc5c59028f","ios":"levelo://app?vid=6c9d17b9-7587-4e1f-a064-95fc5c59028f"},"vehicle_type_id":"4","last_reported":1728504583,"current_range_meters":17600,"station_id":"","pricing_plan_id":"cebpf4jnsgd1na2vs0mg"},{"bike_id":"0c508ed1-7436-433d-8666-4c73261cb881","system_id":"levelo_inurba_marseille","lat":43.25826,"lon":5.39426,"is_reserved":false,"is_disabled":false,"rental_uris":{"android":"levelo://app?vid=0c508ed1-7436-433d-8666-4c73261cb881","ios":"levelo://app?vid=0c508ed1-7436-433d-8666-4c73261cb881"},"vehicle_type_id":"4","last_reported":1728504583,"current_range_meters":38800,"station_id":"ce4bhip2rcd13ifvqft0","pricing_plan_id":"cebpf4jnsgd1na2vs0mg"},{"bike_id":"e737c6da-2fda-41b9-aba8-b1d00ea0817d","system_id":"levelo_inurba_marseille","lat":43.29956,"lon":5.41315,"is_reserved":false,"is_disabled":false,"rental_uris":{"android":"levelo://app?vid=e737c6da-2fda-41b9-aba8-b1d00ea0817d","ios":"levelo://app?vid=e737c6da-2fda-41b9-aba8-b1d00ea0817d"},"vehicle_type_id":"4","last_reported":1728504583,"current_range_meters":38800,"station_id":"ce4bhp12rcd13ifvqh9g","pricing_plan_id":"cebpf4jnsgd1na2vs0mg"},{"bike_id":"6be918ff-776e-400a-8dce-92f1e9e50ca6","system_id":"levelo_inurba_marseille","lat":43.30643,"lon":5.4008,"is_reserved":false,"is_disabled":false,"rental_uris":{"android":"levelo://app?vid=6be918ff-776e-400a-8dce-92f1e9e50ca6","ios":"levelo://app?vid=6be918ff-776e-400a-8dce-92f1e9e50ca6"},"vehicle_type_id":"4","last_reported":1728504583,"current_range_meters":35200,"station_id":"ce4bh112rcd13ifvqda0","pricing_plan_id":"cebpf4jnsgd1na2vs0mg"},{"bike_id":"dcf7fa1a-67f6-4cea-a4a2-70c202568816","system_id":"levelo_inurba_marseille","lat":43.24761,"lon":5.40018,"is_reserved":false,"is_disabled":false,"rental_uris":{"android":"levelo://app?vid=dcf7fa1a-67f6-4cea-a4a2-70c202568816","ios":"levelo://app?vid=dcf7fa1a-67f6-4cea-a4a2-70c202568816"},"vehicle_type_id":"4","last_reported":1728504583,"current_range_meters":25200,"station_id":"","pricing_plan_id":"cebpf4jnsgd1na2vs0mg"},{"bike_id":"12dd3543-9792-411d-a2d3-090844735961","system_id":"levelo_inurba_marseille","lat":43.2794,"lon":5.41038,"is_reserved":false,"is_disabled":false,"rental_uris":{"android":"levelo://app?vid=12dd3543-9792-411d-a2d3-090844735961","ios":"levelo://app?vid=12dd3543-9792-411d-a2d3-090844735961"},"vehicle_type_id":"4","last_reported":1728504583,"current_range_meters":38800,"station_id":"ce4bhnp2rcd13ifvqh0g","pricing_plan_id":"cebpf4jnsgd1na2vs0mg"},{"bike_id":"7bdb56d1-7446-4a62-bd43-f061f49b62ac","system_id":"levelo_inurba_marseille","lat":43.27963,"lon":5.38722,"is_reserved":false,"is_disabled":false,"rental_uris":{"android":"levelo://app?vid=7bdb56d1-7446-4a62-bd43-f061f49b62ac","ios":"levelo://app?vid=7bdb56d1-7446-4a62-bd43-f061f49b62ac"},"vehicle_type_id":"4","last_reported":1728504583,"current_range_meters":8400,"station_id":"ce4bhg12rcd13ifvqf80","pricing_plan_id":"cebpf4jnsgd1na2vs0mg"},{"bike_id":"44e61575-33b3-45e4-9c52-16d46941b0ae","system_id":"levelo_inurba_marseille","lat":43.27942,"lon":5.41051,"is_reserved":false,"is_disabled":false,"rental_uris":{"android":"levelo://app?vid=44e61575-33b3-45e4-9c52-16d46941b0ae","ios":"levelo://app?vid=44e61575-33b3-45e4-9c52-16d46941b0ae"},"vehicle_type_id":"4","last_reported":1728504583,"current_range_meters":38800,"station_id":"ce4bhnp2rcd13ifvqh0g","pricing_plan_id":"cebpf4jnsgd1na2vs0mg"},{"bike_id":"bf6c284e-09d5-41d3-b5e2-22519f120864","system_id":"levelo_inurba_marseille","lat":43.29202,"lon":5.39317,"is_reserved":false,"is_disabled":false,"rental_uris":{"android":"levelo://app?vid=bf6c284e-09d5-41d3-b5e2-22519f120864","ios":"levelo://app?vid=bf6c284e-09d5-41d3-b5e2-22519f120864"},"vehicle_type_id":"4","last_reported":1728504583,"current_range_meters":7200,"station_id":"ce4bh192rcd13ifvqdd0","pricing_plan_id":"cebpf4jnsgd1na2vs0mg"},{"bike_id":"ae7c77e6-b40b-4157-b51f-f53aa9f103d6","system_id":"levelo_inurba_marseille","lat":43.26068,"lon":5.39399,"is_reserved":false,"is_disabled":false,"rental_uris":{"android":"levelo://app?vid=ae7c77e6-b40b-4157-b51f-f53aa9f103d6","ios":"levelo://app?vid=ae7c77e6-b40b-4157-b51f-f53aa9f103d6"},"vehicle_type_id":"4","last_reported":1728504583,"current_range_meters":22800,"station_id":"ce4bhh92rcd13ifvqfj0","pricing_plan_id":"cebpf4jnsgd1na2vs0mg"},{"bike_id":"ad734d68-e2a1-45b8-8800-7be94cc33530","system_id":"levelo_inurba_marseille","lat":43.30218,"lon":5.39477,"is_reserved":false,"is_disabled":false,"rental_uris":{"android":"levelo://app?vid=ad734d68-e2a1-45b8-8800-7be94cc33530","ios":"levelo://app?vid=ad734d68-e2a1-45b8-8800-7be94cc33530"},"vehicle_type_id":"4","last_reported":1728504583,"current_range_meters":38800,"station_id":"ce4bh0p2rcd13ifvqd70","pricing_plan_id":"cebpf4jnsgd1na2vs0mg"},{"bike_id":"2312979e-9428-4f63-bdef-77b40f52c2f7","system_id":"levelo_inurba_marseille","lat":43.30792,"lon":5.43528,"is_reserved":false,"is_disabled":false,"rental_uris":{"android":"levelo://app?vid=2312979e-9428-4f63-bdef-77b40f52c2f7","ios":"levelo://app?vid=2312979e-9428-4f63-bdef-77b40f52c2f7"},"vehicle_type_id":"4","last_reported":1728504583,"current_range_meters":23200,"station_id":"ce4bhph2rcd13ifvqheg","pricing_plan_id":"cebpf4jnsgd1na2vs0mg"},{"bike_id":"6caf95ac-909f-41e1-8bc7-0f91444d16fb","system_id":"levelo_inurba_marseille","lat":43.23069,"lon":5.35494,"is_reserved":false,"is_disabled":false,"rental_uris":{"android":"levelo://app?vid=6caf95ac-909f-41e1-8bc7-0f91444d16fb","ios":"levelo://app?vid=6caf95ac-909f-41e1-8bc7-0f91444d16fb"},"vehicle_type_id":"4","last_reported":1728504583,"current_range_meters":16400,"station_id":"cpo3342slgdg3j2ifvpg","pricing_plan_id":"cebpf4jnsgd1na2vs0mg"},{"bike_id":"3fab305b-1728-4a45-9f4f-fb39052b80d2","system_id":"levelo_inurba_marseille","lat":43.25491,"lon":5.37645,"is_reserved":false,"is_disabled":false,"rental_uris":{"android":"levelo://app?vid=3fab305b-1728-4a45-9f4f-fb39052b80d2","ios":"levelo://app?vid=3fab305b-1728-4a45-9f4f-fb39052b80d2"},"vehicle_type_id":"4","last_reported":1728504583,"current_range_meters":36000,"station_id":"ce4bhh12rcd13ifvqff0","pricing_plan_id":"cebpf4jnsgd1na2vs0mg"},{"bike_id":"2f946788-2ef0-4d95-94d0-374e4bea5849","system_id":"levelo_inurba_marseille","lat":43.33603,"lon":5.41034,"is_reserved":false,"is_disabled":false,"rental_uris":{"android":"levelo://app?vid=2f946788-2ef0-4d95-94d0-374e4bea5849","ios":"levelo://app?vid=2f946788-2ef0-4d95-94d0-374e4bea5849"},"vehicle_type_id":"4","last_reported":1728504583,"current_range_meters":24800,"station_id":"ce4bhqh2rcd13ifvqhmg","pricing_plan_id":"cebpf4jnsgd1na2vs0mg"},{"bike_id":"cb439072-15f2-4299-919f-ba4b86460e53","system_id":"levelo_inurba_marseille","lat":43.28022,"lon":5.36952,"is_reserved":false,"is_disabled":false,"rental_uris":{"android":"levelo://app?vid=cb439072-15f2-4299-919f-ba4b86460e53","ios":"levelo://app?vid=cb439072-15f2-4299-919f-ba4b86460e53"},"vehicle_type_id":"4","last_reported":1728504583,"current_range_meters":38800,"station_id":"ce4bha12rcd13ifvqef0","pricing_plan_id":"cebpf4jnsgd1na2vs0mg"},{"bike_id":"a01e6511-8d04-42fc-9359-9849193889b5","system_id":"levelo_inurba_marseille","lat":43.27182,"lon":5.40986,"is_reserved":false,"is_disabled":false,"rental_uris":{"android":"levelo://app?vid=a01e6511-8d04-42fc-9359-9849193889b5","ios":"levelo://app?vid=a01e6511-8d04-42fc-9359-9849193889b5"},"vehicle_type_id":"4","last_reported":1728504583,"current_range_meters":38800,"station_id":"ce4bhl12rcd13ifvqgf0","pricing_plan_id":"cebpf4jnsgd1na2vs0mg"},{"bike_id":"ede68b2f-f53f-4ad5-a3f5-950bc936b5eb","system_id":"levelo_inurba_marseille","lat":43.33773,"lon":5.37398,"is_reserved":false,"is_disabled":false,"rental_uris":{"android":"levelo://app?vid=ede68b2f-f53f-4ad5-a3f5-950bc936b5eb","ios":"levelo://app?vid=ede68b2f-f53f-4ad5-a3f5-950bc936b5eb"},"vehicle_type_id":"4","last_reported":1728504583,"current_range_meters":32400,"station_id":"","pricing_plan_id":"cebpf4jnsgd1na2vs0mg"},{"bike_id":"dce02e95-c712-4d68-98a4-68a7f35b44b2","system_id":"levelo_inurba_marseille","lat":43.27615,"lon":5.36114,"is_reserved":false,"is_disabled":false,"rental_uris":{"android":"levelo://app?vid=dce02e95-c712-4d68-98a4-68a7f35b44b2","ios":"levelo://app?vid=dce02e95-c712-4d68-98a4-68a7f35b44b2"},"vehicle_type_id":"4","last_reported":1728504583,"current_range_meters":33200,"station_id":"ce4bgj92rcd13ifvqbe0","pricing_plan_id":"cebpf4jnsgd1na2vs0mg"},{"bike_id":"ede11f7e-0841-4d60-b7dc-e38309e6814d","system_id":"levelo_inurba_marseille","lat":43.28456,"lon":5.3589,"is_reserved":false,"is_disabled":false,"rental_uris":{"android":"levelo://app?vid=ede11f7e-0841-4d60-b7dc-e38309e6814d","ios":"levelo://app?vid=ede11f7e-0841-4d60-b7dc-e38309e6814d"},"vehicle_type_id":"4","last_reported":1728504583,"current_range_meters":27200,"station_id":"ce4bhah2rcd13ifvqei0","pricing_plan_id":"cebpf4jnsgd1na2vs0mg"},{"bike_id":"bb2e048a-c55f-4f68-98e0-9f12edc3e4d6","system_id":"levelo_inurba_marseille","lat":43.24184,"lon":5.39739,"is_reserved":false,"is_disabled":false,"rental_uris":{"android":"levelo://app?vid=bb2e048a-c55f-4f68-98e0-9f12edc3e4d6","ios":"levelo://app?vid=bb2e048a-c55f-4f68-98e0-9f12edc3e4d6"},"vehicle_type_id":"4","last_reported":1728504583,"current_range_meters":38800,"station_id":"ce4bhn12rcd13ifvqgpg","pricing_plan_id":"cebpf4jnsgd1na2vs0mg"},{"bike_id":"51ac1468-270a-49d0-8cdb-4ef6fc2d7e71","system_id":"levelo_inurba_marseille","lat":43.33723,"lon":5.39176,"is_reserved":false,"is_disabled":false,"rental_uris":{"android":"levelo://app?vid=51ac1468-270a-49d0-8cdb-4ef6fc2d7e71","ios":"levelo://app?vid=51ac1468-270a-49d0-8cdb-4ef6fc2d7e71"},"vehicle_type_id":"4","last_reported":1728504583,"current_range_meters":16800,"station_id":"ce4bhr92rcd13ifvqhsg","pricing_plan_id":"cebpf4jnsgd1na2vs0mg"},{"bike_id":"2ca4a4b5-7b22-4790-9f9c-55b8b74a82e9","system_id":"levelo_inurba_marseille","lat":43.27956,"lon":5.41046,"is_reserved":false,"is_disabled":false,"rental_uris":{"android":"levelo://app?vid=2ca4a4b5-7b22-4790-9f9c-55b8b74a82e9","ios":"levelo://app?vid=2ca4a4b5-7b22-4790-9f9c-55b8b74a82e9"},"vehicle_type_id":"4","last_reported":1728504583,"current_range_meters":38800,"station_id":"ce4bhnp2rcd13ifvqh0g","pricing_plan_id":"cebpf4jnsgd1na2vs0mg"},{"bike_id":"154054a2-6c1e-467b-82d8-72e958c45190","system_id":"levelo_inurba_marseille","lat":43.24081,"lon":5.3775,"is_reserved":false,"is_disabled":false,"rental_uris":{"android":"levelo://app?vid=154054a2-6c1e-467b-82d8-72e958c45190","ios":"levelo://app?vid=154054a2-6c1e-467b-82d8-72e958c45190"},"vehicle_type_id":"4","last_reported":1728504583,"current_range_meters":9600,"station_id":"ce4bhnp2rcd13ifvqgvg","pricing_plan_id":"cebpf4jnsgd1na2vs0mg"},{"bike_id":"5d378526-5716-411b-b4b1-79e697cfb815","system_id":"levelo_inurba_marseille","lat":43.30792,"lon":5.43525,"is_reserved":false,"is_disabled":false,"rental_uris":{"android":"levelo://app?vid=5d378526-5716-411b-b4b1-79e697cfb815","ios":"levelo://app?vid=5d378526-5716-411b-b4b1-79e697cfb815"},"vehicle_type_id":"4","last_reported":1728504583,"current_range_meters":30800,"station_id":"ce4bhph2rcd13ifvqheg","pricing_plan_id":"cebpf4jnsgd1na2vs0mg"},{"bike_id":"ce4c5209-8f14-422f-933b-f32f2f1c85af","system_id":"levelo_inurba_marseille","lat":43.25109,"lon":5.40327,"is_reserved":false,"is_disabled":false,"rental_uris":{"android":"levelo://app?vid=ce4c5209-8f14-422f-933b-f32f2f1c85af","ios":"levelo://app?vid=ce4c5209-8f14-422f-933b-f32f2f1c85af"},"vehicle_type_id":"4","last_reported":1728504583,"current_range_meters":38800,"station_id":"ce4bhlh2rcd13ifvqgig","pricing_plan_id":"cebpf4jnsgd1na2vs0mg"},{"bike_id":"885b6ad9-0995-4c83-bb2b-01ee09830319","system_id":"levelo_inurba_marseille","lat":43.32288,"lon":5.38279,"is_reserved":false,"is_disabled":false,"rental_uris":{"android":"levelo://app?vid=885b6ad9-0995-4c83-bb2b-01ee09830319","ios":"levelo://app?vid=885b6ad9-0995-4c83-bb2b-01ee09830319"},"vehicle_type_id":"4","last_reported":1728504583,"current_range_meters":39200,"station_id":"ce4bhr12rcd13ifvqhqg","pricing_plan_id":"cebpf4jnsgd1na2vs0mg"},{"bike_id":"1f7b78fb-9cd6-4ad4-9b36-5d7820c861eb","system_id":"levelo_inurba_marseille","lat":43.29275,"lon":5.36848,"is_reserved":false,"is_disabled":false,"rental_uris":{"android":"levelo://app?vid=1f7b78fb-9cd6-4ad4-9b36-5d7820c861eb","ios":"levelo://app?vid=1f7b78fb-9cd6-4ad4-9b36-5d7820c861eb"},"vehicle_type_id":"4","last_reported":1728504583,"current_range_meters":10800,"station_id":"ce4bhbp2rcd13ifvqesg","pricing_plan_id":"cebpf4jnsgd1na2vs0mg"},{"bike_id":"3382b50f-5f73-4a3c-9fd7-3b1e70c3d418","system_id":"levelo_inurba_marseille","lat":43.30322,"lon":5.40441,"is_reserved":false,"is_disabled":false,"rental_uris":{"android":"levelo://app?vid=3382b50f-5f73-4a3c-9fd7-3b1e70c3d418","ios":"levelo://app?vid=3382b50f-5f73-4a3c-9fd7-3b1e70c3d418"},"vehicle_type_id":"4","last_reported":1728504583,"current_range_meters":12800,"station_id":"ce4bh012rcd13ifvqd10","pricing_plan_id":"cebpf4jnsgd1na2vs0mg"},{"bike_id":"810b32d6-b30c-480b-a6ee-5bd54d112eb8","system_id":"levelo_inurba_marseille","lat":43.33749,"lon":5.37442,"is_reserved":false,"is_disabled":false,"rental_uris":{"android":"levelo://app?vid=810b32d6-b30c-480b-a6ee-5bd54d112eb8","ios":"levelo://app?vid=810b32d6-b30c-480b-a6ee-5bd54d112eb8"},"vehicle_type_id":"4","last_reported":1728504583,"current_range_meters":26800,"station_id":"ce4rr2p2rcd13i802rgg","pricing_plan_id":"cebpf4jnsgd1na2vs0mg"},{"bike_id":"7507b4b6-0e77-4929-840a-43395246c408","system_id":"levelo_inurba_marseille","lat":43.30875,"lon":5.39631,"is_reserved":false,"is_disabled":false,"rental_uris":{"android":"levelo://app?vid=7507b4b6-0e77-4929-840a-43395246c408","ios":"levelo://app?vid=7507b4b6-0e77-4929-840a-43395246c408"},"vehicle_type_id":"4","last_reported":1728504583,"current_range_meters":38800,"station_id":"ce4bh012rcd13ifvqcv0","pricing_plan_id":"cebpf4jnsgd1na2vs0mg"},{"bike_id":"930d5175-da31-4536-8c17-6a3e08a1658a","system_id":"levelo_inurba_marseille","lat":43.306,"lon":5.40098,"is_reserved":false,"is_disabled":false,"rental_uris":{"android":"levelo://app?vid=930d5175-da31-4536-8c17-6a3e08a1658a","ios":"levelo://app?vid=930d5175-da31-4536-8c17-6a3e08a1658a"},"vehicle_type_id":"4","last_reported":1728504583,"current_range_meters":24800,"station_id":"ce4bh112rcd13ifvqda0","pricing_plan_id":"cebpf4jnsgd1na2vs0mg"},{"bike_id":"a762823a-f71d-41de-bd49-6a4e5adf1e4f","system_id":"levelo_inurba_marseille","lat":43.30203,"lon":5.39468,"is_reserved":false,"is_disabled":false,"rental_uris":{"android":"levelo://app?vid=a762823a-f71d-41de-bd49-6a4e5adf1e4f","ios":"levelo://app?vid=a762823a-f71d-41de-bd49-6a4e5adf1e4f"},"vehicle_type_id":"4","last_reported":1728504583,"current_range_meters":17600,"station_id":"ce4bh0p2rcd13ifvqd70","pricing_plan_id":"cebpf4jnsgd1na2vs0mg"},{"bike_id":"3bf66018-3d1c-4cb2-a70e-80f6b6536dd6","system_id":"levelo_inurba_marseille","lat":43.28971,"lon":5.37833,"is_reserved":false,"is_disabled":false,"rental_uris":{"android":"levelo://app?vid=3bf66018-3d1c-4cb2-a70e-80f6b6536dd6","ios":"levelo://app?vid=3bf66018-3d1c-4cb2-a70e-80f6b6536dd6"},"vehicle_type_id":"4","last_reported":1728504583,"current_range_meters":22000,"station_id":"ce4bh9p2rcd13ifvqed0","pricing_plan_id":"cebpf4jnsgd1na2vs0mg"},{"bike_id":"e33160e2-19a5-4b63-9f92-ec6ef6c6d28f","system_id":"levelo_inurba_marseille","lat":43.30641,"lon":5.40091,"is_reserved":false,"is_disabled":false,"rental_uris":{"android":"levelo://app?vid=e33160e2-19a5-4b63-9f92-ec6ef6c6d28f","ios":"levelo://app?vid=e33160e2-19a5-4b63-9f92-ec6ef6c6d28f"},"vehicle_type_id":"4","last_reported":1728504583,"current_range_meters":30800,"station_id":"ce4bh112rcd13ifvqda0","pricing_plan_id":"cebpf4jnsgd1na2vs0mg"},{"bike_id":"7404348e-d582-4212-80c1-ab7d59c5a446","system_id":"levelo_inurba_marseille","lat":43.25859,"lon":5.39903,"is_reserved":false,"is_disabled":false,"rental_uris":{"android":"levelo://app?vid=7404348e-d582-4212-80c1-ab7d59c5a446","ios":"levelo://app?vid=7404348e-d582-4212-80c1-ab7d59c5a446"},"vehicle_type_id":"4","last_reported":1728504583,"current_range_meters":0,"station_id":"ce4bhl92rcd13ifvqghg","pricing_plan_id":"cebpf4jnsgd1na2vs0mg"},{"bike_id":"77192aa0-b759-4c6b-9150-2452373d6fc5","system_id":"levelo_inurba_marseille","lat":43.30139,"lon":5.37404,"is_reserved":false,"is_disabled":false,"rental_uris":{"android":"levelo://app?vid=77192aa0-b759-4c6b-9150-2452373d6fc5","ios":"levelo://app?vid=77192aa0-b759-4c6b-9150-2452373d6fc5"},"vehicle_type_id":"4","last_reported":1728504583,"current_range_meters":28000,"station_id":"ce4bgs92rcd13ifvqcc0","pricing_plan_id":"cebpf4jnsgd1na2vs0mg"},{"bike_id":"c3cd10f9-c642-40cd-8c85-bdd531121fe5","system_id":"levelo_inurba_marseille","lat":43.32343,"lon":5.40627,"is_reserved":false,"is_disabled":false,"rental_uris":{"android":"levelo://app?vid=c3cd10f9-c642-40cd-8c85-bdd531121fe5","ios":"levelo://app?vid=c3cd10f9-c642-40cd-8c85-bdd531121fe5"},"vehicle_type_id":"4","last_reported":1728504583,"current_range_meters":2800,"station_id":"ce4bhq92rcd13ifvqhjg","pricing_plan_id":"cebpf4jnsgd1na2vs0mg"},{"bike_id":"6788304e-a293-4cdd-97ad-484d5208b17d","system_id":"levelo_inurba_marseille","lat":43.27817,"lon":5.4072,"is_reserved":false,"is_disabled":false,"rental_uris":{"android":"levelo://app?vid=6788304e-a293-4cdd-97ad-484d5208b17d","ios":"levelo://app?vid=6788304e-a293-4cdd-97ad-484d5208b17d"},"vehicle_type_id":"4","last_reported":1728504583,"current_range_meters":38800,"station_id":"ce4bhnh2rcd13ifvqgtg","pricing_plan_id":"cebpf4jnsgd1na2vs0mg"},{"bike_id":"f12c47c8-0062-4df2-9d07-928dd29498d6","system_id":"levelo_inurba_marseille","lat":43.24179,"lon":5.39729,"is_reserved":false,"is_disabled":false,"rental_uris":{"android":"levelo://app?vid=f12c47c8-0062-4df2-9d07-928dd29498d6","ios":"levelo://app?vid=f12c47c8-0062-4df2-9d07-928dd29498d6"},"vehicle_type_id":"4","last_reported":1728504583,"current_range_meters":9600,"station_id":"ce4bhn12rcd13ifvqgpg","pricing_plan_id":"cebpf4jnsgd1na2vs0mg"},{"bike_id":"5ff7756d-ca50-4f0a-a06c-70af55b98ff4","system_id":"levelo_inurba_marseille","lat":43.30927,"lon":5.40145,"is_reserved":false,"is_disabled":false,"rental_uris":{"android":"levelo://app?vid=5ff7756d-ca50-4f0a-a06c-70af55b98ff4","ios":"levelo://app?vid=5ff7756d-ca50-4f0a-a06c-70af55b98ff4"},"vehicle_type_id":"4","last_reported":1728504583,"current_range_meters":24000,"station_id":"ce4bgvp2rcd13ifvqct0","pricing_plan_id":"cebpf4jnsgd1na2vs0mg"},{"bike_id":"370d64b8-74bc-4df0-a3ba-fd6f7db80ccf","system_id":"levelo_inurba_marseille","lat":43.30249,"lon":5.395619,"is_reserved":false,"is_disabled":false,"rental_uris":{"android":"levelo://app?vid=370d64b8-74bc-4df0-a3ba-fd6f7db80ccf","ios":"levelo://app?vid=370d64b8-74bc-4df0-a3ba-fd6f7db80ccf"},"vehicle_type_id":"4","last_reported":1728504583,"current_range_meters":16800,"station_id":"ce4bh0h2rcd13ifvqd40","pricing_plan_id":"cebpf4jnsgd1na2vs0mg"},{"bike_id":"43032073-2f51-4a7c-b280-f0cb792e377d","system_id":"levelo_inurba_marseille","lat":43.30193,"lon":5.36619,"is_reserved":false,"is_disabled":false,"rental_uris":{"android":"levelo://app?vid=43032073-2f51-4a7c-b280-f0cb792e377d","ios":"levelo://app?vid=43032073-2f51-4a7c-b280-f0cb792e377d"},"vehicle_type_id":"4","last_reported":1728504583,"current_range_meters":9200,"station_id":"ce4bgrh2rcd13ifvqc8g","pricing_plan_id":"cebpf4jnsgd1na2vs0mg"},{"bike_id":"62365c13-f3f0-42c0-a6ab-7f8365062152","system_id":"levelo_inurba_marseille","lat":43.28413,"lon":5.37506,"is_reserved":false,"is_disabled":false,"rental_uris":{"android":"levelo://app?vid=62365c13-f3f0-42c0-a6ab-7f8365062152","ios":"levelo://app?vid=62365c13-f3f0-42c0-a6ab-7f8365062152"},"vehicle_type_id":"4","last_reported":1728504583,"current_range_meters":16000,"station_id":"ce4bh412rcd13ifvqds0","pricing_plan_id":"cebpf4jnsgd1na2vs0mg"},{"bike_id":"0dcfddc7-8134-4c1d-9ae7-26a59237eba3","system_id":"levelo_inurba_marseille","lat":43.29584,"lon":5.36749,"is_reserved":false,"is_disabled":false,"rental_uris":{"android":"levelo://app?vid=0dcfddc7-8134-4c1d-9ae7-26a59237eba3","ios":"levelo://app?vid=0dcfddc7-8134-4c1d-9ae7-26a59237eba3"},"vehicle_type_id":"4","last_reported":1728504583,"current_range_meters":38400,"station_id":"ce4bgph2rcd13ifvqc2g","pricing_plan_id":"cebpf4jnsgd1na2vs0mg"},{"bike_id":"1ed3d4d7-651a-4436-a2ad-7e2a2405ae22","system_id":"levelo_inurba_marseille","lat":43.2999,"lon":5.3891,"is_reserved":false,"is_disabled":false,"rental_uris":{"android":"levelo://app?vid=1ed3d4d7-651a-4436-a2ad-7e2a2405ae22","ios":"levelo://app?vid=1ed3d4d7-651a-4436-a2ad-7e2a2405ae22"},"vehicle_type_id":"4","last_reported":1728504583,"current_range_meters":29600,"station_id":"","pricing_plan_id":"cebpf4jnsgd1na2vs0mg"},{"bike_id":"c8aafd0a-224f-47ad-b2d2-12b7e2c9220f","system_id":"levelo_inurba_marseille","lat":43.275757,"lon":5.384277,"is_reserved":false,"is_disabled":false,"rental_uris":{"android":"levelo://app?vid=c8aafd0a-224f-47ad-b2d2-12b7e2c9220f","ios":"levelo://app?vid=c8aafd0a-224f-47ad-b2d2-12b7e2c9220f"},"vehicle_type_id":"4","last_reported":1728504583,"current_range_meters":32400,"station_id":"ce4bhh92rcd13ifvqfi0","pricing_plan_id":"cebpf4jnsgd1na2vs0mg"},{"bike_id":"85a048f8-8505-46d4-9d20-ae725d292ea2","system_id":"levelo_inurba_marseille","lat":43.31275,"lon":5.40164,"is_reserved":false,"is_disabled":false,"rental_uris":{"android":"levelo://app?vid=85a048f8-8505-46d4-9d20-ae725d292ea2","ios":"levelo://app?vid=85a048f8-8505-46d4-9d20-ae725d292ea2"},"vehicle_type_id":"4","last_reported":1728504583,"current_range_meters":35200,"station_id":"ce4bh092rcd13ifvqd30","pricing_plan_id":"cebpf4jnsgd1na2vs0mg"},{"bike_id":"7f91e7b6-39c7-4ac1-8823-37439c8b63c6","system_id":"levelo_inurba_marseille","lat":43.26558,"lon":5.37284,"is_reserved":false,"is_disabled":false,"rental_uris":{"android":"levelo://app?vid=7f91e7b6-39c7-4ac1-8823-37439c8b63c6","ios":"levelo://app?vid=7f91e7b6-39c7-4ac1-8823-37439c8b63c6"},"vehicle_type_id":"4","last_reported":1728504583,"current_range_meters":37600,"station_id":"ce4bhg12rcd13ifvqf70","pricing_plan_id":"cebpf4jnsgd1na2vs0mg"},{"bike_id":"88a2001f-3d05-45fa-8ce2-7b6503335a54","system_id":"levelo_inurba_marseille","lat":43.32651,"lon":5.40988,"is_reserved":false,"is_disabled":false,"rental_uris":{"android":"levelo://app?vid=88a2001f-3d05-45fa-8ce2-7b6503335a54","ios":"levelo://app?vid=88a2001f-3d05-45fa-8ce2-7b6503335a54"},"vehicle_type_id":"4","last_reported":1728504583,"current_range_meters":19600,"station_id":"ce4bhpp2rcd13ifvqhgg","pricing_plan_id":"cebpf4jnsgd1na2vs0mg"},{"bike_id":"c2dbdf24-83b9-4d66-80b0-4eee816c4194","system_id":"levelo_inurba_marseille","lat":43.27819,"lon":5.40716,"is_reserved":false,"is_disabled":false,"rental_uris":{"android":"levelo://app?vid=c2dbdf24-83b9-4d66-80b0-4eee816c4194","ios":"levelo://app?vid=c2dbdf24-83b9-4d66-80b0-4eee816c4194"},"vehicle_type_id":"4","last_reported":1728504583,"current_range_meters":38000,"station_id":"ce4bhnh2rcd13ifvqgtg","pricing_plan_id":"cebpf4jnsgd1na2vs0mg"},{"bike_id":"2f9e3e08-7baf-4a8c-978a-96205524d38a","system_id":"levelo_inurba_marseille","lat":43.25734,"lon":5.41105,"is_reserved":false,"is_disabled":false,"rental_uris":{"android":"levelo://app?vid=2f9e3e08-7baf-4a8c-978a-96205524d38a","ios":"levelo://app?vid=2f9e3e08-7baf-4a8c-978a-96205524d38a"},"vehicle_type_id":"4","last_reported":1728504583,"current_range_meters":8400,"station_id":"ce4bhkp2rcd13ifvqgd0","pricing_plan_id":"cebpf4jnsgd1na2vs0mg"},{"bike_id":"b620bb69-1ba9-41e0-965a-e520f2d3a223","system_id":"levelo_inurba_marseille","lat":43.30317,"lon":5.36901,"is_reserved":false,"is_disabled":false,"rental_uris":{"android":"levelo://app?vid=b620bb69-1ba9-41e0-965a-e520f2d3a223","ios":"levelo://app?vid=b620bb69-1ba9-41e0-965a-e520f2d3a223"},"vehicle_type_id":"4","last_reported":1728504583,"current_range_meters":39200,"station_id":"ce4bgqh2rcd13ifvqc5g","pricing_plan_id":"cebpf4jnsgd1na2vs0mg"},{"bike_id":"115f99b9-4f17-436d-b64b-539a809a91f1","system_id":"levelo_inurba_marseille","lat":43.33017,"lon":5.39041,"is_reserved":false,"is_disabled":false,"rental_uris":{"android":"levelo://app?vid=115f99b9-4f17-436d-b64b-539a809a91f1","ios":"levelo://app?vid=115f99b9-4f17-436d-b64b-539a809a91f1"},"vehicle_type_id":"4","last_reported":1728504583,"current_range_meters":37600,"station_id":"ce4bhr92rcd13ifvqhrg","pricing_plan_id":"cebpf4jnsgd1na2vs0mg"},{"bike_id":"6ff31732-8687-4a03-800d-084581525e2f","system_id":"levelo_inurba_marseille","lat":43.3117,"lon":5.38712,"is_reserved":false,"is_disabled":false,"rental_uris":{"android":"levelo://app?vid=6ff31732-8687-4a03-800d-084581525e2f","ios":"levelo://app?vid=6ff31732-8687-4a03-800d-084581525e2f"},"vehicle_type_id":"4","last_reported":1728504583,"current_range_meters":5600,"station_id":"ce4bgv12rcd13ifvqcp0","pricing_plan_id":"cebpf4jnsgd1na2vs0mg"},{"bike_id":"b4e3873d-b92a-4ac1-a3d6-78a8e17b362a","system_id":"levelo_inurba_marseille","lat":43.24998,"lon":5.38931,"is_reserved":false,"is_disabled":false,"rental_uris":{"android":"levelo://app?vid=b4e3873d-b92a-4ac1-a3d6-78a8e17b362a","ios":"levelo://app?vid=b4e3873d-b92a-4ac1-a3d6-78a8e17b362a"},"vehicle_type_id":"4","last_reported":1728504583,"current_range_meters":7200,"station_id":"ce4bhgp2rcd13ifvqfd0","pricing_plan_id":"cebpf4jnsgd1na2vs0mg"},{"bike_id":"b89cb020-9056-4f02-9b94-273ebbd3f4d8","system_id":"levelo_inurba_marseille","lat":43.32284,"lon":5.38264,"is_reserved":false,"is_disabled":false,"rental_uris":{"android":"levelo://app?vid=b89cb020-9056-4f02-9b94-273ebbd3f4d8","ios":"levelo://app?vid=b89cb020-9056-4f02-9b94-273ebbd3f4d8"},"vehicle_type_id":"4","last_reported":1728504583,"current_range_meters":2000,"station_id":"ce4bhr12rcd13ifvqhqg","pricing_plan_id":"cebpf4jnsgd1na2vs0mg"},{"bike_id":"5c1a8458-a3a4-4acf-a609-5cf70095ff7a","system_id":"levelo_inurba_marseille","lat":43.25005,"lon":5.38927,"is_reserved":false,"is_disabled":false,"rental_uris":{"android":"levelo://app?vid=5c1a8458-a3a4-4acf-a609-5cf70095ff7a","ios":"levelo://app?vid=5c1a8458-a3a4-4acf-a609-5cf70095ff7a"},"vehicle_type_id":"4","last_reported":1728504583,"current_range_meters":38400,"station_id":"ce4bhgp2rcd13ifvqfd0","pricing_plan_id":"cebpf4jnsgd1na2vs0mg"},{"bike_id":"e6ad1362-fdce-4f7d-a10b-e79c9a92cee0","system_id":"levelo_inurba_marseille","lat":43.30139,"lon":5.39844,"is_reserved":false,"is_disabled":false,"rental_uris":{"android":"levelo://app?vid=e6ad1362-fdce-4f7d-a10b-e79c9a92cee0","ios":"levelo://app?vid=e6ad1362-fdce-4f7d-a10b-e79c9a92cee0"},"vehicle_type_id":"4","last_reported":1728504583,"current_range_meters":13600,"station_id":"ce4bh0h2rcd13ifvqd40","pricing_plan_id":"cebpf4jnsgd1na2vs0mg"},{"bike_id":"4745caff-0453-478a-8963-025636bcb912","system_id":"levelo_inurba_marseille","lat":43.33023,"lon":5.39046,"is_reserved":false,"is_disabled":false,"rental_uris":{"android":"levelo://app?vid=4745caff-0453-478a-8963-025636bcb912","ios":"levelo://app?vid=4745caff-0453-478a-8963-025636bcb912"},"vehicle_type_id":"4","last_reported":1728504583,"current_range_meters":18000,"station_id":"ce4bhr92rcd13ifvqhrg","pricing_plan_id":"cebpf4jnsgd1na2vs0mg"},{"bike_id":"367f8c3a-6231-4df1-ae05-72ed52c790c4","system_id":"levelo_inurba_marseille","lat":43.29918,"lon":5.37505,"is_reserved":false,"is_disabled":false,"rental_uris":{"android":"levelo://app?vid=367f8c3a-6231-4df1-ae05-72ed52c790c4","ios":"levelo://app?vid=367f8c3a-6231-4df1-ae05-72ed52c790c4"},"vehicle_type_id":"4","last_reported":1728504583,"current_range_meters":4000,"station_id":"ce4bgjh2rcd13ifvqbg0","pricing_plan_id":"cebpf4jnsgd1na2vs0mg"},{"bike_id":"5313992a-f6d1-4718-902d-743fe30c7e96","system_id":"levelo_inurba_marseille","lat":43.24645,"lon":5.38895,"is_reserved":false,"is_disabled":false,"rental_uris":{"android":"levelo://app?vid=5313992a-f6d1-4718-902d-743fe30c7e96","ios":"levelo://app?vid=5313992a-f6d1-4718-902d-743fe30c7e96"},"vehicle_type_id":"4","last_reported":1728504583,"current_range_meters":38800,"station_id":"ce4bhg12rcd13ifvqf60","pricing_plan_id":"cebpf4jnsgd1na2vs0mg"},{"bike_id":"3be81f54-e068-494a-9d94-36870d0b625f","system_id":"levelo_inurba_marseille","lat":43.28454,"lon":5.35887,"is_reserved":false,"is_disabled":false,"rental_uris":{"android":"levelo://app?vid=3be81f54-e068-494a-9d94-36870d0b625f","ios":"levelo://app?vid=3be81f54-e068-494a-9d94-36870d0b625f"},"vehicle_type_id":"4","last_reported":1728504583,"current_range_meters":30000,"station_id":"ce4bhah2rcd13ifvqei0","pricing_plan_id":"cebpf4jnsgd1na2vs0mg"},{"bike_id":"e1a96534-dd78-433d-b8e1-33cf06f213d4","system_id":"levelo_inurba_marseille","lat":43.301392,"lon":5.374186,"is_reserved":false,"is_disabled":false,"rental_uris":{"android":"levelo://app?vid=e1a96534-dd78-433d-b8e1-33cf06f213d4","ios":"levelo://app?vid=e1a96534-dd78-433d-b8e1-33cf06f213d4"},"vehicle_type_id":"4","last_reported":1728504583,"current_range_meters":23200,"station_id":"ce4bgs92rcd13ifvqcc0","pricing_plan_id":"cebpf4jnsgd1na2vs0mg"},{"bike_id":"f0d8c7a2-27b8-469a-b9f8-c2f6cbfd5f73","system_id":"levelo_inurba_marseille","lat":43.250614,"lon":5.39544,"is_reserved":false,"is_disabled":false,"rental_uris":{"android":"levelo://app?vid=f0d8c7a2-27b8-469a-b9f8-c2f6cbfd5f73","ios":"levelo://app?vid=f0d8c7a2-27b8-469a-b9f8-c2f6cbfd5f73"},"vehicle_type_id":"4","last_reported":1728504583,"current_range_meters":13600,"station_id":"ce4bhm12rcd13ifvqgkg","pricing_plan_id":"cebpf4jnsgd1na2vs0mg"},{"bike_id":"bb8c49f9-d140-4d9b-93d7-4c09ebd18449","system_id":"levelo_inurba_marseille","lat":43.28463,"lon":5.35899,"is_reserved":false,"is_disabled":false,"rental_uris":{"android":"levelo://app?vid=bb8c49f9-d140-4d9b-93d7-4c09ebd18449","ios":"levelo://app?vid=bb8c49f9-d140-4d9b-93d7-4c09ebd18449"},"vehicle_type_id":"4","last_reported":1728504583,"current_range_meters":20800,"station_id":"ce4bhah2rcd13ifvqei0","pricing_plan_id":"cebpf4jnsgd1na2vs0mg"},{"bike_id":"3599e7f0-1c9a-45ab-b5d0-b7494e61233b","system_id":"levelo_inurba_marseille","lat":43.29975,"lon":5.37174,"is_reserved":false,"is_disabled":false,"rental_uris":{"android":"levelo://app?vid=3599e7f0-1c9a-45ab-b5d0-b7494e61233b","ios":"levelo://app?vid=3599e7f0-1c9a-45ab-b5d0-b7494e61233b"},"vehicle_type_id":"4","last_reported":1728504583,"current_range_meters":36400,"station_id":"ce4bgr92rcd13ifvqc7g","pricing_plan_id":"cebpf4jnsgd1na2vs0mg"},{"bike_id":"c402e64e-4595-4aab-a425-48c0c195e64f","system_id":"levelo_inurba_marseille","lat":43.290314,"lon":5.38656,"is_reserved":false,"is_disabled":false,"rental_uris":{"android":"levelo://app?vid=c402e64e-4595-4aab-a425-48c0c195e64f","ios":"levelo://app?vid=c402e64e-4595-4aab-a425-48c0c195e64f"},"vehicle_type_id":"4","last_reported":1728504583,"current_range_meters":22800,"station_id":"ce4bh4p2rcd13ifvqe0g","pricing_plan_id":"cebpf4jnsgd1na2vs0mg"},{"bike_id":"ef47fd66-f90e-4346-897d-bf00f7a1142c","system_id":"levelo_inurba_marseille","lat":43.29188,"lon":5.38605,"is_reserved":false,"is_disabled":false,"rental_uris":{"android":"levelo://app?vid=ef47fd66-f90e-4346-897d-bf00f7a1142c","ios":"levelo://app?vid=ef47fd66-f90e-4346-897d-bf00f7a1142c"},"vehicle_type_id":"4","last_reported":1728504583,"current_range_meters":12000,"station_id":"","pricing_plan_id":"cebpf4jnsgd1na2vs0mg"},{"bike_id":"0805facf-47c4-4994-a02a-6f84124da427","system_id":"levelo_inurba_marseille","lat":43.28105,"lon":5.3784,"is_reserved":false,"is_disabled":false,"rental_uris":{"android":"levelo://app?vid=0805facf-47c4-4994-a02a-6f84124da427","ios":"levelo://app?vid=0805facf-47c4-4994-a02a-6f84124da427"},"vehicle_type_id":"4","last_reported":1728504583,"current_range_meters":10000,"station_id":"ce4bguh2rcd13ifvqcj0","pricing_plan_id":"cebpf4jnsgd1na2vs0mg"},{"bike_id":"72cc773e-a315-422f-8868-9fcf79057c01","system_id":"levelo_inurba_marseille","lat":43.28572,"lon":5.39496,"is_reserved":false,"is_disabled":false,"rental_uris":{"android":"levelo://app?vid=72cc773e-a315-422f-8868-9fcf79057c01","ios":"levelo://app?vid=72cc773e-a315-422f-8868-9fcf79057c01"},"vehicle_type_id":"4","last_reported":1728504583,"current_range_meters":18800,"station_id":"ce4bh292rcd13ifvqdg0","pricing_plan_id":"cebpf4jnsgd1na2vs0mg"},{"bike_id":"a4281430-2c48-4302-934f-13b654323d34","system_id":"levelo_inurba_marseille","lat":43.28153,"lon":5.42639,"is_reserved":false,"is_disabled":false,"rental_uris":{"android":"levelo://app?vid=a4281430-2c48-4302-934f-13b654323d34","ios":"levelo://app?vid=a4281430-2c48-4302-934f-13b654323d34"},"vehicle_type_id":"4","last_reported":1728504583,"current_range_meters":38400,"station_id":"ce4bhnh2rcd13ifvqgug","pricing_plan_id":"cebpf4jnsgd1na2vs0mg"},{"bike_id":"283b86ed-dd8f-48af-98e0-cf0cc53eca39","system_id":"levelo_inurba_marseille","lat":43.30642,"lon":5.40097,"is_reserved":false,"is_disabled":false,"rental_uris":{"android":"levelo://app?vid=283b86ed-dd8f-48af-98e0-cf0cc53eca39","ios":"levelo://app?vid=283b86ed-dd8f-48af-98e0-cf0cc53eca39"},"vehicle_type_id":"4","last_reported":1728504583,"current_range_meters":4000,"station_id":"ce4bh112rcd13ifvqda0","pricing_plan_id":"cebpf4jnsgd1na2vs0mg"},{"bike_id":"92ed4025-32d2-43d5-8e60-e3c0ef293359","system_id":"levelo_inurba_marseille","lat":43.32289,"lon":5.38258,"is_reserved":false,"is_disabled":false,"rental_uris":{"android":"levelo://app?vid=92ed4025-32d2-43d5-8e60-e3c0ef293359","ios":"levelo://app?vid=92ed4025-32d2-43d5-8e60-e3c0ef293359"},"vehicle_type_id":"4","last_reported":1728504583,"current_range_meters":8800,"station_id":"ce4bhr12rcd13ifvqhqg","pricing_plan_id":"cebpf4jnsgd1na2vs0mg"},{"bike_id":"4f68228e-466d-443b-b603-f1bbe9be24a5","system_id":"levelo_inurba_marseille","lat":43.308687,"lon":5.396365,"is_reserved":false,"is_disabled":false,"rental_uris":{"android":"levelo://app?vid=4f68228e-466d-443b-b603-f1bbe9be24a5","ios":"levelo://app?vid=4f68228e-466d-443b-b603-f1bbe9be24a5"},"vehicle_type_id":"4","last_reported":1728504583,"current_range_meters":38800,"station_id":"ce4bh012rcd13ifvqcv0","pricing_plan_id":"cebpf4jnsgd1na2vs0mg"},{"bike_id":"d3273862-e681-44d0-a625-8247fb14c45a","system_id":"levelo_inurba_marseille","lat":43.25855,"lon":5.39904,"is_reserved":false,"is_disabled":false,"rental_uris":{"android":"levelo://app?vid=d3273862-e681-44d0-a625-8247fb14c45a","ios":"levelo://app?vid=d3273862-e681-44d0-a625-8247fb14c45a"},"vehicle_type_id":"4","last_reported":1728504583,"current_range_meters":800,"station_id":"ce4bhl92rcd13ifvqghg","pricing_plan_id":"cebpf4jnsgd1na2vs0mg"},{"bike_id":"576e423f-ac45-4f0f-abc4-c5de3f2f8f2c","system_id":"levelo_inurba_marseille","lat":43.31324,"lon":5.39693,"is_reserved":false,"is_disabled":false,"rental_uris":{"android":"levelo://app?vid=576e423f-ac45-4f0f-abc4-c5de3f2f8f2c","ios":"levelo://app?vid=576e423f-ac45-4f0f-abc4-c5de3f2f8f2c"},"vehicle_type_id":"4","last_reported":1728504583,"current_range_meters":38000,"station_id":"ce4bgvp2rcd13ifvqcu0","pricing_plan_id":"cebpf4jnsgd1na2vs0mg"},{"bike_id":"84c70a7b-0001-4e83-867b-9098bf16d245","system_id":"levelo_inurba_marseille","lat":43.302643,"lon":5.377052,"is_reserved":false,"is_disabled":false,"rental_uris":{"android":"levelo://app?vid=84c70a7b-0001-4e83-867b-9098bf16d245","ios":"levelo://app?vid=84c70a7b-0001-4e83-867b-9098bf16d245"},"vehicle_type_id":"4","last_reported":1728504583,"current_range_meters":27600,"station_id":"ce4bguh2rcd13ifvqcj0","pricing_plan_id":"cebpf4jnsgd1na2vs0mg"},{"bike_id":"08ce1abd-36a0-4b79-ad43-aa50a09e4641","system_id":"levelo_inurba_marseille","lat":43.30323,"lon":5.4044,"is_reserved":false,"is_disabled":false,"rental_uris":{"android":"levelo://app?vid=08ce1abd-36a0-4b79-ad43-aa50a09e4641","ios":"levelo://app?vid=08ce1abd-36a0-4b79-ad43-aa50a09e4641"},"vehicle_type_id":"4","last_reported":1728504583,"current_range_meters":36800,"station_id":"ce4bh012rcd13ifvqd10","pricing_plan_id":"cebpf4jnsgd1na2vs0mg"},{"bike_id":"7181dd73-7541-492d-a80b-0061f98315c7","system_id":"levelo_inurba_marseille","lat":43.29167,"lon":5.3715,"is_reserved":false,"is_disabled":false,"rental_uris":{"android":"levelo://app?vid=7181dd73-7541-492d-a80b-0061f98315c7","ios":"levelo://app?vid=7181dd73-7541-492d-a80b-0061f98315c7"},"vehicle_type_id":"4","last_reported":1728504583,"current_range_meters":4400,"station_id":"ce4bha92rcd13ifvqeh0","pricing_plan_id":"cebpf4jnsgd1na2vs0mg"},{"bike_id":"da9e4070-af5c-4634-a6c4-35d2e8ec051c","system_id":"levelo_inurba_marseille","lat":43.289437,"lon":5.39648,"is_reserved":false,"is_disabled":false,"rental_uris":{"android":"levelo://app?vid=da9e4070-af5c-4634-a6c4-35d2e8ec051c","ios":"levelo://app?vid=da9e4070-af5c-4634-a6c4-35d2e8ec051c"},"vehicle_type_id":"4","last_reported":1728504583,"current_range_meters":37600,"station_id":"ce4bh3h2rcd13ifvqdn0","pricing_plan_id":"cebpf4jnsgd1na2vs0mg"},{"bike_id":"8c61a48f-28ea-4db1-b810-97942d753d8e","system_id":"levelo_inurba_marseille","lat":43.23964,"lon":5.36629,"is_reserved":false,"is_disabled":false,"rental_uris":{"android":"levelo://app?vid=8c61a48f-28ea-4db1-b810-97942d753d8e","ios":"levelo://app?vid=8c61a48f-28ea-4db1-b810-97942d753d8e"},"vehicle_type_id":"4","last_reported":1728504583,"current_range_meters":4000,"station_id":"ce4bhi12rcd13ifvqfp0","pricing_plan_id":"cebpf4jnsgd1na2vs0mg"},{"bike_id":"2bc5f93b-b1d3-4403-8433-9d873dfb16de","system_id":"levelo_inurba_marseille","lat":43.25113,"lon":5.4033,"is_reserved":false,"is_disabled":false,"rental_uris":{"android":"levelo://app?vid=2bc5f93b-b1d3-4403-8433-9d873dfb16de","ios":"levelo://app?vid=2bc5f93b-b1d3-4403-8433-9d873dfb16de"},"vehicle_type_id":"4","last_reported":1728504583,"current_range_meters":39200,"station_id":"ce4bhlh2rcd13ifvqgig","pricing_plan_id":"cebpf4jnsgd1na2vs0mg"},{"bike_id":"329b3185-f374-4439-b0ad-9992f01b4679","system_id":"levelo_inurba_marseille","lat":43.23174,"lon":5.39989,"is_reserved":false,"is_disabled":false,"rental_uris":{"android":"levelo://app?vid=329b3185-f374-4439-b0ad-9992f01b4679","ios":"levelo://app?vid=329b3185-f374-4439-b0ad-9992f01b4679"},"vehicle_type_id":"4","last_reported":1728504583,"current_range_meters":34800,"station_id":"ce4bhn12rcd13ifvqgqg","pricing_plan_id":"cebpf4jnsgd1na2vs0mg"},{"bike_id":"b475dfe8-6c89-4597-9704-9f74d4d063ba","system_id":"levelo_inurba_marseille","lat":43.23198,"lon":5.35559,"is_reserved":false,"is_disabled":false,"rental_uris":{"android":"levelo://app?vid=b475dfe8-6c89-4597-9704-9f74d4d063ba","ios":"levelo://app?vid=b475dfe8-6c89-4597-9704-9f74d4d063ba"},"vehicle_type_id":"4","last_reported":1728504583,"current_range_meters":38000,"station_id":"ce4bhu92rcd13ifvqi70","pricing_plan_id":"cebpf4jnsgd1na2vs0mg"},{"bike_id":"582309ec-c32e-48ee-806d-c02d610d4da9","system_id":"levelo_inurba_marseille","lat":43.29967,"lon":5.385,"is_reserved":false,"is_disabled":false,"rental_uris":{"android":"levelo://app?vid=582309ec-c32e-48ee-806d-c02d610d4da9","ios":"levelo://app?vid=582309ec-c32e-48ee-806d-c02d610d4da9"},"vehicle_type_id":"4","last_reported":1728504583,"current_range_meters":32000,"station_id":"ce4bgj92rcd13ifvqbd0","pricing_plan_id":"cebpf4jnsgd1na2vs0mg"},{"bike_id":"77e2d85d-a0bb-4ca1-9858-8f41e1584409","system_id":"levelo_inurba_marseille","lat":43.30798,"lon":5.43522,"is_reserved":false,"is_disabled":false,"rental_uris":{"android":"levelo://app?vid=77e2d85d-a0bb-4ca1-9858-8f41e1584409","ios":"levelo://app?vid=77e2d85d-a0bb-4ca1-9858-8f41e1584409"},"vehicle_type_id":"4","last_reported":1728504583,"current_range_meters":20400,"station_id":"ce4bhph2rcd13ifvqheg","pricing_plan_id":"cebpf4jnsgd1na2vs0mg"},{"bike_id":"9fd1f26d-a91d-4c4c-972c-1eea3e1a36a1","system_id":"levelo_inurba_marseille","lat":43.30885,"lon":5.39651,"is_reserved":false,"is_disabled":false,"rental_uris":{"android":"levelo://app?vid=9fd1f26d-a91d-4c4c-972c-1eea3e1a36a1","ios":"levelo://app?vid=9fd1f26d-a91d-4c4c-972c-1eea3e1a36a1"},"vehicle_type_id":"4","last_reported":1728504583,"current_range_meters":32000,"station_id":"ce4bh012rcd13ifvqcv0","pricing_plan_id":"cebpf4jnsgd1na2vs0mg"},{"bike_id":"c6985d9e-e4d0-4c90-a8aa-ba35accc411b","system_id":"levelo_inurba_marseille","lat":43.29911,"lon":5.38153,"is_reserved":false,"is_disabled":false,"rental_uris":{"android":"levelo://app?vid=c6985d9e-e4d0-4c90-a8aa-ba35accc411b","ios":"levelo://app?vid=c6985d9e-e4d0-4c90-a8aa-ba35accc411b"},"vehicle_type_id":"4","last_reported":1728504583,"current_range_meters":33600,"station_id":"ce4bgj12rcd13ifvqbc0","pricing_plan_id":"cebpf4jnsgd1na2vs0mg"},{"bike_id":"4bca65e7-f083-4a86-bb95-67042f0cf645","system_id":"levelo_inurba_marseille","lat":43.31333,"lon":5.39697,"is_reserved":false,"is_disabled":false,"rental_uris":{"android":"levelo://app?vid=4bca65e7-f083-4a86-bb95-67042f0cf645","ios":"levelo://app?vid=4bca65e7-f083-4a86-bb95-67042f0cf645"},"vehicle_type_id":"4","last_reported":1728504583,"current_range_meters":6000,"station_id":"ce4bgvp2rcd13ifvqcu0","pricing_plan_id":"cebpf4jnsgd1na2vs0mg"},{"bike_id":"d330b914-918c-42ec-912a-817e02ab2d2a","system_id":"levelo_inurba_marseille","lat":43.27613,"lon":5.36111,"is_reserved":false,"is_disabled":false,"rental_uris":{"android":"levelo://app?vid=d330b914-918c-42ec-912a-817e02ab2d2a","ios":"levelo://app?vid=d330b914-918c-42ec-912a-817e02ab2d2a"},"vehicle_type_id":"4","last_reported":1728504583,"current_range_meters":35600,"station_id":"ce4bgj92rcd13ifvqbe0","pricing_plan_id":"cebpf4jnsgd1na2vs0mg"},{"bike_id":"51440785-2105-4fe8-9ced-61f3b7fe58f6","system_id":"levelo_inurba_marseille","lat":43.33772,"lon":5.37452,"is_reserved":false,"is_disabled":false,"rental_uris":{"android":"levelo://app?vid=51440785-2105-4fe8-9ced-61f3b7fe58f6","ios":"levelo://app?vid=51440785-2105-4fe8-9ced-61f3b7fe58f6"},"vehicle_type_id":"4","last_reported":1728504583,"current_range_meters":35600,"station_id":"","pricing_plan_id":"cebpf4jnsgd1na2vs0mg"},{"bike_id":"a368d76e-e9c1-467f-82cb-b9fe018668fa","system_id":"levelo_inurba_marseille","lat":43.33759,"lon":5.37448,"is_reserved":false,"is_disabled":false,"rental_uris":{"android":"levelo://app?vid=a368d76e-e9c1-467f-82cb-b9fe018668fa","ios":"levelo://app?vid=a368d76e-e9c1-467f-82cb-b9fe018668fa"},"vehicle_type_id":"4","last_reported":1728504583,"current_range_meters":36000,"station_id":"ce4rr2p2rcd13i802rgg","pricing_plan_id":"cebpf4jnsgd1na2vs0mg"},{"bike_id":"13f6a502-4075-4a83-9d70-d4516e83a2ca","system_id":"levelo_inurba_marseille","lat":43.26494,"lon":5.39548,"is_reserved":false,"is_disabled":false,"rental_uris":{"android":"levelo://app?vid=13f6a502-4075-4a83-9d70-d4516e83a2ca","ios":"levelo://app?vid=13f6a502-4075-4a83-9d70-d4516e83a2ca"},"vehicle_type_id":"4","last_reported":1728504583,"current_range_meters":38800,"station_id":"ce4bhi12rcd13ifvqfq0","pricing_plan_id":"cebpf4jnsgd1na2vs0mg"},{"bike_id":"cc387f5f-0c77-437a-ae76-971fc7782b18","system_id":"levelo_inurba_marseille","lat":43.28078,"lon":5.39673,"is_reserved":false,"is_disabled":false,"rental_uris":{"android":"levelo://app?vid=cc387f5f-0c77-437a-ae76-971fc7782b18","ios":"levelo://app?vid=cc387f5f-0c77-437a-ae76-971fc7782b18"},"vehicle_type_id":"4","last_reported":1728504583,"current_range_meters":1200,"station_id":"ce4bho12rcd13ifvqh2g","pricing_plan_id":"cebpf4jnsgd1na2vs0mg"},{"bike_id":"1c034d1a-afec-4b9e-882c-ff4d7b8c8e9c","system_id":"levelo_inurba_marseille","lat":43.33746,"lon":5.37449,"is_reserved":false,"is_disabled":false,"rental_uris":{"android":"levelo://app?vid=1c034d1a-afec-4b9e-882c-ff4d7b8c8e9c","ios":"levelo://app?vid=1c034d1a-afec-4b9e-882c-ff4d7b8c8e9c"},"vehicle_type_id":"4","last_reported":1728504583,"current_range_meters":22800,"station_id":"ce4rr2p2rcd13i802rgg","pricing_plan_id":"cebpf4jnsgd1na2vs0mg"},{"bike_id":"3e3c199b-5889-41b5-8ef3-932feffcfbb0","system_id":"levelo_inurba_marseille","lat":43.23058,"lon":5.35489,"is_reserved":false,"is_disabled":false,"rental_uris":{"android":"levelo://app?vid=3e3c199b-5889-41b5-8ef3-932feffcfbb0","ios":"levelo://app?vid=3e3c199b-5889-41b5-8ef3-932feffcfbb0"},"vehicle_type_id":"4","last_reported":1728504583,"current_range_meters":24800,"station_id":"cpo3342slgdg3j2ifvpg","pricing_plan_id":"cebpf4jnsgd1na2vs0mg"},{"bike_id":"9a83ac9c-58fd-4b10-86b7-c760b49e19ee","system_id":"levelo_inurba_marseille","lat":43.25822,"lon":5.39442,"is_reserved":false,"is_disabled":false,"rental_uris":{"android":"levelo://app?vid=9a83ac9c-58fd-4b10-86b7-c760b49e19ee","ios":"levelo://app?vid=9a83ac9c-58fd-4b10-86b7-c760b49e19ee"},"vehicle_type_id":"4","last_reported":1728504583,"current_range_meters":6800,"station_id":"ce4bhip2rcd13ifvqft0","pricing_plan_id":"cebpf4jnsgd1na2vs0mg"},{"bike_id":"7fcb7e36-0d26-41d0-ac04-a56646146102","system_id":"levelo_inurba_marseille","lat":43.22933,"lon":5.35379,"is_reserved":false,"is_disabled":false,"rental_uris":{"android":"levelo://app?vid=7fcb7e36-0d26-41d0-ac04-a56646146102","ios":"levelo://app?vid=7fcb7e36-0d26-41d0-ac04-a56646146102"},"vehicle_type_id":"4","last_reported":1728504583,"current_range_meters":14400,"station_id":"cpo3532slgdg3j2ikp40","pricing_plan_id":"cebpf4jnsgd1na2vs0mg"},{"bike_id":"14f7e575-b24d-47e4-a21e-1dc429b4e4c6","system_id":"levelo_inurba_marseille","lat":43.31757,"lon":5.39018,"is_reserved":false,"is_disabled":false,"rental_uris":{"android":"levelo://app?vid=14f7e575-b24d-47e4-a21e-1dc429b4e4c6","ios":"levelo://app?vid=14f7e575-b24d-47e4-a21e-1dc429b4e4c6"},"vehicle_type_id":"4","last_reported":1728504583,"current_range_meters":24800,"station_id":"ce4bhqp2rcd13ifvqhng","pricing_plan_id":"cebpf4jnsgd1na2vs0mg"},{"bike_id":"2ccef9cb-293f-44bc-a1bc-3e258daa92a4","system_id":"levelo_inurba_marseille","lat":43.295297,"lon":5.385421,"is_reserved":false,"is_disabled":false,"rental_uris":{"android":"levelo://app?vid=2ccef9cb-293f-44bc-a1bc-3e258daa92a4","ios":"levelo://app?vid=2ccef9cb-293f-44bc-a1bc-3e258daa92a4"},"vehicle_type_id":"4","last_reported":1728504583,"current_range_meters":15200,"station_id":"ce4bgih2rcd13ifvqba0","pricing_plan_id":"cebpf4jnsgd1na2vs0mg"},{"bike_id":"257c1bf0-24d0-4511-a9e2-d3123eeeefa3","system_id":"levelo_inurba_marseille","lat":43.295569,"lon":5.423,"is_reserved":false,"is_disabled":false,"rental_uris":{"android":"levelo://app?vid=257c1bf0-24d0-4511-a9e2-d3123eeeefa3","ios":"levelo://app?vid=257c1bf0-24d0-4511-a9e2-d3123eeeefa3"},"vehicle_type_id":"4","last_reported":1728504583,"current_range_meters":38000,"station_id":"ce4bhph2rcd13ifvqhdg","pricing_plan_id":"cebpf4jnsgd1na2vs0mg"},{"bike_id":"d924bff1-8e49-4347-a506-ce36e47ee325","system_id":"levelo_inurba_marseille","lat":43.27176,"lon":5.40993,"is_reserved":false,"is_disabled":false,"rental_uris":{"android":"levelo://app?vid=d924bff1-8e49-4347-a506-ce36e47ee325","ios":"levelo://app?vid=d924bff1-8e49-4347-a506-ce36e47ee325"},"vehicle_type_id":"4","last_reported":1728504583,"current_range_meters":38800,"station_id":"ce4bhl12rcd13ifvqgf0","pricing_plan_id":"cebpf4jnsgd1na2vs0mg"},