{"last_updated":1731841644,"ttl":60,"version":"2.2","data":{"bikes":[{"bike_id":"73806b4b-3409-4fe7-9bac-cc9da7355bda","system_id":"levelo_inurba_marseille","lat":43.31043,"lon":5.40006,"is_reserved":false,"is_disabled":false,"rental_uris":{"android":"levelo://app?vid=73806b4b-3409-4fe7-9bac-cc9da7355bda","ios":"levelo://app?vid=73806b4b-3409-4fe7-9bac-cc9da7355bda"},"vehicle_type_id":"4","last_reported":1731841644,"current_range_meters":29600,"station_id":"","pricing_plan_id":"cebpf4jnsgd1na2vs0mg"},{"bike_id":"9c319bd8-1c7c-46bb-824e-2a1d218223bc","system_id":"levelo_inurba_marseille","lat":43.25118,"lon":5.40321,"is_reserved":false,"is_disabled":false,"rental_uris":{"android":"levelo://app?vid=9c319bd8-1c7c-46bb-824e-2a1d218223bc","ios":"levelo://app?vid=9c319bd8-1c7c-46bb-824e-2a1d218223bc"},"vehicle_type_id":"4","last_reported":1731841644,"current_range_meters":31200,"station_id":"ce4bhlh2rcd13ifvqgig","pricing_plan_id":"cebpf4jnsgd1na2vs0mg"},{"bike_id":"8f64f783-a592-44e3-bbda-2c129afa1260","system_id":"levelo_inurba_marseille","lat":43.2465,"lon":5.38907,"is_reserved":false,"is_disabled":false,"rental_uris":{"android":"levelo://app?vid=8f64f783-a592-44e3-bbda-2c129afa1260","ios":"levelo://app?vid=8f64f783-a592-44e3-bbda-2c129afa1260"},"vehicle_type_id":"4","last_reported":1731841644,"current_range_meters":39200,"station_id":"ce4bhg12rcd13ifvqf60","pricing_plan_id":"cebpf4jnsgd1na2vs0mg"},{"bike_id":"dac332cc-bb32-4dfa-915c-ec064c042e44","system_id":"levelo_inurba_marseille","lat":43.23184,"lon":5.39992,"is_reserved":false,"is_disabled":false,"rental_uris":{"android":"levelo://app?vid=dac332cc-bb32-4dfa-915c-ec064c042e44","ios":"levelo://app?vid=dac332cc-bb32-4dfa-915c-ec064c042e44"},"vehicle_type_id":"4","last_reported":1731841644,"current_range_meters":14400,"station_id":"ce4bhn12rcd13ifvqgqg","pricing_plan_id":"cebpf4jnsgd1na2vs0mg"},{"bike_id":"b72a3afc-44c7-46c5-841c-3ff0bdffd996","system_id":"levelo_inurba_marseille","lat":43.2558,"lon":5.38236,"is_reserved":false,"is_disabled":false,"rental_uris":{"android":"levelo://app?vid=b72a3afc-44c7-46c5-841c-3ff0bdffd996","ios":"levelo://app?vid=b72a3afc-44c7-46c5-841c-3ff0bdffd996"},"vehicle_type_id":"4","last_reported":1731841644,"current_range_meters":25200,"station_id":"ce4bhih2rcd13ifvqfs0","pricing_plan_id":"cebpf4jnsgd1na2vs0mg"},{"bike_id":"5fc65484-ca9d-4d04-abb0-59c0c73b1826","system_id":"levelo_inurba_marseille","lat":43.29556,"lon":5.42277,"is_reserved":false,"is_disabled":false,"rental_uris":{"android":"levelo://app?vid=5fc65484-ca9d-4d04-abb0-59c0c73b1826","ios":"levelo://app?vid=5fc65484-ca9d-4d04-abb0-59c0c73b1826"},"vehicle_type_id":"4","last_reported":1731841644,"current_range_meters":5600,"station_id":"ce4bhph2rcd13ifvqhdg","pricing_plan_id":"cebpf4jnsgd1na2vs0mg"},{"bike_id":"641e3cf3-7cd4-4453-9ca4-19b1e8a5ec27","system_id":"levelo_inurba_marseille","lat":43.26028,"lon":5.37548,"is_reserved":false,"is_disabled":false,"rental_uris":{"android":"levelo://app?vid=641e3cf3-7cd4-4453-9ca4-19b1e8a5ec27","ios":"levelo://app?vid=641e3cf3-7cd4-4453-9ca4-19b1e8a5ec27"},"vehicle_type_id":"4","last_reported":1731841644,"current_range_meters":39200,"station_id":"ce4bhgh2rcd13ifvqfa0","pricing_plan_id":"cebpf4jnsgd1na2vs0mg"},{"bike_id":"0672d165-d197-4474-bbec-2df95543fd2f","system_id":"levelo_inurba_marseille","lat":43.29898,"lon":5.4366,"is_reserved":false,"is_disabled":false,"rental_uris":{"android":"levelo://app?vid=0672d165-d197-4474-bbec-2df95543fd2f","ios":"levelo://app?vid=0672d165-d197-4474-bbec-2df95543fd2f"},"vehicle_type_id":"4","last_reported":1731841644,"current_range_meters":8000,"station_id":"ce4bhpp2rcd13ifvqhfg","pricing_plan_id":"cebpf4jnsgd1na2vs0mg"},{"bike_id":"d9d8a7d9-cde4-4fab-ab69-fcee8fe6a6da","system_id":"levelo_inurba_marseille","lat":43.250025,"lon":5.389261,"is_reserved":false,"is_disabled":false,"rental_uris":{"android":"levelo://app?vid=d9d8a7d9-cde4-4fab-ab69-fcee8fe6a6da","ios":"levelo://app?vid=d9d8a7d9-cde4-4fab-ab69-fcee8fe6a6da"},"vehicle_type_id":"4","last_reported":1731841644,"current_range_meters":9200,"station_id":"ce4bhgp2rcd13ifvqfd0","pricing_plan_id":"cebpf4jnsgd1na2vs0mg"},{"bike_id":"083dbee0-0e04-4a5e-93ff-4f8789a778b7","system_id":"levelo_inurba_marseille","lat":43.2293,"lon":5.35378,"is_reserved":false,"is_disabled":false,"rental_uris":{"android":"levelo://app?vid=083dbee0-0e04-4a5e-93ff-4f8789a778b7","ios":"levelo://app?vid=083dbee0-0e04-4a5e-93ff-4f8789a778b7"},"vehicle_type_id":"4","last_reported":1731841644,"current_range_meters":38800,"station_id":"cpo3532slgdg3j2ikp40","pricing_plan_id":"cebpf4jnsgd1na2vs0mg"},{"bike_id":"2c8d9716-8e29-45e2-bee1-b1a8990c9077","system_id":"levelo_inurba_marseille","lat":43.30459,"lon":5.37897,"is_reserved":false,"is_disabled":false,"rental_uris":{"android":"levelo://app?vid=2c8d9716-8e29-45e2-bee1-b1a8990c9077","ios":"levelo://app?vid=2c8d9716-8e29-45e2-bee1-b1a8990c9077"},"vehicle_type_id":"4","last_reported":1731841644,"current_range_meters":6800,"station_id":"ce4bgup2rcd13ifvqcn0","pricing_plan_id":"cebpf4jnsgd1na2vs0mg"},{"bike_id":"1a8aea14-b545-43b0-b443-fafdc89d4493","system_id":"levelo_inurba_marseille","lat":43.28696,"lon":5.37382,"is_reserved":false,"is_disabled":false,"rental_uris":{"android":"levelo://app?vid=1a8aea14-b545-43b0-b443-fafdc89d4493","ios":"levelo://app?vid=1a8aea14-b545-43b0-b443-fafdc89d4493"},"vehicle_type_id":"4","last_reported":1731841644,"current_range_meters":38800,"station_id":"ce4bh3p2rcd13ifvqdq0","pricing_plan_id":"cebpf4jnsgd1na2vs0mg"},{"bike_id":"529dacce-bbc1-48d7-a5b9-b470f721f3af","system_id":"levelo_inurba_marseille","lat":43.30083,"lon":5.39085,"is_reserved":false,"is_disabled":false,"rental_uris":{"android":"levelo://app?vid=529dacce-bbc1-48d7-a5b9-b470f721f3af","ios":"levelo://app?vid=529dacce-bbc1-48d7-a5b9-b470f721f3af"},"vehicle_type_id":"4","last_reported":1731841644,"current_range_meters":34000,"station_id":"ce4bh192rcd13ifvqdb0","pricing_plan_id":"cebpf4jnsgd1na2vs0mg"},{"bike_id":"b361c1fc-f63b-4883-ac7d-1a695da9acca","system_id":"levelo_inurba_marseille","lat":43.2418,"lon":5.39728,"is_reserved":false,"is_disabled":false,"rental_uris":{"android":"levelo://app?vid=b361c1fc-f63b-4883-ac7d-1a695da9acca","ios":"levelo://app?vid=b361c1fc-f63b-4883-ac7d-1a695da9acca"},"vehicle_type_id":"4","last_reported":1731841644,"current_range_meters":32800,"station_id":"ce4bhn12rcd13ifvqgpg","pricing_plan_id":"cebpf4jnsgd1na2vs0mg"},{"bike_id":"313dfc76-e5ff-4fdb-a6ce-11cb6d4ff689","system_id":"levelo_inurba_marseille","lat":43.22927,"lon":5.35372,"is_reserved":false,"is_disabled":false,"rental_uris":{"android":"levelo://app?vid=313dfc76-e5ff-4fdb-a6ce-11cb6d4ff689","ios":"levelo://app?vid=313dfc76-e5ff-4fdb-a6ce-11cb6d4ff689"},"vehicle_type_id":"4","last_reported":1731841644,"current_range_meters":6400,"station_id":"cpo3532slgdg3j2ikp40","pricing_plan_id":"cebpf4jnsgd1na2vs0mg"},{"bike_id":"4c167bc3-2964-4625-adc0-c92e539ad80f","system_id":"levelo_inurba_marseille","lat":43.28282,"lon":5.40789,"is_reserved":false,"is_disabled":false,"rental_uris":{"android":"levelo://app?vid=4c167bc3-2964-4625-adc0-c92e539ad80f","ios":"levelo://app?vid=4c167bc3-2964-4625-adc0-c92e539ad80f"},"vehicle_type_id":"4","last_reported":1731841644,"current_range_meters":35600,"station_id":"","pricing_plan_id":"cebpf4jnsgd1na2vs0mg"},{"bike_id":"ebece2e7-cd1b-4190-b52a-8a13152f9205","system_id":"levelo_inurba_marseille","lat":43.28614,"lon":5.37066,"is_reserved":false,"is_disabled":false,"rental_uris":{"android":"levelo://app?vid=ebece2e7-cd1b-4190-b52a-8a13152f9205","ios":"levelo://app?vid=ebece2e7-cd1b-4190-b52a-8a13152f9205"},"vehicle_type_id":"4","last_reported":1731841644,"current_range_meters":24800,"station_id":"ce4bht12rcd13ifvqi60","pricing_plan_id":"cebpf4jnsgd1na2vs0mg"},{"bike_id":"59296fc1-5f2e-4e55-ac79-9143b6b3ae42","system_id":"levelo_inurba_marseille","lat":43.26029,"lon":5.37549,"is_reserved":false,"is_disabled":false,"rental_uris":{"android":"levelo://app?vid=59296fc1-5f2e-4e55-ac79-9143b6b3ae42","ios":"levelo://app?vid=59296fc1-5f2e-4e55-ac79-9143b6b3ae42"},"vehicle_type_id":"4","last_reported":1731841644,"current_range_meters":21600,"station_id":"ce4bhgh2rcd13ifvqfa0","pricing_plan_id":"cebpf4jnsgd1na2vs0mg"},{"bike_id":"5f6980a5-10b1-4267-b3b1-adf4bfb316a7","system_id":"levelo_inurba_marseille","lat":43.2962,"lon":5.37169,"is_reserved":false,"is_disabled":false,"rental_uris":{"android":"levelo://app?vid=5f6980a5-10b1-4267-b3b1-adf4bfb316a7","ios":"levelo://app?vid=5f6980a5-10b1-4267-b3b1-adf4bfb316a7"},"vehicle_type_id":"4","last_reported":1731841644,"current_range_meters":35200,"station_id":"ce4bgnh2rcd13ifvqc0g","pricing_plan_id":"cebpf4jnsgd1na2vs0mg"},{"bike_id":"6b0ea79e-cb12-4a50-9845-e4686b3cacc8","system_id":"levelo_inurba_marseille","lat":43.295751,"lon":5.399791,"is_reserved":false,"is_disabled":false,"rental_uris":{"android":"levelo://app?vid=6b0ea79e-cb12-4a50-9845-e4686b3cacc8","ios":"levelo://app?vid=6b0ea79e-cb12-4a50-9845-e4686b3cacc8"},"vehicle_type_id":"4","last_reported":1731841644,"current_range_meters":10000,"station_id":"","pricing_plan_id":"cebpf4jnsgd1na2vs0mg"},{"bike_id":"6b3b29cc-0d16-4209-baf0-d9aa368351c0","system_id":"levelo_inurba_marseille","lat":43.32549,"lon":5.41477,"is_reserved":false,"is_disabled":false,"rental_uris":{"android":"levelo://app?vid=6b3b29cc-0d16-4209-baf0-d9aa368351c0","ios":"levelo://app?vid=6b3b29cc-0d16-4209-baf0-d9aa368351c0"},"vehicle_type_id":"4","last_reported":1731841644,"current_range_meters":38800,"station_id":"ce4bhq12rcd13ifvqhhg","pricing_plan_id":"cebpf4jnsgd1na2vs0mg"},{"bike_id":"ab1e2336-b4d1-4295-8ba5-67ecc35322d1","system_id":"levelo_inurba_marseille","lat":43.25001,"lon":5.38934,"is_reserved":false,"is_disabled":false,"rental_uris":{"android":"levelo://app?vid=ab1e2336-b4d1-4295-8ba5-67ecc35322d1","ios":"levelo://app?vid=ab1e2336-b4d1-4295-8ba5-67ecc35322d1"},"vehicle_type_id":"4","last_reported":1731841644,"current_range_meters":10000,"station_id":"ce4bhgp2rcd13ifvqfd0","pricing_plan_id":"cebpf4jnsgd1na2vs0mg"},{"bike_id":"6d98b531-f580-4d36-9ec9-50ea65464d9b","system_id":"levelo_inurba_marseille","lat":43.28476,"lon":5.38442,"is_reserved":false,"is_disabled":false,"rental_uris":{"android":"levelo://app?vid=6d98b531-f580-4d36-9ec9-50ea65464d9b","ios":"levelo://app?vid=6d98b531-f580-4d36-9ec9-50ea65464d9b"},"vehicle_type_id":"4","last_reported":1731841644,"current_range_meters":27200,"station_id":"ce4bh512rcd13ifvqe3g","pricing_plan_id":"cebpf4jnsgd1na2vs0mg"},{"bike_id":"72499688-a320-4333-843e-c093213a74e4","system_id":"levelo_inurba_marseille","lat":43.23057,"lon":5.35493,"is_reserved":false,"is_disabled":false,"rental_uris":{"android":"levelo://app?vid=72499688-a320-4333-843e-c093213a74e4","ios":"levelo://app?vid=72499688-a320-4333-843e-c093213a74e4"},"vehicle_type_id":"4","last_reported":1731841644,"current_range_meters":4400,"station_id":"cpo3342slgdg3j2ifvpg","pricing_plan_id":"cebpf4jnsgd1na2vs0mg"},{"bike_id":"dc5c83a9-53b7-4c36-8725-dbd2bc024ff7","system_id":"levelo_inurba_marseille","lat":43.25,"lon":5.389253,"is_reserved":false,"is_disabled":false,"rental_uris":{"android":"levelo://app?vid=dc5c83a9-53b7-4c36-8725-dbd2bc024ff7","ios":"levelo://app?vid=dc5c83a9-53b7-4c36-8725-dbd2bc024ff7"},"vehicle_type_id":"4","last_reported":1731841644,"current_range_meters":26800,"station_id":"ce4bhgp2rcd13ifvqfd0","pricing_plan_id":"cebpf4jnsgd1na2vs0mg"},{"bike_id":"cfb84728-fd61-4b96-a4bf-5bedd95d8ccb","system_id":"levelo_inurba_marseille","lat":43.32342,"lon":5.40616,"is_reserved":false,"is_disabled":false,"rental_uris":{"android":"levelo://app?vid=cfb84728-fd61-4b96-a4bf-5bedd95d8ccb","ios":"levelo://app?vid=cfb84728-fd61-4b96-a4bf-5bedd95d8ccb"},"vehicle_type_id":"4","last_reported":1731841644,"current_range_meters":38000,"station_id":"ce4bhq92rcd13ifvqhjg","pricing_plan_id":"cebpf4jnsgd1na2vs0mg"},{"bike_id":"5041f427-4d35-4ab3-b656-c5408d135902","system_id":"levelo_inurba_marseille","lat":43.26673,"lon":5.38269,"is_reserved":false,"is_disabled":false,"rental_uris":{"android":"levelo://app?vid=5041f427-4d35-4ab3-b656-c5408d135902","ios":"levelo://app?vid=5041f427-4d35-4ab3-b656-c5408d135902"},"vehicle_type_id":"4","last_reported":1731841644,"current_range_meters":38400,"station_id":"ce4bhg92rcd13ifvqf90","pricing_plan_id":"cebpf4jnsgd1na2vs0mg"},{"bike_id":"0e1d2e7a-8318-45fe-af1b-31857eb1aac8","system_id":"levelo_inurba_marseille","lat":43.23957,"lon":5.36628,"is_reserved":false,"is_disabled":false,"rental_uris":{"android":"levelo://app?vid=0e1d2e7a-8318-45fe-af1b-31857eb1aac8","ios":"levelo://app?vid=0e1d2e7a-8318-45fe-af1b-31857eb1aac8"},"vehicle_type_id":"4","last_reported":1731841644,"current_range_meters":24800,"station_id":"ce4bhi12rcd13ifvqfp0","pricing_plan_id":"cebpf4jnsgd1na2vs0mg"},{"bike_id":"d3d6c01f-3a4b-4f9b-a5b9-2d9687fae2ab","system_id":"levelo_inurba_marseille","lat":43.27947,"lon":5.41042,"is_reserved":false,"is_disabled":false,"rental_uris":{"android":"levelo://app?vid=d3d6c01f-3a4b-4f9b-a5b9-2d9687fae2ab","ios":"levelo://app?vid=d3d6c01f-3a4b-4f9b-a5b9-2d9687fae2ab"},"vehicle_type_id":"4","last_reported":1731841644,"current_range_meters":34000,"station_id":"ce4bhnp2rcd13ifvqh0g","pricing_plan_id":"cebpf4jnsgd1na2vs0mg"},{"bike_id":"2bd3ae1c-22d2-4b0f-9fd7-42d6b84fc3a3","system_id":"levelo_inurba_marseille","lat":43.336005,"lon":5.410295,"is_reserved":false,"is_disabled":false,"rental_uris":{"android":"levelo://app?vid=2bd3ae1c-22d2-4b0f-9fd7-42d6b84fc3a3","ios":"levelo://app?vid=2bd3ae1c-22d2-4b0f-9fd7-42d6b84fc3a3"},"vehicle_type_id":"4","last_reported":1731841644,"current_range_meters":19200,"station_id":"ce4bhqh2rcd13ifvqhmg","pricing_plan_id":"cebpf4jnsgd1na2vs0mg"},{"bike_id":"79b76398-f4aa-422b-b325-2360d07a8784","system_id":"levelo_inurba_marseille","lat":43.33722,"lon":5.39181,"is_reserved":false,"is_disabled":false,"rental_uris":{"android":"levelo://app?vid=79b76398-f4aa-422b-b325-2360d07a8784","ios":"levelo://app?vid=79b76398-f4aa-422b-b325-2360d07a8784"},"vehicle_type_id":"4","last_reported":1731841644,"current_range_meters":38800,"station_id":"ce4bhr92rcd13ifvqhsg","pricing_plan_id":"cebpf4jnsgd1na2vs0mg"},{"bike_id":"efd07578-0d87-479b-a620-d02e7740eb0d","system_id":"levelo_inurba_marseille","lat":43.26858,"lon":5.37071,"is_reserved":false,"is_disabled":false,"rental_uris":{"android":"levelo://app?vid=efd07578-0d87-479b-a620-d02e7740eb0d","ios":"levelo://app?vid=efd07578-0d87-479b-a620-d02e7740eb0d"},"vehicle_type_id":"4","last_reported":1731841644,"current_range_meters":37600,"station_id":"ce4bhgh2rcd13ifvqfb0","pricing_plan_id":"cebpf4jnsgd1na2vs0mg"},{"bike_id":"9c601093-fd04-4d74-8d86-a54aa07b1baf","system_id":"levelo_inurba_marseille","lat":43.22932,"lon":5.35376,"is_reserved":false,"is_disabled":false,"rental_uris":{"android":"levelo://app?vid=9c601093-fd04-4d74-8d86-a54aa07b1baf","ios":"levelo://app?vid=9c601093-fd04-4d74-8d86-a54aa07b1baf"},"vehicle_type_id":"4","last_reported":1731841644,"current_range_meters":11600,"station_id":"cpo3532slgdg3j2ikp40","pricing_plan_id":"cebpf4jnsgd1na2vs0mg"},{"bike_id":"17c79e0e-27fe-43dc-acb4-348307ee2e97","system_id":"levelo_inurba_marseille","lat":43.24175,"lon":5.36395,"is_reserved":false,"is_disabled":false,"rental_uris":{"android":"levelo://app?vid=17c79e0e-27fe-43dc-acb4-348307ee2e97","ios":"levelo://app?vid=17c79e0e-27fe-43dc-acb4-348307ee2e97"},"vehicle_type_id":"4","last_reported":1731841644,"current_range_meters":12000,"station_id":"cpo36qri1sfpv3e86is0","pricing_plan_id":"cebpf4jnsgd1na2vs0mg"},{"bike_id":"446471c1-84b4-4a30-ba34-29cc41f908e5","system_id":"levelo_inurba_marseille","lat":43.299,"lon":5.38149,"is_reserved":false,"is_disabled":false,"rental_uris":{"android":"levelo://app?vid=446471c1-84b4-4a30-ba34-29cc41f908e5","ios":"levelo://app?vid=446471c1-84b4-4a30-ba34-29cc41f908e5"},"vehicle_type_id":"4","last_reported":1731841644,"current_range_meters":38400,"station_id":"ce4bgj12rcd13ifvqbc0","pricing_plan_id":"cebpf4jnsgd1na2vs0mg"},{"bike_id":"3fcbe528-45e3-439d-80db-ce667e24fe73","system_id":"levelo_inurba_marseille","lat":43.23059,"lon":5.35492,"is_reserved":false,"is_disabled":false,"rental_uris":{"android":"levelo://app?vid=3fcbe528-45e3-439d-80db-ce667e24fe73","ios":"levelo://app?vid=3fcbe528-45e3-439d-80db-ce667e24fe73"},"vehicle_type_id":"4","last_reported":1731841644,"current_range_meters":16800,"station_id":"cpo3342slgdg3j2ifvpg","pricing_plan_id":"cebpf4jnsgd1na2vs0mg"},{"bike_id":"886b879b-b30b-4b3f-bdb3-e0d7ca7a0da1","system_id":"levelo_inurba_marseille","lat":43.26686,"lon":5.38274,"is_reserved":false,"is_disabled":false,"rental_uris":{"android":"levelo://app?vid=886b879b-b30b-4b3f-bdb3-e0d7ca7a0da1","ios":"levelo://app?vid=886b879b-b30b-4b3f-bdb3-e0d7ca7a0da1"},"vehicle_type_id":"4","last_reported":1731841644,"current_range_meters":29600,"station_id":"ce4bhg92rcd13ifvqf90","pricing_plan_id":"cebpf4jnsgd1na2vs0mg"},{"bike_id":"b2f45d15-d036-4f36-a361-a492e289342e","system_id":"levelo_inurba_marseille","lat":43.22921,"lon":5.3538,"is_reserved":false,"is_disabled":false,"rental_uris":{"android":"levelo://app?vid=b2f45d15-d036-4f36-a361-a492e289342e","ios":"levelo://app?vid=b2f45d15-d036-4f36-a361-a492e289342e"},"vehicle_type_id":"4","last_reported":1731841644,"current_range_meters":36000,"station_id":"cpo3532slgdg3j2ikp40","pricing_plan_id":"cebpf4jnsgd1na2vs0mg"},{"bike_id":"0eb5a0ee-db9b-4a72-a5c7-31db4ce16207","system_id":"levelo_inurba_marseille","lat":43.26206,"lon":5.37929,"is_reserved":false,"is_disabled":false,"rental_uris":{"android":"levelo://app?vid=0eb5a0ee-db9b-4a72-a5c7-31db4ce16207","ios":"levelo://app?vid=0eb5a0ee-db9b-4a72-a5c7-31db4ce16207"},"vehicle_type_id":"4","last_reported":1731841644,"current_range_meters":23200,"station_id":"ce4bhjp2rcd13ifvqg90","pricing_plan_id":"cebpf4jnsgd1na2vs0mg"},{"bike_id":"703bb2fc-3ffe-458e-a631-4b90e0551d8e","system_id":"levelo_inurba_marseille","lat":43.28615,"lon":5.35105,"is_reserved":false,"is_disabled":false,"rental_uris":{"android":"levelo://app?vid=703bb2fc-3ffe-458e-a631-4b90e0551d8e","ios":"levelo://app?vid=703bb2fc-3ffe-458e-a631-4b90e0551d8e"},"vehicle_type_id":"4","last_reported":1731841644,"current_range_meters":34800,"station_id":"ce4bhch2rcd13ifvqeug","pricing_plan_id":"cebpf4jnsgd1na2vs0mg"},{"bike_id":"10694117-1a43-4a08-93b5-62ad2c7be916","system_id":"levelo_inurba_marseille","lat":43.26206,"lon":5.37442,"is_reserved":false,"is_disabled":false,"rental_uris":{"android":"levelo://app?vid=10694117-1a43-4a08-93b5-62ad2c7be916","ios":"levelo://app?vid=10694117-1a43-4a08-93b5-62ad2c7be916"},"vehicle_type_id":"4","last_reported":1731841644,"current_range_meters":24000,"station_id":"ce4bhgp2rcd13ifvqfc0","pricing_plan_id":"cebpf4jnsgd1na2vs0mg"},{"bike_id":"c3979bf8-19b8-44f8-9c55-905eeba667a1","system_id":"levelo_inurba_marseille","lat":43.25109,"lon":5.4032,"is_reserved":false,"is_disabled":false,"rental_uris":{"android":"levelo://app?vid=c3979bf8-19b8-44f8-9c55-905eeba667a1","ios":"levelo://app?vid=c3979bf8-19b8-44f8-9c55-905eeba667a1"},"vehicle_type_id":"4","last_reported":1731841644,"current_range_meters":38800,"station_id":"ce4bhlh2rcd13ifvqgig","pricing_plan_id":"cebpf4jnsgd1na2vs0mg"},{"bike_id":"813af9a4-9b14-40c9-8204-9843d74ef545","system_id":"levelo_inurba_marseille","lat":43.29587,"lon":5.36738,"is_reserved":false,"is_disabled":false,"rental_uris":{"android":"levelo://app?vid=813af9a4-9b14-40c9-8204-9843d74ef545","ios":"levelo://app?vid=813af9a4-9b14-40c9-8204-9843d74ef545"},"vehicle_type_id":"4","last_reported":1731841644,"current_range_meters":38800,"station_id":"ce4bgph2rcd13ifvqc2g","pricing_plan_id":"cebpf4jnsgd1na2vs0mg"},{"bike_id":"b9c86c86-5178-49e0-8229-02ec24655ad8","system_id":"levelo_inurba_marseille","lat":43.25812,"lon":5.39435,"is_reserved":false,"is_disabled":false,"rental_uris":{"android":"levelo://app?vid=b9c86c86-5178-49e0-8229-02ec24655ad8","ios":"levelo://app?vid=b9c86c86-5178-49e0-8229-02ec24655ad8"},"vehicle_type_id":"4","last_reported":1731841644,"current_range_meters":4400,"station_id":"ce4bhip2rcd13ifvqft0","pricing_plan_id":"cebpf4jnsgd1na2vs0mg"},{"bike_id":"41b88041-886b-40fb-a6a6-43530d254872","system_id":"levelo_inurba_marseille","lat":43.26495,"lon":5.39543,"is_reserved":false,"is_disabled":false,"rental_uris":{"android":"levelo://app?vid=41b88041-886b-40fb-a6a6-43530d254872","ios":"levelo://app?vid=41b88041-886b-40fb-a6a6-43530d254872"},"vehicle_type_id":"4","last_reported":1731841644,"current_range_meters":36400,"station_id":"ce4bhi12rcd13ifvqfq0","pricing_plan_id":"cebpf4jnsgd1na2vs0mg"},{"bike_id":"b128a8d7-7942-4d37-9966-cfc17584ff0d","system_id":"levelo_inurba_marseille","lat":43.280633,"lon":5.407773,"is_reserved":false,"is_disabled":false,"rental_uris":{"android":"levelo://app?vid=b128a8d7-7942-4d37-9966-cfc17584ff0d","ios":"levelo://app?vid=b128a8d7-7942-4d37-9966-cfc17584ff0d"},"vehicle_type_id":"4","last_reported":1731841644,"current_range_meters":14400,"station_id":"","pricing_plan_id":"cebpf4jnsgd1na2vs0mg"},{"bike_id":"78f7063c-01cd-4514-96f5-e9c548d4aba9","system_id":"levelo_inurba_marseille","lat":43.25585,"lon":5.3823,"is_reserved":false,"is_disabled":false,"rental_uris":{"android":"levelo://app?vid=78f7063c-01cd-4514-96f5-e9c548d4aba9","ios":"levelo://app?vid=78f7063c-01cd-4514-96f5-e9c548d4aba9"},"vehicle_type_id":"4","last_reported":1731841644,"current_range_meters":30000,"station_id":"ce4bhih2rcd13ifvqfs0","pricing_plan_id":"cebpf4jnsgd1na2vs0mg"},{"bike_id":"98e8f116-8e6d-44de-aa8d-307238c5688c","system_id":"levelo_inurba_marseille","lat":43.30797,"lon":5.4352,"is_reserved":false,"is_disabled":false,"rental_uris":{"android":"levelo://app?vid=98e8f116-8e6d-44de-aa8d-307238c5688c","ios":"levelo://app?vid=98e8f116-8e6d-44de-aa8d-307238c5688c"},"vehicle_type_id":"4","last_reported":1731841644,"current_range_meters":38800,"station_id":"ce4bhph2rcd13ifvqheg","pricing_plan_id":"cebpf4jnsgd1na2vs0mg"},{"bike_id":"8b8091d9-8831-4b6c-ad12-201ff8e72ec6","system_id":"levelo_inurba_marseille","lat":43.27903,"lon":5.41426,"is_reserved":false,"is_disabled":false,"rental_uris":{"android":"levelo://app?vid=8b8091d9-8831-4b6c-ad12-201ff8e72ec6","ios":"levelo://app?vid=8b8091d9-8831-4b6c-ad12-201ff8e72ec6"},"vehicle_type_id":"4","last_reported":1731841644,"current_range_meters":34000,"station_id":"","pricing_plan_id":"cebpf4jnsgd1na2vs0mg"},{"bike_id":"5f8be445-0b9a-44e6-87c2-4c76931a018c","system_id":"levelo_inurba_marseille","lat":43.32108,"lon":5.36779,"is_reserved":false,"is_disabled":false,"rental_uris":{"android":"levelo://app?vid=5f8be445-0b9a-44e6-87c2-4c76931a018c","ios":"levelo://app?vid=5f8be445-0b9a-44e6-87c2-4c76931a018c"},"vehicle_type_id":"4","last_reported":1731841644,"current_range_meters":20000,"station_id":"ce4bhrh2rcd13ifvqhug","pricing_plan_id":"cebpf4jnsgd1na2vs0mg"},{"bike_id":"75920a68-20af-4e25-8f9a-eebdafdde0c1","system_id":"levelo_inurba_marseille","lat":43.32344,"lon":5.40626,"is_reserved":false,"is_disabled":false,"rental_uris":{"android":"levelo://app?vid=75920a68-20af-4e25-8f9a-eebdafdde0c1","ios":"levelo://app?vid=75920a68-20af-4e25-8f9a-eebdafdde0c1"},"vehicle_type_id":"4","last_reported":1731841644,"current_range_meters":38400,"station_id":"ce4bhq92rcd13ifvqhjg","pricing_plan_id":"cebpf4jnsgd1na2vs0mg"},{"bike_id":"23e5e119-83f6-4211-ade1-a250a82ab7db","system_id":"levelo_inurba_marseille","lat":43.22934,"lon":5.35371,"is_reserved":false,"is_disabled":false,"rental_uris":{"android":"levelo://app?vid=23e5e119-83f6-4211-ade1-a250a82ab7db","ios":"levelo://app?vid=23e5e119-83f6-4211-ade1-a250a82ab7db"},"vehicle_type_id":"4","last_reported":1731841644,"current_range_meters":16800,"station_id":"cpo3532slgdg3j2ikp40","pricing_plan_id":"cebpf4jnsgd1na2vs0mg"},{"bike_id":"0b580216-b07f-4821-a19d-686462be0488","system_id":"levelo_inurba_marseille","lat":43.22935,"lon":5.35378,"is_reserved":false,"is_disabled":false,"rental_uris":{"android":"levelo://app?vid=0b580216-b07f-4821-a19d-686462be0488","ios":"levelo://app?vid=0b580216-b07f-4821-a19d-686462be0488"},"vehicle_type_id":"4","last_reported":1731841644,"current_range_meters":36000,"station_id":"cpo3532slgdg3j2ikp40","pricing_plan_id":"cebpf4jnsgd1na2vs0mg"},{"bike_id":"01272bd5-a2c0-44b6-b76e-87cd305d9451","system_id":"levelo_inurba_marseille","lat":43.33023,"lon":5.39047,"is_reserved":false,"is_disabled":false,"rental_uris":{"android":"levelo://app?vid=01272bd5-a2c0-44b6-b76e-87cd305d9451","ios":"levelo://app?vid=01272bd5-a2c0-44b6-b76e-87cd305d9451"},"vehicle_type_id":"4","last_reported":1731841644,"current_range_meters":16400,"station_id":"ce4bhr92rcd13ifvqhrg","pricing_plan_id":"cebpf4jnsgd1na2vs0mg"},{"bike_id":"6c09764b-b705-4bff-8274-3ff08e7b8ec5","system_id":"levelo_inurba_marseille","lat":43.25581,"lon":5.38237,"is_reserved":false,"is_disabled":false,"rental_uris":{"android":"levelo://app?vid=6c09764b-b705-4bff-8274-3ff08e7b8ec5","ios":"levelo://app?vid=6c09764b-b705-4bff-8274-3ff08e7b8ec5"},"vehicle_type_id":"4","last_reported":1731841644,"current_range_meters":38000,"station_id":"ce4bhih2rcd13ifvqfs0","pricing_plan_id":"cebpf4jnsgd1na2vs0mg"},{"bike_id":"4138345b-cc1d-40b0-8916-e8013770729a","system_id":"levelo_inurba_marseille","lat":43.24644,"lon":5.3889,"is_reserved":false,"is_disabled":false,"rental_uris":{"android":"levelo://app?vid=4138345b-cc1d-40b0-8916-e8013770729a","ios":"levelo://app?vid=4138345b-cc1d-40b0-8916-e8013770729a"},"vehicle_type_id":"4","last_reported":1731841644,"current_range_meters":36800,"station_id":"ce4bhg12rcd13ifvqf60","pricing_plan_id":"cebpf4jnsgd1na2vs0mg"},{"bike_id":"d332e933-cded-40f1-a449-8f27d433e53d","system_id":"levelo_inurba_marseille","lat":43.28408,"lon":5.34986,"is_reserved":false,"is_disabled":false,"rental_uris":{"android":"levelo://app?vid=d332e933-cded-40f1-a449-8f27d433e53d","ios":"levelo://app?vid=d332e933-cded-40f1-a449-8f27d433e53d"},"vehicle_type_id":"4","last_reported":1731841644,"current_range_meters":38800,"station_id":"ce4bhbh2rcd13ifvqepg","pricing_plan_id":"cebpf4jnsgd1na2vs0mg"},{"bike_id":"10473ae9-343a-42a2-916b-9f1475a0a3bc","system_id":"levelo_inurba_marseille","lat":43.2396,"lon":5.36639,"is_reserved":false,"is_disabled":false,"rental_uris":{"android":"levelo://app?vid=10473ae9-343a-42a2-916b-9f1475a0a3bc","ios":"levelo://app?vid=10473ae9-343a-42a2-916b-9f1475a0a3bc"},"vehicle_type_id":"4","last_reported":1731841644,"current_range_meters":28000,"station_id":"ce4bhi12rcd13ifvqfp0","pricing_plan_id":"cebpf4jnsgd1na2vs0mg"},{"bike_id":"d0aa94df-ebfe-49e7-8fc6-fc1ad3669764","system_id":"levelo_inurba_marseille","lat":43.289581,"lon":5.385133,"is_reserved":false,"is_disabled":false,"rental_uris":{"android":"levelo://app?vid=d0aa94df-ebfe-49e7-8fc6-fc1ad3669764","ios":"levelo://app?vid=d0aa94df-ebfe-49e7-8fc6-fc1ad3669764"},"vehicle_type_id":"4","last_reported":1731841644,"current_range_meters":13600,"station_id":"ce4bh612rcd13ifvqe6g","pricing_plan_id":"cebpf4jnsgd1na2vs0mg"},{"bike_id":"87119aad-ad8b-4504-8d03-d8d8d5751481","system_id":"levelo_inurba_marseille","lat":43.27931,"lon":5.41215,"is_reserved":false,"is_disabled":false,"rental_uris":{"android":"levelo://app?vid=87119aad-ad8b-4504-8d03-d8d8d5751481","ios":"levelo://app?vid=87119aad-ad8b-4504-8d03-d8d8d5751481"},"vehicle_type_id":"4","last_reported":1731841644,"current_range_meters":24000,"station_id":"","pricing_plan_id":"cebpf4jnsgd1na2vs0mg"},{"bike_id":"e46885b8-a6d7-44d2-85c2-281015e687a1","system_id":"levelo_inurba_marseille","lat":43.28909,"lon":5.37204,"is_reserved":false,"is_disabled":false,"rental_uris":{"android":"levelo://app?vid=e46885b8-a6d7-44d2-85c2-281015e687a1","ios":"levelo://app?vid=e46885b8-a6d7-44d2-85c2-281015e687a1"},"vehicle_type_id":"4","last_reported":1731841644,"current_range_meters":30400,"station_id":"","pricing_plan_id":"cebpf4jnsgd1na2vs0mg"},{"bike_id":"ba57f1ef-3fbb-4816-9e62-2e0737689f5e","system_id":"levelo_inurba_marseille","lat":43.336072,"lon":5.410184,"is_reserved":false,"is_disabled":false,"rental_uris":{"android":"levelo://app?vid=ba57f1ef-3fbb-4816-9e62-2e0737689f5e","ios":"levelo://app?vid=ba57f1ef-3fbb-4816-9e62-2e0737689f5e"},"vehicle_type_id":"4","last_reported":1731841644,"current_range_meters":38800,"station_id":"ce4bhqh2rcd13ifvqhmg","pricing_plan_id":"cebpf4jnsgd1na2vs0mg"},{"bike_id":"793d6e4d-12b5-4d1d-9fa6-da946a0ba89e","system_id":"levelo_inurba_marseille","lat":43.28611,"lon":5.35104,"is_reserved":false,"is_disabled":false,"rental_uris":{"android":"levelo://app?vid=793d6e4d-12b5-4d1d-9fa6-da946a0ba89e","ios":"levelo://app?vid=793d6e4d-12b5-4d1d-9fa6-da946a0ba89e"},"vehicle_type_id":"4","last_reported":1731841644,"current_range_meters":22800,"station_id":"ce4bhch2rcd13ifvqeug","pricing_plan_id":"cebpf4jnsgd1na2vs0mg"},{"bike_id":"6da298a1-b1e6-4ba8-a57a-5400211d4b87","system_id":"levelo_inurba_marseille","lat":43.27994,"lon":5.41654,"is_reserved":false,"is_disabled":false,"rental_uris":{"android":"levelo://app?vid=6da298a1-b1e6-4ba8-a57a-5400211d4b87","ios":"levelo://app?vid=6da298a1-b1e6-4ba8-a57a-5400211d4b87"},"vehicle_type_id":"4","last_reported":1731841644,"current_range_meters":28400,"station_id":"ce4bho12rcd13ifvqh1g","pricing_plan_id":"cebpf4jnsgd1na2vs0mg"},{"bike_id":"2a6ea6c1-25ee-49ad-aa08-9c77096a4896","system_id":"levelo_inurba_marseille","lat":43.25108,"lon":5.40324,"is_reserved":false,"is_disabled":false,"rental_uris":{"android":"levelo://app?vid=2a6ea6c1-25ee-49ad-aa08-9c77096a4896","ios":"levelo://app?vid=2a6ea6c1-25ee-49ad-aa08-9c77096a4896"},"vehicle_type_id":"4","last_reported":1731841644,"current_range_meters":23200,"station_id":"ce4bhlh2rcd13ifvqgig","pricing_plan_id":"cebpf4jnsgd1na2vs0mg"},{"bike_id":"4688aa23-7218-42d5-844e-a04622036f55","system_id":"levelo_inurba_marseille","lat":43.266745,"lon":5.382691,"is_reserved":false,"is_disabled":false,"rental_uris":{"android":"levelo://app?vid=4688aa23-7218-42d5-844e-a04622036f55","ios":"levelo://app?vid=4688aa23-7218-42d5-844e-a04622036f55"},"vehicle_type_id":"4","last_reported":1731841644,"current_range_meters":30400,"station_id":"ce4bhg92rcd13ifvqf90","pricing_plan_id":"cebpf4jnsgd1na2vs0mg"},{"bike_id":"12867844-fa2a-41b2-8d74-706d4ef15909","system_id":"levelo_inurba_marseille","lat":43.33762,"lon":5.37444,"is_reserved":false,"is_disabled":false,"rental_uris":{"android":"levelo://app?vid=12867844-fa2a-41b2-8d74-706d4ef15909","ios":"levelo://app?vid=12867844-fa2a-41b2-8d74-706d4ef15909"},"vehicle_type_id":"4","last_reported":1731841644,"current_range_meters":33600,"station_id":"","pricing_plan_id":"cebpf4jnsgd1na2vs0mg"},{"bike_id":"3455c789-2e35-4152-8de0-fa613ba872df","system_id":"levelo_inurba_marseille","lat":43.32367,"lon":5.38893,"is_reserved":false,"is_disabled":false,"rental_uris":{"android":"levelo://app?vid=3455c789-2e35-4152-8de0-fa613ba872df","ios":"levelo://app?vid=3455c789-2e35-4152-8de0-fa613ba872df"},"vehicle_type_id":"4","last_reported":1731841644,"current_range_meters":33200,"station_id":"ce4bhqp2rcd13ifvqhog","pricing_plan_id":"cebpf4jnsgd1na2vs0mg"},{"bike_id":"6437dce5-5010-4d0f-84e0-3d1da25fbaeb","system_id":"levelo_inurba_marseille","lat":43.29624,"lon":5.37173,"is_reserved":false,"is_disabled":false,"rental_uris":{"android":"levelo://app?vid=6437dce5-5010-4d0f-84e0-3d1da25fbaeb","ios":"levelo://app?vid=6437dce5-5010-4d0f-84e0-3d1da25fbaeb"},"vehicle_type_id":"4","last_reported":1731841644,"current_range_meters":29600,"station_id":"ce4bgnh2rcd13ifvqc0g","pricing_plan_id":"cebpf4jnsgd1na2vs0mg"},{"bike_id":"b7d2b4e4-2e48-4d45-a96b-914e04d30a0c","system_id":"levelo_inurba_marseille","lat":43.28837,"lon":5.39309,"is_reserved":false,"is_disabled":false,"rental_uris":{"android":"levelo://app?vid=b7d2b4e4-2e48-4d45-a96b-914e04d30a0c","ios":"levelo://app?vid=b7d2b4e4-2e48-4d45-a96b-914e04d30a0c"},"vehicle_type_id":"4","last_reported":1731841644,"current_range_meters":26000,"station_id":"ce4bh2p2rcd13ifvqdi0","pricing_plan_id":"cebpf4jnsgd1na2vs0mg"},{"bike_id":"07fa4a3f-d148-418f-92cb-44ce245f5672","system_id":"levelo_inurba_marseille","lat":43.25826,"lon":5.39435,"is_reserved":false,"is_disabled":false,"rental_uris":{"android":"levelo://app?vid=07fa4a3f-d148-418f-92cb-44ce245f5672","ios":"levelo://app?vid=07fa4a3f-d148-418f-92cb-44ce245f5672"},"vehicle_type_id":"4","last_reported":1731841644,"current_range_meters":37600,"station_id":"ce4bhip2rcd13ifvqft0","pricing_plan_id":"cebpf4jnsgd1na2vs0mg"},{"bike_id":"1fa2548d-3273-43a7-a708-7694d0bc37d7","system_id":"levelo_inurba_marseille","lat":43.2971,"lon":5.37694,"is_reserved":false,"is_disabled":false,"rental_uris":{"android":"levelo://app?vid=1fa2548d-3273-43a7-a708-7694d0bc37d7","ios":"levelo://app?vid=1fa2548d-3273-43a7-a708-7694d0bc37d7"},"vehicle_type_id":"4","last_reported":1731841644,"current_range_meters":36800,"station_id":"ce4bgkh2rcd13ifvqbl0","pricing_plan_id":"cebpf4jnsgd1na2vs0mg"},{"bike_id":"08556236-18aa-48b5-821c-02152b23fea2","system_id":"levelo_inurba_marseille","lat":43.27066,"lon":5.42275,"is_reserved":false,"is_disabled":false,"rental_uris":{"android":"levelo://app?vid=08556236-18aa-48b5-821c-02152b23fea2","ios":"levelo://app?vid=08556236-18aa-48b5-821c-02152b23fea2"},"vehicle_type_id":"4","last_reported":1731841644,"current_range_meters":16000,"station_id":"ce4bhk92rcd13ifvqgb0","pricing_plan_id":"cebpf4jnsgd1na2vs0mg"},{"bike_id":"28b79275-ade8-45ee-b25a-14126dd5c2bf","system_id":"levelo_inurba_marseille","lat":43.24813,"lon":5.3746,"is_reserved":false,"is_disabled":false,"rental_uris":{"android":"levelo://app?vid=28b79275-ade8-45ee-b25a-14126dd5c2bf","ios":"levelo://app?vid=28b79275-ade8-45ee-b25a-14126dd5c2bf"},"vehicle_type_id":"4","last_reported":1731841644,"current_range_meters":37600,"station_id":"ce4bhgh2rcd13ifvqfb0","pricing_plan_id":"cebpf4jnsgd1na2vs0mg"},{"bike_id":"1a19b0ad-6974-4e69-a1e4-3f40ba514f7d","system_id":"levelo_inurba_marseille","lat":43.278097,"lon":5.407133,"is_reserved":false,"is_disabled":false,"rental_uris":{"android":"levelo://app?vid=1a19b0ad-6974-4e69-a1e4-3f40ba514f7d","ios":"levelo://app?vid=1a19b0ad-6974-4e69-a1e4-3f40ba514f7d"},"vehicle_type_id":"4","last_reported":1731841644,"current_range_meters":35600,"station_id":"ce4bhnh2rcd13ifvqgtg","pricing_plan_id":"cebpf4jnsgd1na2vs0mg"},{"bike_id":"0cb14d59-5c1d-45c7-a2a7-d9114e06e131","system_id":"levelo_inurba_marseille","lat":43.25105,"lon":5.40325,"is_reserved":false,"is_disabled":false,"rental_uris":{"android":"levelo://app?vid=0cb14d59-5c1d-45c7-a2a7-d9114e06e131","ios":"levelo://app?vid=0cb14d59-5c1d-45c7-a2a7-d9114e06e131"},"vehicle_type_id":"4","last_reported":1731841644,"current_range_meters":22400,"station_id":"ce4bhlh2rcd13ifvqgig","pricing_plan_id":"cebpf4jnsgd1na2vs0mg"},{"bike_id":"ef14df2e-76a6-4463-9e17-7726d237e6a7","system_id":"levelo_inurba_marseille","lat":43.3361,"lon":5.41029,"is_reserved":false,"is_disabled":false,"rental_uris":{"android":"levelo://app?vid=ef14df2e-76a6-4463-9e17-7726d237e6a7","ios":"levelo://app?vid=ef14df2e-76a6-4463-9e17-7726d237e6a7"},"vehicle_type_id":"4","last_reported":1731841644,"current_range_meters":38800,"station_id":"ce4bhqh2rcd13ifvqhmg","pricing_plan_id":"cebpf4jnsgd1na2vs0mg"},{"bike_id":"d19bbd7c-673f-4ee0-ab8c-9882f30f2ec9","system_id":"levelo_inurba_marseille","lat":43.24804,"lon":5.37454,"is_reserved":false,"is_disabled":false,"rental_uris":{"android":"levelo://app?vid=d19bbd7c-673f-4ee0-ab8c-9882f30f2ec9","ios":"levelo://app?vid=d19bbd7c-673f-4ee0-ab8c-9882f30f2ec9"},"vehicle_type_id":"4","last_reported":1731841644,"current_range_meters":38000,"station_id":"ce4bhgh2rcd13ifvqfb0","pricing_plan_id":"cebpf4jnsgd1na2vs0mg"},{"bike_id":"993343aa-e73c-48de-b7e9-d56262a76d1d","system_id":"levelo_inurba_marseille","lat":43.29898,"lon":5.43675,"is_reserved":false,"is_disabled":false,"rental_uris":{"android":"levelo://app?vid=993343aa-e73c-48de-b7e9-d56262a76d1d","ios":"levelo://app?vid=993343aa-e73c-48de-b7e9-d56262a76d1d"},"vehicle_type_id":"4","last_reported":1731841644,"current_range_meters":32800,"station_id":"ce4bhpp2rcd13ifvqhfg","pricing_plan_id":"cebpf4jnsgd1na2vs0mg"},{"bike_id":"4258d21d-8c3c-4917-ad97-e31e2d7f3728","system_id":"levelo_inurba_marseille","lat":43.24386,"lon":5.37057,"is_reserved":false,"is_disabled":false,"rental_uris":{"android":"levelo://app?vid=4258d21d-8c3c-4917-ad97-e31e2d7f3728","ios":"levelo://app?vid=4258d21d-8c3c-4917-ad97-e31e2d7f3728"},"vehicle_type_id":"4","last_reported":1731841644,"current_range_meters":7200,"station_id":"ce4bhhh2rcd13ifvqfk0","pricing_plan_id":"cebpf4jnsgd1na2vs0mg"},{"bike_id":"2fe07a48-91b0-404b-a893-b56d63e59bc4","system_id":"levelo_inurba_marseille","lat":43.26566,"lon":5.39011,"is_reserved":false,"is_disabled":false,"rental_uris":{"android":"levelo://app?vid=2fe07a48-91b0-404b-a893-b56d63e59bc4","ios":"levelo://app?vid=2fe07a48-91b0-404b-a893-b56d63e59bc4"},"vehicle_type_id":"4","last_reported":1731841644,"current_range_meters":27200,"station_id":"ce4bhe12rcd13ifvqf30","pricing_plan_id":"cebpf4jnsgd1na2vs0mg"},{"bike_id":"155ce3f2-30bb-4f7b-9447-27db778565cf","system_id":"levelo_inurba_marseille","lat":43.27621,"lon":5.36108,"is_reserved":false,"is_disabled":false,"rental_uris":{"android":"levelo://app?vid=155ce3f2-30bb-4f7b-9447-27db778565cf","ios":"levelo://app?vid=155ce3f2-30bb-4f7b-9447-27db778565cf"},"vehicle_type_id":"4","last_reported":1731841644,"current_range_meters":36800,"station_id":"ce4bgj92rcd13ifvqbe0","pricing_plan_id":"cebpf4jnsgd1na2vs0mg"},{"bike_id":"16e3de90-cdab-40a0-975d-f264f65e738c","system_id":"levelo_inurba_marseille","lat":43.28155,"lon":5.42641,"is_reserved":false,"is_disabled":false,"rental_uris":{"android":"levelo://app?vid=16e3de90-cdab-40a0-975d-f264f65e738c","ios":"levelo://app?vid=16e3de90-cdab-40a0-975d-f264f65e738c"},"vehicle_type_id":"4","last_reported":1731841644,"current_range_meters":33600,"station_id":"ce4bhnh2rcd13ifvqgug","pricing_plan_id":"cebpf4jnsgd1na2vs0mg"},{"bike_id":"f3c2c3fe-2caa-4c62-a831-2cfeca2e0124","system_id":"levelo_inurba_marseille","lat":43.23329,"lon":5.35771,"is_reserved":false,"is_disabled":false,"rental_uris":{"android":"levelo://app?vid=f3c2c3fe-2caa-4c62-a831-2cfeca2e0124","ios":"levelo://app?vid=f3c2c3fe-2caa-4c62-a831-2cfeca2e0124"},"vehicle_type_id":"4","last_reported":1731841644,"current_range_meters":34000,"station_id":"cpo3532slgdg3j2ikp40","pricing_plan_id":"cebpf4jnsgd1na2vs0mg"},{"bike_id":"f40c5fa6-3c04-4450-b2ab-1fd41a86fdeb","system_id":"levelo_inurba_marseille","lat":43.29634,"lon":5.40602,"is_reserved":false,"is_disabled":false,"rental_uris":{"android":"levelo://app?vid=f40c5fa6-3c04-4450-b2ab-1fd41a86fdeb","ios":"levelo://app?vid=f40c5fa6-3c04-4450-b2ab-1fd41a86fdeb"},"vehicle_type_id":"4","last_reported":1731841644,"current_range_meters":28800,"station_id":"ce4bh0h2rcd13ifvqd60","pricing_plan_id":"cebpf4jnsgd1na2vs0mg"},{"bike_id":"38e33bd0-0e14-412a-a4d9-b42be319fb38","system_id":"levelo_inurba_marseille","lat":43.23955,"lon":5.36628,"is_reserved":false,"is_disabled":false,"rental_uris":{"android":"levelo://app?vid=38e33bd0-0e14-412a-a4d9-b42be319fb38","ios":"levelo://app?vid=38e33bd0-0e14-412a-a4d9-b42be319fb38"},"vehicle_type_id":"4","last_reported":1731841644,"current_range_meters":38400,"station_id":"ce4bhi12rcd13ifvqfp0","pricing_plan_id":"cebpf4jnsgd1na2vs0mg"},{"bike_id":"6a00dd81-f496-4486-aae9-67ff1cc715bf","system_id":"levelo_inurba_marseille","lat":43.28417,"lon":5.34988,"is_reserved":false,"is_disabled":false,"rental_uris":{"android":"levelo://app?vid=6a00dd81-f496-4486-aae9-67ff1cc715bf","ios":"levelo://app?vid=6a00dd81-f496-4486-aae9-67ff1cc715bf"},"vehicle_type_id":"4","last_reported":1731841644,"current_range_meters":30400,"station_id":"ce4bhbh2rcd13ifvqepg","pricing_plan_id":"cebpf4jnsgd1na2vs0mg"},{"bike_id":"f1615ae3-5791-4b5c-8a06-f196b13769f7","system_id":"levelo_inurba_marseille","lat":43.26931,"lon":5.38918,"is_reserved":false,"is_disabled":false,"rental_uris":{"android":"levelo://app?vid=f1615ae3-5791-4b5c-8a06-f196b13769f7","ios":"levelo://app?vid=f1615ae3-5791-4b5c-8a06-f196b13769f7"},"vehicle_type_id":"4","last_reported":1731841644,"current_range_meters":33600,"station_id":"ce4bhhh2rcd13ifvqfl0","pricing_plan_id":"cebpf4jnsgd1na2vs0mg"},{"bike_id":"4785683e-4d30-4133-994e-74abe37a6557","system_id":"levelo_inurba_marseille","lat":43.24181,"lon":5.3973,"is_reserved":false,"is_disabled":false,"rental_uris":{"android":"levelo://app?vid=4785683e-4d30-4133-994e-74abe37a6557","ios":"levelo://app?vid=4785683e-4d30-4133-994e-74abe37a6557"},"vehicle_type_id":"4","last_reported":1731841644,"current_range_meters":6000,"station_id":"ce4bhn12rcd13ifvqgpg","pricing_plan_id":"cebpf4jnsgd1na2vs0mg"},{"bike_id":"bcf6da04-9e6e-40e0-801e-722cd7b1d7d6","system_id":"levelo_inurba_marseille","lat":43.24867,"lon":5.4067,"is_reserved":false,"is_disabled":false,"rental_uris":{"android":"levelo://app?vid=bcf6da04-9e6e-40e0-801e-722cd7b1d7d6","ios":"levelo://app?vid=bcf6da04-9e6e-40e0-801e-722cd7b1d7d6"},"vehicle_type_id":"4","last_reported":1731841644,"current_range_meters":32800,"station_id":"","pricing_plan_id":"cebpf4jnsgd1na2vs0mg"},{"bike_id":"a855f92c-bbd4-4004-b8f1-8aaf2b455447","system_id":"levelo_inurba_marseille","lat":43.25117,"lon":5.40318,"is_reserved":false,"is_disabled":false,"rental_uris":{"android":"levelo://app?vid=a855f92c-bbd4-4004-b8f1-8aaf2b455447","ios":"levelo://app?vid=a855f92c-bbd4-4004-b8f1-8aaf2b455447"},"vehicle_type_id":"4","last_reported":1731841644,"current_range_meters":22800,"station_id":"ce4bhlh2rcd13ifvqgig","pricing_plan_id":"cebpf4jnsgd1na2vs0mg"},{"bike_id":"ce76504c-49b8-419e-b131-a935bd64a323","system_id":"levelo_inurba_marseille","lat":43.286957,"lon":5.399903,"is_reserved":false,"is_disabled":false,"rental_uris":{"android":"levelo://app?vid=ce76504c-49b8-419e-b131-a935bd64a323","ios":"levelo://app?vid=ce76504c-49b8-419e-b131-a935bd64a323"},"vehicle_type_id":"4","last_reported":1731841644,"current_range_meters":4800,"station_id":"ce4bho92rcd13ifvqh3g","pricing_plan_id":"cebpf4jnsgd1na2vs0mg"},{"bike_id":"9f92a7ac-738d-40f9-93b9-933c1f0ff525","system_id":"levelo_inurba_marseille","lat":43.32363,"lon":5.38888,"is_reserved":false,"is_disabled":false,"rental_uris":{"android":"levelo://app?vid=9f92a7ac-738d-40f9-93b9-933c1f0ff525","ios":"levelo://app?vid=9f92a7ac-738d-40f9-93b9-933c1f0ff525"},"vehicle_type_id":"4","last_reported":1731841644,"current_range_meters":20000,"station_id":"ce4bhqp2rcd13ifvqhog","pricing_plan_id":"cebpf4jnsgd1na2vs0mg"},{"bike_id":"67a228d1-a47f-48fe-8fa7-84b592be5578","system_id":"levelo_inurba_marseille","lat":43.26195,"lon":5.37447,"is_reserved":false,"is_disabled":false,"rental_uris":{"android":"levelo://app?vid=67a228d1-a47f-48fe-8fa7-84b592be5578","ios":"levelo://app?vid=67a228d1-a47f-48fe-8fa7-84b592be5578"},"vehicle_type_id":"4","last_reported":1731841644,"current_range_meters":9600,"station_id":"ce4bhgp2rcd13ifvqfc0","pricing_plan_id":"cebpf4jnsgd1na2vs0mg"},{"bike_id":"4b65d93a-a2e2-4e4e-a517-b94c00e506f8","system_id":"levelo_inurba_marseille","lat":43.30801,"lon":5.43524,"is_reserved":false,"is_disabled":false,"rental_uris":{"android":"levelo://app?vid=4b65d93a-a2e2-4e4e-a517-b94c00e506f8","ios":"levelo://app?vid=4b65d93a-a2e2-4e4e-a517-b94c00e506f8"},"vehicle_type_id":"4","last_reported":1731841644,"current_range_meters":6400,"station_id":"ce4bhph2rcd13ifvqheg","pricing_plan_id":"cebpf4jnsgd1na2vs0mg"},{"bike_id":"b117ce81-ae91-4466-bc7d-09a9b54c6f00","system_id":"levelo_inurba_marseille","lat":43.23185,"lon":5.39984,"is_reserved":false,"is_disabled":false,"rental_uris":{"android":"levelo://app?vid=b117ce81-ae91-4466-bc7d-09a9b54c6f00","ios":"levelo://app?vid=b117ce81-ae91-4466-bc7d-09a9b54c6f00"},"vehicle_type_id":"4","last_reported":1731841644,"current_range_meters":11600,"station_id":"ce4bhn12rcd13ifvqgqg","pricing_plan_id":"cebpf4jnsgd1na2vs0mg"},{"bike_id":"045653a8-c6fa-46ea-8e61-dd2aa7e11e12","system_id":"levelo_inurba_marseille","lat":43.28417,"lon":5.3498,"is_reserved":false,"is_disabled":false,"rental_uris":{"android":"levelo://app?vid=045653a8-c6fa-46ea-8e61-dd2aa7e11e12","ios":"levelo://app?vid=045653a8-c6fa-46ea-8e61-dd2aa7e11e12"},"vehicle_type_id":"4","last_reported":1731841644,"current_range_meters":38800,"station_id":"ce4bhbh2rcd13ifvqepg","pricing_plan_id":"cebpf4jnsgd1na2vs0mg"},{"bike_id":"c8522399-4529-44eb-bf17-b978fb7c5fb3","system_id":"levelo_inurba_marseille","lat":43.29026,"lon":5.38644,"is_reserved":false,"is_disabled":false,"rental_uris":{"android":"levelo://app?vid=c8522399-4529-44eb-bf17-b978fb7c5fb3","ios":"levelo://app?vid=c8522399-4529-44eb-bf17-b978fb7c5fb3"},"vehicle_type_id":"4","last_reported":1731841644,"current_range_meters":28800,"station_id":"ce4bh4p2rcd13ifvqe0g","pricing_plan_id":"cebpf4jnsgd1na2vs0mg"},{"bike_id":"8ececd69-9dd7-4454-8800-2ed6cafdfac6","system_id":"levelo_inurba_marseille","lat":43.28415,"lon":5.34994,"is_reserved":false,"is_disabled":false,"rental_uris":{"android":"levelo://app?vid=8ececd69-9dd7-4454-8800-2ed6cafdfac6","ios":"levelo://app?vid=8ececd69-9dd7-4454-8800-2ed6cafdfac6"},"vehicle_type_id":"4","last_reported":1731841644,"current_range_meters":33200,"station_id":"ce4bhbh2rcd13ifvqepg","pricing_plan_id":"cebpf4jnsgd1na2vs0mg"},{"bike_id":"40131c97-5534-4979-8808-2f9e4d317ef9","system_id":"levelo_inurba_marseille","lat":43.3234,"lon":5.40624,"is_reserved":false,"is_disabled":false,"rental_uris":{"android":"levelo://app?vid=40131c97-5534-4979-8808-2f9e4d317ef9","ios":"levelo://app?vid=40131c97-5534-4979-8808-2f9e4d317ef9"},"vehicle_type_id":"4","last_reported":1731841644,"current_range_meters":8800,"station_id":"ce4bhq92rcd13ifvqhjg","pricing_plan_id":"cebpf4jnsgd1na2vs0mg"},{"bike_id":"4f01fa73-c9c0-4fc0-986b-b2a94d270e4a","system_id":"levelo_inurba_marseille","lat":43.302519,"lon":5.400883,"is_reserved":false,"is_disabled":false,"rental_uris":{"android":"levelo://app?vid=4f01fa73-c9c0-4fc0-986b-b2a94d270e4a","ios":"levelo://app?vid=4f01fa73-c9c0-4fc0-986b-b2a94d270e4a"},"vehicle_type_id":"4","last_reported":1731841644,"current_range_meters":10000,"station_id":"ce4bgvh2rcd13ifvqcs0","pricing_plan_id":"cebpf4jnsgd1na2vs0mg"},{"bike_id":"6d757fef-4f26-43f9-ac2c-ffab39bf7dae","system_id":"levelo_inurba_marseille","lat":43.32249,"lon":5.36901,"is_reserved":false,"is_disabled":false,"rental_uris":{"android":"levelo://app?vid=6d757fef-4f26-43f9-ac2c-ffab39bf7dae","ios":"levelo://app?vid=6d757fef-4f26-43f9-ac2c-ffab39bf7dae"},"vehicle_type_id":"4","last_reported":1731841644,"current_range_meters":15200,"station_id":"","pricing_plan_id":"cebpf4jnsgd1na2vs0mg"},{"bike_id":"baa2c15b-a930-4c06-8a2a-efb858f1b5de","system_id":"levelo_inurba_marseille","lat":43.29546,"lon":5.42288,"is_reserved":false,"is_disabled":false,"rental_uris":{"android":"levelo://app?vid=baa2c15b-a930-4c06-8a2a-efb858f1b5de","ios":"levelo://app?vid=baa2c15b-a930-4c06-8a2a-efb858f1b5de"},"vehicle_type_id":"4","last_reported":1731841644,"current_range_meters":40000,"station_id":"ce4bhph2rcd13ifvqhdg","pricing_plan_id":"cebpf4jnsgd1na2vs0mg"},{"bike_id":"bc26a35e-6a1e-45d7-beed-415a7e87f872","system_id":"levelo_inurba_marseille","lat":43.26067,"lon":5.39397,"is_reserved":false,"is_disabled":false,"rental_uris":{"android":"levelo://app?vid=bc26a35e-6a1e-45d7-beed-415a7e87f872","ios":"levelo://app?vid=bc26a35e-6a1e-45d7-beed-415a7e87f872"},"vehicle_type_id":"4","last_reported":1731841644,"current_range_meters":36000,"station_id":"ce4bhh92rcd13ifvqfj0","pricing_plan_id":"cebpf4jnsgd1na2vs0mg"},{"bike_id":"9019691b-44d5-45db-bab4-7844df315a59","system_id":"levelo_inurba_marseille","lat":43.31082,"lon":5.4243,"is_reserved":false,"is_disabled":false,"rental_uris":{"android":"levelo://app?vid=9019691b-44d5-45db-bab4-7844df315a59","ios":"levelo://app?vid=9019691b-44d5-45db-bab4-7844df315a59"},"vehicle_type_id":"4","last_reported":1731841644,"current_range_meters":6000,"station_id":"ce4bhp92rcd13ifvqhag","pricing_plan_id":"cebpf4jnsgd1na2vs0mg"},{"bike_id":"dd493984-4813-4f0b-9837-6d865171cc69","system_id":"levelo_inurba_marseille","lat":43.32366,"lon":5.3888,"is_reserved":false,"is_disabled":false,"rental_uris":{"android":"levelo://app?vid=dd493984-4813-4f0b-9837-6d865171cc69","ios":"levelo://app?vid=dd493984-4813-4f0b-9837-6d865171cc69"},"vehicle_type_id":"4","last_reported":1731841644,"current_range_meters":20800,"station_id":"ce4bhqp2rcd13ifvqhog","pricing_plan_id":"cebpf4jnsgd1na2vs0mg"},{"bike_id":"3cb028b2-e9b4-4b5d-869e-e3723400af16","system_id":"levelo_inurba_marseille","lat":43.3303,"lon":5.39033,"is_reserved":false,"is_disabled":false,"rental_uris":{"android":"levelo://app?vid=3cb028b2-e9b4-4b5d-869e-e3723400af16","ios":"levelo://app?vid=3cb028b2-e9b4-4b5d-869e-e3723400af16"},"vehicle_type_id":"4","last_reported":1731841644,"current_range_meters":32800,"station_id":"ce4bhr92rcd13ifvqhrg","pricing_plan_id":"cebpf4jnsgd1na2vs0mg"},{"bike_id":"176dfcf1-dbb1-46ba-bb5a-0e8c5c06d0fe","system_id":"levelo_inurba_marseille","lat":43.23958,"lon":5.3663,"is_reserved":false,"is_disabled":false,"rental_uris":{"android":"levelo://app?vid=176dfcf1-dbb1-46ba-bb5a-0e8c5c06d0fe","ios":"levelo://app?vid=176dfcf1-dbb1-46ba-bb5a-0e8c5c06d0fe"},"vehicle_type_id":"4","last_reported":1731841644,"current_range_meters":6400,"station_id":"ce4bhi12rcd13ifvqfp0","pricing_plan_id":"cebpf4jnsgd1na2vs0mg"},{"bike_id":"b41c8539-2333-44e8-9dce-04b3743701e6","system_id":"levelo_inurba_marseille","lat":43.29603,"lon":5.38104,"is_reserved":false,"is_disabled":false,"rental_uris":{"android":"levelo://app?vid=b41c8539-2333-44e8-9dce-04b3743701e6","ios":"levelo://app?vid=b41c8539-2333-44e8-9dce-04b3743701e6"},"vehicle_type_id":"4","last_reported":1731841644,"current_range_meters":32400,"station_id":"ce4bgl12rcd13ifvqbo0","pricing_plan_id":"cebpf4jnsgd1na2vs0mg"},{"bike_id":"a7f9b1ff-073c-4bb9-865b-47d795a80a25","system_id":"levelo_inurba_marseille","lat":43.27982,"lon":5.41655,"is_reserved":false,"is_disabled":false,"rental_uris":{"android":"levelo://app?vid=a7f9b1ff-073c-4bb9-865b-47d795a80a25","ios":"levelo://app?vid=a7f9b1ff-073c-4bb9-865b-47d795a80a25"},"vehicle_type_id":"4","last_reported":1731841644,"current_range_meters":38800,"station_id":"ce4bho12rcd13ifvqh1g","pricing_plan_id":"cebpf4jnsgd1na2vs0mg"},{"bike_id":"16814d94-632a-433a-8823-e428f8c7db44","system_id":"levelo_inurba_marseille","lat":43.33027,"lon":5.39035,"is_reserved":false,"is_disabled":false,"rental_uris":{"android":"levelo://app?vid=16814d94-632a-433a-8823-e428f8c7db44","ios":"levelo://app?vid=16814d94-632a-433a-8823-e428f8c7db44"},"vehicle_type_id":"4","last_reported":1731841644,"current_range_meters":18000,"station_id":"ce4bhr92rcd13ifvqhrg","pricing_plan_id":"cebpf4jnsgd1na2vs0mg"},{"bike_id":"a4e8e96c-867e-4521-9861-087b3f6c78bd","system_id":"levelo_inurba_marseille","lat":43.25003,"lon":5.38927,"is_reserved":false,"is_disabled":false,"rental_uris":{"android":"levelo://app?vid=a4e8e96c-867e-4521-9861-087b3f6c78bd","ios":"levelo://app?vid=a4e8e96c-867e-4521-9861-087b3f6c78bd"},"vehicle_type_id":"4","last_reported":1731841644,"current_range_meters":38000,"station_id":"ce4bhgp2rcd13ifvqfd0","pricing_plan_id":"cebpf4jnsgd1na2vs0mg"},{"bike_id":"65536ea3-9a59-46f2-8745-2212511bd00b","system_id":"levelo_inurba_marseille","lat":43.27373,"lon":5.36252,"is_reserved":false,"is_disabled":false,"rental_uris":{"android":"levelo://app?vid=65536ea3-9a59-46f2-8745-2212511bd00b","ios":"levelo://app?vid=65536ea3-9a59-46f2-8745-2212511bd00b"},"vehicle_type_id":"4","last_reported":1731841644,"current_range_meters":27200,"station_id":"ce4bhbh2rcd13ifvqeo0","pricing_plan_id":"cebpf4jnsgd1na2vs0mg"},{"bike_id":"9b255d94-ee94-41ce-968c-16898d9f52f3","system_id":"levelo_inurba_marseille","lat":43.23963,"lon":5.36636,"is_reserved":false,"is_disabled":false,"rental_uris":{"android":"levelo://app?vid=9b255d94-ee94-41ce-968c-16898d9f52f3","ios":"levelo://app?vid=9b255d94-ee94-41ce-968c-16898d9f52f3"},"vehicle_type_id":"4","last_reported":1731841644,"current_range_meters":38400,"station_id":"ce4bhi12rcd13ifvqfp0","pricing_plan_id":"cebpf4jnsgd1na2vs0mg"},{"bike_id":"83fd9704-a0be-4425-bffd-7bc56d898ccb","system_id":"levelo_inurba_marseille","lat":43.29536,"lon":5.37505,"is_reserved":false,"is_disabled":false,"rental_uris":{"android":"levelo://app?vid=83fd9704-a0be-4425-bffd-7bc56d898ccb","ios":"levelo://app?vid=83fd9704-a0be-4425-bffd-7bc56d898ccb"},"vehicle_type_id":"4","last_reported":1731841644,"current_range_meters":32800,"station_id":"ce4bgkp2rcd13ifvqbmg","pricing_plan_id":"cebpf4jnsgd1na2vs0mg"},{"bike_id":"eb93b13e-d79d-4675-a72c-ca067641e771","system_id":"levelo_inurba_marseille","lat":43.25116,"lon":5.40324,"is_reserved":false,"is_disabled":false,"rental_uris":{"android":"levelo://app?vid=eb93b13e-d79d-4675-a72c-ca067641e771","ios":"levelo://app?vid=eb93b13e-d79d-4675-a72c-ca067641e771"},"vehicle_type_id":"4","last_reported":1731841644,"current_range_meters":28400,"station_id":"ce4bhlh2rcd13ifvqgig","pricing_plan_id":"cebpf4jnsgd1na2vs0mg"},{"bike_id":"7fc22fc0-4a1b-4b7a-9a1e-a20b1e9ba39c","system_id":"levelo_inurba_marseille","lat":43.32047,"lon":5.41553,"is_reserved":false,"is_disabled":false,"rental_uris":{"android":"levelo://app?vid=7fc22fc0-4a1b-4b7a-9a1e-a20b1e9ba39c","ios":"levelo://app?vid=7fc22fc0-4a1b-4b7a-9a1e-a20b1e9ba39c"},"vehicle_type_id":"4","last_reported":1731841644,"current_range_meters":38000,"station_id":"ce4bhq92rcd13ifvqhkg","pricing_plan_id":"cebpf4jnsgd1na2vs0mg"},{"bike_id":"ae335726-259a-4375-8971-887bdf305583","system_id":"levelo_inurba_marseille","lat":43.27498,"lon":5.42444,"is_reserved":false,"is_disabled":false,"rental_uris":{"android":"levelo://app?vid=ae335726-259a-4375-8971-887bdf305583","ios":"levelo://app?vid=ae335726-259a-4375-8971-887bdf305583"},"vehicle_type_id":"4","last_reported":1731841644,"current_range_meters":28800,"station_id":"ce4bhn92rcd13ifvqgrg","pricing_plan_id":"cebpf4jnsgd1na2vs0mg"},{"bike_id":"d4cf1962-c4fc-4987-82ad-e066e34a5012","system_id":"levelo_inurba_marseille","lat":43.34138,"lon":5.40911,"is_reserved":false,"is_disabled":false,"rental_uris":{"android":"levelo://app?vid=d4cf1962-c4fc-4987-82ad-e066e34a5012","ios":"levelo://app?vid=d4cf1962-c4fc-4987-82ad-e066e34a5012"},"vehicle_type_id":"4","last_reported":1731841644,"current_range_meters":39200,"station_id":"ce4bhqh2rcd13ifvqhlg","pricing_plan_id":"cebpf4jnsgd1na2vs0mg"},{"bike_id":"51711c78-dcd5-4d40-9bc3-cc252eed311a","system_id":"levelo_inurba_marseille","lat":43.29849,"lon":5.36285,"is_reserved":false,"is_disabled":false,"rental_uris":{"android":"levelo://app?vid=51711c78-dcd5-4d40-9bc3-cc252eed311a","ios":"levelo://app?vid=51711c78-dcd5-4d40-9bc3-cc252eed311a"},"vehicle_type_id":"4","last_reported":1731841644,"current_range_meters":2800,"station_id":"ce4bgpp2rcd13ifvqc3g","pricing_plan_id":"cebpf4jnsgd1na2vs0mg"},{"bike_id":"55de28cf-e37c-4724-b81f-8a648780c5b9","system_id":"levelo_inurba_marseille","lat":43.23191,"lon":5.35552,"is_reserved":false,"is_disabled":false,"rental_uris":{"android":"levelo://app?vid=55de28cf-e37c-4724-b81f-8a648780c5b9","ios":"levelo://app?vid=55de28cf-e37c-4724-b81f-8a648780c5b9"},"vehicle_type_id":"4","last_reported":1731841644,"current_range_meters":36400,"station_id":"ce4bhu92rcd13ifvqi70","pricing_plan_id":"cebpf4jnsgd1na2vs0mg"},{"bike_id":"8832a440-068e-438d-8a2b-da9a6ed7adde","system_id":"levelo_inurba_marseille","lat":43.303101,"lon":5.386314,"is_reserved":false,"is_disabled":false,"rental_uris":{"android":"levelo://app?vid=8832a440-068e-438d-8a2b-da9a6ed7adde","ios":"levelo://app?vid=8832a440-068e-438d-8a2b-da9a6ed7adde"},"vehicle_type_id":"4","last_reported":1731841644,"current_range_meters":26000,"station_id":"ce4bgv12rcd13ifvqcp0","pricing_plan_id":"cebpf4jnsgd1na2vs0mg"},{"bike_id":"7245d2c8-9d9b-4dd8-8250-17f59054ed97","system_id":"levelo_inurba_marseille","lat":43.29895,"lon":5.43666,"is_reserved":false,"is_disabled":false,"rental_uris":{"android":"levelo://app?vid=7245d2c8-9d9b-4dd8-8250-17f59054ed97","ios":"levelo://app?vid=7245d2c8-9d9b-4dd8-8250-17f59054ed97"},"vehicle_type_id":"4","last_reported":1731841644,"current_range_meters":37600,"station_id":"ce4bhpp2rcd13ifvqhfg","pricing_plan_id":"cebpf4jnsgd1na2vs0mg"},{"bike_id":"4b247b19-0602-4af9-8d62-541b6453c2de","system_id":"levelo_inurba_marseille","lat":43.31082,"lon":5.42427,"is_reserved":false,"is_disabled":false,"rental_uris":{"android":"levelo://app?vid=4b247b19-0602-4af9-8d62-541b6453c2de","ios":"levelo://app?vid=4b247b19-0602-4af9-8d62-541b6453c2de"},"vehicle_type_id":"4","last_reported":1731841644,"current_range_meters":27600,"station_id":"ce4bhp92rcd13ifvqhag","pricing_plan_id":"cebpf4jnsgd1na2vs0mg"},{"bike_id":"d38dfc2d-cadc-472a-8185-849d08b5b43d","system_id":"levelo_inurba_marseille","lat":43.32658,"lon":5.40988,"is_reserved":false,"is_disabled":false,"rental_uris":{"android":"levelo://app?vid=d38dfc2d-cadc-472a-8185-849d08b5b43d","ios":"levelo://app?vid=d38dfc2d-cadc-472a-8185-849d08b5b43d"},"vehicle_type_id":"4","last_reported":1731841644,"current_range_meters":39200,"station_id":"ce4bhpp2rcd13ifvqhgg","pricing_plan_id":"cebpf4jnsgd1na2vs0mg"},{"bike_id":"0beeca38-c6fb-4c79-a243-319d583ddb13","system_id":"levelo_inurba_marseille","lat":43.24162,"lon":5.36397,"is_reserved":false,"is_disabled":false,"rental_uris":{"android":"levelo://app?vid=0beeca38-c6fb-4c79-a243-319d583ddb13","ios":"levelo://app?vid=0beeca38-c6fb-4c79-a243-319d583ddb13"},"vehicle_type_id":"4","last_reported":1731841644,"current_range_meters":32400,"station_id":"cpo36qri1sfpv3e86is0","pricing_plan_id":"cebpf4jnsgd1na2vs0mg"},{"bike_id":"eb9a84f5-6092-4dc4-a3c0-a07efb437c77","system_id":"levelo_inurba_marseille","lat":43.3377,"lon":5.37436,"is_reserved":false,"is_disabled":false,"rental_uris":{"android":"levelo://app?vid=eb9a84f5-6092-4dc4-a3c0-a07efb437c77","ios":"levelo://app?vid=eb9a84f5-6092-4dc4-a3c0-a07efb437c77"},"vehicle_type_id":"4","last_reported":1731841644,"current_range_meters":6800,"station_id":"","pricing_plan_id":"cebpf4jnsgd1na2vs0mg"},{"bike_id":"67efec39-b17e-43b8-86f7-985069367b8e","system_id":"levelo_inurba_marseille","lat":43.29724,"lon":5.37693,"is_reserved":false,"is_disabled":false,"rental_uris":{"android":"levelo://app?vid=67efec39-b17e-43b8-86f7-985069367b8e","ios":"levelo://app?vid=67efec39-b17e-43b8-86f7-985069367b8e"},"vehicle_type_id":"4","last_reported":1731841644,"current_range_meters":21600,"station_id":"ce4bgkh2rcd13ifvqbl0","pricing_plan_id":"cebpf4jnsgd1na2vs0mg"},{"bike_id":"f51e66dc-57d9-4030-acd5-169360a569e5","system_id":"levelo_inurba_marseille","lat":43.29583,"lon":5.36742,"is_reserved":false,"is_disabled":false,"rental_uris":{"android":"levelo://app?vid=f51e66dc-57d9-4030-acd5-169360a569e5","ios":"levelo://app?vid=f51e66dc-57d9-4030-acd5-169360a569e5"},"vehicle_type_id":"4","last_reported":1731841644,"current_range_meters":32800,"station_id":"ce4bgph2rcd13ifvqc2g","pricing_plan_id":"cebpf4jnsgd1na2vs0mg"},{"bike_id":"96827665-f69f-433c-a2c6-a4be4724e012","system_id":"levelo_inurba_marseille","lat":43.273682,"lon":5.362518,"is_reserved":false,"is_disabled":false,"rental_uris":{"android":"levelo://app?vid=96827665-f69f-433c-a2c6-a4be4724e012","ios":"levelo://app?vid=96827665-f69f-433c-a2c6-a4be4724e012"},"vehicle_type_id":"4","last_reported":1731841644,"current_range_meters":12400,"station_id":"ce4bhbh2rcd13ifvqeo0","pricing_plan_id":"cebpf4jnsgd1na2vs0mg"},{"bike_id":"22ea48db-755d-43c3-a7d2-0beff01815d8","system_id":"levelo_inurba_marseille","lat":43.33762,"lon":5.3743,"is_reserved":false,"is_disabled":false,"rental_uris":{"android":"levelo://app?vid=22ea48db-755d-43c3-a7d2-0beff01815d8","ios":"levelo://app?vid=22ea48db-755d-43c3-a7d2-0beff01815d8"},"vehicle_type_id":"4","last_reported":1731841644,"current_range_meters":8800,"station_id":"","pricing_plan_id":"cebpf4jnsgd1na2vs0mg"},{"bike_id":"e572c8c8-2c29-468a-9de9-47bf2d2e9b00","system_id":"levelo_inurba_marseille","lat":43.27489,"lon":5.42458,"is_reserved":false,"is_disabled":false,"rental_uris":{"android":"levelo://app?vid=e572c8c8-2c29-468a-9de9-47bf2d2e9b00","ios":"levelo://app?vid=e572c8c8-2c29-468a-9de9-47bf2d2e9b00"},"vehicle_type_id":"4","last_reported":1731841644,"current_range_meters":28400,"station_id":"ce4bhn92rcd13ifvqgrg","pricing_plan_id":"cebpf4jnsgd1na2vs0mg"},{"bike_id":"a58350ca-a47c-4b6e-aed8-faa7d46a728d","system_id":"levelo_inurba_marseille","lat":43.28847,"lon":5.35854,"is_reserved":false,"is_disabled":false,"rental_uris":{"android":"levelo://app?vid=a58350ca-a47c-4b6e-aed8-faa7d46a728d","ios":"levelo://app?vid=a58350ca-a47c-4b6e-aed8-faa7d46a728d"},"vehicle_type_id":"4","last_reported":1731841644,"current_range_meters":31200,"station_id":"ce4bhb12rcd13ifvqem0","pricing_plan_id":"cebpf4jnsgd1na2vs0mg"},{"bike_id":"eacd9ebb-691f-4a83-85ee-81beefc74253","system_id":"levelo_inurba_marseille","lat":43.33719,"lon":5.391845,"is_reserved":false,"is_disabled":false,"rental_uris":{"android":"levelo://app?vid=eacd9ebb-691f-4a83-85ee-81beefc74253","ios":"levelo://app?vid=eacd9ebb-691f-4a83-85ee-81beefc74253"},"vehicle_type_id":"4","last_reported":1731841644,"current_range_meters":37600,"station_id":"ce4bhr92rcd13ifvqhsg","pricing_plan_id":"cebpf4jnsgd1na2vs0mg"},{"bike_id":"a1862017-f597-4949-a306-4d7c53cc8b86","system_id":"levelo_inurba_marseille","lat":43.2417,"lon":5.364,"is_reserved":false,"is_disabled":false,"rental_uris":{"android":"levelo://app?vid=a1862017-f597-4949-a306-4d7c53cc8b86","ios":"levelo://app?vid=a1862017-f597-4949-a306-4d7c53cc8b86"},"vehicle_type_id":"4","last_reported":1731841644,"current_range_meters":8400,"station_id":"cpo36qri1sfpv3e86is0","pricing_plan_id":"cebpf4jnsgd1na2vs0mg"},{"bike_id":"93d2376b-d24b-4c4a-bf7c-d9d7da5c25f0","system_id":"levelo_inurba_marseille","lat":43.2306,"lon":5.35489,"is_reserved":false,"is_disabled":false,"rental_uris":{"android":"levelo://app?vid=93d2376b-d24b-4c4a-bf7c-d9d7da5c25f0","ios":"levelo://app?vid=93d2376b-d24b-4c4a-bf7c-d9d7da5c25f0"},"vehicle_type_id":"4","last_reported":1731841644,"current_range_meters":14000,"station_id":"cpo3342slgdg3j2ifvpg","pricing_plan_id":"cebpf4jnsgd1na2vs0mg"},{"bike_id":"eb0b6258-25b5-4174-825d-16bccd206154","system_id":"levelo_inurba_marseille","lat":43.33026,"lon":5.39039,"is_reserved":false,"is_disabled":false,"rental_uris":{"android":"levelo://app?vid=eb0b6258-25b5-4174-825d-16bccd206154","ios":"levelo://app?vid=eb0b6258-25b5-4174-825d-16bccd206154"},"vehicle_type_id":"4","last_reported":1731841644,"current_range_meters":8000,"station_id":"ce4bhr92rcd13ifvqhrg","pricing_plan_id":"cebpf4jnsgd1na2vs0mg"},{"bike_id":"ca655f3b-8380-4045-b3f8-8acaa0e83ede","system_id":"levelo_inurba_marseille","lat":43.33739,"lon":5.37423,"is_reserved":false,"is_disabled":false,"rental_uris":{"android":"levelo://app?vid=ca655f3b-8380-4045-b3f8-8acaa0e83ede","ios":"levelo://app?vid=ca655f3b-8380-4045-b3f8-8acaa0e83ede"},"vehicle_type_id":"4","last_reported":1731841644,"current_range_meters":33200,"station_id":"","pricing_plan_id":"cebpf4jnsgd1na2vs0mg"},{"bike_id":"cbddd099-bca3-4dc7-9d89-ff8af8cc7d9c","system_id":"levelo_inurba_marseille","lat":43.280608,"lon":5.368903,"is_reserved":false,"is_disabled":false,"rental_uris":{"android":"levelo://app?vid=cbddd099-bca3-4dc7-9d89-ff8af8cc7d9c","ios":"levelo://app?vid=cbddd099-bca3-4dc7-9d89-ff8af8cc7d9c"},"vehicle_type_id":"4","last_reported":1731841644,"current_range_meters":8000,"station_id":"ce4bha12rcd13ifvqef0","pricing_plan_id":"cebpf4jnsgd1na2vs0mg"},{"bike_id":"a6b8c285-acc9-4039-9531-1aae39136a33","system_id":"levelo_inurba_marseille","lat":43.312042,"lon":5.367348,"is_reserved":false,"is_disabled":false,"rental_uris":{"android":"levelo://app?vid=a6b8c285-acc9-4039-9531-1aae39136a33","ios":"levelo://app?vid=a6b8c285-acc9-4039-9531-1aae39136a33"},"vehicle_type_id":"4","last_reported":1731841644,"current_range_meters":10800,"station_id":"","pricing_plan_id":"cebpf4jnsgd1na2vs0mg"},{"bike_id":"04e579be-d930-46e5-bb29-40fdc45896e1","system_id":"levelo_inurba_marseille","lat":43.32655,"lon":5.36212,"is_reserved":false,"is_disabled":false,"rental_uris":{"android":"levelo://app?vid=04e579be-d930-46e5-bb29-40fdc45896e1","ios":"levelo://app?vid=04e579be-d930-46e5-bb29-40fdc45896e1"},"vehicle_type_id":"4","last_reported":1731841644,"current_range_meters":6800,"station_id":"","pricing_plan_id":"cebpf4jnsgd1na2vs0mg"},{"bike_id":"37b940f2-53f1-40b3-bcdc-a092eab2c248","system_id":"levelo_inurba_marseille","lat":43.23957,"lon":5.36636,"is_reserved":false,"is_disabled":false,"rental_uris":{"android":"levelo://app?vid=37b940f2-53f1-40b3-bcdc-a092eab2c248","ios":"levelo://app?vid=37b940f2-53f1-40b3-bcdc-a092eab2c248"},"vehicle_type_id":"4","last_reported":1731841644,"current_range_meters":20400,"station_id":"ce4bhi12rcd13ifvqfp0","pricing_plan_id":"cebpf4jnsgd1na2vs0mg"},{"bike_id":"900707cc-26f2-4ea2-8fed-9690c6b8ed62","system_id":"levelo_inurba_marseille","lat":43.25581,"lon":5.38248,"is_reserved":false,"is_disabled":false,"rental_uris":{"android":"levelo://app?vid=900707cc-26f2-4ea2-8fed-9690c6b8ed62","ios":"levelo://app?vid=900707cc-26f2-4ea2-8fed-9690c6b8ed62"},"vehicle_type_id":"4","last_reported":1731841644,"current_range_meters":17600,"station_id":"ce4bhih2rcd13ifvqfs0","pricing_plan_id":"cebpf4jnsgd1na2vs0mg"},{"bike_id":"599eb141-73b9-4a5d-86c3-e3bf05ec8e4c","system_id":"levelo_inurba_marseille","lat":43.25868,"lon":5.399,"is_reserved":false,"is_disabled":false,"rental_uris":{"android":"levelo://app?vid=599eb141-73b9-4a5d-86c3-e3bf05ec8e4c","ios":"levelo://app?vid=599eb141-73b9-4a5d-86c3-e3bf05ec8e4c"},"vehicle_type_id":"4","last_reported":1731841644,"current_range_meters":33600,"station_id":"ce4bhl92rcd13ifvqghg","pricing_plan_id":"cebpf4jnsgd1na2vs0mg"},{"bike_id":"0ac88d1f-15f7-448d-87ee-e5798294cf87","system_id":"levelo_inurba_marseille","lat":43.28152,"lon":5.42646,"is_reserved":false,"is_disabled":false,"rental_uris":{"android":"levelo://app?vid=0ac88d1f-15f7-448d-87ee-e5798294cf87","ios":"levelo://app?vid=0ac88d1f-15f7-448d-87ee-e5798294cf87"},"vehicle_type_id":"4","last_reported":1731841644,"current_range_meters":37600,"station_id":"ce4bhnh2rcd13ifvqgug","pricing_plan_id":"cebpf4jnsgd1na2vs0mg"},{"bike_id":"56075252-74df-41bd-8879-5a4ae6ac7900","system_id":"levelo_inurba_marseille","lat":43.24385,"lon":5.37051,"is_reserved":false,"is_disabled":false,"rental_uris":{"android":"levelo://app?vid=56075252-74df-41bd-8879-5a4ae6ac7900","ios":"levelo://app?vid=56075252-74df-41bd-8879-5a4ae6ac7900"},"vehicle_type_id":"4","last_reported":1731841644,"current_range_meters":12400,"station_id":"ce4bhhh2rcd13ifvqfk0","pricing_plan_id":"cebpf4jnsgd1na2vs0mg"},{"bike_id":"776c19bb-9271-4d1b-b450-71b28ade05f5","system_id":"levelo_inurba_marseille","lat":43.23192,"lon":5.35558,"is_reserved":false,"is_disabled":false,"rental_uris":{"android":"levelo://app?vid=776c19bb-9271-4d1b-b450-71b28ade05f5","ios":"levelo://app?vid=776c19bb-9271-4d1b-b450-71b28ade05f5"},"vehicle_type_id":"4","last_reported":1731841644,"current_range_meters":36000,"station_id":"ce4bhu92rcd13ifvqi70","pricing_plan_id":"cebpf4jnsgd1na2vs0mg"},{"bike_id":"3731846e-2218-45f1-ac96-76a41185ff9d","system_id":"levelo_inurba_marseille","lat":43.24167,"lon":5.36396,"is_reserved":false,"is_disabled":false,"rental_uris":{"android":"levelo://app?vid=3731846e-2218-45f1-ac96-76a41185ff9d","ios":"levelo://app?vid=3731846e-2218-45f1-ac96-76a41185ff9d"},"vehicle_type_id":"4","last_reported":1731841644,"current_range_meters":36800,"station_id":"cpo36qri1sfpv3e86is0","pricing_plan_id":"cebpf4jnsgd1na2vs0mg"},{"bike_id":"14471b0b-f241-446d-ba5b-8a94d9ac3b68","system_id":"levelo_inurba_marseille","lat":43.22932,"lon":5.35375,"is_reserved":false,"is_disabled":false,"rental_uris":{"android":"levelo://app?vid=14471b0b-f241-446d-ba5b-8a94d9ac3b68","ios":"levelo://app?vid=14471b0b-f241-446d-ba5b-8a94d9ac3b68"},"vehicle_type_id":"4","last_reported":1731841644,"current_range_meters":27600,"station_id":"cpo3532slgdg3j2ikp40","pricing_plan_id":"cebpf4jnsgd1na2vs0mg"},{"bike_id":"92ac4858-87d6-4ceb-8f6e-004635a816a8","system_id":"levelo_inurba_marseille","lat":43.27793,"lon":5.40729,"is_reserved":false,"is_disabled":false,"rental_uris":{"android":"levelo://app?vid=92ac4858-87d6-4ceb-8f6e-004635a816a8","ios":"levelo://app?vid=92ac4858-87d6-4ceb-8f6e-004635a816a8"},"vehicle_type_id":"4","last_reported":1731841644,"current_range_meters":27600,"station_id":"ce4bhnh2rcd13ifvqgtg","pricing_plan_id":"cebpf4jnsgd1na2vs0mg"},{"bike_id":"6fec559a-2b3b-4f1a-9c20-1a2347d89940","system_id":"levelo_inurba_marseille","lat":43.29527,"lon":5.37502,"is_reserved":false,"is_disabled":false,"rental_uris":{"android":"levelo://app?vid=6fec559a-2b3b-4f1a-9c20-1a2347d89940","ios":"levelo://app?vid=6fec559a-2b3b-4f1a-9c20-1a2347d89940"},"vehicle_type_id":"4","last_reported":1731841644,"current_range_meters":17200,"station_id":"ce4bgkp2rcd13ifvqbmg","pricing_plan_id":"cebpf4jnsgd1na2vs0mg"},{"bike_id":"1396ab55-0e44-4ee6-a17e-86cf36813da1","system_id":"levelo_inurba_marseille","lat":43.24186,"lon":5.39729,"is_reserved":false,"is_disabled":false,"rental_uris":{"android":"levelo://app?vid=1396ab55-0e44-4ee6-a17e-86cf36813da1","ios":"levelo://app?vid=1396ab55-0e44-4ee6-a17e-86cf36813da1"},"vehicle_type_id":"4","last_reported":1731841644,"current_range_meters":28400,"station_id":"ce4bhn12rcd13ifvqgpg","pricing_plan_id":"cebpf4jnsgd1na2vs0mg"},{"bike_id":"1d79361a-cf57-4360-9d74-98180ca4cfaf","system_id":"levelo_inurba_marseille","lat":43.31342,"lon":5.3672,"is_reserved":false,"is_disabled":false,"rental_uris":{"android":"levelo://app?vid=1d79361a-cf57-4360-9d74-98180ca4cfaf","ios":"levelo://app?vid=1d79361a-cf57-4360-9d74-98180ca4cfaf"},"vehicle_type_id":"4","last_reported":1731841644,"current_range_meters":6000,"station_id":"ce4bgr92rcd13ifvqc6g","pricing_plan_id":"cebpf4jnsgd1na2vs0mg"},{"bike_id":"2412fd48-7071-4437-8fb4-820ded7fd014","system_id":"levelo_inurba_marseille","lat":43.22933,"lon":5.35368,"is_reserved":false,"is_disabled":false,"rental_uris":{"android":"levelo://app?vid=2412fd48-7071-4437-8fb4-820ded7fd014","ios":"levelo://app?vid=2412fd48-7071-4437-8fb4-820ded7fd014"},"vehicle_type_id":"4","last_reported":1731841644,"current_range_meters":17600,"station_id":"cpo3532slgdg3j2ikp40","pricing_plan_id":"cebpf4jnsgd1na2vs0mg"},{"bike_id":"c1694bb7-c3ba-4f2c-bdfa-72ff0540ff8a","system_id":"levelo_inurba_marseille","lat":43.293099,"lon":5.371742,"is_reserved":false,"is_disabled":false,"rental_uris":{"android":"levelo://app?vid=c1694bb7-c3ba-4f2c-bdfa-72ff0540ff8a","ios":"levelo://app?vid=c1694bb7-c3ba-4f2c-bdfa-72ff0540ff8a"},"vehicle_type_id":"4","last_reported":1731841644,"current_range_meters":36800,"station_id":"ce4bgh92rcd13ifvqb40","pricing_plan_id":"cebpf4jnsgd1na2vs0mg"},{"bike_id":"c5751750-2d86-4664-9635-e3a2ca136f11","system_id":"levelo_inurba_marseille","lat":43.29578,"lon":5.36739,"is_reserved":false,"is_disabled":false,"rental_uris":{"android":"levelo://app?vid=c5751750-2d86-4664-9635-e3a2ca136f11","ios":"levelo://app?vid=c5751750-2d86-4664-9635-e3a2ca136f11"},"vehicle_type_id":"4","last_reported":1731841644,"current_range_meters":12400,"station_id":"ce4bgph2rcd13ifvqc2g","pricing_plan_id":"cebpf4jnsgd1na2vs0mg"},{"bike_id":"0f8958e2-37e2-4133-a354-f4a4810949ac","system_id":"levelo_inurba_marseille","lat":43.23182,"lon":5.39986,"is_reserved":false,"is_disabled":false,"rental_uris":{"android":"levelo://app?vid=0f8958e2-37e2-4133-a354-f4a4810949ac","ios":"levelo://app?vid=0f8958e2-37e2-4133-a354-f4a4810949ac"},"vehicle_type_id":"4","last_reported":1731841644,"current_range_meters":14400,"station_id":"ce4bhn12rcd13ifvqgqg","pricing_plan_id":"cebpf4jnsgd1na2vs0mg"},{"bike_id":"a84f5389-258d-4508-9c0f-32ee5d326b43","system_id":"levelo_inurba_marseille","lat":43.33767,"lon":5.37475,"is_reserved":false,"is_disabled":false,"rental_uris":{"android":"levelo://app?vid=a84f5389-258d-4508-9c0f-32ee5d326b43","ios":"levelo://app?vid=a84f5389-258d-4508-9c0f-32ee5d326b43"},"vehicle_type_id":"4","last_reported":1731841644,"current_range_meters":30000,"station_id":"","pricing_plan_id":"cebpf4jnsgd1na2vs0mg"},{"bike_id":"cb448de2-89d5-4d5d-bf54-85fac915b4f1","system_id":"levelo_inurba_marseille","lat":43.27947,"lon":5.41051,"is_reserved":false,"is_disabled":false,"rental_uris":{"android":"levelo://app?vid=cb448de2-89d5-4d5d-bf54-85fac915b4f1","ios":"levelo://app?vid=cb448de2-89d5-4d5d-bf54-85fac915b4f1"},"vehicle_type_id":"4","last_reported":1731841644,"current_range_meters":36800,"station_id":"ce4bhnp2rcd13ifvqh0g","pricing_plan_id":"cebpf4jnsgd1na2vs0mg"},{"bike_id":"85e04372-53d4-4775-939e-d05c86eae748","system_id":"levelo_inurba_marseille","lat":43.26207,"lon":5.37927,"is_reserved":false,"is_disabled":false,"rental_uris":{"android":"levelo://app?vid=85e04372-53d4-4775-939e-d05c86eae748","ios":"levelo://app?vid=85e04372-53d4-4775-939e-d05c86eae748"},"vehicle_type_id":"4","last_reported":1731841644,"current_range_meters":26800,"station_id":"ce4bhjp2rcd13ifvqg90","pricing_plan_id":"cebpf4jnsgd1na2vs0mg"},{"bike_id":"0f251d00-a93d-42f6-9606-daf639f4bb51","system_id":"levelo_inurba_marseille","lat":43.29052,"lon":5.35903,"is_reserved":false,"is_disabled":false,"rental_uris":{"android":"levelo://app?vid=0f251d00-a93d-42f6-9606-daf639f4bb51","ios":"levelo://app?vid=0f251d00-a93d-42f6-9606-daf639f4bb51"},"vehicle_type_id":"4","last_reported":1731841644,"current_range_meters":36800,"station_id":"ce4bha92rcd13ifvqeg0","pricing_plan_id":"cebpf4jnsgd1na2vs0mg"},{"bike_id":"ed8cfcce-fcd3-4866-b7bb-3032e5fedbfd","system_id":"levelo_inurba_marseille","lat":43.3234,"lon":5.40628,"is_reserved":false,"is_disabled":false,"rental_uris":{"android":"levelo://app?vid=ed8cfcce-fcd3-4866-b7bb-3032e5fedbfd","ios":"levelo://app?vid=ed8cfcce-fcd3-4866-b7bb-3032e5fedbfd"},"vehicle_type_id":"4","last_reported":1731841644,"current_range_meters":27200,"station_id":"ce4bhq92rcd13ifvqhjg","pricing_plan_id":"cebpf4jnsgd1na2vs0mg"},{"bike_id":"a72747f9-e265-41f5-bf19-0dec5c629016","system_id":"levelo_inurba_marseille","lat":43.29976,"lon":5.37172,"is_reserved":false,"is_disabled":false,"rental_uris":{"android":"levelo://app?vid=a72747f9-e265-41f5-bf19-0dec5c629016","ios":"levelo://app?vid=a72747f9-e265-41f5-bf19-0dec5c629016"},"vehicle_type_id":"4","last_reported":1731841644,"current_range_meters":25600,"station_id":"ce4bgr92rcd13ifvqc7g","pricing_plan_id":"cebpf4jnsgd1na2vs0mg"},{"bike_id":"d6ea0d18-09c5-4a16-8d92-16497ecc1e85","system_id":"levelo_inurba_marseille","lat":43.27495,"lon":5.42452,"is_reserved":false,"is_disabled":false,"rental_uris":{"android":"levelo://app?vid=d6ea0d18-09c5-4a16-8d92-16497ecc1e85","ios":"levelo://app?vid=d6ea0d18-09c5-4a16-8d92-16497ecc1e85"},"vehicle_type_id":"4","last_reported":1731841644,"current_range_meters":9200,"station_id":"ce4bhn92rcd13ifvqgrg","pricing_plan_id":"cebpf4jnsgd1na2vs0mg"},{"bike_id":"0f29b452-857f-46db-bd79-6520d1dcb6d2","system_id":"levelo_inurba_marseille","lat":43.25576,"lon":5.3823,"is_reserved":false,"is_disabled":false,"rental_uris":{"android":"levelo://app?vid=0f29b452-857f-46db-bd79-6520d1dcb6d2","ios":"levelo://app?vid=0f29b452-857f-46db-bd79-6520d1dcb6d2"},"vehicle_type_id":"4","last_reported":1731841644,"current_range_meters":18800,"station_id":"ce4bhih2rcd13ifvqfs0","pricing_plan_id":"cebpf4jnsgd1na2vs0mg"},{"bike_id":"ae7aa9df-9b30-4ca1-9d8c-301e689f0c14","system_id":"levelo_inurba_marseille","lat":43.33726,"lon":5.39183,"is_reserved":false,"is_disabled":false,"rental_uris":{"android":"levelo://app?vid=ae7aa9df-9b30-4ca1-9d8c-301e689f0c14","ios":"levelo://app?vid=ae7aa9df-9b30-4ca1-9d8c-301e689f0c14"},"vehicle_type_id":"4","last_reported":1731841644,"current_range_meters":38000,"station_id":"ce4bhr92rcd13ifvqhsg","pricing_plan_id":"cebpf4jnsgd1na2vs0mg"},{"bike_id":"165ba178-bbfa-435b-8901-d912bc87af1e","system_id":"levelo_inurba_marseille","lat":43.26205,"lon":5.37923,"is_reserved":false,"is_disabled":false,"rental_uris":{"android":"levelo://app?vid=165ba178-bbfa-435b-8901-d912bc87af1e","ios":"levelo://app?vid=165ba178-bbfa-435b-8901-d912bc87af1e"},"vehicle_type_id":"4","last_reported":1731841644,"current_range_meters":30800,"station_id":"ce4bhjp2rcd13ifvqg90","pricing_plan_id":"cebpf4jnsgd1na2vs0mg"},{"bike_id":"6d6992bf-ade3-4a22-a168-306dafdc4544","system_id":"levelo_inurba_marseille","lat":43.24169,"lon":5.36402,"is_reserved":false,"is_disabled":false,"rental_uris":{"android":"levelo://app?vid=6d6992bf-ade3-4a22-a168-306dafdc4544","ios":"levelo://app?vid=6d6992bf-ade3-4a22-a168-306dafdc4544"},"vehicle_type_id":"4","last_reported":1731841644,"current_range_meters":28800,"station_id":"cpo36qri1sfpv3e86is0","pricing_plan_id":"cebpf4jnsgd1na2vs0mg"},{"bike_id":"70f50580-6160-438d-81fb-4dc715fa4696","system_id":"levelo_inurba_marseille","lat":43.2487,"lon":5.40671,"is_reserved":false,"is_disabled":false,"rental_uris":{"android":"levelo://app?vid=70f50580-6160-438d-81fb-4dc715fa4696","ios":"levelo://app?vid=70f50580-6160-438d-81fb-4dc715fa4696"},"vehicle_type_id":"4","last_reported":1731841644,"current_range_meters":17600,"station_id":"","pricing_plan_id":"cebpf4jnsgd1na2vs0mg"},{"bike_id":"f7612cb9-64e6-456e-b407-47173cb6e342","system_id":"levelo_inurba_marseille","lat":43.28611,"lon":5.37067,"is_reserved":false,"is_disabled":false,"rental_uris":{"android":"levelo://app?vid=f7612cb9-64e6-456e-b407-47173cb6e342","ios":"levelo://app?vid=f7612cb9-64e6-456e-b407-47173cb6e342"},"vehicle_type_id":"4","last_reported":1731841644,"current_range_meters":38800,"station_id":"ce4bht12rcd13ifvqi60","pricing_plan_id":"cebpf4jnsgd1na2vs0mg"},{"bike_id":"fca868f5-9fd0-45d8-90bd-4e6ce3d8eb68","system_id":"levelo_inurba_marseille","lat":43.23179,"lon":5.39983,"is_reserved":false,"is_disabled":false,"rental_uris":{"android":"levelo://app?vid=fca868f5-9fd0-45d8-90bd-4e6ce3d8eb68","ios":"levelo://app?vid=fca868f5-9fd0-45d8-90bd-4e6ce3d8eb68"},"vehicle_type_id":"4","last_reported":1731841644,"current_range_meters":16800,"station_id":"ce4bhn12rcd13ifvqgqg","pricing_plan_id":"cebpf4jnsgd1na2vs0mg"},{"bike_id":"5441b711-998f-40d9-ac61-97d208e1b990","system_id":"levelo_inurba_marseille","lat":43.26203,"lon":5.3792,"is_reserved":false,"is_disabled":false,"rental_uris":{"android":"levelo://app?vid=5441b711-998f-40d9-ac61-97d208e1b990","ios":"levelo://app?vid=5441b711-998f-40d9-ac61-97d208e1b990"},"vehicle_type_id":"4","last_reported":1731841644,"current_range_meters":7200,"station_id":"ce4bhjp2rcd13ifvqg90","pricing_plan_id":"cebpf4jnsgd1na2vs0mg"},{"bike_id":"4ee4605c-22f2-4532-b44d-f5fb03fd5142","system_id":"levelo_inurba_marseille","lat":43.30796,"lon":5.43527,"is_reserved":false,"is_disabled":false,"rental_uris":{"android":"levelo://app?vid=4ee4605c-22f2-4532-b44d-f5fb03fd5142","ios":"levelo://app?vid=4ee4605c-22f2-4532-b44d-f5fb03fd5142"},"vehicle_type_id":"4","last_reported":1731841644,"current_range_meters":8800,"station_id":"ce4bhph2rcd13ifvqheg","pricing_plan_id":"cebpf4jnsgd1na2vs0mg"},{"bike_id":"87c6772f-5c88-4d20-99e7-0fab985857cc","system_id":"levelo_inurba_marseille","lat":43.28159,"lon":5.4264,"is_reserved":false,"is_disabled":false,"rental_uris":{"android":"levelo://app?vid=87c6772f-5c88-4d20-99e7-0fab985857cc","ios":"levelo://app?vid=87c6772f-5c88-4d20-99e7-0fab985857cc"},"vehicle_type_id":"4","last_reported":1731841644,"current_range_meters":25600,"station_id":"ce4bhnh2rcd13ifvqgug","pricing_plan_id":"cebpf4jnsgd1na2vs0mg"},{"bike_id":"48a37d92-8ec2-4788-bb19-38e3f375e57c","system_id":"levelo_inurba_marseille","lat":43.26203,"lon":5.37927,"is_reserved":false,"is_disabled":false,"rental_uris":{"android":"levelo://app?vid=48a37d92-8ec2-4788-bb19-38e3f375e57c","ios":"levelo://app?vid=48a37d92-8ec2-4788-bb19-38e3f375e57c"},"vehicle_type_id":"4","last_reported":1731841644,"current_range_meters":20000,"station_id":"ce4bhjp2rcd13ifvqg90","pricing_plan_id":"cebpf4jnsgd1na2vs0mg"},{"bike_id":"1e730ee4-2d8d-4021-979d-8e8d2bbc3bcb","system_id":"levelo_inurba_marseille","lat":43.27077,"lon":5.42279,"is_reserved":false,"is_disabled":false,"rental_uris":{"android":"levelo://app?vid=1e730ee4-2d8d-4021-979d-8e8d2bbc3bcb","ios":"levelo://app?vid=1e730ee4-2d8d-4021-979d-8e8d2bbc3bcb"},"vehicle_type_id":"4","last_reported":1731841644,"current_range_meters":16000,"station_id":"ce4bhk92rcd13ifvqgb0","pricing_plan_id":"cebpf4jnsgd1na2vs0mg"},{"bike_id":"022f478e-da93-4eda-9d1b-2d0e36905c07","system_id":"levelo_inurba_marseille","lat":43.33763,"lon":5.37431,"is_reserved":false,"is_disabled":false,"rental_uris":{"android":"levelo://app?vid=022f478e-da93-4eda-9d1b-2d0e36905c07","ios":"levelo://app?vid=022f478e-da93-4eda-9d1b-2d0e36905c07"},"vehicle_type_id":"4","last_reported":1731841644,"current_range_meters":11200,"station_id":"","pricing_plan_id":"cebpf4jnsgd1na2vs0mg"},{"bike_id":"3c7108fb-85fe-43b6-95ce-e6a5e6d34b1a","system_id":"levelo_inurba_marseille","lat":43.33728,"lon":5.39183,"is_reserved":false,"is_disabled":false,"rental_uris":{"android":"levelo://app?vid=3c7108fb-85fe-43b6-95ce-e6a5e6d34b1a","ios":"levelo://app?vid=3c7108fb-85fe-43b6-95ce-e6a5e6d34b1a"},"vehicle_type_id":"4","last_reported":1731841644,"current_range_meters":28000,"station_id":"ce4bhr92rcd13ifvqhsg","pricing_plan_id":"cebpf4jnsgd1na2vs0mg"},{"bike_id":"5b44eeef-e9d7-4f84-88d4-57826525780f","system_id":"levelo_inurba_marseille","lat":43.25123,"lon":5.40322,"is_reserved":false,"is_disabled":false,"rental_uris":{"android":"levelo://app?vid=5b44eeef-e9d7-4f84-88d4-57826525780f","ios":"levelo://app?vid=5b44eeef-e9d7-4f84-88d4-57826525780f"},"vehicle_type_id":"4","last_reported":1731841644,"current_range_meters":32800,"station_id":"ce4bhlh2rcd13ifvqgig","pricing_plan_id":"cebpf4jnsgd1na2vs0mg"},{"bike_id":"251d8918-1250-4853-9293-89ee39d3be92","system_id":"levelo_inurba_marseille","lat":43.33021,"lon":5.39036,"is_reserved":false,"is_disabled":false,"rental_uris":{"android":"levelo://app?vid=251d8918-1250-4853-9293-89ee39d3be92","ios":"levelo://app?vid=251d8918-1250-4853-9293-89ee39d3be92"},"vehicle_type_id":"4","last_reported":1731841644,"current_range_meters":31200,"station_id":"ce4bhr92rcd13ifvqhrg","pricing_plan_id":"cebpf4jnsgd1na2vs0mg"},{"bike_id":"809471e3-ec39-4f2b-b271-49c8263623d6","system_id":"levelo_inurba_marseille","lat":43.25004,"lon":5.38933,"is_reserved":false,"is_disabled":false,"rental_uris":{"android":"levelo://app?vid=809471e3-ec39-4f2b-b271-49c8263623d6","ios":"levelo://app?vid=809471e3-ec39-4f2b-b271-49c8263623d6"},"vehicle_type_id":"4","last_reported":1731841644,"current_range_meters":38800,"station_id":"ce4bhgp2rcd13ifvqfd0","pricing_plan_id":"cebpf4jnsgd1na2vs0mg"},{"bike_id":"616bd387-1b6e-4dcb-b55e-902d3516cbda","system_id":"levelo_inurba_marseille","lat":43.29522,"lon":5.37496,"is_reserved":false,"is_disabled":false,"rental_uris":{"android":"levelo://app?vid=616bd387-1b6e-4dcb-b55e-902d3516cbda","ios":"levelo://app?vid=616bd387-1b6e-4dcb-b55e-902d3516cbda"},"vehicle_type_id":"4","last_reported":1731841644,"current_range_meters":38800,"station_id":"ce4bgkp2rcd13ifvqbmg","pricing_plan_id":"cebpf4jnsgd1na2vs0mg"},{"bike_id":"bb83ca96-b8e6-4d38-8da0-61243a06413f","system_id":"levelo_inurba_marseille","lat":43.23193,"lon":5.35554,"is_reserved":false,"is_disabled":false,"rental_uris":{"android":"levelo://app?vid=bb83ca96-b8e6-4d38-8da0-61243a06413f","ios":"levelo://app?vid=bb83ca96-b8e6-4d38-8da0-61243a06413f"},"vehicle_type_id":"4","last_reported":1731841644,"current_range_meters":30000,"station_id":"ce4bhu92rcd13ifvqi70","pricing_plan_id":"cebpf4jnsgd1na2vs0mg"},{"bike_id":"d60297b7-9590-4d08-8f04-59bfc62bc9a8","system_id":"levelo_inurba_marseille","lat":43.26063,"lon":5.39392,"is_reserved":false,"is_disabled":false,"rental_uris":{"android":"levelo://app?vid=d60297b7-9590-4d08-8f04-59bfc62bc9a8","ios":"levelo://app?vid=d60297b7-9590-4d08-8f04-59bfc62bc9a8"},"vehicle_type_id":"4","last_reported":1731841644,"current_range_meters":28000,"station_id":"ce4bhh92rcd13ifvqfj0","pricing_plan_id":"cebpf4jnsgd1na2vs0mg"},{"bike_id":"71d52017-341a-4f4d-a7ae-ab5a1e66cbd1","system_id":"levelo_inurba_marseille","lat":43.24169,"lon":5.36403,"is_reserved":false,"is_disabled":false,"rental_uris":{"android":"levelo://app?vid=71d52017-341a-4f4d-a7ae-ab5a1e66cbd1","ios":"levelo://app?vid=71d52017-341a-4f4d-a7ae-ab5a1e66cbd1"},"vehicle_type_id":"4","last_reported":1731841644,"current_range_meters":28800,"station_id":"cpo36qri1sfpv3e86is0","pricing_plan_id":"cebpf4jnsgd1na2vs0mg"},{"bike_id":"d74ee0d3-cc75-4016-984c-91f72c584f3f","system_id":"levelo_inurba_marseille","lat":43.26204,"lon":5.37928,"is_reserved":false,"is_disabled":false,"rental_uris":{"android":"levelo://app?vid=d74ee0d3-cc75-4016-984c-91f72c584f3f","ios":"levelo://app?vid=d74ee0d3-cc75-4016-984c-91f72c584f3f"},"vehicle_type_id":"4","last_reported":1731841644,"current_range_meters":30400,"station_id":"ce4bhjp2rcd13ifvqg90","pricing_plan_id":"cebpf4jnsgd1na2vs0mg"},{"bike_id":"a72542a6-e7db-4ecb-b27a-7f3bf7a04ee9","system_id":"levelo_inurba_marseille","lat":43.26207,"lon":5.37926,"is_reserved":false,"is_disabled":false,"rental_uris":{"android":"levelo://app?vid=a72542a6-e7db-4ecb-b27a-7f3bf7a04ee9","ios":"levelo://app?vid=a72542a6-e7db-4ecb-b27a-7f3bf7a04ee9"},"vehicle_type_id":"4","last_reported":1731841644,"current_range_meters":28400,"station_id":"ce4bhjp2rcd13ifvqg90","pricing_plan_id":"cebpf4jnsgd1na2vs0mg"},{"bike_id":"8e8d01d6-e6ec-4155-83a5-00ecaaa2f6dd","system_id":"levelo_inurba_marseille","lat":43.29975,"lon":5.37169,"is_reserved":false,"is_disabled":false,"rental_uris":{"android":"levelo://app?vid=8e8d01d6-e6ec-4155-83a5-00ecaaa2f6dd","ios":"levelo://app?vid=8e8d01d6-e6ec-4155-83a5-00ecaaa2f6dd"},"vehicle_type_id":"4","last_reported":1731841644,"current_range_meters":18800,"station_id":"ce4bgr92rcd13ifvqc7g","pricing_plan_id":"cebpf4jnsgd1na2vs0mg"},{"bike_id":"8a748c3d-3434-4735-835a-42bc53777dc0","system_id":"levelo_inurba_marseille","lat":43.31394,"lon":5.41347,"is_reserved":false,"is_disabled":false,"rental_uris":{"android":"levelo://app?vid=8a748c3d-3434-4735-835a-42bc53777dc0","ios":"levelo://app?vid=8a748c3d-3434-4735-835a-42bc53777dc0"},"vehicle_type_id":"4","last_reported":1731841644,"current_range_meters":38400,"station_id":"ce4bhp92rcd13ifvqhbg","pricing_plan_id":"cebpf4jnsgd1na2vs0mg"},{"bike_id":"442c0903-f40e-4bdf-be0d-6587cc076f59","system_id":"levelo_inurba_marseille","lat":43.23187,"lon":5.35556,"is_reserved":false,"is_disabled":false,"rental_uris":{"android":"levelo://app?vid=442c0903-f40e-4bdf-be0d-6587cc076f59","ios":"levelo://app?vid=442c0903-f40e-4bdf-be0d-6587cc076f59"},"vehicle_type_id":"4","last_reported":1731841644,"current_range_meters":36000,"station_id":"ce4bhu92rcd13ifvqi70","pricing_plan_id":"cebpf4jnsgd1na2vs0mg"},{"bike_id":"a2430aaf-1e9a-4a4c-80eb-085cc07d4c33","system_id":"levelo_inurba_marseille","lat":43.28457,"lon":5.35874,"is_reserved":false,"is_disabled":false,"rental_uris":{"android":"levelo://app?vid=a2430aaf-1e9a-4a4c-80eb-085cc07d4c33","ios":"levelo://app?vid=a2430aaf-1e9a-4a4c-80eb-085cc07d4c33"},"vehicle_type_id":"4","last_reported":1731841644,"current_range_meters":27600,"station_id":"ce4bhah2rcd13ifvqei0","pricing_plan_id":"cebpf4jnsgd1na2vs0mg"},{"bike_id":"cac5e537-1b5b-4e1e-b49c-4cff112ff32e","system_id":"levelo_inurba_marseille","lat":43.24388,"lon":5.3705,"is_reserved":false,"is_disabled":false,"rental_uris":{"android":"levelo://app?vid=cac5e537-1b5b-4e1e-b49c-4cff112ff32e","ios":"levelo://app?vid=cac5e537-1b5b-4e1e-b49c-4cff112ff32e"},"vehicle_type_id":"4","last_reported":1731841644,"current_range_meters":21600,"station_id":"ce4bhhh2rcd13ifvqfk0","pricing_plan_id":"cebpf4jnsgd1na2vs0mg"},{"bike_id":"1c4774a7-a2d4-4020-9a1a-c36e307e75d8","system_id":"levelo_inurba_marseille","lat":43.32366,"lon":5.38881,"is_reserved":false,"is_disabled":false,"rental_uris":{"android":"levelo://app?vid=1c4774a7-a2d4-4020-9a1a-c36e307e75d8","ios":"levelo://app?vid=1c4774a7-a2d4-4020-9a1a-c36e307e75d8"},"vehicle_type_id":"4","last_reported":1731841644,"current_range_meters":22800,"station_id":"ce4bhqp2rcd13ifvqhog","pricing_plan_id":"cebpf4jnsgd1na2vs0mg"},{"bike_id":"40fafed1-1b9d-427c-9b2e-f976c8dedbfa","system_id":"levelo_inurba_marseille","lat":43.2962,"lon":5.37155,"is_reserved":false,"is_disabled":false,"rental_uris":{"android":"levelo://app?vid=40fafed1-1b9d-427c-9b2e-f976c8dedbfa","ios":"levelo://app?vid=40fafed1-1b9d-427c-9b2e-f976c8dedbfa"},"vehicle_type_id":"4","last_reported":1731841644,"current_range_meters":28800,"station_id":"ce4bgnh2rcd13ifvqc0g","pricing_plan_id":"cebpf4jnsgd1na2vs0mg"},{"bike_id":"1a6e4e39-e80d-41de-9e7c-eb14e4e78d22","system_id":"levelo_inurba_marseille","lat":43.26199,"lon":5.37932,"is_reserved":false,"is_disabled":false,"rental_uris":{"android":"levelo://app?vid=1a6e4e39-e80d-41de-9e7c-eb14e4e78d22","ios":"levelo://app?vid=1a6e4e39-e80d-41de-9e7c-eb14e4e78d22"},"vehicle_type_id":"4","last_reported":1731841644,"current_range_meters":25600,"station_id":"ce4bhjp2rcd13ifvqg90","pricing_plan_id":"cebpf4jnsgd1na2vs0mg"},{"bike_id":"de0abab2-f77e-4b2d-b3ac-0bfbd0bcc18e","system_id":"levelo_inurba_marseille","lat":43.26069,"lon":5.39393,"is_reserved":false,"is_disabled":false,"rental_uris":{"android":"levelo://app?vid=de0abab2-f77e-4b2d-b3ac-0bfbd0bcc18e","ios":"levelo://app?vid=de0abab2-f77e-4b2d-b3ac-0bfbd0bcc18e"},"vehicle_type_id":"4","last_reported":1731841644,"current_range_meters":33200,"station_id":"ce4bhh92rcd13ifvqfj0","pricing_plan_id":"cebpf4jnsgd1na2vs0mg"},{"bike_id":"d37453dc-579c-4f2c-8202-d745f1e705a8","system_id":"levelo_inurba_marseille","lat":43.25937,"lon":5.40907,"is_reserved":false,"is_disabled":false,"rental_uris":{"android":"levelo://app?vid=d37453dc-579c-4f2c-8202-d745f1e705a8","ios":"levelo://app?vid=d37453dc-579c-4f2c-8202-d745f1e705a8"},"vehicle_type_id":"4","last_reported":1731841644,"current_range_meters":8800,"station_id":"ce4bhm92rcd13ifvqglg","pricing_plan_id":"cebpf4jnsgd1na2vs0mg"},{"bike_id":"f99b8f87-b1c6-4ef1-828d-d82783f73fde","system_id":"levelo_inurba_marseille","lat":43.27487,"lon":5.42458,"is_reserved":false,"is_disabled":false,"rental_uris":{"android":"levelo://app?vid=f99b8f87-b1c6-4ef1-828d-d82783f73fde","ios":"levelo://app?vid=f99b8f87-b1c6-4ef1-828d-d82783f73fde"},"vehicle_type_id":"4","last_reported":1731841644,"current_range_meters":32800,"station_id":"ce4bhn92rcd13ifvqgrg","pricing_plan_id":"cebpf4jnsgd1na2vs0mg"},{"bike_id":"2fc8f02c-e5f3-4e56-9038-45f0a5217743","system_id":"levelo_inurba_marseille","lat":43.27075,"lon":5.42273,"is_reserved":false,"is_disabled":false,"rental_uris":{"android":"levelo://app?vid=2fc8f02c-e5f3-4e56-9038-45f0a5217743","ios":"levelo://app?vid=2fc8f02c-e5f3-4e56-9038-45f0a5217743"},"vehicle_type_id":"4","last_reported":1731841644,"current_range_meters":8400,"station_id":"ce4bhk92rcd13ifvqgb0","pricing_plan_id":"cebpf4jnsgd1na2vs0mg"},{"bike_id":"4c4a13a7-cd09-400c-9dd6-9bcb25be4ec9","system_id":"levelo_inurba_marseille","lat":43.24809,"lon":5.37456,"is_reserved":false,"is_disabled":false,"rental_uris":{"android":"levelo://app?vid=4c4a13a7-cd09-400c-9dd6-9bcb25be4ec9","ios":"levelo://app?vid=4c4a13a7-cd09-400c-9dd6-9bcb25be4ec9"},"vehicle_type_id":"4","last_reported":1731841644,"current_range_meters":3600,"station_id":"ce4bhgh2rcd13ifvqfb0","pricing_plan_id":"cebpf4jnsgd1na2vs0mg"},{"bike_id":"b04d6c85-1ea0-4a13-bc44-e05c70dddc81","system_id":"levelo_inurba_marseille","lat":43.29305,"lon":5.37467,"is_reserved":false,"is_disabled":false,"rental_uris":{"android":"levelo://app?vid=b04d6c85-1ea0-4a13-bc44-e05c70dddc81","ios":"levelo://app?vid=b04d6c85-1ea0-4a13-bc44-e05c70dddc81"},"vehicle_type_id":"4","last_reported":1731841644,"current_range_meters":19600,"station_id":"ce4bgi12rcd13ifvqb70","pricing_plan_id":"cebpf4jnsgd1na2vs0mg"},{"bike_id":"5a7cc19e-a79e-4ad6-a164-6c4f545e35d7","system_id":"levelo_inurba_marseille","lat":43.24168,"lon":5.36402,"is_reserved":false,"is_disabled":false,"rental_uris":{"android":"levelo://app?vid=5a7cc19e-a79e-4ad6-a164-6c4f545e35d7","ios":"levelo://app?vid=5a7cc19e-a79e-4ad6-a164-6c4f545e35d7"},"vehicle_type_id":"4","last_reported":1731841644,"current_range_meters":22000,"station_id":"cpo36qri1sfpv3e86is0","pricing_plan_id":"cebpf4jnsgd1na2vs0mg"},{"bike_id":"8ca14fad-3429-41cb-b5ce-543921a167af","system_id":"levelo_inurba_marseille","lat":43.23183,"lon":5.39992,"is_reserved":false,"is_disabled":false,"rental_uris":{"android":"levelo://app?vid=8ca14fad-3429-41cb-b5ce-543921a167af","ios":"levelo://app?vid=8ca14fad-3429-41cb-b5ce-543921a167af"},"vehicle_type_id":"4","last_reported":1731841644,"current_range_meters":25600,"station_id":"ce4bhn12rcd13ifvqgqg","pricing_plan_id":"cebpf4jnsgd1na2vs0mg"},{"bike_id":"62012020-0bdb-4e2e-9987-a6dd714f8796","system_id":"levelo_inurba_marseille","lat":43.22928,"lon":5.35373,"is_reserved":false,"is_disabled":false,"rental_uris":{"android":"levelo://app?vid=62012020-0bdb-4e2e-9987-a6dd714f8796","ios":"levelo://app?vid=62012020-0bdb-4e2e-9987-a6dd714f8796"},"vehicle_type_id":"4","last_reported":1731841644,"current_range_meters":24800,"station_id":"cpo3532slgdg3j2ikp40","pricing_plan_id":"cebpf4jnsgd1na2vs0mg"},{"bike_id":"cbd063e8-9d4f-409c-b0f5-a388846ed74a","system_id":"levelo_inurba_marseille","lat":43.24179,"lon":5.39724,"is_reserved":false,"is_disabled":false,"rental_uris":{"android":"levelo://app?vid=cbd063e8-9d4f-409c-b0f5-a388846ed74a","ios":"levelo://app?vid=cbd063e8-9d4f-409c-b0f5-a388846ed74a"},"vehicle_type_id":"4","last_reported":1731841644,"current_range_meters":6400,"station_id":"ce4bhn12rcd13ifvqgpg","pricing_plan_id":"cebpf4jnsgd1na2vs0mg"},{"bike_id":"7e019ba9-7766-4341-a662-8c5e5c665c28","system_id":"levelo_inurba_marseille","lat":43.27075,"lon":5.42277,"is_reserved":false,"is_disabled":false,"rental_uris":{"android":"levelo://app?vid=7e019ba9-7766-4341-a662-8c5e5c665c28","ios":"levelo://app?vid=7e019ba9-7766-4341-a662-8c5e5c665c28"},"vehicle_type_id":"4","last_reported":1731841644,"current_range_meters":32400,"station_id":"ce4bhk92rcd13ifvqgb0","pricing_plan_id":"cebpf4jnsgd1na2vs0mg"},{"bike_id":"7b76f7eb-5990-4745-bfda-68fbe5b47b7f","system_id":"levelo_inurba_marseille","lat":43.24175,"lon":5.3973,"is_reserved":false,"is_disabled":false,"rental_uris":{"android":"levelo://app?vid=7b76f7eb-5990-4745-bfda-68fbe5b47b7f","ios":"levelo://app?vid=7b76f7eb-5990-4745-bfda-68fbe5b47b7f"},"vehicle_type_id":"4","last_reported":1731841644,"current_range_meters":12400,"station_id":"ce4bhn12rcd13ifvqgpg","pricing_plan_id":"cebpf4jnsgd1na2vs0mg"},{"bike_id":"743e3065-272d-42ae-9f9a-e28d3eb5e3cc","system_id":"levelo_inurba_marseille","lat":43.28854,"lon":5.35849,"is_reserved":false,"is_disabled":false,"rental_uris":{"android":"levelo://app?vid=743e3065-272d-42ae-9f9a-e28d3eb5e3cc","ios":"levelo://app?vid=743e3065-272d-42ae-9f9a-e28d3eb5e3cc"},"vehicle_type_id":"4","last_reported":1731841644,"current_range_meters":11600,"station_id":"ce4bhb12rcd13ifvqem0","pricing_plan_id":"cebpf4jnsgd1na2vs0mg"},{"bike_id":"63cfe210-b1b7-4369-81a4-d305c4e3ae51","system_id":"levelo_inurba_marseille","lat":43.23196,"lon":5.39988,"is_reserved":false,"is_disabled":false,"rental_uris":{"android":"levelo://app?vid=63cfe210-b1b7-4369-81a4-d305c4e3ae51","ios":"levelo://app?vid=63cfe210-b1b7-4369-81a4-d305c4e3ae51"},"vehicle_type_id":"4","last_reported":1731841644,"current_range_meters":34800,"station_id":"ce4bhn12rcd13ifvqgqg","pricing_plan_id":"cebpf4jnsgd1na2vs0mg"},{"bike_id":"7e2d10f4-1b7c-48bf-b7a4-06244e0ae345","system_id":"levelo_inurba_marseille","lat":43.28158,"lon":5.42645,"is_reserved":false,"is_disabled":false,"rental_uris":{"android":"levelo://app?vid=7e2d10f4-1b7c-48bf-b7a4-06244e0ae345","ios":"levelo://app?vid=7e2d10f4-1b7c-48bf-b7a4-06244e0ae345"},"vehicle_type_id":"4","last_reported":1731841644,"current_range_meters":24800,"station_id":"ce4bhnh2rcd13ifvqgug","pricing_plan_id":"cebpf4jnsgd1na2vs0mg"},{"bike_id":"a91f23f7-f251-46d3-97a2-effb836fb255","system_id":"levelo_inurba_marseille","lat":43.24165,"lon":5.36395,"is_reserved":false,"is_disabled":false,"rental_uris":{"android":"levelo://app?vid=a91f23f7-f251-46d3-97a2-effb836fb255","ios":"levelo://app?vid=a91f23f7-f251-46d3-97a2-effb836fb255"},"vehicle_type_id":"4","last_reported":1731841644,"current_range_meters":16400,"station_id":"cpo36qri1sfpv3e86is0","pricing_plan_id":"cebpf4jnsgd1na2vs0mg"},{"bike_id":"13dbb6ea-23a9-4308-b5c7-3b8a29c67d38","system_id":"levelo_inurba_marseille","lat":43.32657,"lon":5.40994,"is_reserved":false,"is_disabled":false,"rental_uris":{"android":"levelo://app?vid=13dbb6ea-23a9-4308-b5c7-3b8a29c67d38","ios":"levelo://app?vid=13dbb6ea-23a9-4308-b5c7-3b8a29c67d38"},"vehicle_type_id":"4","last_reported":1731841644,"current_range_meters":5600,"station_id":"ce4bhpp2rcd13ifvqhgg","pricing_plan_id":"cebpf4jnsgd1na2vs0mg"},{"bike_id":"8814a3bf-532a-4068-94a9-682372f1f19c","system_id":"levelo_inurba_marseille","lat":43.27953,"lon":5.41042,"is_reserved":false,"is_disabled":false,"rental_uris":{"android":"levelo://app?vid=8814a3bf-532a-4068-94a9-682372f1f19c","ios":"levelo://app?vid=8814a3bf-532a-4068-94a9-682372f1f19c"},"vehicle_type_id":"4","last_reported":1731841644,"current_range_meters":25600,"station_id":"ce4bhnp2rcd13ifvqh0g","pricing_plan_id":"cebpf4jnsgd1na2vs0mg"},{"bike_id":"0f5beb22-2f08-4e05-8119-c302f8a75519","system_id":"levelo_inurba_marseille","lat":43.26552,"lon":5.372852,"is_reserved":false,"is_disabled":false,"rental_uris":{"android":"levelo://app?vid=0f5beb22-2f08-4e05-8119-c302f8a75519","ios":"levelo://app?vid=0f5beb22-2f08-4e05-8119-c302f8a75519"},"vehicle_type_id":"4","last_reported":1731841644,"current_range_meters":24000,"station_id":"ce4bhg12rcd13ifvqf70","pricing_plan_id":"cebpf4jnsgd1na2vs0mg"},{"bike_id":"9ff2ac33-0fc6-4db8-b7fe-0ed5c30694da","system_id":"levelo_inurba_marseille","lat":43.25084,"lon":5.39522,"is_reserved":false,"is_disabled":false,"rental_uris":{"android":"levelo://app?vid=9ff2ac33-0fc6-4db8-b7fe-0ed5c30694da","ios":"levelo://app?vid=9ff2ac33-0fc6-4db8-b7fe-0ed5c30694da"},"vehicle_type_id":"4","last_reported":1731841644,"current_range_meters":33200,"station_id":"ce4bhm12rcd13ifvqgkg","pricing_plan_id":"cebpf4jnsgd1na2vs0mg"},{"bike_id":"fa4639a1-63b5-4626-a5c2-1622b8abab6b","system_id":"levelo_inurba_marseille","lat":43.23055,"lon":5.35494,"is_reserved":false,"is_disabled":false,"rental_uris":{"android":"levelo://app?vid=fa4639a1-63b5-4626-a5c2-1622b8abab6b","ios":"levelo://app?vid=fa4639a1-63b5-4626-a5c2-1622b8abab6b"},"vehicle_type_id":"4","last_reported":1731841644,"current_range_meters":17200,"station_id":"cpo3342slgdg3j2ifvpg","pricing_plan_id":"cebpf4jnsgd1na2vs0mg"},{"bike_id":"75b14762-261d-4530-96b6-50a5b1d86d76","system_id":"levelo_inurba_marseille","lat":43.25109,"lon":5.40326,"is_reserved":false,"is_disabled":false,"rental_uris":{"android":"levelo://app?vid=75b14762-261d-4530-96b6-50a5b1d86d76","ios":"levelo://app?vid=75b14762-261d-4530-96b6-50a5b1d86d76"},"vehicle_type_id":"4","last_reported":1731841644,"current_range_meters":20000,"station_id":"ce4bhlh2rcd13ifvqgig","pricing_plan_id":"cebpf4jnsgd1na2vs0mg"},{"bike_id":"29ec9745-b2a2-4812-9846-3f70193581a8","system_id":"levelo_inurba_marseille","lat":43.29055,"lon":5.35905,"is_reserved":false,"is_disabled":false,"rental_uris":{"android":"levelo://app?vid=29ec9745-b2a2-4812-9846-3f70193581a8","ios":"levelo://app?vid=29ec9745-b2a2-4812-9846-3f70193581a8"},"vehicle_type_id":"4","last_reported":1731841644,"current_range_meters":26800,"station_id":"ce4bha92rcd13ifvqeg0","pricing_plan_id":"cebpf4jnsgd1na2vs0mg"},{"bike_id":"0d84feb5-1b95-49ab-bf91-c474041a34ca","system_id":"levelo_inurba_marseille","lat":43.33025,"lon":5.39034,"is_reserved":false,"is_disabled":false,"rental_uris":{"android":"levelo://app?vid=0d84feb5-1b95-49ab-bf91-c474041a34ca","ios":"levelo://app?vid=0d84feb5-1b95-49ab-bf91-c474041a34ca"},"vehicle_type_id":"4","last_reported":1731841644,"current_range_meters":25200,"station_id":"ce4bhr92rcd13ifvqhrg","pricing_plan_id":"cebpf4jnsgd1na2vs0mg"},