{"last_updated":1739895100,"ttl":60,"version":"2.2","data":{"bikes":[{"bike_id":"c68866a5-fb84-430a-97b4-cddba388d8f5","system_id":"levelo_inurba_marseille","lat":43.27818,"lon":5.40712,"is_reserved":false,"is_disabled":false,"rental_uris":{"android":"levelo://app?vid=c68866a5-fb84-430a-97b4-cddba388d8f5","ios":"levelo://app?vid=c68866a5-fb84-430a-97b4-cddba388d8f5"},"vehicle_type_id":"4","last_reported":1739895101,"current_range_meters":2800,"station_id":"ce4bhnh2rcd13ifvqgtg","pricing_plan_id":"cebpf4jnsgd1na2vs0mg"},{"bike_id":"cc937046-4c58-4ee7-8771-b97a38beb9ae","system_id":"levelo_inurba_marseille","lat":43.25451,"lon":5.38206,"is_reserved":false,"is_disabled":false,"rental_uris":{"android":"levelo://app?vid=cc937046-4c58-4ee7-8771-b97a38beb9ae","ios":"levelo://app?vid=cc937046-4c58-4ee7-8771-b97a38beb9ae"},"vehicle_type_id":"4","last_reported":1739895101,"current_range_meters":2800,"station_id":"","pricing_plan_id":"cebpf4jnsgd1na2vs0mg"},{"bike_id":"3ef2250c-21b2-4f68-b8eb-86d98c671ca8","system_id":"levelo_inurba_marseille","lat":43.28617,"lon":5.37069,"is_reserved":false,"is_disabled":false,"rental_uris":{"android":"levelo://app?vid=3ef2250c-21b2-4f68-b8eb-86d98c671ca8","ios":"levelo://app?vid=3ef2250c-21b2-4f68-b8eb-86d98c671ca8"},"vehicle_type_id":"4","last_reported":1739895101,"current_range_meters":2800,"station_id":"","pricing_plan_id":"cebpf4jnsgd1na2vs0mg"},{"bike_id":"c06aa0e5-9150-47d2-8bae-396b7a393565","system_id":"levelo_inurba_marseille","lat":43.259167,"lon":5.408906,"is_reserved":false,"is_disabled":true,"rental_uris":{"android":"levelo://app?vid=c06aa0e5-9150-47d2-8bae-396b7a393565","ios":"levelo://app?vid=c06aa0e5-9150-47d2-8bae-396b7a393565"},"vehicle_type_id":"4","last_reported":1739895101,"current_range_meters":3200,"station_id":"ce4bhg12rcd13ifvqf60","pricing_plan_id":"cebpf4jnsgd1na2vs0mg"},{"bike_id":"a53256b9-4adb-434b-bd68-04a3bc960039","system_id":"levelo_inurba_marseille","lat":43.32348,"lon":5.40626,"is_reserved":false,"is_disabled":false,"rental_uris":{"android":"levelo://app?vid=a53256b9-4adb-434b-bd68-04a3bc960039","ios":"levelo://app?vid=a53256b9-4adb-434b-bd68-04a3bc960039"},"vehicle_type_id":"4","last_reported":1739895101,"current_range_meters":3200,"station_id":"ce4bhq92rcd13ifvqhjg","pricing_plan_id":"cebpf4jnsgd1na2vs0mg"},{"bike_id":"eb193e25-bd35-4a6e-a910-2fb2d32d1b22","system_id":"levelo_inurba_marseille","lat":43.30211,"lon":5.39472,"is_reserved":false,"is_disabled":false,"rental_uris":{"android":"levelo://app?vid=eb193e25-bd35-4a6e-a910-2fb2d32d1b22","ios":"levelo://app?vid=eb193e25-bd35-4a6e-a910-2fb2d32d1b22"},"vehicle_type_id":"4","last_reported":1739895101,"current_range_meters":3600,"station_id":"","pricing_plan_id":"cebpf4jnsgd1na2vs0mg"},{"bike_id":"58167fdc-d84a-4754-8704-3913ee2b91ee","system_id":"levelo_inurba_marseille","lat":43.284141,"lon":5.349792,"is_reserved":false,"is_disabled":false,"rental_uris":{"android":"levelo://app?vid=58167fdc-d84a-4754-8704-3913ee2b91ee","ios":"levelo://app?vid=58167fdc-d84a-4754-8704-3913ee2b91ee"},"vehicle_type_id":"4","last_reported":1739895101,"current_range_meters":4000,"station_id":"ce4bhbh2rcd13ifvqepg","pricing_plan_id":"cebpf4jnsgd1na2vs0mg"},{"bike_id":"828f024f-3fa3-492e-b4f4-7bfb9d5e214d","system_id":"levelo_inurba_marseille","lat":43.27069,"lon":5.4228,"is_reserved":false,"is_disabled":false,"rental_uris":{"android":"levelo://app?vid=828f024f-3fa3-492e-b4f4-7bfb9d5e214d","ios":"levelo://app?vid=828f024f-3fa3-492e-b4f4-7bfb9d5e214d"},"vehicle_type_id":"4","last_reported":1739895101,"current_range_meters":4400,"station_id":"ce4bhk92rcd13ifvqgb0","pricing_plan_id":"cebpf4jnsgd1na2vs0mg"},{"bike_id":"6142a384-9f2a-4e0e-803e-e9b102cf63a9","system_id":"levelo_inurba_marseille","lat":43.29278,"lon":5.40127,"is_reserved":false,"is_disabled":false,"rental_uris":{"android":"levelo://app?vid=6142a384-9f2a-4e0e-803e-e9b102cf63a9","ios":"levelo://app?vid=6142a384-9f2a-4e0e-803e-e9b102cf63a9"},"vehicle_type_id":"4","last_reported":1739895101,"current_range_meters":5600,"station_id":"ce4bh312rcd13ifvqdk0","pricing_plan_id":"cebpf4jnsgd1na2vs0mg"},{"bike_id":"10a21d86-bc69-4b09-b892-7673215c1f1e","system_id":"levelo_inurba_marseille","lat":43.32658,"lon":5.40989,"is_reserved":false,"is_disabled":false,"rental_uris":{"android":"levelo://app?vid=10a21d86-bc69-4b09-b892-7673215c1f1e","ios":"levelo://app?vid=10a21d86-bc69-4b09-b892-7673215c1f1e"},"vehicle_type_id":"4","last_reported":1739895101,"current_range_meters":6000,"station_id":"ce4bhpp2rcd13ifvqhgg","pricing_plan_id":"cebpf4jnsgd1na2vs0mg"},{"bike_id":"3a92efd2-5c70-411f-8e17-101dfc68a95b","system_id":"levelo_inurba_marseille","lat":43.28343,"lon":5.38107,"is_reserved":false,"is_disabled":false,"rental_uris":{"android":"levelo://app?vid=3a92efd2-5c70-411f-8e17-101dfc68a95b","ios":"levelo://app?vid=3a92efd2-5c70-411f-8e17-101dfc68a95b"},"vehicle_type_id":"4","last_reported":1739895101,"current_range_meters":6000,"station_id":"ce4bh412rcd13ifvqdr0","pricing_plan_id":"cebpf4jnsgd1na2vs0mg"},{"bike_id":"e605dea0-84a5-4395-b86a-134e39164b56","system_id":"levelo_inurba_marseille","lat":43.27048,"lon":5.36363,"is_reserved":false,"is_disabled":false,"rental_uris":{"android":"levelo://app?vid=e605dea0-84a5-4395-b86a-134e39164b56","ios":"levelo://app?vid=e605dea0-84a5-4395-b86a-134e39164b56"},"vehicle_type_id":"4","last_reported":1739895101,"current_range_meters":6000,"station_id":"ce4bhu92rcd13ifvqi70","pricing_plan_id":"cebpf4jnsgd1na2vs0mg"},{"bike_id":"ab6fbaa6-6bce-4bb1-9467-2d82e57bfec3","system_id":"levelo_inurba_marseille","lat":43.28492,"lon":5.38418,"is_reserved":false,"is_disabled":false,"rental_uris":{"android":"levelo://app?vid=ab6fbaa6-6bce-4bb1-9467-2d82e57bfec3","ios":"levelo://app?vid=ab6fbaa6-6bce-4bb1-9467-2d82e57bfec3"},"vehicle_type_id":"4","last_reported":1739895101,"current_range_meters":6000,"station_id":"ce4bh512rcd13ifvqe3g","pricing_plan_id":"cebpf4jnsgd1na2vs0mg"},{"bike_id":"2e5e89c3-0e0e-4cca-b25a-7707cb6d7c5d","system_id":"levelo_inurba_marseille","lat":43.27633,"lon":5.40866,"is_reserved":false,"is_disabled":false,"rental_uris":{"android":"levelo://app?vid=2e5e89c3-0e0e-4cca-b25a-7707cb6d7c5d","ios":"levelo://app?vid=2e5e89c3-0e0e-4cca-b25a-7707cb6d7c5d"},"vehicle_type_id":"4","last_reported":1739895101,"current_range_meters":6000,"station_id":"","pricing_plan_id":"cebpf4jnsgd1na2vs0mg"},{"bike_id":"c1415989-1886-4fc0-8720-43d4dc2ed9e2","system_id":"levelo_inurba_marseille","lat":43.31713,"lon":5.37745,"is_reserved":false,"is_disabled":false,"rental_uris":{"android":"levelo://app?vid=c1415989-1886-4fc0-8720-43d4dc2ed9e2","ios":"levelo://app?vid=c1415989-1886-4fc0-8720-43d4dc2ed9e2"},"vehicle_type_id":"4","last_reported":1739895101,"current_range_meters":6000,"station_id":"ce4bgth2rcd13ifvqch0","pricing_plan_id":"cebpf4jnsgd1na2vs0mg"},{"bike_id":"91f198fb-9d4a-4a9f-95e0-81b71793283c","system_id":"levelo_inurba_marseille","lat":43.28621,"lon":5.37053,"is_reserved":false,"is_disabled":false,"rental_uris":{"android":"levelo://app?vid=91f198fb-9d4a-4a9f-95e0-81b71793283c","ios":"levelo://app?vid=91f198fb-9d4a-4a9f-95e0-81b71793283c"},"vehicle_type_id":"4","last_reported":1739895101,"current_range_meters":6400,"station_id":"","pricing_plan_id":"cebpf4jnsgd1na2vs0mg"},{"bike_id":"3d44f9a9-8470-4c01-974a-625407d54e20","system_id":"levelo_inurba_marseille","lat":43.32489,"lon":5.3659,"is_reserved":false,"is_disabled":false,"rental_uris":{"android":"levelo://app?vid=3d44f9a9-8470-4c01-974a-625407d54e20","ios":"levelo://app?vid=3d44f9a9-8470-4c01-974a-625407d54e20"},"vehicle_type_id":"4","last_reported":1739895101,"current_range_meters":6400,"station_id":"ce4bhs12rcd13ifvqhvg","pricing_plan_id":"cebpf4jnsgd1na2vs0mg"},{"bike_id":"b4eabccf-33d1-4bed-94fb-dd79bd8cb427","system_id":"levelo_inurba_marseille","lat":43.27187,"lon":5.40998,"is_reserved":false,"is_disabled":false,"rental_uris":{"android":"levelo://app?vid=b4eabccf-33d1-4bed-94fb-dd79bd8cb427","ios":"levelo://app?vid=b4eabccf-33d1-4bed-94fb-dd79bd8cb427"},"vehicle_type_id":"4","last_reported":1739895101,"current_range_meters":6400,"station_id":"ce4bhl12rcd13ifvqgf0","pricing_plan_id":"cebpf4jnsgd1na2vs0mg"},{"bike_id":"81322218-e401-4537-9b1e-75954dc530e2","system_id":"levelo_inurba_marseille","lat":43.28615,"lon":5.35104,"is_reserved":false,"is_disabled":false,"rental_uris":{"android":"levelo://app?vid=81322218-e401-4537-9b1e-75954dc530e2","ios":"levelo://app?vid=81322218-e401-4537-9b1e-75954dc530e2"},"vehicle_type_id":"4","last_reported":1739895101,"current_range_meters":6800,"station_id":"ce4bhch2rcd13ifvqeug","pricing_plan_id":"cebpf4jnsgd1na2vs0mg"},{"bike_id":"59d97239-9ba1-454f-9471-76bc765982dd","system_id":"levelo_inurba_marseille","lat":43.30227,"lon":5.39477,"is_reserved":false,"is_disabled":false,"rental_uris":{"android":"levelo://app?vid=59d97239-9ba1-454f-9471-76bc765982dd","ios":"levelo://app?vid=59d97239-9ba1-454f-9471-76bc765982dd"},"vehicle_type_id":"4","last_reported":1739895101,"current_range_meters":6800,"station_id":"ce4bh0p2rcd13ifvqd70","pricing_plan_id":"cebpf4jnsgd1na2vs0mg"},{"bike_id":"1ab45428-ba67-406f-9c12-6bd00ba563ef","system_id":"levelo_inurba_marseille","lat":43.29265,"lon":5.37618,"is_reserved":false,"is_disabled":false,"rental_uris":{"android":"levelo://app?vid=1ab45428-ba67-406f-9c12-6bd00ba563ef","ios":"levelo://app?vid=1ab45428-ba67-406f-9c12-6bd00ba563ef"},"vehicle_type_id":"4","last_reported":1739895101,"current_range_meters":6800,"station_id":"ce4bgi12rcd13ifvqb80","pricing_plan_id":"cebpf4jnsgd1na2vs0mg"},{"bike_id":"6997124b-4017-413b-998b-7f0460d18350","system_id":"levelo_inurba_marseille","lat":43.27378,"lon":5.36249,"is_reserved":false,"is_disabled":false,"rental_uris":{"android":"levelo://app?vid=6997124b-4017-413b-998b-7f0460d18350","ios":"levelo://app?vid=6997124b-4017-413b-998b-7f0460d18350"},"vehicle_type_id":"4","last_reported":1739895101,"current_range_meters":6800,"station_id":"","pricing_plan_id":"cebpf4jnsgd1na2vs0mg"},{"bike_id":"e05211db-bbfa-4a0b-ab6f-4634c955683b","system_id":"levelo_inurba_marseille","lat":43.31177,"lon":5.38718,"is_reserved":false,"is_disabled":false,"rental_uris":{"android":"levelo://app?vid=e05211db-bbfa-4a0b-ab6f-4634c955683b","ios":"levelo://app?vid=e05211db-bbfa-4a0b-ab6f-4634c955683b"},"vehicle_type_id":"4","last_reported":1739895101,"current_range_meters":6800,"station_id":"ce4bgv12rcd13ifvqcp0","pricing_plan_id":"cebpf4jnsgd1na2vs0mg"},{"bike_id":"8dbe617a-73bb-43b1-955a-f0b57c2f6fa2","system_id":"levelo_inurba_marseille","lat":43.27374,"lon":5.36253,"is_reserved":false,"is_disabled":false,"rental_uris":{"android":"levelo://app?vid=8dbe617a-73bb-43b1-955a-f0b57c2f6fa2","ios":"levelo://app?vid=8dbe617a-73bb-43b1-955a-f0b57c2f6fa2"},"vehicle_type_id":"4","last_reported":1739895101,"current_range_meters":6800,"station_id":"ce4bhbh2rcd13ifvqeo0","pricing_plan_id":"cebpf4jnsgd1na2vs0mg"},{"bike_id":"4aa2a762-367e-40cf-aeed-e2db1cf0df11","system_id":"levelo_inurba_marseille","lat":43.30365,"lon":5.389248,"is_reserved":false,"is_disabled":false,"rental_uris":{"android":"levelo://app?vid=4aa2a762-367e-40cf-aeed-e2db1cf0df11","ios":"levelo://app?vid=4aa2a762-367e-40cf-aeed-e2db1cf0df11"},"vehicle_type_id":"4","last_reported":1739895101,"current_range_meters":6800,"station_id":"ce4bgk12rcd13ifvqbi0","pricing_plan_id":"cebpf4jnsgd1na2vs0mg"},{"bike_id":"98dafedc-f25b-409d-b3e2-803b47ffb900","system_id":"levelo_inurba_marseille","lat":43.245,"lon":5.372373,"is_reserved":false,"is_disabled":false,"rental_uris":{"android":"levelo://app?vid=98dafedc-f25b-409d-b3e2-803b47ffb900","ios":"levelo://app?vid=98dafedc-f25b-409d-b3e2-803b47ffb900"},"vehicle_type_id":"4","last_reported":1739895101,"current_range_meters":6800,"station_id":"","pricing_plan_id":"cebpf4jnsgd1na2vs0mg"},{"bike_id":"2fc51c18-93da-4c7a-ae54-30bc1bf5f64d","system_id":"levelo_inurba_marseille","lat":43.2951,"lon":5.38198,"is_reserved":false,"is_disabled":true,"rental_uris":{"android":"levelo://app?vid=2fc51c18-93da-4c7a-ae54-30bc1bf5f64d","ios":"levelo://app?vid=2fc51c18-93da-4c7a-ae54-30bc1bf5f64d"},"vehicle_type_id":"4","last_reported":1739895101,"current_range_meters":6800,"station_id":"","pricing_plan_id":"cebpf4jnsgd1na2vs0mg"},{"bike_id":"a4af178d-0384-434f-89b4-935f9bc2cb39","system_id":"levelo_inurba_marseille","lat":43.295513,"lon":5.422767,"is_reserved":false,"is_disabled":false,"rental_uris":{"android":"levelo://app?vid=a4af178d-0384-434f-89b4-935f9bc2cb39","ios":"levelo://app?vid=a4af178d-0384-434f-89b4-935f9bc2cb39"},"vehicle_type_id":"4","last_reported":1739895101,"current_range_meters":6800,"station_id":"","pricing_plan_id":"cebpf4jnsgd1na2vs0mg"},{"bike_id":"59d8b3ce-c48f-4458-81b1-127b48772a44","system_id":"levelo_inurba_marseille","lat":43.25828,"lon":5.394431,"is_reserved":false,"is_disabled":false,"rental_uris":{"android":"levelo://app?vid=59d8b3ce-c48f-4458-81b1-127b48772a44","ios":"levelo://app?vid=59d8b3ce-c48f-4458-81b1-127b48772a44"},"vehicle_type_id":"4","last_reported":1739895101,"current_range_meters":7200,"station_id":"","pricing_plan_id":"cebpf4jnsgd1na2vs0mg"},{"bike_id":"05ef9da7-e971-4277-9484-bb8ead92406c","system_id":"levelo_inurba_marseille","lat":43.27942,"lon":5.41057,"is_reserved":false,"is_disabled":false,"rental_uris":{"android":"levelo://app?vid=05ef9da7-e971-4277-9484-bb8ead92406c","ios":"levelo://app?vid=05ef9da7-e971-4277-9484-bb8ead92406c"},"vehicle_type_id":"4","last_reported":1739895101,"current_range_meters":7200,"station_id":"ce4bhnp2rcd13ifvqh0g","pricing_plan_id":"cebpf4jnsgd1na2vs0mg"},{"bike_id":"d990f0da-4422-405c-93df-f0b0c12198a5","system_id":"levelo_inurba_marseille","lat":43.27075,"lon":5.42283,"is_reserved":false,"is_disabled":false,"rental_uris":{"android":"levelo://app?vid=d990f0da-4422-405c-93df-f0b0c12198a5","ios":"levelo://app?vid=d990f0da-4422-405c-93df-f0b0c12198a5"},"vehicle_type_id":"4","last_reported":1739895101,"current_range_meters":7200,"station_id":"ce4bhk92rcd13ifvqgb0","pricing_plan_id":"cebpf4jnsgd1na2vs0mg"},{"bike_id":"d36b603b-96f3-4027-8262-2021f2157bcd","system_id":"levelo_inurba_marseille","lat":43.29547,"lon":5.39405,"is_reserved":false,"is_disabled":false,"rental_uris":{"android":"levelo://app?vid=d36b603b-96f3-4027-8262-2021f2157bcd","ios":"levelo://app?vid=d36b603b-96f3-4027-8262-2021f2157bcd"},"vehicle_type_id":"4","last_reported":1739895101,"current_range_meters":7200,"station_id":"ce4bh292rcd13ifvqdf0","pricing_plan_id":"cebpf4jnsgd1na2vs0mg"},{"bike_id":"811901b7-6a39-4b98-9209-f363e05c2482","system_id":"levelo_inurba_marseille","lat":43.28155,"lon":5.42637,"is_reserved":false,"is_disabled":false,"rental_uris":{"android":"levelo://app?vid=811901b7-6a39-4b98-9209-f363e05c2482","ios":"levelo://app?vid=811901b7-6a39-4b98-9209-f363e05c2482"},"vehicle_type_id":"4","last_reported":1739895101,"current_range_meters":7200,"station_id":"ce4bhnh2rcd13ifvqgug","pricing_plan_id":"cebpf4jnsgd1na2vs0mg"},{"bike_id":"80a88668-5e80-4576-98c6-72f52ec69fa4","system_id":"levelo_inurba_marseille","lat":43.29194,"lon":5.39332,"is_reserved":false,"is_disabled":false,"rental_uris":{"android":"levelo://app?vid=80a88668-5e80-4576-98c6-72f52ec69fa4","ios":"levelo://app?vid=80a88668-5e80-4576-98c6-72f52ec69fa4"},"vehicle_type_id":"4","last_reported":1739895101,"current_range_meters":4400,"station_id":"ce4bh192rcd13ifvqdd0","pricing_plan_id":"cebpf4jnsgd1na2vs0mg"},{"bike_id":"66bdaba1-8ea6-4d2c-ad9c-6d213bc14ad8","system_id":"levelo_inurba_marseille","lat":43.26205,"lon":5.37933,"is_reserved":false,"is_disabled":false,"rental_uris":{"android":"levelo://app?vid=66bdaba1-8ea6-4d2c-ad9c-6d213bc14ad8","ios":"levelo://app?vid=66bdaba1-8ea6-4d2c-ad9c-6d213bc14ad8"},"vehicle_type_id":"4","last_reported":1739895101,"current_range_meters":6800,"station_id":"ce4bhjp2rcd13ifvqg90","pricing_plan_id":"cebpf4jnsgd1na2vs0mg"},{"bike_id":"4a3367e9-80cf-447d-ae78-02201a45d005","system_id":"levelo_inurba_marseille","lat":43.33725,"lon":5.39182,"is_reserved":false,"is_disabled":false,"rental_uris":{"android":"levelo://app?vid=4a3367e9-80cf-447d-ae78-02201a45d005","ios":"levelo://app?vid=4a3367e9-80cf-447d-ae78-02201a45d005"},"vehicle_type_id":"4","last_reported":1739895101,"current_range_meters":8000,"station_id":"ce4bhr92rcd13ifvqhsg","pricing_plan_id":"cebpf4jnsgd1na2vs0mg"},{"bike_id":"a0dfaaa5-2564-40a0-a720-c6022c8dbdf6","system_id":"levelo_inurba_marseille","lat":43.25502,"lon":5.37663,"is_reserved":false,"is_disabled":false,"rental_uris":{"android":"levelo://app?vid=a0dfaaa5-2564-40a0-a720-c6022c8dbdf6","ios":"levelo://app?vid=a0dfaaa5-2564-40a0-a720-c6022c8dbdf6"},"vehicle_type_id":"4","last_reported":1739895101,"current_range_meters":8000,"station_id":"ce4bhh12rcd13ifvqff0","pricing_plan_id":"cebpf4jnsgd1na2vs0mg"},{"bike_id":"020f9db3-6048-4a83-8c59-4acc533112c8","system_id":"levelo_inurba_marseille","lat":43.28157,"lon":5.42641,"is_reserved":false,"is_disabled":false,"rental_uris":{"android":"levelo://app?vid=020f9db3-6048-4a83-8c59-4acc533112c8","ios":"levelo://app?vid=020f9db3-6048-4a83-8c59-4acc533112c8"},"vehicle_type_id":"4","last_reported":1739895101,"current_range_meters":8000,"station_id":"ce4bhnh2rcd13ifvqgug","pricing_plan_id":"cebpf4jnsgd1na2vs0mg"},{"bike_id":"9edc1178-55d1-45cd-bc25-bd6660d1ea72","system_id":"levelo_inurba_marseille","lat":43.30439,"lon":5.39749,"is_reserved":false,"is_disabled":false,"rental_uris":{"android":"levelo://app?vid=9edc1178-55d1-45cd-bc25-bd6660d1ea72","ios":"levelo://app?vid=9edc1178-55d1-45cd-bc25-bd6660d1ea72"},"vehicle_type_id":"4","last_reported":1739895101,"current_range_meters":14000,"station_id":"ce4bh092rcd13ifvqd20","pricing_plan_id":"cebpf4jnsgd1na2vs0mg"},{"bike_id":"789bddbf-51c2-49d5-bd4e-dd4e14c3cf92","system_id":"levelo_inurba_marseille","lat":43.26547,"lon":5.37302,"is_reserved":false,"is_disabled":false,"rental_uris":{"android":"levelo://app?vid=789bddbf-51c2-49d5-bd4e-dd4e14c3cf92","ios":"levelo://app?vid=789bddbf-51c2-49d5-bd4e-dd4e14c3cf92"},"vehicle_type_id":"4","last_reported":1739895101,"current_range_meters":8000,"station_id":"","pricing_plan_id":"cebpf4jnsgd1na2vs0mg"},{"bike_id":"6528e792-6c2b-41ab-b102-37d30001a0e7","system_id":"levelo_inurba_marseille","lat":43.27251,"lon":5.4007,"is_reserved":false,"is_disabled":false,"rental_uris":{"android":"levelo://app?vid=6528e792-6c2b-41ab-b102-37d30001a0e7","ios":"levelo://app?vid=6528e792-6c2b-41ab-b102-37d30001a0e7"},"vehicle_type_id":"4","last_reported":1739895101,"current_range_meters":8400,"station_id":"","pricing_plan_id":"cebpf4jnsgd1na2vs0mg"},{"bike_id":"8edd2fd8-1293-41ee-8d6f-3b2f2b027eab","system_id":"levelo_inurba_marseille","lat":43.25,"lon":5.38943,"is_reserved":false,"is_disabled":false,"rental_uris":{"android":"levelo://app?vid=8edd2fd8-1293-41ee-8d6f-3b2f2b027eab","ios":"levelo://app?vid=8edd2fd8-1293-41ee-8d6f-3b2f2b027eab"},"vehicle_type_id":"4","last_reported":1739895101,"current_range_meters":8400,"station_id":"","pricing_plan_id":"cebpf4jnsgd1na2vs0mg"},{"bike_id":"e634b9f1-fc8f-4f19-bf5a-5a00392b8a7f","system_id":"levelo_inurba_marseille","lat":43.29895,"lon":5.39747,"is_reserved":false,"is_disabled":false,"rental_uris":{"android":"levelo://app?vid=e634b9f1-fc8f-4f19-bf5a-5a00392b8a7f","ios":"levelo://app?vid=e634b9f1-fc8f-4f19-bf5a-5a00392b8a7f"},"vehicle_type_id":"4","last_reported":1739895101,"current_range_meters":8400,"station_id":"","pricing_plan_id":"cebpf4jnsgd1na2vs0mg"},{"bike_id":"ca2aae9b-aece-49b6-a2a5-902a873d582c","system_id":"levelo_inurba_marseille","lat":43.29039,"lon":5.37562,"is_reserved":false,"is_disabled":false,"rental_uris":{"android":"levelo://app?vid=ca2aae9b-aece-49b6-a2a5-902a873d582c","ios":"levelo://app?vid=ca2aae9b-aece-49b6-a2a5-902a873d582c"},"vehicle_type_id":"4","last_reported":1739895101,"current_range_meters":8400,"station_id":"ce4bh692rcd13ifvqe90","pricing_plan_id":"cebpf4jnsgd1na2vs0mg"},{"bike_id":"786558cc-aee4-4f9e-93ee-7176ee30fc54","system_id":"levelo_inurba_marseille","lat":43.2795,"lon":5.38695,"is_reserved":false,"is_disabled":false,"rental_uris":{"android":"levelo://app?vid=786558cc-aee4-4f9e-93ee-7176ee30fc54","ios":"levelo://app?vid=786558cc-aee4-4f9e-93ee-7176ee30fc54"},"vehicle_type_id":"4","last_reported":1739895101,"current_range_meters":8400,"station_id":"ce4bhg12rcd13ifvqf80","pricing_plan_id":"cebpf4jnsgd1na2vs0mg"},{"bike_id":"920c7857-0116-42d2-952e-a3e5138a26af","system_id":"levelo_inurba_marseille","lat":43.28483,"lon":5.38557,"is_reserved":false,"is_disabled":false,"rental_uris":{"android":"levelo://app?vid=920c7857-0116-42d2-952e-a3e5138a26af","ios":"levelo://app?vid=920c7857-0116-42d2-952e-a3e5138a26af"},"vehicle_type_id":"4","last_reported":1739895101,"current_range_meters":8800,"station_id":"ce4bh8p2rcd13ifvqeb0","pricing_plan_id":"cebpf4jnsgd1na2vs0mg"},{"bike_id":"e7b5440b-9fd9-40fc-976b-200fd24b2e6d","system_id":"levelo_inurba_marseille","lat":43.25861,"lon":5.39894,"is_reserved":false,"is_disabled":false,"rental_uris":{"android":"levelo://app?vid=e7b5440b-9fd9-40fc-976b-200fd24b2e6d","ios":"levelo://app?vid=e7b5440b-9fd9-40fc-976b-200fd24b2e6d"},"vehicle_type_id":"4","last_reported":1739895101,"current_range_meters":8800,"station_id":"ce4bhl92rcd13ifvqghg","pricing_plan_id":"cebpf4jnsgd1na2vs0mg"},{"bike_id":"43e58a6d-2a17-41bb-bd75-661bed22a62b","system_id":"levelo_inurba_marseille","lat":43.31188,"lon":5.38717,"is_reserved":false,"is_disabled":false,"rental_uris":{"android":"levelo://app?vid=43e58a6d-2a17-41bb-bd75-661bed22a62b","ios":"levelo://app?vid=43e58a6d-2a17-41bb-bd75-661bed22a62b"},"vehicle_type_id":"4","last_reported":1739895101,"current_range_meters":8800,"station_id":"","pricing_plan_id":"cebpf4jnsgd1na2vs0mg"},{"bike_id":"7e4f47ff-873e-4769-96c6-b997022f976f","system_id":"levelo_inurba_marseille","lat":43.23062,"lon":5.35495,"is_reserved":false,"is_disabled":false,"rental_uris":{"android":"levelo://app?vid=7e4f47ff-873e-4769-96c6-b997022f976f","ios":"levelo://app?vid=7e4f47ff-873e-4769-96c6-b997022f976f"},"vehicle_type_id":"4","last_reported":1739895101,"current_range_meters":8800,"station_id":"cpo3342slgdg3j2ifvpg","pricing_plan_id":"cebpf4jnsgd1na2vs0mg"},{"bike_id":"6bb7ac37-d16c-4a25-b6eb-1bf8ca1b78d5","system_id":"levelo_inurba_marseille","lat":43.32586,"lon":5.41424,"is_reserved":false,"is_disabled":false,"rental_uris":{"android":"levelo://app?vid=6bb7ac37-d16c-4a25-b6eb-1bf8ca1b78d5","ios":"levelo://app?vid=6bb7ac37-d16c-4a25-b6eb-1bf8ca1b78d5"},"vehicle_type_id":"4","last_reported":1739895101,"current_range_meters":8800,"station_id":"ce4bhq12rcd13ifvqhhg","pricing_plan_id":"cebpf4jnsgd1na2vs0mg"},{"bike_id":"cda19bcf-3a32-46f5-9846-5a00d0e6c2b8","system_id":"levelo_inurba_marseille","lat":43.27202,"lon":5.3918,"is_reserved":false,"is_disabled":false,"rental_uris":{"android":"levelo://app?vid=cda19bcf-3a32-46f5-9846-5a00d0e6c2b8","ios":"levelo://app?vid=cda19bcf-3a32-46f5-9846-5a00d0e6c2b8"},"vehicle_type_id":"4","last_reported":1739895101,"current_range_meters":9200,"station_id":"ce4bhhp2rcd13ifvqfm0","pricing_plan_id":"cebpf4jnsgd1na2vs0mg"},{"bike_id":"5a777b88-0e93-4a90-af53-1ddb5b1784b6","system_id":"levelo_inurba_marseille","lat":43.29698,"lon":5.37286,"is_reserved":false,"is_disabled":false,"rental_uris":{"android":"levelo://app?vid=5a777b88-0e93-4a90-af53-1ddb5b1784b6","ios":"levelo://app?vid=5a777b88-0e93-4a90-af53-1ddb5b1784b6"},"vehicle_type_id":"4","last_reported":1739895101,"current_range_meters":8800,"station_id":"ce4bgk12rcd13ifvqbj0","pricing_plan_id":"cebpf4jnsgd1na2vs0mg"},{"bike_id":"1d7ea046-aaed-41a2-9ac3-0adb6dabd40a","system_id":"levelo_inurba_marseille","lat":43.29604,"lon":5.38104,"is_reserved":false,"is_disabled":false,"rental_uris":{"android":"levelo://app?vid=1d7ea046-aaed-41a2-9ac3-0adb6dabd40a","ios":"levelo://app?vid=1d7ea046-aaed-41a2-9ac3-0adb6dabd40a"},"vehicle_type_id":"4","last_reported":1739895101,"current_range_meters":9200,"station_id":"ce4bgl12rcd13ifvqbo0","pricing_plan_id":"cebpf4jnsgd1na2vs0mg"},{"bike_id":"603829f6-1bd6-420a-b866-4544fcbffbce","system_id":"levelo_inurba_marseille","lat":43.24806,"lon":5.37465,"is_reserved":false,"is_disabled":false,"rental_uris":{"android":"levelo://app?vid=603829f6-1bd6-420a-b866-4544fcbffbce","ios":"levelo://app?vid=603829f6-1bd6-420a-b866-4544fcbffbce"},"vehicle_type_id":"4","last_reported":1739895101,"current_range_meters":8000,"station_id":"ce4bhgh2rcd13ifvqfb0","pricing_plan_id":"cebpf4jnsgd1na2vs0mg"},{"bike_id":"e54a5c6c-e5c7-4777-8a35-f09724478f01","system_id":"levelo_inurba_marseille","lat":43.25006,"lon":5.38932,"is_reserved":false,"is_disabled":false,"rental_uris":{"android":"levelo://app?vid=e54a5c6c-e5c7-4777-8a35-f09724478f01","ios":"levelo://app?vid=e54a5c6c-e5c7-4777-8a35-f09724478f01"},"vehicle_type_id":"4","last_reported":1739895101,"current_range_meters":8800,"station_id":"ce4bhgp2rcd13ifvqfd0","pricing_plan_id":"cebpf4jnsgd1na2vs0mg"},{"bike_id":"e8f0e023-bcbd-49d4-9ce9-49854f819956","system_id":"levelo_inurba_marseille","lat":43.24653,"lon":5.389,"is_reserved":false,"is_disabled":false,"rental_uris":{"android":"levelo://app?vid=e8f0e023-bcbd-49d4-9ce9-49854f819956","ios":"levelo://app?vid=e8f0e023-bcbd-49d4-9ce9-49854f819956"},"vehicle_type_id":"4","last_reported":1739895101,"current_range_meters":9200,"station_id":"ce4bhg12rcd13ifvqf60","pricing_plan_id":"cebpf4jnsgd1na2vs0mg"},{"bike_id":"aa8b6f13-b7b9-4656-af08-b725eb8435a5","system_id":"levelo_inurba_marseille","lat":43.28282,"lon":5.35078,"is_reserved":false,"is_disabled":false,"rental_uris":{"android":"levelo://app?vid=aa8b6f13-b7b9-4656-af08-b725eb8435a5","ios":"levelo://app?vid=aa8b6f13-b7b9-4656-af08-b725eb8435a5"},"vehicle_type_id":"4","last_reported":1739895101,"current_range_meters":9600,"station_id":"ce4bhbp2rcd13ifvqerg","pricing_plan_id":"cebpf4jnsgd1na2vs0mg"},{"bike_id":"ecea9333-2bf4-4b99-a3a4-f40ccad189c5","system_id":"levelo_inurba_marseille","lat":43.24809,"lon":5.37456,"is_reserved":false,"is_disabled":false,"rental_uris":{"android":"levelo://app?vid=ecea9333-2bf4-4b99-a3a4-f40ccad189c5","ios":"levelo://app?vid=ecea9333-2bf4-4b99-a3a4-f40ccad189c5"},"vehicle_type_id":"4","last_reported":1739895101,"current_range_meters":7200,"station_id":"ce4bhgh2rcd13ifvqfb0","pricing_plan_id":"cebpf4jnsgd1na2vs0mg"},{"bike_id":"5ee905c5-b06d-4e86-9ade-a42aaeaa67c6","system_id":"levelo_inurba_marseille","lat":43.28364,"lon":5.3864,"is_reserved":false,"is_disabled":false,"rental_uris":{"android":"levelo://app?vid=5ee905c5-b06d-4e86-9ade-a42aaeaa67c6","ios":"levelo://app?vid=5ee905c5-b06d-4e86-9ade-a42aaeaa67c6"},"vehicle_type_id":"4","last_reported":1739895101,"current_range_meters":9600,"station_id":"ce4bh492rcd13ifvqdvg","pricing_plan_id":"cebpf4jnsgd1na2vs0mg"},{"bike_id":"552ec2c4-0d04-4792-b806-dd277dec1331","system_id":"levelo_inurba_marseille","lat":43.26944,"lon":5.38643,"is_reserved":false,"is_disabled":false,"rental_uris":{"android":"levelo://app?vid=552ec2c4-0d04-4792-b806-dd277dec1331","ios":"levelo://app?vid=552ec2c4-0d04-4792-b806-dd277dec1331"},"vehicle_type_id":"4","last_reported":1739895101,"current_range_meters":9600,"station_id":"ce4bhh92rcd13ifvqfh0","pricing_plan_id":"cebpf4jnsgd1na2vs0mg"},{"bike_id":"2d48383d-e091-4eec-a052-979f3074eed8","system_id":"levelo_inurba_marseille","lat":43.28043,"lon":5.36941,"is_reserved":false,"is_disabled":false,"rental_uris":{"android":"levelo://app?vid=2d48383d-e091-4eec-a052-979f3074eed8","ios":"levelo://app?vid=2d48383d-e091-4eec-a052-979f3074eed8"},"vehicle_type_id":"4","last_reported":1739895101,"current_range_meters":10000,"station_id":"ce4bha12rcd13ifvqef0","pricing_plan_id":"cebpf4jnsgd1na2vs0mg"},{"bike_id":"8b7ce16f-f71b-479a-8239-88f3f98a8fb0","system_id":"levelo_inurba_marseille","lat":43.2926,"lon":5.409,"is_reserved":false,"is_disabled":false,"rental_uris":{"android":"levelo://app?vid=8b7ce16f-f71b-479a-8239-88f3f98a8fb0","ios":"levelo://app?vid=8b7ce16f-f71b-479a-8239-88f3f98a8fb0"},"vehicle_type_id":"4","last_reported":1739895101,"current_range_meters":9600,"station_id":"ce4bh192rcd13ifvqdc0","pricing_plan_id":"cebpf4jnsgd1na2vs0mg"},{"bike_id":"fc9896ce-1f52-403c-86a7-1678079c9523","system_id":"levelo_inurba_marseille","lat":43.28149,"lon":5.44229,"is_reserved":false,"is_disabled":false,"rental_uris":{"android":"levelo://app?vid=fc9896ce-1f52-403c-86a7-1678079c9523","ios":"levelo://app?vid=fc9896ce-1f52-403c-86a7-1678079c9523"},"vehicle_type_id":"4","last_reported":1739895101,"current_range_meters":9600,"station_id":"","pricing_plan_id":"cebpf4jnsgd1na2vs0mg"},{"bike_id":"4ae0a504-fde2-444b-ae2e-d93d3911036a","system_id":"levelo_inurba_marseille","lat":43.284637,"lon":5.358825,"is_reserved":false,"is_disabled":false,"rental_uris":{"android":"levelo://app?vid=4ae0a504-fde2-444b-ae2e-d93d3911036a","ios":"levelo://app?vid=4ae0a504-fde2-444b-ae2e-d93d3911036a"},"vehicle_type_id":"4","last_reported":1739895101,"current_range_meters":9600,"station_id":"ce4bhah2rcd13ifvqei0","pricing_plan_id":"cebpf4jnsgd1na2vs0mg"},{"bike_id":"fab2cbc9-105a-42d6-9706-86ab4357243b","system_id":"levelo_inurba_marseille","lat":43.32115,"lon":5.36788,"is_reserved":false,"is_disabled":false,"rental_uris":{"android":"levelo://app?vid=fab2cbc9-105a-42d6-9706-86ab4357243b","ios":"levelo://app?vid=fab2cbc9-105a-42d6-9706-86ab4357243b"},"vehicle_type_id":"4","last_reported":1739895101,"current_range_meters":10000,"station_id":"ce4bhrh2rcd13ifvqhug","pricing_plan_id":"cebpf4jnsgd1na2vs0mg"},{"bike_id":"635bac69-4d4b-403c-8368-7b318ee3ee97","system_id":"levelo_inurba_marseille","lat":43.302347,"lon":5.390395,"is_reserved":false,"is_disabled":false,"rental_uris":{"android":"levelo://app?vid=635bac69-4d4b-403c-8368-7b318ee3ee97","ios":"levelo://app?vid=635bac69-4d4b-403c-8368-7b318ee3ee97"},"vehicle_type_id":"4","last_reported":1739895101,"current_range_meters":4400,"station_id":"ce4bh612rcd13ifvqe6g","pricing_plan_id":"cebpf4jnsgd1na2vs0mg"},{"bike_id":"3ab4ecca-a7d0-4e14-9e63-eca0d3b35304","system_id":"levelo_inurba_marseille","lat":43.30479,"lon":5.3821,"is_reserved":false,"is_disabled":false,"rental_uris":{"android":"levelo://app?vid=3ab4ecca-a7d0-4e14-9e63-eca0d3b35304","ios":"levelo://app?vid=3ab4ecca-a7d0-4e14-9e63-eca0d3b35304"},"vehicle_type_id":"4","last_reported":1739895101,"current_range_meters":10000,"station_id":"","pricing_plan_id":"cebpf4jnsgd1na2vs0mg"},{"bike_id":"7e1bcd16-719a-4da9-aa93-fa68923adaea","system_id":"levelo_inurba_marseille","lat":43.240735,"lon":5.377601,"is_reserved":false,"is_disabled":false,"rental_uris":{"android":"levelo://app?vid=7e1bcd16-719a-4da9-aa93-fa68923adaea","ios":"levelo://app?vid=7e1bcd16-719a-4da9-aa93-fa68923adaea"},"vehicle_type_id":"4","last_reported":1739895101,"current_range_meters":10000,"station_id":"ce4bhnp2rcd13ifvqgvg","pricing_plan_id":"cebpf4jnsgd1na2vs0mg"},{"bike_id":"2a156535-c692-4f69-8b63-5f57cc18bc39","system_id":"levelo_inurba_marseille","lat":43.29265,"lon":5.38442,"is_reserved":false,"is_disabled":false,"rental_uris":{"android":"levelo://app?vid=2a156535-c692-4f69-8b63-5f57cc18bc39","ios":"levelo://app?vid=2a156535-c692-4f69-8b63-5f57cc18bc39"},"vehicle_type_id":"4","last_reported":1739895101,"current_range_meters":10000,"station_id":"ce4bh692rcd13ifvqea0","pricing_plan_id":"cebpf4jnsgd1na2vs0mg"},{"bike_id":"8072f034-69d4-48c5-b234-451357393f04","system_id":"levelo_inurba_marseille","lat":43.23962,"lon":5.36639,"is_reserved":false,"is_disabled":false,"rental_uris":{"android":"levelo://app?vid=8072f034-69d4-48c5-b234-451357393f04","ios":"levelo://app?vid=8072f034-69d4-48c5-b234-451357393f04"},"vehicle_type_id":"4","last_reported":1739895101,"current_range_meters":10800,"station_id":"ce4bhi12rcd13ifvqfp0","pricing_plan_id":"cebpf4jnsgd1na2vs0mg"},{"bike_id":"1e7891a1-67d3-4041-b602-5871576f8718","system_id":"levelo_inurba_marseille","lat":43.23968,"lon":5.3663,"is_reserved":false,"is_disabled":false,"rental_uris":{"android":"levelo://app?vid=1e7891a1-67d3-4041-b602-5871576f8718","ios":"levelo://app?vid=1e7891a1-67d3-4041-b602-5871576f8718"},"vehicle_type_id":"4","last_reported":1739895101,"current_range_meters":10800,"station_id":"","pricing_plan_id":"cebpf4jnsgd1na2vs0mg"},{"bike_id":"30b5475c-3701-4adf-93de-3928555660c9","system_id":"levelo_inurba_marseille","lat":43.271751,"lon":5.40991,"is_reserved":false,"is_disabled":false,"rental_uris":{"android":"levelo://app?vid=30b5475c-3701-4adf-93de-3928555660c9","ios":"levelo://app?vid=30b5475c-3701-4adf-93de-3928555660c9"},"vehicle_type_id":"4","last_reported":1739895101,"current_range_meters":10800,"station_id":"ce4bhl12rcd13ifvqgf0","pricing_plan_id":"cebpf4jnsgd1na2vs0mg"},{"bike_id":"d959c8e6-f4d4-4ee9-ad32-1db4d0e88ce1","system_id":"levelo_inurba_marseille","lat":43.26939,"lon":5.40257,"is_reserved":false,"is_disabled":false,"rental_uris":{"android":"levelo://app?vid=d959c8e6-f4d4-4ee9-ad32-1db4d0e88ce1","ios":"levelo://app?vid=d959c8e6-f4d4-4ee9-ad32-1db4d0e88ce1"},"vehicle_type_id":"4","last_reported":1739895101,"current_range_meters":10800,"station_id":"cjm6bp8fraef2m0cb0m0","pricing_plan_id":"cebpf4jnsgd1na2vs0mg"},{"bike_id":"29d822ac-3c89-46a7-a8b0-a20bc1841469","system_id":"levelo_inurba_marseille","lat":43.29979,"lon":5.38502,"is_reserved":false,"is_disabled":false,"rental_uris":{"android":"levelo://app?vid=29d822ac-3c89-46a7-a8b0-a20bc1841469","ios":"levelo://app?vid=29d822ac-3c89-46a7-a8b0-a20bc1841469"},"vehicle_type_id":"4","last_reported":1739895101,"current_range_meters":10800,"station_id":"ce4bgj92rcd13ifvqbd0","pricing_plan_id":"cebpf4jnsgd1na2vs0mg"},{"bike_id":"81c2880e-32a8-4e92-9412-1c32b4a806a7","system_id":"levelo_inurba_marseille","lat":43.30537,"lon":5.36543,"is_reserved":false,"is_disabled":false,"rental_uris":{"android":"levelo://app?vid=81c2880e-32a8-4e92-9412-1c32b4a806a7","ios":"levelo://app?vid=81c2880e-32a8-4e92-9412-1c32b4a806a7"},"vehicle_type_id":"4","last_reported":1739895101,"current_range_meters":10800,"station_id":"ce4bgs12rcd13ifvqcag","pricing_plan_id":"cebpf4jnsgd1na2vs0mg"},{"bike_id":"d67cf2d2-e083-47ea-b9b8-b14027ffac06","system_id":"levelo_inurba_marseille","lat":43.27565,"lon":5.38423,"is_reserved":false,"is_disabled":false,"rental_uris":{"android":"levelo://app?vid=d67cf2d2-e083-47ea-b9b8-b14027ffac06","ios":"levelo://app?vid=d67cf2d2-e083-47ea-b9b8-b14027ffac06"},"vehicle_type_id":"4","last_reported":1739895101,"current_range_meters":10800,"station_id":"ce4bhh92rcd13ifvqfi0","pricing_plan_id":"cebpf4jnsgd1na2vs0mg"},{"bike_id":"e2949676-54ae-471e-9802-da6fbf4f8e3a","system_id":"levelo_inurba_marseille","lat":43.29869,"lon":5.36281,"is_reserved":false,"is_disabled":false,"rental_uris":{"android":"levelo://app?vid=e2949676-54ae-471e-9802-da6fbf4f8e3a","ios":"levelo://app?vid=e2949676-54ae-471e-9802-da6fbf4f8e3a"},"vehicle_type_id":"4","last_reported":1739895101,"current_range_meters":11200,"station_id":"ce4bgpp2rcd13ifvqc3g","pricing_plan_id":"cebpf4jnsgd1na2vs0mg"},{"bike_id":"cb8372d6-bad2-4555-89ad-5b495afb0b59","system_id":"levelo_inurba_marseille","lat":43.24822,"lon":5.37459,"is_reserved":false,"is_disabled":false,"rental_uris":{"android":"levelo://app?vid=cb8372d6-bad2-4555-89ad-5b495afb0b59","ios":"levelo://app?vid=cb8372d6-bad2-4555-89ad-5b495afb0b59"},"vehicle_type_id":"4","last_reported":1739895101,"current_range_meters":11200,"station_id":"ce4bhgh2rcd13ifvqfb0","pricing_plan_id":"cebpf4jnsgd1na2vs0mg"},{"bike_id":"d744b4e5-dabe-404a-9185-67f33275efc9","system_id":"levelo_inurba_marseille","lat":43.25579,"lon":5.38241,"is_reserved":false,"is_disabled":false,"rental_uris":{"android":"levelo://app?vid=d744b4e5-dabe-404a-9185-67f33275efc9","ios":"levelo://app?vid=d744b4e5-dabe-404a-9185-67f33275efc9"},"vehicle_type_id":"4","last_reported":1739895101,"current_range_meters":11200,"station_id":"","pricing_plan_id":"cebpf4jnsgd1na2vs0mg"},{"bike_id":"a8ad587a-3ed3-4d89-92d8-b9ce278ee72c","system_id":"levelo_inurba_marseille","lat":43.30934,"lon":5.40148,"is_reserved":false,"is_disabled":false,"rental_uris":{"android":"levelo://app?vid=a8ad587a-3ed3-4d89-92d8-b9ce278ee72c","ios":"levelo://app?vid=a8ad587a-3ed3-4d89-92d8-b9ce278ee72c"},"vehicle_type_id":"4","last_reported":1739895101,"current_range_meters":11200,"station_id":"ce4bgvp2rcd13ifvqct0","pricing_plan_id":"cebpf4jnsgd1na2vs0mg"},{"bike_id":"6b437af7-5a02-4f67-b1a1-aa8aa16baf0f","system_id":"levelo_inurba_marseille","lat":43.28286,"lon":5.35072,"is_reserved":false,"is_disabled":false,"rental_uris":{"android":"levelo://app?vid=6b437af7-5a02-4f67-b1a1-aa8aa16baf0f","ios":"levelo://app?vid=6b437af7-5a02-4f67-b1a1-aa8aa16baf0f"},"vehicle_type_id":"4","last_reported":1739895101,"current_range_meters":11600,"station_id":"ce4bhbp2rcd13ifvqerg","pricing_plan_id":"cebpf4jnsgd1na2vs0mg"},{"bike_id":"b62a71c9-c153-4a70-bf13-c71155cbba97","system_id":"levelo_inurba_marseille","lat":43.25583,"lon":5.3823,"is_reserved":false,"is_disabled":false,"rental_uris":{"android":"levelo://app?vid=b62a71c9-c153-4a70-bf13-c71155cbba97","ios":"levelo://app?vid=b62a71c9-c153-4a70-bf13-c71155cbba97"},"vehicle_type_id":"4","last_reported":1739895101,"current_range_meters":11600,"station_id":"ce4bhih2rcd13ifvqfs0","pricing_plan_id":"cebpf4jnsgd1na2vs0mg"},{"bike_id":"91bf3218-0a05-4226-acc9-b3131b7d5a8d","system_id":"levelo_inurba_marseille","lat":43.23972,"lon":5.36624,"is_reserved":false,"is_disabled":false,"rental_uris":{"android":"levelo://app?vid=91bf3218-0a05-4226-acc9-b3131b7d5a8d","ios":"levelo://app?vid=91bf3218-0a05-4226-acc9-b3131b7d5a8d"},"vehicle_type_id":"4","last_reported":1739895101,"current_range_meters":11600,"station_id":"ce4bhi12rcd13ifvqfp0","pricing_plan_id":"cebpf4jnsgd1na2vs0mg"},{"bike_id":"42c7cfa8-bce6-4834-be4f-e8fd7551245d","system_id":"levelo_inurba_marseille","lat":43.28603,"lon":5.42612,"is_reserved":false,"is_disabled":false,"rental_uris":{"android":"levelo://app?vid=42c7cfa8-bce6-4834-be4f-e8fd7551245d","ios":"levelo://app?vid=42c7cfa8-bce6-4834-be4f-e8fd7551245d"},"vehicle_type_id":"4","last_reported":1739895101,"current_range_meters":11600,"station_id":"","pricing_plan_id":"cebpf4jnsgd1na2vs0mg"},{"bike_id":"10f8da56-b982-4af7-a78a-0fa9c8b1a438","system_id":"levelo_inurba_marseille","lat":43.31892,"lon":5.40748,"is_reserved":false,"is_disabled":false,"rental_uris":{"android":"levelo://app?vid=10f8da56-b982-4af7-a78a-0fa9c8b1a438","ios":"levelo://app?vid=10f8da56-b982-4af7-a78a-0fa9c8b1a438"},"vehicle_type_id":"4","last_reported":1739895101,"current_range_meters":12800,"station_id":"ce4bhq12rcd13ifvqhig","pricing_plan_id":"cebpf4jnsgd1na2vs0mg"},{"bike_id":"27d281e4-ae2c-4d0a-b5af-b1a6c9a261f7","system_id":"levelo_inurba_marseille","lat":43.31697,"lon":5.37719,"is_reserved":false,"is_disabled":true,"rental_uris":{"android":"levelo://app?vid=27d281e4-ae2c-4d0a-b5af-b1a6c9a261f7","ios":"levelo://app?vid=27d281e4-ae2c-4d0a-b5af-b1a6c9a261f7"},"vehicle_type_id":"4","last_reported":1739895101,"current_range_meters":11600,"station_id":"ce4bgth2rcd13ifvqch0","pricing_plan_id":"cebpf4jnsgd1na2vs0mg"},{"bike_id":"934e2516-f1c4-463d-ae3d-da609a964688","system_id":"levelo_inurba_marseille","lat":43.23958,"lon":5.36651,"is_reserved":false,"is_disabled":false,"rental_uris":{"android":"levelo://app?vid=934e2516-f1c4-463d-ae3d-da609a964688","ios":"levelo://app?vid=934e2516-f1c4-463d-ae3d-da609a964688"},"vehicle_type_id":"4","last_reported":1739895101,"current_range_meters":11600,"station_id":"ce4bhi12rcd13ifvqfp0","pricing_plan_id":"cebpf4jnsgd1na2vs0mg"},{"bike_id":"6cddacd4-7bc4-443f-9bce-abdc1ff43426","system_id":"levelo_inurba_marseille","lat":43.284187,"lon":5.34992,"is_reserved":false,"is_disabled":false,"rental_uris":{"android":"levelo://app?vid=6cddacd4-7bc4-443f-9bce-abdc1ff43426","ios":"levelo://app?vid=6cddacd4-7bc4-443f-9bce-abdc1ff43426"},"vehicle_type_id":"4","last_reported":1739895101,"current_range_meters":11600,"station_id":"ce4bhbh2rcd13ifvqepg","pricing_plan_id":"cebpf4jnsgd1na2vs0mg"},{"bike_id":"a69fe923-bbbf-424c-834a-23b10868f7c7","system_id":"levelo_inurba_marseille","lat":43.30333,"lon":5.36904,"is_reserved":false,"is_disabled":false,"rental_uris":{"android":"levelo://app?vid=a69fe923-bbbf-424c-834a-23b10868f7c7","ios":"levelo://app?vid=a69fe923-bbbf-424c-834a-23b10868f7c7"},"vehicle_type_id":"4","last_reported":1739895101,"current_range_meters":11600,"station_id":"ce4bgqh2rcd13ifvqc5g","pricing_plan_id":"cebpf4jnsgd1na2vs0mg"},{"bike_id":"35293ab3-8efa-42af-b41c-bbc54ae6e762","system_id":"levelo_inurba_marseille","lat":43.23959,"lon":5.3663,"is_reserved":false,"is_disabled":false,"rental_uris":{"android":"levelo://app?vid=35293ab3-8efa-42af-b41c-bbc54ae6e762","ios":"levelo://app?vid=35293ab3-8efa-42af-b41c-bbc54ae6e762"},"vehicle_type_id":"4","last_reported":1739895101,"current_range_meters":11600,"station_id":"ce4bhi12rcd13ifvqfp0","pricing_plan_id":"cebpf4jnsgd1na2vs0mg"},{"bike_id":"0abc1ab9-ba53-43c5-97f4-7846cddaf2b2","system_id":"levelo_inurba_marseille","lat":43.26245,"lon":5.3744,"is_reserved":false,"is_disabled":false,"rental_uris":{"android":"levelo://app?vid=0abc1ab9-ba53-43c5-97f4-7846cddaf2b2","ios":"levelo://app?vid=0abc1ab9-ba53-43c5-97f4-7846cddaf2b2"},"vehicle_type_id":"4","last_reported":1739895101,"current_range_meters":11600,"station_id":"","pricing_plan_id":"cebpf4jnsgd1na2vs0mg"},{"bike_id":"baa9c553-35b1-4888-ba7f-ef685f2a1020","system_id":"levelo_inurba_marseille","lat":43.23965,"lon":5.36631,"is_reserved":false,"is_disabled":false,"rental_uris":{"android":"levelo://app?vid=baa9c553-35b1-4888-ba7f-ef685f2a1020","ios":"levelo://app?vid=baa9c553-35b1-4888-ba7f-ef685f2a1020"},"vehicle_type_id":"4","last_reported":1739895101,"current_range_meters":11600,"station_id":"","pricing_plan_id":"cebpf4jnsgd1na2vs0mg"},{"bike_id":"1f73d6b6-e66e-4833-bfa1-148a7786476b","system_id":"levelo_inurba_marseille","lat":43.24165,"lon":5.36403,"is_reserved":false,"is_disabled":false,"rental_uris":{"android":"levelo://app?vid=1f73d6b6-e66e-4833-bfa1-148a7786476b","ios":"levelo://app?vid=1f73d6b6-e66e-4833-bfa1-148a7786476b"},"vehicle_type_id":"4","last_reported":1739895101,"current_range_meters":11600,"station_id":"cpo36qri1sfpv3e86is0","pricing_plan_id":"cebpf4jnsgd1na2vs0mg"},{"bike_id":"b33c4823-eab9-442c-b0d4-6939ce7eeb21","system_id":"levelo_inurba_marseille","lat":43.26563,"lon":5.37292,"is_reserved":false,"is_disabled":false,"rental_uris":{"android":"levelo://app?vid=b33c4823-eab9-442c-b0d4-6939ce7eeb21","ios":"levelo://app?vid=b33c4823-eab9-442c-b0d4-6939ce7eeb21"},"vehicle_type_id":"4","last_reported":1739895101,"current_range_meters":12000,"station_id":"ce4bhg12rcd13ifvqf70","pricing_plan_id":"cebpf4jnsgd1na2vs0mg"},{"bike_id":"c9071df5-5664-4a5e-b1b2-1df958a7db03","system_id":"levelo_inurba_marseille","lat":43.23957,"lon":5.3667,"is_reserved":false,"is_disabled":false,"rental_uris":{"android":"levelo://app?vid=c9071df5-5664-4a5e-b1b2-1df958a7db03","ios":"levelo://app?vid=c9071df5-5664-4a5e-b1b2-1df958a7db03"},"vehicle_type_id":"4","last_reported":1739895101,"current_range_meters":12000,"station_id":"","pricing_plan_id":"cebpf4jnsgd1na2vs0mg"},{"bike_id":"3ce98b9f-8430-48e9-8363-4a1113c2afd9","system_id":"levelo_inurba_marseille","lat":43.26501,"lon":5.39539,"is_reserved":false,"is_disabled":false,"rental_uris":{"android":"levelo://app?vid=3ce98b9f-8430-48e9-8363-4a1113c2afd9","ios":"levelo://app?vid=3ce98b9f-8430-48e9-8363-4a1113c2afd9"},"vehicle_type_id":"4","last_reported":1739895101,"current_range_meters":6800,"station_id":"ce4bhi12rcd13ifvqfq0","pricing_plan_id":"cebpf4jnsgd1na2vs0mg"},{"bike_id":"4d512456-2902-4a06-8e8b-c7a23a209fc5","system_id":"levelo_inurba_marseille","lat":43.29542,"lon":5.375,"is_reserved":false,"is_disabled":false,"rental_uris":{"android":"levelo://app?vid=4d512456-2902-4a06-8e8b-c7a23a209fc5","ios":"levelo://app?vid=4d512456-2902-4a06-8e8b-c7a23a209fc5"},"vehicle_type_id":"4","last_reported":1739895101,"current_range_meters":12000,"station_id":"ce4bgkp2rcd13ifvqbmg","pricing_plan_id":"cebpf4jnsgd1na2vs0mg"},{"bike_id":"eb8e2e87-ad12-4e87-8e4a-757897446f7e","system_id":"levelo_inurba_marseille","lat":43.25581,"lon":5.38241,"is_reserved":false,"is_disabled":false,"rental_uris":{"android":"levelo://app?vid=eb8e2e87-ad12-4e87-8e4a-757897446f7e","ios":"levelo://app?vid=eb8e2e87-ad12-4e87-8e4a-757897446f7e"},"vehicle_type_id":"4","last_reported":1739895101,"current_range_meters":12000,"station_id":"ce4bhih2rcd13ifvqfs0","pricing_plan_id":"cebpf4jnsgd1na2vs0mg"},{"bike_id":"fdf96da5-3cf9-4fc4-942b-3a348fea69f1","system_id":"levelo_inurba_marseille","lat":43.28691,"lon":5.38668,"is_reserved":false,"is_disabled":false,"rental_uris":{"android":"levelo://app?vid=fdf96da5-3cf9-4fc4-942b-3a348fea69f1","ios":"levelo://app?vid=fdf96da5-3cf9-4fc4-942b-3a348fea69f1"},"vehicle_type_id":"4","last_reported":1739895101,"current_range_meters":12000,"station_id":"ce4bh492rcd13ifvqdug","pricing_plan_id":"cebpf4jnsgd1na2vs0mg"},{"bike_id":"674ff86b-6531-451a-ac83-71c8e0cf1e52","system_id":"levelo_inurba_marseille","lat":43.27683,"lon":5.38881,"is_reserved":false,"is_disabled":false,"rental_uris":{"android":"levelo://app?vid=674ff86b-6531-451a-ac83-71c8e0cf1e52","ios":"levelo://app?vid=674ff86b-6531-451a-ac83-71c8e0cf1e52"},"vehicle_type_id":"4","last_reported":1739895101,"current_range_meters":12000,"station_id":"ce4bhi12rcd13ifvqfo0","pricing_plan_id":"cebpf4jnsgd1na2vs0mg"},{"bike_id":"6c96a73f-ff01-463f-bd8c-14885ee904b6","system_id":"levelo_inurba_marseille","lat":43.29082,"lon":5.35745,"is_reserved":false,"is_disabled":false,"rental_uris":{"android":"levelo://app?vid=6c96a73f-ff01-463f-bd8c-14885ee904b6","ios":"levelo://app?vid=6c96a73f-ff01-463f-bd8c-14885ee904b6"},"vehicle_type_id":"4","last_reported":1739895101,"current_range_meters":12400,"station_id":"ce4bhb92rcd13ifvqen0","pricing_plan_id":"cebpf4jnsgd1na2vs0mg"},{"bike_id":"56b33315-b19f-4d7f-a2c1-92daeccff7e5","system_id":"levelo_inurba_marseille","lat":43.28616,"lon":5.3511,"is_reserved":false,"is_disabled":false,"rental_uris":{"android":"levelo://app?vid=56b33315-b19f-4d7f-a2c1-92daeccff7e5","ios":"levelo://app?vid=56b33315-b19f-4d7f-a2c1-92daeccff7e5"},"vehicle_type_id":"4","last_reported":1739895101,"current_range_meters":12800,"station_id":"ce4bhch2rcd13ifvqeug","pricing_plan_id":"cebpf4jnsgd1na2vs0mg"},{"bike_id":"d855430c-6af6-4afc-8621-8dac0152b130","system_id":"levelo_inurba_marseille","lat":43.29532,"lon":5.38551,"is_reserved":false,"is_disabled":false,"rental_uris":{"android":"levelo://app?vid=d855430c-6af6-4afc-8621-8dac0152b130","ios":"levelo://app?vid=d855430c-6af6-4afc-8621-8dac0152b130"},"vehicle_type_id":"4","last_reported":1739895101,"current_range_meters":12800,"station_id":"","pricing_plan_id":"cebpf4jnsgd1na2vs0mg"},{"bike_id":"8b8b859d-5536-454f-880e-820923f56d5f","system_id":"levelo_inurba_marseille","lat":43.28265,"lon":5.35067,"is_reserved":false,"is_disabled":false,"rental_uris":{"android":"levelo://app?vid=8b8b859d-5536-454f-880e-820923f56d5f","ios":"levelo://app?vid=8b8b859d-5536-454f-880e-820923f56d5f"},"vehicle_type_id":"4","last_reported":1739895101,"current_range_meters":13600,"station_id":"ce4bhbp2rcd13ifvqerg","pricing_plan_id":"cebpf4jnsgd1na2vs0mg"},{"bike_id":"09504f23-40c5-4bb3-b7e8-bfbb08d21e7c","system_id":"levelo_inurba_marseille","lat":43.29261,"lon":5.3685,"is_reserved":false,"is_disabled":false,"rental_uris":{"android":"levelo://app?vid=09504f23-40c5-4bb3-b7e8-bfbb08d21e7c","ios":"levelo://app?vid=09504f23-40c5-4bb3-b7e8-bfbb08d21e7c"},"vehicle_type_id":"4","last_reported":1739895101,"current_range_meters":14000,"station_id":"ce4bhbp2rcd13ifvqesg","pricing_plan_id":"cebpf4jnsgd1na2vs0mg"},{"bike_id":"95395b49-02b1-4cec-994a-8bb3b00df3d3","system_id":"levelo_inurba_marseille","lat":43.29537,"lon":5.38548,"is_reserved":false,"is_disabled":false,"rental_uris":{"android":"levelo://app?vid=95395b49-02b1-4cec-994a-8bb3b00df3d3","ios":"levelo://app?vid=95395b49-02b1-4cec-994a-8bb3b00df3d3"},"vehicle_type_id":"4","last_reported":1739895101,"current_range_meters":14000,"station_id":"ce4bgt92rcd13ifvqcg0","pricing_plan_id":"cebpf4jnsgd1na2vs0mg"},{"bike_id":"fee19686-b900-4d71-ab01-c76e58cf164c","system_id":"levelo_inurba_marseille","lat":43.29573,"lon":5.37522,"is_reserved":false,"is_disabled":false,"rental_uris":{"android":"levelo://app?vid=fee19686-b900-4d71-ab01-c76e58cf164c","ios":"levelo://app?vid=fee19686-b900-4d71-ab01-c76e58cf164c"},"vehicle_type_id":"4","last_reported":1739895101,"current_range_meters":14000,"station_id":"ce4bgh92rcd13ifvqb50","pricing_plan_id":"cebpf4jnsgd1na2vs0mg"},{"bike_id":"152c536e-dec1-425f-9912-38bc4407b7c3","system_id":"levelo_inurba_marseille","lat":43.27919,"lon":5.39581,"is_reserved":false,"is_disabled":false,"rental_uris":{"android":"levelo://app?vid=152c536e-dec1-425f-9912-38bc4407b7c3","ios":"levelo://app?vid=152c536e-dec1-425f-9912-38bc4407b7c3"},"vehicle_type_id":"4","last_reported":1739895101,"current_range_meters":14000,"station_id":"ce4bhf92rcd13ifvqf40","pricing_plan_id":"cebpf4jnsgd1na2vs0mg"},{"bike_id":"a3c44d33-5f44-44af-86b0-2fce43811337","system_id":"levelo_inurba_marseille","lat":43.2657,"lon":5.39017,"is_reserved":false,"is_disabled":false,"rental_uris":{"android":"levelo://app?vid=a3c44d33-5f44-44af-86b0-2fce43811337","ios":"levelo://app?vid=a3c44d33-5f44-44af-86b0-2fce43811337"},"vehicle_type_id":"4","last_reported":1739895101,"current_range_meters":14400,"station_id":"ce4bhe12rcd13ifvqf30","pricing_plan_id":"cebpf4jnsgd1na2vs0mg"},{"bike_id":"6536f4c1-88be-4a61-9967-95dd8d8d3bc2","system_id":"levelo_inurba_marseille","lat":43.26197,"lon":5.37456,"is_reserved":false,"is_disabled":false,"rental_uris":{"android":"levelo://app?vid=6536f4c1-88be-4a61-9967-95dd8d8d3bc2","ios":"levelo://app?vid=6536f4c1-88be-4a61-9967-95dd8d8d3bc2"},"vehicle_type_id":"4","last_reported":1739895101,"current_range_meters":14400,"station_id":"","pricing_plan_id":"cebpf4jnsgd1na2vs0mg"},{"bike_id":"25a87e91-9c0d-4903-b869-115b64990ac3","system_id":"levelo_inurba_marseille","lat":43.28157,"lon":5.42638,"is_reserved":false,"is_disabled":false,"rental_uris":{"android":"levelo://app?vid=25a87e91-9c0d-4903-b869-115b64990ac3","ios":"levelo://app?vid=25a87e91-9c0d-4903-b869-115b64990ac3"},"vehicle_type_id":"4","last_reported":1739895101,"current_range_meters":14400,"station_id":"ce4bhnh2rcd13ifvqgug","pricing_plan_id":"cebpf4jnsgd1na2vs0mg"},{"bike_id":"f027fe38-3f5d-42fa-b16a-68ca60104c09","system_id":"levelo_inurba_marseille","lat":43.24173,"lon":5.36404,"is_reserved":false,"is_disabled":false,"rental_uris":{"android":"levelo://app?vid=f027fe38-3f5d-42fa-b16a-68ca60104c09","ios":"levelo://app?vid=f027fe38-3f5d-42fa-b16a-68ca60104c09"},"vehicle_type_id":"4","last_reported":1739895101,"current_range_meters":14800,"station_id":"","pricing_plan_id":"cebpf4jnsgd1na2vs0mg"},{"bike_id":"90017611-e2b1-401c-bcbf-f9d526ffc823","system_id":"levelo_inurba_marseille","lat":43.2935,"lon":5.38325,"is_reserved":false,"is_disabled":false,"rental_uris":{"android":"levelo://app?vid=90017611-e2b1-401c-bcbf-f9d526ffc823","ios":"levelo://app?vid=90017611-e2b1-401c-bcbf-f9d526ffc823"},"vehicle_type_id":"4","last_reported":1739895101,"current_range_meters":14800,"station_id":"","pricing_plan_id":"cebpf4jnsgd1na2vs0mg"},{"bike_id":"2cfeeb5a-dfc5-4280-bacf-5f9f118223ae","system_id":"levelo_inurba_marseille","lat":43.28417,"lon":5.37505,"is_reserved":false,"is_disabled":false,"rental_uris":{"android":"levelo://app?vid=2cfeeb5a-dfc5-4280-bacf-5f9f118223ae","ios":"levelo://app?vid=2cfeeb5a-dfc5-4280-bacf-5f9f118223ae"},"vehicle_type_id":"4","last_reported":1739895101,"current_range_meters":14800,"station_id":"ce4bh412rcd13ifvqds0","pricing_plan_id":"cebpf4jnsgd1na2vs0mg"},{"bike_id":"121c3799-de1b-41f9-b68c-284db28ca870","system_id":"levelo_inurba_marseille","lat":43.22931,"lon":5.35377,"is_reserved":false,"is_disabled":false,"rental_uris":{"android":"levelo://app?vid=121c3799-de1b-41f9-b68c-284db28ca870","ios":"levelo://app?vid=121c3799-de1b-41f9-b68c-284db28ca870"},"vehicle_type_id":"4","last_reported":1739895101,"current_range_meters":14800,"station_id":"cpo3532slgdg3j2ikp40","pricing_plan_id":"cebpf4jnsgd1na2vs0mg"},{"bike_id":"7a956a2c-3e4f-4828-9371-ce582abeb15c","system_id":"levelo_inurba_marseille","lat":43.28249,"lon":5.35072,"is_reserved":false,"is_disabled":false,"rental_uris":{"android":"levelo://app?vid=7a956a2c-3e4f-4828-9371-ce582abeb15c","ios":"levelo://app?vid=7a956a2c-3e4f-4828-9371-ce582abeb15c"},"vehicle_type_id":"4","last_reported":1739895101,"current_range_meters":15200,"station_id":"","pricing_plan_id":"cebpf4jnsgd1na2vs0mg"},{"bike_id":"2cc83b4e-4ac0-444c-be14-74fd904716a8","system_id":"levelo_inurba_marseille","lat":43.29374,"lon":5.37874,"is_reserved":false,"is_disabled":false,"rental_uris":{"android":"levelo://app?vid=2cc83b4e-4ac0-444c-be14-74fd904716a8","ios":"levelo://app?vid=2cc83b4e-4ac0-444c-be14-74fd904716a8"},"vehicle_type_id":"4","last_reported":1739895101,"current_range_meters":14800,"station_id":"ce4bgjh2rcd13ifvqbf0","pricing_plan_id":"cebpf4jnsgd1na2vs0mg"},{"bike_id":"32d647ef-147b-415e-814f-6e013e7eb781","system_id":"levelo_inurba_marseille","lat":43.31528,"lon":5.38038,"is_reserved":false,"is_disabled":false,"rental_uris":{"android":"levelo://app?vid=32d647ef-147b-415e-814f-6e013e7eb781","ios":"levelo://app?vid=32d647ef-147b-415e-814f-6e013e7eb781"},"vehicle_type_id":"4","last_reported":1739895101,"current_range_meters":15200,"station_id":"ce4bhsp2rcd13ifvqi50","pricing_plan_id":"cebpf4jnsgd1na2vs0mg"},{"bike_id":"6693a204-6957-455b-af45-9496f99eda72","system_id":"levelo_inurba_marseille","lat":43.28947,"lon":5.36405,"is_reserved":false,"is_disabled":false,"rental_uris":{"android":"levelo://app?vid=6693a204-6957-455b-af45-9496f99eda72","ios":"levelo://app?vid=6693a204-6957-455b-af45-9496f99eda72"},"vehicle_type_id":"4","last_reported":1739895101,"current_range_meters":15200,"station_id":"ce4bhc92rcd13ifvqetg","pricing_plan_id":"cebpf4jnsgd1na2vs0mg"},{"bike_id":"d1dec037-ee4c-4db9-a655-1087d8ee1f4f","system_id":"levelo_inurba_marseille","lat":43.28444,"lon":5.39175,"is_reserved":false,"is_disabled":true,"rental_uris":{"android":"levelo://app?vid=d1dec037-ee4c-4db9-a655-1087d8ee1f4f","ios":"levelo://app?vid=d1dec037-ee4c-4db9-a655-1087d8ee1f4f"},"vehicle_type_id":"4","last_reported":1739895101,"current_range_meters":15200,"station_id":"","pricing_plan_id":"cebpf4jnsgd1na2vs0mg"},{"bike_id":"9e907f59-96ef-46d1-9ce6-fb36e513007c","system_id":"levelo_inurba_marseille","lat":43.26564,"lon":5.37274,"is_reserved":false,"is_disabled":false,"rental_uris":{"android":"levelo://app?vid=9e907f59-96ef-46d1-9ce6-fb36e513007c","ios":"levelo://app?vid=9e907f59-96ef-46d1-9ce6-fb36e513007c"},"vehicle_type_id":"4","last_reported":1739895101,"current_range_meters":15200,"station_id":"ce4bhg12rcd13ifvqf70","pricing_plan_id":"cebpf4jnsgd1na2vs0mg"},{"bike_id":"c12a57bd-dcc7-44da-a20e-086528b47809","system_id":"levelo_inurba_marseille","lat":43.27329,"lon":5.39073,"is_reserved":false,"is_disabled":false,"rental_uris":{"android":"levelo://app?vid=c12a57bd-dcc7-44da-a20e-086528b47809","ios":"levelo://app?vid=c12a57bd-dcc7-44da-a20e-086528b47809"},"vehicle_type_id":"4","last_reported":1739895101,"current_range_meters":13600,"station_id":"ce4bhgp2rcd13ifvqfe0","pricing_plan_id":"cebpf4jnsgd1na2vs0mg"},{"bike_id":"93c67bfa-15aa-4951-b48d-2cd1ed4fe08a","system_id":"levelo_inurba_marseille","lat":43.28462,"lon":5.38414,"is_reserved":false,"is_disabled":false,"rental_uris":{"android":"levelo://app?vid=93c67bfa-15aa-4951-b48d-2cd1ed4fe08a","ios":"levelo://app?vid=93c67bfa-15aa-4951-b48d-2cd1ed4fe08a"},"vehicle_type_id":"4","last_reported":1739895101,"current_range_meters":16000,"station_id":"ce4bh512rcd13ifvqe3g","pricing_plan_id":"cebpf4jnsgd1na2vs0mg"},{"bike_id":"cd84da5d-03a4-4d0c-a8ca-903735381966","system_id":"levelo_inurba_marseille","lat":43.30194,"lon":5.36621,"is_reserved":false,"is_disabled":false,"rental_uris":{"android":"levelo://app?vid=cd84da5d-03a4-4d0c-a8ca-903735381966","ios":"levelo://app?vid=cd84da5d-03a4-4d0c-a8ca-903735381966"},"vehicle_type_id":"4","last_reported":1739895101,"current_range_meters":16000,"station_id":"ce4bgrh2rcd13ifvqc8g","pricing_plan_id":"cebpf4jnsgd1na2vs0mg"},{"bike_id":"10369f98-fd18-4171-b4a5-9f1c7536505f","system_id":"levelo_inurba_marseille","lat":43.25498,"lon":5.37655,"is_reserved":false,"is_disabled":false,"rental_uris":{"android":"levelo://app?vid=10369f98-fd18-4171-b4a5-9f1c7536505f","ios":"levelo://app?vid=10369f98-fd18-4171-b4a5-9f1c7536505f"},"vehicle_type_id":"4","last_reported":1739895101,"current_range_meters":16000,"station_id":"","pricing_plan_id":"cebpf4jnsgd1na2vs0mg"},{"bike_id":"397b80cf-cbf3-4f7e-9d00-ad56509053a2","system_id":"levelo_inurba_marseille","lat":43.29183,"lon":5.39801,"is_reserved":false,"is_disabled":false,"rental_uris":{"android":"levelo://app?vid=397b80cf-cbf3-4f7e-9d00-ad56509053a2","ios":"levelo://app?vid=397b80cf-cbf3-4f7e-9d00-ad56509053a2"},"vehicle_type_id":"4","last_reported":1739895101,"current_range_meters":16000,"station_id":"","pricing_plan_id":"cebpf4jnsgd1na2vs0mg"},{"bike_id":"467947a1-bed8-47f6-aa85-e81f66aa664e","system_id":"levelo_inurba_marseille","lat":43.29044,"lon":5.37565,"is_reserved":false,"is_disabled":false,"rental_uris":{"android":"levelo://app?vid=467947a1-bed8-47f6-aa85-e81f66aa664e","ios":"levelo://app?vid=467947a1-bed8-47f6-aa85-e81f66aa664e"},"vehicle_type_id":"4","last_reported":1739895101,"current_range_meters":16000,"station_id":"ce4bh692rcd13ifvqe90","pricing_plan_id":"cebpf4jnsgd1na2vs0mg"},{"bike_id":"1d63a175-89ef-49ff-9ead-dfe9ed6c22cf","system_id":"levelo_inurba_marseille","lat":43.24686,"lon":5.39431,"is_reserved":false,"is_disabled":false,"rental_uris":{"android":"levelo://app?vid=1d63a175-89ef-49ff-9ead-dfe9ed6c22cf","ios":"levelo://app?vid=1d63a175-89ef-49ff-9ead-dfe9ed6c22cf"},"vehicle_type_id":"4","last_reported":1739895101,"current_range_meters":16400,"station_id":"","pricing_plan_id":"cebpf4jnsgd1na2vs0mg"},{"bike_id":"bf74b8c6-69e6-44f6-b5f1-f7347149ce27","system_id":"levelo_inurba_marseille","lat":43.29253,"lon":5.40926,"is_reserved":false,"is_disabled":false,"rental_uris":{"android":"levelo://app?vid=bf74b8c6-69e6-44f6-b5f1-f7347149ce27","ios":"levelo://app?vid=bf74b8c6-69e6-44f6-b5f1-f7347149ce27"},"vehicle_type_id":"4","last_reported":1739895101,"current_range_meters":16400,"station_id":"ce4bh192rcd13ifvqdc0","pricing_plan_id":"cebpf4jnsgd1na2vs0mg"},{"bike_id":"8a645933-ad17-48d1-8279-7fa3299ec45b","system_id":"levelo_inurba_marseille","lat":43.28669,"lon":5.36365,"is_reserved":false,"is_disabled":false,"rental_uris":{"android":"levelo://app?vid=8a645933-ad17-48d1-8279-7fa3299ec45b","ios":"levelo://app?vid=8a645933-ad17-48d1-8279-7fa3299ec45b"},"vehicle_type_id":"4","last_reported":1739895101,"current_range_meters":16800,"station_id":"ce4bhah2rcd13ifvqej0","pricing_plan_id":"cebpf4jnsgd1na2vs0mg"},{"bike_id":"2182f00f-a4e4-421b-b7b1-20da44d0c1f5","system_id":"levelo_inurba_marseille","lat":43.29415,"lon":5.38609,"is_reserved":false,"is_disabled":false,"rental_uris":{"android":"levelo://app?vid=2182f00f-a4e4-421b-b7b1-20da44d0c1f5","ios":"levelo://app?vid=2182f00f-a4e4-421b-b7b1-20da44d0c1f5"},"vehicle_type_id":"4","last_reported":1739895101,"current_range_meters":16400,"station_id":"ce4bh2h2rcd13ifvqdh0","pricing_plan_id":"cebpf4jnsgd1na2vs0mg"},{"bike_id":"76ae7e0f-4eb8-44da-a410-8f2f6475f1d6","system_id":"levelo_inurba_marseille","lat":43.2954,"lon":5.38549,"is_reserved":false,"is_disabled":false,"rental_uris":{"android":"levelo://app?vid=76ae7e0f-4eb8-44da-a410-8f2f6475f1d6","ios":"levelo://app?vid=76ae7e0f-4eb8-44da-a410-8f2f6475f1d6"},"vehicle_type_id":"4","last_reported":1739895101,"current_range_meters":14800,"station_id":"ce4bgih2rcd13ifvqba0","pricing_plan_id":"cebpf4jnsgd1na2vs0mg"},{"bike_id":"ac6ad62a-7f33-4acc-a079-0e8448da3240","system_id":"levelo_inurba_marseille","lat":43.2954,"lon":5.3855,"is_reserved":false,"is_disabled":false,"rental_uris":{"android":"levelo://app?vid=ac6ad62a-7f33-4acc-a079-0e8448da3240","ios":"levelo://app?vid=ac6ad62a-7f33-4acc-a079-0e8448da3240"},"vehicle_type_id":"4","last_reported":1739895101,"current_range_meters":17200,"station_id":"","pricing_plan_id":"cebpf4jnsgd1na2vs0mg"},{"bike_id":"b80c3629-be51-4d63-a763-f0dbe0c815c8","system_id":"levelo_inurba_marseille","lat":43.29002,"lon":5.35613,"is_reserved":false,"is_disabled":false,"rental_uris":{"android":"levelo://app?vid=b80c3629-be51-4d63-a763-f0dbe0c815c8","ios":"levelo://app?vid=b80c3629-be51-4d63-a763-f0dbe0c815c8"},"vehicle_type_id":"4","last_reported":1739895101,"current_range_meters":16800,"station_id":"ce4bhb92rcd13ifvqen0","pricing_plan_id":"cebpf4jnsgd1na2vs0mg"},{"bike_id":"a2cd6bce-829b-4f5f-bc6a-3777ff727ec2","system_id":"levelo_inurba_marseille","lat":43.2406,"lon":5.37775,"is_reserved":false,"is_disabled":false,"rental_uris":{"android":"levelo://app?vid=a2cd6bce-829b-4f5f-bc6a-3777ff727ec2","ios":"levelo://app?vid=a2cd6bce-829b-4f5f-bc6a-3777ff727ec2"},"vehicle_type_id":"4","last_reported":1739895101,"current_range_meters":16800,"station_id":"ce4bhnp2rcd13ifvqgvg","pricing_plan_id":"cebpf4jnsgd1na2vs0mg"},{"bike_id":"22c1355e-1039-4fd9-8688-906435e4013c","system_id":"levelo_inurba_marseille","lat":43.23158,"lon":5.43723,"is_reserved":false,"is_disabled":false,"rental_uris":{"android":"levelo://app?vid=22c1355e-1039-4fd9-8688-906435e4013c","ios":"levelo://app?vid=22c1355e-1039-4fd9-8688-906435e4013c"},"vehicle_type_id":"4","last_reported":1739895101,"current_range_meters":16800,"station_id":"ce4bhmp2rcd13ifvqgog","pricing_plan_id":"cebpf4jnsgd1na2vs0mg"},{"bike_id":"9baed5c0-9061-4cb1-a548-086d8b1edf86","system_id":"levelo_inurba_marseille","lat":43.29198,"lon":5.39321,"is_reserved":false,"is_disabled":false,"rental_uris":{"android":"levelo://app?vid=9baed5c0-9061-4cb1-a548-086d8b1edf86","ios":"levelo://app?vid=9baed5c0-9061-4cb1-a548-086d8b1edf86"},"vehicle_type_id":"4","last_reported":1739895101,"current_range_meters":16800,"station_id":"ce4bh192rcd13ifvqdd0","pricing_plan_id":"cebpf4jnsgd1na2vs0mg"},{"bike_id":"0bcb722b-a7ca-47ea-b7a4-84c30ba832fe","system_id":"levelo_inurba_marseille","lat":43.29271,"lon":5.40908,"is_reserved":false,"is_disabled":false,"rental_uris":{"android":"levelo://app?vid=0bcb722b-a7ca-47ea-b7a4-84c30ba832fe","ios":"levelo://app?vid=0bcb722b-a7ca-47ea-b7a4-84c30ba832fe"},"vehicle_type_id":"4","last_reported":1739895101,"current_range_meters":16800,"station_id":"ce4bh192rcd13ifvqdc0","pricing_plan_id":"cebpf4jnsgd1na2vs0mg"},{"bike_id":"25067dd4-95c4-4ebe-a5f7-796c0f440f93","system_id":"levelo_inurba_marseille","lat":43.30142,"lon":5.39872,"is_reserved":false,"is_disabled":false,"rental_uris":{"android":"levelo://app?vid=25067dd4-95c4-4ebe-a5f7-796c0f440f93","ios":"levelo://app?vid=25067dd4-95c4-4ebe-a5f7-796c0f440f93"},"vehicle_type_id":"4","last_reported":1739895101,"current_range_meters":16400,"station_id":"ce4bh0h2rcd13ifvqd40","pricing_plan_id":"cebpf4jnsgd1na2vs0mg"},{"bike_id":"85cc6894-c6eb-40fd-84e7-853ea0e87f92","system_id":"levelo_inurba_marseille","lat":43.2972,"lon":5.36617,"is_reserved":false,"is_disabled":false,"rental_uris":{"android":"levelo://app?vid=85cc6894-c6eb-40fd-84e7-853ea0e87f92","ios":"levelo://app?vid=85cc6894-c6eb-40fd-84e7-853ea0e87f92"},"vehicle_type_id":"4","last_reported":1739895101,"current_range_meters":17200,"station_id":"ce4bgn12rcd13ifvqbt0","pricing_plan_id":"cebpf4jnsgd1na2vs0mg"},{"bike_id":"b7ee7074-0ed1-413c-95bf-29ca1f13818b","system_id":"levelo_inurba_marseille","lat":43.25589,"lon":5.38239,"is_reserved":false,"is_disabled":false,"rental_uris":{"android":"levelo://app?vid=b7ee7074-0ed1-413c-95bf-29ca1f13818b","ios":"levelo://app?vid=b7ee7074-0ed1-413c-95bf-29ca1f13818b"},"vehicle_type_id":"4","last_reported":1739895101,"current_range_meters":17200,"station_id":"ce4bhih2rcd13ifvqfs0","pricing_plan_id":"cebpf4jnsgd1na2vs0mg"},{"bike_id":"e1321072-8079-497e-99c8-f17b1f688c4e","system_id":"levelo_inurba_marseille","lat":43.28706,"lon":5.39992,"is_reserved":false,"is_disabled":false,"rental_uris":{"android":"levelo://app?vid=e1321072-8079-497e-99c8-f17b1f688c4e","ios":"levelo://app?vid=e1321072-8079-497e-99c8-f17b1f688c4e"},"vehicle_type_id":"4","last_reported":1739895101,"current_range_meters":17200,"station_id":"","pricing_plan_id":"cebpf4jnsgd1na2vs0mg"},{"bike_id":"cd7bf6d1-5468-4b4b-9a6e-851ccfc023e2","system_id":"levelo_inurba_marseille","lat":43.296967,"lon":5.365993,"is_reserved":false,"is_disabled":false,"rental_uris":{"android":"levelo://app?vid=cd7bf6d1-5468-4b4b-9a6e-851ccfc023e2","ios":"levelo://app?vid=cd7bf6d1-5468-4b4b-9a6e-851ccfc023e2"},"vehicle_type_id":"4","last_reported":1739895101,"current_range_meters":16800,"station_id":"ce4bgh92rcd13ifvqb50","pricing_plan_id":"cebpf4jnsgd1na2vs0mg"},{"bike_id":"db7f2d58-492d-4297-aa78-ce0ad99a0a74","system_id":"levelo_inurba_marseille","lat":43.25944,"lon":5.40905,"is_reserved":false,"is_disabled":false,"rental_uris":{"android":"levelo://app?vid=db7f2d58-492d-4297-aa78-ce0ad99a0a74","ios":"levelo://app?vid=db7f2d58-492d-4297-aa78-ce0ad99a0a74"},"vehicle_type_id":"4","last_reported":1739895101,"current_range_meters":17200,"station_id":"ce4bhb92rcd13ifvqen0","pricing_plan_id":"cebpf4jnsgd1na2vs0mg"},{"bike_id":"bd8dcbfb-3c3a-4aa8-a8c7-da0b04a07224","system_id":"levelo_inurba_marseille","lat":43.3078,"lon":5.37663,"is_reserved":false,"is_disabled":false,"rental_uris":{"android":"levelo://app?vid=bd8dcbfb-3c3a-4aa8-a8c7-da0b04a07224","ios":"levelo://app?vid=bd8dcbfb-3c3a-4aa8-a8c7-da0b04a07224"},"vehicle_type_id":"4","last_reported":1739895101,"current_range_meters":17200,"station_id":"ce4bgvh2rcd13ifvqcs0","pricing_plan_id":"cebpf4jnsgd1na2vs0mg"},{"bike_id":"59c06e16-2c1f-4444-a3f6-6a7b6c9c893e","system_id":"levelo_inurba_marseille","lat":43.3029,"lon":5.3918,"is_reserved":false,"is_disabled":true,"rental_uris":{"android":"levelo://app?vid=59c06e16-2c1f-4444-a3f6-6a7b6c9c893e","ios":"levelo://app?vid=59c06e16-2c1f-4444-a3f6-6a7b6c9c893e"},"vehicle_type_id":"4","last_reported":1739895101,"current_range_meters":17200,"station_id":"ce4bgkh2rcd13ifvqbk0","pricing_plan_id":"cebpf4jnsgd1na2vs0mg"},{"bike_id":"baf6d894-ad10-49a9-b91a-24f60ad956f7","system_id":"levelo_inurba_marseille","lat":43.28976,"lon":5.4268,"is_reserved":false,"is_disabled":false,"rental_uris":{"android":"levelo://app?vid=baf6d894-ad10-49a9-b91a-24f60ad956f7","ios":"levelo://app?vid=baf6d894-ad10-49a9-b91a-24f60ad956f7"},"vehicle_type_id":"4","last_reported":1739895101,"current_range_meters":17200,"station_id":"","pricing_plan_id":"cebpf4jnsgd1na2vs0mg"},{"bike_id":"e21caf5a-4dc1-4f00-8aa9-b8a7b45abf7f","system_id":"levelo_inurba_marseille","lat":43.2964,"lon":5.37175,"is_reserved":false,"is_disabled":false,"rental_uris":{"android":"levelo://app?vid=e21caf5a-4dc1-4f00-8aa9-b8a7b45abf7f","ios":"levelo://app?vid=e21caf5a-4dc1-4f00-8aa9-b8a7b45abf7f"},"vehicle_type_id":"4","last_reported":1739895101,"current_range_meters":17200,"station_id":"ce4bgnh2rcd13ifvqc0g","pricing_plan_id":"cebpf4jnsgd1na2vs0mg"},{"bike_id":"fc971b16-bef3-4b6d-813c-ffc8ffa48842","system_id":"levelo_inurba_marseille","lat":43.2841,"lon":5.34986,"is_reserved":false,"is_disabled":true,"rental_uris":{"android":"levelo://app?vid=fc971b16-bef3-4b6d-813c-ffc8ffa48842","ios":"levelo://app?vid=fc971b16-bef3-4b6d-813c-ffc8ffa48842"},"vehicle_type_id":"4","last_reported":1739895101,"current_range_meters":17200,"station_id":"","pricing_plan_id":"cebpf4jnsgd1na2vs0mg"},{"bike_id":"1c26e311-62b6-434f-bc7d-e0420e0cb242","system_id":"levelo_inurba_marseille","lat":43.290984,"lon":5.381335,"is_reserved":false,"is_disabled":false,"rental_uris":{"android":"levelo://app?vid=1c26e311-62b6-434f-bc7d-e0420e0cb242","ios":"levelo://app?vid=1c26e311-62b6-434f-bc7d-e0420e0cb242"},"vehicle_type_id":"4","last_reported":1739895101,"current_range_meters":17200,"station_id":"ce4bhap2rcd13ifvqek0","pricing_plan_id":"cebpf4jnsgd1na2vs0mg"},{"bike_id":"f77eb7d8-9434-4c05-861f-edd4244aaffc","system_id":"levelo_inurba_marseille","lat":43.25504,"lon":5.37653,"is_reserved":false,"is_disabled":false,"rental_uris":{"android":"levelo://app?vid=f77eb7d8-9434-4c05-861f-edd4244aaffc","ios":"levelo://app?vid=f77eb7d8-9434-4c05-861f-edd4244aaffc"},"vehicle_type_id":"4","last_reported":1739895101,"current_range_meters":17600,"station_id":"","pricing_plan_id":"cebpf4jnsgd1na2vs0mg"},{"bike_id":"cea7a4fc-638d-4fb9-bb8a-6de1ef6b12a4","system_id":"levelo_inurba_marseille","lat":43.28468,"lon":5.35891,"is_reserved":false,"is_disabled":false,"rental_uris":{"android":"levelo://app?vid=cea7a4fc-638d-4fb9-bb8a-6de1ef6b12a4","ios":"levelo://app?vid=cea7a4fc-638d-4fb9-bb8a-6de1ef6b12a4"},"vehicle_type_id":"4","last_reported":1739895101,"current_range_meters":17600,"station_id":"ce4bhah2rcd13ifvqei0","pricing_plan_id":"cebpf4jnsgd1na2vs0mg"},{"bike_id":"eb715102-e1b0-444b-990c-d34ec49d64ad","system_id":"levelo_inurba_marseille","lat":43.24176,"lon":5.39725,"is_reserved":false,"is_disabled":false,"rental_uris":{"android":"levelo://app?vid=eb715102-e1b0-444b-990c-d34ec49d64ad","ios":"levelo://app?vid=eb715102-e1b0-444b-990c-d34ec49d64ad"},"vehicle_type_id":"4","last_reported":1739895101,"current_range_meters":17600,"station_id":"ce4bhn12rcd13ifvqgpg","pricing_plan_id":"cebpf4jnsgd1na2vs0mg"},{"bike_id":"a359ec0e-8963-44da-ab93-b4c276eaae73","system_id":"levelo_inurba_marseille","lat":43.29536,"lon":5.38552,"is_reserved":false,"is_disabled":false,"rental_uris":{"android":"levelo://app?vid=a359ec0e-8963-44da-ab93-b4c276eaae73","ios":"levelo://app?vid=a359ec0e-8963-44da-ab93-b4c276eaae73"},"vehicle_type_id":"4","last_reported":1739895101,"current_range_meters":17600,"station_id":"","pricing_plan_id":"cebpf4jnsgd1na2vs0mg"},{"bike_id":"38c9f437-02d0-463a-a42d-8bc647a31926","system_id":"levelo_inurba_marseille","lat":43.23146,"lon":5.437228,"is_reserved":false,"is_disabled":false,"rental_uris":{"android":"levelo://app?vid=38c9f437-02d0-463a-a42d-8bc647a31926","ios":"levelo://app?vid=38c9f437-02d0-463a-a42d-8bc647a31926"},"vehicle_type_id":"4","last_reported":1739895101,"current_range_meters":17600,"station_id":"ce4bhmp2rcd13ifvqgog","pricing_plan_id":"cebpf4jnsgd1na2vs0mg"},{"bike_id":"f165e2eb-4d8f-432b-b787-fd0c4121519e","system_id":"levelo_inurba_marseille","lat":43.30138,"lon":5.39871,"is_reserved":false,"is_disabled":false,"rental_uris":{"android":"levelo://app?vid=f165e2eb-4d8f-432b-b787-fd0c4121519e","ios":"levelo://app?vid=f165e2eb-4d8f-432b-b787-fd0c4121519e"},"vehicle_type_id":"4","last_reported":1739895101,"current_range_meters":17600,"station_id":"ce4bh0h2rcd13ifvqd40","pricing_plan_id":"cebpf4jnsgd1na2vs0mg"},{"bike_id":"c67fb496-8441-458a-af2d-8f07c087bdd0","system_id":"levelo_inurba_marseille","lat":43.24172,"lon":5.36426,"is_reserved":false,"is_disabled":true,"rental_uris":{"android":"levelo://app?vid=c67fb496-8441-458a-af2d-8f07c087bdd0","ios":"levelo://app?vid=c67fb496-8441-458a-af2d-8f07c087bdd0"},"vehicle_type_id":"4","last_reported":1739895101,"current_range_meters":17600,"station_id":"","pricing_plan_id":"cebpf4jnsgd1na2vs0mg"},{"bike_id":"3489563e-4657-4a9c-80eb-ba41568b3093","system_id":"levelo_inurba_marseille","lat":43.2925,"lon":5.37625,"is_reserved":false,"is_disabled":false,"rental_uris":{"android":"levelo://app?vid=3489563e-4657-4a9c-80eb-ba41568b3093","ios":"levelo://app?vid=3489563e-4657-4a9c-80eb-ba41568b3093"},"vehicle_type_id":"4","last_reported":1739895101,"current_range_meters":17600,"station_id":"ce4bgi12rcd13ifvqb80","pricing_plan_id":"cebpf4jnsgd1na2vs0mg"},{"bike_id":"043e80ab-ad4e-4777-b08c-956a535d6f43","system_id":"levelo_inurba_marseille","lat":43.25499,"lon":5.37638,"is_reserved":false,"is_disabled":false,"rental_uris":{"android":"levelo://app?vid=043e80ab-ad4e-4777-b08c-956a535d6f43","ios":"levelo://app?vid=043e80ab-ad4e-4777-b08c-956a535d6f43"},"vehicle_type_id":"4","last_reported":1739895101,"current_range_meters":17600,"station_id":"","pricing_plan_id":"cebpf4jnsgd1na2vs0mg"},{"bike_id":"ee318ccd-c697-43a6-bafd-c758274e6962","system_id":"levelo_inurba_marseille","lat":43.30335,"lon":5.40092,"is_reserved":false,"is_disabled":false,"rental_uris":{"android":"levelo://app?vid=ee318ccd-c697-43a6-bafd-c758274e6962","ios":"levelo://app?vid=ee318ccd-c697-43a6-bafd-c758274e6962"},"vehicle_type_id":"4","last_reported":1739895101,"current_range_meters":17600,"station_id":"","pricing_plan_id":"cebpf4jnsgd1na2vs0mg"},{"bike_id":"f15e80d4-ffa2-41f2-ba85-f9bb778feada","system_id":"levelo_inurba_marseille","lat":43.23156,"lon":5.43719,"is_reserved":false,"is_disabled":false,"rental_uris":{"android":"levelo://app?vid=f15e80d4-ffa2-41f2-ba85-f9bb778feada","ios":"levelo://app?vid=f15e80d4-ffa2-41f2-ba85-f9bb778feada"},"vehicle_type_id":"4","last_reported":1739895101,"current_range_meters":18000,"station_id":"ce4bhmp2rcd13ifvqgog","pricing_plan_id":"cebpf4jnsgd1na2vs0mg"},{"bike_id":"4a0e2208-2a6a-431b-aa4f-3a4cf2e132a3","system_id":"levelo_inurba_marseille","lat":43.29446,"lon":5.39736,"is_reserved":false,"is_disabled":false,"rental_uris":{"android":"levelo://app?vid=4a0e2208-2a6a-431b-aa4f-3a4cf2e132a3","ios":"levelo://app?vid=4a0e2208-2a6a-431b-aa4f-3a4cf2e132a3"},"vehicle_type_id":"4","last_reported":1739895101,"current_range_meters":18000,"station_id":"ce4bh3h2rcd13ifvqdo0","pricing_plan_id":"cebpf4jnsgd1na2vs0mg"},{"bike_id":"4c049e8c-dd47-4937-b343-0b8e81c04fa5","system_id":"levelo_inurba_marseille","lat":43.29539,"lon":5.38549,"is_reserved":false,"is_disabled":false,"rental_uris":{"android":"levelo://app?vid=4c049e8c-dd47-4937-b343-0b8e81c04fa5","ios":"levelo://app?vid=4c049e8c-dd47-4937-b343-0b8e81c04fa5"},"vehicle_type_id":"4","last_reported":1739895101,"current_range_meters":18000,"station_id":"ce4bgih2rcd13ifvqba0","pricing_plan_id":"cebpf4jnsgd1na2vs0mg"},{"bike_id":"24dd12c1-4d8a-40c0-b521-a98d2d462c41","system_id":"levelo_inurba_marseille","lat":43.24168,"lon":5.36402,"is_reserved":false,"is_disabled":false,"rental_uris":{"android":"levelo://app?vid=24dd12c1-4d8a-40c0-b521-a98d2d462c41","ios":"levelo://app?vid=24dd12c1-4d8a-40c0-b521-a98d2d462c41"},"vehicle_type_id":"4","last_reported":1739895101,"current_range_meters":18000,"station_id":"","pricing_plan_id":"cebpf4jnsgd1na2vs0mg"},{"bike_id":"f916af0f-8714-4518-adb5-98f1d3b8485a","system_id":"levelo_inurba_marseille","lat":43.281216,"lon":5.37833,"is_reserved":false,"is_disabled":false,"rental_uris":{"android":"levelo://app?vid=f916af0f-8714-4518-adb5-98f1d3b8485a","ios":"levelo://app?vid=f916af0f-8714-4518-adb5-98f1d3b8485a"},"vehicle_type_id":"4","last_reported":1739895101,"current_range_meters":18000,"station_id":"ce4bha12rcd13ifvqee0","pricing_plan_id":"cebpf4jnsgd1na2vs0mg"},{"bike_id":"69658be2-23cc-4b19-87cc-f5dc5631f739","system_id":"levelo_inurba_marseille","lat":43.246335,"lon":5.383065,"is_reserved":false,"is_disabled":false,"rental_uris":{"android":"levelo://app?vid=69658be2-23cc-4b19-87cc-f5dc5631f739","ios":"levelo://app?vid=69658be2-23cc-4b19-87cc-f5dc5631f739"},"vehicle_type_id":"4","last_reported":1739895101,"current_range_meters":17600,"station_id":"ce4bhih2rcd13ifvqfr0","pricing_plan_id":"cebpf4jnsgd1na2vs0mg"},{"bike_id":"aab56d93-547d-40cc-9ff6-b85d4684f798","system_id":"levelo_inurba_marseille","lat":43.23955,"lon":5.36635,"is_reserved":false,"is_disabled":false,"rental_uris":{"android":"levelo://app?vid=aab56d93-547d-40cc-9ff6-b85d4684f798","ios":"levelo://app?vid=aab56d93-547d-40cc-9ff6-b85d4684f798"},"vehicle_type_id":"4","last_reported":1739895101,"current_range_meters":18000,"station_id":"ce4bhi12rcd13ifvqfp0","pricing_plan_id":"cebpf4jnsgd1na2vs0mg"},{"bike_id":"45c740fe-fb44-4420-afb6-c706efded3e1","system_id":"levelo_inurba_marseille","lat":43.24804,"lon":5.37456,"is_reserved":false,"is_disabled":false,"rental_uris":{"android":"levelo://app?vid=45c740fe-fb44-4420-afb6-c706efded3e1","ios":"levelo://app?vid=45c740fe-fb44-4420-afb6-c706efded3e1"},"vehicle_type_id":"4","last_reported":1739895101,"current_range_meters":18000,"station_id":"ce4bhgh2rcd13ifvqfb0","pricing_plan_id":"cebpf4jnsgd1na2vs0mg"},{"bike_id":"178ded3a-a854-4c49-ad78-a7a972f73bf4","system_id":"levelo_inurba_marseille","lat":43.29896,"lon":5.39723,"is_reserved":false,"is_disabled":false,"rental_uris":{"android":"levelo://app?vid=178ded3a-a854-4c49-ad78-a7a972f73bf4","ios":"levelo://app?vid=178ded3a-a854-4c49-ad78-a7a972f73bf4"},"vehicle_type_id":"4","last_reported":1739895101,"current_range_meters":18000,"station_id":"","pricing_plan_id":"cebpf4jnsgd1na2vs0mg"},{"bike_id":"2148ca74-c15c-47f9-ac9c-74ef46c77830","system_id":"levelo_inurba_marseille","lat":43.30239,"lon":5.39689,"is_reserved":false,"is_disabled":false,"rental_uris":{"android":"levelo://app?vid=2148ca74-c15c-47f9-ac9c-74ef46c77830","ios":"levelo://app?vid=2148ca74-c15c-47f9-ac9c-74ef46c77830"},"vehicle_type_id":"4","last_reported":1739895101,"current_range_meters":18000,"station_id":"","pricing_plan_id":"cebpf4jnsgd1na2vs0mg"},{"bike_id":"5180f318-4948-4085-aaf1-5f3160b57dbe","system_id":"levelo_inurba_marseille","lat":43.27616,"lon":5.36111,"is_reserved":false,"is_disabled":true,"rental_uris":{"android":"levelo://app?vid=5180f318-4948-4085-aaf1-5f3160b57dbe","ios":"levelo://app?vid=5180f318-4948-4085-aaf1-5f3160b57dbe"},"vehicle_type_id":"4","last_reported":1739895101,"current_range_meters":18000,"station_id":"ce4bgj92rcd13ifvqbe0","pricing_plan_id":"cebpf4jnsgd1na2vs0mg"},{"bike_id":"5c82e76c-c993-4220-9389-670a82dd71e5","system_id":"levelo_inurba_marseille","lat":43.29267,"lon":5.38423,"is_reserved":false,"is_disabled":false,"rental_uris":{"android":"levelo://app?vid=5c82e76c-c993-4220-9389-670a82dd71e5","ios":"levelo://app?vid=5c82e76c-c993-4220-9389-670a82dd71e5"},"vehicle_type_id":"4","last_reported":1739895101,"current_range_meters":18800,"station_id":"","pricing_plan_id":"cebpf4jnsgd1na2vs0mg"},{"bike_id":"44f07d01-c561-4d41-9f1f-a552c466d474","system_id":"levelo_inurba_marseille","lat":43.30324,"lon":5.40432,"is_reserved":false,"is_disabled":false,"rental_uris":{"android":"levelo://app?vid=44f07d01-c561-4d41-9f1f-a552c466d474","ios":"levelo://app?vid=44f07d01-c561-4d41-9f1f-a552c466d474"},"vehicle_type_id":"4","last_reported":1739895101,"current_range_meters":18800,"station_id":"ce4bh012rcd13ifvqd10","pricing_plan_id":"cebpf4jnsgd1na2vs0mg"},{"bike_id":"5afb5689-6e82-492a-9526-3a2059afff44","system_id":"levelo_inurba_marseille","lat":43.30303,"lon":5.3921,"is_reserved":false,"is_disabled":false,"rental_uris":{"android":"levelo://app?vid=5afb5689-6e82-492a-9526-3a2059afff44","ios":"levelo://app?vid=5afb5689-6e82-492a-9526-3a2059afff44"},"vehicle_type_id":"4","last_reported":1739895101,"current_range_meters":18800,"station_id":"ce4bgkh2rcd13ifvqbk0","pricing_plan_id":"cebpf4jnsgd1na2vs0mg"},{"bike_id":"090d254b-7e06-4322-b664-ffb12aca0039","system_id":"levelo_inurba_marseille","lat":43.28424,"lon":5.34983,"is_reserved":false,"is_disabled":false,"rental_uris":{"android":"levelo://app?vid=090d254b-7e06-4322-b664-ffb12aca0039","ios":"levelo://app?vid=090d254b-7e06-4322-b664-ffb12aca0039"},"vehicle_type_id":"4","last_reported":1739895101,"current_range_meters":18800,"station_id":"ce4bhbh2rcd13ifvqepg","pricing_plan_id":"cebpf4jnsgd1na2vs0mg"},{"bike_id":"b768b1a6-dfb0-4283-bce3-5f90f2a7562b","system_id":"levelo_inurba_marseille","lat":43.32364,"lon":5.38883,"is_reserved":false,"is_disabled":false,"rental_uris":{"android":"levelo://app?vid=b768b1a6-dfb0-4283-bce3-5f90f2a7562b","ios":"levelo://app?vid=b768b1a6-dfb0-4283-bce3-5f90f2a7562b"},"vehicle_type_id":"4","last_reported":1739895101,"current_range_meters":18800,"station_id":"ce4bhqp2rcd13ifvqhog","pricing_plan_id":"cebpf4jnsgd1na2vs0mg"},{"bike_id":"e4322138-f66d-4507-844a-b4920fb997cf","system_id":"levelo_inurba_marseille","lat":43.28156,"lon":5.42651,"is_reserved":false,"is_disabled":false,"rental_uris":{"android":"levelo://app?vid=e4322138-f66d-4507-844a-b4920fb997cf","ios":"levelo://app?vid=e4322138-f66d-4507-844a-b4920fb997cf"},"vehicle_type_id":"4","last_reported":1739895101,"current_range_meters":18800,"station_id":"ce4bhnh2rcd13ifvqgug","pricing_plan_id":"cebpf4jnsgd1na2vs0mg"},{"bike_id":"c06f823d-83ec-4492-9914-0d8daaef92ae","system_id":"levelo_inurba_marseille","lat":43.23068,"lon":5.35496,"is_reserved":false,"is_disabled":false,"rental_uris":{"android":"levelo://app?vid=c06f823d-83ec-4492-9914-0d8daaef92ae","ios":"levelo://app?vid=c06f823d-83ec-4492-9914-0d8daaef92ae"},"vehicle_type_id":"4","last_reported":1739895101,"current_range_meters":18800,"station_id":"cpo3342slgdg3j2ifvpg","pricing_plan_id":"cebpf4jnsgd1na2vs0mg"},{"bike_id":"79d01811-2c34-4bd0-be37-f28e07e14ae0","system_id":"levelo_inurba_marseille","lat":43.27316,"lon":5.3909,"is_reserved":false,"is_disabled":false,"rental_uris":{"android":"levelo://app?vid=79d01811-2c34-4bd0-be37-f28e07e14ae0","ios":"levelo://app?vid=79d01811-2c34-4bd0-be37-f28e07e14ae0"},"vehicle_type_id":"4","last_reported":1739895101,"current_range_meters":17200,"station_id":"ce4bhgp2rcd13ifvqfe0","pricing_plan_id":"cebpf4jnsgd1na2vs0mg"},{"bike_id":"5f9ede52-c720-4107-a864-980fb2608395","system_id":"levelo_inurba_marseille","lat":43.24099,"lon":5.38655,"is_reserved":false,"is_disabled":false,"rental_uris":{"android":"levelo://app?vid=5f9ede52-c720-4107-a864-980fb2608395","ios":"levelo://app?vid=5f9ede52-c720-4107-a864-980fb2608395"},"vehicle_type_id":"4","last_reported":1739895101,"current_range_meters":19200,"station_id":"","pricing_plan_id":"cebpf4jnsgd1na2vs0mg"},{"bike_id":"f6e5d057-e543-4cc0-a786-d6f487ef0687","system_id":"levelo_inurba_marseille","lat":43.290161,"lon":5.386457,"is_reserved":false,"is_disabled":false,"rental_uris":{"android":"levelo://app?vid=f6e5d057-e543-4cc0-a786-d6f487ef0687","ios":"levelo://app?vid=f6e5d057-e543-4cc0-a786-d6f487ef0687"},"vehicle_type_id":"4","last_reported":1739895101,"current_range_meters":19200,"station_id":"","pricing_plan_id":"cebpf4jnsgd1na2vs0mg"},{"bike_id":"5089bb88-a0cd-4434-a1a9-f3d5b67361c6","system_id":"levelo_inurba_marseille","lat":43.24364,"lon":5.38763,"is_reserved":false,"is_disabled":false,"rental_uris":{"android":"levelo://app?vid=5089bb88-a0cd-4434-a1a9-f3d5b67361c6","ios":"levelo://app?vid=5089bb88-a0cd-4434-a1a9-f3d5b67361c6"},"vehicle_type_id":"4","last_reported":1739895101,"current_range_meters":19200,"station_id":"","pricing_plan_id":"cebpf4jnsgd1na2vs0mg"},{"bike_id":"9ceeab8a-4770-4188-bdb4-e55148eae0c1","system_id":"levelo_inurba_marseille","lat":43.29622,"lon":5.37156,"is_reserved":false,"is_disabled":false,"rental_uris":{"android":"levelo://app?vid=9ceeab8a-4770-4188-bdb4-e55148eae0c1","ios":"levelo://app?vid=9ceeab8a-4770-4188-bdb4-e55148eae0c1"},"vehicle_type_id":"4","last_reported":1739895101,"current_range_meters":18800,"station_id":"ce4bgnh2rcd13ifvqc0g","pricing_plan_id":"cebpf4jnsgd1na2vs0mg"},{"bike_id":"dedb5a52-33da-41b2-a38d-eed0669af09e","system_id":"levelo_inurba_marseille","lat":43.26938,"lon":5.4026,"is_reserved":false,"is_disabled":false,"rental_uris":{"android":"levelo://app?vid=dedb5a52-33da-41b2-a38d-eed0669af09e","ios":"levelo://app?vid=dedb5a52-33da-41b2-a38d-eed0669af09e"},"vehicle_type_id":"4","last_reported":1739895101,"current_range_meters":19200,"station_id":"cjm6bp8fraef2m0cb0m0","pricing_plan_id":"cebpf4jnsgd1na2vs0mg"},{"bike_id":"789d6593-bf68-40a5-819a-0b85ad0b1b2e","system_id":"levelo_inurba_marseille","lat":43.30241,"lon":5.40042,"is_reserved":false,"is_disabled":false,"rental_uris":{"android":"levelo://app?vid=789d6593-bf68-40a5-819a-0b85ad0b1b2e","ios":"levelo://app?vid=789d6593-bf68-40a5-819a-0b85ad0b1b2e"},"vehicle_type_id":"4","last_reported":1739895101,"current_range_meters":19600,"station_id":"ce4bgvh2rcd13ifvqcs0","pricing_plan_id":"cebpf4jnsgd1na2vs0mg"},{"bike_id":"2bbae053-5b74-4d7c-8618-3731dd8dc32d","system_id":"levelo_inurba_marseille","lat":43.29871,"lon":5.39731,"is_reserved":false,"is_disabled":false,"rental_uris":{"android":"levelo://app?vid=2bbae053-5b74-4d7c-8618-3731dd8dc32d","ios":"levelo://app?vid=2bbae053-5b74-4d7c-8618-3731dd8dc32d"},"vehicle_type_id":"4","last_reported":1739895101,"current_range_meters":19200,"station_id":"ce4bh0h2rcd13ifvqd50","pricing_plan_id":"cebpf4jnsgd1na2vs0mg"},{"bike_id":"b85644ed-f65a-4039-a397-da921e97276e","system_id":"levelo_inurba_marseille","lat":43.23963,"lon":5.36653,"is_reserved":false,"is_disabled":false,"rental_uris":{"android":"levelo://app?vid=b85644ed-f65a-4039-a397-da921e97276e","ios":"levelo://app?vid=b85644ed-f65a-4039-a397-da921e97276e"},"vehicle_type_id":"4","last_reported":1739895101,"current_range_meters":19600,"station_id":"ce4bhi12rcd13ifvqfp0","pricing_plan_id":"cebpf4jnsgd1na2vs0mg"},{"bike_id":"fd117894-11e5-445e-988f-6ef4bb7967b2","system_id":"levelo_inurba_marseille","lat":43.31175,"lon":5.38716,"is_reserved":false,"is_disabled":false,"rental_uris":{"android":"levelo://app?vid=fd117894-11e5-445e-988f-6ef4bb7967b2","ios":"levelo://app?vid=fd117894-11e5-445e-988f-6ef4bb7967b2"},"vehicle_type_id":"4","last_reported":1739895101,"current_range_meters":19600,"station_id":"ce4bgv12rcd13ifvqcp0","pricing_plan_id":"cebpf4jnsgd1na2vs0mg"},{"bike_id":"0c03a480-9586-4d4d-9913-473ad8391c39","system_id":"levelo_inurba_marseille","lat":43.29029,"lon":5.38648,"is_reserved":false,"is_disabled":false,"rental_uris":{"android":"levelo://app?vid=0c03a480-9586-4d4d-9913-473ad8391c39","ios":"levelo://app?vid=0c03a480-9586-4d4d-9913-473ad8391c39"},"vehicle_type_id":"4","last_reported":1739895101,"current_range_meters":19600,"station_id":"ce4bh4p2rcd13ifvqe0g","pricing_plan_id":"cebpf4jnsgd1na2vs0mg"},{"bike_id":"eba725bd-c0fc-43f7-b27a-45ddb33dfe31","system_id":"levelo_inurba_marseille","lat":43.2661,"lon":5.38966,"is_reserved":false,"is_disabled":false,"rental_uris":{"android":"levelo://app?vid=eba725bd-c0fc-43f7-b27a-45ddb33dfe31","ios":"levelo://app?vid=eba725bd-c0fc-43f7-b27a-45ddb33dfe31"},"vehicle_type_id":"4","last_reported":1739895101,"current_range_meters":19600,"station_id":"ce4bhe12rcd13ifvqf30","pricing_plan_id":"cebpf4jnsgd1na2vs0mg"},{"bike_id":"a0af3547-0f5a-4ee7-a39d-23ed992db956","system_id":"levelo_inurba_marseille","lat":43.23418,"lon":5.40452,"is_reserved":false,"is_disabled":false,"rental_uris":{"android":"levelo://app?vid=a0af3547-0f5a-4ee7-a39d-23ed992db956","ios":"levelo://app?vid=a0af3547-0f5a-4ee7-a39d-23ed992db956"},"vehicle_type_id":"4","last_reported":1739895101,"current_range_meters":19600,"station_id":"","pricing_plan_id":"cebpf4jnsgd1na2vs0mg"},{"bike_id":"9a04e0ed-efd9-46cf-b64b-8445242a629c","system_id":"levelo_inurba_marseille","lat":43.28709,"lon":5.39993,"is_reserved":false,"is_disabled":false,"rental_uris":{"android":"levelo://app?vid=9a04e0ed-efd9-46cf-b64b-8445242a629c","ios":"levelo://app?vid=9a04e0ed-efd9-46cf-b64b-8445242a629c"},"vehicle_type_id":"4","last_reported":1739895101,"current_range_meters":19200,"station_id":"ce4bho92rcd13ifvqh3g","pricing_plan_id":"cebpf4jnsgd1na2vs0mg"},{"bike_id":"b76dce8d-1605-4338-b39a-492d6e3cee3f","system_id":"levelo_inurba_marseille","lat":43.30562,"lon":5.36574,"is_reserved":false,"is_disabled":false,"rental_uris":{"android":"levelo://app?vid=b76dce8d-1605-4338-b39a-492d6e3cee3f","ios":"levelo://app?vid=b76dce8d-1605-4338-b39a-492d6e3cee3f"},"vehicle_type_id":"4","last_reported":1739895101,"current_range_meters":19600,"station_id":"","pricing_plan_id":"cebpf4jnsgd1na2vs0mg"},{"bike_id":"eb3f9f8f-eb0d-46f2-9277-99c23cd39a11","system_id":"levelo_inurba_marseille","lat":43.26039,"lon":5.37559,"is_reserved":false,"is_disabled":false,"rental_uris":{"android":"levelo://app?vid=eb3f9f8f-eb0d-46f2-9277-99c23cd39a11","ios":"levelo://app?vid=eb3f9f8f-eb0d-46f2-9277-99c23cd39a11"},"vehicle_type_id":"4","last_reported":1739895101,"current_range_meters":19600,"station_id":"ce4bhgh2rcd13ifvqfa0","pricing_plan_id":"cebpf4jnsgd1na2vs0mg"},{"bike_id":"7b5689c6-4c99-4f11-900c-92586c73ca5b","system_id":"levelo_inurba_marseille","lat":43.23964,"lon":5.36643,"is_reserved":false,"is_disabled":false,"rental_uris":{"android":"levelo://app?vid=7b5689c6-4c99-4f11-900c-92586c73ca5b","ios":"levelo://app?vid=7b5689c6-4c99-4f11-900c-92586c73ca5b"},"vehicle_type_id":"4","last_reported":1739895101,"current_range_meters":20400,"station_id":"ce4bhi12rcd13ifvqfp0","pricing_plan_id":"cebpf4jnsgd1na2vs0mg"},{"bike_id":"795aa87d-b1ab-4db7-b9ea-b54720d2d9cc","system_id":"levelo_inurba_marseille","lat":43.30197,"lon":5.36636,"is_reserved":false,"is_disabled":false,"rental_uris":{"android":"levelo://app?vid=795aa87d-b1ab-4db7-b9ea-b54720d2d9cc","ios":"levelo://app?vid=795aa87d-b1ab-4db7-b9ea-b54720d2d9cc"},"vehicle_type_id":"4","last_reported":1739895101,"current_range_meters":20400,"station_id":"ce4bgrh2rcd13ifvqc8g","pricing_plan_id":"cebpf4jnsgd1na2vs0mg"},{"bike_id":"59e16670-4257-4eea-8690-950bcc9e1dcf","system_id":"levelo_inurba_marseille","lat":43.29032,"lon":5.38662,"is_reserved":false,"is_disabled":false,"rental_uris":{"android":"levelo://app?vid=59e16670-4257-4eea-8690-950bcc9e1dcf","ios":"levelo://app?vid=59e16670-4257-4eea-8690-950bcc9e1dcf"},"vehicle_type_id":"4","last_reported":1739895101,"current_range_meters":20000,"station_id":"ce4bh4p2rcd13ifvqe0g","pricing_plan_id":"cebpf4jnsgd1na2vs0mg"},{"bike_id":"80ea6495-7afe-44b8-9580-b06f6472ed07","system_id":"levelo_inurba_marseille","lat":43.30543,"lon":5.3653,"is_reserved":false,"is_disabled":false,"rental_uris":{"android":"levelo://app?vid=80ea6495-7afe-44b8-9580-b06f6472ed07","ios":"levelo://app?vid=80ea6495-7afe-44b8-9580-b06f6472ed07"},"vehicle_type_id":"4","last_reported":1739895101,"current_range_meters":20000,"station_id":"ce4bgs12rcd13ifvqcag","pricing_plan_id":"cebpf4jnsgd1na2vs0mg"},{"bike_id":"5428c4a6-2268-45c5-aff9-a5f8e308d92b","system_id":"levelo_inurba_marseille","lat":43.30913,"lon":5.37296,"is_reserved":false,"is_disabled":false,"rental_uris":{"android":"levelo://app?vid=5428c4a6-2268-45c5-aff9-a5f8e308d92b","ios":"levelo://app?vid=5428c4a6-2268-45c5-aff9-a5f8e308d92b"},"vehicle_type_id":"4","last_reported":1739895101,"current_range_meters":20400,"station_id":"ce4bguh2rcd13ifvqckg","pricing_plan_id":"cebpf4jnsgd1na2vs0mg"},{"bike_id":"3ca880fb-be5d-41b1-9e3c-19b59ea52225","system_id":"levelo_inurba_marseille","lat":43.25502,"lon":5.37657,"is_reserved":false,"is_disabled":false,"rental_uris":{"android":"levelo://app?vid=3ca880fb-be5d-41b1-9e3c-19b59ea52225","ios":"levelo://app?vid=3ca880fb-be5d-41b1-9e3c-19b59ea52225"},"vehicle_type_id":"4","last_reported":1739895101,"current_range_meters":20400,"station_id":"ce4bhh12rcd13ifvqff0","pricing_plan_id":"cebpf4jnsgd1na2vs0mg"},{"bike_id":"ecbd6e29-5b86-41d0-a4bd-3518ee3bab53","system_id":"levelo_inurba_marseille","lat":43.24654,"lon":5.38905,"is_reserved":false,"is_disabled":false,"rental_uris":{"android":"levelo://app?vid=ecbd6e29-5b86-41d0-a4bd-3518ee3bab53","ios":"levelo://app?vid=ecbd6e29-5b86-41d0-a4bd-3518ee3bab53"},"vehicle_type_id":"4","last_reported":1739895101,"current_range_meters":20400,"station_id":"ce4bhg12rcd13ifvqf60","pricing_plan_id":"cebpf4jnsgd1na2vs0mg"},{"bike_id":"07e10bd9-bd15-456c-8603-4c7db39bca72","system_id":"levelo_inurba_marseille","lat":43.29569,"lon":5.37523,"is_reserved":false,"is_disabled":false,"rental_uris":{"android":"levelo://app?vid=07e10bd9-bd15-456c-8603-4c7db39bca72","ios":"levelo://app?vid=07e10bd9-bd15-456c-8603-4c7db39bca72"},"vehicle_type_id":"4","last_reported":1739895101,"current_range_meters":20400,"station_id":"ce4bgh92rcd13ifvqb50","pricing_plan_id":"cebpf4jnsgd1na2vs0mg"},{"bike_id":"6c695163-13d1-4682-b513-311ea8d75027","system_id":"levelo_inurba_marseille","lat":43.30881,"lon":5.37457,"is_reserved":false,"is_disabled":false,"rental_uris":{"android":"levelo://app?vid=6c695163-13d1-4682-b513-311ea8d75027","ios":"levelo://app?vid=6c695163-13d1-4682-b513-311ea8d75027"},"vehicle_type_id":"4","last_reported":1739895101,"current_range_meters":20400,"station_id":"ce4bgs12rcd13ifvqcag","pricing_plan_id":"cebpf4jnsgd1na2vs0mg"},{"bike_id":"4c9046de-4e8c-4316-97d4-69f534a2d0eb","system_id":"levelo_inurba_marseille","lat":43.28157,"lon":5.42649,"is_reserved":false,"is_disabled":false,"rental_uris":{"android":"levelo://app?vid=4c9046de-4e8c-4316-97d4-69f534a2d0eb","ios":"levelo://app?vid=4c9046de-4e8c-4316-97d4-69f534a2d0eb"},"vehicle_type_id":"4","last_reported":1739895101,"current_range_meters":20400,"station_id":"ce4bhnh2rcd13ifvqgug","pricing_plan_id":"cebpf4jnsgd1na2vs0mg"},{"bike_id":"a57d7f07-a051-4506-ba86-d488d05d142d","system_id":"levelo_inurba_marseille","lat":43.29259,"lon":5.40911,"is_reserved":false,"is_disabled":false,"rental_uris":{"android":"levelo://app?vid=a57d7f07-a051-4506-ba86-d488d05d142d","ios":"levelo://app?vid=a57d7f07-a051-4506-ba86-d488d05d142d"},"vehicle_type_id":"4","last_reported":1739895101,"current_range_meters":20400,"station_id":"ce4bh192rcd13ifvqdc0","pricing_plan_id":"cebpf4jnsgd1na2vs0mg"},{"bike_id":"70cef60c-ef61-47fe-9849-ee30446bd9a4","system_id":"levelo_inurba_marseille","lat":43.29846,"lon":5.36273,"is_reserved":false,"is_disabled":false,"rental_uris":{"android":"levelo://app?vid=70cef60c-ef61-47fe-9849-ee30446bd9a4","ios":"levelo://app?vid=70cef60c-ef61-47fe-9849-ee30446bd9a4"},"vehicle_type_id":"4","last_reported":1739895101,"current_range_meters":20400,"station_id":"ce4bgpp2rcd13ifvqc3g","pricing_plan_id":"cebpf4jnsgd1na2vs0mg"},{"bike_id":"90b7552d-9d85-458e-9e91-608ba698105c","system_id":"levelo_inurba_marseille","lat":43.30542,"lon":5.36536,"is_reserved":false,"is_disabled":false,"rental_uris":{"android":"levelo://app?vid=90b7552d-9d85-458e-9e91-608ba698105c","ios":"levelo://app?vid=90b7552d-9d85-458e-9e91-608ba698105c"},"vehicle_type_id":"4","last_reported":1739895101,"current_range_meters":20400,"station_id":"ce4bgs12rcd13ifvqcag","pricing_plan_id":"cebpf4jnsgd1na2vs0mg"},{"bike_id":"5ea51d01-2218-45e7-b09d-19dbc45671b8","system_id":"levelo_inurba_marseille","lat":43.26952,"lon":5.38643,"is_reserved":false,"is_disabled":false,"rental_uris":{"android":"levelo://app?vid=5ea51d01-2218-45e7-b09d-19dbc45671b8","ios":"levelo://app?vid=5ea51d01-2218-45e7-b09d-19dbc45671b8"},"vehicle_type_id":"4","last_reported":1739895101,"current_range_meters":20400,"station_id":"ce4bhh92rcd13ifvqfh0","pricing_plan_id":"cebpf4jnsgd1na2vs0mg"},{"bike_id":"53027e88-02d1-44a9-83e6-4944704c4b1b","system_id":"levelo_inurba_marseille","lat":43.28861,"lon":5.35856,"is_reserved":false,"is_disabled":false,"rental_uris":{"android":"levelo://app?vid=53027e88-02d1-44a9-83e6-4944704c4b1b","ios":"levelo://app?vid=53027e88-02d1-44a9-83e6-4944704c4b1b"},"vehicle_type_id":"4","last_reported":1739895101,"current_range_meters":20400,"station_id":"ce4bhb12rcd13ifvqem0","pricing_plan_id":"cebpf4jnsgd1na2vs0mg"},{"bike_id":"da9a19f2-2028-4e60-9cce-7752d60ae428","system_id":"levelo_inurba_marseille","lat":43.244,"lon":5.371,"is_reserved":false,"is_disabled":false,"rental_uris":{"android":"levelo://app?vid=da9a19f2-2028-4e60-9cce-7752d60ae428","ios":"levelo://app?vid=da9a19f2-2028-4e60-9cce-7752d60ae428"},"vehicle_type_id":"4","last_reported":1739895101,"current_range_meters":20800,"station_id":"","pricing_plan_id":"cebpf4jnsgd1na2vs0mg"},{"bike_id":"84d13e52-68f9-4dc5-bc1b-afc409821b3d","system_id":"levelo_inurba_marseille","lat":43.26579,"lon":5.37303,"is_reserved":false,"is_disabled":false,"rental_uris":{"android":"levelo://app?vid=84d13e52-68f9-4dc5-bc1b-afc409821b3d","ios":"levelo://app?vid=84d13e52-68f9-4dc5-bc1b-afc409821b3d"},"vehicle_type_id":"4","last_reported":1739895101,"current_range_meters":20800,"station_id":"ce4bhg12rcd13ifvqf70","pricing_plan_id":"cebpf4jnsgd1na2vs0mg"},{"bike_id":"1dc0c3fc-0144-4f9f-97f8-3454aedb06e5","system_id":"levelo_inurba_marseille","lat":43.24079,"lon":5.37762,"is_reserved":false,"is_disabled":false,"rental_uris":{"android":"levelo://app?vid=1dc0c3fc-0144-4f9f-97f8-3454aedb06e5","ios":"levelo://app?vid=1dc0c3fc-0144-4f9f-97f8-3454aedb06e5"},"vehicle_type_id":"4","last_reported":1739895101,"current_range_meters":20800,"station_id":"ce4bhnp2rcd13ifvqgvg","pricing_plan_id":"cebpf4jnsgd1na2vs0mg"},{"bike_id":"1f4bb896-5acf-40f6-95c6-d6a43c79a06a","system_id":"levelo_inurba_marseille","lat":43.28964,"lon":5.3784,"is_reserved":false,"is_disabled":false,"rental_uris":{"android":"levelo://app?vid=1f4bb896-5acf-40f6-95c6-d6a43c79a06a","ios":"levelo://app?vid=1f4bb896-5acf-40f6-95c6-d6a43c79a06a"},"vehicle_type_id":"4","last_reported":1739895101,"current_range_meters":20800,"station_id":"ce4bh9p2rcd13ifvqed0","pricing_plan_id":"cebpf4jnsgd1na2vs0mg"},{"bike_id":"46270b44-e8b9-4e25-893f-1f3321458104","system_id":"levelo_inurba_marseille","lat":43.30474,"lon":5.37904,"is_reserved":false,"is_disabled":false,"rental_uris":{"android":"levelo://app?vid=46270b44-e8b9-4e25-893f-1f3321458104","ios":"levelo://app?vid=46270b44-e8b9-4e25-893f-1f3321458104"},"vehicle_type_id":"4","last_reported":1739895101,"current_range_meters":20800,"station_id":"ce4bgup2rcd13ifvqcn0","pricing_plan_id":"cebpf4jnsgd1na2vs0mg"},{"bike_id":"e5e2ed65-0a50-46fd-af77-1264dac67336","system_id":"levelo_inurba_marseille","lat":43.24164,"lon":5.36418,"is_reserved":false,"is_disabled":false,"rental_uris":{"android":"levelo://app?vid=e5e2ed65-0a50-46fd-af77-1264dac67336","ios":"levelo://app?vid=e5e2ed65-0a50-46fd-af77-1264dac67336"},"vehicle_type_id":"4","last_reported":1739895101,"current_range_meters":20800,"station_id":"","pricing_plan_id":"cebpf4jnsgd1na2vs0mg"},{"bike_id":"59e829fc-f641-4555-a8e3-eb74efe02fbb","system_id":"levelo_inurba_marseille","lat":43.299011,"lon":5.383349,"is_reserved":false,"is_disabled":false,"rental_uris":{"android":"levelo://app?vid=59e829fc-f641-4555-a8e3-eb74efe02fbb","ios":"levelo://app?vid=59e829fc-f641-4555-a8e3-eb74efe02fbb"},"vehicle_type_id":"4","last_reported":1739895101,"current_range_meters":20800,"station_id":"ce4bh0p2rcd13ifvqd80","pricing_plan_id":"cebpf4jnsgd1na2vs0mg"},{"bike_id":"64914ee1-541d-439f-984e-4cc0179511cb","system_id":"levelo_inurba_marseille","lat":43.28194,"lon":5.40241,"is_reserved":false,"is_disabled":false,"rental_uris":{"android":"levelo://app?vid=64914ee1-541d-439f-984e-4cc0179511cb","ios":"levelo://app?vid=64914ee1-541d-439f-984e-4cc0179511cb"},"vehicle_type_id":"4","last_reported":1739895101,"current_range_meters":20800,"station_id":"","pricing_plan_id":"cebpf4jnsgd1na2vs0mg"},{"bike_id":"d76ccac5-3023-488b-9817-5407528b15d7","system_id":"levelo_inurba_marseille","lat":43.25585,"lon":5.38239,"is_reserved":false,"is_disabled":false,"rental_uris":{"android":"levelo://app?vid=d76ccac5-3023-488b-9817-5407528b15d7","ios":"levelo://app?vid=d76ccac5-3023-488b-9817-5407528b15d7"},"vehicle_type_id":"4","last_reported":1739895101,"current_range_meters":20800,"station_id":"ce4bhih2rcd13ifvqfs0","pricing_plan_id":"cebpf4jnsgd1na2vs0mg"},{"bike_id":"b66bd68b-b222-4d52-8129-027125421706","system_id":"levelo_inurba_marseille","lat":43.28472,"lon":5.35878,"is_reserved":false,"is_disabled":false,"rental_uris":{"android":"levelo://app?vid=b66bd68b-b222-4d52-8129-027125421706","ios":"levelo://app?vid=b66bd68b-b222-4d52-8129-027125421706"},"vehicle_type_id":"4","last_reported":1739895101,"current_range_meters":20800,"station_id":"ce4bhah2rcd13ifvqei0","pricing_plan_id":"cebpf4jnsgd1na2vs0mg"},{"bike_id":"f50d40b8-798c-4af1-b257-7ec531d6b790","system_id":"levelo_inurba_marseille","lat":43.27921,"lon":5.39584,"is_reserved":false,"is_disabled":false,"rental_uris":{"android":"levelo://app?vid=f50d40b8-798c-4af1-b257-7ec531d6b790","ios":"levelo://app?vid=f50d40b8-798c-4af1-b257-7ec531d6b790"},"vehicle_type_id":"4","last_reported":1739895101,"current_range_meters":21600,"station_id":"ce4bhf92rcd13ifvqf40","pricing_plan_id":"cebpf4jnsgd1na2vs0mg"},{"bike_id":"94ce4c1f-b676-43e1-9e28-ed9f6f6c8e2b","system_id":"levelo_inurba_marseille","lat":43.23628,"lon":5.39161,"is_reserved":false,"is_disabled":false,"rental_uris":{"android":"levelo://app?vid=94ce4c1f-b676-43e1-9e28-ed9f6f6c8e2b","ios":"levelo://app?vid=94ce4c1f-b676-43e1-9e28-ed9f6f6c8e2b"},"vehicle_type_id":"4","last_reported":1739895101,"current_range_meters":21600,"station_id":"","pricing_plan_id":"cebpf4jnsgd1na2vs0mg"},