{"last_updated":1683389238,"ttl":30,"version":"2.2","data":{"bikes":[{"bike_id":"6e052976-cb24-46a7-9842-fb130160d0d2","system_id":"levelo_inurba_marseille","lat":43.312239,"lon":5.368562,"is_reserved":false,"is_disabled":false,"rental_uris":{"android":"levelo://app?vid=6e052976-cb24-46a7-9842-fb130160d0d2","ios":"levelo://app?vid=6e052976-cb24-46a7-9842-fb130160d0d2"},"vehicle_type_id":"4","last_reported":1683389239,"current_range_meters":6000,"station_id":"ce4bgl92rcd13ifvqbq0","pricing_plan_id":"free"},{"bike_id":"9602aeca-d560-4e65-9536-cf9a7a9955f9","system_id":"levelo_inurba_marseille","lat":43.312239,"lon":5.368562,"is_reserved":false,"is_disabled":false,"rental_uris":{"android":"levelo://app?vid=9602aeca-d560-4e65-9536-cf9a7a9955f9","ios":"levelo://app?vid=9602aeca-d560-4e65-9536-cf9a7a9955f9"},"vehicle_type_id":"4","last_reported":1683389239,"current_range_meters":21600,"station_id":"ce4bgl92rcd13ifvqbq0","pricing_plan_id":"free"},{"bike_id":"caea2489-5a5d-4f00-8e78-8c319f8ed68e","system_id":"levelo_inurba_marseille","lat":43.3057,"lon":5.36553,"is_reserved":false,"is_disabled":false,"rental_uris":{"android":"levelo://app?vid=caea2489-5a5d-4f00-8e78-8c319f8ed68e","ios":"levelo://app?vid=caea2489-5a5d-4f00-8e78-8c319f8ed68e"},"vehicle_type_id":"4","last_reported":1683389239,"current_range_meters":6400,"station_id":"","pricing_plan_id":"free"},{"bike_id":"015fd752-d9cf-4ff4-b4b3-965e8049aa4b","system_id":"levelo_inurba_marseille","lat":43.305714,"lon":5.365633,"is_reserved":false,"is_disabled":false,"rental_uris":{"android":"levelo://app?vid=015fd752-d9cf-4ff4-b4b3-965e8049aa4b","ios":"levelo://app?vid=015fd752-d9cf-4ff4-b4b3-965e8049aa4b"},"vehicle_type_id":"4","last_reported":1683389239,"current_range_meters":20800,"station_id":"ce4bgs12rcd13ifvqcag","pricing_plan_id":"free"},{"bike_id":"8d4da825-b510-49eb-bca1-1f0528cd0da3","system_id":"levelo_inurba_marseille","lat":43.305368,"lon":5.367343,"is_reserved":false,"is_disabled":false,"rental_uris":{"android":"levelo://app?vid=8d4da825-b510-49eb-bca1-1f0528cd0da3","ios":"levelo://app?vid=8d4da825-b510-49eb-bca1-1f0528cd0da3"},"vehicle_type_id":"4","last_reported":1683389239,"current_range_meters":4800,"station_id":"ce4bgrp2rcd13ifvqc9g","pricing_plan_id":"free"},{"bike_id":"ec6d1739-54db-4d89-8ea3-9091cc8c99a7","system_id":"levelo_inurba_marseille","lat":43.305368,"lon":5.367343,"is_reserved":false,"is_disabled":false,"rental_uris":{"android":"levelo://app?vid=ec6d1739-54db-4d89-8ea3-9091cc8c99a7","ios":"levelo://app?vid=ec6d1739-54db-4d89-8ea3-9091cc8c99a7"},"vehicle_type_id":"4","last_reported":1683389239,"current_range_meters":14800,"station_id":"ce4bgrp2rcd13ifvqc9g","pricing_plan_id":"free"},{"bike_id":"9b9b7e1f-1786-4466-9d57-ee20e769fd44","system_id":"levelo_inurba_marseille","lat":43.305989,"lon":5.37225,"is_reserved":false,"is_disabled":false,"rental_uris":{"android":"levelo://app?vid=9b9b7e1f-1786-4466-9d57-ee20e769fd44","ios":"levelo://app?vid=9b9b7e1f-1786-4466-9d57-ee20e769fd44"},"vehicle_type_id":"4","last_reported":1683389239,"current_range_meters":6400,"station_id":"ce4bgqh2rcd13ifvqc4g","pricing_plan_id":"free"},{"bike_id":"81c9934a-3e67-4d7c-9aa8-da66500192b5","system_id":"levelo_inurba_marseille","lat":43.30461,"lon":5.37163,"is_reserved":false,"is_disabled":false,"rental_uris":{"android":"levelo://app?vid=81c9934a-3e67-4d7c-9aa8-da66500192b5","ios":"levelo://app?vid=81c9934a-3e67-4d7c-9aa8-da66500192b5"},"vehicle_type_id":"4","last_reported":1683389239,"current_range_meters":15200,"station_id":"","pricing_plan_id":"free"},{"bike_id":"2114a6b2-e574-42fa-a3ce-a7c7154196b6","system_id":"levelo_inurba_marseille","lat":43.317075,"lon":5.377367,"is_reserved":false,"is_disabled":false,"rental_uris":{"android":"levelo://app?vid=2114a6b2-e574-42fa-a3ce-a7c7154196b6","ios":"levelo://app?vid=2114a6b2-e574-42fa-a3ce-a7c7154196b6"},"vehicle_type_id":"4","last_reported":1683389239,"current_range_meters":30800,"station_id":"ce4bgth2rcd13ifvqch0","pricing_plan_id":"free"},{"bike_id":"5a1ebad7-4fa1-40e7-91f8-f01754aa2117","system_id":"levelo_inurba_marseille","lat":43.30313,"lon":5.36455,"is_reserved":false,"is_disabled":false,"rental_uris":{"android":"levelo://app?vid=5a1ebad7-4fa1-40e7-91f8-f01754aa2117","ios":"levelo://app?vid=5a1ebad7-4fa1-40e7-91f8-f01754aa2117"},"vehicle_type_id":"4","last_reported":1683389239,"current_range_meters":6400,"station_id":"","pricing_plan_id":"free"},{"bike_id":"8dea4a5a-ad07-414d-baa0-f03eacfc7963","system_id":"levelo_inurba_marseille","lat":43.30809,"lon":5.38151,"is_reserved":false,"is_disabled":false,"rental_uris":{"android":"levelo://app?vid=8dea4a5a-ad07-414d-baa0-f03eacfc7963","ios":"levelo://app?vid=8dea4a5a-ad07-414d-baa0-f03eacfc7963"},"vehicle_type_id":"4","last_reported":1683389239,"current_range_meters":0,"station_id":"ce4bgt12rcd13ifvqce0","pricing_plan_id":"free"},{"bike_id":"f283412b-bdd3-4aae-8cde-8054f7c9c747","system_id":"levelo_inurba_marseille","lat":43.31375,"lon":5.3849,"is_reserved":false,"is_disabled":false,"rental_uris":{"android":"levelo://app?vid=f283412b-bdd3-4aae-8cde-8054f7c9c747","ios":"levelo://app?vid=f283412b-bdd3-4aae-8cde-8054f7c9c747"},"vehicle_type_id":"4","last_reported":1683389239,"current_range_meters":21200,"station_id":"ce4bgt92rcd13ifvqcf0","pricing_plan_id":"free"},{"bike_id":"f6c64a9d-d5f6-48c4-8a81-960fe0f29fb2","system_id":"levelo_inurba_marseille","lat":43.3136,"lon":5.38518,"is_reserved":false,"is_disabled":false,"rental_uris":{"android":"levelo://app?vid=f6c64a9d-d5f6-48c4-8a81-960fe0f29fb2","ios":"levelo://app?vid=f6c64a9d-d5f6-48c4-8a81-960fe0f29fb2"},"vehicle_type_id":"4","last_reported":1683389239,"current_range_meters":17600,"station_id":"","pricing_plan_id":"free"},{"bike_id":"bcf12486-4d40-4884-969b-2c19f244a968","system_id":"levelo_inurba_marseille","lat":43.29892,"lon":5.36688,"is_reserved":false,"is_disabled":false,"rental_uris":{"android":"levelo://app?vid=bcf12486-4d40-4884-969b-2c19f244a968","ios":"levelo://app?vid=bcf12486-4d40-4884-969b-2c19f244a968"},"vehicle_type_id":"4","last_reported":1683389239,"current_range_meters":0,"station_id":"","pricing_plan_id":"free"},{"bike_id":"83be146d-39d7-4a24-beac-d8a655f9da1e","system_id":"levelo_inurba_marseille","lat":43.298433,"lon":5.362774,"is_reserved":false,"is_disabled":false,"rental_uris":{"android":"levelo://app?vid=83be146d-39d7-4a24-beac-d8a655f9da1e","ios":"levelo://app?vid=83be146d-39d7-4a24-beac-d8a655f9da1e"},"vehicle_type_id":"4","last_reported":1683389239,"current_range_meters":16400,"station_id":"ce4bgpp2rcd13ifvqc3g","pricing_plan_id":"free"},{"bike_id":"c628e1bd-9aec-487a-8826-139a281eba26","system_id":"levelo_inurba_marseille","lat":43.298433,"lon":5.362774,"is_reserved":false,"is_disabled":false,"rental_uris":{"android":"levelo://app?vid=c628e1bd-9aec-487a-8826-139a281eba26","ios":"levelo://app?vid=c628e1bd-9aec-487a-8826-139a281eba26"},"vehicle_type_id":"4","last_reported":1683389239,"current_range_meters":14000,"station_id":"ce4bgpp2rcd13ifvqc3g","pricing_plan_id":"free"},{"bike_id":"6ea4ff7f-ddcd-4903-98d6-6632d873c9d3","system_id":"levelo_inurba_marseille","lat":43.298433,"lon":5.362774,"is_reserved":false,"is_disabled":false,"rental_uris":{"android":"levelo://app?vid=6ea4ff7f-ddcd-4903-98d6-6632d873c9d3","ios":"levelo://app?vid=6ea4ff7f-ddcd-4903-98d6-6632d873c9d3"},"vehicle_type_id":"4","last_reported":1683389239,"current_range_meters":10800,"station_id":"ce4bgpp2rcd13ifvqc3g","pricing_plan_id":"free"},{"bike_id":"aba50e0b-5c25-48f4-bd6d-440f8726f1f3","system_id":"levelo_inurba_marseille","lat":43.3029,"lon":5.38188,"is_reserved":false,"is_disabled":false,"rental_uris":{"android":"levelo://app?vid=aba50e0b-5c25-48f4-bd6d-440f8726f1f3","ios":"levelo://app?vid=aba50e0b-5c25-48f4-bd6d-440f8726f1f3"},"vehicle_type_id":"4","last_reported":1683389239,"current_range_meters":7200,"station_id":"","pricing_plan_id":"free"},{"bike_id":"32e36373-44ed-4c2f-a5c1-c8efd422f30b","system_id":"levelo_inurba_marseille","lat":43.299243,"lon":5.374807,"is_reserved":false,"is_disabled":false,"rental_uris":{"android":"levelo://app?vid=32e36373-44ed-4c2f-a5c1-c8efd422f30b","ios":"levelo://app?vid=32e36373-44ed-4c2f-a5c1-c8efd422f30b"},"vehicle_type_id":"4","last_reported":1683389239,"current_range_meters":0,"station_id":"ce4bgjh2rcd13ifvqbg0","pricing_plan_id":"free"},{"bike_id":"ca4796a6-948e-4298-b923-30ed58d486f9","system_id":"levelo_inurba_marseille","lat":43.31168,"lon":5.38717,"is_reserved":false,"is_disabled":false,"rental_uris":{"android":"levelo://app?vid=ca4796a6-948e-4298-b923-30ed58d486f9","ios":"levelo://app?vid=ca4796a6-948e-4298-b923-30ed58d486f9"},"vehicle_type_id":"4","last_reported":1683389239,"current_range_meters":2800,"station_id":"ce4bgv12rcd13ifvqcp0","pricing_plan_id":"free"},{"bike_id":"52b71887-a87d-4712-8dc0-c7d7b1108dac","system_id":"levelo_inurba_marseille","lat":43.311722,"lon":5.387247,"is_reserved":false,"is_disabled":false,"rental_uris":{"android":"levelo://app?vid=52b71887-a87d-4712-8dc0-c7d7b1108dac","ios":"levelo://app?vid=52b71887-a87d-4712-8dc0-c7d7b1108dac"},"vehicle_type_id":"4","last_reported":1683389239,"current_range_meters":23200,"station_id":"ce4bgv12rcd13ifvqcp0","pricing_plan_id":"free"},{"bike_id":"577f473c-c731-4e3d-a3d6-0e7d05ebce53","system_id":"levelo_inurba_marseille","lat":43.299243,"lon":5.374807,"is_reserved":false,"is_disabled":false,"rental_uris":{"android":"levelo://app?vid=577f473c-c731-4e3d-a3d6-0e7d05ebce53","ios":"levelo://app?vid=577f473c-c731-4e3d-a3d6-0e7d05ebce53"},"vehicle_type_id":"4","last_reported":1683389239,"current_range_meters":10000,"station_id":"ce4bgjh2rcd13ifvqbg0","pricing_plan_id":"free"},{"bike_id":"90c5bf00-596b-4bf2-96c0-a6c40540c5c0","system_id":"levelo_inurba_marseille","lat":43.297794,"lon":5.370888,"is_reserved":false,"is_disabled":false,"rental_uris":{"android":"levelo://app?vid=90c5bf00-596b-4bf2-96c0-a6c40540c5c0","ios":"levelo://app?vid=90c5bf00-596b-4bf2-96c0-a6c40540c5c0"},"vehicle_type_id":"4","last_reported":1683389239,"current_range_meters":17600,"station_id":"ce4bgop2rcd13ifvqc1g","pricing_plan_id":"free"},{"bike_id":"cb03d0a7-8198-46ba-b8e4-07d3539f0078","system_id":"levelo_inurba_marseille","lat":43.328371,"lon":5.366912,"is_reserved":false,"is_disabled":false,"rental_uris":{"android":"levelo://app?vid=cb03d0a7-8198-46ba-b8e4-07d3539f0078","ios":"levelo://app?vid=cb03d0a7-8198-46ba-b8e4-07d3539f0078"},"vehicle_type_id":"4","last_reported":1683389239,"current_range_meters":18400,"station_id":"ce4bhs92rcd13ifvqi0g","pricing_plan_id":"free"},{"bike_id":"09054360-699d-4577-bd1c-984ceec4cb01","system_id":"levelo_inurba_marseille","lat":43.328371,"lon":5.366912,"is_reserved":false,"is_disabled":false,"rental_uris":{"android":"levelo://app?vid=09054360-699d-4577-bd1c-984ceec4cb01","ios":"levelo://app?vid=09054360-699d-4577-bd1c-984ceec4cb01"},"vehicle_type_id":"4","last_reported":1683389239,"current_range_meters":6400,"station_id":"ce4bhs92rcd13ifvqi0g","pricing_plan_id":"free"},{"bike_id":"f7058cbd-13d6-4363-8a29-3f09f8ac5d4d","system_id":"levelo_inurba_marseille","lat":43.328371,"lon":5.366912,"is_reserved":false,"is_disabled":false,"rental_uris":{"android":"levelo://app?vid=f7058cbd-13d6-4363-8a29-3f09f8ac5d4d","ios":"levelo://app?vid=f7058cbd-13d6-4363-8a29-3f09f8ac5d4d"},"vehicle_type_id":"4","last_reported":1683389239,"current_range_meters":1200,"station_id":"ce4bhs92rcd13ifvqi0g","pricing_plan_id":"free"},{"bike_id":"fa495c37-f7d4-465f-a146-0169143d7693","system_id":"levelo_inurba_marseille","lat":43.328371,"lon":5.366912,"is_reserved":false,"is_disabled":false,"rental_uris":{"android":"levelo://app?vid=fa495c37-f7d4-465f-a146-0169143d7693","ios":"levelo://app?vid=fa495c37-f7d4-465f-a146-0169143d7693"},"vehicle_type_id":"4","last_reported":1683389239,"current_range_meters":14000,"station_id":"ce4bhs92rcd13ifvqi0g","pricing_plan_id":"free"},{"bike_id":"52d79e26-030c-4211-b097-9ace811de4e4","system_id":"levelo_inurba_marseille","lat":43.31052,"lon":5.38832,"is_reserved":false,"is_disabled":false,"rental_uris":{"android":"levelo://app?vid=52d79e26-030c-4211-b097-9ace811de4e4","ios":"levelo://app?vid=52d79e26-030c-4211-b097-9ace811de4e4"},"vehicle_type_id":"4","last_reported":1683389239,"current_range_meters":26800,"station_id":"","pricing_plan_id":"free"},{"bike_id":"aafcc005-5e38-4c52-a10d-6d0f89f0012b","system_id":"levelo_inurba_marseille","lat":43.302008,"lon":5.394694,"is_reserved":false,"is_disabled":false,"rental_uris":{"android":"levelo://app?vid=aafcc005-5e38-4c52-a10d-6d0f89f0012b","ios":"levelo://app?vid=aafcc005-5e38-4c52-a10d-6d0f89f0012b"},"vehicle_type_id":"4","last_reported":1683389239,"current_range_meters":4400,"station_id":"ce4bh0p2rcd13ifvqd70","pricing_plan_id":"free"},{"bike_id":"88e498de-2678-4040-9444-72db3242089a","system_id":"levelo_inurba_marseille","lat":43.299028,"lon":5.381509,"is_reserved":false,"is_disabled":false,"rental_uris":{"android":"levelo://app?vid=88e498de-2678-4040-9444-72db3242089a","ios":"levelo://app?vid=88e498de-2678-4040-9444-72db3242089a"},"vehicle_type_id":"4","last_reported":1683389239,"current_range_meters":26000,"station_id":"ce4bgj12rcd13ifvqbc0","pricing_plan_id":"free"},{"bike_id":"c76a7372-3d91-4ad9-909f-2f26f00db560","system_id":"levelo_inurba_marseille","lat":43.317557,"lon":5.390173,"is_reserved":false,"is_disabled":false,"rental_uris":{"android":"levelo://app?vid=c76a7372-3d91-4ad9-909f-2f26f00db560","ios":"levelo://app?vid=c76a7372-3d91-4ad9-909f-2f26f00db560"},"vehicle_type_id":"4","last_reported":1683389239,"current_range_meters":28400,"station_id":"ce4bhqp2rcd13ifvqhng","pricing_plan_id":"free"},{"bike_id":"60c66c87-4ca4-4156-b8a6-eda8bd157ca4","system_id":"levelo_inurba_marseille","lat":43.317557,"lon":5.390173,"is_reserved":false,"is_disabled":false,"rental_uris":{"android":"levelo://app?vid=60c66c87-4ca4-4156-b8a6-eda8bd157ca4","ios":"levelo://app?vid=60c66c87-4ca4-4156-b8a6-eda8bd157ca4"},"vehicle_type_id":"4","last_reported":1683389239,"current_range_meters":14400,"station_id":"ce4bhqp2rcd13ifvqhng","pricing_plan_id":"free"},{"bike_id":"114bf342-1496-4a5a-bd43-1beb8894787a","system_id":"levelo_inurba_marseille","lat":43.317557,"lon":5.390173,"is_reserved":false,"is_disabled":false,"rental_uris":{"android":"levelo://app?vid=114bf342-1496-4a5a-bd43-1beb8894787a","ios":"levelo://app?vid=114bf342-1496-4a5a-bd43-1beb8894787a"},"vehicle_type_id":"4","last_reported":1683389239,"current_range_meters":24000,"station_id":"ce4bhqp2rcd13ifvqhng","pricing_plan_id":"free"},{"bike_id":"5e26388f-afcc-4ebc-9b1c-d20adac7f39a","system_id":"levelo_inurba_marseille","lat":43.317557,"lon":5.390173,"is_reserved":false,"is_disabled":false,"rental_uris":{"android":"levelo://app?vid=5e26388f-afcc-4ebc-9b1c-d20adac7f39a","ios":"levelo://app?vid=5e26388f-afcc-4ebc-9b1c-d20adac7f39a"},"vehicle_type_id":"4","last_reported":1683389239,"current_range_meters":20400,"station_id":"ce4bhqp2rcd13ifvqhng","pricing_plan_id":"free"},{"bike_id":"bfd9d9e4-a175-4b7f-96b1-46a77ad8c31b","system_id":"levelo_inurba_marseille","lat":43.304274,"lon":5.388873,"is_reserved":false,"is_disabled":false,"rental_uris":{"android":"levelo://app?vid=bfd9d9e4-a175-4b7f-96b1-46a77ad8c31b","ios":"levelo://app?vid=bfd9d9e4-a175-4b7f-96b1-46a77ad8c31b"},"vehicle_type_id":"4","last_reported":1683389239,"current_range_meters":3200,"station_id":"ce4bgk12rcd13ifvqbi0","pricing_plan_id":"free"},{"bike_id":"9ce66fd8-bb72-4808-983a-24aba58c0f26","system_id":"levelo_inurba_marseille","lat":43.304274,"lon":5.388873,"is_reserved":false,"is_disabled":false,"rental_uris":{"android":"levelo://app?vid=9ce66fd8-bb72-4808-983a-24aba58c0f26","ios":"levelo://app?vid=9ce66fd8-bb72-4808-983a-24aba58c0f26"},"vehicle_type_id":"4","last_reported":1683389239,"current_range_meters":7200,"station_id":"ce4bgk12rcd13ifvqbi0","pricing_plan_id":"free"},{"bike_id":"16ae8fb7-413d-4ad2-8aa3-6b55ba7d8f8f","system_id":"levelo_inurba_marseille","lat":43.304274,"lon":5.388873,"is_reserved":false,"is_disabled":false,"rental_uris":{"android":"levelo://app?vid=16ae8fb7-413d-4ad2-8aa3-6b55ba7d8f8f","ios":"levelo://app?vid=16ae8fb7-413d-4ad2-8aa3-6b55ba7d8f8f"},"vehicle_type_id":"4","last_reported":1683389239,"current_range_meters":7200,"station_id":"ce4bgk12rcd13ifvqbi0","pricing_plan_id":"free"},{"bike_id":"480195e9-2243-4fd1-8949-945bf413ab40","system_id":"levelo_inurba_marseille","lat":43.295279,"lon":5.375048,"is_reserved":false,"is_disabled":false,"rental_uris":{"android":"levelo://app?vid=480195e9-2243-4fd1-8949-945bf413ab40","ios":"levelo://app?vid=480195e9-2243-4fd1-8949-945bf413ab40"},"vehicle_type_id":"4","last_reported":1683389239,"current_range_meters":16800,"station_id":"ce4bgkp2rcd13ifvqbmg","pricing_plan_id":"free"},{"bike_id":"294d2fc1-a22f-48cd-afd4-8a4fed875d20","system_id":"levelo_inurba_marseille","lat":43.295279,"lon":5.375048,"is_reserved":false,"is_disabled":false,"rental_uris":{"android":"levelo://app?vid=294d2fc1-a22f-48cd-afd4-8a4fed875d20","ios":"levelo://app?vid=294d2fc1-a22f-48cd-afd4-8a4fed875d20"},"vehicle_type_id":"4","last_reported":1683389239,"current_range_meters":16400,"station_id":"ce4bgkp2rcd13ifvqbmg","pricing_plan_id":"free"},{"bike_id":"3f47e003-b9a3-43d0-944d-e58fdcfd5b08","system_id":"levelo_inurba_marseille","lat":43.299724,"lon":5.384848,"is_reserved":false,"is_disabled":false,"rental_uris":{"android":"levelo://app?vid=3f47e003-b9a3-43d0-944d-e58fdcfd5b08","ios":"levelo://app?vid=3f47e003-b9a3-43d0-944d-e58fdcfd5b08"},"vehicle_type_id":"4","last_reported":1683389239,"current_range_meters":9200,"station_id":"ce4bgj92rcd13ifvqbd0","pricing_plan_id":"free"},{"bike_id":"879c8fc2-3d6a-4db0-a7f0-c30094020205","system_id":"levelo_inurba_marseille","lat":43.299724,"lon":5.384848,"is_reserved":false,"is_disabled":false,"rental_uris":{"android":"levelo://app?vid=879c8fc2-3d6a-4db0-a7f0-c30094020205","ios":"levelo://app?vid=879c8fc2-3d6a-4db0-a7f0-c30094020205"},"vehicle_type_id":"4","last_reported":1683389239,"current_range_meters":20000,"station_id":"ce4bgj92rcd13ifvqbd0","pricing_plan_id":"free"},{"bike_id":"f0dcfd84-4222-444a-b26d-9f99a892695b","system_id":"levelo_inurba_marseille","lat":43.31453,"lon":5.39262,"is_reserved":false,"is_disabled":false,"rental_uris":{"android":"levelo://app?vid=f0dcfd84-4222-444a-b26d-9f99a892695b","ios":"levelo://app?vid=f0dcfd84-4222-444a-b26d-9f99a892695b"},"vehicle_type_id":"4","last_reported":1683389239,"current_range_meters":6800,"station_id":"","pricing_plan_id":"free"},{"bike_id":"6371d350-a17c-402a-9582-5b865b1f8668","system_id":"levelo_inurba_marseille","lat":43.29602,"lon":5.381084,"is_reserved":false,"is_disabled":false,"rental_uris":{"android":"levelo://app?vid=6371d350-a17c-402a-9582-5b865b1f8668","ios":"levelo://app?vid=6371d350-a17c-402a-9582-5b865b1f8668"},"vehicle_type_id":"4","last_reported":1683389239,"current_range_meters":19200,"station_id":"ce4bgl12rcd13ifvqbo0","pricing_plan_id":"free"},{"bike_id":"17f8cb60-7cea-4a40-8612-c2a3bccce03f","system_id":"levelo_inurba_marseille","lat":43.29275,"lon":5.36838,"is_reserved":false,"is_disabled":false,"rental_uris":{"android":"levelo://app?vid=17f8cb60-7cea-4a40-8612-c2a3bccce03f","ios":"levelo://app?vid=17f8cb60-7cea-4a40-8612-c2a3bccce03f"},"vehicle_type_id":"4","last_reported":1683389239,"current_range_meters":8000,"station_id":"ce4bhbp2rcd13ifvqesg","pricing_plan_id":"free"},{"bike_id":"a7f8855a-7ef7-4b5e-91e9-74ff39467cdd","system_id":"levelo_inurba_marseille","lat":43.29274,"lon":5.36841,"is_reserved":false,"is_disabled":false,"rental_uris":{"android":"levelo://app?vid=a7f8855a-7ef7-4b5e-91e9-74ff39467cdd","ios":"levelo://app?vid=a7f8855a-7ef7-4b5e-91e9-74ff39467cdd"},"vehicle_type_id":"4","last_reported":1683389239,"current_range_meters":19200,"station_id":"ce4bhbp2rcd13ifvqesg","pricing_plan_id":"free"},{"bike_id":"e052d056-3e29-4f8c-9e2e-6dc60c568746","system_id":"levelo_inurba_marseille","lat":43.292735,"lon":5.368464,"is_reserved":false,"is_disabled":false,"rental_uris":{"android":"levelo://app?vid=e052d056-3e29-4f8c-9e2e-6dc60c568746","ios":"levelo://app?vid=e052d056-3e29-4f8c-9e2e-6dc60c568746"},"vehicle_type_id":"4","last_reported":1683389239,"current_range_meters":0,"station_id":"ce4bhbp2rcd13ifvqesg","pricing_plan_id":"free"},{"bike_id":"190600b3-7186-4da6-82e3-739953e86569","system_id":"levelo_inurba_marseille","lat":43.29273,"lon":5.36844,"is_reserved":false,"is_disabled":false,"rental_uris":{"android":"levelo://app?vid=190600b3-7186-4da6-82e3-739953e86569","ios":"levelo://app?vid=190600b3-7186-4da6-82e3-739953e86569"},"vehicle_type_id":"4","last_reported":1683389239,"current_range_meters":9200,"station_id":"ce4bhbp2rcd13ifvqesg","pricing_plan_id":"free"},{"bike_id":"7c8d3480-315c-4fd7-a338-c387ab5bea7e","system_id":"levelo_inurba_marseille","lat":43.29272,"lon":5.36839,"is_reserved":false,"is_disabled":false,"rental_uris":{"android":"levelo://app?vid=7c8d3480-315c-4fd7-a338-c387ab5bea7e","ios":"levelo://app?vid=7c8d3480-315c-4fd7-a338-c387ab5bea7e"},"vehicle_type_id":"4","last_reported":1683389239,"current_range_meters":17200,"station_id":"ce4bhbp2rcd13ifvqesg","pricing_plan_id":"free"},{"bike_id":"374600a1-df99-4fa8-83dc-53c54c95b2d8","system_id":"levelo_inurba_marseille","lat":43.29272,"lon":5.36845,"is_reserved":false,"is_disabled":false,"rental_uris":{"android":"levelo://app?vid=374600a1-df99-4fa8-83dc-53c54c95b2d8","ios":"levelo://app?vid=374600a1-df99-4fa8-83dc-53c54c95b2d8"},"vehicle_type_id":"4","last_reported":1683389239,"current_range_meters":1600,"station_id":"ce4bhbp2rcd13ifvqesg","pricing_plan_id":"free"},{"bike_id":"75c93e87-1e59-4e22-bd67-6c844493ffef","system_id":"levelo_inurba_marseille","lat":43.292489,"lon":5.368327,"is_reserved":false,"is_disabled":false,"rental_uris":{"android":"levelo://app?vid=75c93e87-1e59-4e22-bd67-6c844493ffef","ios":"levelo://app?vid=75c93e87-1e59-4e22-bd67-6c844493ffef"},"vehicle_type_id":"4","last_reported":1683389239,"current_range_meters":1600,"station_id":"ce4bhbp2rcd13ifvqesg","pricing_plan_id":"free"},{"bike_id":"d91abc95-1e30-4fa7-971c-eb0a4c4a709b","system_id":"levelo_inurba_marseille","lat":43.29299,"lon":5.37457,"is_reserved":false,"is_disabled":false,"rental_uris":{"android":"levelo://app?vid=d91abc95-1e30-4fa7-971c-eb0a4c4a709b","ios":"levelo://app?vid=d91abc95-1e30-4fa7-971c-eb0a4c4a709b"},"vehicle_type_id":"4","last_reported":1683389239,"current_range_meters":13200,"station_id":"ce4bgi12rcd13ifvqb70","pricing_plan_id":"free"},{"bike_id":"517cb05b-058e-4dda-9b74-ae6cecfaeba5","system_id":"levelo_inurba_marseille","lat":43.302992,"lon":5.392136,"is_reserved":false,"is_disabled":false,"rental_uris":{"android":"levelo://app?vid=517cb05b-058e-4dda-9b74-ae6cecfaeba5","ios":"levelo://app?vid=517cb05b-058e-4dda-9b74-ae6cecfaeba5"},"vehicle_type_id":"4","last_reported":1683389239,"current_range_meters":19600,"station_id":"ce4bgkh2rcd13ifvqbk0","pricing_plan_id":"free"},{"bike_id":"c55981fb-0a6f-46fd-80d0-05b8bfe238ce","system_id":"levelo_inurba_marseille","lat":43.2936,"lon":5.37835,"is_reserved":false,"is_disabled":false,"rental_uris":{"android":"levelo://app?vid=c55981fb-0a6f-46fd-80d0-05b8bfe238ce","ios":"levelo://app?vid=c55981fb-0a6f-46fd-80d0-05b8bfe238ce"},"vehicle_type_id":"4","last_reported":1683389239,"current_range_meters":23200,"station_id":"ce4bgjh2rcd13ifvqbf0","pricing_plan_id":"free"},{"bike_id":"035ab396-f5fa-4bc2-a5ba-54db31dd0343","system_id":"levelo_inurba_marseille","lat":43.298764,"lon":5.388973,"is_reserved":false,"is_disabled":false,"rental_uris":{"android":"levelo://app?vid=035ab396-f5fa-4bc2-a5ba-54db31dd0343","ios":"levelo://app?vid=035ab396-f5fa-4bc2-a5ba-54db31dd0343"},"vehicle_type_id":"4","last_reported":1683389239,"current_range_meters":14800,"station_id":"ce4bh392rcd13ifvqdl0","pricing_plan_id":"free"},{"bike_id":"8a0b85e9-484d-4f58-b5dc-efdbfd4051cb","system_id":"levelo_inurba_marseille","lat":43.298764,"lon":5.388973,"is_reserved":false,"is_disabled":false,"rental_uris":{"android":"levelo://app?vid=8a0b85e9-484d-4f58-b5dc-efdbfd4051cb","ios":"levelo://app?vid=8a0b85e9-484d-4f58-b5dc-efdbfd4051cb"},"vehicle_type_id":"4","last_reported":1683389239,"current_range_meters":29600,"station_id":"ce4bh392rcd13ifvqdl0","pricing_plan_id":"free"},{"bike_id":"faab5a62-cbab-41d5-9a5f-60c32434b02a","system_id":"levelo_inurba_marseille","lat":43.29162,"lon":5.37086,"is_reserved":false,"is_disabled":false,"rental_uris":{"android":"levelo://app?vid=faab5a62-cbab-41d5-9a5f-60c32434b02a","ios":"levelo://app?vid=faab5a62-cbab-41d5-9a5f-60c32434b02a"},"vehicle_type_id":"4","last_reported":1683389239,"current_range_meters":10400,"station_id":"","pricing_plan_id":"free"},{"bike_id":"f39cc421-e9d2-4733-a8e8-17d3fa51d051","system_id":"levelo_inurba_marseille","lat":43.313291,"lon":5.396838,"is_reserved":false,"is_disabled":false,"rental_uris":{"android":"levelo://app?vid=f39cc421-e9d2-4733-a8e8-17d3fa51d051","ios":"levelo://app?vid=f39cc421-e9d2-4733-a8e8-17d3fa51d051"},"vehicle_type_id":"4","last_reported":1683389239,"current_range_meters":2400,"station_id":"ce4bgvp2rcd13ifvqcu0","pricing_plan_id":"free"},{"bike_id":"712d22f6-507d-4705-8309-8afe2cb796b3","system_id":"levelo_inurba_marseille","lat":43.313291,"lon":5.396838,"is_reserved":false,"is_disabled":false,"rental_uris":{"android":"levelo://app?vid=712d22f6-507d-4705-8309-8afe2cb796b3","ios":"levelo://app?vid=712d22f6-507d-4705-8309-8afe2cb796b3"},"vehicle_type_id":"4","last_reported":1683389239,"current_range_meters":0,"station_id":"ce4bgvp2rcd13ifvqcu0","pricing_plan_id":"free"},{"bike_id":"4c18bd08-434d-4b7e-b6d8-6e2011d5eac0","system_id":"levelo_inurba_marseille","lat":43.309038,"lon":5.396546,"is_reserved":false,"is_disabled":false,"rental_uris":{"android":"levelo://app?vid=4c18bd08-434d-4b7e-b6d8-6e2011d5eac0","ios":"levelo://app?vid=4c18bd08-434d-4b7e-b6d8-6e2011d5eac0"},"vehicle_type_id":"4","last_reported":1683389239,"current_range_meters":24800,"station_id":"ce4bh012rcd13ifvqcv0","pricing_plan_id":"free"},{"bike_id":"969a6873-a6d9-473a-a2fb-e568a7d6e76c","system_id":"levelo_inurba_marseille","lat":43.29529,"lon":5.385581,"is_reserved":false,"is_disabled":false,"rental_uris":{"android":"levelo://app?vid=969a6873-a6d9-473a-a2fb-e568a7d6e76c","ios":"levelo://app?vid=969a6873-a6d9-473a-a2fb-e568a7d6e76c"},"vehicle_type_id":"4","last_reported":1683389239,"current_range_meters":2400,"station_id":"ce4bgih2rcd13ifvqba0","pricing_plan_id":"free"},{"bike_id":"5899f221-dd55-4d79-a4cc-75f828a51420","system_id":"levelo_inurba_marseille","lat":43.29529,"lon":5.385581,"is_reserved":false,"is_disabled":false,"rental_uris":{"android":"levelo://app?vid=5899f221-dd55-4d79-a4cc-75f828a51420","ios":"levelo://app?vid=5899f221-dd55-4d79-a4cc-75f828a51420"},"vehicle_type_id":"4","last_reported":1683389239,"current_range_meters":24400,"station_id":"ce4bgih2rcd13ifvqba0","pricing_plan_id":"free"},{"bike_id":"c869a768-16fd-402b-99b6-21081725a8a3","system_id":"levelo_inurba_marseille","lat":43.29529,"lon":5.385581,"is_reserved":false,"is_disabled":false,"rental_uris":{"android":"levelo://app?vid=c869a768-16fd-402b-99b6-21081725a8a3","ios":"levelo://app?vid=c869a768-16fd-402b-99b6-21081725a8a3"},"vehicle_type_id":"4","last_reported":1683389239,"current_range_meters":21200,"station_id":"ce4bgih2rcd13ifvqba0","pricing_plan_id":"free"},{"bike_id":"b63653e0-adaf-42d3-91cf-6214ec33105f","system_id":"levelo_inurba_marseille","lat":43.290856,"lon":5.371701,"is_reserved":false,"is_disabled":false,"rental_uris":{"android":"levelo://app?vid=b63653e0-adaf-42d3-91cf-6214ec33105f","ios":"levelo://app?vid=b63653e0-adaf-42d3-91cf-6214ec33105f"},"vehicle_type_id":"4","last_reported":1683389239,"current_range_meters":21600,"station_id":"","pricing_plan_id":"free"},{"bike_id":"92cdc8a8-ceb6-4d3f-aa5a-c9a4a9a93d12","system_id":"levelo_inurba_marseille","lat":43.290779,"lon":5.371482,"is_reserved":false,"is_disabled":false,"rental_uris":{"android":"levelo://app?vid=92cdc8a8-ceb6-4d3f-aa5a-c9a4a9a93d12","ios":"levelo://app?vid=92cdc8a8-ceb6-4d3f-aa5a-c9a4a9a93d12"},"vehicle_type_id":"4","last_reported":1683389239,"current_range_meters":3600,"station_id":"ce4bh5p2rcd13ifvqe4g","pricing_plan_id":"free"},{"bike_id":"d244cb2a-c7cc-4836-a876-da17dd36b23d","system_id":"levelo_inurba_marseille","lat":43.29058,"lon":5.35913,"is_reserved":false,"is_disabled":false,"rental_uris":{"android":"levelo://app?vid=d244cb2a-c7cc-4836-a876-da17dd36b23d","ios":"levelo://app?vid=d244cb2a-c7cc-4836-a876-da17dd36b23d"},"vehicle_type_id":"4","last_reported":1683389239,"current_range_meters":2800,"station_id":"ce4bha92rcd13ifvqeg0","pricing_plan_id":"free"},{"bike_id":"f55d3dd9-48bf-4f08-a914-c59a0b449523","system_id":"levelo_inurba_marseille","lat":43.294162,"lon":5.386292,"is_reserved":false,"is_disabled":false,"rental_uris":{"android":"levelo://app?vid=f55d3dd9-48bf-4f08-a914-c59a0b449523","ios":"levelo://app?vid=f55d3dd9-48bf-4f08-a914-c59a0b449523"},"vehicle_type_id":"4","last_reported":1683389239,"current_range_meters":9600,"station_id":"ce4bh2h2rcd13ifvqdh0","pricing_plan_id":"free"},{"bike_id":"45170554-6333-44f2-93f9-4d07cfdf9f79","system_id":"levelo_inurba_marseille","lat":43.294044,"lon":5.386283,"is_reserved":false,"is_disabled":false,"rental_uris":{"android":"levelo://app?vid=45170554-6333-44f2-93f9-4d07cfdf9f79","ios":"levelo://app?vid=45170554-6333-44f2-93f9-4d07cfdf9f79"},"vehicle_type_id":"4","last_reported":1683389239,"current_range_meters":1200,"station_id":"","pricing_plan_id":"free"},{"bike_id":"a5b7ed08-79ff-45b4-9e25-0ef540e23595","system_id":"levelo_inurba_marseille","lat":43.292644,"lon":5.384257,"is_reserved":false,"is_disabled":false,"rental_uris":{"android":"levelo://app?vid=a5b7ed08-79ff-45b4-9e25-0ef540e23595","ios":"levelo://app?vid=a5b7ed08-79ff-45b4-9e25-0ef540e23595"},"vehicle_type_id":"4","last_reported":1683389239,"current_range_meters":1200,"station_id":"ce4bh692rcd13ifvqea0","pricing_plan_id":"free"},{"bike_id":"c33b2f10-8eb4-4f29-afad-55f3083fc5cd","system_id":"levelo_inurba_marseille","lat":43.292644,"lon":5.384257,"is_reserved":false,"is_disabled":false,"rental_uris":{"android":"levelo://app?vid=c33b2f10-8eb4-4f29-afad-55f3083fc5cd","ios":"levelo://app?vid=c33b2f10-8eb4-4f29-afad-55f3083fc5cd"},"vehicle_type_id":"4","last_reported":1683389239,"current_range_meters":17200,"station_id":"ce4bh692rcd13ifvqea0","pricing_plan_id":"free"},{"bike_id":"d3cf6db7-5315-4062-8416-5060d3544538","system_id":"levelo_inurba_marseille","lat":43.304296,"lon":5.397513,"is_reserved":false,"is_disabled":false,"rental_uris":{"android":"levelo://app?vid=d3cf6db7-5315-4062-8416-5060d3544538","ios":"levelo://app?vid=d3cf6db7-5315-4062-8416-5060d3544538"},"vehicle_type_id":"4","last_reported":1683389239,"current_range_meters":10400,"station_id":"ce4bh092rcd13ifvqd20","pricing_plan_id":"free"},{"bike_id":"456512de-4ec2-42b7-a889-6ebf7565a668","system_id":"levelo_inurba_marseille","lat":43.292642,"lon":5.384254,"is_reserved":false,"is_disabled":false,"rental_uris":{"android":"levelo://app?vid=456512de-4ec2-42b7-a889-6ebf7565a668","ios":"levelo://app?vid=456512de-4ec2-42b7-a889-6ebf7565a668"},"vehicle_type_id":"4","last_reported":1683389239,"current_range_meters":4000,"station_id":"ce4bh692rcd13ifvqea0","pricing_plan_id":"free"},{"bike_id":"bafbe5fc-9d9c-40b3-8d5d-9372bcd2cbfc","system_id":"levelo_inurba_marseille","lat":43.292642,"lon":5.384254,"is_reserved":false,"is_disabled":false,"rental_uris":{"android":"levelo://app?vid=bafbe5fc-9d9c-40b3-8d5d-9372bcd2cbfc","ios":"levelo://app?vid=bafbe5fc-9d9c-40b3-8d5d-9372bcd2cbfc"},"vehicle_type_id":"4","last_reported":1683389239,"current_range_meters":25600,"station_id":"ce4bh692rcd13ifvqea0","pricing_plan_id":"free"},{"bike_id":"62dbf750-356b-41cb-b865-2e34042ad794","system_id":"levelo_inurba_marseille","lat":43.292642,"lon":5.384254,"is_reserved":false,"is_disabled":false,"rental_uris":{"android":"levelo://app?vid=62dbf750-356b-41cb-b865-2e34042ad794","ios":"levelo://app?vid=62dbf750-356b-41cb-b865-2e34042ad794"},"vehicle_type_id":"4","last_reported":1683389239,"current_range_meters":8400,"station_id":"ce4bh692rcd13ifvqea0","pricing_plan_id":"free"},{"bike_id":"bfb0b3dd-214d-4dd3-bba8-564ff41457cd","system_id":"levelo_inurba_marseille","lat":43.292644,"lon":5.384257,"is_reserved":false,"is_disabled":false,"rental_uris":{"android":"levelo://app?vid=bfb0b3dd-214d-4dd3-bba8-564ff41457cd","ios":"levelo://app?vid=bfb0b3dd-214d-4dd3-bba8-564ff41457cd"},"vehicle_type_id":"4","last_reported":1683389239,"current_range_meters":18400,"station_id":"ce4bh692rcd13ifvqea0","pricing_plan_id":"free"},{"bike_id":"9993b21d-b92b-455d-bc97-303e3372131d","system_id":"levelo_inurba_marseille","lat":43.33042,"lon":5.38915,"is_reserved":false,"is_disabled":false,"rental_uris":{"android":"levelo://app?vid=9993b21d-b92b-455d-bc97-303e3372131d","ios":"levelo://app?vid=9993b21d-b92b-455d-bc97-303e3372131d"},"vehicle_type_id":"4","last_reported":1683389239,"current_range_meters":27200,"station_id":"ce4bhr92rcd13ifvqhrg","pricing_plan_id":"free"},{"bike_id":"c7d204ce-6619-491c-8812-dc4b0a6a663b","system_id":"levelo_inurba_marseille","lat":43.33041,"lon":5.38917,"is_reserved":false,"is_disabled":false,"rental_uris":{"android":"levelo://app?vid=c7d204ce-6619-491c-8812-dc4b0a6a663b","ios":"levelo://app?vid=c7d204ce-6619-491c-8812-dc4b0a6a663b"},"vehicle_type_id":"4","last_reported":1683389239,"current_range_meters":28800,"station_id":"ce4bhr92rcd13ifvqhrg","pricing_plan_id":"free"},{"bike_id":"10a8eeb7-4f93-4e8d-81bd-f27d3d4ef515","system_id":"levelo_inurba_marseille","lat":43.33041,"lon":5.38918,"is_reserved":false,"is_disabled":false,"rental_uris":{"android":"levelo://app?vid=10a8eeb7-4f93-4e8d-81bd-f27d3d4ef515","ios":"levelo://app?vid=10a8eeb7-4f93-4e8d-81bd-f27d3d4ef515"},"vehicle_type_id":"4","last_reported":1683389239,"current_range_meters":26000,"station_id":"ce4bhr92rcd13ifvqhrg","pricing_plan_id":"free"},{"bike_id":"4da2ea4c-0587-4161-8586-452f9bca890c","system_id":"levelo_inurba_marseille","lat":43.33045,"lon":5.38912,"is_reserved":false,"is_disabled":false,"rental_uris":{"android":"levelo://app?vid=4da2ea4c-0587-4161-8586-452f9bca890c","ios":"levelo://app?vid=4da2ea4c-0587-4161-8586-452f9bca890c"},"vehicle_type_id":"4","last_reported":1683389239,"current_range_meters":19200,"station_id":"ce4bhr92rcd13ifvqhrg","pricing_plan_id":"free"},{"bike_id":"d6233f8b-531d-433b-b8e9-589e3920c098","system_id":"levelo_inurba_marseille","lat":43.33044,"lon":5.38915,"is_reserved":false,"is_disabled":false,"rental_uris":{"android":"levelo://app?vid=d6233f8b-531d-433b-b8e9-589e3920c098","ios":"levelo://app?vid=d6233f8b-531d-433b-b8e9-589e3920c098"},"vehicle_type_id":"4","last_reported":1683389239,"current_range_meters":21200,"station_id":"ce4bhr92rcd13ifvqhrg","pricing_plan_id":"free"},{"bike_id":"da86836b-d020-456b-ad95-a73c452d8db8","system_id":"levelo_inurba_marseille","lat":43.33041,"lon":5.3892,"is_reserved":false,"is_disabled":false,"rental_uris":{"android":"levelo://app?vid=da86836b-d020-456b-ad95-a73c452d8db8","ios":"levelo://app?vid=da86836b-d020-456b-ad95-a73c452d8db8"},"vehicle_type_id":"4","last_reported":1683389239,"current_range_meters":24400,"station_id":"ce4bhr92rcd13ifvqhrg","pricing_plan_id":"free"},{"bike_id":"496fc879-c6a2-4335-9eab-2fdd6a6f8bf1","system_id":"levelo_inurba_marseille","lat":43.33042,"lon":5.38921,"is_reserved":false,"is_disabled":false,"rental_uris":{"android":"levelo://app?vid=496fc879-c6a2-4335-9eab-2fdd6a6f8bf1","ios":"levelo://app?vid=496fc879-c6a2-4335-9eab-2fdd6a6f8bf1"},"vehicle_type_id":"4","last_reported":1683389239,"current_range_meters":16400,"station_id":"ce4bhr92rcd13ifvqhrg","pricing_plan_id":"free"},{"bike_id":"d364d2ad-2c66-4587-a79b-ee0314a1a93f","system_id":"levelo_inurba_marseille","lat":43.33043,"lon":5.3892,"is_reserved":false,"is_disabled":false,"rental_uris":{"android":"levelo://app?vid=d364d2ad-2c66-4587-a79b-ee0314a1a93f","ios":"levelo://app?vid=d364d2ad-2c66-4587-a79b-ee0314a1a93f"},"vehicle_type_id":"4","last_reported":1683389239,"current_range_meters":16800,"station_id":"ce4bhr92rcd13ifvqhrg","pricing_plan_id":"free"},{"bike_id":"c6d8bc85-5d48-4175-a0b2-78b2152265a7","system_id":"levelo_inurba_marseille","lat":43.33044,"lon":5.3892,"is_reserved":false,"is_disabled":false,"rental_uris":{"android":"levelo://app?vid=c6d8bc85-5d48-4175-a0b2-78b2152265a7","ios":"levelo://app?vid=c6d8bc85-5d48-4175-a0b2-78b2152265a7"},"vehicle_type_id":"4","last_reported":1683389239,"current_range_meters":3600,"station_id":"ce4bhr92rcd13ifvqhrg","pricing_plan_id":"free"},{"bike_id":"fe8d863b-eaf3-4fac-9bf6-10fdde4a5bf4","system_id":"levelo_inurba_marseille","lat":43.33044,"lon":5.38921,"is_reserved":false,"is_disabled":false,"rental_uris":{"android":"levelo://app?vid=fe8d863b-eaf3-4fac-9bf6-10fdde4a5bf4","ios":"levelo://app?vid=fe8d863b-eaf3-4fac-9bf6-10fdde4a5bf4"},"vehicle_type_id":"4","last_reported":1683389239,"current_range_meters":0,"station_id":"ce4bhr92rcd13ifvqhrg","pricing_plan_id":"free"},{"bike_id":"2a4c9986-79e6-473a-9088-a22214a8de69","system_id":"levelo_inurba_marseille","lat":43.33046,"lon":5.38918,"is_reserved":false,"is_disabled":false,"rental_uris":{"android":"levelo://app?vid=2a4c9986-79e6-473a-9088-a22214a8de69","ios":"levelo://app?vid=2a4c9986-79e6-473a-9088-a22214a8de69"},"vehicle_type_id":"4","last_reported":1683389239,"current_range_meters":16000,"station_id":"ce4bhr92rcd13ifvqhrg","pricing_plan_id":"free"},{"bike_id":"8cd5e1e4-e937-439c-bf8a-43fbaac45a10","system_id":"levelo_inurba_marseille","lat":43.33046,"lon":5.38918,"is_reserved":false,"is_disabled":false,"rental_uris":{"android":"levelo://app?vid=8cd5e1e4-e937-439c-bf8a-43fbaac45a10","ios":"levelo://app?vid=8cd5e1e4-e937-439c-bf8a-43fbaac45a10"},"vehicle_type_id":"4","last_reported":1683389239,"current_range_meters":23200,"station_id":"ce4bhr92rcd13ifvqhrg","pricing_plan_id":"free"},{"bike_id":"043c0626-3c45-4864-a60b-81200d9a7d2a","system_id":"levelo_inurba_marseille","lat":43.290995,"lon":5.381361,"is_reserved":false,"is_disabled":false,"rental_uris":{"android":"levelo://app?vid=043c0626-3c45-4864-a60b-81200d9a7d2a","ios":"levelo://app?vid=043c0626-3c45-4864-a60b-81200d9a7d2a"},"vehicle_type_id":"4","last_reported":1683389239,"current_range_meters":0,"station_id":"ce4bh512rcd13ifvqe2g","pricing_plan_id":"free"},{"bike_id":"bb64dc97-6149-4a8d-9ede-c593ea95b059","system_id":"levelo_inurba_marseille","lat":43.290995,"lon":5.381361,"is_reserved":false,"is_disabled":false,"rental_uris":{"android":"levelo://app?vid=bb64dc97-6149-4a8d-9ede-c593ea95b059","ios":"levelo://app?vid=bb64dc97-6149-4a8d-9ede-c593ea95b059"},"vehicle_type_id":"4","last_reported":1683389239,"current_range_meters":20000,"station_id":"ce4bh512rcd13ifvqe2g","pricing_plan_id":"free"},{"bike_id":"276fe03b-4431-4a2c-b1e5-88809bc1c6ad","system_id":"levelo_inurba_marseille","lat":43.329815,"lon":5.391132,"is_reserved":false,"is_disabled":false,"rental_uris":{"android":"levelo://app?vid=276fe03b-4431-4a2c-b1e5-88809bc1c6ad","ios":"levelo://app?vid=276fe03b-4431-4a2c-b1e5-88809bc1c6ad"},"vehicle_type_id":"4","last_reported":1683389239,"current_range_meters":9600,"station_id":"ce4bhr92rcd13ifvqhrg","pricing_plan_id":"free"},{"bike_id":"34320fce-24bb-4291-be42-2c361aed67f0","system_id":"levelo_inurba_marseille","lat":43.33747,"lon":5.37443,"is_reserved":false,"is_disabled":false,"rental_uris":{"android":"levelo://app?vid=34320fce-24bb-4291-be42-2c361aed67f0","ios":"levelo://app?vid=34320fce-24bb-4291-be42-2c361aed67f0"},"vehicle_type_id":"4","last_reported":1683389239,"current_range_meters":24000,"station_id":"","pricing_plan_id":"free"},{"bike_id":"d1338cde-b3d1-46b1-8800-7a50c92c327c","system_id":"levelo_inurba_marseille","lat":43.3375,"lon":5.3743,"is_reserved":false,"is_disabled":false,"rental_uris":{"android":"levelo://app?vid=d1338cde-b3d1-46b1-8800-7a50c92c327c","ios":"levelo://app?vid=d1338cde-b3d1-46b1-8800-7a50c92c327c"},"vehicle_type_id":"4","last_reported":1683389239,"current_range_meters":26800,"station_id":"","pricing_plan_id":"free"},{"bike_id":"20083ae5-f09f-4d10-9758-3cdd331d6a45","system_id":"levelo_inurba_marseille","lat":43.33751,"lon":5.37462,"is_reserved":false,"is_disabled":false,"rental_uris":{"android":"levelo://app?vid=20083ae5-f09f-4d10-9758-3cdd331d6a45","ios":"levelo://app?vid=20083ae5-f09f-4d10-9758-3cdd331d6a45"},"vehicle_type_id":"4","last_reported":1683389239,"current_range_meters":15200,"station_id":"","pricing_plan_id":"free"},{"bike_id":"ab7b8dc5-9722-47e7-8a78-100d1a674f6d","system_id":"levelo_inurba_marseille","lat":43.33753,"lon":5.37475,"is_reserved":false,"is_disabled":false,"rental_uris":{"android":"levelo://app?vid=ab7b8dc5-9722-47e7-8a78-100d1a674f6d","ios":"levelo://app?vid=ab7b8dc5-9722-47e7-8a78-100d1a674f6d"},"vehicle_type_id":"4","last_reported":1683389239,"current_range_meters":6000,"station_id":"","pricing_plan_id":"free"},{"bike_id":"cc5900b6-b927-49fc-82db-4d13a3d02316","system_id":"levelo_inurba_marseille","lat":43.33752,"lon":5.37486,"is_reserved":false,"is_disabled":false,"rental_uris":{"android":"levelo://app?vid=cc5900b6-b927-49fc-82db-4d13a3d02316","ios":"levelo://app?vid=cc5900b6-b927-49fc-82db-4d13a3d02316"},"vehicle_type_id":"4","last_reported":1683389239,"current_range_meters":26000,"station_id":"","pricing_plan_id":"free"},{"bike_id":"db84b57a-c242-4d31-93f3-e9f12005c4b3","system_id":"levelo_inurba_marseille","lat":43.33762,"lon":5.37494,"is_reserved":false,"is_disabled":false,"rental_uris":{"android":"levelo://app?vid=db84b57a-c242-4d31-93f3-e9f12005c4b3","ios":"levelo://app?vid=db84b57a-c242-4d31-93f3-e9f12005c4b3"},"vehicle_type_id":"4","last_reported":1683389239,"current_range_meters":26400,"station_id":"","pricing_plan_id":"free"},{"bike_id":"b04edbb2-ed8d-4c27-ab3f-2474e184027f","system_id":"levelo_inurba_marseille","lat":43.30642,"lon":5.401031,"is_reserved":false,"is_disabled":false,"rental_uris":{"android":"levelo://app?vid=b04edbb2-ed8d-4c27-ab3f-2474e184027f","ios":"levelo://app?vid=b04edbb2-ed8d-4c27-ab3f-2474e184027f"},"vehicle_type_id":"4","last_reported":1683389239,"current_range_meters":8000,"station_id":"ce4bh112rcd13ifvqda0","pricing_plan_id":"free"},{"bike_id":"980aabda-9ff8-452e-a486-12ef9c17bc2d","system_id":"levelo_inurba_marseille","lat":43.301117,"lon":5.398795,"is_reserved":false,"is_disabled":false,"rental_uris":{"android":"levelo://app?vid=980aabda-9ff8-452e-a486-12ef9c17bc2d","ios":"levelo://app?vid=980aabda-9ff8-452e-a486-12ef9c17bc2d"},"vehicle_type_id":"4","last_reported":1683389239,"current_range_meters":18000,"station_id":"ce4bh0h2rcd13ifvqd40","pricing_plan_id":"free"},{"bike_id":"a8043314-30df-4cd5-88aa-4241d4ec9cf5","system_id":"levelo_inurba_marseille","lat":43.301117,"lon":5.398795,"is_reserved":false,"is_disabled":false,"rental_uris":{"android":"levelo://app?vid=a8043314-30df-4cd5-88aa-4241d4ec9cf5","ios":"levelo://app?vid=a8043314-30df-4cd5-88aa-4241d4ec9cf5"},"vehicle_type_id":"4","last_reported":1683389239,"current_range_meters":20000,"station_id":"ce4bh0h2rcd13ifvqd40","pricing_plan_id":"free"},{"bike_id":"c452a78d-8a25-4dac-a034-b406e8dd2a51","system_id":"levelo_inurba_marseille","lat":43.28768,"lon":5.35893,"is_reserved":false,"is_disabled":false,"rental_uris":{"android":"levelo://app?vid=c452a78d-8a25-4dac-a034-b406e8dd2a51","ios":"levelo://app?vid=c452a78d-8a25-4dac-a034-b406e8dd2a51"},"vehicle_type_id":"4","last_reported":1683389239,"current_range_meters":4400,"station_id":"","pricing_plan_id":"free"},{"bike_id":"b9cc4789-aa81-4fa7-8540-1e9ae47dfef1","system_id":"levelo_inurba_marseille","lat":43.298681,"lon":5.397225,"is_reserved":false,"is_disabled":false,"rental_uris":{"android":"levelo://app?vid=b9cc4789-aa81-4fa7-8540-1e9ae47dfef1","ios":"levelo://app?vid=b9cc4789-aa81-4fa7-8540-1e9ae47dfef1"},"vehicle_type_id":"4","last_reported":1683389239,"current_range_meters":16000,"station_id":"ce4bh0h2rcd13ifvqd50","pricing_plan_id":"free"},{"bike_id":"50f7112f-fdcd-4b7d-b262-1951b54b57f7","system_id":"levelo_inurba_marseille","lat":43.286593,"lon":5.363346,"is_reserved":false,"is_disabled":false,"rental_uris":{"android":"levelo://app?vid=50f7112f-fdcd-4b7d-b262-1951b54b57f7","ios":"levelo://app?vid=50f7112f-fdcd-4b7d-b262-1951b54b57f7"},"vehicle_type_id":"4","last_reported":1683389239,"current_range_meters":3200,"station_id":"ce4bhah2rcd13ifvqej0","pricing_plan_id":"free"},{"bike_id":"bb0487f0-fa86-4a7b-97db-764cc8592750","system_id":"levelo_inurba_marseille","lat":43.286593,"lon":5.363346,"is_reserved":false,"is_disabled":false,"rental_uris":{"android":"levelo://app?vid=bb0487f0-fa86-4a7b-97db-764cc8592750","ios":"levelo://app?vid=bb0487f0-fa86-4a7b-97db-764cc8592750"},"vehicle_type_id":"4","last_reported":1683389239,"current_range_meters":6400,"station_id":"ce4bhah2rcd13ifvqej0","pricing_plan_id":"free"},{"bike_id":"c1243141-6506-4de0-8548-a1398b6b710a","system_id":"levelo_inurba_marseille","lat":43.298681,"lon":5.397225,"is_reserved":false,"is_disabled":false,"rental_uris":{"android":"levelo://app?vid=c1243141-6506-4de0-8548-a1398b6b710a","ios":"levelo://app?vid=c1243141-6506-4de0-8548-a1398b6b710a"},"vehicle_type_id":"4","last_reported":1683389239,"current_range_meters":9200,"station_id":"ce4bh0h2rcd13ifvqd50","pricing_plan_id":"free"},{"bike_id":"bdb60ac3-059c-4e18-9fdd-2b3a65b9e957","system_id":"levelo_inurba_marseille","lat":43.298681,"lon":5.397225,"is_reserved":false,"is_disabled":false,"rental_uris":{"android":"levelo://app?vid=bdb60ac3-059c-4e18-9fdd-2b3a65b9e957","ios":"levelo://app?vid=bdb60ac3-059c-4e18-9fdd-2b3a65b9e957"},"vehicle_type_id":"4","last_reported":1683389239,"current_range_meters":22400,"station_id":"ce4bh0h2rcd13ifvqd50","pricing_plan_id":"free"},{"bike_id":"6914bdda-1ac0-41d8-ac99-208826112773","system_id":"levelo_inurba_marseille","lat":43.2953,"lon":5.39412,"is_reserved":false,"is_disabled":false,"rental_uris":{"android":"levelo://app?vid=6914bdda-1ac0-41d8-ac99-208826112773","ios":"levelo://app?vid=6914bdda-1ac0-41d8-ac99-208826112773"},"vehicle_type_id":"4","last_reported":1683389239,"current_range_meters":3200,"station_id":"ce4bh292rcd13ifvqdf0","pricing_plan_id":"free"},{"bike_id":"337c3351-3191-4cad-96c3-8b6b73e4b528","system_id":"levelo_inurba_marseille","lat":43.29518,"lon":5.39402,"is_reserved":false,"is_disabled":false,"rental_uris":{"android":"levelo://app?vid=337c3351-3191-4cad-96c3-8b6b73e4b528","ios":"levelo://app?vid=337c3351-3191-4cad-96c3-8b6b73e4b528"},"vehicle_type_id":"4","last_reported":1683389239,"current_range_meters":17200,"station_id":"ce4bh292rcd13ifvqdf0","pricing_plan_id":"free"},{"bike_id":"4d998482-866a-4698-a96c-6394b8cbf81b","system_id":"levelo_inurba_marseille","lat":43.295196,"lon":5.39397,"is_reserved":false,"is_disabled":false,"rental_uris":{"android":"levelo://app?vid=4d998482-866a-4698-a96c-6394b8cbf81b","ios":"levelo://app?vid=4d998482-866a-4698-a96c-6394b8cbf81b"},"vehicle_type_id":"4","last_reported":1683389239,"current_range_meters":20400,"station_id":"ce4bh292rcd13ifvqdf0","pricing_plan_id":"free"},{"bike_id":"53bb998f-1b2a-4cc3-ae67-ff5dd06a705c","system_id":"levelo_inurba_marseille","lat":43.290345,"lon":5.38646,"is_reserved":false,"is_disabled":false,"rental_uris":{"android":"levelo://app?vid=53bb998f-1b2a-4cc3-ae67-ff5dd06a705c","ios":"levelo://app?vid=53bb998f-1b2a-4cc3-ae67-ff5dd06a705c"},"vehicle_type_id":"4","last_reported":1683389239,"current_range_meters":7200,"station_id":"ce4bh4p2rcd13ifvqe0g","pricing_plan_id":"free"},{"bike_id":"c7e42279-7db8-4daa-a115-e13c52974eaa","system_id":"levelo_inurba_marseille","lat":43.290336,"lon":5.386425,"is_reserved":false,"is_disabled":false,"rental_uris":{"android":"levelo://app?vid=c7e42279-7db8-4daa-a115-e13c52974eaa","ios":"levelo://app?vid=c7e42279-7db8-4daa-a115-e13c52974eaa"},"vehicle_type_id":"4","last_reported":1683389239,"current_range_meters":16400,"station_id":"ce4bh4p2rcd13ifvqe0g","pricing_plan_id":"free"},{"bike_id":"93350c45-b50a-45bc-bda8-a381773e30c1","system_id":"levelo_inurba_marseille","lat":43.30773,"lon":5.40285,"is_reserved":false,"is_disabled":false,"rental_uris":{"android":"levelo://app?vid=93350c45-b50a-45bc-bda8-a381773e30c1","ios":"levelo://app?vid=93350c45-b50a-45bc-bda8-a381773e30c1"},"vehicle_type_id":"4","last_reported":1683389239,"current_range_meters":16400,"station_id":"","pricing_plan_id":"free"},{"bike_id":"fb20ed13-1ff3-4270-9e27-3e4f3e4d568c","system_id":"levelo_inurba_marseille","lat":43.290336,"lon":5.386425,"is_reserved":false,"is_disabled":false,"rental_uris":{"android":"levelo://app?vid=fb20ed13-1ff3-4270-9e27-3e4f3e4d568c","ios":"levelo://app?vid=fb20ed13-1ff3-4270-9e27-3e4f3e4d568c"},"vehicle_type_id":"4","last_reported":1683389239,"current_range_meters":9600,"station_id":"ce4bh4p2rcd13ifvqe0g","pricing_plan_id":"free"},{"bike_id":"1044aff5-3eae-45a4-bf75-b6a753a77e8b","system_id":"levelo_inurba_marseille","lat":43.286039,"lon":5.370681,"is_reserved":false,"is_disabled":false,"rental_uris":{"android":"levelo://app?vid=1044aff5-3eae-45a4-bf75-b6a753a77e8b","ios":"levelo://app?vid=1044aff5-3eae-45a4-bf75-b6a753a77e8b"},"vehicle_type_id":"4","last_reported":1683389239,"current_range_meters":3200,"station_id":"ce4bht12rcd13ifvqi60","pricing_plan_id":"free"},{"bike_id":"67302e52-9967-42f9-9b5a-17ed58b779c4","system_id":"levelo_inurba_marseille","lat":43.28609,"lon":5.37062,"is_reserved":false,"is_disabled":false,"rental_uris":{"android":"levelo://app?vid=67302e52-9967-42f9-9b5a-17ed58b779c4","ios":"levelo://app?vid=67302e52-9967-42f9-9b5a-17ed58b779c4"},"vehicle_type_id":"4","last_reported":1683389239,"current_range_meters":31200,"station_id":"ce4bht12rcd13ifvqi60","pricing_plan_id":"free"},{"bike_id":"a951bdd1-0f8c-42d3-b722-d9a5b51b7253","system_id":"levelo_inurba_marseille","lat":43.290336,"lon":5.386425,"is_reserved":false,"is_disabled":false,"rental_uris":{"android":"levelo://app?vid=a951bdd1-0f8c-42d3-b722-d9a5b51b7253","ios":"levelo://app?vid=a951bdd1-0f8c-42d3-b722-d9a5b51b7253"},"vehicle_type_id":"4","last_reported":1683389239,"current_range_meters":8800,"station_id":"ce4bh4p2rcd13ifvqe0g","pricing_plan_id":"free"},{"bike_id":"4dc1f07a-33cd-4e35-879f-88920634ea87","system_id":"levelo_inurba_marseille","lat":43.287185,"lon":5.379373,"is_reserved":false,"is_disabled":false,"rental_uris":{"android":"levelo://app?vid=4dc1f07a-33cd-4e35-879f-88920634ea87","ios":"levelo://app?vid=4dc1f07a-33cd-4e35-879f-88920634ea87"},"vehicle_type_id":"4","last_reported":1683389239,"current_range_meters":0,"station_id":"ce4bh9p2rcd13ifvqec0","pricing_plan_id":"free"},{"bike_id":"0150544c-c7a0-409b-90d1-be3f7d9d53a9","system_id":"levelo_inurba_marseille","lat":43.316517,"lon":5.404375,"is_reserved":false,"is_disabled":false,"rental_uris":{"android":"levelo://app?vid=0150544c-c7a0-409b-90d1-be3f7d9d53a9","ios":"levelo://app?vid=0150544c-c7a0-409b-90d1-be3f7d9d53a9"},"vehicle_type_id":"4","last_reported":1683389239,"current_range_meters":29600,"station_id":"ce4bh012rcd13ifvqd00","pricing_plan_id":"free"},{"bike_id":"964eb5bb-4a64-4838-b1a1-e3c8ab0358e0","system_id":"levelo_inurba_marseille","lat":43.291994,"lon":5.392907,"is_reserved":false,"is_disabled":false,"rental_uris":{"android":"levelo://app?vid=964eb5bb-4a64-4838-b1a1-e3c8ab0358e0","ios":"levelo://app?vid=964eb5bb-4a64-4838-b1a1-e3c8ab0358e0"},"vehicle_type_id":"4","last_reported":1683389239,"current_range_meters":25200,"station_id":"ce4bh192rcd13ifvqdd0","pricing_plan_id":"free"},{"bike_id":"2007a419-1d23-4c17-9722-e617fb373847","system_id":"levelo_inurba_marseille","lat":43.291994,"lon":5.392907,"is_reserved":false,"is_disabled":false,"rental_uris":{"android":"levelo://app?vid=2007a419-1d23-4c17-9722-e617fb373847","ios":"levelo://app?vid=2007a419-1d23-4c17-9722-e617fb373847"},"vehicle_type_id":"4","last_reported":1683389239,"current_range_meters":13600,"station_id":"ce4bh192rcd13ifvqdd0","pricing_plan_id":"free"},{"bike_id":"0d12133d-3726-47f3-b2b4-5945e0e79e5d","system_id":"levelo_inurba_marseille","lat":43.284538,"lon":5.358657,"is_reserved":false,"is_disabled":false,"rental_uris":{"android":"levelo://app?vid=0d12133d-3726-47f3-b2b4-5945e0e79e5d","ios":"levelo://app?vid=0d12133d-3726-47f3-b2b4-5945e0e79e5d"},"vehicle_type_id":"4","last_reported":1683389239,"current_range_meters":18800,"station_id":"ce4bhah2rcd13ifvqei0","pricing_plan_id":"free"},{"bike_id":"160bcdc8-90af-425f-8f36-08fe229593f6","system_id":"levelo_inurba_marseille","lat":43.284534,"lon":5.358662,"is_reserved":false,"is_disabled":false,"rental_uris":{"android":"levelo://app?vid=160bcdc8-90af-425f-8f36-08fe229593f6","ios":"levelo://app?vid=160bcdc8-90af-425f-8f36-08fe229593f6"},"vehicle_type_id":"4","last_reported":1683389239,"current_range_meters":0,"station_id":"ce4bhah2rcd13ifvqei0","pricing_plan_id":"free"},{"bike_id":"f5427866-bfd3-4b39-904d-82680649f8e8","system_id":"levelo_inurba_marseille","lat":43.284538,"lon":5.358657,"is_reserved":false,"is_disabled":false,"rental_uris":{"android":"levelo://app?vid=f5427866-bfd3-4b39-904d-82680649f8e8","ios":"levelo://app?vid=f5427866-bfd3-4b39-904d-82680649f8e8"},"vehicle_type_id":"4","last_reported":1683389239,"current_range_meters":0,"station_id":"ce4bhah2rcd13ifvqei0","pricing_plan_id":"free"},{"bike_id":"ad1a025e-a38f-4ab7-b47c-2d6ca981451f","system_id":"levelo_inurba_marseille","lat":43.284538,"lon":5.358657,"is_reserved":false,"is_disabled":false,"rental_uris":{"android":"levelo://app?vid=ad1a025e-a38f-4ab7-b47c-2d6ca981451f","ios":"levelo://app?vid=ad1a025e-a38f-4ab7-b47c-2d6ca981451f"},"vehicle_type_id":"4","last_reported":1683389239,"current_range_meters":17200,"station_id":"ce4bhah2rcd13ifvqei0","pricing_plan_id":"free"},{"bike_id":"7cc08887-121b-49de-b1c3-5011f07abcf3","system_id":"levelo_inurba_marseille","lat":43.284534,"lon":5.358662,"is_reserved":false,"is_disabled":false,"rental_uris":{"android":"levelo://app?vid=7cc08887-121b-49de-b1c3-5011f07abcf3","ios":"levelo://app?vid=7cc08887-121b-49de-b1c3-5011f07abcf3"},"vehicle_type_id":"4","last_reported":1683389239,"current_range_meters":5200,"station_id":"ce4bhah2rcd13ifvqei0","pricing_plan_id":"free"},{"bike_id":"d40f6121-67ee-40ee-9dd9-e1b4e7351f54","system_id":"levelo_inurba_marseille","lat":43.284538,"lon":5.358657,"is_reserved":false,"is_disabled":false,"rental_uris":{"android":"levelo://app?vid=d40f6121-67ee-40ee-9dd9-e1b4e7351f54","ios":"levelo://app?vid=d40f6121-67ee-40ee-9dd9-e1b4e7351f54"},"vehicle_type_id":"4","last_reported":1683389239,"current_range_meters":7600,"station_id":"ce4bhah2rcd13ifvqei0","pricing_plan_id":"free"},{"bike_id":"30904f45-ac3d-4830-9a77-a09e9bb12838","system_id":"levelo_inurba_marseille","lat":43.284534,"lon":5.358662,"is_reserved":false,"is_disabled":false,"rental_uris":{"android":"levelo://app?vid=30904f45-ac3d-4830-9a77-a09e9bb12838","ios":"levelo://app?vid=30904f45-ac3d-4830-9a77-a09e9bb12838"},"vehicle_type_id":"4","last_reported":1683389239,"current_range_meters":7200,"station_id":"ce4bhah2rcd13ifvqei0","pricing_plan_id":"free"},{"bike_id":"abe240d4-2b0a-487a-aa62-1799ff3ed128","system_id":"levelo_inurba_marseille","lat":43.284538,"lon":5.358657,"is_reserved":false,"is_disabled":false,"rental_uris":{"android":"levelo://app?vid=abe240d4-2b0a-487a-aa62-1799ff3ed128","ios":"levelo://app?vid=abe240d4-2b0a-487a-aa62-1799ff3ed128"},"vehicle_type_id":"4","last_reported":1683389239,"current_range_meters":4000,"station_id":"ce4bhah2rcd13ifvqei0","pricing_plan_id":"free"},{"bike_id":"38ed11c4-b673-437d-b1d2-68bd95e202db","system_id":"levelo_inurba_marseille","lat":43.284534,"lon":5.358662,"is_reserved":false,"is_disabled":false,"rental_uris":{"android":"levelo://app?vid=38ed11c4-b673-437d-b1d2-68bd95e202db","ios":"levelo://app?vid=38ed11c4-b673-437d-b1d2-68bd95e202db"},"vehicle_type_id":"4","last_reported":1683389239,"current_range_meters":12400,"station_id":"ce4bhah2rcd13ifvqei0","pricing_plan_id":"free"},{"bike_id":"075ecbe1-0792-47d2-be91-bee18babcadd","system_id":"levelo_inurba_marseille","lat":43.285856,"lon":5.350771,"is_reserved":false,"is_disabled":false,"rental_uris":{"android":"levelo://app?vid=075ecbe1-0792-47d2-be91-bee18babcadd","ios":"levelo://app?vid=075ecbe1-0792-47d2-be91-bee18babcadd"},"vehicle_type_id":"4","last_reported":1683389239,"current_range_meters":0,"station_id":"ce4bhch2rcd13ifvqeug","pricing_plan_id":"free"},{"bike_id":"14f32d93-17db-462f-8e4e-663eba488c54","system_id":"levelo_inurba_marseille","lat":43.286595,"lon":5.386795,"is_reserved":false,"is_disabled":false,"rental_uris":{"android":"levelo://app?vid=14f32d93-17db-462f-8e4e-663eba488c54","ios":"levelo://app?vid=14f32d93-17db-462f-8e4e-663eba488c54"},"vehicle_type_id":"4","last_reported":1683389239,"current_range_meters":21600,"station_id":"ce4bh492rcd13ifvqdug","pricing_plan_id":"free"},{"bike_id":"3ee5e80a-e8f9-4ed3-a79f-36437fad95e6","system_id":"levelo_inurba_marseille","lat":43.286595,"lon":5.386795,"is_reserved":false,"is_disabled":false,"rental_uris":{"android":"levelo://app?vid=3ee5e80a-e8f9-4ed3-a79f-36437fad95e6","ios":"levelo://app?vid=3ee5e80a-e8f9-4ed3-a79f-36437fad95e6"},"vehicle_type_id":"4","last_reported":1683389239,"current_range_meters":0,"station_id":"ce4bh492rcd13ifvqdug","pricing_plan_id":"free"},{"bike_id":"9d15d15c-61cc-4e44-9fdd-13284d8c4606","system_id":"levelo_inurba_marseille","lat":43.337168,"lon":5.391825,"is_reserved":false,"is_disabled":false,"rental_uris":{"android":"levelo://app?vid=9d15d15c-61cc-4e44-9fdd-13284d8c4606","ios":"levelo://app?vid=9d15d15c-61cc-4e44-9fdd-13284d8c4606"},"vehicle_type_id":"4","last_reported":1683389239,"current_range_meters":30800,"station_id":"ce4bhr92rcd13ifvqhsg","pricing_plan_id":"free"},{"bike_id":"27865f6e-c046-4416-9233-48156b6bae2c","system_id":"levelo_inurba_marseille","lat":43.337168,"lon":5.391825,"is_reserved":false,"is_disabled":false,"rental_uris":{"android":"levelo://app?vid=27865f6e-c046-4416-9233-48156b6bae2c","ios":"levelo://app?vid=27865f6e-c046-4416-9233-48156b6bae2c"},"vehicle_type_id":"4","last_reported":1683389239,"current_range_meters":26800,"station_id":"ce4bhr92rcd13ifvqhsg","pricing_plan_id":"free"},{"bike_id":"bff45db0-8068-4648-ad77-86c507a1b75d","system_id":"levelo_inurba_marseille","lat":43.33717,"lon":5.391857,"is_reserved":false,"is_disabled":false,"rental_uris":{"android":"levelo://app?vid=bff45db0-8068-4648-ad77-86c507a1b75d","ios":"levelo://app?vid=bff45db0-8068-4648-ad77-86c507a1b75d"},"vehicle_type_id":"4","last_reported":1683389239,"current_range_meters":9600,"station_id":"ce4bhr92rcd13ifvqhsg","pricing_plan_id":"free"},{"bike_id":"e1c21658-38b6-4599-8770-7a5e72b09fbf","system_id":"levelo_inurba_marseille","lat":43.323464,"lon":5.406297,"is_reserved":false,"is_disabled":false,"rental_uris":{"android":"levelo://app?vid=e1c21658-38b6-4599-8770-7a5e72b09fbf","ios":"levelo://app?vid=e1c21658-38b6-4599-8770-7a5e72b09fbf"},"vehicle_type_id":"4","last_reported":1683389239,"current_range_meters":25600,"station_id":"ce4bhq92rcd13ifvqhjg","pricing_plan_id":"free"},{"bike_id":"c9c4f49a-801c-4a26-8233-f9fb4c97e2ff","system_id":"levelo_inurba_marseille","lat":43.33717,"lon":5.391857,"is_reserved":false,"is_disabled":false,"rental_uris":{"android":"levelo://app?vid=c9c4f49a-801c-4a26-8233-f9fb4c97e2ff","ios":"levelo://app?vid=c9c4f49a-801c-4a26-8233-f9fb4c97e2ff"},"vehicle_type_id":"4","last_reported":1683389239,"current_range_meters":4800,"station_id":"ce4bhr92rcd13ifvqhsg","pricing_plan_id":"free"},{"bike_id":"f6fae6a8-6de7-4b64-80a2-202e07d90cfd","system_id":"levelo_inurba_marseille","lat":43.32343,"lon":5.40625,"is_reserved":false,"is_disabled":false,"rental_uris":{"android":"levelo://app?vid=f6fae6a8-6de7-4b64-80a2-202e07d90cfd","ios":"levelo://app?vid=f6fae6a8-6de7-4b64-80a2-202e07d90cfd"},"vehicle_type_id":"4","last_reported":1683389239,"current_range_meters":31200,"station_id":"ce4bhq92rcd13ifvqhjg","pricing_plan_id":"free"},{"bike_id":"87cdbdb0-ef85-4465-b122-ffe020f846fe","system_id":"levelo_inurba_marseille","lat":43.284787,"lon":5.384116,"is_reserved":false,"is_disabled":false,"rental_uris":{"android":"levelo://app?vid=87cdbdb0-ef85-4465-b122-ffe020f846fe","ios":"levelo://app?vid=87cdbdb0-ef85-4465-b122-ffe020f846fe"},"vehicle_type_id":"4","last_reported":1683389239,"current_range_meters":14400,"station_id":"ce4bh512rcd13ifvqe3g","pricing_plan_id":"free"},{"bike_id":"c51f6c68-ba97-4972-9efa-5a4259640b97","system_id":"levelo_inurba_marseille","lat":43.284793,"lon":5.384113,"is_reserved":false,"is_disabled":false,"rental_uris":{"android":"levelo://app?vid=c51f6c68-ba97-4972-9efa-5a4259640b97","ios":"levelo://app?vid=c51f6c68-ba97-4972-9efa-5a4259640b97"},"vehicle_type_id":"4","last_reported":1683389239,"current_range_meters":3600,"station_id":"ce4bh512rcd13ifvqe3g","pricing_plan_id":"free"},{"bike_id":"fdcb4a8d-1657-4f46-acf5-cfb938ee87d3","system_id":"levelo_inurba_marseille","lat":43.284787,"lon":5.384116,"is_reserved":false,"is_disabled":false,"rental_uris":{"android":"levelo://app?vid=fdcb4a8d-1657-4f46-acf5-cfb938ee87d3","ios":"levelo://app?vid=fdcb4a8d-1657-4f46-acf5-cfb938ee87d3"},"vehicle_type_id":"4","last_reported":1683389239,"current_range_meters":20400,"station_id":"ce4bh512rcd13ifvqe3g","pricing_plan_id":"free"},{"bike_id":"d6948d50-05d6-40a9-8d46-0b1c21419992","system_id":"levelo_inurba_marseille","lat":43.28478,"lon":5.38411,"is_reserved":false,"is_disabled":false,"rental_uris":{"android":"levelo://app?vid=d6948d50-05d6-40a9-8d46-0b1c21419992","ios":"levelo://app?vid=d6948d50-05d6-40a9-8d46-0b1c21419992"},"vehicle_type_id":"4","last_reported":1683389239,"current_range_meters":0,"station_id":"ce4bh512rcd13ifvqe3g","pricing_plan_id":"free"},{"bike_id":"1ee79f2e-479f-4f89-b986-254a13252437","system_id":"levelo_inurba_marseille","lat":43.284787,"lon":5.384116,"is_reserved":false,"is_disabled":false,"rental_uris":{"android":"levelo://app?vid=1ee79f2e-479f-4f89-b986-254a13252437","ios":"levelo://app?vid=1ee79f2e-479f-4f89-b986-254a13252437"},"vehicle_type_id":"4","last_reported":1683389239,"current_range_meters":20400,"station_id":"ce4bh512rcd13ifvqe3g","pricing_plan_id":"free"},{"bike_id":"ad3cdfdb-0864-4cce-8a5d-05a05de94244","system_id":"levelo_inurba_marseille","lat":43.30079,"lon":5.40572,"is_reserved":false,"is_disabled":false,"rental_uris":{"android":"levelo://app?vid=ad3cdfdb-0864-4cce-8a5d-05a05de94244","ios":"levelo://app?vid=ad3cdfdb-0864-4cce-8a5d-05a05de94244"},"vehicle_type_id":"4","last_reported":1683389239,"current_range_meters":20000,"station_id":"","pricing_plan_id":"free"},{"bike_id":"bfbe963d-86f0-49f4-bb1e-241d86744ed4","system_id":"levelo_inurba_marseille","lat":43.284787,"lon":5.384116,"is_reserved":false,"is_disabled":false,"rental_uris":{"android":"levelo://app?vid=bfbe963d-86f0-49f4-bb1e-241d86744ed4","ios":"levelo://app?vid=bfbe963d-86f0-49f4-bb1e-241d86744ed4"},"vehicle_type_id":"4","last_reported":1683389239,"current_range_meters":0,"station_id":"ce4bh512rcd13ifvqe3g","pricing_plan_id":"free"},{"bike_id":"b8ccecdb-97f8-47a5-b9d4-774336753b74","system_id":"levelo_inurba_marseille","lat":43.284787,"lon":5.384116,"is_reserved":false,"is_disabled":false,"rental_uris":{"android":"levelo://app?vid=b8ccecdb-97f8-47a5-b9d4-774336753b74","ios":"levelo://app?vid=b8ccecdb-97f8-47a5-b9d4-774336753b74"},"vehicle_type_id":"4","last_reported":1683389239,"current_range_meters":17200,"station_id":"ce4bh512rcd13ifvqe3g","pricing_plan_id":"free"},{"bike_id":"3e484cb1-9936-4a8b-9372-6d08ab219bbe","system_id":"levelo_inurba_marseille","lat":43.284787,"lon":5.384116,"is_reserved":false,"is_disabled":false,"rental_uris":{"android":"levelo://app?vid=3e484cb1-9936-4a8b-9372-6d08ab219bbe","ios":"levelo://app?vid=3e484cb1-9936-4a8b-9372-6d08ab219bbe"},"vehicle_type_id":"4","last_reported":1683389239,"current_range_meters":9600,"station_id":"ce4bh512rcd13ifvqe3g","pricing_plan_id":"free"},{"bike_id":"1b85cd22-1415-49a9-9f4d-255f1e8a1260","system_id":"levelo_inurba_marseille","lat":43.284219,"lon":5.3497,"is_reserved":false,"is_disabled":false,"rental_uris":{"android":"levelo://app?vid=1b85cd22-1415-49a9-9f4d-255f1e8a1260","ios":"levelo://app?vid=1b85cd22-1415-49a9-9f4d-255f1e8a1260"},"vehicle_type_id":"4","last_reported":1683389239,"current_range_meters":16400,"station_id":"ce4bhbh2rcd13ifvqepg","pricing_plan_id":"free"},{"bike_id":"30fcb283-2802-4702-8b67-e6ff0d2ddf11","system_id":"levelo_inurba_marseille","lat":43.284217,"lon":5.349697,"is_reserved":false,"is_disabled":false,"rental_uris":{"android":"levelo://app?vid=30fcb283-2802-4702-8b67-e6ff0d2ddf11","ios":"levelo://app?vid=30fcb283-2802-4702-8b67-e6ff0d2ddf11"},"vehicle_type_id":"4","last_reported":1683389239,"current_range_meters":20800,"station_id":"ce4bhbh2rcd13ifvqepg","pricing_plan_id":"free"},{"bike_id":"9d696162-a417-4141-8951-243305fcdd01","system_id":"levelo_inurba_marseille","lat":43.284219,"lon":5.3497,"is_reserved":false,"is_disabled":false,"rental_uris":{"android":"levelo://app?vid=9d696162-a417-4141-8951-243305fcdd01","ios":"levelo://app?vid=9d696162-a417-4141-8951-243305fcdd01"},"vehicle_type_id":"4","last_reported":1683389239,"current_range_meters":12000,"station_id":"ce4bhbh2rcd13ifvqepg","pricing_plan_id":"free"},{"bike_id":"c0a56788-9ced-4c80-85d7-004fd0f56f5c","system_id":"levelo_inurba_marseille","lat":43.284219,"lon":5.3497,"is_reserved":false,"is_disabled":false,"rental_uris":{"android":"levelo://app?vid=c0a56788-9ced-4c80-85d7-004fd0f56f5c","ios":"levelo://app?vid=c0a56788-9ced-4c80-85d7-004fd0f56f5c"},"vehicle_type_id":"4","last_reported":1683389239,"current_range_meters":20400,"station_id":"ce4bhbh2rcd13ifvqepg","pricing_plan_id":"free"},{"bike_id":"fbadce77-2f26-4d87-865a-366e6b325e4a","system_id":"levelo_inurba_marseille","lat":43.284219,"lon":5.3497,"is_reserved":false,"is_disabled":false,"rental_uris":{"android":"levelo://app?vid=fbadce77-2f26-4d87-865a-366e6b325e4a","ios":"levelo://app?vid=fbadce77-2f26-4d87-865a-366e6b325e4a"},"vehicle_type_id":"4","last_reported":1683389239,"current_range_meters":11600,"station_id":"ce4bhbh2rcd13ifvqepg","pricing_plan_id":"free"},{"bike_id":"03ed9e86-02cd-48cc-97f2-c357df2810b2","system_id":"levelo_inurba_marseille","lat":43.28424,"lon":5.34994,"is_reserved":false,"is_disabled":false,"rental_uris":{"android":"levelo://app?vid=03ed9e86-02cd-48cc-97f2-c357df2810b2","ios":"levelo://app?vid=03ed9e86-02cd-48cc-97f2-c357df2810b2"},"vehicle_type_id":"4","last_reported":1683389239,"current_range_meters":12000,"station_id":"ce4bhbh2rcd13ifvqepg","pricing_plan_id":"free"},{"bike_id":"4a6af45b-f8f5-4acd-b478-a36d7c9b86ca","system_id":"levelo_inurba_marseille","lat":43.284217,"lon":5.349697,"is_reserved":false,"is_disabled":false,"rental_uris":{"android":"levelo://app?vid=4a6af45b-f8f5-4acd-b478-a36d7c9b86ca","ios":"levelo://app?vid=4a6af45b-f8f5-4acd-b478-a36d7c9b86ca"},"vehicle_type_id":"4","last_reported":1683389239,"current_range_meters":21600,"station_id":"ce4bhbh2rcd13ifvqepg","pricing_plan_id":"free"},{"bike_id":"8547291d-c29a-4423-8db5-b76d88096b7a","system_id":"levelo_inurba_marseille","lat":43.284219,"lon":5.3497,"is_reserved":false,"is_disabled":false,"rental_uris":{"android":"levelo://app?vid=8547291d-c29a-4423-8db5-b76d88096b7a","ios":"levelo://app?vid=8547291d-c29a-4423-8db5-b76d88096b7a"},"vehicle_type_id":"4","last_reported":1683389239,"current_range_meters":20800,"station_id":"ce4bhbh2rcd13ifvqepg","pricing_plan_id":"free"},{"bike_id":"c3388586-ebf9-490c-a31e-ecfe1a8cea07","system_id":"levelo_inurba_marseille","lat":43.284217,"lon":5.349697,"is_reserved":false,"is_disabled":false,"rental_uris":{"android":"levelo://app?vid=c3388586-ebf9-490c-a31e-ecfe1a8cea07","ios":"levelo://app?vid=c3388586-ebf9-490c-a31e-ecfe1a8cea07"},"vehicle_type_id":"4","last_reported":1683389239,"current_range_meters":0,"station_id":"ce4bhbh2rcd13ifvqepg","pricing_plan_id":"free"},{"bike_id":"b5e8c6b4-9504-48fa-92ab-da463b3a5774","system_id":"levelo_inurba_marseille","lat":43.284219,"lon":5.3497,"is_reserved":false,"is_disabled":false,"rental_uris":{"android":"levelo://app?vid=b5e8c6b4-9504-48fa-92ab-da463b3a5774","ios":"levelo://app?vid=b5e8c6b4-9504-48fa-92ab-da463b3a5774"},"vehicle_type_id":"4","last_reported":1683389239,"current_range_meters":19600,"station_id":"ce4bhbh2rcd13ifvqepg","pricing_plan_id":"free"},{"bike_id":"b1990d21-cd8d-4eaf-a19d-7506fd77b31d","system_id":"levelo_inurba_marseille","lat":43.284217,"lon":5.349697,"is_reserved":false,"is_disabled":false,"rental_uris":{"android":"levelo://app?vid=b1990d21-cd8d-4eaf-a19d-7506fd77b31d","ios":"levelo://app?vid=b1990d21-cd8d-4eaf-a19d-7506fd77b31d"},"vehicle_type_id":"4","last_reported":1683389239,"current_range_meters":0,"station_id":"ce4bhbh2rcd13ifvqepg","pricing_plan_id":"free"},{"bike_id":"fcd07d6c-bcab-442c-b57b-92faca246ce0","system_id":"levelo_inurba_marseille","lat":43.28419,"lon":5.34986,"is_reserved":false,"is_disabled":false,"rental_uris":{"android":"levelo://app?vid=fcd07d6c-bcab-442c-b57b-92faca246ce0","ios":"levelo://app?vid=fcd07d6c-bcab-442c-b57b-92faca246ce0"},"vehicle_type_id":"4","last_reported":1683389239,"current_range_meters":22400,"station_id":"ce4bhbh2rcd13ifvqepg","pricing_plan_id":"free"},{"bike_id":"e8e5e8e9-d421-458a-8347-b3280a31fc11","system_id":"levelo_inurba_marseille","lat":43.2842,"lon":5.34981,"is_reserved":false,"is_disabled":false,"rental_uris":{"android":"levelo://app?vid=e8e5e8e9-d421-458a-8347-b3280a31fc11","ios":"levelo://app?vid=e8e5e8e9-d421-458a-8347-b3280a31fc11"},"vehicle_type_id":"4","last_reported":1683389239,"current_range_meters":31600,"station_id":"ce4bhbh2rcd13ifvqepg","pricing_plan_id":"free"},{"bike_id":"267c37a1-0622-4227-aee6-be2cd8850559","system_id":"levelo_inurba_marseille","lat":43.284219,"lon":5.3497,"is_reserved":false,"is_disabled":false,"rental_uris":{"android":"levelo://app?vid=267c37a1-0622-4227-aee6-be2cd8850559","ios":"levelo://app?vid=267c37a1-0622-4227-aee6-be2cd8850559"},"vehicle_type_id":"4","last_reported":1683389239,"current_range_meters":22800,"station_id":"ce4bhbh2rcd13ifvqepg","pricing_plan_id":"free"},{"bike_id":"abdeba67-8ec6-4c41-9536-c0aaf0a1094d","system_id":"levelo_inurba_marseille","lat":43.284219,"lon":5.3497,"is_reserved":false,"is_disabled":false,"rental_uris":{"android":"levelo://app?vid=abdeba67-8ec6-4c41-9536-c0aaf0a1094d","ios":"levelo://app?vid=abdeba67-8ec6-4c41-9536-c0aaf0a1094d"},"vehicle_type_id":"4","last_reported":1683389239,"current_range_meters":3600,"station_id":"ce4bhbh2rcd13ifvqepg","pricing_plan_id":"free"},{"bike_id":"2b65b37b-0a61-4c29-8fab-b4f99d879e60","system_id":"levelo_inurba_marseille","lat":43.284217,"lon":5.349697,"is_reserved":false,"is_disabled":false,"rental_uris":{"android":"levelo://app?vid=2b65b37b-0a61-4c29-8fab-b4f99d879e60","ios":"levelo://app?vid=2b65b37b-0a61-4c29-8fab-b4f99d879e60"},"vehicle_type_id":"4","last_reported":1683389239,"current_range_meters":14400,"station_id":"ce4bhbh2rcd13ifvqepg","pricing_plan_id":"free"},{"bike_id":"a6c02902-2341-412d-b2be-2a0ab7107ffc","system_id":"levelo_inurba_marseille","lat":43.284219,"lon":5.3497,"is_reserved":false,"is_disabled":false,"rental_uris":{"android":"levelo://app?vid=a6c02902-2341-412d-b2be-2a0ab7107ffc","ios":"levelo://app?vid=a6c02902-2341-412d-b2be-2a0ab7107ffc"},"vehicle_type_id":"4","last_reported":1683389239,"current_range_meters":11600,"station_id":"ce4bhbh2rcd13ifvqepg","pricing_plan_id":"free"},{"bike_id":"7311992e-849b-46ad-9f9e-f0e1cb74474a","system_id":"levelo_inurba_marseille","lat":43.284159,"lon":5.349798,"is_reserved":false,"is_disabled":false,"rental_uris":{"android":"levelo://app?vid=7311992e-849b-46ad-9f9e-f0e1cb74474a","ios":"levelo://app?vid=7311992e-849b-46ad-9f9e-f0e1cb74474a"},"vehicle_type_id":"4","last_reported":1683389239,"current_range_meters":7200,"station_id":"","pricing_plan_id":"free"},{"bike_id":"ce88c4c1-a809-4a96-a75f-738db3d890f8","system_id":"levelo_inurba_marseille","lat":43.284217,"lon":5.349697,"is_reserved":false,"is_disabled":false,"rental_uris":{"android":"levelo://app?vid=ce88c4c1-a809-4a96-a75f-738db3d890f8","ios":"levelo://app?vid=ce88c4c1-a809-4a96-a75f-738db3d890f8"},"vehicle_type_id":"4","last_reported":1683389239,"current_range_meters":15200,"station_id":"ce4bhbh2rcd13ifvqepg","pricing_plan_id":"free"},{"bike_id":"bfb9ae10-b8ea-48b7-8cd7-3d08bd45e0e3","system_id":"levelo_inurba_marseille","lat":43.282744,"lon":5.350533,"is_reserved":false,"is_disabled":false,"rental_uris":{"android":"levelo://app?vid=bfb9ae10-b8ea-48b7-8cd7-3d08bd45e0e3","ios":"levelo://app?vid=bfb9ae10-b8ea-48b7-8cd7-3d08bd45e0e3"},"vehicle_type_id":"4","last_reported":1683389239,"current_range_meters":31600,"station_id":"ce4bhbp2rcd13ifvqerg","pricing_plan_id":"free"},{"bike_id":"2ea9ba8f-6452-48e2-8e6b-88686f355616","system_id":"levelo_inurba_marseille","lat":43.28283,"lon":5.35079,"is_reserved":false,"is_disabled":false,"rental_uris":{"android":"levelo://app?vid=2ea9ba8f-6452-48e2-8e6b-88686f355616","ios":"levelo://app?vid=2ea9ba8f-6452-48e2-8e6b-88686f355616"},"vehicle_type_id":"4","last_reported":1683389239,"current_range_meters":17200,"station_id":"ce4bhbp2rcd13ifvqerg","pricing_plan_id":"free"},{"bike_id":"e7b2b402-657b-41be-b47f-21e60e457afc","system_id":"levelo_inurba_marseille","lat":43.282754,"lon":5.350519,"is_reserved":false,"is_disabled":false,"rental_uris":{"android":"levelo://app?vid=e7b2b402-657b-41be-b47f-21e60e457afc","ios":"levelo://app?vid=e7b2b402-657b-41be-b47f-21e60e457afc"},"vehicle_type_id":"4","last_reported":1683389239,"current_range_meters":31200,"station_id":"ce4bhbp2rcd13ifvqerg","pricing_plan_id":"free"},{"bike_id":"37adb2ac-01e4-4903-81cf-5d241783ea85","system_id":"levelo_inurba_marseille","lat":43.28281,"lon":5.35075,"is_reserved":false,"is_disabled":false,"rental_uris":{"android":"levelo://app?vid=37adb2ac-01e4-4903-81cf-5d241783ea85","ios":"levelo://app?vid=37adb2ac-01e4-4903-81cf-5d241783ea85"},"vehicle_type_id":"4","last_reported":1683389239,"current_range_meters":4000,"station_id":"ce4bhbp2rcd13ifvqerg","pricing_plan_id":"free"},{"bike_id":"7fb5129d-a81a-4109-aa04-f3c5e687a881","system_id":"levelo_inurba_marseille","lat":43.28282,"lon":5.3507,"is_reserved":false,"is_disabled":false,"rental_uris":{"android":"levelo://app?vid=7fb5129d-a81a-4109-aa04-f3c5e687a881","ios":"levelo://app?vid=7fb5129d-a81a-4109-aa04-f3c5e687a881"},"vehicle_type_id":"4","last_reported":1683389239,"current_range_meters":26000,"station_id":"ce4bhbp2rcd13ifvqerg","pricing_plan_id":"free"},{"bike_id":"a0aae788-96f6-466f-a9ad-fd4f24f5539e","system_id":"levelo_inurba_marseille","lat":43.2828,"lon":5.35075,"is_reserved":false,"is_disabled":false,"rental_uris":{"android":"levelo://app?vid=a0aae788-96f6-466f-a9ad-fd4f24f5539e","ios":"levelo://app?vid=a0aae788-96f6-466f-a9ad-fd4f24f5539e"},"vehicle_type_id":"4","last_reported":1683389239,"current_range_meters":28400,"station_id":"ce4bhbp2rcd13ifvqerg","pricing_plan_id":"free"},{"bike_id":"6ddc989f-d326-4de5-8233-b3a549cde405","system_id":"levelo_inurba_marseille","lat":43.28278,"lon":5.35077,"is_reserved":false,"is_disabled":false,"rental_uris":{"android":"levelo://app?vid=6ddc989f-d326-4de5-8233-b3a549cde405","ios":"levelo://app?vid=6ddc989f-d326-4de5-8233-b3a549cde405"},"vehicle_type_id":"4","last_reported":1683389239,"current_range_meters":24400,"station_id":"ce4bhbp2rcd13ifvqerg","pricing_plan_id":"free"},{"bike_id":"fa949c2d-1c62-4874-b1e4-a3a5b975e6ec","system_id":"levelo_inurba_marseille","lat":43.282744,"lon":5.350533,"is_reserved":false,"is_disabled":false,"rental_uris":{"android":"levelo://app?vid=fa949c2d-1c62-4874-b1e4-a3a5b975e6ec","ios":"levelo://app?vid=fa949c2d-1c62-4874-b1e4-a3a5b975e6ec"},"vehicle_type_id":"4","last_reported":1683389239,"current_range_meters":32000,"station_id":"ce4bhbp2rcd13ifvqerg","pricing_plan_id":"free"},{"bike_id":"e51e46d7-62b9-477c-a5e6-1e9aeb5e6886","system_id":"levelo_inurba_marseille","lat":43.28276,"lon":5.35078,"is_reserved":false,"is_disabled":false,"rental_uris":{"android":"levelo://app?vid=e51e46d7-62b9-477c-a5e6-1e9aeb5e6886","ios":"levelo://app?vid=e51e46d7-62b9-477c-a5e6-1e9aeb5e6886"},"vehicle_type_id":"4","last_reported":1683389239,"current_range_meters":23600,"station_id":"ce4bhbp2rcd13ifvqerg","pricing_plan_id":"free"},{"bike_id":"3cfc069d-1426-45cc-a35d-8957966b9443","system_id":"levelo_inurba_marseille","lat":43.28278,"lon":5.3507,"is_reserved":false,"is_disabled":false,"rental_uris":{"android":"levelo://app?vid=3cfc069d-1426-45cc-a35d-8957966b9443","ios":"levelo://app?vid=3cfc069d-1426-45cc-a35d-8957966b9443"},"vehicle_type_id":"4","last_reported":1683389239,"current_range_meters":9200,"station_id":"ce4bhbp2rcd13ifvqerg","pricing_plan_id":"free"},{"bike_id":"93405c77-107d-4be2-9a6a-42a255a4624f","system_id":"levelo_inurba_marseille","lat":43.28276,"lon":5.35075,"is_reserved":false,"is_disabled":false,"rental_uris":{"android":"levelo://app?vid=93405c77-107d-4be2-9a6a-42a255a4624f","ios":"levelo://app?vid=93405c77-107d-4be2-9a6a-42a255a4624f"},"vehicle_type_id":"4","last_reported":1683389239,"current_range_meters":29600,"station_id":"ce4bhbp2rcd13ifvqerg","pricing_plan_id":"free"},{"bike_id":"2eed68fd-6ede-4014-bf81-3d7f31a93495","system_id":"levelo_inurba_marseille","lat":43.28278,"lon":5.35066,"is_reserved":false,"is_disabled":false,"rental_uris":{"android":"levelo://app?vid=2eed68fd-6ede-4014-bf81-3d7f31a93495","ios":"levelo://app?vid=2eed68fd-6ede-4014-bf81-3d7f31a93495"},"vehicle_type_id":"4","last_reported":1683389239,"current_range_meters":24000,"station_id":"ce4bhbp2rcd13ifvqerg","pricing_plan_id":"free"},{"bike_id":"4ea584a9-6994-45ac-9515-5779999be258","system_id":"levelo_inurba_marseille","lat":43.28276,"lon":5.35068,"is_reserved":false,"is_disabled":false,"rental_uris":{"android":"levelo://app?vid=4ea584a9-6994-45ac-9515-5779999be258","ios":"levelo://app?vid=4ea584a9-6994-45ac-9515-5779999be258"},"vehicle_type_id":"4","last_reported":1683389239,"current_range_meters":17600,"station_id":"ce4bhbp2rcd13ifvqerg","pricing_plan_id":"free"},{"bike_id":"cfc28a59-d0eb-4fa5-a034-88c4f221cf39","system_id":"levelo_inurba_marseille","lat":43.28271,"lon":5.35069,"is_reserved":false,"is_disabled":false,"rental_uris":{"android":"levelo://app?vid=cfc28a59-d0eb-4fa5-a034-88c4f221cf39","ios":"levelo://app?vid=cfc28a59-d0eb-4fa5-a034-88c4f221cf39"},"vehicle_type_id":"4","last_reported":1683389239,"current_range_meters":16800,"station_id":"ce4bhbp2rcd13ifvqerg","pricing_plan_id":"free"},{"bike_id":"60cf9fd7-a84c-4227-a593-4a9be3ca95f3","system_id":"levelo_inurba_marseille","lat":43.28269,"lon":5.3507,"is_reserved":false,"is_disabled":false,"rental_uris":{"android":"levelo://app?vid=60cf9fd7-a84c-4227-a593-4a9be3ca95f3","ios":"levelo://app?vid=60cf9fd7-a84c-4227-a593-4a9be3ca95f3"},"vehicle_type_id":"4","last_reported":1683389239,"current_range_meters":20000,"station_id":"ce4bhbp2rcd13ifvqerg","pricing_plan_id":"free"},{"bike_id":"8fa7b6df-102e-43c1-96aa-676c8e96506a","system_id":"levelo_inurba_marseille","lat":43.28273,"lon":5.35055,"is_reserved":false,"is_disabled":false,"rental_uris":{"android":"levelo://app?vid=8fa7b6df-102e-43c1-96aa-676c8e96506a","ios":"levelo://app?vid=8fa7b6df-102e-43c1-96aa-676c8e96506a"},"vehicle_type_id":"4","last_reported":1683389239,"current_range_meters":0,"station_id":"ce4bhbp2rcd13ifvqerg","pricing_plan_id":"free"},{"bike_id":"76242f32-c407-44d4-84d7-fa1d50b0f9dc","system_id":"levelo_inurba_marseille","lat":43.32444,"lon":5.40831,"is_reserved":false,"is_disabled":false,"rental_uris":{"android":"levelo://app?vid=76242f32-c407-44d4-84d7-fa1d50b0f9dc","ios":"levelo://app?vid=76242f32-c407-44d4-84d7-fa1d50b0f9dc"},"vehicle_type_id":"4","last_reported":1683389239,"current_range_meters":2400,"station_id":"","pricing_plan_id":"free"},{"bike_id":"c01022a3-d8a2-4479-a11a-2ba76498ab23","system_id":"levelo_inurba_marseille","lat":43.282744,"lon":5.350533,"is_reserved":false,"is_disabled":false,"rental_uris":{"android":"levelo://app?vid=c01022a3-d8a2-4479-a11a-2ba76498ab23","ios":"levelo://app?vid=c01022a3-d8a2-4479-a11a-2ba76498ab23"},"vehicle_type_id":"4","last_reported":1683389239,"current_range_meters":17200,"station_id":"ce4bhbp2rcd13ifvqerg","pricing_plan_id":"free"},{"bike_id":"26161395-36c3-45f8-8ef5-24e1e986b891","system_id":"levelo_inurba_marseille","lat":43.28267,"lon":5.35064,"is_reserved":false,"is_disabled":false,"rental_uris":{"android":"levelo://app?vid=26161395-36c3-45f8-8ef5-24e1e986b891","ios":"levelo://app?vid=26161395-36c3-45f8-8ef5-24e1e986b891"},"vehicle_type_id":"4","last_reported":1683389239,"current_range_meters":11200,"station_id":"ce4bhbp2rcd13ifvqerg","pricing_plan_id":"free"},{"bike_id":"31cc8283-daa3-449e-8a0b-018563f8a8b8","system_id":"levelo_inurba_marseille","lat":43.28262,"lon":5.35072,"is_reserved":false,"is_disabled":false,"rental_uris":{"android":"levelo://app?vid=31cc8283-daa3-449e-8a0b-018563f8a8b8","ios":"levelo://app?vid=31cc8283-daa3-449e-8a0b-018563f8a8b8"},"vehicle_type_id":"4","last_reported":1683389239,"current_range_meters":25600,"station_id":"ce4bhbp2rcd13ifvqerg","pricing_plan_id":"free"},{"bike_id":"1eeff18b-8487-430e-aefa-95f876474265","system_id":"levelo_inurba_marseille","lat":43.2826,"lon":5.35079,"is_reserved":false,"is_disabled":false,"rental_uris":{"android":"levelo://app?vid=1eeff18b-8487-430e-aefa-95f876474265","ios":"levelo://app?vid=1eeff18b-8487-430e-aefa-95f876474265"},"vehicle_type_id":"4","last_reported":1683389239,"current_range_meters":15200,"station_id":"ce4bhbp2rcd13ifvqerg","pricing_plan_id":"free"},{"bike_id":"3faa75d0-40f9-4482-afbf-74dd8606bebe","system_id":"levelo_inurba_marseille","lat":43.283502,"lon":5.386471,"is_reserved":false,"is_disabled":false,"rental_uris":{"android":"levelo://app?vid=3faa75d0-40f9-4482-afbf-74dd8606bebe","ios":"levelo://app?vid=3faa75d0-40f9-4482-afbf-74dd8606bebe"},"vehicle_type_id":"4","last_reported":1683389239,"current_range_meters":10000,"station_id":"ce4bh492rcd13ifvqdvg","pricing_plan_id":"free"},{"bike_id":"bc8b220c-1d8d-4dc7-8a6f-cbfacece3bdf","system_id":"levelo_inurba_marseille","lat":43.28042,"lon":5.36947,"is_reserved":false,"is_disabled":false,"rental_uris":{"android":"levelo://app?vid=bc8b220c-1d8d-4dc7-8a6f-cbfacece3bdf","ios":"levelo://app?vid=bc8b220c-1d8d-4dc7-8a6f-cbfacece3bdf"},"vehicle_type_id":"4","last_reported":1683389239,"current_range_meters":13200,"station_id":"ce4bha12rcd13ifvqef0","pricing_plan_id":"free"},{"bike_id":"8d8cee22-38bc-40f2-a1d7-6ccfcc2769ef","system_id":"levelo_inurba_marseille","lat":43.280382,"lon":5.369291,"is_reserved":false,"is_disabled":false,"rental_uris":{"android":"levelo://app?vid=8d8cee22-38bc-40f2-a1d7-6ccfcc2769ef","ios":"levelo://app?vid=8d8cee22-38bc-40f2-a1d7-6ccfcc2769ef"},"vehicle_type_id":"4","last_reported":1683389239,"current_range_meters":29600,"station_id":"ce4bha12rcd13ifvqef0","pricing_plan_id":"free"},{"bike_id":"980d1eb5-7021-4311-8bd9-5d8a5661d45b","system_id":"levelo_inurba_marseille","lat":43.28037,"lon":5.36936,"is_reserved":false,"is_disabled":false,"rental_uris":{"android":"levelo://app?vid=980d1eb5-7021-4311-8bd9-5d8a5661d45b","ios":"levelo://app?vid=980d1eb5-7021-4311-8bd9-5d8a5661d45b"},"vehicle_type_id":"4","last_reported":1683389239,"current_range_meters":0,"station_id":"ce4bha12rcd13ifvqef0","pricing_plan_id":"free"},{"bike_id":"4196b876-cbec-4ec7-a07e-6a11cbd96bad","system_id":"levelo_inurba_marseille","lat":43.28039,"lon":5.369297,"is_reserved":false,"is_disabled":false,"rental_uris":{"android":"levelo://app?vid=4196b876-cbec-4ec7-a07e-6a11cbd96bad","ios":"levelo://app?vid=4196b876-cbec-4ec7-a07e-6a11cbd96bad"},"vehicle_type_id":"4","last_reported":1683389239,"current_range_meters":27600,"station_id":"ce4bha12rcd13ifvqef0","pricing_plan_id":"free"},{"bike_id":"fb117a3b-2155-43ea-9b2d-3202c8fec39d","system_id":"levelo_inurba_marseille","lat":43.283502,"lon":5.386471,"is_reserved":false,"is_disabled":false,"rental_uris":{"android":"levelo://app?vid=fb117a3b-2155-43ea-9b2d-3202c8fec39d","ios":"levelo://app?vid=fb117a3b-2155-43ea-9b2d-3202c8fec39d"},"vehicle_type_id":"4","last_reported":1683389239,"current_range_meters":0,"station_id":"ce4bh492rcd13ifvqdvg","pricing_plan_id":"free"},{"bike_id":"6a69bc9b-b8b7-40a3-ad7c-9dea50410139","system_id":"levelo_inurba_marseille","lat":43.280382,"lon":5.369291,"is_reserved":false,"is_disabled":false,"rental_uris":{"android":"levelo://app?vid=6a69bc9b-b8b7-40a3-ad7c-9dea50410139","ios":"levelo://app?vid=6a69bc9b-b8b7-40a3-ad7c-9dea50410139"},"vehicle_type_id":"4","last_reported":1683389239,"current_range_meters":19200,"station_id":"ce4bha12rcd13ifvqef0","pricing_plan_id":"free"},{"bike_id":"98c39b1c-9e7a-44ec-a8ea-ac75789a6a6c","system_id":"levelo_inurba_marseille","lat":43.280382,"lon":5.369291,"is_reserved":false,"is_disabled":false,"rental_uris":{"android":"levelo://app?vid=98c39b1c-9e7a-44ec-a8ea-ac75789a6a6c","ios":"levelo://app?vid=98c39b1c-9e7a-44ec-a8ea-ac75789a6a6c"},"vehicle_type_id":"4","last_reported":1683389239,"current_range_meters":29200,"station_id":"ce4bha12rcd13ifvqef0","pricing_plan_id":"free"},{"bike_id":"fa541099-72bc-4e12-a8b6-0f17bbc79b3c","system_id":"levelo_inurba_marseille","lat":43.28039,"lon":5.369297,"is_reserved":false,"is_disabled":false,"rental_uris":{"android":"levelo://app?vid=fa541099-72bc-4e12-a8b6-0f17bbc79b3c","ios":"levelo://app?vid=fa541099-72bc-4e12-a8b6-0f17bbc79b3c"},"vehicle_type_id":"4","last_reported":1683389239,"current_range_meters":11200,"station_id":"ce4bha12rcd13ifvqef0","pricing_plan_id":"free"},{"bike_id":"e31327dd-fe41-4ebf-b824-94d71742cebf","system_id":"levelo_inurba_marseille","lat":43.284462,"lon":5.392121,"is_reserved":false,"is_disabled":false,"rental_uris":{"android":"levelo://app?vid=e31327dd-fe41-4ebf-b824-94d71742cebf","ios":"levelo://app?vid=e31327dd-fe41-4ebf-b824-94d71742cebf"},"vehicle_type_id":"4","last_reported":1683389239,"current_range_meters":10800,"station_id":"ce4bhoh2rcd13ifvqh5g","pricing_plan_id":"free"},{"bike_id":"2935a3fc-e5fb-4d7a-9c10-5228f55d1037","system_id":"levelo_inurba_marseille","lat":43.28431,"lon":5.39187,"is_reserved":false,"is_disabled":false,"rental_uris":{"android":"levelo://app?vid=2935a3fc-e5fb-4d7a-9c10-5228f55d1037","ios":"levelo://app?vid=2935a3fc-e5fb-4d7a-9c10-5228f55d1037"},"vehicle_type_id":"4","last_reported":1683389239,"current_range_meters":14800,"station_id":"ce4bhoh2rcd13ifvqh5g","pricing_plan_id":"free"},{"bike_id":"809fcb09-90cd-400e-afc0-5451099c699b","system_id":"levelo_inurba_marseille","lat":43.29156,"lon":5.40384,"is_reserved":false,"is_disabled":false,"rental_uris":{"android":"levelo://app?vid=809fcb09-90cd-400e-afc0-5451099c699b","ios":"levelo://app?vid=809fcb09-90cd-400e-afc0-5451099c699b"},"vehicle_type_id":"4","last_reported":1683389239,"current_range_meters":14400,"station_id":"","pricing_plan_id":"free"},{"bike_id":"7cfd20c2-194c-4aae-b471-715b4bb4b58f","system_id":"levelo_inurba_marseille","lat":43.287154,"lon":5.399979,"is_reserved":false,"is_disabled":false,"rental_uris":{"android":"levelo://app?vid=7cfd20c2-194c-4aae-b471-715b4bb4b58f","ios":"levelo://app?vid=7cfd20c2-194c-4aae-b471-715b4bb4b58f"},"vehicle_type_id":"4","last_reported":1683389239,"current_range_meters":0,"station_id":"ce4bho92rcd13ifvqh3g","pricing_plan_id":"free"},{"bike_id":"519d139d-ed34-4f8b-85cf-0106e71dfedd","system_id":"levelo_inurba_marseille","lat":43.28704,"lon":5.39989,"is_reserved":false,"is_disabled":false,"rental_uris":{"android":"levelo://app?vid=519d139d-ed34-4f8b-85cf-0106e71dfedd","ios":"levelo://app?vid=519d139d-ed34-4f8b-85cf-0106e71dfedd"},"vehicle_type_id":"4","last_reported":1683389239,"current_range_meters":20400,"station_id":"ce4bho92rcd13ifvqh3g","pricing_plan_id":"free"},{"bike_id":"5a390721-653c-4e92-805b-538e2bda94db","system_id":"levelo_inurba_marseille","lat":43.287154,"lon":5.399979,"is_reserved":false,"is_disabled":false,"rental_uris":{"android":"levelo://app?vid=5a390721-653c-4e92-805b-538e2bda94db","ios":"levelo://app?vid=5a390721-653c-4e92-805b-538e2bda94db"},"vehicle_type_id":"4","last_reported":1683389239,"current_range_meters":23200,"station_id":"ce4bho92rcd13ifvqh3g","pricing_plan_id":"free"},{"bike_id":"dbde062f-833a-469d-bb67-53e73dce2426","system_id":"levelo_inurba_marseille","lat":43.287154,"lon":5.399979,"is_reserved":false,"is_disabled":false,"rental_uris":{"android":"levelo://app?vid=dbde062f-833a-469d-bb67-53e73dce2426","ios":"levelo://app?vid=dbde062f-833a-469d-bb67-53e73dce2426"},"vehicle_type_id":"4","last_reported":1683389239,"current_range_meters":21600,"station_id":"ce4bho92rcd13ifvqh3g","pricing_plan_id":"free"},{"bike_id":"f787d713-0926-4483-8a48-e819085f1a91","system_id":"levelo_inurba_marseille","lat":43.279742,"lon":5.38744,"is_reserved":false,"is_disabled":false,"rental_uris":{"android":"levelo://app?vid=f787d713-0926-4483-8a48-e819085f1a91","ios":"levelo://app?vid=f787d713-0926-4483-8a48-e819085f1a91"},"vehicle_type_id":"4","last_reported":1683389239,"current_range_meters":400,"station_id":"ce4bhg12rcd13ifvqf80","pricing_plan_id":"free"},{"bike_id":"e3eda7ed-2e31-4d6d-90f6-b9c76d326779","system_id":"levelo_inurba_marseille","lat":43.27951,"lon":5.38711,"is_reserved":false,"is_disabled":false,"rental_uris":{"android":"levelo://app?vid=e3eda7ed-2e31-4d6d-90f6-b9c76d326779","ios":"levelo://app?vid=e3eda7ed-2e31-4d6d-90f6-b9c76d326779"},"vehicle_type_id":"4","last_reported":1683389239,"current_range_meters":30000,"station_id":"","pricing_plan_id":"free"},{"bike_id":"f4619689-30dd-4c75-98a9-60a73543021f","system_id":"levelo_inurba_marseille","lat":43.292569,"lon":5.409107,"is_reserved":false,"is_disabled":false,"rental_uris":{"android":"levelo://app?vid=f4619689-30dd-4c75-98a9-60a73543021f","ios":"levelo://app?vid=f4619689-30dd-4c75-98a9-60a73543021f"},"vehicle_type_id":"4","last_reported":1683389239,"current_range_meters":13600,"station_id":"ce4bh192rcd13ifvqdc0","pricing_plan_id":"free"},{"bike_id":"6ad0a137-cc5e-4b47-8a4a-48bd462bddfd","system_id":"levelo_inurba_marseille","lat":43.27618,"lon":5.361009,"is_reserved":false,"is_disabled":false,"rental_uris":{"android":"levelo://app?vid=6ad0a137-cc5e-4b47-8a4a-48bd462bddfd","ios":"levelo://app?vid=6ad0a137-cc5e-4b47-8a4a-48bd462bddfd"},"vehicle_type_id":"4","last_reported":1683389239,"current_range_meters":18400,"station_id":"ce4bgj92rcd13ifvqbe0","pricing_plan_id":"free"},{"bike_id":"c96a8630-1f58-4886-ab93-5f330faa7bfc","system_id":"levelo_inurba_marseille","lat":43.27618,"lon":5.361009,"is_reserved":false,"is_disabled":false,"rental_uris":{"android":"levelo://app?vid=c96a8630-1f58-4886-ab93-5f330faa7bfc","ios":"levelo://app?vid=c96a8630-1f58-4886-ab93-5f330faa7bfc"},"vehicle_type_id":"4","last_reported":1683389239,"current_range_meters":10000,"station_id":"ce4bgj92rcd13ifvqbe0","pricing_plan_id":"free"},{"bike_id":"8e6d3246-4ae5-41e8-8226-7bf0c222f36b","system_id":"levelo_inurba_marseille","lat":43.27618,"lon":5.361009,"is_reserved":false,"is_disabled":false,"rental_uris":{"android":"levelo://app?vid=8e6d3246-4ae5-41e8-8226-7bf0c222f36b","ios":"levelo://app?vid=8e6d3246-4ae5-41e8-8226-7bf0c222f36b"},"vehicle_type_id":"4","last_reported":1683389239,"current_range_meters":16400,"station_id":"ce4bgj92rcd13ifvqbe0","pricing_plan_id":"free"},{"bike_id":"55e241b3-6d19-4dcd-80ee-95fe200a76a2","system_id":"levelo_inurba_marseille","lat":43.27618,"lon":5.361009,"is_reserved":false,"is_disabled":false,"rental_uris":{"android":"levelo://app?vid=55e241b3-6d19-4dcd-80ee-95fe200a76a2","ios":"levelo://app?vid=55e241b3-6d19-4dcd-80ee-95fe200a76a2"},"vehicle_type_id":"4","last_reported":1683389239,"current_range_meters":16400,"station_id":"ce4bgj92rcd13ifvqbe0","pricing_plan_id":"free"},{"bike_id":"1de0a93a-7b84-4b98-b859-e7e23d87c527","system_id":"levelo_inurba_marseille","lat":43.27618,"lon":5.361009,"is_reserved":false,"is_disabled":false,"rental_uris":{"android":"levelo://app?vid=1de0a93a-7b84-4b98-b859-e7e23d87c527","ios":"levelo://app?vid=1de0a93a-7b84-4b98-b859-e7e23d87c527"},"vehicle_type_id":"4","last_reported":1683389239,"current_range_meters":15600,"station_id":"ce4bgj92rcd13ifvqbe0","pricing_plan_id":"free"},{"bike_id":"a2d4b7c0-4958-448a-967b-7631549097f3","system_id":"levelo_inurba_marseille","lat":43.27621,"lon":5.36109,"is_reserved":false,"is_disabled":false,"rental_uris":{"android":"levelo://app?vid=a2d4b7c0-4958-448a-967b-7631549097f3","ios":"levelo://app?vid=a2d4b7c0-4958-448a-967b-7631549097f3"},"vehicle_type_id":"4","last_reported":1683389239,"current_range_meters":9200,"station_id":"ce4bgj92rcd13ifvqbe0","pricing_plan_id":"free"},{"bike_id":"d777686e-15e8-4e66-86c2-2e01e22129ca","system_id":"levelo_inurba_marseille","lat":43.27618,"lon":5.361009,"is_reserved":false,"is_disabled":false,"rental_uris":{"android":"levelo://app?vid=d777686e-15e8-4e66-86c2-2e01e22129ca","ios":"levelo://app?vid=d777686e-15e8-4e66-86c2-2e01e22129ca"},"vehicle_type_id":"4","last_reported":1683389239,"current_range_meters":6800,"station_id":"ce4bgj92rcd13ifvqbe0","pricing_plan_id":"free"},{"bike_id":"e490ea83-bf86-4ad8-a1a7-c40f62929beb","system_id":"levelo_inurba_marseille","lat":43.27618,"lon":5.361009,"is_reserved":false,"is_disabled":false,"rental_uris":{"android":"levelo://app?vid=e490ea83-bf86-4ad8-a1a7-c40f62929beb","ios":"levelo://app?vid=e490ea83-bf86-4ad8-a1a7-c40f62929beb"},"vehicle_type_id":"4","last_reported":1683389239,"current_range_meters":12000,"station_id":"ce4bgj92rcd13ifvqbe0","pricing_plan_id":"free"},{"bike_id":"2441a436-10f3-4a0f-89b8-7be930d2e51f","system_id":"levelo_inurba_marseille","lat":43.27618,"lon":5.361009,"is_reserved":false,"is_disabled":false,"rental_uris":{"android":"levelo://app?vid=2441a436-10f3-4a0f-89b8-7be930d2e51f","ios":"levelo://app?vid=2441a436-10f3-4a0f-89b8-7be930d2e51f"},"vehicle_type_id":"4","last_reported":1683389239,"current_range_meters":12000,"station_id":"ce4bgj92rcd13ifvqbe0","pricing_plan_id":"free"},{"bike_id":"e3609839-cf7b-4783-9bcd-b2cb2e2cddaa","system_id":"levelo_inurba_marseille","lat":43.27619,"lon":5.36109,"is_reserved":false,"is_disabled":false,"rental_uris":{"android":"levelo://app?vid=e3609839-cf7b-4783-9bcd-b2cb2e2cddaa","ios":"levelo://app?vid=e3609839-cf7b-4783-9bcd-b2cb2e2cddaa"},"vehicle_type_id":"4","last_reported":1683389239,"current_range_meters":26800,"station_id":"ce4bgj92rcd13ifvqbe0","pricing_plan_id":"free"},{"bike_id":"90d2e4fe-dad3-4c9b-902d-c52c58fb8283","system_id":"levelo_inurba_marseille","lat":43.27618,"lon":5.3611,"is_reserved":false,"is_disabled":false,"rental_uris":{"android":"levelo://app?vid=90d2e4fe-dad3-4c9b-902d-c52c58fb8283","ios":"levelo://app?vid=90d2e4fe-dad3-4c9b-902d-c52c58fb8283"},"vehicle_type_id":"4","last_reported":1683389239,"current_range_meters":19200,"station_id":"ce4bgj92rcd13ifvqbe0","pricing_plan_id":"free"},{"bike_id":"0aa7aefe-109b-444c-8574-42618cdd771c","system_id":"levelo_inurba_marseille","lat":43.27618,"lon":5.36108,"is_reserved":false,"is_disabled":false,"rental_uris":{"android":"levelo://app?vid=0aa7aefe-109b-444c-8574-42618cdd771c","ios":"levelo://app?vid=0aa7aefe-109b-444c-8574-42618cdd771c"},"vehicle_type_id":"4","last_reported":1683389239,"current_range_meters":23600,"station_id":"ce4bgj92rcd13ifvqbe0","pricing_plan_id":"free"},{"bike_id":"6b66736b-b71a-4e4f-91c6-c3e344a4c2c5","system_id":"levelo_inurba_marseille","lat":43.27617,"lon":5.36111,"is_reserved":false,"is_disabled":false,"rental_uris":{"android":"levelo://app?vid=6b66736b-b71a-4e4f-91c6-c3e344a4c2c5","ios":"levelo://app?vid=6b66736b-b71a-4e4f-91c6-c3e344a4c2c5"},"vehicle_type_id":"4","last_reported":1683389239,"current_range_meters":0,"station_id":"ce4bgj92rcd13ifvqbe0","pricing_plan_id":"free"},{"bike_id":"ba35bcfa-de5a-4060-97d2-11a2120e198b","system_id":"levelo_inurba_marseille","lat":43.27617,"lon":5.36109,"is_reserved":false,"is_disabled":false,"rental_uris":{"android":"levelo://app?vid=ba35bcfa-de5a-4060-97d2-11a2120e198b","ios":"levelo://app?vid=ba35bcfa-de5a-4060-97d2-11a2120e198b"},"vehicle_type_id":"4","last_reported":1683389239,"current_range_meters":1600,"station_id":"ce4bgj92rcd13ifvqbe0","pricing_plan_id":"free"},{"bike_id":"efb17069-6085-47eb-882d-4c27a63d1f21","system_id":"levelo_inurba_marseille","lat":43.325233,"lon":5.414318,"is_reserved":false,"is_disabled":false,"rental_uris":{"android":"levelo://app?vid=efb17069-6085-47eb-882d-4c27a63d1f21","ios":"levelo://app?vid=efb17069-6085-47eb-882d-4c27a63d1f21"},"vehicle_type_id":"4","last_reported":1683389239,"current_range_meters":30000,"station_id":"ce4bhq12rcd13ifvqhhg","pricing_plan_id":"free"},{"bike_id":"44b83a81-5e72-40b9-b545-1cfe76e8fc8b","system_id":"levelo_inurba_marseille","lat":43.27618,"lon":5.361009,"is_reserved":false,"is_disabled":false,"rental_uris":{"android":"levelo://app?vid=44b83a81-5e72-40b9-b545-1cfe76e8fc8b","ios":"levelo://app?vid=44b83a81-5e72-40b9-b545-1cfe76e8fc8b"},"vehicle_type_id":"4","last_reported":1683389239,"current_range_meters":24000,"station_id":"ce4bgj92rcd13ifvqbe0","pricing_plan_id":"free"},{"bike_id":"d6887d1d-c4a6-4fd7-83f3-ed1664f51a0f","system_id":"levelo_inurba_marseille","lat":43.325233,"lon":5.414318,"is_reserved":false,"is_disabled":false,"rental_uris":{"android":"levelo://app?vid=d6887d1d-c4a6-4fd7-83f3-ed1664f51a0f","ios":"levelo://app?vid=d6887d1d-c4a6-4fd7-83f3-ed1664f51a0f"},"vehicle_type_id":"4","last_reported":1683389239,"current_range_meters":31600,"station_id":"ce4bhq12rcd13ifvqhhg","pricing_plan_id":"free"},{"bike_id":"3a85fcb1-ad2a-4f95-b44d-50ada945b2fb","system_id":"levelo_inurba_marseille","lat":43.325233,"lon":5.414318,"is_reserved":false,"is_disabled":false,"rental_uris":{"android":"levelo://app?vid=3a85fcb1-ad2a-4f95-b44d-50ada945b2fb","ios":"levelo://app?vid=3a85fcb1-ad2a-4f95-b44d-50ada945b2fb"},"vehicle_type_id":"4","last_reported":1683389239,"current_range_meters":30800,"station_id":"ce4bhq12rcd13ifvqhhg","pricing_plan_id":"free"},{"bike_id":"3e407023-f785-4cc1-a98b-2acc52f38322","system_id":"levelo_inurba_marseille","lat":43.32546,"lon":5.41449,"is_reserved":false,"is_disabled":false,"rental_uris":{"android":"levelo://app?vid=3e407023-f785-4cc1-a98b-2acc52f38322","ios":"levelo://app?vid=3e407023-f785-4cc1-a98b-2acc52f38322"},"vehicle_type_id":"4","last_reported":1683389239,"current_range_meters":29200,"station_id":"","pricing_plan_id":"free"},{"bike_id":"df9eed09-8ce2-4901-96e7-d3fc0894d3e1","system_id":"levelo_inurba_marseille","lat":43.325233,"lon":5.414318,"is_reserved":false,"is_disabled":false,"rental_uris":{"android":"levelo://app?vid=df9eed09-8ce2-4901-96e7-d3fc0894d3e1","ios":"levelo://app?vid=df9eed09-8ce2-4901-96e7-d3fc0894d3e1"},"vehicle_type_id":"4","last_reported":1683389239,"current_range_meters":11600,"station_id":"ce4bhq12rcd13ifvqhhg","pricing_plan_id":"free"},{"bike_id":"ebe3c18f-a6d4-44d6-9a55-57cd3c73fa5a","system_id":"levelo_inurba_marseille","lat":43.325233,"lon":5.414318,"is_reserved":false,"is_disabled":false,"rental_uris":{"android":"levelo://app?vid=ebe3c18f-a6d4-44d6-9a55-57cd3c73fa5a","ios":"levelo://app?vid=ebe3c18f-a6d4-44d6-9a55-57cd3c73fa5a"},"vehicle_type_id":"4","last_reported":1683389239,"current_range_meters":18800,"station_id":"ce4bhq12rcd13ifvqhhg","pricing_plan_id":"free"},{"bike_id":"8fc5ea19-49b5-436a-ad21-9771754b8f53","system_id":"levelo_inurba_marseille","lat":43.280784,"lon":5.396622,"is_reserved":false,"is_disabled":false,"rental_uris":{"android":"levelo://app?vid=8fc5ea19-49b5-436a-ad21-9771754b8f53","ios":"levelo://app?vid=8fc5ea19-49b5-436a-ad21-9771754b8f53"},"vehicle_type_id":"4","last_reported":1683389239,"current_range_meters":12800,"station_id":"ce4bho12rcd13ifvqh2g","pricing_plan_id":"free"},{"bike_id":"0d18973a-cca6-4b5b-8300-63e007e92418","system_id":"levelo_inurba_marseille","lat":43.27387,"lon":5.36256,"is_reserved":false,"is_disabled":false,"rental_uris":{"android":"levelo://app?vid=0d18973a-cca6-4b5b-8300-63e007e92418","ios":"levelo://app?vid=0d18973a-cca6-4b5b-8300-63e007e92418"},"vehicle_type_id":"4","last_reported":1683389239,"current_range_meters":22000,"station_id":"","pricing_plan_id":"free"},