{"last_updated":1746526296,"ttl":60,"version":"2.2","data":{"bikes":[{"bike_id":"545631c8-05b7-4070-95e3-52dc096addb5","system_id":"levelo_inurba_marseille","lat":43.271907,"lon":5.36479,"is_reserved":false,"is_disabled":true,"rental_uris":{"android":"levelo://app?vid=545631c8-05b7-4070-95e3-52dc096addb5","ios":"levelo://app?vid=545631c8-05b7-4070-95e3-52dc096addb5"},"vehicle_type_id":"4","last_reported":1746526296,"current_range_meters":0,"station_id":"","pricing_plan_id":"cebpf4jnsgd1na2vs0mg"},{"bike_id":"a0ce76ea-4a3e-456b-8981-6ea420463480","system_id":"levelo_inurba_marseille","lat":43.30081,"lon":5.37688,"is_reserved":false,"is_disabled":true,"rental_uris":{"android":"levelo://app?vid=a0ce76ea-4a3e-456b-8981-6ea420463480","ios":"levelo://app?vid=a0ce76ea-4a3e-456b-8981-6ea420463480"},"vehicle_type_id":"4","last_reported":1746526296,"current_range_meters":0,"station_id":"","pricing_plan_id":"cebpf4jnsgd1na2vs0mg"},{"bike_id":"64a99dee-e5f5-406c-bb57-3c1dd0084469","system_id":"levelo_inurba_marseille","lat":43.23667,"lon":5.39143,"is_reserved":false,"is_disabled":true,"rental_uris":{"android":"levelo://app?vid=64a99dee-e5f5-406c-bb57-3c1dd0084469","ios":"levelo://app?vid=64a99dee-e5f5-406c-bb57-3c1dd0084469"},"vehicle_type_id":"4","last_reported":1746526296,"current_range_meters":0,"station_id":"","pricing_plan_id":"cebpf4jnsgd1na2vs0mg"},{"bike_id":"b56eeeb9-9ded-4dd2-9efa-c8d4f8a5e387","system_id":"levelo_inurba_marseille","lat":43.27369,"lon":5.42212,"is_reserved":false,"is_disabled":true,"rental_uris":{"android":"levelo://app?vid=b56eeeb9-9ded-4dd2-9efa-c8d4f8a5e387","ios":"levelo://app?vid=b56eeeb9-9ded-4dd2-9efa-c8d4f8a5e387"},"vehicle_type_id":"4","last_reported":1746526296,"current_range_meters":0,"station_id":"","pricing_plan_id":"cebpf4jnsgd1na2vs0mg"},{"bike_id":"4a2906fd-25b2-4be5-811e-9d84d28e283d","system_id":"levelo_inurba_marseille","lat":43.25394,"lon":5.42404,"is_reserved":false,"is_disabled":true,"rental_uris":{"android":"levelo://app?vid=4a2906fd-25b2-4be5-811e-9d84d28e283d","ios":"levelo://app?vid=4a2906fd-25b2-4be5-811e-9d84d28e283d"},"vehicle_type_id":"4","last_reported":1746526296,"current_range_meters":0,"station_id":"","pricing_plan_id":"cebpf4jnsgd1na2vs0mg"},{"bike_id":"ed6258ed-261a-4d19-955b-6d7627cf1fdf","system_id":"levelo_inurba_marseille","lat":43.309526,"lon":5.39028,"is_reserved":false,"is_disabled":true,"rental_uris":{"android":"levelo://app?vid=ed6258ed-261a-4d19-955b-6d7627cf1fdf","ios":"levelo://app?vid=ed6258ed-261a-4d19-955b-6d7627cf1fdf"},"vehicle_type_id":"4","last_reported":1746526296,"current_range_meters":0,"station_id":"ce4bgup2rcd13ifvqco0","pricing_plan_id":"cebpf4jnsgd1na2vs0mg"},{"bike_id":"b87fcc11-5d9b-4133-b88b-6a899275794f","system_id":"levelo_inurba_marseille","lat":43.337444,"lon":5.374475,"is_reserved":false,"is_disabled":true,"rental_uris":{"android":"levelo://app?vid=b87fcc11-5d9b-4133-b88b-6a899275794f","ios":"levelo://app?vid=b87fcc11-5d9b-4133-b88b-6a899275794f"},"vehicle_type_id":"4","last_reported":1746526296,"current_range_meters":0,"station_id":"ce4bgvp2rcd13ifvqct0","pricing_plan_id":"cebpf4jnsgd1na2vs0mg"},{"bike_id":"a701bbfe-ec89-425e-ac6e-3169674e2796","system_id":"levelo_inurba_marseille","lat":43.29576,"lon":5.39981,"is_reserved":false,"is_disabled":true,"rental_uris":{"android":"levelo://app?vid=a701bbfe-ec89-425e-ac6e-3169674e2796","ios":"levelo://app?vid=a701bbfe-ec89-425e-ac6e-3169674e2796"},"vehicle_type_id":"4","last_reported":1746526296,"current_range_meters":0,"station_id":"ce4bh312rcd13ifvqdj0","pricing_plan_id":"cebpf4jnsgd1na2vs0mg"},{"bike_id":"794431b2-2463-434b-b557-e920ebd3c0d5","system_id":"levelo_inurba_marseille","lat":43.29089,"lon":5.38144,"is_reserved":false,"is_disabled":true,"rental_uris":{"android":"levelo://app?vid=794431b2-2463-434b-b557-e920ebd3c0d5","ios":"levelo://app?vid=794431b2-2463-434b-b557-e920ebd3c0d5"},"vehicle_type_id":"4","last_reported":1746526296,"current_range_meters":0,"station_id":"ce4bh512rcd13ifvqe2g","pricing_plan_id":"cebpf4jnsgd1na2vs0mg"},{"bike_id":"ce18e542-db9b-431b-88f2-255dd38d2c82","system_id":"levelo_inurba_marseille","lat":43.28616,"lon":5.35093,"is_reserved":false,"is_disabled":true,"rental_uris":{"android":"levelo://app?vid=ce18e542-db9b-431b-88f2-255dd38d2c82","ios":"levelo://app?vid=ce18e542-db9b-431b-88f2-255dd38d2c82"},"vehicle_type_id":"4","last_reported":1746526296,"current_range_meters":0,"station_id":"ce4bhch2rcd13ifvqeug","pricing_plan_id":"cebpf4jnsgd1na2vs0mg"},{"bike_id":"60c0c9f6-2e8f-4081-947c-f39c658277a0","system_id":"levelo_inurba_marseille","lat":43.28616,"lon":5.3511,"is_reserved":false,"is_disabled":true,"rental_uris":{"android":"levelo://app?vid=60c0c9f6-2e8f-4081-947c-f39c658277a0","ios":"levelo://app?vid=60c0c9f6-2e8f-4081-947c-f39c658277a0"},"vehicle_type_id":"4","last_reported":1746526296,"current_range_meters":0,"station_id":"ce4bhch2rcd13ifvqeug","pricing_plan_id":"cebpf4jnsgd1na2vs0mg"},{"bike_id":"51356235-3f3f-4c53-b19e-95c43f9f2d24","system_id":"levelo_inurba_marseille","lat":43.27961,"lon":5.38753,"is_reserved":false,"is_disabled":true,"rental_uris":{"android":"levelo://app?vid=51356235-3f3f-4c53-b19e-95c43f9f2d24","ios":"levelo://app?vid=51356235-3f3f-4c53-b19e-95c43f9f2d24"},"vehicle_type_id":"4","last_reported":1746526296,"current_range_meters":0,"station_id":"ce4bhg12rcd13ifvqf80","pricing_plan_id":"cebpf4jnsgd1na2vs0mg"},{"bike_id":"5b384506-5726-408b-bd5f-6e6adbd54599","system_id":"levelo_inurba_marseille","lat":43.27486,"lon":5.42465,"is_reserved":false,"is_disabled":true,"rental_uris":{"android":"levelo://app?vid=5b384506-5726-408b-bd5f-6e6adbd54599","ios":"levelo://app?vid=5b384506-5726-408b-bd5f-6e6adbd54599"},"vehicle_type_id":"4","last_reported":1746526296,"current_range_meters":0,"station_id":"ce4bhn92rcd13ifvqgrg","pricing_plan_id":"cebpf4jnsgd1na2vs0mg"},{"bike_id":"de665182-5d20-4f12-86b8-f2becad9139b","system_id":"levelo_inurba_marseille","lat":43.32551,"lon":5.4143,"is_reserved":false,"is_disabled":true,"rental_uris":{"android":"levelo://app?vid=de665182-5d20-4f12-86b8-f2becad9139b","ios":"levelo://app?vid=de665182-5d20-4f12-86b8-f2becad9139b"},"vehicle_type_id":"4","last_reported":1746526296,"current_range_meters":0,"station_id":"ce4bhq12rcd13ifvqhhg","pricing_plan_id":"cebpf4jnsgd1na2vs0mg"},{"bike_id":"81eff0ee-a78e-40ed-af3f-ae0e834a33f4","system_id":"levelo_inurba_marseille","lat":43.30535,"lon":5.38431,"is_reserved":false,"is_disabled":true,"rental_uris":{"android":"levelo://app?vid=81eff0ee-a78e-40ed-af3f-ae0e834a33f4","ios":"levelo://app?vid=81eff0ee-a78e-40ed-af3f-ae0e834a33f4"},"vehicle_type_id":"4","last_reported":1746526296,"current_range_meters":400,"station_id":"ce4bgg92rcd13ifvqb30","pricing_plan_id":"cebpf4jnsgd1na2vs0mg"},{"bike_id":"3aeb98b9-91eb-4e1e-a1d7-d7d6303c1f4b","system_id":"levelo_inurba_marseille","lat":43.304626,"lon":5.37902,"is_reserved":false,"is_disabled":true,"rental_uris":{"android":"levelo://app?vid=3aeb98b9-91eb-4e1e-a1d7-d7d6303c1f4b","ios":"levelo://app?vid=3aeb98b9-91eb-4e1e-a1d7-d7d6303c1f4b"},"vehicle_type_id":"4","last_reported":1746526296,"current_range_meters":400,"station_id":"ce4bgup2rcd13ifvqcn0","pricing_plan_id":"cebpf4jnsgd1na2vs0mg"},{"bike_id":"fb2dfa32-3ce2-4829-8969-99494b096262","system_id":"levelo_inurba_marseille","lat":43.29704,"lon":5.36607,"is_reserved":false,"is_disabled":true,"rental_uris":{"android":"levelo://app?vid=fb2dfa32-3ce2-4829-8969-99494b096262","ios":"levelo://app?vid=fb2dfa32-3ce2-4829-8969-99494b096262"},"vehicle_type_id":"4","last_reported":1746526296,"current_range_meters":800,"station_id":"ce4bgn12rcd13ifvqbt0","pricing_plan_id":"cebpf4jnsgd1na2vs0mg"},{"bike_id":"e5acc6f6-869d-4f96-af52-e9b5f55b4989","system_id":"levelo_inurba_marseille","lat":43.29094,"lon":5.38146,"is_reserved":false,"is_disabled":true,"rental_uris":{"android":"levelo://app?vid=e5acc6f6-869d-4f96-af52-e9b5f55b4989","ios":"levelo://app?vid=e5acc6f6-869d-4f96-af52-e9b5f55b4989"},"vehicle_type_id":"4","last_reported":1746526296,"current_range_meters":800,"station_id":"ce4bh512rcd13ifvqe2g","pricing_plan_id":"cebpf4jnsgd1na2vs0mg"},{"bike_id":"02af52da-3308-44c8-a02d-097cf040e878","system_id":"levelo_inurba_marseille","lat":43.28,"lon":5.40012,"is_reserved":false,"is_disabled":true,"rental_uris":{"android":"levelo://app?vid=02af52da-3308-44c8-a02d-097cf040e878","ios":"levelo://app?vid=02af52da-3308-44c8-a02d-097cf040e878"},"vehicle_type_id":"4","last_reported":1746526296,"current_range_meters":800,"station_id":"ce4bho92rcd13ifvqh4g","pricing_plan_id":"cebpf4jnsgd1na2vs0mg"},{"bike_id":"8bdf2047-4001-48e3-84ac-a8247e18e580","system_id":"levelo_inurba_marseille","lat":43.29269,"lon":5.38427,"is_reserved":false,"is_disabled":true,"rental_uris":{"android":"levelo://app?vid=8bdf2047-4001-48e3-84ac-a8247e18e580","ios":"levelo://app?vid=8bdf2047-4001-48e3-84ac-a8247e18e580"},"vehicle_type_id":"4","last_reported":1746526296,"current_range_meters":1200,"station_id":"ce4bh692rcd13ifvqea0","pricing_plan_id":"cebpf4jnsgd1na2vs0mg"},{"bike_id":"176d6c06-9e9b-46cd-9337-b7139e13cef1","system_id":"levelo_inurba_marseille","lat":43.29976,"lon":5.38493,"is_reserved":false,"is_disabled":false,"rental_uris":{"android":"levelo://app?vid=176d6c06-9e9b-46cd-9337-b7139e13cef1","ios":"levelo://app?vid=176d6c06-9e9b-46cd-9337-b7139e13cef1"},"vehicle_type_id":"4","last_reported":1746526296,"current_range_meters":3200,"station_id":"ce4bgj92rcd13ifvqbd0","pricing_plan_id":"cebpf4jnsgd1na2vs0mg"},{"bike_id":"a15693e4-abd1-410f-92dd-976ed5f6d11c","system_id":"levelo_inurba_marseille","lat":43.30315,"lon":5.40441,"is_reserved":false,"is_disabled":false,"rental_uris":{"android":"levelo://app?vid=a15693e4-abd1-410f-92dd-976ed5f6d11c","ios":"levelo://app?vid=a15693e4-abd1-410f-92dd-976ed5f6d11c"},"vehicle_type_id":"4","last_reported":1746526296,"current_range_meters":3200,"station_id":"ce4bh012rcd13ifvqd10","pricing_plan_id":"cebpf4jnsgd1na2vs0mg"},{"bike_id":"cd605d12-1c1f-4c23-b062-a75963290c05","system_id":"levelo_inurba_marseille","lat":43.286658,"lon":5.386687,"is_reserved":false,"is_disabled":false,"rental_uris":{"android":"levelo://app?vid=cd605d12-1c1f-4c23-b062-a75963290c05","ios":"levelo://app?vid=cd605d12-1c1f-4c23-b062-a75963290c05"},"vehicle_type_id":"4","last_reported":1746526296,"current_range_meters":3200,"station_id":"ce4bh492rcd13ifvqdug","pricing_plan_id":"cebpf4jnsgd1na2vs0mg"},{"bike_id":"66b646b3-6352-44bb-9bfb-21570512e3e5","system_id":"levelo_inurba_marseille","lat":43.28111,"lon":5.40396,"is_reserved":false,"is_disabled":false,"rental_uris":{"android":"levelo://app?vid=66b646b3-6352-44bb-9bfb-21570512e3e5","ios":"levelo://app?vid=66b646b3-6352-44bb-9bfb-21570512e3e5"},"vehicle_type_id":"4","last_reported":1746526296,"current_range_meters":3600,"station_id":"","pricing_plan_id":"cebpf4jnsgd1na2vs0mg"},{"bike_id":"b428fea7-22df-4bc2-bfd2-ebb537f0a430","system_id":"levelo_inurba_marseille","lat":43.28706,"lon":5.39985,"is_reserved":false,"is_disabled":false,"rental_uris":{"android":"levelo://app?vid=b428fea7-22df-4bc2-bfd2-ebb537f0a430","ios":"levelo://app?vid=b428fea7-22df-4bc2-bfd2-ebb537f0a430"},"vehicle_type_id":"4","last_reported":1746526296,"current_range_meters":3600,"station_id":"ce4bho92rcd13ifvqh3g","pricing_plan_id":"cebpf4jnsgd1na2vs0mg"},{"bike_id":"dc37328e-4039-4818-9a8b-d3a9ec86327e","system_id":"levelo_inurba_marseille","lat":43.27807,"lon":5.40708,"is_reserved":false,"is_disabled":false,"rental_uris":{"android":"levelo://app?vid=dc37328e-4039-4818-9a8b-d3a9ec86327e","ios":"levelo://app?vid=dc37328e-4039-4818-9a8b-d3a9ec86327e"},"vehicle_type_id":"4","last_reported":1746526296,"current_range_meters":4000,"station_id":"ce4bhnh2rcd13ifvqgtg","pricing_plan_id":"cebpf4jnsgd1na2vs0mg"},{"bike_id":"c920c4c3-47fd-4600-97a5-69a33a89266a","system_id":"levelo_inurba_marseille","lat":43.30142,"lon":5.3987,"is_reserved":false,"is_disabled":false,"rental_uris":{"android":"levelo://app?vid=c920c4c3-47fd-4600-97a5-69a33a89266a","ios":"levelo://app?vid=c920c4c3-47fd-4600-97a5-69a33a89266a"},"vehicle_type_id":"4","last_reported":1746526296,"current_range_meters":4400,"station_id":"ce4bh0h2rcd13ifvqd40","pricing_plan_id":"cebpf4jnsgd1na2vs0mg"},{"bike_id":"46a31a55-5669-43f1-bd00-63b9f012daf6","system_id":"levelo_inurba_marseille","lat":43.29264,"lon":5.40903,"is_reserved":false,"is_disabled":false,"rental_uris":{"android":"levelo://app?vid=46a31a55-5669-43f1-bd00-63b9f012daf6","ios":"levelo://app?vid=46a31a55-5669-43f1-bd00-63b9f012daf6"},"vehicle_type_id":"4","last_reported":1746526296,"current_range_meters":4400,"station_id":"ce4bh192rcd13ifvqdc0","pricing_plan_id":"cebpf4jnsgd1na2vs0mg"},{"bike_id":"903ace5d-b1d6-4b6c-9fdc-25cc75342bd1","system_id":"levelo_inurba_marseille","lat":43.26569,"lon":5.39001,"is_reserved":false,"is_disabled":false,"rental_uris":{"android":"levelo://app?vid=903ace5d-b1d6-4b6c-9fdc-25cc75342bd1","ios":"levelo://app?vid=903ace5d-b1d6-4b6c-9fdc-25cc75342bd1"},"vehicle_type_id":"4","last_reported":1746526296,"current_range_meters":6000,"station_id":"ce4bhe12rcd13ifvqf30","pricing_plan_id":"cebpf4jnsgd1na2vs0mg"},{"bike_id":"5c7249a3-596f-4101-8dbd-1087a1f3b438","system_id":"levelo_inurba_marseille","lat":43.231887,"lon":5.355594,"is_reserved":false,"is_disabled":false,"rental_uris":{"android":"levelo://app?vid=5c7249a3-596f-4101-8dbd-1087a1f3b438","ios":"levelo://app?vid=5c7249a3-596f-4101-8dbd-1087a1f3b438"},"vehicle_type_id":"4","last_reported":1746526296,"current_range_meters":6000,"station_id":"ce4bhu92rcd13ifvqi70","pricing_plan_id":"cebpf4jnsgd1na2vs0mg"},{"bike_id":"482344f1-460c-48ea-83dd-01b9a385e5cf","system_id":"levelo_inurba_marseille","lat":43.30675,"lon":5.36872,"is_reserved":false,"is_disabled":false,"rental_uris":{"android":"levelo://app?vid=482344f1-460c-48ea-83dd-01b9a385e5cf","ios":"levelo://app?vid=482344f1-460c-48ea-83dd-01b9a385e5cf"},"vehicle_type_id":"4","last_reported":1746526296,"current_range_meters":6400,"station_id":"","pricing_plan_id":"cebpf4jnsgd1na2vs0mg"},{"bike_id":"b7968d56-e97a-400e-995e-caaf686d2dbd","system_id":"levelo_inurba_marseille","lat":43.313444,"lon":5.367179,"is_reserved":false,"is_disabled":false,"rental_uris":{"android":"levelo://app?vid=b7968d56-e97a-400e-995e-caaf686d2dbd","ios":"levelo://app?vid=b7968d56-e97a-400e-995e-caaf686d2dbd"},"vehicle_type_id":"4","last_reported":1746526296,"current_range_meters":6400,"station_id":"ce4bgr92rcd13ifvqc6g","pricing_plan_id":"cebpf4jnsgd1na2vs0mg"},{"bike_id":"ac63e74b-4488-48c9-97a3-fa06519df3ef","system_id":"levelo_inurba_marseille","lat":43.31341,"lon":5.367,"is_reserved":false,"is_disabled":false,"rental_uris":{"android":"levelo://app?vid=ac63e74b-4488-48c9-97a3-fa06519df3ef","ios":"levelo://app?vid=ac63e74b-4488-48c9-97a3-fa06519df3ef"},"vehicle_type_id":"4","last_reported":1746526296,"current_range_meters":6800,"station_id":"ce4bgr92rcd13ifvqc6g","pricing_plan_id":"cebpf4jnsgd1na2vs0mg"},{"bike_id":"d8b28899-beb2-4fed-90ec-740853b41530","system_id":"levelo_inurba_marseille","lat":43.313496,"lon":5.367091,"is_reserved":false,"is_disabled":false,"rental_uris":{"android":"levelo://app?vid=d8b28899-beb2-4fed-90ec-740853b41530","ios":"levelo://app?vid=d8b28899-beb2-4fed-90ec-740853b41530"},"vehicle_type_id":"4","last_reported":1746526296,"current_range_meters":6800,"station_id":"ce4bgr92rcd13ifvqc6g","pricing_plan_id":"cebpf4jnsgd1na2vs0mg"},{"bike_id":"5f75a000-5412-4dcc-9930-718ca33b8fe7","system_id":"levelo_inurba_marseille","lat":43.313453,"lon":5.367279,"is_reserved":false,"is_disabled":false,"rental_uris":{"android":"levelo://app?vid=5f75a000-5412-4dcc-9930-718ca33b8fe7","ios":"levelo://app?vid=5f75a000-5412-4dcc-9930-718ca33b8fe7"},"vehicle_type_id":"4","last_reported":1746526296,"current_range_meters":7200,"station_id":"ce4bgr92rcd13ifvqc6g","pricing_plan_id":"cebpf4jnsgd1na2vs0mg"},{"bike_id":"f201e35f-0887-46ff-bb2e-950f0791d4ee","system_id":"levelo_inurba_marseille","lat":43.26549,"lon":5.3729,"is_reserved":false,"is_disabled":false,"rental_uris":{"android":"levelo://app?vid=f201e35f-0887-46ff-bb2e-950f0791d4ee","ios":"levelo://app?vid=f201e35f-0887-46ff-bb2e-950f0791d4ee"},"vehicle_type_id":"4","last_reported":1746526296,"current_range_meters":8000,"station_id":"ce4bhg12rcd13ifvqf70","pricing_plan_id":"cebpf4jnsgd1na2vs0mg"},{"bike_id":"77410e07-9f81-4033-899b-2f07157282d3","system_id":"levelo_inurba_marseille","lat":43.2582,"lon":5.39434,"is_reserved":false,"is_disabled":false,"rental_uris":{"android":"levelo://app?vid=77410e07-9f81-4033-899b-2f07157282d3","ios":"levelo://app?vid=77410e07-9f81-4033-899b-2f07157282d3"},"vehicle_type_id":"4","last_reported":1746526296,"current_range_meters":8000,"station_id":"ce4bhip2rcd13ifvqft0","pricing_plan_id":"cebpf4jnsgd1na2vs0mg"},{"bike_id":"1252e240-003e-43b0-937f-123019c1ead2","system_id":"levelo_inurba_marseille","lat":43.2315,"lon":5.43711,"is_reserved":false,"is_disabled":false,"rental_uris":{"android":"levelo://app?vid=1252e240-003e-43b0-937f-123019c1ead2","ios":"levelo://app?vid=1252e240-003e-43b0-937f-123019c1ead2"},"vehicle_type_id":"4","last_reported":1746526296,"current_range_meters":8000,"station_id":"ce4bhmp2rcd13ifvqgog","pricing_plan_id":"cebpf4jnsgd1na2vs0mg"},{"bike_id":"8dbbc619-0efd-4902-82fe-a4cc45f8d73a","system_id":"levelo_inurba_marseille","lat":43.28698,"lon":5.39989,"is_reserved":false,"is_disabled":false,"rental_uris":{"android":"levelo://app?vid=8dbbc619-0efd-4902-82fe-a4cc45f8d73a","ios":"levelo://app?vid=8dbbc619-0efd-4902-82fe-a4cc45f8d73a"},"vehicle_type_id":"4","last_reported":1746526296,"current_range_meters":8000,"station_id":"ce4bho92rcd13ifvqh3g","pricing_plan_id":"cebpf4jnsgd1na2vs0mg"},{"bike_id":"8f41600a-489c-4b60-9dd0-a5b521b83778","system_id":"levelo_inurba_marseille","lat":43.2857,"lon":5.39498,"is_reserved":false,"is_disabled":false,"rental_uris":{"android":"levelo://app?vid=8f41600a-489c-4b60-9dd0-a5b521b83778","ios":"levelo://app?vid=8f41600a-489c-4b60-9dd0-a5b521b83778"},"vehicle_type_id":"4","last_reported":1746526296,"current_range_meters":8400,"station_id":"ce4bh292rcd13ifvqdg0","pricing_plan_id":"cebpf4jnsgd1na2vs0mg"},{"bike_id":"7f0ec2ea-3f01-465d-b18d-da112fb9f66c","system_id":"levelo_inurba_marseille","lat":43.27567,"lon":5.38427,"is_reserved":false,"is_disabled":false,"rental_uris":{"android":"levelo://app?vid=7f0ec2ea-3f01-465d-b18d-da112fb9f66c","ios":"levelo://app?vid=7f0ec2ea-3f01-465d-b18d-da112fb9f66c"},"vehicle_type_id":"4","last_reported":1746526296,"current_range_meters":8400,"station_id":"ce4bhh92rcd13ifvqfi0","pricing_plan_id":"cebpf4jnsgd1na2vs0mg"},{"bike_id":"f458f65d-c5e8-4730-850e-2ff831642423","system_id":"levelo_inurba_marseille","lat":43.2315,"lon":5.43713,"is_reserved":false,"is_disabled":false,"rental_uris":{"android":"levelo://app?vid=f458f65d-c5e8-4730-850e-2ff831642423","ios":"levelo://app?vid=f458f65d-c5e8-4730-850e-2ff831642423"},"vehicle_type_id":"4","last_reported":1746526296,"current_range_meters":8400,"station_id":"ce4bhmp2rcd13ifvqgog","pricing_plan_id":"cebpf4jnsgd1na2vs0mg"},{"bike_id":"020decc4-d4a7-47d9-8a1c-e310aa5d3c3d","system_id":"levelo_inurba_marseille","lat":43.31682,"lon":5.40445,"is_reserved":false,"is_disabled":false,"rental_uris":{"android":"levelo://app?vid=020decc4-d4a7-47d9-8a1c-e310aa5d3c3d","ios":"levelo://app?vid=020decc4-d4a7-47d9-8a1c-e310aa5d3c3d"},"vehicle_type_id":"4","last_reported":1746526296,"current_range_meters":8800,"station_id":"ce4bh012rcd13ifvqd00","pricing_plan_id":"cebpf4jnsgd1na2vs0mg"},{"bike_id":"560684e1-26f3-400c-a285-9584ded00abd","system_id":"levelo_inurba_marseille","lat":43.262127,"lon":5.37429,"is_reserved":false,"is_disabled":false,"rental_uris":{"android":"levelo://app?vid=560684e1-26f3-400c-a285-9584ded00abd","ios":"levelo://app?vid=560684e1-26f3-400c-a285-9584ded00abd"},"vehicle_type_id":"4","last_reported":1746526296,"current_range_meters":8800,"station_id":"ce4bhgp2rcd13ifvqfc0","pricing_plan_id":"cebpf4jnsgd1na2vs0mg"},{"bike_id":"9d8f73eb-df09-4699-86a7-d631e2319093","system_id":"levelo_inurba_marseille","lat":43.26257,"lon":5.37425,"is_reserved":false,"is_disabled":false,"rental_uris":{"android":"levelo://app?vid=9d8f73eb-df09-4699-86a7-d631e2319093","ios":"levelo://app?vid=9d8f73eb-df09-4699-86a7-d631e2319093"},"vehicle_type_id":"4","last_reported":1746526296,"current_range_meters":9200,"station_id":"","pricing_plan_id":"cebpf4jnsgd1na2vs0mg"},{"bike_id":"62bfa9fa-531f-4d2b-9e57-eb50b2d48c8c","system_id":"levelo_inurba_marseille","lat":43.242723,"lon":5.38007,"is_reserved":false,"is_disabled":false,"rental_uris":{"android":"levelo://app?vid=62bfa9fa-531f-4d2b-9e57-eb50b2d48c8c","ios":"levelo://app?vid=62bfa9fa-531f-4d2b-9e57-eb50b2d48c8c"},"vehicle_type_id":"4","last_reported":1746526296,"current_range_meters":9200,"station_id":"","pricing_plan_id":"cebpf4jnsgd1na2vs0mg"},{"bike_id":"076f2b90-e566-447f-88a2-b545f052dbc6","system_id":"levelo_inurba_marseille","lat":43.26231,"lon":5.37432,"is_reserved":false,"is_disabled":false,"rental_uris":{"android":"levelo://app?vid=076f2b90-e566-447f-88a2-b545f052dbc6","ios":"levelo://app?vid=076f2b90-e566-447f-88a2-b545f052dbc6"},"vehicle_type_id":"4","last_reported":1746526296,"current_range_meters":9600,"station_id":"","pricing_plan_id":"cebpf4jnsgd1na2vs0mg"},{"bike_id":"715af6eb-c6b5-4674-b0fa-cb5d16e24e61","system_id":"levelo_inurba_marseille","lat":43.3136,"lon":5.38503,"is_reserved":false,"is_disabled":false,"rental_uris":{"android":"levelo://app?vid=715af6eb-c6b5-4674-b0fa-cb5d16e24e61","ios":"levelo://app?vid=715af6eb-c6b5-4674-b0fa-cb5d16e24e61"},"vehicle_type_id":"4","last_reported":1746526296,"current_range_meters":9600,"station_id":"ce4bgt92rcd13ifvqcf0","pricing_plan_id":"cebpf4jnsgd1na2vs0mg"},{"bike_id":"eebc4fc3-7295-4b11-8dab-02d7d111a06b","system_id":"levelo_inurba_marseille","lat":43.27554,"lon":5.38421,"is_reserved":false,"is_disabled":false,"rental_uris":{"android":"levelo://app?vid=eebc4fc3-7295-4b11-8dab-02d7d111a06b","ios":"levelo://app?vid=eebc4fc3-7295-4b11-8dab-02d7d111a06b"},"vehicle_type_id":"4","last_reported":1746526296,"current_range_meters":9600,"station_id":"ce4bhh92rcd13ifvqfi0","pricing_plan_id":"cebpf4jnsgd1na2vs0mg"},{"bike_id":"700209b2-1509-4a9d-b686-43c5d83bff8f","system_id":"levelo_inurba_marseille","lat":43.32106,"lon":5.36765,"is_reserved":false,"is_disabled":false,"rental_uris":{"android":"levelo://app?vid=700209b2-1509-4a9d-b686-43c5d83bff8f","ios":"levelo://app?vid=700209b2-1509-4a9d-b686-43c5d83bff8f"},"vehicle_type_id":"4","last_reported":1746526296,"current_range_meters":9600,"station_id":"ce4bhrh2rcd13ifvqhug","pricing_plan_id":"cebpf4jnsgd1na2vs0mg"},{"bike_id":"0c377d9d-9a3a-47a7-9944-6039314b5e15","system_id":"levelo_inurba_marseille","lat":43.24589,"lon":5.40483,"is_reserved":false,"is_disabled":false,"rental_uris":{"android":"levelo://app?vid=0c377d9d-9a3a-47a7-9944-6039314b5e15","ios":"levelo://app?vid=0c377d9d-9a3a-47a7-9944-6039314b5e15"},"vehicle_type_id":"4","last_reported":1746526296,"current_range_meters":10000,"station_id":"","pricing_plan_id":"cebpf4jnsgd1na2vs0mg"},{"bike_id":"e1d11f1b-0c0c-45a2-98ab-55a3a7039842","system_id":"levelo_inurba_marseille","lat":43.29305,"lon":5.37181,"is_reserved":false,"is_disabled":false,"rental_uris":{"android":"levelo://app?vid=e1d11f1b-0c0c-45a2-98ab-55a3a7039842","ios":"levelo://app?vid=e1d11f1b-0c0c-45a2-98ab-55a3a7039842"},"vehicle_type_id":"4","last_reported":1746526296,"current_range_meters":10000,"station_id":"ce4bgh92rcd13ifvqb40","pricing_plan_id":"cebpf4jnsgd1na2vs0mg"},{"bike_id":"05a84f69-0592-442a-b098-6253d0b70e9e","system_id":"levelo_inurba_marseille","lat":43.2999,"lon":5.37211,"is_reserved":false,"is_disabled":false,"rental_uris":{"android":"levelo://app?vid=05a84f69-0592-442a-b098-6253d0b70e9e","ios":"levelo://app?vid=05a84f69-0592-442a-b098-6253d0b70e9e"},"vehicle_type_id":"4","last_reported":1746526296,"current_range_meters":10000,"station_id":"ce4bgr92rcd13ifvqc7g","pricing_plan_id":"cebpf4jnsgd1na2vs0mg"},{"bike_id":"3ffb72b3-3870-4ecb-bb52-bfefa0d19a50","system_id":"levelo_inurba_marseille","lat":43.27069,"lon":5.42275,"is_reserved":false,"is_disabled":false,"rental_uris":{"android":"levelo://app?vid=3ffb72b3-3870-4ecb-bb52-bfefa0d19a50","ios":"levelo://app?vid=3ffb72b3-3870-4ecb-bb52-bfefa0d19a50"},"vehicle_type_id":"4","last_reported":1746526296,"current_range_meters":10000,"station_id":"ce4bhk92rcd13ifvqgb0","pricing_plan_id":"cebpf4jnsgd1na2vs0mg"},{"bike_id":"db607aba-0db6-423b-a818-c23224727203","system_id":"levelo_inurba_marseille","lat":43.23132,"lon":5.43678,"is_reserved":false,"is_disabled":false,"rental_uris":{"android":"levelo://app?vid=db607aba-0db6-423b-a818-c23224727203","ios":"levelo://app?vid=db607aba-0db6-423b-a818-c23224727203"},"vehicle_type_id":"4","last_reported":1746526296,"current_range_meters":10000,"station_id":"ce4bhmp2rcd13ifvqgog","pricing_plan_id":"cebpf4jnsgd1na2vs0mg"},{"bike_id":"fbda12d9-6999-44a5-a236-2a288c2ac07c","system_id":"levelo_inurba_marseille","lat":43.24096,"lon":5.37773,"is_reserved":false,"is_disabled":false,"rental_uris":{"android":"levelo://app?vid=fbda12d9-6999-44a5-a236-2a288c2ac07c","ios":"levelo://app?vid=fbda12d9-6999-44a5-a236-2a288c2ac07c"},"vehicle_type_id":"4","last_reported":1746526296,"current_range_meters":10000,"station_id":"ce4bhnp2rcd13ifvqgvg","pricing_plan_id":"cebpf4jnsgd1na2vs0mg"},{"bike_id":"503569af-07db-461f-918e-29f89d0c1c24","system_id":"levelo_inurba_marseille","lat":43.224937,"lon":5.347874,"is_reserved":false,"is_disabled":false,"rental_uris":{"android":"levelo://app?vid=503569af-07db-461f-918e-29f89d0c1c24","ios":"levelo://app?vid=503569af-07db-461f-918e-29f89d0c1c24"},"vehicle_type_id":"4","last_reported":1746526296,"current_range_meters":10000,"station_id":"st_cvj5dfep6f1abm77gieg","pricing_plan_id":"cebpf4jnsgd1na2vs0mg"},{"bike_id":"7eee5bf5-802d-4b1e-9d36-80f91ad41dae","system_id":"levelo_inurba_marseille","lat":43.30884,"lon":5.39659,"is_reserved":false,"is_disabled":false,"rental_uris":{"android":"levelo://app?vid=7eee5bf5-802d-4b1e-9d36-80f91ad41dae","ios":"levelo://app?vid=7eee5bf5-802d-4b1e-9d36-80f91ad41dae"},"vehicle_type_id":"4","last_reported":1746526296,"current_range_meters":10800,"station_id":"ce4bh012rcd13ifvqcv0","pricing_plan_id":"cebpf4jnsgd1na2vs0mg"},{"bike_id":"13393f9b-fd9e-4cf6-a7c5-24ac3bacd96e","system_id":"levelo_inurba_marseille","lat":43.291834,"lon":5.372382,"is_reserved":false,"is_disabled":false,"rental_uris":{"android":"levelo://app?vid=13393f9b-fd9e-4cf6-a7c5-24ac3bacd96e","ios":"levelo://app?vid=13393f9b-fd9e-4cf6-a7c5-24ac3bacd96e"},"vehicle_type_id":"4","last_reported":1746526296,"current_range_meters":10800,"station_id":"ce4bha92rcd13ifvqeh0","pricing_plan_id":"cebpf4jnsgd1na2vs0mg"},{"bike_id":"e0eebb06-5c98-44a4-9f84-563b62ed60fe","system_id":"levelo_inurba_marseille","lat":43.25929,"lon":5.40875,"is_reserved":false,"is_disabled":false,"rental_uris":{"android":"levelo://app?vid=e0eebb06-5c98-44a4-9f84-563b62ed60fe","ios":"levelo://app?vid=e0eebb06-5c98-44a4-9f84-563b62ed60fe"},"vehicle_type_id":"4","last_reported":1746526296,"current_range_meters":10800,"station_id":"ce4bhm92rcd13ifvqglg","pricing_plan_id":"cebpf4jnsgd1na2vs0mg"},{"bike_id":"fa37bfe9-0fcc-4f35-84b9-67041a093339","system_id":"levelo_inurba_marseille","lat":43.24097,"lon":5.37738,"is_reserved":false,"is_disabled":false,"rental_uris":{"android":"levelo://app?vid=fa37bfe9-0fcc-4f35-84b9-67041a093339","ios":"levelo://app?vid=fa37bfe9-0fcc-4f35-84b9-67041a093339"},"vehicle_type_id":"4","last_reported":1746526296,"current_range_meters":10800,"station_id":"ce4bhnp2rcd13ifvqgvg","pricing_plan_id":"cebpf4jnsgd1na2vs0mg"},{"bike_id":"a46b5721-597c-404e-8ddb-3ba6469f967d","system_id":"levelo_inurba_marseille","lat":43.23188,"lon":5.35552,"is_reserved":false,"is_disabled":false,"rental_uris":{"android":"levelo://app?vid=a46b5721-597c-404e-8ddb-3ba6469f967d","ios":"levelo://app?vid=a46b5721-597c-404e-8ddb-3ba6469f967d"},"vehicle_type_id":"4","last_reported":1746526296,"current_range_meters":10800,"station_id":"ce4bhu92rcd13ifvqi70","pricing_plan_id":"cebpf4jnsgd1na2vs0mg"},{"bike_id":"c9592205-9409-4f74-aed1-7c4141a58caa","system_id":"levelo_inurba_marseille","lat":43.27139,"lon":5.36356,"is_reserved":false,"is_disabled":false,"rental_uris":{"android":"levelo://app?vid=c9592205-9409-4f74-aed1-7c4141a58caa","ios":"levelo://app?vid=c9592205-9409-4f74-aed1-7c4141a58caa"},"vehicle_type_id":"4","last_reported":1746526296,"current_range_meters":11200,"station_id":"","pricing_plan_id":"cebpf4jnsgd1na2vs0mg"},{"bike_id":"51bd51ad-54fe-4694-8c51-0cf4e7625821","system_id":"levelo_inurba_marseille","lat":43.30284,"lon":5.3772,"is_reserved":false,"is_disabled":false,"rental_uris":{"android":"levelo://app?vid=51bd51ad-54fe-4694-8c51-0cf4e7625821","ios":"levelo://app?vid=51bd51ad-54fe-4694-8c51-0cf4e7625821"},"vehicle_type_id":"4","last_reported":1746526296,"current_range_meters":11200,"station_id":"ce4bguh2rcd13ifvqcj0","pricing_plan_id":"cebpf4jnsgd1na2vs0mg"},{"bike_id":"06eeba0d-4034-4683-9f94-7ab934fde759","system_id":"levelo_inurba_marseille","lat":43.23151,"lon":5.4371,"is_reserved":false,"is_disabled":false,"rental_uris":{"android":"levelo://app?vid=06eeba0d-4034-4683-9f94-7ab934fde759","ios":"levelo://app?vid=06eeba0d-4034-4683-9f94-7ab934fde759"},"vehicle_type_id":"4","last_reported":1746526296,"current_range_meters":11200,"station_id":"ce4bhmp2rcd13ifvqgog","pricing_plan_id":"cebpf4jnsgd1na2vs0mg"},{"bike_id":"d5b09c65-4037-4867-b034-d23af67b5b2b","system_id":"levelo_inurba_marseille","lat":43.27504,"lon":5.42461,"is_reserved":false,"is_disabled":false,"rental_uris":{"android":"levelo://app?vid=d5b09c65-4037-4867-b034-d23af67b5b2b","ios":"levelo://app?vid=d5b09c65-4037-4867-b034-d23af67b5b2b"},"vehicle_type_id":"4","last_reported":1746526296,"current_range_meters":11200,"station_id":"ce4bhn92rcd13ifvqgrg","pricing_plan_id":"cebpf4jnsgd1na2vs0mg"},{"bike_id":"13bff37a-eac5-4d16-b5ca-bbaf48f7b68d","system_id":"levelo_inurba_marseille","lat":43.287,"lon":5.39993,"is_reserved":false,"is_disabled":false,"rental_uris":{"android":"levelo://app?vid=13bff37a-eac5-4d16-b5ca-bbaf48f7b68d","ios":"levelo://app?vid=13bff37a-eac5-4d16-b5ca-bbaf48f7b68d"},"vehicle_type_id":"4","last_reported":1746526296,"current_range_meters":11200,"station_id":"ce4bho92rcd13ifvqh3g","pricing_plan_id":"cebpf4jnsgd1na2vs0mg"},{"bike_id":"d2125939-b570-4b67-9cb5-f5a5bc562ba6","system_id":"levelo_inurba_marseille","lat":43.31712,"lon":5.43723,"is_reserved":false,"is_disabled":false,"rental_uris":{"android":"levelo://app?vid=d2125939-b570-4b67-9cb5-f5a5bc562ba6","ios":"levelo://app?vid=d2125939-b570-4b67-9cb5-f5a5bc562ba6"},"vehicle_type_id":"4","last_reported":1746526296,"current_range_meters":11200,"station_id":"ce4bhp92rcd13ifvqhcg","pricing_plan_id":"cebpf4jnsgd1na2vs0mg"},{"bike_id":"eed67844-63a6-45e1-8d21-4c824d211553","system_id":"levelo_inurba_marseille","lat":43.30909,"lon":5.36849,"is_reserved":false,"is_disabled":false,"rental_uris":{"android":"levelo://app?vid=eed67844-63a6-45e1-8d21-4c824d211553","ios":"levelo://app?vid=eed67844-63a6-45e1-8d21-4c824d211553"},"vehicle_type_id":"4","last_reported":1746526296,"current_range_meters":11600,"station_id":"ce4bgn92rcd13ifvqbvg","pricing_plan_id":"cebpf4jnsgd1na2vs0mg"},{"bike_id":"4fac73c6-2615-4a2b-9f68-28693c33d6a1","system_id":"levelo_inurba_marseille","lat":43.2395,"lon":5.36685,"is_reserved":false,"is_disabled":false,"rental_uris":{"android":"levelo://app?vid=4fac73c6-2615-4a2b-9f68-28693c33d6a1","ios":"levelo://app?vid=4fac73c6-2615-4a2b-9f68-28693c33d6a1"},"vehicle_type_id":"4","last_reported":1746526296,"current_range_meters":11600,"station_id":"ce4bhi12rcd13ifvqfp0","pricing_plan_id":"cebpf4jnsgd1na2vs0mg"},{"bike_id":"507578ed-9a0e-47a0-bd36-1d5dad9d3e6e","system_id":"levelo_inurba_marseille","lat":43.31687,"lon":5.40475,"is_reserved":false,"is_disabled":false,"rental_uris":{"android":"levelo://app?vid=507578ed-9a0e-47a0-bd36-1d5dad9d3e6e","ios":"levelo://app?vid=507578ed-9a0e-47a0-bd36-1d5dad9d3e6e"},"vehicle_type_id":"4","last_reported":1746526296,"current_range_meters":12000,"station_id":"ce4bh012rcd13ifvqd00","pricing_plan_id":"cebpf4jnsgd1na2vs0mg"},{"bike_id":"aef42c2f-9360-412c-b7d9-6c4210fddd22","system_id":"levelo_inurba_marseille","lat":43.25915,"lon":5.40879,"is_reserved":false,"is_disabled":false,"rental_uris":{"android":"levelo://app?vid=aef42c2f-9360-412c-b7d9-6c4210fddd22","ios":"levelo://app?vid=aef42c2f-9360-412c-b7d9-6c4210fddd22"},"vehicle_type_id":"4","last_reported":1746526296,"current_range_meters":12000,"station_id":"ce4bhm92rcd13ifvqglg","pricing_plan_id":"cebpf4jnsgd1na2vs0mg"},{"bike_id":"6b437b2e-9e03-4397-80ab-53f7002676cb","system_id":"levelo_inurba_marseille","lat":43.31704,"lon":5.40457,"is_reserved":false,"is_disabled":false,"rental_uris":{"android":"levelo://app?vid=6b437b2e-9e03-4397-80ab-53f7002676cb","ios":"levelo://app?vid=6b437b2e-9e03-4397-80ab-53f7002676cb"},"vehicle_type_id":"4","last_reported":1746526296,"current_range_meters":12400,"station_id":"ce4bh012rcd13ifvqd00","pricing_plan_id":"cebpf4jnsgd1na2vs0mg"},{"bike_id":"dc96cbc1-afc0-453c-acd3-bfab82766938","system_id":"levelo_inurba_marseille","lat":43.286082,"lon":5.351182,"is_reserved":false,"is_disabled":false,"rental_uris":{"android":"levelo://app?vid=dc96cbc1-afc0-453c-acd3-bfab82766938","ios":"levelo://app?vid=dc96cbc1-afc0-453c-acd3-bfab82766938"},"vehicle_type_id":"4","last_reported":1746526296,"current_range_meters":12400,"station_id":"ce4bha92rcd13ifvqeh0","pricing_plan_id":"cebpf4jnsgd1na2vs0mg"},{"bike_id":"2bab1308-7451-4bd5-a59f-20c7a83e5261","system_id":"levelo_inurba_marseille","lat":43.23148,"lon":5.43724,"is_reserved":false,"is_disabled":false,"rental_uris":{"android":"levelo://app?vid=2bab1308-7451-4bd5-a59f-20c7a83e5261","ios":"levelo://app?vid=2bab1308-7451-4bd5-a59f-20c7a83e5261"},"vehicle_type_id":"4","last_reported":1746526296,"current_range_meters":12400,"station_id":"ce4bhmp2rcd13ifvqgog","pricing_plan_id":"cebpf4jnsgd1na2vs0mg"},{"bike_id":"7ca09d8d-51db-4057-abe2-e9c1bdbcdfac","system_id":"levelo_inurba_marseille","lat":43.22942,"lon":5.35382,"is_reserved":false,"is_disabled":false,"rental_uris":{"android":"levelo://app?vid=7ca09d8d-51db-4057-abe2-e9c1bdbcdfac","ios":"levelo://app?vid=7ca09d8d-51db-4057-abe2-e9c1bdbcdfac"},"vehicle_type_id":"4","last_reported":1746526296,"current_range_meters":12400,"station_id":"cpo3532slgdg3j2ikp40","pricing_plan_id":"cebpf4jnsgd1na2vs0mg"},{"bike_id":"3f84d55c-f7b3-443f-a8ba-1f83ba8291a2","system_id":"levelo_inurba_marseille","lat":43.21205,"lon":5.35076,"is_reserved":false,"is_disabled":false,"rental_uris":{"android":"levelo://app?vid=3f84d55c-f7b3-443f-a8ba-1f83ba8291a2","ios":"levelo://app?vid=3f84d55c-f7b3-443f-a8ba-1f83ba8291a2"},"vehicle_type_id":"4","last_reported":1746526296,"current_range_meters":12400,"station_id":"st_cvj6sg6p6f1abm77japg","pricing_plan_id":"cebpf4jnsgd1na2vs0mg"},{"bike_id":"6db6fdd7-9685-4e1c-a11a-9e039aa0f6e2","system_id":"levelo_inurba_marseille","lat":43.27516,"lon":5.42449,"is_reserved":false,"is_disabled":false,"rental_uris":{"android":"levelo://app?vid=6db6fdd7-9685-4e1c-a11a-9e039aa0f6e2","ios":"levelo://app?vid=6db6fdd7-9685-4e1c-a11a-9e039aa0f6e2"},"vehicle_type_id":"4","last_reported":1746526296,"current_range_meters":12800,"station_id":"ce4bhn92rcd13ifvqgrg","pricing_plan_id":"cebpf4jnsgd1na2vs0mg"},{"bike_id":"bac0df76-37b5-42c5-ace1-cfbf5e14a7f3","system_id":"levelo_inurba_marseille","lat":43.24081,"lon":5.37753,"is_reserved":false,"is_disabled":false,"rental_uris":{"android":"levelo://app?vid=bac0df76-37b5-42c5-ace1-cfbf5e14a7f3","ios":"levelo://app?vid=bac0df76-37b5-42c5-ace1-cfbf5e14a7f3"},"vehicle_type_id":"4","last_reported":1746526296,"current_range_meters":12800,"station_id":"ce4bhnp2rcd13ifvqgvg","pricing_plan_id":"cebpf4jnsgd1na2vs0mg"},{"bike_id":"13ebfc6a-b3e8-4bd2-9055-317da3a3d7f6","system_id":"levelo_inurba_marseille","lat":43.24074,"lon":5.3775,"is_reserved":false,"is_disabled":false,"rental_uris":{"android":"levelo://app?vid=13ebfc6a-b3e8-4bd2-9055-317da3a3d7f6","ios":"levelo://app?vid=13ebfc6a-b3e8-4bd2-9055-317da3a3d7f6"},"vehicle_type_id":"4","last_reported":1746526296,"current_range_meters":13600,"station_id":"ce4bhnp2rcd13ifvqgvg","pricing_plan_id":"cebpf4jnsgd1na2vs0mg"},{"bike_id":"d7b1e4d8-f726-4ea7-bc51-7e6d351a33c5","system_id":"levelo_inurba_marseille","lat":43.24074,"lon":5.37754,"is_reserved":false,"is_disabled":false,"rental_uris":{"android":"levelo://app?vid=d7b1e4d8-f726-4ea7-bc51-7e6d351a33c5","ios":"levelo://app?vid=d7b1e4d8-f726-4ea7-bc51-7e6d351a33c5"},"vehicle_type_id":"4","last_reported":1746526296,"current_range_meters":13600,"station_id":"ce4bhnp2rcd13ifvqgvg","pricing_plan_id":"cebpf4jnsgd1na2vs0mg"},{"bike_id":"8c89bd30-8a37-4235-853d-ee1192b9b7ee","system_id":"levelo_inurba_marseille","lat":43.27935,"lon":5.41055,"is_reserved":false,"is_disabled":false,"rental_uris":{"android":"levelo://app?vid=8c89bd30-8a37-4235-853d-ee1192b9b7ee","ios":"levelo://app?vid=8c89bd30-8a37-4235-853d-ee1192b9b7ee"},"vehicle_type_id":"4","last_reported":1746526296,"current_range_meters":13600,"station_id":"ce4bhnp2rcd13ifvqh0g","pricing_plan_id":"cebpf4jnsgd1na2vs0mg"},{"bike_id":"a01d3bd4-302b-41fc-ae6f-30369a774ef2","system_id":"levelo_inurba_marseille","lat":43.30798,"lon":5.37677,"is_reserved":false,"is_disabled":false,"rental_uris":{"android":"levelo://app?vid=a01d3bd4-302b-41fc-ae6f-30369a774ef2","ios":"levelo://app?vid=a01d3bd4-302b-41fc-ae6f-30369a774ef2"},"vehicle_type_id":"4","last_reported":1746526296,"current_range_meters":14000,"station_id":"ce4bgv92rcd13ifvqcq0","pricing_plan_id":"cebpf4jnsgd1na2vs0mg"},{"bike_id":"25b03923-5a04-4f5f-8b61-2d9a24c69034","system_id":"levelo_inurba_marseille","lat":43.32062,"lon":5.41532,"is_reserved":false,"is_disabled":false,"rental_uris":{"android":"levelo://app?vid=25b03923-5a04-4f5f-8b61-2d9a24c69034","ios":"levelo://app?vid=25b03923-5a04-4f5f-8b61-2d9a24c69034"},"vehicle_type_id":"4","last_reported":1746526296,"current_range_meters":14000,"station_id":"ce4bhq92rcd13ifvqhkg","pricing_plan_id":"cebpf4jnsgd1na2vs0mg"},{"bike_id":"73297002-6407-425f-adb6-638ff58e7409","system_id":"levelo_inurba_marseille","lat":43.31345,"lon":5.36721,"is_reserved":false,"is_disabled":false,"rental_uris":{"android":"levelo://app?vid=73297002-6407-425f-adb6-638ff58e7409","ios":"levelo://app?vid=73297002-6407-425f-adb6-638ff58e7409"},"vehicle_type_id":"4","last_reported":1746526296,"current_range_meters":14400,"station_id":"ce4bgr92rcd13ifvqc6g","pricing_plan_id":"cebpf4jnsgd1na2vs0mg"},{"bike_id":"5432db4d-58ca-44aa-857a-54936d8b9c30","system_id":"levelo_inurba_marseille","lat":43.24993,"lon":5.38932,"is_reserved":false,"is_disabled":false,"rental_uris":{"android":"levelo://app?vid=5432db4d-58ca-44aa-857a-54936d8b9c30","ios":"levelo://app?vid=5432db4d-58ca-44aa-857a-54936d8b9c30"},"vehicle_type_id":"4","last_reported":1746526296,"current_range_meters":14400,"station_id":"ce4bhgp2rcd13ifvqfd0","pricing_plan_id":"cebpf4jnsgd1na2vs0mg"},{"bike_id":"cd8a6290-3606-4f09-833e-5828a45a66f9","system_id":"levelo_inurba_marseille","lat":43.24168,"lon":5.36401,"is_reserved":false,"is_disabled":false,"rental_uris":{"android":"levelo://app?vid=cd8a6290-3606-4f09-833e-5828a45a66f9","ios":"levelo://app?vid=cd8a6290-3606-4f09-833e-5828a45a66f9"},"vehicle_type_id":"4","last_reported":1746526296,"current_range_meters":14400,"station_id":"cpo36qri1sfpv3e86is0","pricing_plan_id":"cebpf4jnsgd1na2vs0mg"},{"bike_id":"0ee0f0a1-97ab-4932-92bf-c4084d4a1af8","system_id":"levelo_inurba_marseille","lat":43.27169,"lon":5.40973,"is_reserved":false,"is_disabled":false,"rental_uris":{"android":"levelo://app?vid=0ee0f0a1-97ab-4932-92bf-c4084d4a1af8","ios":"levelo://app?vid=0ee0f0a1-97ab-4932-92bf-c4084d4a1af8"},"vehicle_type_id":"4","last_reported":1746526296,"current_range_meters":15200,"station_id":"ce4bhl12rcd13ifvqgf0","pricing_plan_id":"cebpf4jnsgd1na2vs0mg"},{"bike_id":"76d0b8fe-60f0-42f9-a0a4-6ea510416f06","system_id":"levelo_inurba_marseille","lat":43.23151,"lon":5.43711,"is_reserved":false,"is_disabled":false,"rental_uris":{"android":"levelo://app?vid=76d0b8fe-60f0-42f9-a0a4-6ea510416f06","ios":"levelo://app?vid=76d0b8fe-60f0-42f9-a0a4-6ea510416f06"},"vehicle_type_id":"4","last_reported":1746526296,"current_range_meters":15200,"station_id":"ce4bhmp2rcd13ifvqgog","pricing_plan_id":"cebpf4jnsgd1na2vs0mg"},{"bike_id":"18c8169f-14fd-450c-a266-41612a0e477c","system_id":"levelo_inurba_marseille","lat":43.29566,"lon":5.42287,"is_reserved":false,"is_disabled":false,"rental_uris":{"android":"levelo://app?vid=18c8169f-14fd-450c-a266-41612a0e477c","ios":"levelo://app?vid=18c8169f-14fd-450c-a266-41612a0e477c"},"vehicle_type_id":"4","last_reported":1746526296,"current_range_meters":15200,"station_id":"ce4bhph2rcd13ifvqhdg","pricing_plan_id":"cebpf4jnsgd1na2vs0mg"},{"bike_id":"6422937c-9c68-4623-b51f-75594f7af749","system_id":"levelo_inurba_marseille","lat":43.23195,"lon":5.35554,"is_reserved":false,"is_disabled":false,"rental_uris":{"android":"levelo://app?vid=6422937c-9c68-4623-b51f-75594f7af749","ios":"levelo://app?vid=6422937c-9c68-4623-b51f-75594f7af749"},"vehicle_type_id":"4","last_reported":1746526296,"current_range_meters":15200,"station_id":"ce4bhu92rcd13ifvqi70","pricing_plan_id":"cebpf4jnsgd1na2vs0mg"},{"bike_id":"1900e395-19ba-404e-aa6a-262b7656599d","system_id":"levelo_inurba_marseille","lat":43.2888,"lon":5.43707,"is_reserved":false,"is_disabled":false,"rental_uris":{"android":"levelo://app?vid=1900e395-19ba-404e-aa6a-262b7656599d","ios":"levelo://app?vid=1900e395-19ba-404e-aa6a-262b7656599d"},"vehicle_type_id":"4","last_reported":1746526296,"current_range_meters":16000,"station_id":"","pricing_plan_id":"cebpf4jnsgd1na2vs0mg"},{"bike_id":"e77f2bb2-ecfd-404d-9062-d0bf870b3424","system_id":"levelo_inurba_marseille","lat":43.30533,"lon":5.36536,"is_reserved":false,"is_disabled":false,"rental_uris":{"android":"levelo://app?vid=e77f2bb2-ecfd-404d-9062-d0bf870b3424","ios":"levelo://app?vid=e77f2bb2-ecfd-404d-9062-d0bf870b3424"},"vehicle_type_id":"4","last_reported":1746526296,"current_range_meters":16000,"station_id":"ce4bgs12rcd13ifvqcag","pricing_plan_id":"cebpf4jnsgd1na2vs0mg"},{"bike_id":"b8559f0d-d88d-4fad-8220-7d623021c550","system_id":"levelo_inurba_marseille","lat":43.27555,"lon":5.38424,"is_reserved":false,"is_disabled":false,"rental_uris":{"android":"levelo://app?vid=b8559f0d-d88d-4fad-8220-7d623021c550","ios":"levelo://app?vid=b8559f0d-d88d-4fad-8220-7d623021c550"},"vehicle_type_id":"4","last_reported":1746526296,"current_range_meters":16000,"station_id":"ce4bhh92rcd13ifvqfi0","pricing_plan_id":"cebpf4jnsgd1na2vs0mg"},{"bike_id":"03bb5049-51e5-461e-8353-3cc13edfbfb8","system_id":"levelo_inurba_marseille","lat":43.23952,"lon":5.36625,"is_reserved":false,"is_disabled":false,"rental_uris":{"android":"levelo://app?vid=03bb5049-51e5-461e-8353-3cc13edfbfb8","ios":"levelo://app?vid=03bb5049-51e5-461e-8353-3cc13edfbfb8"},"vehicle_type_id":"4","last_reported":1746526296,"current_range_meters":16000,"station_id":"ce4bhi12rcd13ifvqfp0","pricing_plan_id":"cebpf4jnsgd1na2vs0mg"},{"bike_id":"e0a0fb85-9539-4fb6-b21f-392540fb8a26","system_id":"levelo_inurba_marseille","lat":43.32357,"lon":5.36739,"is_reserved":false,"is_disabled":false,"rental_uris":{"android":"levelo://app?vid=e0a0fb85-9539-4fb6-b21f-392540fb8a26","ios":"levelo://app?vid=e0a0fb85-9539-4fb6-b21f-392540fb8a26"},"vehicle_type_id":"4","last_reported":1746526296,"current_range_meters":16000,"station_id":"ce4bhsh2rcd13ifvqi2g","pricing_plan_id":"cebpf4jnsgd1na2vs0mg"},{"bike_id":"741922f7-49ff-4751-a228-5a73f2c8c24d","system_id":"levelo_inurba_marseille","lat":43.241706,"lon":5.364009,"is_reserved":false,"is_disabled":false,"rental_uris":{"android":"levelo://app?vid=741922f7-49ff-4751-a228-5a73f2c8c24d","ios":"levelo://app?vid=741922f7-49ff-4751-a228-5a73f2c8c24d"},"vehicle_type_id":"4","last_reported":1746526296,"current_range_meters":16000,"station_id":"cpo36qri1sfpv3e86is0","pricing_plan_id":"cebpf4jnsgd1na2vs0mg"},{"bike_id":"6ce81efa-e8f3-477a-b7a1-a1c58c727c56","system_id":"levelo_inurba_marseille","lat":43.21194,"lon":5.35072,"is_reserved":false,"is_disabled":false,"rental_uris":{"android":"levelo://app?vid=6ce81efa-e8f3-477a-b7a1-a1c58c727c56","ios":"levelo://app?vid=6ce81efa-e8f3-477a-b7a1-a1c58c727c56"},"vehicle_type_id":"4","last_reported":1746526296,"current_range_meters":16000,"station_id":"st_cvj6sg6p6f1abm77japg","pricing_plan_id":"cebpf4jnsgd1na2vs0mg"},{"bike_id":"27563f88-1268-4b98-bc06-44e98c7ca400","system_id":"levelo_inurba_marseille","lat":43.320826,"lon":5.441026,"is_reserved":false,"is_disabled":false,"rental_uris":{"android":"levelo://app?vid=27563f88-1268-4b98-bc06-44e98c7ca400","ios":"levelo://app?vid=27563f88-1268-4b98-bc06-44e98c7ca400"},"vehicle_type_id":"4","last_reported":1746526296,"current_range_meters":16400,"station_id":"","pricing_plan_id":"cebpf4jnsgd1na2vs0mg"},{"bike_id":"52f3c2ef-69ec-4fc0-bd6d-37e99e9ccf07","system_id":"levelo_inurba_marseille","lat":43.30134,"lon":5.38794,"is_reserved":false,"is_disabled":false,"rental_uris":{"android":"levelo://app?vid=52f3c2ef-69ec-4fc0-bd6d-37e99e9ccf07","ios":"levelo://app?vid=52f3c2ef-69ec-4fc0-bd6d-37e99e9ccf07"},"vehicle_type_id":"4","last_reported":1746526296,"current_range_meters":16400,"station_id":"ce4bghh2rcd13ifvqb60","pricing_plan_id":"cebpf4jnsgd1na2vs0mg"},{"bike_id":"46a428a1-3a45-4310-8fc1-8ac5239110b0","system_id":"levelo_inurba_marseille","lat":43.25826,"lon":5.39412,"is_reserved":false,"is_disabled":false,"rental_uris":{"android":"levelo://app?vid=46a428a1-3a45-4310-8fc1-8ac5239110b0","ios":"levelo://app?vid=46a428a1-3a45-4310-8fc1-8ac5239110b0"},"vehicle_type_id":"4","last_reported":1746526296,"current_range_meters":16400,"station_id":"ce4bhip2rcd13ifvqft0","pricing_plan_id":"cebpf4jnsgd1na2vs0mg"},{"bike_id":"b4bac287-3615-423a-bca2-a11fb80cb066","system_id":"levelo_inurba_marseille","lat":43.23065,"lon":5.35484,"is_reserved":false,"is_disabled":false,"rental_uris":{"android":"levelo://app?vid=b4bac287-3615-423a-bca2-a11fb80cb066","ios":"levelo://app?vid=b4bac287-3615-423a-bca2-a11fb80cb066"},"vehicle_type_id":"4","last_reported":1746526296,"current_range_meters":16400,"station_id":"cpo3342slgdg3j2ifvpg","pricing_plan_id":"cebpf4jnsgd1na2vs0mg"},{"bike_id":"24d4e16c-7b99-495f-a91d-280fa5666abf","system_id":"levelo_inurba_marseille","lat":43.26024,"lon":5.3755,"is_reserved":false,"is_disabled":false,"rental_uris":{"android":"levelo://app?vid=24d4e16c-7b99-495f-a91d-280fa5666abf","ios":"levelo://app?vid=24d4e16c-7b99-495f-a91d-280fa5666abf"},"vehicle_type_id":"4","last_reported":1746526296,"current_range_meters":17200,"station_id":"ce4bhgh2rcd13ifvqfa0","pricing_plan_id":"cebpf4jnsgd1na2vs0mg"},{"bike_id":"f6b54f57-cfe1-4b67-9b97-9eac84da611a","system_id":"levelo_inurba_marseille","lat":43.260577,"lon":5.394,"is_reserved":false,"is_disabled":false,"rental_uris":{"android":"levelo://app?vid=f6b54f57-cfe1-4b67-9b97-9eac84da611a","ios":"levelo://app?vid=f6b54f57-cfe1-4b67-9b97-9eac84da611a"},"vehicle_type_id":"4","last_reported":1746526296,"current_range_meters":17200,"station_id":"ce4bhh92rcd13ifvqfj0","pricing_plan_id":"cebpf4jnsgd1na2vs0mg"},{"bike_id":"3dded959-6d15-4d4d-bba1-b9d88e328527","system_id":"levelo_inurba_marseille","lat":43.24071,"lon":5.37749,"is_reserved":false,"is_disabled":false,"rental_uris":{"android":"levelo://app?vid=3dded959-6d15-4d4d-bba1-b9d88e328527","ios":"levelo://app?vid=3dded959-6d15-4d4d-bba1-b9d88e328527"},"vehicle_type_id":"4","last_reported":1746526296,"current_range_meters":17200,"station_id":"ce4bhnp2rcd13ifvqgvg","pricing_plan_id":"cebpf4jnsgd1na2vs0mg"},{"bike_id":"a6eea122-1b65-456c-9675-73078115ddf8","system_id":"levelo_inurba_marseille","lat":43.30731,"lon":5.4245,"is_reserved":false,"is_disabled":false,"rental_uris":{"android":"levelo://app?vid=a6eea122-1b65-456c-9675-73078115ddf8","ios":"levelo://app?vid=a6eea122-1b65-456c-9675-73078115ddf8"},"vehicle_type_id":"4","last_reported":1746526296,"current_range_meters":17200,"station_id":"st_cvj6ca6bvosntc0bfgr0","pricing_plan_id":"cebpf4jnsgd1na2vs0mg"},{"bike_id":"2714f713-c769-4f6a-ac44-441a635e9cba","system_id":"levelo_inurba_marseille","lat":43.21611,"lon":5.34223,"is_reserved":false,"is_disabled":false,"rental_uris":{"android":"levelo://app?vid=2714f713-c769-4f6a-ac44-441a635e9cba","ios":"levelo://app?vid=2714f713-c769-4f6a-ac44-441a635e9cba"},"vehicle_type_id":"4","last_reported":1746526296,"current_range_meters":17600,"station_id":"","pricing_plan_id":"cebpf4jnsgd1na2vs0mg"},{"bike_id":"ed29a6c6-dd47-48e5-a340-454d7add3309","system_id":"levelo_inurba_marseille","lat":43.31344,"lon":5.36711,"is_reserved":false,"is_disabled":false,"rental_uris":{"android":"levelo://app?vid=ed29a6c6-dd47-48e5-a340-454d7add3309","ios":"levelo://app?vid=ed29a6c6-dd47-48e5-a340-454d7add3309"},"vehicle_type_id":"4","last_reported":1746526296,"current_range_meters":17600,"station_id":"ce4bgr92rcd13ifvqc6g","pricing_plan_id":"cebpf4jnsgd1na2vs0mg"},{"bike_id":"cf679d76-e9a0-47e5-8059-9fa942a8975f","system_id":"levelo_inurba_marseille","lat":43.28927,"lon":5.3841,"is_reserved":false,"is_disabled":false,"rental_uris":{"android":"levelo://app?vid=cf679d76-e9a0-47e5-8059-9fa942a8975f","ios":"levelo://app?vid=cf679d76-e9a0-47e5-8059-9fa942a8975f"},"vehicle_type_id":"4","last_reported":1746526296,"current_range_meters":17600,"station_id":"ce4bh612rcd13ifvqe6g","pricing_plan_id":"cebpf4jnsgd1na2vs0mg"},{"bike_id":"c94ee185-ea47-496f-9641-1fefdc0f11f3","system_id":"levelo_inurba_marseille","lat":43.27566,"lon":5.3842,"is_reserved":false,"is_disabled":false,"rental_uris":{"android":"levelo://app?vid=c94ee185-ea47-496f-9641-1fefdc0f11f3","ios":"levelo://app?vid=c94ee185-ea47-496f-9641-1fefdc0f11f3"},"vehicle_type_id":"4","last_reported":1746526296,"current_range_meters":17600,"station_id":"ce4bhh92rcd13ifvqfi0","pricing_plan_id":"cebpf4jnsgd1na2vs0mg"},{"bike_id":"ddc78fcc-2600-44b4-b42f-cb594a765a9c","system_id":"levelo_inurba_marseille","lat":43.24544,"lon":5.39516,"is_reserved":false,"is_disabled":false,"rental_uris":{"android":"levelo://app?vid=ddc78fcc-2600-44b4-b42f-cb594a765a9c","ios":"levelo://app?vid=ddc78fcc-2600-44b4-b42f-cb594a765a9c"},"vehicle_type_id":"4","last_reported":1746526296,"current_range_meters":17600,"station_id":"ce4bhlp2rcd13ifvqgjg","pricing_plan_id":"cebpf4jnsgd1na2vs0mg"},{"bike_id":"5638fae2-2e1b-469b-8abd-91d7d799618a","system_id":"levelo_inurba_marseille","lat":43.32104,"lon":5.36773,"is_reserved":false,"is_disabled":false,"rental_uris":{"android":"levelo://app?vid=5638fae2-2e1b-469b-8abd-91d7d799618a","ios":"levelo://app?vid=5638fae2-2e1b-469b-8abd-91d7d799618a"},"vehicle_type_id":"4","last_reported":1746526296,"current_range_meters":17600,"station_id":"ce4bhrh2rcd13ifvqhug","pricing_plan_id":"cebpf4jnsgd1na2vs0mg"},{"bike_id":"4fd6bfff-2fba-4479-9355-04d32eaca128","system_id":"levelo_inurba_marseille","lat":43.231937,"lon":5.35542,"is_reserved":false,"is_disabled":false,"rental_uris":{"android":"levelo://app?vid=4fd6bfff-2fba-4479-9355-04d32eaca128","ios":"levelo://app?vid=4fd6bfff-2fba-4479-9355-04d32eaca128"},"vehicle_type_id":"4","last_reported":1746526296,"current_range_meters":17600,"station_id":"ce4bhu92rcd13ifvqi70","pricing_plan_id":"cebpf4jnsgd1na2vs0mg"},{"bike_id":"7d4abfa4-179b-4262-828a-05a1b8c6535d","system_id":"levelo_inurba_marseille","lat":43.30536,"lon":5.36556,"is_reserved":false,"is_disabled":false,"rental_uris":{"android":"levelo://app?vid=7d4abfa4-179b-4262-828a-05a1b8c6535d","ios":"levelo://app?vid=7d4abfa4-179b-4262-828a-05a1b8c6535d"},"vehicle_type_id":"4","last_reported":1746526296,"current_range_meters":18000,"station_id":"ce4bgs12rcd13ifvqcag","pricing_plan_id":"cebpf4jnsgd1na2vs0mg"},{"bike_id":"eda76ab5-d60e-4e66-beef-f1daa063e8fc","system_id":"levelo_inurba_marseille","lat":43.25101,"lon":5.40317,"is_reserved":false,"is_disabled":false,"rental_uris":{"android":"levelo://app?vid=eda76ab5-d60e-4e66-beef-f1daa063e8fc","ios":"levelo://app?vid=eda76ab5-d60e-4e66-beef-f1daa063e8fc"},"vehicle_type_id":"4","last_reported":1746526296,"current_range_meters":18000,"station_id":"ce4bhlh2rcd13ifvqgig","pricing_plan_id":"cebpf4jnsgd1na2vs0mg"},{"bike_id":"9439ad48-891f-4fcf-a72b-ba0604a586bd","system_id":"levelo_inurba_marseille","lat":43.2591,"lon":5.40893,"is_reserved":false,"is_disabled":false,"rental_uris":{"android":"levelo://app?vid=9439ad48-891f-4fcf-a72b-ba0604a586bd","ios":"levelo://app?vid=9439ad48-891f-4fcf-a72b-ba0604a586bd"},"vehicle_type_id":"4","last_reported":1746526296,"current_range_meters":18000,"station_id":"ce4bhm92rcd13ifvqglg","pricing_plan_id":"cebpf4jnsgd1na2vs0mg"},{"bike_id":"f7733ce9-a803-4724-939a-476c986ad258","system_id":"levelo_inurba_marseille","lat":43.24073,"lon":5.37742,"is_reserved":false,"is_disabled":false,"rental_uris":{"android":"levelo://app?vid=f7733ce9-a803-4724-939a-476c986ad258","ios":"levelo://app?vid=f7733ce9-a803-4724-939a-476c986ad258"},"vehicle_type_id":"4","last_reported":1746526296,"current_range_meters":18000,"station_id":"ce4bhnp2rcd13ifvqgvg","pricing_plan_id":"cebpf4jnsgd1na2vs0mg"},{"bike_id":"b4216838-733b-46cd-aae7-8693e0287a61","system_id":"levelo_inurba_marseille","lat":43.22938,"lon":5.35366,"is_reserved":false,"is_disabled":false,"rental_uris":{"android":"levelo://app?vid=b4216838-733b-46cd-aae7-8693e0287a61","ios":"levelo://app?vid=b4216838-733b-46cd-aae7-8693e0287a61"},"vehicle_type_id":"4","last_reported":1746526296,"current_range_meters":18000,"station_id":"cpo3532slgdg3j2ikp40","pricing_plan_id":"cebpf4jnsgd1na2vs0mg"},{"bike_id":"ecd3e108-4812-4354-8c23-f6a5e2806ad3","system_id":"levelo_inurba_marseille","lat":43.29849,"lon":5.36285,"is_reserved":false,"is_disabled":false,"rental_uris":{"android":"levelo://app?vid=ecd3e108-4812-4354-8c23-f6a5e2806ad3","ios":"levelo://app?vid=ecd3e108-4812-4354-8c23-f6a5e2806ad3"},"vehicle_type_id":"4","last_reported":1746526296,"current_range_meters":18800,"station_id":"ce4bgpp2rcd13ifvqc3g","pricing_plan_id":"cebpf4jnsgd1na2vs0mg"},{"bike_id":"dbe2d0c9-0901-475b-bd50-eeb9dc6c06fa","system_id":"levelo_inurba_marseille","lat":43.27068,"lon":5.42276,"is_reserved":false,"is_disabled":false,"rental_uris":{"android":"levelo://app?vid=dbe2d0c9-0901-475b-bd50-eeb9dc6c06fa","ios":"levelo://app?vid=dbe2d0c9-0901-475b-bd50-eeb9dc6c06fa"},"vehicle_type_id":"4","last_reported":1746526296,"current_range_meters":18800,"station_id":"ce4bhk92rcd13ifvqgb0","pricing_plan_id":"cebpf4jnsgd1na2vs0mg"},{"bike_id":"ac700e2e-c129-4f82-a3c3-f628077933a6","system_id":"levelo_inurba_marseille","lat":43.21218,"lon":5.35084,"is_reserved":false,"is_disabled":false,"rental_uris":{"android":"levelo://app?vid=ac700e2e-c129-4f82-a3c3-f628077933a6","ios":"levelo://app?vid=ac700e2e-c129-4f82-a3c3-f628077933a6"},"vehicle_type_id":"4","last_reported":1746526296,"current_range_meters":18800,"station_id":"st_cvj6sg6p6f1abm77japg","pricing_plan_id":"cebpf4jnsgd1na2vs0mg"},{"bike_id":"ecb6d15b-2b86-4ed2-b719-368fbbfc9bc0","system_id":"levelo_inurba_marseille","lat":43.30944,"lon":5.3903,"is_reserved":false,"is_disabled":false,"rental_uris":{"android":"levelo://app?vid=ecb6d15b-2b86-4ed2-b719-368fbbfc9bc0","ios":"levelo://app?vid=ecb6d15b-2b86-4ed2-b719-368fbbfc9bc0"},"vehicle_type_id":"4","last_reported":1746526296,"current_range_meters":19200,"station_id":"ce4bgup2rcd13ifvqco0","pricing_plan_id":"cebpf4jnsgd1na2vs0mg"},{"bike_id":"101c2633-fea5-4ab5-8c95-4be760cc67a9","system_id":"levelo_inurba_marseille","lat":43.27916,"lon":5.39579,"is_reserved":false,"is_disabled":false,"rental_uris":{"android":"levelo://app?vid=101c2633-fea5-4ab5-8c95-4be760cc67a9","ios":"levelo://app?vid=101c2633-fea5-4ab5-8c95-4be760cc67a9"},"vehicle_type_id":"4","last_reported":1746526296,"current_range_meters":19200,"station_id":"ce4bhf92rcd13ifvqf40","pricing_plan_id":"cebpf4jnsgd1na2vs0mg"},{"bike_id":"72ebbbdb-13e1-4c88-ab3c-b8b2bc65db3e","system_id":"levelo_inurba_marseille","lat":43.240812,"lon":5.377598,"is_reserved":false,"is_disabled":false,"rental_uris":{"android":"levelo://app?vid=72ebbbdb-13e1-4c88-ab3c-b8b2bc65db3e","ios":"levelo://app?vid=72ebbbdb-13e1-4c88-ab3c-b8b2bc65db3e"},"vehicle_type_id":"4","last_reported":1746526296,"current_range_meters":19200,"station_id":"ce4bhnp2rcd13ifvqgvg","pricing_plan_id":"cebpf4jnsgd1na2vs0mg"},{"bike_id":"f2896b63-be3f-4a92-821e-32f3ff6f6c19","system_id":"levelo_inurba_marseille","lat":43.33597,"lon":5.41012,"is_reserved":false,"is_disabled":false,"rental_uris":{"android":"levelo://app?vid=f2896b63-be3f-4a92-821e-32f3ff6f6c19","ios":"levelo://app?vid=f2896b63-be3f-4a92-821e-32f3ff6f6c19"},"vehicle_type_id":"4","last_reported":1746526296,"current_range_meters":19200,"station_id":"ce4bhqh2rcd13ifvqhmg","pricing_plan_id":"cebpf4jnsgd1na2vs0mg"},{"bike_id":"0e87f288-e8c8-42f7-9b45-5d07827eac14","system_id":"levelo_inurba_marseille","lat":43.3236,"lon":5.36733,"is_reserved":false,"is_disabled":false,"rental_uris":{"android":"levelo://app?vid=0e87f288-e8c8-42f7-9b45-5d07827eac14","ios":"levelo://app?vid=0e87f288-e8c8-42f7-9b45-5d07827eac14"},"vehicle_type_id":"4","last_reported":1746526296,"current_range_meters":19200,"station_id":"ce4bhsh2rcd13ifvqi2g","pricing_plan_id":"cebpf4jnsgd1na2vs0mg"},{"bike_id":"a3dc441c-3dd7-42dc-913a-7db783432e14","system_id":"levelo_inurba_marseille","lat":43.28615,"lon":5.37069,"is_reserved":false,"is_disabled":false,"rental_uris":{"android":"levelo://app?vid=a3dc441c-3dd7-42dc-913a-7db783432e14","ios":"levelo://app?vid=a3dc441c-3dd7-42dc-913a-7db783432e14"},"vehicle_type_id":"4","last_reported":1746526296,"current_range_meters":19200,"station_id":"ce4bht12rcd13ifvqi60","pricing_plan_id":"cebpf4jnsgd1na2vs0mg"},{"bike_id":"9a815670-e042-4e15-ada9-ab54cb7addda","system_id":"levelo_inurba_marseille","lat":43.31377,"lon":5.367,"is_reserved":false,"is_disabled":false,"rental_uris":{"android":"levelo://app?vid=9a815670-e042-4e15-ada9-ab54cb7addda","ios":"levelo://app?vid=9a815670-e042-4e15-ada9-ab54cb7addda"},"vehicle_type_id":"4","last_reported":1746526296,"current_range_meters":19600,"station_id":"ce4bgr92rcd13ifvqc6g","pricing_plan_id":"cebpf4jnsgd1na2vs0mg"},{"bike_id":"2d13043c-f0b0-4d57-b360-12b9329cb54d","system_id":"levelo_inurba_marseille","lat":43.30595,"lon":5.39364,"is_reserved":false,"is_disabled":false,"rental_uris":{"android":"levelo://app?vid=2d13043c-f0b0-4d57-b360-12b9329cb54d","ios":"levelo://app?vid=2d13043c-f0b0-4d57-b360-12b9329cb54d"},"vehicle_type_id":"4","last_reported":1746526296,"current_range_meters":19600,"station_id":"ce4bh0p2rcd13ifvqd80","pricing_plan_id":"cebpf4jnsgd1na2vs0mg"},{"bike_id":"04c3a252-282a-4d2c-9a74-2d1619be02e4","system_id":"levelo_inurba_marseille","lat":43.24802,"lon":5.37455,"is_reserved":false,"is_disabled":false,"rental_uris":{"android":"levelo://app?vid=04c3a252-282a-4d2c-9a74-2d1619be02e4","ios":"levelo://app?vid=04c3a252-282a-4d2c-9a74-2d1619be02e4"},"vehicle_type_id":"4","last_reported":1746526296,"current_range_meters":19600,"station_id":"ce4bhgh2rcd13ifvqfb0","pricing_plan_id":"cebpf4jnsgd1na2vs0mg"},{"bike_id":"2fa0b816-7ec6-4882-9376-089f3a9e406c","system_id":"levelo_inurba_marseille","lat":43.337604,"lon":5.374907,"is_reserved":false,"is_disabled":false,"rental_uris":{"android":"levelo://app?vid=2fa0b816-7ec6-4882-9376-089f3a9e406c","ios":"levelo://app?vid=2fa0b816-7ec6-4882-9376-089f3a9e406c"},"vehicle_type_id":"4","last_reported":1746526296,"current_range_meters":20000,"station_id":"","pricing_plan_id":"cebpf4jnsgd1na2vs0mg"},{"bike_id":"50a6ef3e-a705-438d-bfce-c6e3f362f579","system_id":"levelo_inurba_marseille","lat":43.26574,"lon":5.39019,"is_reserved":false,"is_disabled":false,"rental_uris":{"android":"levelo://app?vid=50a6ef3e-a705-438d-bfce-c6e3f362f579","ios":"levelo://app?vid=50a6ef3e-a705-438d-bfce-c6e3f362f579"},"vehicle_type_id":"4","last_reported":1746526296,"current_range_meters":20000,"station_id":"ce4bhe12rcd13ifvqf30","pricing_plan_id":"cebpf4jnsgd1na2vs0mg"},{"bike_id":"4fa44a4d-c738-41bc-9022-213fbeae4065","system_id":"levelo_inurba_marseille","lat":43.2319,"lon":5.39992,"is_reserved":false,"is_disabled":false,"rental_uris":{"android":"levelo://app?vid=4fa44a4d-c738-41bc-9022-213fbeae4065","ios":"levelo://app?vid=4fa44a4d-c738-41bc-9022-213fbeae4065"},"vehicle_type_id":"4","last_reported":1746526296,"current_range_meters":20000,"station_id":"ce4bhn12rcd13ifvqgqg","pricing_plan_id":"cebpf4jnsgd1na2vs0mg"},{"bike_id":"2d681e3a-2beb-4980-ae98-d93c0b6af1c3","system_id":"levelo_inurba_marseille","lat":43.2408,"lon":5.37765,"is_reserved":false,"is_disabled":false,"rental_uris":{"android":"levelo://app?vid=2d681e3a-2beb-4980-ae98-d93c0b6af1c3","ios":"levelo://app?vid=2d681e3a-2beb-4980-ae98-d93c0b6af1c3"},"vehicle_type_id":"4","last_reported":1746526296,"current_range_meters":20000,"station_id":"ce4bhnp2rcd13ifvqgvg","pricing_plan_id":"cebpf4jnsgd1na2vs0mg"},{"bike_id":"81dd1c4b-6a3b-4570-b1e2-1c9b93ab7410","system_id":"levelo_inurba_marseille","lat":43.22502,"lon":5.34785,"is_reserved":false,"is_disabled":false,"rental_uris":{"android":"levelo://app?vid=81dd1c4b-6a3b-4570-b1e2-1c9b93ab7410","ios":"levelo://app?vid=81dd1c4b-6a3b-4570-b1e2-1c9b93ab7410"},"vehicle_type_id":"4","last_reported":1746526296,"current_range_meters":20400,"station_id":"","pricing_plan_id":"cebpf4jnsgd1na2vs0mg"},{"bike_id":"74c2f9df-c0cc-4a28-a393-4adf279a546b","system_id":"levelo_inurba_marseille","lat":43.23154,"lon":5.43706,"is_reserved":false,"is_disabled":false,"rental_uris":{"android":"levelo://app?vid=74c2f9df-c0cc-4a28-a393-4adf279a546b","ios":"levelo://app?vid=74c2f9df-c0cc-4a28-a393-4adf279a546b"},"vehicle_type_id":"4","last_reported":1746526296,"current_range_meters":20400,"station_id":"ce4bhmp2rcd13ifvqgog","pricing_plan_id":"cebpf4jnsgd1na2vs0mg"},{"bike_id":"8b1f972e-09f9-46f3-846d-8329c49cc39c","system_id":"levelo_inurba_marseille","lat":43.27994,"lon":5.41665,"is_reserved":false,"is_disabled":false,"rental_uris":{"android":"levelo://app?vid=8b1f972e-09f9-46f3-846d-8329c49cc39c","ios":"levelo://app?vid=8b1f972e-09f9-46f3-846d-8329c49cc39c"},"vehicle_type_id":"4","last_reported":1746526296,"current_range_meters":20400,"station_id":"ce4bho12rcd13ifvqh1g","pricing_plan_id":"cebpf4jnsgd1na2vs0mg"},{"bike_id":"dafd86f5-28bf-404a-a1a1-d40f6dde7141","system_id":"levelo_inurba_marseille","lat":43.30154,"lon":5.38105,"is_reserved":false,"is_disabled":false,"rental_uris":{"android":"levelo://app?vid=dafd86f5-28bf-404a-a1a1-d40f6dde7141","ios":"levelo://app?vid=dafd86f5-28bf-404a-a1a1-d40f6dde7141"},"vehicle_type_id":"4","last_reported":1746526296,"current_range_meters":20800,"station_id":"ce4bgjp2rcd13ifvqbh0","pricing_plan_id":"cebpf4jnsgd1na2vs0mg"},{"bike_id":"591845a7-c807-4b66-a125-98708b364555","system_id":"levelo_inurba_marseille","lat":43.290192,"lon":5.381283,"is_reserved":false,"is_disabled":false,"rental_uris":{"android":"levelo://app?vid=591845a7-c807-4b66-a125-98708b364555","ios":"levelo://app?vid=591845a7-c807-4b66-a125-98708b364555"},"vehicle_type_id":"4","last_reported":1746526296,"current_range_meters":20800,"station_id":"ce4bh4p2rcd13ifvqe1g","pricing_plan_id":"cebpf4jnsgd1na2vs0mg"},{"bike_id":"225df91a-8255-4e1a-966c-53c3b5e0a81f","system_id":"levelo_inurba_marseille","lat":43.27908,"lon":5.3957,"is_reserved":false,"is_disabled":false,"rental_uris":{"android":"levelo://app?vid=225df91a-8255-4e1a-966c-53c3b5e0a81f","ios":"levelo://app?vid=225df91a-8255-4e1a-966c-53c3b5e0a81f"},"vehicle_type_id":"4","last_reported":1746526296,"current_range_meters":20800,"station_id":"ce4bhf92rcd13ifvqf40","pricing_plan_id":"cebpf4jnsgd1na2vs0mg"},{"bike_id":"ef429c7d-7b1d-4ae0-88ff-bc85ed6e0756","system_id":"levelo_inurba_marseille","lat":43.24804,"lon":5.37461,"is_reserved":false,"is_disabled":false,"rental_uris":{"android":"levelo://app?vid=ef429c7d-7b1d-4ae0-88ff-bc85ed6e0756","ios":"levelo://app?vid=ef429c7d-7b1d-4ae0-88ff-bc85ed6e0756"},"vehicle_type_id":"4","last_reported":1746526296,"current_range_meters":20800,"station_id":"ce4bhgh2rcd13ifvqfb0","pricing_plan_id":"cebpf4jnsgd1na2vs0mg"},{"bike_id":"bb4d503e-9045-435d-8337-bb5c5d3b9ee2","system_id":"levelo_inurba_marseille","lat":43.23199,"lon":5.35552,"is_reserved":false,"is_disabled":false,"rental_uris":{"android":"levelo://app?vid=bb4d503e-9045-435d-8337-bb5c5d3b9ee2","ios":"levelo://app?vid=bb4d503e-9045-435d-8337-bb5c5d3b9ee2"},"vehicle_type_id":"4","last_reported":1746526296,"current_range_meters":20800,"station_id":"ce4bhu92rcd13ifvqi70","pricing_plan_id":"cebpf4jnsgd1na2vs0mg"},{"bike_id":"24384f0e-408a-42ee-9dc0-46996d573e79","system_id":"levelo_inurba_marseille","lat":43.225125,"lon":5.348256,"is_reserved":false,"is_disabled":false,"rental_uris":{"android":"levelo://app?vid=24384f0e-408a-42ee-9dc0-46996d573e79","ios":"levelo://app?vid=24384f0e-408a-42ee-9dc0-46996d573e79"},"vehicle_type_id":"4","last_reported":1746526296,"current_range_meters":21600,"station_id":"","pricing_plan_id":"cebpf4jnsgd1na2vs0mg"},{"bike_id":"dde6af7d-32b6-4dd9-a614-d4dd8daa8679","system_id":"levelo_inurba_marseille","lat":43.2926,"lon":5.40909,"is_reserved":false,"is_disabled":false,"rental_uris":{"android":"levelo://app?vid=dde6af7d-32b6-4dd9-a614-d4dd8daa8679","ios":"levelo://app?vid=dde6af7d-32b6-4dd9-a614-d4dd8daa8679"},"vehicle_type_id":"4","last_reported":1746526296,"current_range_meters":21600,"station_id":"ce4bh192rcd13ifvqdc0","pricing_plan_id":"cebpf4jnsgd1na2vs0mg"},{"bike_id":"0b9f059e-5044-4a70-9154-3a7b31823c81","system_id":"levelo_inurba_marseille","lat":43.29571,"lon":5.36736,"is_reserved":false,"is_disabled":false,"rental_uris":{"android":"levelo://app?vid=0b9f059e-5044-4a70-9154-3a7b31823c81","ios":"levelo://app?vid=0b9f059e-5044-4a70-9154-3a7b31823c81"},"vehicle_type_id":"4","last_reported":1746526296,"current_range_meters":22000,"station_id":"ce4bgph2rcd13ifvqc2g","pricing_plan_id":"cebpf4jnsgd1na2vs0mg"},{"bike_id":"8b7c92ca-9ac7-4138-9048-6eb59e93efa5","system_id":"levelo_inurba_marseille","lat":43.30522,"lon":5.36703,"is_reserved":false,"is_disabled":false,"rental_uris":{"android":"levelo://app?vid=8b7c92ca-9ac7-4138-9048-6eb59e93efa5","ios":"levelo://app?vid=8b7c92ca-9ac7-4138-9048-6eb59e93efa5"},"vehicle_type_id":"4","last_reported":1746526296,"current_range_meters":22000,"station_id":"ce4bgrp2rcd13ifvqc9g","pricing_plan_id":"cebpf4jnsgd1na2vs0mg"},{"bike_id":"c0ef2e53-12fa-4307-a00b-a5adfbe5fe7d","system_id":"levelo_inurba_marseille","lat":43.30937,"lon":5.40146,"is_reserved":false,"is_disabled":false,"rental_uris":{"android":"levelo://app?vid=c0ef2e53-12fa-4307-a00b-a5adfbe5fe7d","ios":"levelo://app?vid=c0ef2e53-12fa-4307-a00b-a5adfbe5fe7d"},"vehicle_type_id":"4","last_reported":1746526296,"current_range_meters":22000,"station_id":"ce4bgvp2rcd13ifvqct0","pricing_plan_id":"cebpf4jnsgd1na2vs0mg"},{"bike_id":"4b3d8fb6-172b-49b1-89ff-5fdbcc72b8c5","system_id":"levelo_inurba_marseille","lat":43.28706,"lon":5.39996,"is_reserved":false,"is_disabled":false,"rental_uris":{"android":"levelo://app?vid=4b3d8fb6-172b-49b1-89ff-5fdbcc72b8c5","ios":"levelo://app?vid=4b3d8fb6-172b-49b1-89ff-5fdbcc72b8c5"},"vehicle_type_id":"4","last_reported":1746526296,"current_range_meters":22000,"station_id":"ce4bho92rcd13ifvqh3g","pricing_plan_id":"cebpf4jnsgd1na2vs0mg"},{"bike_id":"f1d41c01-070c-472b-9416-6f437619b291","system_id":"levelo_inurba_marseille","lat":43.23156,"lon":5.43715,"is_reserved":false,"is_disabled":false,"rental_uris":{"android":"levelo://app?vid=f1d41c01-070c-472b-9416-6f437619b291","ios":"levelo://app?vid=f1d41c01-070c-472b-9416-6f437619b291"},"vehicle_type_id":"4","last_reported":1746526296,"current_range_meters":22400,"station_id":"ce4bhmp2rcd13ifvqgog","pricing_plan_id":"cebpf4jnsgd1na2vs0mg"},{"bike_id":"eda47940-fe11-4d1a-b63c-ba540fcf9168","system_id":"levelo_inurba_marseille","lat":43.31081,"lon":5.42429,"is_reserved":false,"is_disabled":false,"rental_uris":{"android":"levelo://app?vid=eda47940-fe11-4d1a-b63c-ba540fcf9168","ios":"levelo://app?vid=eda47940-fe11-4d1a-b63c-ba540fcf9168"},"vehicle_type_id":"4","last_reported":1746526296,"current_range_meters":22400,"station_id":"ce4bhp92rcd13ifvqhag","pricing_plan_id":"cebpf4jnsgd1na2vs0mg"},{"bike_id":"d99c51ae-5a52-4f5f-b0ef-c505a66ba61f","system_id":"levelo_inurba_marseille","lat":43.309072,"lon":5.368524,"is_reserved":false,"is_disabled":false,"rental_uris":{"android":"levelo://app?vid=d99c51ae-5a52-4f5f-b0ef-c505a66ba61f","ios":"levelo://app?vid=d99c51ae-5a52-4f5f-b0ef-c505a66ba61f"},"vehicle_type_id":"4","last_reported":1746526296,"current_range_meters":22800,"station_id":"ce4bgn92rcd13ifvqbvg","pricing_plan_id":"cebpf4jnsgd1na2vs0mg"},{"bike_id":"bac7f684-2423-4e2b-8fd4-078a9a398e21","system_id":"levelo_inurba_marseille","lat":43.24095,"lon":5.37731,"is_reserved":false,"is_disabled":false,"rental_uris":{"android":"levelo://app?vid=bac7f684-2423-4e2b-8fd4-078a9a398e21","ios":"levelo://app?vid=bac7f684-2423-4e2b-8fd4-078a9a398e21"},"vehicle_type_id":"4","last_reported":1746526296,"current_range_meters":22800,"station_id":"ce4bhnp2rcd13ifvqgvg","pricing_plan_id":"cebpf4jnsgd1na2vs0mg"},{"bike_id":"4c92ddfb-82c6-411c-8a4c-50ec62be918b","system_id":"levelo_inurba_marseille","lat":43.24054,"lon":5.3773,"is_reserved":false,"is_disabled":false,"rental_uris":{"android":"levelo://app?vid=4c92ddfb-82c6-411c-8a4c-50ec62be918b","ios":"levelo://app?vid=4c92ddfb-82c6-411c-8a4c-50ec62be918b"},"vehicle_type_id":"4","last_reported":1746526296,"current_range_meters":22800,"station_id":"ce4bhnp2rcd13ifvqgvg","pricing_plan_id":"cebpf4jnsgd1na2vs0mg"},{"bike_id":"96175c6b-7676-4c4f-8523-d41df33ea507","system_id":"levelo_inurba_marseille","lat":43.2405,"lon":5.37721,"is_reserved":false,"is_disabled":false,"rental_uris":{"android":"levelo://app?vid=96175c6b-7676-4c4f-8523-d41df33ea507","ios":"levelo://app?vid=96175c6b-7676-4c4f-8523-d41df33ea507"},"vehicle_type_id":"4","last_reported":1746526296,"current_range_meters":22800,"station_id":"ce4bhnp2rcd13ifvqgvg","pricing_plan_id":"cebpf4jnsgd1na2vs0mg"},{"bike_id":"2abed1df-20a6-4b3a-bc3b-ce3655dcf2dc","system_id":"levelo_inurba_marseille","lat":43.30535,"lon":5.36549,"is_reserved":false,"is_disabled":false,"rental_uris":{"android":"levelo://app?vid=2abed1df-20a6-4b3a-bc3b-ce3655dcf2dc","ios":"levelo://app?vid=2abed1df-20a6-4b3a-bc3b-ce3655dcf2dc"},"vehicle_type_id":"4","last_reported":1746526296,"current_range_meters":23200,"station_id":"ce4bgs12rcd13ifvqcag","pricing_plan_id":"cebpf4jnsgd1na2vs0mg"},{"bike_id":"ffbd9c1d-8817-4107-a0dc-a414b0cbb396","system_id":"levelo_inurba_marseille","lat":43.31683,"lon":5.40474,"is_reserved":false,"is_disabled":false,"rental_uris":{"android":"levelo://app?vid=ffbd9c1d-8817-4107-a0dc-a414b0cbb396","ios":"levelo://app?vid=ffbd9c1d-8817-4107-a0dc-a414b0cbb396"},"vehicle_type_id":"4","last_reported":1746526296,"current_range_meters":23200,"station_id":"ce4bh012rcd13ifvqd00","pricing_plan_id":"cebpf4jnsgd1na2vs0mg"},{"bike_id":"d5ab06e3-e77d-4b7f-a195-6a14c71353d9","system_id":"levelo_inurba_marseille","lat":43.26245,"lon":5.40428,"is_reserved":false,"is_disabled":false,"rental_uris":{"android":"levelo://app?vid=d5ab06e3-e77d-4b7f-a195-6a14c71353d9","ios":"levelo://app?vid=d5ab06e3-e77d-4b7f-a195-6a14c71353d9"},"vehicle_type_id":"4","last_reported":1746526296,"current_range_meters":23200,"station_id":"ce4bhmh2rcd13ifvqgmg","pricing_plan_id":"cebpf4jnsgd1na2vs0mg"},{"bike_id":"fd21ae1b-9075-4adb-ac2e-17067512c003","system_id":"levelo_inurba_marseille","lat":43.33596,"lon":5.40989,"is_reserved":false,"is_disabled":false,"rental_uris":{"android":"levelo://app?vid=fd21ae1b-9075-4adb-ac2e-17067512c003","ios":"levelo://app?vid=fd21ae1b-9075-4adb-ac2e-17067512c003"},"vehicle_type_id":"4","last_reported":1746526296,"current_range_meters":23200,"station_id":"ce4bhqh2rcd13ifvqhmg","pricing_plan_id":"cebpf4jnsgd1na2vs0mg"},{"bike_id":"0df3111c-fd99-4e63-915e-e7763d46bb1b","system_id":"levelo_inurba_marseille","lat":43.2851,"lon":5.37071,"is_reserved":false,"is_disabled":false,"rental_uris":{"android":"levelo://app?vid=0df3111c-fd99-4e63-915e-e7763d46bb1b","ios":"levelo://app?vid=0df3111c-fd99-4e63-915e-e7763d46bb1b"},"vehicle_type_id":"4","last_reported":1746526296,"current_range_meters":24000,"station_id":"","pricing_plan_id":"cebpf4jnsgd1na2vs0mg"},{"bike_id":"f45f916e-0511-4a88-9c61-6a3909ee4f1e","system_id":"levelo_inurba_marseille","lat":43.309,"lon":5.36838,"is_reserved":false,"is_disabled":false,"rental_uris":{"android":"levelo://app?vid=f45f916e-0511-4a88-9c61-6a3909ee4f1e","ios":"levelo://app?vid=f45f916e-0511-4a88-9c61-6a3909ee4f1e"},"vehicle_type_id":"4","last_reported":1746526296,"current_range_meters":24000,"station_id":"ce4bgn92rcd13ifvqbvg","pricing_plan_id":"cebpf4jnsgd1na2vs0mg"},{"bike_id":"55a5a4bd-37b9-4fda-8803-a1ddb77974cd","system_id":"levelo_inurba_marseille","lat":43.313636,"lon":5.366921,"is_reserved":false,"is_disabled":false,"rental_uris":{"android":"levelo://app?vid=55a5a4bd-37b9-4fda-8803-a1ddb77974cd","ios":"levelo://app?vid=55a5a4bd-37b9-4fda-8803-a1ddb77974cd"},"vehicle_type_id":"4","last_reported":1746526296,"current_range_meters":24000,"station_id":"ce4bgr92rcd13ifvqc6g","pricing_plan_id":"cebpf4jnsgd1na2vs0mg"},{"bike_id":"5c68f092-1f83-47ed-97d1-40ba4dcb6dfd","system_id":"levelo_inurba_marseille","lat":43.29255,"lon":5.36891,"is_reserved":false,"is_disabled":false,"rental_uris":{"android":"levelo://app?vid=5c68f092-1f83-47ed-97d1-40ba4dcb6dfd","ios":"levelo://app?vid=5c68f092-1f83-47ed-97d1-40ba4dcb6dfd"},"vehicle_type_id":"4","last_reported":1746526296,"current_range_meters":24000,"station_id":"ce4bhbp2rcd13ifvqesg","pricing_plan_id":"cebpf4jnsgd1na2vs0mg"},{"bike_id":"7d71db33-e69a-48e6-98ef-a9fbd9cbde82","system_id":"levelo_inurba_marseille","lat":43.23204,"lon":5.39969,"is_reserved":false,"is_disabled":false,"rental_uris":{"android":"levelo://app?vid=7d71db33-e69a-48e6-98ef-a9fbd9cbde82","ios":"levelo://app?vid=7d71db33-e69a-48e6-98ef-a9fbd9cbde82"},"vehicle_type_id":"4","last_reported":1746526296,"current_range_meters":24000,"station_id":"ce4bhn12rcd13ifvqgqg","pricing_plan_id":"cebpf4jnsgd1na2vs0mg"},{"bike_id":"24391d90-dbe9-4c9e-84e9-0130dad7bf5d","system_id":"levelo_inurba_marseille","lat":43.30535,"lon":5.38427,"is_reserved":false,"is_disabled":false,"rental_uris":{"android":"levelo://app?vid=24391d90-dbe9-4c9e-84e9-0130dad7bf5d","ios":"levelo://app?vid=24391d90-dbe9-4c9e-84e9-0130dad7bf5d"},"vehicle_type_id":"4","last_reported":1746526296,"current_range_meters":24400,"station_id":"ce4bgg92rcd13ifvqb30","pricing_plan_id":"cebpf4jnsgd1na2vs0mg"},{"bike_id":"db25b198-7357-4455-9f2c-d196f20cd460","system_id":"levelo_inurba_marseille","lat":43.27488,"lon":5.42455,"is_reserved":false,"is_disabled":false,"rental_uris":{"android":"levelo://app?vid=db25b198-7357-4455-9f2c-d196f20cd460","ios":"levelo://app?vid=db25b198-7357-4455-9f2c-d196f20cd460"},"vehicle_type_id":"4","last_reported":1746526296,"current_range_meters":24400,"station_id":"ce4bhn92rcd13ifvqgrg","pricing_plan_id":"cebpf4jnsgd1na2vs0mg"},{"bike_id":"18644f67-72ce-4631-9d9d-aa6cb4af4f83","system_id":"levelo_inurba_marseille","lat":43.21194,"lon":5.35065,"is_reserved":false,"is_disabled":false,"rental_uris":{"android":"levelo://app?vid=18644f67-72ce-4631-9d9d-aa6cb4af4f83","ios":"levelo://app?vid=18644f67-72ce-4631-9d9d-aa6cb4af4f83"},"vehicle_type_id":"4","last_reported":1746526296,"current_range_meters":24400,"station_id":"st_cvj6sg6p6f1abm77japg","pricing_plan_id":"cebpf4jnsgd1na2vs0mg"},{"bike_id":"04b10a12-5fe8-4b9e-af0f-192035ccc6ed","system_id":"levelo_inurba_marseille","lat":43.29521,"lon":5.37503,"is_reserved":false,"is_disabled":false,"rental_uris":{"android":"levelo://app?vid=04b10a12-5fe8-4b9e-af0f-192035ccc6ed","ios":"levelo://app?vid=04b10a12-5fe8-4b9e-af0f-192035ccc6ed"},"vehicle_type_id":"4","last_reported":1746526296,"current_range_meters":24800,"station_id":"ce4bgkp2rcd13ifvqbmg","pricing_plan_id":"cebpf4jnsgd1na2vs0mg"},{"bike_id":"063734d6-bd0f-4c06-81b9-ebd21e5b89ae","system_id":"levelo_inurba_marseille","lat":43.30537,"lon":5.36694,"is_reserved":false,"is_disabled":false,"rental_uris":{"android":"levelo://app?vid=063734d6-bd0f-4c06-81b9-ebd21e5b89ae","ios":"levelo://app?vid=063734d6-bd0f-4c06-81b9-ebd21e5b89ae"},"vehicle_type_id":"4","last_reported":1746526296,"current_range_meters":24800,"station_id":"ce4bgrp2rcd13ifvqc9g","pricing_plan_id":"cebpf4jnsgd1na2vs0mg"},{"bike_id":"83e43c22-dfef-47fa-a601-0e5602533b0a","system_id":"levelo_inurba_marseille","lat":43.27194,"lon":5.40994,"is_reserved":false,"is_disabled":false,"rental_uris":{"android":"levelo://app?vid=83e43c22-dfef-47fa-a601-0e5602533b0a","ios":"levelo://app?vid=83e43c22-dfef-47fa-a601-0e5602533b0a"},"vehicle_type_id":"4","last_reported":1746526296,"current_range_meters":24800,"station_id":"ce4bhl12rcd13ifvqgf0","pricing_plan_id":"cebpf4jnsgd1na2vs0mg"},{"bike_id":"1fb378ad-646c-4a85-b6e4-757971181482","system_id":"levelo_inurba_marseille","lat":43.2512,"lon":5.40316,"is_reserved":false,"is_disabled":false,"rental_uris":{"android":"levelo://app?vid=1fb378ad-646c-4a85-b6e4-757971181482","ios":"levelo://app?vid=1fb378ad-646c-4a85-b6e4-757971181482"},"vehicle_type_id":"4","last_reported":1746526296,"current_range_meters":24800,"station_id":"ce4bhlh2rcd13ifvqgig","pricing_plan_id":"cebpf4jnsgd1na2vs0mg"},{"bike_id":"55fe7b48-01a2-43c6-9697-cd3ee316d331","system_id":"levelo_inurba_marseille","lat":43.25945,"lon":5.40896,"is_reserved":false,"is_disabled":false,"rental_uris":{"android":"levelo://app?vid=55fe7b48-01a2-43c6-9697-cd3ee316d331","ios":"levelo://app?vid=55fe7b48-01a2-43c6-9697-cd3ee316d331"},"vehicle_type_id":"4","last_reported":1746526296,"current_range_meters":24800,"station_id":"ce4bhm92rcd13ifvqglg","pricing_plan_id":"cebpf4jnsgd1na2vs0mg"},{"bike_id":"98154f32-a2a4-44c1-8b3b-8d3825fc3ba6","system_id":"levelo_inurba_marseille","lat":43.26221,"lon":5.40449,"is_reserved":false,"is_disabled":false,"rental_uris":{"android":"levelo://app?vid=98154f32-a2a4-44c1-8b3b-8d3825fc3ba6","ios":"levelo://app?vid=98154f32-a2a4-44c1-8b3b-8d3825fc3ba6"},"vehicle_type_id":"4","last_reported":1746526296,"current_range_meters":24800,"station_id":"ce4bhmh2rcd13ifvqgmg","pricing_plan_id":"cebpf4jnsgd1na2vs0mg"},{"bike_id":"15a586ab-3bc5-4b7b-93e5-8254fdeef81c","system_id":"levelo_inurba_marseille","lat":43.3212,"lon":5.36799,"is_reserved":false,"is_disabled":false,"rental_uris":{"android":"levelo://app?vid=15a586ab-3bc5-4b7b-93e5-8254fdeef81c","ios":"levelo://app?vid=15a586ab-3bc5-4b7b-93e5-8254fdeef81c"},"vehicle_type_id":"4","last_reported":1746526296,"current_range_meters":24800,"station_id":"ce4bhrh2rcd13ifvqhug","pricing_plan_id":"cebpf4jnsgd1na2vs0mg"},{"bike_id":"e960c754-fd89-450e-a7a1-9b351aa9f0b2","system_id":"levelo_inurba_marseille","lat":43.23194,"lon":5.35549,"is_reserved":false,"is_disabled":false,"rental_uris":{"android":"levelo://app?vid=e960c754-fd89-450e-a7a1-9b351aa9f0b2","ios":"levelo://app?vid=e960c754-fd89-450e-a7a1-9b351aa9f0b2"},"vehicle_type_id":"4","last_reported":1746526296,"current_range_meters":24800,"station_id":"ce4bhu92rcd13ifvqi70","pricing_plan_id":"cebpf4jnsgd1na2vs0mg"},{"bike_id":"47405fd7-63c3-4116-8187-9598b430500b","system_id":"levelo_inurba_marseille","lat":43.29165,"lon":5.37154,"is_reserved":false,"is_disabled":false,"rental_uris":{"android":"levelo://app?vid=47405fd7-63c3-4116-8187-9598b430500b","ios":"levelo://app?vid=47405fd7-63c3-4116-8187-9598b430500b"},"vehicle_type_id":"4","last_reported":1746526296,"current_range_meters":25200,"station_id":"ce4bha92rcd13ifvqeh0","pricing_plan_id":"cebpf4jnsgd1na2vs0mg"},{"bike_id":"21fd00aa-a196-4784-8dec-b2ff84d36cae","system_id":"levelo_inurba_marseille","lat":43.26555,"lon":5.37283,"is_reserved":false,"is_disabled":false,"rental_uris":{"android":"levelo://app?vid=21fd00aa-a196-4784-8dec-b2ff84d36cae","ios":"levelo://app?vid=21fd00aa-a196-4784-8dec-b2ff84d36cae"},"vehicle_type_id":"4","last_reported":1746526296,"current_range_meters":25200,"station_id":"ce4bhg12rcd13ifvqf70","pricing_plan_id":"cebpf4jnsgd1na2vs0mg"},{"bike_id":"be14af02-7701-4605-b2d6-5fd0439029d8","system_id":"levelo_inurba_marseille","lat":43.21205,"lon":5.35056,"is_reserved":false,"is_disabled":false,"rental_uris":{"android":"levelo://app?vid=be14af02-7701-4605-b2d6-5fd0439029d8","ios":"levelo://app?vid=be14af02-7701-4605-b2d6-5fd0439029d8"},"vehicle_type_id":"4","last_reported":1746526296,"current_range_meters":25200,"station_id":"st_cvj6sg6p6f1abm77japg","pricing_plan_id":"cebpf4jnsgd1na2vs0mg"},{"bike_id":"8d0d2887-9def-4d00-9f59-a59da60f2a4c","system_id":"levelo_inurba_marseille","lat":43.29803,"lon":5.38084,"is_reserved":false,"is_disabled":false,"rental_uris":{"android":"levelo://app?vid=8d0d2887-9def-4d00-9f59-a59da60f2a4c","ios":"levelo://app?vid=8d0d2887-9def-4d00-9f59-a59da60f2a4c"},"vehicle_type_id":"4","last_reported":1746526296,"current_range_meters":25600,"station_id":"ce4bgip2rcd13ifvqbb0","pricing_plan_id":"cebpf4jnsgd1na2vs0mg"},{"bike_id":"89bf3090-06a0-40ec-9948-65ccc2508950","system_id":"levelo_inurba_marseille","lat":43.30924,"lon":5.3684,"is_reserved":false,"is_disabled":false,"rental_uris":{"android":"levelo://app?vid=89bf3090-06a0-40ec-9948-65ccc2508950","ios":"levelo://app?vid=89bf3090-06a0-40ec-9948-65ccc2508950"},"vehicle_type_id":"4","last_reported":1746526296,"current_range_meters":25600,"station_id":"ce4bgn92rcd13ifvqbvg","pricing_plan_id":"cebpf4jnsgd1na2vs0mg"},{"bike_id":"81332cca-e7cc-44d6-8c48-4f575d65cf1c","system_id":"levelo_inurba_marseille","lat":43.30191,"lon":5.3662,"is_reserved":false,"is_disabled":false,"rental_uris":{"android":"levelo://app?vid=81332cca-e7cc-44d6-8c48-4f575d65cf1c","ios":"levelo://app?vid=81332cca-e7cc-44d6-8c48-4f575d65cf1c"},"vehicle_type_id":"4","last_reported":1746526296,"current_range_meters":25600,"station_id":"ce4bgrh2rcd13ifvqc8g","pricing_plan_id":"cebpf4jnsgd1na2vs0mg"},{"bike_id":"8ab317e3-8cda-4e0c-9c3c-38bfc84d9076","system_id":"levelo_inurba_marseille","lat":43.301507,"lon":5.437287,"is_reserved":false,"is_disabled":false,"rental_uris":{"android":"levelo://app?vid=8ab317e3-8cda-4e0c-9c3c-38bfc84d9076","ios":"levelo://app?vid=8ab317e3-8cda-4e0c-9c3c-38bfc84d9076"},"vehicle_type_id":"4","last_reported":1746526296,"current_range_meters":25600,"station_id":"ce4bhpp2rcd13ifvqhfg","pricing_plan_id":"cebpf4jnsgd1na2vs0mg"},{"bike_id":"c8ee4258-3178-4655-b67e-ed5147c0308e","system_id":"levelo_inurba_marseille","lat":43.22931,"lon":5.35376,"is_reserved":false,"is_disabled":false,"rental_uris":{"android":"levelo://app?vid=c8ee4258-3178-4655-b67e-ed5147c0308e","ios":"levelo://app?vid=c8ee4258-3178-4655-b67e-ed5147c0308e"},"vehicle_type_id":"4","last_reported":1746526296,"current_range_meters":25600,"station_id":"cpo3532slgdg3j2ikp40","pricing_plan_id":"cebpf4jnsgd1na2vs0mg"},{"bike_id":"70a29a45-574c-4ff1-aca3-740aa0e705be","system_id":"levelo_inurba_marseille","lat":43.24164,"lon":5.36393,"is_reserved":false,"is_disabled":false,"rental_uris":{"android":"levelo://app?vid=70a29a45-574c-4ff1-aca3-740aa0e705be","ios":"levelo://app?vid=70a29a45-574c-4ff1-aca3-740aa0e705be"},"vehicle_type_id":"4","last_reported":1746526296,"current_range_meters":25600,"station_id":"cpo36qri1sfpv3e86is0","pricing_plan_id":"cebpf4jnsgd1na2vs0mg"},{"bike_id":"4943aaff-c800-4e9a-bffe-aacef57a5114","system_id":"levelo_inurba_marseille","lat":43.21191,"lon":5.35069,"is_reserved":false,"is_disabled":false,"rental_uris":{"android":"levelo://app?vid=4943aaff-c800-4e9a-bffe-aacef57a5114","ios":"levelo://app?vid=4943aaff-c800-4e9a-bffe-aacef57a5114"},"vehicle_type_id":"4","last_reported":1746526296,"current_range_meters":25600,"station_id":"st_cvj6sg6p6f1abm77japg","pricing_plan_id":"cebpf4jnsgd1na2vs0mg"},{"bike_id":"7c0ae8a2-de17-45f3-af1d-03579cb3b2f2","system_id":"levelo_inurba_marseille","lat":43.23152,"lon":5.43714,"is_reserved":false,"is_disabled":false,"rental_uris":{"android":"levelo://app?vid=7c0ae8a2-de17-45f3-af1d-03579cb3b2f2","ios":"levelo://app?vid=7c0ae8a2-de17-45f3-af1d-03579cb3b2f2"},"vehicle_type_id":"4","last_reported":1746526296,"current_range_meters":26000,"station_id":"ce4bhmp2rcd13ifvqgog","pricing_plan_id":"cebpf4jnsgd1na2vs0mg"},{"bike_id":"d928cd0d-2475-4dd3-bfb4-1e78eb7b1084","system_id":"levelo_inurba_marseille","lat":43.26789,"lon":5.3905,"is_reserved":false,"is_disabled":false,"rental_uris":{"android":"levelo://app?vid=d928cd0d-2475-4dd3-bfb4-1e78eb7b1084","ios":"levelo://app?vid=d928cd0d-2475-4dd3-bfb4-1e78eb7b1084"},"vehicle_type_id":"4","last_reported":1746526296,"current_range_meters":26800,"station_id":"","pricing_plan_id":"cebpf4jnsgd1na2vs0mg"},{"bike_id":"abc4f198-b141-4d73-bec7-34a51d8284b5","system_id":"levelo_inurba_marseille","lat":43.305358,"lon":5.36713,"is_reserved":false,"is_disabled":false,"rental_uris":{"android":"levelo://app?vid=abc4f198-b141-4d73-bec7-34a51d8284b5","ios":"levelo://app?vid=abc4f198-b141-4d73-bec7-34a51d8284b5"},"vehicle_type_id":"4","last_reported":1746526296,"current_range_meters":26800,"station_id":"ce4bgrp2rcd13ifvqc9g","pricing_plan_id":"cebpf4jnsgd1na2vs0mg"},{"bike_id":"42e17784-75b5-4b8b-b4a7-9e6adaa23a85","system_id":"levelo_inurba_marseille","lat":43.25025,"lon":5.38911,"is_reserved":false,"is_disabled":false,"rental_uris":{"android":"levelo://app?vid=42e17784-75b5-4b8b-b4a7-9e6adaa23a85","ios":"levelo://app?vid=42e17784-75b5-4b8b-b4a7-9e6adaa23a85"},"vehicle_type_id":"4","last_reported":1746526296,"current_range_meters":26800,"station_id":"ce4bhgp2rcd13ifvqfd0","pricing_plan_id":"cebpf4jnsgd1na2vs0mg"},{"bike_id":"00d0d80a-6dcc-4772-99b2-90df44bca735","system_id":"levelo_inurba_marseille","lat":43.26221,"lon":5.40447,"is_reserved":false,"is_disabled":false,"rental_uris":{"android":"levelo://app?vid=00d0d80a-6dcc-4772-99b2-90df44bca735","ios":"levelo://app?vid=00d0d80a-6dcc-4772-99b2-90df44bca735"},"vehicle_type_id":"4","last_reported":1746526296,"current_range_meters":26800,"station_id":"ce4bhmh2rcd13ifvqgmg","pricing_plan_id":"cebpf4jnsgd1na2vs0mg"},{"bike_id":"4c46ccc2-a6b8-403a-8849-47486645148a","system_id":"levelo_inurba_marseille","lat":43.275,"lon":5.42451,"is_reserved":false,"is_disabled":false,"rental_uris":{"android":"levelo://app?vid=4c46ccc2-a6b8-403a-8849-47486645148a","ios":"levelo://app?vid=4c46ccc2-a6b8-403a-8849-47486645148a"},"vehicle_type_id":"4","last_reported":1746526296,"current_range_meters":26800,"station_id":"ce4bhn92rcd13ifvqgrg","pricing_plan_id":"cebpf4jnsgd1na2vs0mg"},{"bike_id":"71c53763-d78e-468a-a150-3ae0ea6930da","system_id":"levelo_inurba_marseille","lat":43.22509,"lon":5.34772,"is_reserved":false,"is_disabled":false,"rental_uris":{"android":"levelo://app?vid=71c53763-d78e-468a-a150-3ae0ea6930da","ios":"levelo://app?vid=71c53763-d78e-468a-a150-3ae0ea6930da"},"vehicle_type_id":"4","last_reported":1746526296,"current_range_meters":26800,"station_id":"st_cvj5dfep6f1abm77gieg","pricing_plan_id":"cebpf4jnsgd1na2vs0mg"},{"bike_id":"e8ffb8a1-8038-40cd-908d-854969bca2a2","system_id":"levelo_inurba_marseille","lat":43.29258,"lon":5.37629,"is_reserved":false,"is_disabled":false,"rental_uris":{"android":"levelo://app?vid=e8ffb8a1-8038-40cd-908d-854969bca2a2","ios":"levelo://app?vid=e8ffb8a1-8038-40cd-908d-854969bca2a2"},"vehicle_type_id":"4","last_reported":1746526296,"current_range_meters":27200,"station_id":"ce4bgi12rcd13ifvqb80","pricing_plan_id":"cebpf4jnsgd1na2vs0mg"},{"bike_id":"bfa3b3bf-151b-463b-93fa-37972fc7ea77","system_id":"levelo_inurba_marseille","lat":43.29529,"lon":5.38539,"is_reserved":false,"is_disabled":false,"rental_uris":{"android":"levelo://app?vid=bfa3b3bf-151b-463b-93fa-37972fc7ea77","ios":"levelo://app?vid=bfa3b3bf-151b-463b-93fa-37972fc7ea77"},"vehicle_type_id":"4","last_reported":1746526296,"current_range_meters":27200,"station_id":"ce4bgih2rcd13ifvqba0","pricing_plan_id":"cebpf4jnsgd1na2vs0mg"},{"bike_id":"2e84913c-ac12-462a-8b7f-317c657667a6","system_id":"levelo_inurba_marseille","lat":43.30894,"lon":5.36844,"is_reserved":false,"is_disabled":false,"rental_uris":{"android":"levelo://app?vid=2e84913c-ac12-462a-8b7f-317c657667a6","ios":"levelo://app?vid=2e84913c-ac12-462a-8b7f-317c657667a6"},"vehicle_type_id":"4","last_reported":1746526296,"current_range_meters":27200,"station_id":"ce4bgn92rcd13ifvqbvg","pricing_plan_id":"cebpf4jnsgd1na2vs0mg"},{"bike_id":"cca58640-59e5-486d-9587-f53a2dadaa6c","system_id":"levelo_inurba_marseille","lat":43.31359,"lon":5.36689,"is_reserved":false,"is_disabled":false,"rental_uris":{"android":"levelo://app?vid=cca58640-59e5-486d-9587-f53a2dadaa6c","ios":"levelo://app?vid=cca58640-59e5-486d-9587-f53a2dadaa6c"},"vehicle_type_id":"4","last_reported":1746526296,"current_range_meters":27200,"station_id":"ce4bgr92rcd13ifvqc6g","pricing_plan_id":"cebpf4jnsgd1na2vs0mg"},{"bike_id":"f045cfc8-3572-4649-91c2-f3e7143c7f66","system_id":"levelo_inurba_marseille","lat":43.30533,"lon":5.36711,"is_reserved":false,"is_disabled":false,"rental_uris":{"android":"levelo://app?vid=f045cfc8-3572-4649-91c2-f3e7143c7f66","ios":"levelo://app?vid=f045cfc8-3572-4649-91c2-f3e7143c7f66"},"vehicle_type_id":"4","last_reported":1746526296,"current_range_meters":27200,"station_id":"ce4bgrp2rcd13ifvqc9g","pricing_plan_id":"cebpf4jnsgd1na2vs0mg"},{"bike_id":"5162ce6f-d9b9-486c-9cdd-32383b76d0aa","system_id":"levelo_inurba_marseille","lat":43.2871,"lon":5.39961,"is_reserved":false,"is_disabled":false,"rental_uris":{"android":"levelo://app?vid=5162ce6f-d9b9-486c-9cdd-32383b76d0aa","ios":"levelo://app?vid=5162ce6f-d9b9-486c-9cdd-32383b76d0aa"},"vehicle_type_id":"4","last_reported":1746526296,"current_range_meters":27200,"station_id":"ce4bho92rcd13ifvqh3g","pricing_plan_id":"cebpf4jnsgd1na2vs0mg"},{"bike_id":"b83d6932-990b-48e9-8535-52d696565d32","system_id":"levelo_inurba_marseille","lat":43.23204,"lon":5.3555,"is_reserved":false,"is_disabled":false,"rental_uris":{"android":"levelo://app?vid=b83d6932-990b-48e9-8535-52d696565d32","ios":"levelo://app?vid=b83d6932-990b-48e9-8535-52d696565d32"},"vehicle_type_id":"4","last_reported":1746526296,"current_range_meters":27200,"station_id":"ce4bhu92rcd13ifvqi70","pricing_plan_id":"cebpf4jnsgd1na2vs0mg"},{"bike_id":"e76f7b91-14c1-42a5-86fe-839941121e7b","system_id":"levelo_inurba_marseille","lat":43.29258,"lon":5.37623,"is_reserved":false,"is_disabled":false,"rental_uris":{"android":"levelo://app?vid=e76f7b91-14c1-42a5-86fe-839941121e7b","ios":"levelo://app?vid=e76f7b91-14c1-42a5-86fe-839941121e7b"},"vehicle_type_id":"4","last_reported":1746526296,"current_range_meters":27600,"station_id":"ce4bgi12rcd13ifvqb80","pricing_plan_id":"cebpf4jnsgd1na2vs0mg"},{"bike_id":"52ff2e93-4f95-4b42-af0f-fc3e60e51b48","system_id":"levelo_inurba_marseille","lat":43.29923,"lon":5.37466,"is_reserved":false,"is_disabled":false,"rental_uris":{"android":"levelo://app?vid=52ff2e93-4f95-4b42-af0f-fc3e60e51b48","ios":"levelo://app?vid=52ff2e93-4f95-4b42-af0f-fc3e60e51b48"},"vehicle_type_id":"4","last_reported":1746526296,"current_range_meters":27600,"station_id":"ce4bgjh2rcd13ifvqbg0","pricing_plan_id":"cebpf4jnsgd1na2vs0mg"},{"bike_id":"a3d99c82-0944-46cb-898a-c71866bec181","system_id":"levelo_inurba_marseille","lat":43.29602,"lon":5.38098,"is_reserved":false,"is_disabled":false,"rental_uris":{"android":"levelo://app?vid=a3d99c82-0944-46cb-898a-c71866bec181","ios":"levelo://app?vid=a3d99c82-0944-46cb-898a-c71866bec181"},"vehicle_type_id":"4","last_reported":1746526296,"current_range_meters":27600,"station_id":"ce4bgl12rcd13ifvqbo0","pricing_plan_id":"cebpf4jnsgd1na2vs0mg"},{"bike_id":"9e262565-d1c7-4c33-928a-bb15edf3056a","system_id":"levelo_inurba_marseille","lat":43.28699,"lon":5.37392,"is_reserved":false,"is_disabled":false,"rental_uris":{"android":"levelo://app?vid=9e262565-d1c7-4c33-928a-bb15edf3056a","ios":"levelo://app?vid=9e262565-d1c7-4c33-928a-bb15edf3056a"},"vehicle_type_id":"4","last_reported":1746526296,"current_range_meters":27600,"station_id":"ce4bh3p2rcd13ifvqdq0","pricing_plan_id":"cebpf4jnsgd1na2vs0mg"},{"bike_id":"f6ead76a-71f4-4a39-83dc-2d9b41999d43","system_id":"levelo_inurba_marseille","lat":43.26198,"lon":5.37934,"is_reserved":false,"is_disabled":false,"rental_uris":{"android":"levelo://app?vid=f6ead76a-71f4-4a39-83dc-2d9b41999d43","ios":"levelo://app?vid=f6ead76a-71f4-4a39-83dc-2d9b41999d43"},"vehicle_type_id":"4","last_reported":1746526296,"current_range_meters":27600,"station_id":"ce4bhjp2rcd13ifvqg90","pricing_plan_id":"cebpf4jnsgd1na2vs0mg"},{"bike_id":"ffb2065c-0853-4666-89dd-37a373177737","system_id":"levelo_inurba_marseille","lat":43.24068,"lon":5.37764,"is_reserved":false,"is_disabled":false,"rental_uris":{"android":"levelo://app?vid=ffb2065c-0853-4666-89dd-37a373177737","ios":"levelo://app?vid=ffb2065c-0853-4666-89dd-37a373177737"},"vehicle_type_id":"4","last_reported":1746526296,"current_range_meters":27600,"station_id":"ce4bhnp2rcd13ifvqgvg","pricing_plan_id":"cebpf4jnsgd1na2vs0mg"},{"bike_id":"0063c684-709d-4cbf-8cb9-21b86732b4c0","system_id":"levelo_inurba_marseille","lat":43.32655,"lon":5.40992,"is_reserved":false,"is_disabled":false,"rental_uris":{"android":"levelo://app?vid=0063c684-709d-4cbf-8cb9-21b86732b4c0","ios":"levelo://app?vid=0063c684-709d-4cbf-8cb9-21b86732b4c0"},"vehicle_type_id":"4","last_reported":1746526296,"current_range_meters":27600,"station_id":"ce4bhpp2rcd13ifvqhgg","pricing_plan_id":"cebpf4jnsgd1na2vs0mg"},{"bike_id":"a3a8d00e-b494-46d7-b80a-736192e27b18","system_id":"levelo_inurba_marseille","lat":43.32361,"lon":5.3677,"is_reserved":false,"is_disabled":false,"rental_uris":{"android":"levelo://app?vid=a3a8d00e-b494-46d7-b80a-736192e27b18","ios":"levelo://app?vid=a3a8d00e-b494-46d7-b80a-736192e27b18"},"vehicle_type_id":"4","last_reported":1746526296,"current_range_meters":27600,"station_id":"ce4bhsh2rcd13ifvqi2g","pricing_plan_id":"cebpf4jnsgd1na2vs0mg"},{"bike_id":"b1c3ec3f-61fb-4ee0-81bc-abaa0f99c895","system_id":"levelo_inurba_marseille","lat":43.31355,"lon":5.36729,"is_reserved":false,"is_disabled":false,"rental_uris":{"android":"levelo://app?vid=b1c3ec3f-61fb-4ee0-81bc-abaa0f99c895","ios":"levelo://app?vid=b1c3ec3f-61fb-4ee0-81bc-abaa0f99c895"},"vehicle_type_id":"4","last_reported":1746526296,"current_range_meters":28000,"station_id":"ce4bgr92rcd13ifvqc6g","pricing_plan_id":"cebpf4jnsgd1na2vs0mg"},{"bike_id":"b9a946ed-10f8-4d6a-9138-6fdf1e06a0fa","system_id":"levelo_inurba_marseille","lat":43.31358,"lon":5.36743,"is_reserved":false,"is_disabled":false,"rental_uris":{"android":"levelo://app?vid=b9a946ed-10f8-4d6a-9138-6fdf1e06a0fa","ios":"levelo://app?vid=b9a946ed-10f8-4d6a-9138-6fdf1e06a0fa"},"vehicle_type_id":"4","last_reported":1746526296,"current_range_meters":28000,"station_id":"ce4bgr92rcd13ifvqc6g","pricing_plan_id":"cebpf4jnsgd1na2vs0mg"},{"bike_id":"c425057d-9fcd-4057-8f7b-2d7c2f8baa20","system_id":"levelo_inurba_marseille","lat":43.31369,"lon":5.38509,"is_reserved":false,"is_disabled":false,"rental_uris":{"android":"levelo://app?vid=c425057d-9fcd-4057-8f7b-2d7c2f8baa20","ios":"levelo://app?vid=c425057d-9fcd-4057-8f7b-2d7c2f8baa20"},"vehicle_type_id":"4","last_reported":1746526296,"current_range_meters":28000,"station_id":"ce4bgt92rcd13ifvqcf0","pricing_plan_id":"cebpf4jnsgd1na2vs0mg"},{"bike_id":"1f11e3c6-d509-4463-9afe-3296107668ff","system_id":"levelo_inurba_marseille","lat":43.2827,"lon":5.35085,"is_reserved":false,"is_disabled":false,"rental_uris":{"android":"levelo://app?vid=1f11e3c6-d509-4463-9afe-3296107668ff","ios":"levelo://app?vid=1f11e3c6-d509-4463-9afe-3296107668ff"},"vehicle_type_id":"4","last_reported":1746526296,"current_range_meters":28000,"station_id":"ce4bhbp2rcd13ifvqerg","pricing_plan_id":"cebpf4jnsgd1na2vs0mg"},{"bike_id":"9ed6bb94-aff9-4c24-8ebb-1459c599c59a","system_id":"levelo_inurba_marseille","lat":43.24659,"lon":5.38161,"is_reserved":false,"is_disabled":false,"rental_uris":{"android":"levelo://app?vid=9ed6bb94-aff9-4c24-8ebb-1459c599c59a","ios":"levelo://app?vid=9ed6bb94-aff9-4c24-8ebb-1459c599c59a"},"vehicle_type_id":"4","last_reported":1746526296,"current_range_meters":28000,"station_id":"ce4bhih2rcd13ifvqfr0","pricing_plan_id":"cebpf4jnsgd1na2vs0mg"},{"bike_id":"5da99789-6aba-4859-9b1f-6cc0c2c7c3fa","system_id":"levelo_inurba_marseille","lat":43.255764,"lon":5.38191,"is_reserved":false,"is_disabled":false,"rental_uris":{"android":"levelo://app?vid=5da99789-6aba-4859-9b1f-6cc0c2c7c3fa","ios":"levelo://app?vid=5da99789-6aba-4859-9b1f-6cc0c2c7c3fa"},"vehicle_type_id":"4","last_reported":1746526296,"current_range_meters":28000,"station_id":"ce4bhih2rcd13ifvqfs0","pricing_plan_id":"cebpf4jnsgd1na2vs0mg"},{"bike_id":"13f156f4-61d5-46e6-9258-342550e5092f","system_id":"levelo_inurba_marseille","lat":43.27494,"lon":5.42442,"is_reserved":false,"is_disabled":false,"rental_uris":{"android":"levelo://app?vid=13f156f4-61d5-46e6-9258-342550e5092f","ios":"levelo://app?vid=13f156f4-61d5-46e6-9258-342550e5092f"},"vehicle_type_id":"4","last_reported":1746526296,"current_range_meters":28000,"station_id":"ce4bhn92rcd13ifvqgrg","pricing_plan_id":"cebpf4jnsgd1na2vs0mg"},{"bike_id":"95dc59aa-e8c6-4e5e-8a2e-043b5632ad9e","system_id":"levelo_inurba_marseille","lat":43.24073,"lon":5.37738,"is_reserved":false,"is_disabled":false,"rental_uris":{"android":"levelo://app?vid=95dc59aa-e8c6-4e5e-8a2e-043b5632ad9e","ios":"levelo://app?vid=95dc59aa-e8c6-4e5e-8a2e-043b5632ad9e"},"vehicle_type_id":"4","last_reported":1746526296,"current_range_meters":28000,"station_id":"ce4bhnp2rcd13ifvqgvg","pricing_plan_id":"cebpf4jnsgd1na2vs0mg"},{"bike_id":"8e6c59e2-3f71-482f-95a4-2141ef0525ba","system_id":"levelo_inurba_marseille","lat":43.29254,"lon":5.37617,"is_reserved":false,"is_disabled":false,"rental_uris":{"android":"levelo://app?vid=8e6c59e2-3f71-482f-95a4-2141ef0525ba","ios":"levelo://app?vid=8e6c59e2-3f71-482f-95a4-2141ef0525ba"},"vehicle_type_id":"4","last_reported":1746526296,"current_range_meters":28400,"station_id":"ce4bgi12rcd13ifvqb80","pricing_plan_id":"cebpf4jnsgd1na2vs0mg"},{"bike_id":"1c727985-6361-4404-b641-9a992029ae88","system_id":"levelo_inurba_marseille","lat":43.30906,"lon":5.36868,"is_reserved":false,"is_disabled":false,"rental_uris":{"android":"levelo://app?vid=1c727985-6361-4404-b641-9a992029ae88","ios":"levelo://app?vid=1c727985-6361-4404-b641-9a992029ae88"},"vehicle_type_id":"4","last_reported":1746526296,"current_range_meters":28400,"station_id":"ce4bgn92rcd13ifvqbvg","pricing_plan_id":"cebpf4jnsgd1na2vs0mg"},{"bike_id":"b01e9c8e-08bc-4f65-bb23-ba9a98159f00","system_id":"levelo_inurba_marseille","lat":43.309086,"lon":5.368469,"is_reserved":false,"is_disabled":false,"rental_uris":{"android":"levelo://app?vid=b01e9c8e-08bc-4f65-bb23-ba9a98159f00","ios":"levelo://app?vid=b01e9c8e-08bc-4f65-bb23-ba9a98159f00"},"vehicle_type_id":"4","last_reported":1746526296,"current_range_meters":28400,"station_id":"ce4bgn92rcd13ifvqbvg","pricing_plan_id":"cebpf4jnsgd1na2vs0mg"},{"bike_id":"6852b20e-5aa8-4584-ae0c-4ee7909fb173","system_id":"levelo_inurba_marseille","lat":43.30126,"lon":5.39882,"is_reserved":false,"is_disabled":false,"rental_uris":{"android":"levelo://app?vid=6852b20e-5aa8-4584-ae0c-4ee7909fb173","ios":"levelo://app?vid=6852b20e-5aa8-4584-ae0c-4ee7909fb173"},"vehicle_type_id":"4","last_reported":1746526296,"current_range_meters":28400,"station_id":"ce4bh0h2rcd13ifvqd40","pricing_plan_id":"cebpf4jnsgd1na2vs0mg"},{"bike_id":"f91cac1f-063a-4ab7-9f0f-6333ece60aeb","system_id":"levelo_inurba_marseille","lat":43.301292,"lon":5.398687,"is_reserved":false,"is_disabled":false,"rental_uris":{"android":"levelo://app?vid=f91cac1f-063a-4ab7-9f0f-6333ece60aeb","ios":"levelo://app?vid=f91cac1f-063a-4ab7-9f0f-6333ece60aeb"},"vehicle_type_id":"4","last_reported":1746526296,"current_range_meters":28400,"station_id":"ce4bh0h2rcd13ifvqd40","pricing_plan_id":"cebpf4jnsgd1na2vs0mg"},{"bike_id":"ef64af6a-9e07-4ad2-a859-1500c0f0bd8d","system_id":"levelo_inurba_marseille","lat":43.270694,"lon":5.422776,"is_reserved":false,"is_disabled":false,"rental_uris":{"android":"levelo://app?vid=ef64af6a-9e07-4ad2-a859-1500c0f0bd8d","ios":"levelo://app?vid=ef64af6a-9e07-4ad2-a859-1500c0f0bd8d"},