{"last_updated":1744715292,"ttl":60,"version":"2.2","data":{"bikes":[{"bike_id":"885205c9-c085-4fde-a461-8beaf94ed48e","system_id":"levelo_inurba_marseille","lat":43.2871,"lon":5.39987,"is_reserved":false,"is_disabled":false,"rental_uris":{"android":"levelo://app?vid=885205c9-c085-4fde-a461-8beaf94ed48e","ios":"levelo://app?vid=885205c9-c085-4fde-a461-8beaf94ed48e"},"vehicle_type_id":"4","last_reported":1744715292,"current_range_meters":2800,"station_id":"ce4bho92rcd13ifvqh3g","pricing_plan_id":"cebpf4jnsgd1na2vs0mg"},{"bike_id":"addbd637-9732-481f-a53c-14638d6bfe55","system_id":"levelo_inurba_marseille","lat":43.3302,"lon":5.39038,"is_reserved":false,"is_disabled":false,"rental_uris":{"android":"levelo://app?vid=addbd637-9732-481f-a53c-14638d6bfe55","ios":"levelo://app?vid=addbd637-9732-481f-a53c-14638d6bfe55"},"vehicle_type_id":"4","last_reported":1744715292,"current_range_meters":2800,"station_id":"ce4bhr92rcd13ifvqhrg","pricing_plan_id":"cebpf4jnsgd1na2vs0mg"},{"bike_id":"e7816af6-b51f-4a54-bfd2-977771406aea","system_id":"levelo_inurba_marseille","lat":43.23149,"lon":5.43732,"is_reserved":false,"is_disabled":false,"rental_uris":{"android":"levelo://app?vid=e7816af6-b51f-4a54-bfd2-977771406aea","ios":"levelo://app?vid=e7816af6-b51f-4a54-bfd2-977771406aea"},"vehicle_type_id":"4","last_reported":1744715292,"current_range_meters":2800,"station_id":"ce4bhmp2rcd13ifvqgog","pricing_plan_id":"cebpf4jnsgd1na2vs0mg"},{"bike_id":"a7f508ae-5644-48b0-b637-206531d700a2","system_id":"levelo_inurba_marseille","lat":43.25952,"lon":5.40889,"is_reserved":false,"is_disabled":true,"rental_uris":{"android":"levelo://app?vid=a7f508ae-5644-48b0-b637-206531d700a2","ios":"levelo://app?vid=a7f508ae-5644-48b0-b637-206531d700a2"},"vehicle_type_id":"4","last_reported":1744715292,"current_range_meters":3200,"station_id":"ce4bhm92rcd13ifvqglg","pricing_plan_id":"cebpf4jnsgd1na2vs0mg"},{"bike_id":"515271b0-9b96-43f1-9b62-f663213b7c02","system_id":"levelo_inurba_marseille","lat":43.29029,"lon":5.35684,"is_reserved":false,"is_disabled":false,"rental_uris":{"android":"levelo://app?vid=515271b0-9b96-43f1-9b62-f663213b7c02","ios":"levelo://app?vid=515271b0-9b96-43f1-9b62-f663213b7c02"},"vehicle_type_id":"4","last_reported":1744715292,"current_range_meters":3200,"station_id":"","pricing_plan_id":"cebpf4jnsgd1na2vs0mg"},{"bike_id":"5cc87506-6369-4475-9cda-4edd28a4011e","system_id":"levelo_inurba_marseille","lat":43.246632,"lon":5.381658,"is_reserved":false,"is_disabled":false,"rental_uris":{"android":"levelo://app?vid=5cc87506-6369-4475-9cda-4edd28a4011e","ios":"levelo://app?vid=5cc87506-6369-4475-9cda-4edd28a4011e"},"vehicle_type_id":"4","last_reported":1744715292,"current_range_meters":2800,"station_id":"ce4bhih2rcd13ifvqfr0","pricing_plan_id":"cebpf4jnsgd1na2vs0mg"},{"bike_id":"1e28a0a0-8ca1-4255-9925-0bc79647d0a4","system_id":"levelo_inurba_marseille","lat":43.3112,"lon":5.37746,"is_reserved":false,"is_disabled":false,"rental_uris":{"android":"levelo://app?vid=1e28a0a0-8ca1-4255-9925-0bc79647d0a4","ios":"levelo://app?vid=1e28a0a0-8ca1-4255-9925-0bc79647d0a4"},"vehicle_type_id":"4","last_reported":1744715292,"current_range_meters":3200,"station_id":"ce4bgt92rcd13ifvqcg0","pricing_plan_id":"cebpf4jnsgd1na2vs0mg"},{"bike_id":"b8318890-2e3e-445c-b757-85746f3e209c","system_id":"levelo_inurba_marseille","lat":43.29599,"lon":5.3811,"is_reserved":false,"is_disabled":false,"rental_uris":{"android":"levelo://app?vid=b8318890-2e3e-445c-b757-85746f3e209c","ios":"levelo://app?vid=b8318890-2e3e-445c-b757-85746f3e209c"},"vehicle_type_id":"4","last_reported":1744715292,"current_range_meters":3600,"station_id":"ce4bgl12rcd13ifvqbo0","pricing_plan_id":"cebpf4jnsgd1na2vs0mg"},{"bike_id":"e96b3320-c739-4d9d-b38d-37f6ad68ae56","system_id":"levelo_inurba_marseille","lat":43.31228,"lon":5.36855,"is_reserved":false,"is_disabled":false,"rental_uris":{"android":"levelo://app?vid=e96b3320-c739-4d9d-b38d-37f6ad68ae56","ios":"levelo://app?vid=e96b3320-c739-4d9d-b38d-37f6ad68ae56"},"vehicle_type_id":"4","last_reported":1744715292,"current_range_meters":4000,"station_id":"ce4bgl92rcd13ifvqbq0","pricing_plan_id":"cebpf4jnsgd1na2vs0mg"},{"bike_id":"dc2b8387-b0ab-43ac-be13-f9cfb14b0e14","system_id":"levelo_inurba_marseille","lat":43.29512,"lon":5.39422,"is_reserved":false,"is_disabled":false,"rental_uris":{"android":"levelo://app?vid=dc2b8387-b0ab-43ac-be13-f9cfb14b0e14","ios":"levelo://app?vid=dc2b8387-b0ab-43ac-be13-f9cfb14b0e14"},"vehicle_type_id":"4","last_reported":1744715292,"current_range_meters":4400,"station_id":"ce4bh292rcd13ifvqdf0","pricing_plan_id":"cebpf4jnsgd1na2vs0mg"},{"bike_id":"0a7cab43-9343-46f0-9a4d-34c8fb861430","system_id":"levelo_inurba_marseille","lat":43.29163,"lon":5.40028,"is_reserved":false,"is_disabled":false,"rental_uris":{"android":"levelo://app?vid=0a7cab43-9343-46f0-9a4d-34c8fb861430","ios":"levelo://app?vid=0a7cab43-9343-46f0-9a4d-34c8fb861430"},"vehicle_type_id":"4","last_reported":1744715292,"current_range_meters":4800,"station_id":"","pricing_plan_id":"cebpf4jnsgd1na2vs0mg"},{"bike_id":"8e257129-2fc1-4b7e-9af0-0037d9dd9fc9","system_id":"levelo_inurba_marseille","lat":43.28999,"lon":5.37603,"is_reserved":false,"is_disabled":false,"rental_uris":{"android":"levelo://app?vid=8e257129-2fc1-4b7e-9af0-0037d9dd9fc9","ios":"levelo://app?vid=8e257129-2fc1-4b7e-9af0-0037d9dd9fc9"},"vehicle_type_id":"4","last_reported":1744715292,"current_range_meters":5600,"station_id":"ce4bh692rcd13ifvqe90","pricing_plan_id":"cebpf4jnsgd1na2vs0mg"},{"bike_id":"12e21367-327e-401b-ad74-80e769bffd7e","system_id":"levelo_inurba_marseille","lat":43.273651,"lon":5.390315,"is_reserved":false,"is_disabled":false,"rental_uris":{"android":"levelo://app?vid=12e21367-327e-401b-ad74-80e769bffd7e","ios":"levelo://app?vid=12e21367-327e-401b-ad74-80e769bffd7e"},"vehicle_type_id":"4","last_reported":1744715292,"current_range_meters":4800,"station_id":"ce4bhgp2rcd13ifvqfe0","pricing_plan_id":"cebpf4jnsgd1na2vs0mg"},{"bike_id":"2938bc9c-a915-484e-9b02-b4a924f19077","system_id":"levelo_inurba_marseille","lat":43.24172,"lon":5.36377,"is_reserved":false,"is_disabled":false,"rental_uris":{"android":"levelo://app?vid=2938bc9c-a915-484e-9b02-b4a924f19077","ios":"levelo://app?vid=2938bc9c-a915-484e-9b02-b4a924f19077"},"vehicle_type_id":"4","last_reported":1744715292,"current_range_meters":6400,"station_id":"cpo36qri1sfpv3e86is0","pricing_plan_id":"cebpf4jnsgd1na2vs0mg"},{"bike_id":"d373ed4c-aba0-4974-b8ad-53c5cbe85936","system_id":"levelo_inurba_marseille","lat":43.29457,"lon":5.39766,"is_reserved":false,"is_disabled":true,"rental_uris":{"android":"levelo://app?vid=d373ed4c-aba0-4974-b8ad-53c5cbe85936","ios":"levelo://app?vid=d373ed4c-aba0-4974-b8ad-53c5cbe85936"},"vehicle_type_id":"4","last_reported":1744715292,"current_range_meters":6400,"station_id":"ce4bh3h2rcd13ifvqdo0","pricing_plan_id":"cebpf4jnsgd1na2vs0mg"},{"bike_id":"f6151468-df2d-459f-ab57-449c0333cf42","system_id":"levelo_inurba_marseille","lat":43.24697,"lon":5.38135,"is_reserved":false,"is_disabled":false,"rental_uris":{"android":"levelo://app?vid=f6151468-df2d-459f-ab57-449c0333cf42","ios":"levelo://app?vid=f6151468-df2d-459f-ab57-449c0333cf42"},"vehicle_type_id":"4","last_reported":1744715292,"current_range_meters":6400,"station_id":"ce4bhih2rcd13ifvqfr0","pricing_plan_id":"cebpf4jnsgd1na2vs0mg"},{"bike_id":"7ffa46c6-44f5-41d0-bb84-143efd86e221","system_id":"levelo_inurba_marseille","lat":43.286092,"lon":5.383216,"is_reserved":false,"is_disabled":false,"rental_uris":{"android":"levelo://app?vid=7ffa46c6-44f5-41d0-bb84-143efd86e221","ios":"levelo://app?vid=7ffa46c6-44f5-41d0-bb84-143efd86e221"},"vehicle_type_id":"4","last_reported":1744715292,"current_range_meters":6800,"station_id":"ce4bh512rcd13ifvqe3g","pricing_plan_id":"cebpf4jnsgd1na2vs0mg"},{"bike_id":"d521b1c3-d39b-4f66-8b66-c0d0e3dc0abc","system_id":"levelo_inurba_marseille","lat":43.30377,"lon":5.42493,"is_reserved":false,"is_disabled":false,"rental_uris":{"android":"levelo://app?vid=d521b1c3-d39b-4f66-8b66-c0d0e3dc0abc","ios":"levelo://app?vid=d521b1c3-d39b-4f66-8b66-c0d0e3dc0abc"},"vehicle_type_id":"4","last_reported":1744715292,"current_range_meters":6800,"station_id":"ce4bhoh2rcd13ifvqh6g","pricing_plan_id":"cebpf4jnsgd1na2vs0mg"},{"bike_id":"a8cbe12b-5acd-4daf-837f-5c36e9eb76de","system_id":"levelo_inurba_marseille","lat":43.30135,"lon":5.38788,"is_reserved":false,"is_disabled":false,"rental_uris":{"android":"levelo://app?vid=a8cbe12b-5acd-4daf-837f-5c36e9eb76de","ios":"levelo://app?vid=a8cbe12b-5acd-4daf-837f-5c36e9eb76de"},"vehicle_type_id":"4","last_reported":1744715292,"current_range_meters":7200,"station_id":"ce4bghh2rcd13ifvqb60","pricing_plan_id":"cebpf4jnsgd1na2vs0mg"},{"bike_id":"2840dd03-7e3c-473f-8550-a29070d3bba2","system_id":"levelo_inurba_marseille","lat":43.29501,"lon":5.3829,"is_reserved":false,"is_disabled":false,"rental_uris":{"android":"levelo://app?vid=2840dd03-7e3c-473f-8550-a29070d3bba2","ios":"levelo://app?vid=2840dd03-7e3c-473f-8550-a29070d3bba2"},"vehicle_type_id":"4","last_reported":1744715292,"current_range_meters":7200,"station_id":"","pricing_plan_id":"cebpf4jnsgd1na2vs0mg"},{"bike_id":"d6d335a1-0f39-4e82-b560-90b7cf8ffe3a","system_id":"levelo_inurba_marseille","lat":43.27206,"lon":5.3919,"is_reserved":false,"is_disabled":false,"rental_uris":{"android":"levelo://app?vid=d6d335a1-0f39-4e82-b560-90b7cf8ffe3a","ios":"levelo://app?vid=d6d335a1-0f39-4e82-b560-90b7cf8ffe3a"},"vehicle_type_id":"4","last_reported":1744715292,"current_range_meters":7200,"station_id":"ce4bhhp2rcd13ifvqfm0","pricing_plan_id":"cebpf4jnsgd1na2vs0mg"},{"bike_id":"845417ce-58f8-4fd0-a812-396ebdabaa1c","system_id":"levelo_inurba_marseille","lat":43.25108,"lon":5.40324,"is_reserved":false,"is_disabled":false,"rental_uris":{"android":"levelo://app?vid=845417ce-58f8-4fd0-a812-396ebdabaa1c","ios":"levelo://app?vid=845417ce-58f8-4fd0-a812-396ebdabaa1c"},"vehicle_type_id":"4","last_reported":1744715292,"current_range_meters":7200,"station_id":"ce4bhlh2rcd13ifvqgig","pricing_plan_id":"cebpf4jnsgd1na2vs0mg"},{"bike_id":"f64e94b0-492a-4114-9c0a-73129d85f62c","system_id":"levelo_inurba_marseille","lat":43.25579,"lon":5.38228,"is_reserved":false,"is_disabled":false,"rental_uris":{"android":"levelo://app?vid=f64e94b0-492a-4114-9c0a-73129d85f62c","ios":"levelo://app?vid=f64e94b0-492a-4114-9c0a-73129d85f62c"},"vehicle_type_id":"4","last_reported":1744715292,"current_range_meters":6800,"station_id":"ce4bhih2rcd13ifvqfs0","pricing_plan_id":"cebpf4jnsgd1na2vs0mg"},{"bike_id":"b4a19ddd-ec2c-4178-96c7-9e5bf749190e","system_id":"levelo_inurba_marseille","lat":43.29896,"lon":5.43663,"is_reserved":false,"is_disabled":false,"rental_uris":{"android":"levelo://app?vid=b4a19ddd-ec2c-4178-96c7-9e5bf749190e","ios":"levelo://app?vid=b4a19ddd-ec2c-4178-96c7-9e5bf749190e"},"vehicle_type_id":"4","last_reported":1744715292,"current_range_meters":8000,"station_id":"ce4bhpp2rcd13ifvqhfg","pricing_plan_id":"cebpf4jnsgd1na2vs0mg"},{"bike_id":"8a58a04e-f069-487b-905a-c2f308a407cd","system_id":"levelo_inurba_marseille","lat":43.33064,"lon":5.39041,"is_reserved":false,"is_disabled":false,"rental_uris":{"android":"levelo://app?vid=8a58a04e-f069-487b-905a-c2f308a407cd","ios":"levelo://app?vid=8a58a04e-f069-487b-905a-c2f308a407cd"},"vehicle_type_id":"4","last_reported":1744715292,"current_range_meters":8000,"station_id":"ce4bhr92rcd13ifvqhrg","pricing_plan_id":"cebpf4jnsgd1na2vs0mg"},{"bike_id":"ee5dc9cc-87f2-4285-b2a5-c2094c1ebe29","system_id":"levelo_inurba_marseille","lat":43.27811,"lon":5.40716,"is_reserved":false,"is_disabled":false,"rental_uris":{"android":"levelo://app?vid=ee5dc9cc-87f2-4285-b2a5-c2094c1ebe29","ios":"levelo://app?vid=ee5dc9cc-87f2-4285-b2a5-c2094c1ebe29"},"vehicle_type_id":"4","last_reported":1744715292,"current_range_meters":7200,"station_id":"","pricing_plan_id":"cebpf4jnsgd1na2vs0mg"},{"bike_id":"465070c6-ec06-44fe-aaea-7b3bd0eb78f6","system_id":"levelo_inurba_marseille","lat":43.33606,"lon":5.41034,"is_reserved":false,"is_disabled":false,"rental_uris":{"android":"levelo://app?vid=465070c6-ec06-44fe-aaea-7b3bd0eb78f6","ios":"levelo://app?vid=465070c6-ec06-44fe-aaea-7b3bd0eb78f6"},"vehicle_type_id":"4","last_reported":1744715292,"current_range_meters":8400,"station_id":"ce4bhqh2rcd13ifvqhmg","pricing_plan_id":"cebpf4jnsgd1na2vs0mg"},{"bike_id":"8eb99db0-1757-4d73-bebb-8b1dfa44b64a","system_id":"levelo_inurba_marseille","lat":43.28672,"lon":5.38672,"is_reserved":false,"is_disabled":false,"rental_uris":{"android":"levelo://app?vid=8eb99db0-1757-4d73-bebb-8b1dfa44b64a","ios":"levelo://app?vid=8eb99db0-1757-4d73-bebb-8b1dfa44b64a"},"vehicle_type_id":"4","last_reported":1744715292,"current_range_meters":8400,"station_id":"ce4bh492rcd13ifvqdug","pricing_plan_id":"cebpf4jnsgd1na2vs0mg"},{"bike_id":"2f93173f-d02c-4e29-ab59-1fff882697d7","system_id":"levelo_inurba_marseille","lat":43.24063,"lon":5.37756,"is_reserved":false,"is_disabled":false,"rental_uris":{"android":"levelo://app?vid=2f93173f-d02c-4e29-ab59-1fff882697d7","ios":"levelo://app?vid=2f93173f-d02c-4e29-ab59-1fff882697d7"},"vehicle_type_id":"4","last_reported":1744715292,"current_range_meters":8400,"station_id":"ce4bhnp2rcd13ifvqgvg","pricing_plan_id":"cebpf4jnsgd1na2vs0mg"},{"bike_id":"51468568-4402-467a-84ce-936d643513e9","system_id":"levelo_inurba_marseille","lat":43.26556,"lon":5.37295,"is_reserved":false,"is_disabled":false,"rental_uris":{"android":"levelo://app?vid=51468568-4402-467a-84ce-936d643513e9","ios":"levelo://app?vid=51468568-4402-467a-84ce-936d643513e9"},"vehicle_type_id":"4","last_reported":1744715292,"current_range_meters":8800,"station_id":"ce4bhg12rcd13ifvqf70","pricing_plan_id":"cebpf4jnsgd1na2vs0mg"},{"bike_id":"521ff293-089c-4d75-8412-a7493db9e608","system_id":"levelo_inurba_marseille","lat":43.28133,"lon":5.37821,"is_reserved":false,"is_disabled":false,"rental_uris":{"android":"levelo://app?vid=521ff293-089c-4d75-8412-a7493db9e608","ios":"levelo://app?vid=521ff293-089c-4d75-8412-a7493db9e608"},"vehicle_type_id":"4","last_reported":1744715292,"current_range_meters":8800,"station_id":"ce4bha12rcd13ifvqee0","pricing_plan_id":"cebpf4jnsgd1na2vs0mg"},{"bike_id":"5f71bcd6-dad4-4aa7-af7a-856cdf4e712e","system_id":"levelo_inurba_marseille","lat":43.25949,"lon":5.40906,"is_reserved":false,"is_disabled":false,"rental_uris":{"android":"levelo://app?vid=5f71bcd6-dad4-4aa7-af7a-856cdf4e712e","ios":"levelo://app?vid=5f71bcd6-dad4-4aa7-af7a-856cdf4e712e"},"vehicle_type_id":"4","last_reported":1744715292,"current_range_meters":8800,"station_id":"ce4bhm92rcd13ifvqglg","pricing_plan_id":"cebpf4jnsgd1na2vs0mg"},{"bike_id":"c9846e17-0d3f-4a05-839a-d982b011600c","system_id":"levelo_inurba_marseille","lat":43.28071,"lon":5.39649,"is_reserved":false,"is_disabled":false,"rental_uris":{"android":"levelo://app?vid=c9846e17-0d3f-4a05-839a-d982b011600c","ios":"levelo://app?vid=c9846e17-0d3f-4a05-839a-d982b011600c"},"vehicle_type_id":"4","last_reported":1744715292,"current_range_meters":8800,"station_id":"ce4bho12rcd13ifvqh2g","pricing_plan_id":"cebpf4jnsgd1na2vs0mg"},{"bike_id":"111872dc-41ae-4831-9879-87b83fe93a55","system_id":"levelo_inurba_marseille","lat":43.31123,"lon":5.37766,"is_reserved":false,"is_disabled":false,"rental_uris":{"android":"levelo://app?vid=111872dc-41ae-4831-9879-87b83fe93a55","ios":"levelo://app?vid=111872dc-41ae-4831-9879-87b83fe93a55"},"vehicle_type_id":"4","last_reported":1744715292,"current_range_meters":9200,"station_id":"ce4bgt92rcd13ifvqcg0","pricing_plan_id":"cebpf4jnsgd1na2vs0mg"},{"bike_id":"e5153cbb-eac4-4b32-9d07-e32f67a7eb69","system_id":"levelo_inurba_marseille","lat":43.29622,"lon":5.37165,"is_reserved":false,"is_disabled":false,"rental_uris":{"android":"levelo://app?vid=e5153cbb-eac4-4b32-9d07-e32f67a7eb69","ios":"levelo://app?vid=e5153cbb-eac4-4b32-9d07-e32f67a7eb69"},"vehicle_type_id":"4","last_reported":1744715292,"current_range_meters":9200,"station_id":"ce4bgnh2rcd13ifvqc0g","pricing_plan_id":"cebpf4jnsgd1na2vs0mg"},{"bike_id":"ef734429-5e24-498b-98db-95ee16873a56","system_id":"levelo_inurba_marseille","lat":43.27067,"lon":5.42271,"is_reserved":false,"is_disabled":false,"rental_uris":{"android":"levelo://app?vid=ef734429-5e24-498b-98db-95ee16873a56","ios":"levelo://app?vid=ef734429-5e24-498b-98db-95ee16873a56"},"vehicle_type_id":"4","last_reported":1744715292,"current_range_meters":9200,"station_id":"ce4bhk92rcd13ifvqgb0","pricing_plan_id":"cebpf4jnsgd1na2vs0mg"},{"bike_id":"a12a4ca1-f810-4d74-a484-47aa7a760bde","system_id":"levelo_inurba_marseille","lat":43.27069,"lon":5.422742,"is_reserved":false,"is_disabled":false,"rental_uris":{"android":"levelo://app?vid=a12a4ca1-f810-4d74-a484-47aa7a760bde","ios":"levelo://app?vid=a12a4ca1-f810-4d74-a484-47aa7a760bde"},"vehicle_type_id":"4","last_reported":1744715292,"current_range_meters":9200,"station_id":"ce4bhk92rcd13ifvqgb0","pricing_plan_id":"cebpf4jnsgd1na2vs0mg"},{"bike_id":"2225658a-2859-4e49-a26c-7920a9afdfc6","system_id":"levelo_inurba_marseille","lat":43.27428,"lon":5.39415,"is_reserved":false,"is_disabled":false,"rental_uris":{"android":"levelo://app?vid=2225658a-2859-4e49-a26c-7920a9afdfc6","ios":"levelo://app?vid=2225658a-2859-4e49-a26c-7920a9afdfc6"},"vehicle_type_id":"4","last_reported":1744715292,"current_range_meters":9600,"station_id":"ce4bhdp2rcd13ifvqf20","pricing_plan_id":"cebpf4jnsgd1na2vs0mg"},{"bike_id":"17cd360e-88f1-4eb2-a885-f43ff413c060","system_id":"levelo_inurba_marseille","lat":43.29363,"lon":5.37858,"is_reserved":false,"is_disabled":false,"rental_uris":{"android":"levelo://app?vid=17cd360e-88f1-4eb2-a885-f43ff413c060","ios":"levelo://app?vid=17cd360e-88f1-4eb2-a885-f43ff413c060"},"vehicle_type_id":"4","last_reported":1744715292,"current_range_meters":9600,"station_id":"ce4bgjh2rcd13ifvqbf0","pricing_plan_id":"cebpf4jnsgd1na2vs0mg"},{"bike_id":"9e5e5026-5ac1-4dfe-97cc-b3408eb99e04","system_id":"levelo_inurba_marseille","lat":43.29005,"lon":5.35615,"is_reserved":false,"is_disabled":false,"rental_uris":{"android":"levelo://app?vid=9e5e5026-5ac1-4dfe-97cc-b3408eb99e04","ios":"levelo://app?vid=9e5e5026-5ac1-4dfe-97cc-b3408eb99e04"},"vehicle_type_id":"4","last_reported":1744715292,"current_range_meters":9600,"station_id":"ce4bhb92rcd13ifvqen0","pricing_plan_id":"cebpf4jnsgd1na2vs0mg"},{"bike_id":"660d2eb3-0dca-4724-8d5d-ef301fa8b51b","system_id":"levelo_inurba_marseille","lat":43.33048,"lon":5.39036,"is_reserved":false,"is_disabled":false,"rental_uris":{"android":"levelo://app?vid=660d2eb3-0dca-4724-8d5d-ef301fa8b51b","ios":"levelo://app?vid=660d2eb3-0dca-4724-8d5d-ef301fa8b51b"},"vehicle_type_id":"4","last_reported":1744715292,"current_range_meters":9600,"station_id":"ce4bhr92rcd13ifvqhrg","pricing_plan_id":"cebpf4jnsgd1na2vs0mg"},{"bike_id":"0e8e0d85-2932-4765-902a-4c3b14a3eac4","system_id":"levelo_inurba_marseille","lat":43.2565,"lon":5.37648,"is_reserved":false,"is_disabled":false,"rental_uris":{"android":"levelo://app?vid=0e8e0d85-2932-4765-902a-4c3b14a3eac4","ios":"levelo://app?vid=0e8e0d85-2932-4765-902a-4c3b14a3eac4"},"vehicle_type_id":"4","last_reported":1744715292,"current_range_meters":9600,"station_id":"","pricing_plan_id":"cebpf4jnsgd1na2vs0mg"},{"bike_id":"c856083e-207d-480f-a379-0b1dca2491bc","system_id":"levelo_inurba_marseille","lat":43.28718,"lon":5.37932,"is_reserved":false,"is_disabled":false,"rental_uris":{"android":"levelo://app?vid=c856083e-207d-480f-a379-0b1dca2491bc","ios":"levelo://app?vid=c856083e-207d-480f-a379-0b1dca2491bc"},"vehicle_type_id":"4","last_reported":1744715292,"current_range_meters":9200,"station_id":"ce4bh9p2rcd13ifvqec0","pricing_plan_id":"cebpf4jnsgd1na2vs0mg"},{"bike_id":"dbcfd9af-d338-4e17-98cc-cf0be062dcfb","system_id":"levelo_inurba_marseille","lat":43.30951,"lon":5.39027,"is_reserved":false,"is_disabled":false,"rental_uris":{"android":"levelo://app?vid=dbcfd9af-d338-4e17-98cc-cf0be062dcfb","ios":"levelo://app?vid=dbcfd9af-d338-4e17-98cc-cf0be062dcfb"},"vehicle_type_id":"4","last_reported":1744715292,"current_range_meters":8800,"station_id":"ce4bgup2rcd13ifvqco0","pricing_plan_id":"cebpf4jnsgd1na2vs0mg"},{"bike_id":"08f6ac0d-d38e-4629-bf6c-42524d2df077","system_id":"levelo_inurba_marseille","lat":43.28452,"lon":5.35889,"is_reserved":false,"is_disabled":false,"rental_uris":{"android":"levelo://app?vid=08f6ac0d-d38e-4629-bf6c-42524d2df077","ios":"levelo://app?vid=08f6ac0d-d38e-4629-bf6c-42524d2df077"},"vehicle_type_id":"4","last_reported":1744715292,"current_range_meters":9600,"station_id":"ce4bhah2rcd13ifvqei0","pricing_plan_id":"cebpf4jnsgd1na2vs0mg"},{"bike_id":"27a55245-8dd2-4f1a-af63-95a9d7b71690","system_id":"levelo_inurba_marseille","lat":43.31079,"lon":5.37851,"is_reserved":false,"is_disabled":false,"rental_uris":{"android":"levelo://app?vid=27a55245-8dd2-4f1a-af63-95a9d7b71690","ios":"levelo://app?vid=27a55245-8dd2-4f1a-af63-95a9d7b71690"},"vehicle_type_id":"4","last_reported":1744715292,"current_range_meters":10000,"station_id":"","pricing_plan_id":"cebpf4jnsgd1na2vs0mg"},{"bike_id":"2d838e93-46e4-4dfa-bdd2-7f572a6a7f42","system_id":"levelo_inurba_marseille","lat":43.30891,"lon":5.372,"is_reserved":false,"is_disabled":false,"rental_uris":{"android":"levelo://app?vid=2d838e93-46e4-4dfa-bdd2-7f572a6a7f42","ios":"levelo://app?vid=2d838e93-46e4-4dfa-bdd2-7f572a6a7f42"},"vehicle_type_id":"4","last_reported":1744715292,"current_range_meters":10000,"station_id":"ce4bguh2rcd13ifvqckg","pricing_plan_id":"cebpf4jnsgd1na2vs0mg"},{"bike_id":"5236d04d-7a25-42e7-905b-1c4d0427728e","system_id":"levelo_inurba_marseille","lat":43.26568,"lon":5.39013,"is_reserved":false,"is_disabled":false,"rental_uris":{"android":"levelo://app?vid=5236d04d-7a25-42e7-905b-1c4d0427728e","ios":"levelo://app?vid=5236d04d-7a25-42e7-905b-1c4d0427728e"},"vehicle_type_id":"4","last_reported":1744715292,"current_range_meters":10000,"station_id":"ce4bhe12rcd13ifvqf30","pricing_plan_id":"cebpf4jnsgd1na2vs0mg"},{"bike_id":"924f1f8d-1d2d-40be-8d38-ec8768e32c21","system_id":"levelo_inurba_marseille","lat":43.30952,"lon":5.39024,"is_reserved":false,"is_disabled":false,"rental_uris":{"android":"levelo://app?vid=924f1f8d-1d2d-40be-8d38-ec8768e32c21","ios":"levelo://app?vid=924f1f8d-1d2d-40be-8d38-ec8768e32c21"},"vehicle_type_id":"4","last_reported":1744715292,"current_range_meters":10000,"station_id":"ce4bgup2rcd13ifvqco0","pricing_plan_id":"cebpf4jnsgd1na2vs0mg"},{"bike_id":"a6b4f83f-3821-43df-a2af-8379d5ea08cc","system_id":"levelo_inurba_marseille","lat":43.30317,"lon":5.36909,"is_reserved":false,"is_disabled":false,"rental_uris":{"android":"levelo://app?vid=a6b4f83f-3821-43df-a2af-8379d5ea08cc","ios":"levelo://app?vid=a6b4f83f-3821-43df-a2af-8379d5ea08cc"},"vehicle_type_id":"4","last_reported":1744715292,"current_range_meters":10800,"station_id":"ce4bgqh2rcd13ifvqc5g","pricing_plan_id":"cebpf4jnsgd1na2vs0mg"},{"bike_id":"81f593d7-aa61-4af1-a720-4092d415891a","system_id":"levelo_inurba_marseille","lat":43.31177,"lon":5.38717,"is_reserved":false,"is_disabled":false,"rental_uris":{"android":"levelo://app?vid=81f593d7-aa61-4af1-a720-4092d415891a","ios":"levelo://app?vid=81f593d7-aa61-4af1-a720-4092d415891a"},"vehicle_type_id":"4","last_reported":1744715292,"current_range_meters":10000,"station_id":"ce4bgv12rcd13ifvqcp0","pricing_plan_id":"cebpf4jnsgd1na2vs0mg"},{"bike_id":"45152fd8-c07c-4d52-b7a7-6670add35e00","system_id":"levelo_inurba_marseille","lat":43.26115,"lon":5.42088,"is_reserved":false,"is_disabled":false,"rental_uris":{"android":"levelo://app?vid=45152fd8-c07c-4d52-b7a7-6670add35e00","ios":"levelo://app?vid=45152fd8-c07c-4d52-b7a7-6670add35e00"},"vehicle_type_id":"4","last_reported":1744715292,"current_range_meters":10800,"station_id":"","pricing_plan_id":"cebpf4jnsgd1na2vs0mg"},{"bike_id":"93676aa8-d320-4c2d-8b07-a119495392e0","system_id":"levelo_inurba_marseille","lat":43.30314,"lon":5.36887,"is_reserved":false,"is_disabled":false,"rental_uris":{"android":"levelo://app?vid=93676aa8-d320-4c2d-8b07-a119495392e0","ios":"levelo://app?vid=93676aa8-d320-4c2d-8b07-a119495392e0"},"vehicle_type_id":"4","last_reported":1744715292,"current_range_meters":11200,"station_id":"ce4bgqh2rcd13ifvqc5g","pricing_plan_id":"cebpf4jnsgd1na2vs0mg"},{"bike_id":"4810a73d-5efd-4bc0-84ba-716d51691df5","system_id":"levelo_inurba_marseille","lat":43.24173,"lon":5.39723,"is_reserved":false,"is_disabled":false,"rental_uris":{"android":"levelo://app?vid=4810a73d-5efd-4bc0-84ba-716d51691df5","ios":"levelo://app?vid=4810a73d-5efd-4bc0-84ba-716d51691df5"},"vehicle_type_id":"4","last_reported":1744715292,"current_range_meters":11600,"station_id":"ce4bhn12rcd13ifvqgpg","pricing_plan_id":"cebpf4jnsgd1na2vs0mg"},{"bike_id":"43884365-9342-4d08-8af5-5bad2a122ed4","system_id":"levelo_inurba_marseille","lat":43.29588,"lon":5.38065,"is_reserved":false,"is_disabled":false,"rental_uris":{"android":"levelo://app?vid=43884365-9342-4d08-8af5-5bad2a122ed4","ios":"levelo://app?vid=43884365-9342-4d08-8af5-5bad2a122ed4"},"vehicle_type_id":"4","last_reported":1744715292,"current_range_meters":12000,"station_id":"ce4bgl12rcd13ifvqbo0","pricing_plan_id":"cebpf4jnsgd1na2vs0mg"},{"bike_id":"37342bdf-d586-43ba-a25b-da22b3393da6","system_id":"levelo_inurba_marseille","lat":43.2917,"lon":5.37499,"is_reserved":false,"is_disabled":false,"rental_uris":{"android":"levelo://app?vid=37342bdf-d586-43ba-a25b-da22b3393da6","ios":"levelo://app?vid=37342bdf-d586-43ba-a25b-da22b3393da6"},"vehicle_type_id":"4","last_reported":1744715292,"current_range_meters":12000,"station_id":"","pricing_plan_id":"cebpf4jnsgd1na2vs0mg"},{"bike_id":"e163192a-5f4b-4923-b429-adebc1f428a6","system_id":"levelo_inurba_marseille","lat":43.31887,"lon":5.40742,"is_reserved":false,"is_disabled":false,"rental_uris":{"android":"levelo://app?vid=e163192a-5f4b-4923-b429-adebc1f428a6","ios":"levelo://app?vid=e163192a-5f4b-4923-b429-adebc1f428a6"},"vehicle_type_id":"4","last_reported":1744715292,"current_range_meters":12000,"station_id":"ce4bhq12rcd13ifvqhig","pricing_plan_id":"cebpf4jnsgd1na2vs0mg"},{"bike_id":"58958284-97a2-4c88-9dad-7dab861a1176","system_id":"levelo_inurba_marseille","lat":43.30436,"lon":5.38901,"is_reserved":false,"is_disabled":false,"rental_uris":{"android":"levelo://app?vid=58958284-97a2-4c88-9dad-7dab861a1176","ios":"levelo://app?vid=58958284-97a2-4c88-9dad-7dab861a1176"},"vehicle_type_id":"4","last_reported":1744715292,"current_range_meters":12400,"station_id":"ce4bgk12rcd13ifvqbi0","pricing_plan_id":"cebpf4jnsgd1na2vs0mg"},{"bike_id":"54d93669-ba49-4c3f-bc88-05529ed793cd","system_id":"levelo_inurba_marseille","lat":43.30562,"lon":5.36524,"is_reserved":false,"is_disabled":false,"rental_uris":{"android":"levelo://app?vid=54d93669-ba49-4c3f-bc88-05529ed793cd","ios":"levelo://app?vid=54d93669-ba49-4c3f-bc88-05529ed793cd"},"vehicle_type_id":"4","last_reported":1744715292,"current_range_meters":12400,"station_id":"ce4bgs12rcd13ifvqcag","pricing_plan_id":"cebpf4jnsgd1na2vs0mg"},{"bike_id":"519d3eda-831e-4f78-bedc-2d023c6799e2","system_id":"levelo_inurba_marseille","lat":43.290833,"lon":5.372476,"is_reserved":false,"is_disabled":false,"rental_uris":{"android":"levelo://app?vid=519d3eda-831e-4f78-bedc-2d023c6799e2","ios":"levelo://app?vid=519d3eda-831e-4f78-bedc-2d023c6799e2"},"vehicle_type_id":"4","last_reported":1744715292,"current_range_meters":12800,"station_id":"ce4bh492rcd13ifvqdvg","pricing_plan_id":"cebpf4jnsgd1na2vs0mg"},{"bike_id":"9b58b6c4-062a-4420-9fda-f253f297e853","system_id":"levelo_inurba_marseille","lat":43.30538,"lon":5.36524,"is_reserved":false,"is_disabled":false,"rental_uris":{"android":"levelo://app?vid=9b58b6c4-062a-4420-9fda-f253f297e853","ios":"levelo://app?vid=9b58b6c4-062a-4420-9fda-f253f297e853"},"vehicle_type_id":"4","last_reported":1744715292,"current_range_meters":12800,"station_id":"ce4bgs12rcd13ifvqcag","pricing_plan_id":"cebpf4jnsgd1na2vs0mg"},{"bike_id":"1a8167be-a6b0-472a-a204-133ffc2e6c50","system_id":"levelo_inurba_marseille","lat":43.27441,"lon":5.39423,"is_reserved":false,"is_disabled":false,"rental_uris":{"android":"levelo://app?vid=1a8167be-a6b0-472a-a204-133ffc2e6c50","ios":"levelo://app?vid=1a8167be-a6b0-472a-a204-133ffc2e6c50"},"vehicle_type_id":"4","last_reported":1744715292,"current_range_meters":12800,"station_id":"ce4bhdp2rcd13ifvqf20","pricing_plan_id":"cebpf4jnsgd1na2vs0mg"},{"bike_id":"c233c14b-e563-47f5-bc5e-8bf33633f4b8","system_id":"levelo_inurba_marseille","lat":43.29043,"lon":5.37574,"is_reserved":false,"is_disabled":false,"rental_uris":{"android":"levelo://app?vid=c233c14b-e563-47f5-bc5e-8bf33633f4b8","ios":"levelo://app?vid=c233c14b-e563-47f5-bc5e-8bf33633f4b8"},"vehicle_type_id":"4","last_reported":1744715292,"current_range_meters":13600,"station_id":"ce4bh692rcd13ifvqe90","pricing_plan_id":"cebpf4jnsgd1na2vs0mg"},{"bike_id":"129e1c37-93e9-483a-b799-a451e622173f","system_id":"levelo_inurba_marseille","lat":43.29661,"lon":5.37146,"is_reserved":false,"is_disabled":false,"rental_uris":{"android":"levelo://app?vid=129e1c37-93e9-483a-b799-a451e622173f","ios":"levelo://app?vid=129e1c37-93e9-483a-b799-a451e622173f"},"vehicle_type_id":"4","last_reported":1744715292,"current_range_meters":13600,"station_id":"ce4bgnh2rcd13ifvqc0g","pricing_plan_id":"cebpf4jnsgd1na2vs0mg"},{"bike_id":"4d741115-527b-433d-b7ca-9aa765693406","system_id":"levelo_inurba_marseille","lat":43.29518,"lon":5.37499,"is_reserved":false,"is_disabled":false,"rental_uris":{"android":"levelo://app?vid=4d741115-527b-433d-b7ca-9aa765693406","ios":"levelo://app?vid=4d741115-527b-433d-b7ca-9aa765693406"},"vehicle_type_id":"4","last_reported":1744715292,"current_range_meters":12800,"station_id":"ce4bgkp2rcd13ifvqbmg","pricing_plan_id":"cebpf4jnsgd1na2vs0mg"},{"bike_id":"33941653-45a7-4a37-8a83-b97caee3c9aa","system_id":"levelo_inurba_marseille","lat":43.27054,"lon":5.40266,"is_reserved":false,"is_disabled":false,"rental_uris":{"android":"levelo://app?vid=33941653-45a7-4a37-8a83-b97caee3c9aa","ios":"levelo://app?vid=33941653-45a7-4a37-8a83-b97caee3c9aa"},"vehicle_type_id":"4","last_reported":1744715292,"current_range_meters":13600,"station_id":"ce4bhk92rcd13ifvqgc0","pricing_plan_id":"cebpf4jnsgd1na2vs0mg"},{"bike_id":"795d95d6-ad06-46d6-8b93-0372fdaa87fa","system_id":"levelo_inurba_marseille","lat":43.31113,"lon":5.37769,"is_reserved":false,"is_disabled":false,"rental_uris":{"android":"levelo://app?vid=795d95d6-ad06-46d6-8b93-0372fdaa87fa","ios":"levelo://app?vid=795d95d6-ad06-46d6-8b93-0372fdaa87fa"},"vehicle_type_id":"4","last_reported":1744715292,"current_range_meters":13600,"station_id":"ce4bgt92rcd13ifvqcg0","pricing_plan_id":"cebpf4jnsgd1na2vs0mg"},{"bike_id":"052e15e9-56a6-4e9b-aea6-8d2356b3ebbe","system_id":"levelo_inurba_marseille","lat":43.2407,"lon":5.37768,"is_reserved":false,"is_disabled":false,"rental_uris":{"android":"levelo://app?vid=052e15e9-56a6-4e9b-aea6-8d2356b3ebbe","ios":"levelo://app?vid=052e15e9-56a6-4e9b-aea6-8d2356b3ebbe"},"vehicle_type_id":"4","last_reported":1744715292,"current_range_meters":12800,"station_id":"ce4bhnp2rcd13ifvqgvg","pricing_plan_id":"cebpf4jnsgd1na2vs0mg"},{"bike_id":"c968f198-d9c1-4a60-adb6-90da61979369","system_id":"levelo_inurba_marseille","lat":43.30145,"lon":5.38084,"is_reserved":false,"is_disabled":false,"rental_uris":{"android":"levelo://app?vid=c968f198-d9c1-4a60-adb6-90da61979369","ios":"levelo://app?vid=c968f198-d9c1-4a60-adb6-90da61979369"},"vehicle_type_id":"4","last_reported":1744715292,"current_range_meters":13600,"station_id":"ce4bgjp2rcd13ifvqbh0","pricing_plan_id":"cebpf4jnsgd1na2vs0mg"},{"bike_id":"47a85634-40b2-4bd1-8409-1d1cf2f06bdc","system_id":"levelo_inurba_marseille","lat":43.240583,"lon":5.377837,"is_reserved":false,"is_disabled":false,"rental_uris":{"android":"levelo://app?vid=47a85634-40b2-4bd1-8409-1d1cf2f06bdc","ios":"levelo://app?vid=47a85634-40b2-4bd1-8409-1d1cf2f06bdc"},"vehicle_type_id":"4","last_reported":1744715292,"current_range_meters":14000,"station_id":"ce4bhnp2rcd13ifvqgvg","pricing_plan_id":"cebpf4jnsgd1na2vs0mg"},{"bike_id":"d2d37f01-fa46-4fbc-a721-7789f4003663","system_id":"levelo_inurba_marseille","lat":43.24983,"lon":5.3896,"is_reserved":false,"is_disabled":false,"rental_uris":{"android":"levelo://app?vid=d2d37f01-fa46-4fbc-a721-7789f4003663","ios":"levelo://app?vid=d2d37f01-fa46-4fbc-a721-7789f4003663"},"vehicle_type_id":"4","last_reported":1744715292,"current_range_meters":14000,"station_id":"ce4bhgp2rcd13ifvqfd0","pricing_plan_id":"cebpf4jnsgd1na2vs0mg"},{"bike_id":"2d6fe4c8-5d44-495b-85b2-9dce69368155","system_id":"levelo_inurba_marseille","lat":43.31225,"lon":5.36863,"is_reserved":false,"is_disabled":false,"rental_uris":{"android":"levelo://app?vid=2d6fe4c8-5d44-495b-85b2-9dce69368155","ios":"levelo://app?vid=2d6fe4c8-5d44-495b-85b2-9dce69368155"},"vehicle_type_id":"4","last_reported":1744715292,"current_range_meters":14000,"station_id":"ce4bgl92rcd13ifvqbq0","pricing_plan_id":"cebpf4jnsgd1na2vs0mg"},{"bike_id":"192632e2-2665-465c-9c1c-47eaef1fd2bb","system_id":"levelo_inurba_marseille","lat":43.33628,"lon":5.40982,"is_reserved":false,"is_disabled":false,"rental_uris":{"android":"levelo://app?vid=192632e2-2665-465c-9c1c-47eaef1fd2bb","ios":"levelo://app?vid=192632e2-2665-465c-9c1c-47eaef1fd2bb"},"vehicle_type_id":"4","last_reported":1744715292,"current_range_meters":14000,"station_id":"ce4bhqh2rcd13ifvqhmg","pricing_plan_id":"cebpf4jnsgd1na2vs0mg"},{"bike_id":"aed404ff-362a-4bb6-abbf-7c0fd66c75fd","system_id":"levelo_inurba_marseille","lat":43.28709,"lon":5.39995,"is_reserved":false,"is_disabled":false,"rental_uris":{"android":"levelo://app?vid=aed404ff-362a-4bb6-abbf-7c0fd66c75fd","ios":"levelo://app?vid=aed404ff-362a-4bb6-abbf-7c0fd66c75fd"},"vehicle_type_id":"4","last_reported":1744715292,"current_range_meters":14400,"station_id":"ce4bho92rcd13ifvqh3g","pricing_plan_id":"cebpf4jnsgd1na2vs0mg"},{"bike_id":"bdbfa91d-f51b-4c92-a880-1cae845c2a5c","system_id":"levelo_inurba_marseille","lat":43.22939,"lon":5.35371,"is_reserved":false,"is_disabled":false,"rental_uris":{"android":"levelo://app?vid=bdbfa91d-f51b-4c92-a880-1cae845c2a5c","ios":"levelo://app?vid=bdbfa91d-f51b-4c92-a880-1cae845c2a5c"},"vehicle_type_id":"4","last_reported":1744715292,"current_range_meters":14400,"station_id":"cpo3532slgdg3j2ikp40","pricing_plan_id":"cebpf4jnsgd1na2vs0mg"},{"bike_id":"bdde2369-5adc-41d1-bf9f-ca8e9ce01b26","system_id":"levelo_inurba_marseille","lat":43.27056,"lon":5.40256,"is_reserved":false,"is_disabled":false,"rental_uris":{"android":"levelo://app?vid=bdde2369-5adc-41d1-bf9f-ca8e9ce01b26","ios":"levelo://app?vid=bdde2369-5adc-41d1-bf9f-ca8e9ce01b26"},"vehicle_type_id":"4","last_reported":1744715292,"current_range_meters":14400,"station_id":"ce4bhk92rcd13ifvqgc0","pricing_plan_id":"cebpf4jnsgd1na2vs0mg"},{"bike_id":"c9fbfbd0-ac82-410e-8a58-1795989b1898","system_id":"levelo_inurba_marseille","lat":43.30479,"lon":5.37902,"is_reserved":false,"is_disabled":false,"rental_uris":{"android":"levelo://app?vid=c9fbfbd0-ac82-410e-8a58-1795989b1898","ios":"levelo://app?vid=c9fbfbd0-ac82-410e-8a58-1795989b1898"},"vehicle_type_id":"4","last_reported":1744715292,"current_range_meters":14400,"station_id":"ce4bgup2rcd13ifvqcn0","pricing_plan_id":"cebpf4jnsgd1na2vs0mg"},{"bike_id":"69d0896f-1fe8-462f-a66d-9962fa0b6aa7","system_id":"levelo_inurba_marseille","lat":43.30534,"lon":5.36705,"is_reserved":false,"is_disabled":false,"rental_uris":{"android":"levelo://app?vid=69d0896f-1fe8-462f-a66d-9962fa0b6aa7","ios":"levelo://app?vid=69d0896f-1fe8-462f-a66d-9962fa0b6aa7"},"vehicle_type_id":"4","last_reported":1744715292,"current_range_meters":14400,"station_id":"ce4bgrp2rcd13ifvqc9g","pricing_plan_id":"cebpf4jnsgd1na2vs0mg"},{"bike_id":"a81e5b4b-a0c6-4c9a-a2d0-0e5c4955e2ad","system_id":"levelo_inurba_marseille","lat":43.21749,"lon":5.34618,"is_reserved":false,"is_disabled":false,"rental_uris":{"android":"levelo://app?vid=a81e5b4b-a0c6-4c9a-a2d0-0e5c4955e2ad","ios":"levelo://app?vid=a81e5b4b-a0c6-4c9a-a2d0-0e5c4955e2ad"},"vehicle_type_id":"4","last_reported":1744715292,"current_range_meters":14400,"station_id":"st_cvj6r9ubvosntc0bgbag","pricing_plan_id":"cebpf4jnsgd1na2vs0mg"},{"bike_id":"e298fb17-60fe-4ee1-bc94-645f9b8b1bb4","system_id":"levelo_inurba_marseille","lat":43.28972,"lon":5.37595,"is_reserved":false,"is_disabled":false,"rental_uris":{"android":"levelo://app?vid=e298fb17-60fe-4ee1-bc94-645f9b8b1bb4","ios":"levelo://app?vid=e298fb17-60fe-4ee1-bc94-645f9b8b1bb4"},"vehicle_type_id":"4","last_reported":1744715292,"current_range_meters":14400,"station_id":"","pricing_plan_id":"cebpf4jnsgd1na2vs0mg"},{"bike_id":"67330119-bba8-458f-9d71-51e202d98b78","system_id":"levelo_inurba_marseille","lat":43.31224,"lon":5.36848,"is_reserved":false,"is_disabled":false,"rental_uris":{"android":"levelo://app?vid=67330119-bba8-458f-9d71-51e202d98b78","ios":"levelo://app?vid=67330119-bba8-458f-9d71-51e202d98b78"},"vehicle_type_id":"4","last_reported":1744715292,"current_range_meters":14800,"station_id":"ce4bgl92rcd13ifvqbq0","pricing_plan_id":"cebpf4jnsgd1na2vs0mg"},{"bike_id":"fccaee15-ed38-41df-92ba-57362d80a9a2","system_id":"levelo_inurba_marseille","lat":43.30571,"lon":5.3655,"is_reserved":false,"is_disabled":false,"rental_uris":{"android":"levelo://app?vid=fccaee15-ed38-41df-92ba-57362d80a9a2","ios":"levelo://app?vid=fccaee15-ed38-41df-92ba-57362d80a9a2"},"vehicle_type_id":"4","last_reported":1744715292,"current_range_meters":14800,"station_id":"ce4bgs12rcd13ifvqcag","pricing_plan_id":"cebpf4jnsgd1na2vs0mg"},{"bike_id":"9254e02b-fc35-42d3-a520-8064307277fb","system_id":"levelo_inurba_marseille","lat":43.3123,"lon":5.36861,"is_reserved":false,"is_disabled":false,"rental_uris":{"android":"levelo://app?vid=9254e02b-fc35-42d3-a520-8064307277fb","ios":"levelo://app?vid=9254e02b-fc35-42d3-a520-8064307277fb"},"vehicle_type_id":"4","last_reported":1744715292,"current_range_meters":14800,"station_id":"ce4bgl92rcd13ifvqbq0","pricing_plan_id":"cebpf4jnsgd1na2vs0mg"},{"bike_id":"2f1b0507-4d1e-4f31-9f00-a8ad46cd12d4","system_id":"levelo_inurba_marseille","lat":43.26197,"lon":5.37937,"is_reserved":false,"is_disabled":false,"rental_uris":{"android":"levelo://app?vid=2f1b0507-4d1e-4f31-9f00-a8ad46cd12d4","ios":"levelo://app?vid=2f1b0507-4d1e-4f31-9f00-a8ad46cd12d4"},"vehicle_type_id":"4","last_reported":1744715292,"current_range_meters":14800,"station_id":"ce4bhjp2rcd13ifvqg90","pricing_plan_id":"cebpf4jnsgd1na2vs0mg"},{"bike_id":"74e2eb36-43a1-4496-8066-61bdd83ac34b","system_id":"levelo_inurba_marseille","lat":43.27064,"lon":5.40263,"is_reserved":false,"is_disabled":false,"rental_uris":{"android":"levelo://app?vid=74e2eb36-43a1-4496-8066-61bdd83ac34b","ios":"levelo://app?vid=74e2eb36-43a1-4496-8066-61bdd83ac34b"},"vehicle_type_id":"4","last_reported":1744715292,"current_range_meters":14800,"station_id":"ce4bhk92rcd13ifvqgc0","pricing_plan_id":"cebpf4jnsgd1na2vs0mg"},{"bike_id":"83310cf9-14a4-48b9-9d2c-1bece7f6bc9c","system_id":"levelo_inurba_marseille","lat":43.29572,"lon":5.37507,"is_reserved":false,"is_disabled":false,"rental_uris":{"android":"levelo://app?vid=83310cf9-14a4-48b9-9d2c-1bece7f6bc9c","ios":"levelo://app?vid=83310cf9-14a4-48b9-9d2c-1bece7f6bc9c"},"vehicle_type_id":"4","last_reported":1744715292,"current_range_meters":15200,"station_id":"ce4bgh92rcd13ifvqb50","pricing_plan_id":"cebpf4jnsgd1na2vs0mg"},{"bike_id":"d554e03d-9412-40b8-b2f0-b47a9f259332","system_id":"levelo_inurba_marseille","lat":43.3049,"lon":5.37909,"is_reserved":false,"is_disabled":false,"rental_uris":{"android":"levelo://app?vid=d554e03d-9412-40b8-b2f0-b47a9f259332","ios":"levelo://app?vid=d554e03d-9412-40b8-b2f0-b47a9f259332"},"vehicle_type_id":"4","last_reported":1744715292,"current_range_meters":15200,"station_id":"ce4bgup2rcd13ifvqcn0","pricing_plan_id":"cebpf4jnsgd1na2vs0mg"},{"bike_id":"415db733-f514-4806-a29d-91dddd76fe1c","system_id":"levelo_inurba_marseille","lat":43.30311,"lon":5.36899,"is_reserved":false,"is_disabled":false,"rental_uris":{"android":"levelo://app?vid=415db733-f514-4806-a29d-91dddd76fe1c","ios":"levelo://app?vid=415db733-f514-4806-a29d-91dddd76fe1c"},"vehicle_type_id":"4","last_reported":1744715292,"current_range_meters":16000,"station_id":"ce4bgqh2rcd13ifvqc5g","pricing_plan_id":"cebpf4jnsgd1na2vs0mg"},{"bike_id":"9155bc8a-cf7e-4b94-a172-173d840f44db","system_id":"levelo_inurba_marseille","lat":43.25028,"lon":5.38927,"is_reserved":false,"is_disabled":false,"rental_uris":{"android":"levelo://app?vid=9155bc8a-cf7e-4b94-a172-173d840f44db","ios":"levelo://app?vid=9155bc8a-cf7e-4b94-a172-173d840f44db"},"vehicle_type_id":"4","last_reported":1744715292,"current_range_meters":16000,"station_id":"ce4bhgp2rcd13ifvqfd0","pricing_plan_id":"cebpf4jnsgd1na2vs0mg"},{"bike_id":"edeb31da-c7df-42c5-8538-462c9290a386","system_id":"levelo_inurba_marseille","lat":43.33044,"lon":5.39035,"is_reserved":false,"is_disabled":false,"rental_uris":{"android":"levelo://app?vid=edeb31da-c7df-42c5-8538-462c9290a386","ios":"levelo://app?vid=edeb31da-c7df-42c5-8538-462c9290a386"},"vehicle_type_id":"4","last_reported":1744715292,"current_range_meters":16000,"station_id":"ce4bhr92rcd13ifvqhrg","pricing_plan_id":"cebpf4jnsgd1na2vs0mg"},{"bike_id":"96f67fc3-1d8d-4e0e-b60a-683312315db0","system_id":"levelo_inurba_marseille","lat":43.31362,"lon":5.36724,"is_reserved":false,"is_disabled":false,"rental_uris":{"android":"levelo://app?vid=96f67fc3-1d8d-4e0e-b60a-683312315db0","ios":"levelo://app?vid=96f67fc3-1d8d-4e0e-b60a-683312315db0"},"vehicle_type_id":"4","last_reported":1744715292,"current_range_meters":16000,"station_id":"ce4bgr92rcd13ifvqc6g","pricing_plan_id":"cebpf4jnsgd1na2vs0mg"},{"bike_id":"77037b3f-050a-4708-b85e-3feee4d6225d","system_id":"levelo_inurba_marseille","lat":43.30537,"lon":5.37844,"is_reserved":false,"is_disabled":false,"rental_uris":{"android":"levelo://app?vid=77037b3f-050a-4708-b85e-3feee4d6225d","ios":"levelo://app?vid=77037b3f-050a-4708-b85e-3feee4d6225d"},"vehicle_type_id":"4","last_reported":1744715292,"current_range_meters":16000,"station_id":"ce4bgup2rcd13ifvqcn0","pricing_plan_id":"cebpf4jnsgd1na2vs0mg"},{"bike_id":"ad7c6997-889a-49bc-949f-e4a9d90fee03","system_id":"levelo_inurba_marseille","lat":43.29269,"lon":5.37637,"is_reserved":false,"is_disabled":false,"rental_uris":{"android":"levelo://app?vid=ad7c6997-889a-49bc-949f-e4a9d90fee03","ios":"levelo://app?vid=ad7c6997-889a-49bc-949f-e4a9d90fee03"},"vehicle_type_id":"4","last_reported":1744715292,"current_range_meters":16000,"station_id":"ce4bgi12rcd13ifvqb80","pricing_plan_id":"cebpf4jnsgd1na2vs0mg"},{"bike_id":"4b3747ad-70b8-45b3-a21f-9645dba15850","system_id":"levelo_inurba_marseille","lat":43.25924,"lon":5.40898,"is_reserved":false,"is_disabled":false,"rental_uris":{"android":"levelo://app?vid=4b3747ad-70b8-45b3-a21f-9645dba15850","ios":"levelo://app?vid=4b3747ad-70b8-45b3-a21f-9645dba15850"},"vehicle_type_id":"4","last_reported":1744715292,"current_range_meters":16000,"station_id":"ce4bhm92rcd13ifvqglg","pricing_plan_id":"cebpf4jnsgd1na2vs0mg"},{"bike_id":"66e778a1-034a-4a7b-beae-707e8c5423bd","system_id":"levelo_inurba_marseille","lat":43.31343,"lon":5.36735,"is_reserved":false,"is_disabled":false,"rental_uris":{"android":"levelo://app?vid=66e778a1-034a-4a7b-beae-707e8c5423bd","ios":"levelo://app?vid=66e778a1-034a-4a7b-beae-707e8c5423bd"},"vehicle_type_id":"4","last_reported":1744715292,"current_range_meters":16400,"station_id":"ce4bgr92rcd13ifvqc6g","pricing_plan_id":"cebpf4jnsgd1na2vs0mg"},{"bike_id":"7eacb872-0584-4b06-8fad-feb612d3799a","system_id":"levelo_inurba_marseille","lat":43.29707,"lon":5.38175,"is_reserved":false,"is_disabled":false,"rental_uris":{"android":"levelo://app?vid=7eacb872-0584-4b06-8fad-feb612d3799a","ios":"levelo://app?vid=7eacb872-0584-4b06-8fad-feb612d3799a"},"vehicle_type_id":"4","last_reported":1744715292,"current_range_meters":16400,"station_id":"","pricing_plan_id":"cebpf4jnsgd1na2vs0mg"},{"bike_id":"2caebf1c-7dd1-4d93-97aa-8cb87eccf6d4","system_id":"levelo_inurba_marseille","lat":43.31097,"lon":5.42416,"is_reserved":false,"is_disabled":false,"rental_uris":{"android":"levelo://app?vid=2caebf1c-7dd1-4d93-97aa-8cb87eccf6d4","ios":"levelo://app?vid=2caebf1c-7dd1-4d93-97aa-8cb87eccf6d4"},"vehicle_type_id":"4","last_reported":1744715292,"current_range_meters":16400,"station_id":"ce4bhp92rcd13ifvqhag","pricing_plan_id":"cebpf4jnsgd1na2vs0mg"},{"bike_id":"6a1f4c9e-c4c3-4093-9a2d-01612da8b1a4","system_id":"levelo_inurba_marseille","lat":43.29274,"lon":5.38464,"is_reserved":false,"is_disabled":false,"rental_uris":{"android":"levelo://app?vid=6a1f4c9e-c4c3-4093-9a2d-01612da8b1a4","ios":"levelo://app?vid=6a1f4c9e-c4c3-4093-9a2d-01612da8b1a4"},"vehicle_type_id":"4","last_reported":1744715292,"current_range_meters":16400,"station_id":"ce4bh692rcd13ifvqea0","pricing_plan_id":"cebpf4jnsgd1na2vs0mg"},{"bike_id":"de9caf82-45fb-421a-b48f-4dbf290a05d4","system_id":"levelo_inurba_marseille","lat":43.29602,"lon":5.3811,"is_reserved":false,"is_disabled":false,"rental_uris":{"android":"levelo://app?vid=de9caf82-45fb-421a-b48f-4dbf290a05d4","ios":"levelo://app?vid=de9caf82-45fb-421a-b48f-4dbf290a05d4"},"vehicle_type_id":"4","last_reported":1744715292,"current_range_meters":16800,"station_id":"ce4bgl12rcd13ifvqbo0","pricing_plan_id":"cebpf4jnsgd1na2vs0mg"},{"bike_id":"504cf016-be85-40ae-bd6e-21fe1e837c30","system_id":"levelo_inurba_marseille","lat":43.32483,"lon":5.36594,"is_reserved":false,"is_disabled":false,"rental_uris":{"android":"levelo://app?vid=504cf016-be85-40ae-bd6e-21fe1e837c30","ios":"levelo://app?vid=504cf016-be85-40ae-bd6e-21fe1e837c30"},"vehicle_type_id":"4","last_reported":1744715292,"current_range_meters":16800,"station_id":"ce4bhs12rcd13ifvqhvg","pricing_plan_id":"cebpf4jnsgd1na2vs0mg"},{"bike_id":"71abb3d6-8c1f-46fb-a5fe-1e3a8100a656","system_id":"levelo_inurba_marseille","lat":43.319922,"lon":5.381711,"is_reserved":false,"is_disabled":false,"rental_uris":{"android":"levelo://app?vid=71abb3d6-8c1f-46fb-a5fe-1e3a8100a656","ios":"levelo://app?vid=71abb3d6-8c1f-46fb-a5fe-1e3a8100a656"},"vehicle_type_id":"4","last_reported":1744715292,"current_range_meters":16800,"station_id":"","pricing_plan_id":"cebpf4jnsgd1na2vs0mg"},{"bike_id":"4aef0fa6-a0da-4fa2-9099-9fa1ba81c16a","system_id":"levelo_inurba_marseille","lat":43.281695,"lon":5.404349,"is_reserved":false,"is_disabled":false,"rental_uris":{"android":"levelo://app?vid=4aef0fa6-a0da-4fa2-9099-9fa1ba81c16a","ios":"levelo://app?vid=4aef0fa6-a0da-4fa2-9099-9fa1ba81c16a"},"vehicle_type_id":"4","last_reported":1744715292,"current_range_meters":16800,"station_id":"","pricing_plan_id":"cebpf4jnsgd1na2vs0mg"},{"bike_id":"1cf89ce8-a397-429f-8937-c4df001cd6b1","system_id":"levelo_inurba_marseille","lat":43.27062,"lon":5.40257,"is_reserved":false,"is_disabled":false,"rental_uris":{"android":"levelo://app?vid=1cf89ce8-a397-429f-8937-c4df001cd6b1","ios":"levelo://app?vid=1cf89ce8-a397-429f-8937-c4df001cd6b1"},"vehicle_type_id":"4","last_reported":1744715292,"current_range_meters":16800,"station_id":"ce4bhk92rcd13ifvqgc0","pricing_plan_id":"cebpf4jnsgd1na2vs0mg"},{"bike_id":"944bddab-9f41-4da7-80e2-b3e803e6b9a5","system_id":"levelo_inurba_marseille","lat":43.21203,"lon":5.35074,"is_reserved":false,"is_disabled":false,"rental_uris":{"android":"levelo://app?vid=944bddab-9f41-4da7-80e2-b3e803e6b9a5","ios":"levelo://app?vid=944bddab-9f41-4da7-80e2-b3e803e6b9a5"},"vehicle_type_id":"4","last_reported":1744715292,"current_range_meters":16800,"station_id":"st_cvj6sg6p6f1abm77japg","pricing_plan_id":"cebpf4jnsgd1na2vs0mg"},{"bike_id":"07d73689-f2f0-4edd-b03d-b93bd74f945d","system_id":"levelo_inurba_marseille","lat":43.2841,"lon":5.37508,"is_reserved":false,"is_disabled":false,"rental_uris":{"android":"levelo://app?vid=07d73689-f2f0-4edd-b03d-b93bd74f945d","ios":"levelo://app?vid=07d73689-f2f0-4edd-b03d-b93bd74f945d"},"vehicle_type_id":"4","last_reported":1744715292,"current_range_meters":17200,"station_id":"ce4bh412rcd13ifvqds0","pricing_plan_id":"cebpf4jnsgd1na2vs0mg"},{"bike_id":"8cbd2531-c5b2-48f4-8519-f32a3a880ece","system_id":"levelo_inurba_marseille","lat":43.30527,"lon":5.36529,"is_reserved":false,"is_disabled":false,"rental_uris":{"android":"levelo://app?vid=8cbd2531-c5b2-48f4-8519-f32a3a880ece","ios":"levelo://app?vid=8cbd2531-c5b2-48f4-8519-f32a3a880ece"},"vehicle_type_id":"4","last_reported":1744715292,"current_range_meters":17200,"station_id":"ce4bgs12rcd13ifvqcag","pricing_plan_id":"cebpf4jnsgd1na2vs0mg"},{"bike_id":"383d248a-d18c-4376-b0ab-fd793b53feca","system_id":"levelo_inurba_marseille","lat":43.31088,"lon":5.42431,"is_reserved":false,"is_disabled":false,"rental_uris":{"android":"levelo://app?vid=383d248a-d18c-4376-b0ab-fd793b53feca","ios":"levelo://app?vid=383d248a-d18c-4376-b0ab-fd793b53feca"},"vehicle_type_id":"4","last_reported":1744715292,"current_range_meters":16800,"station_id":"ce4bhp92rcd13ifvqhag","pricing_plan_id":"cebpf4jnsgd1na2vs0mg"},{"bike_id":"923654e4-ec6b-4931-bf80-e4b5d19e2922","system_id":"levelo_inurba_marseille","lat":43.29893,"lon":5.43662,"is_reserved":false,"is_disabled":false,"rental_uris":{"android":"levelo://app?vid=923654e4-ec6b-4931-bf80-e4b5d19e2922","ios":"levelo://app?vid=923654e4-ec6b-4931-bf80-e4b5d19e2922"},"vehicle_type_id":"4","last_reported":1744715292,"current_range_meters":17600,"station_id":"ce4bhpp2rcd13ifvqhfg","pricing_plan_id":"cebpf4jnsgd1na2vs0mg"},{"bike_id":"bef5819e-5c40-4709-9265-0772c7922be7","system_id":"levelo_inurba_marseille","lat":43.27813,"lon":5.40706,"is_reserved":false,"is_disabled":false,"rental_uris":{"android":"levelo://app?vid=bef5819e-5c40-4709-9265-0772c7922be7","ios":"levelo://app?vid=bef5819e-5c40-4709-9265-0772c7922be7"},"vehicle_type_id":"4","last_reported":1744715292,"current_range_meters":17600,"station_id":"ce4bhnh2rcd13ifvqgtg","pricing_plan_id":"cebpf4jnsgd1na2vs0mg"},{"bike_id":"a95f8bd6-8e77-4142-9ad0-0b5ae7242c3f","system_id":"levelo_inurba_marseille","lat":43.311249,"lon":5.377732,"is_reserved":false,"is_disabled":false,"rental_uris":{"android":"levelo://app?vid=a95f8bd6-8e77-4142-9ad0-0b5ae7242c3f","ios":"levelo://app?vid=a95f8bd6-8e77-4142-9ad0-0b5ae7242c3f"},"vehicle_type_id":"4","last_reported":1744715292,"current_range_meters":17600,"station_id":"ce4bgt92rcd13ifvqcg0","pricing_plan_id":"cebpf4jnsgd1na2vs0mg"},{"bike_id":"3d7fd21c-a712-4fa2-903c-f81195ba6cf6","system_id":"levelo_inurba_marseille","lat":43.29603,"lon":5.37705,"is_reserved":false,"is_disabled":false,"rental_uris":{"android":"levelo://app?vid=3d7fd21c-a712-4fa2-903c-f81195ba6cf6","ios":"levelo://app?vid=3d7fd21c-a712-4fa2-903c-f81195ba6cf6"},"vehicle_type_id":"4","last_reported":1744715292,"current_range_meters":17600,"station_id":"ce4bgi92rcd13ifvqb90","pricing_plan_id":"cebpf4jnsgd1na2vs0mg"},{"bike_id":"05664e36-336b-404a-b8de-2ca42d4238f0","system_id":"levelo_inurba_marseille","lat":43.25038,"lon":5.38129,"is_reserved":false,"is_disabled":false,"rental_uris":{"android":"levelo://app?vid=05664e36-336b-404a-b8de-2ca42d4238f0","ios":"levelo://app?vid=05664e36-336b-404a-b8de-2ca42d4238f0"},"vehicle_type_id":"4","last_reported":1744715292,"current_range_meters":17600,"station_id":"","pricing_plan_id":"cebpf4jnsgd1na2vs0mg"},{"bike_id":"da812239-6db1-4f43-97a6-d3178805ff50","system_id":"levelo_inurba_marseille","lat":43.26572,"lon":5.3901,"is_reserved":false,"is_disabled":false,"rental_uris":{"android":"levelo://app?vid=da812239-6db1-4f43-97a6-d3178805ff50","ios":"levelo://app?vid=da812239-6db1-4f43-97a6-d3178805ff50"},"vehicle_type_id":"4","last_reported":1744715292,"current_range_meters":18000,"station_id":"ce4bhe12rcd13ifvqf30","pricing_plan_id":"cebpf4jnsgd1na2vs0mg"},{"bike_id":"df48cf7d-f898-49eb-87ea-51f5181e82f8","system_id":"levelo_inurba_marseille","lat":43.29253,"lon":5.37626,"is_reserved":false,"is_disabled":false,"rental_uris":{"android":"levelo://app?vid=df48cf7d-f898-49eb-87ea-51f5181e82f8","ios":"levelo://app?vid=df48cf7d-f898-49eb-87ea-51f5181e82f8"},"vehicle_type_id":"4","last_reported":1744715292,"current_range_meters":18000,"station_id":"ce4bgi12rcd13ifvqb80","pricing_plan_id":"cebpf4jnsgd1na2vs0mg"},{"bike_id":"8beffab2-5e90-4c5b-9492-8306e859b2db","system_id":"levelo_inurba_marseille","lat":43.3123,"lon":5.36859,"is_reserved":false,"is_disabled":false,"rental_uris":{"android":"levelo://app?vid=8beffab2-5e90-4c5b-9492-8306e859b2db","ios":"levelo://app?vid=8beffab2-5e90-4c5b-9492-8306e859b2db"},"vehicle_type_id":"4","last_reported":1744715292,"current_range_meters":18800,"station_id":"ce4bgl92rcd13ifvqbq0","pricing_plan_id":"cebpf4jnsgd1na2vs0mg"},{"bike_id":"44be248b-85b6-4c95-aac4-5dd00edc7114","system_id":"levelo_inurba_marseille","lat":43.30537,"lon":5.36546,"is_reserved":false,"is_disabled":false,"rental_uris":{"android":"levelo://app?vid=44be248b-85b6-4c95-aac4-5dd00edc7114","ios":"levelo://app?vid=44be248b-85b6-4c95-aac4-5dd00edc7114"},"vehicle_type_id":"4","last_reported":1744715292,"current_range_meters":18800,"station_id":"ce4bgs12rcd13ifvqcag","pricing_plan_id":"cebpf4jnsgd1na2vs0mg"},{"bike_id":"8422d098-67fd-4320-85a5-2bb0acedff57","system_id":"levelo_inurba_marseille","lat":43.33787,"lon":5.37443,"is_reserved":false,"is_disabled":false,"rental_uris":{"android":"levelo://app?vid=8422d098-67fd-4320-85a5-2bb0acedff57","ios":"levelo://app?vid=8422d098-67fd-4320-85a5-2bb0acedff57"},"vehicle_type_id":"4","last_reported":1744715292,"current_range_meters":18800,"station_id":"","pricing_plan_id":"cebpf4jnsgd1na2vs0mg"},{"bike_id":"75da3773-350f-42a9-aa02-10de43356fcc","system_id":"levelo_inurba_marseille","lat":43.273193,"lon":5.390451,"is_reserved":false,"is_disabled":true,"rental_uris":{"android":"levelo://app?vid=75da3773-350f-42a9-aa02-10de43356fcc","ios":"levelo://app?vid=75da3773-350f-42a9-aa02-10de43356fcc"},"vehicle_type_id":"4","last_reported":1744715292,"current_range_meters":18800,"station_id":"ce4bhgp2rcd13ifvqfe0","pricing_plan_id":"cebpf4jnsgd1na2vs0mg"},{"bike_id":"fafcba9b-852e-4934-b156-846bc7a18f61","system_id":"levelo_inurba_marseille","lat":43.3093,"lon":5.40139,"is_reserved":false,"is_disabled":false,"rental_uris":{"android":"levelo://app?vid=fafcba9b-852e-4934-b156-846bc7a18f61","ios":"levelo://app?vid=fafcba9b-852e-4934-b156-846bc7a18f61"},"vehicle_type_id":"4","last_reported":1744715292,"current_range_meters":18000,"station_id":"ce4bgvp2rcd13ifvqct0","pricing_plan_id":"cebpf4jnsgd1na2vs0mg"},{"bike_id":"db06721d-1ee1-431c-a317-214c373163e8","system_id":"levelo_inurba_marseille","lat":43.31087,"lon":5.42432,"is_reserved":false,"is_disabled":false,"rental_uris":{"android":"levelo://app?vid=db06721d-1ee1-431c-a317-214c373163e8","ios":"levelo://app?vid=db06721d-1ee1-431c-a317-214c373163e8"},"vehicle_type_id":"4","last_reported":1744715292,"current_range_meters":18800,"station_id":"ce4bhp92rcd13ifvqhag","pricing_plan_id":"cebpf4jnsgd1na2vs0mg"},{"bike_id":"c49a4f83-675f-4244-a56b-2ab36d6a6f86","system_id":"levelo_inurba_marseille","lat":43.32484,"lon":5.36592,"is_reserved":false,"is_disabled":false,"rental_uris":{"android":"levelo://app?vid=c49a4f83-675f-4244-a56b-2ab36d6a6f86","ios":"levelo://app?vid=c49a4f83-675f-4244-a56b-2ab36d6a6f86"},"vehicle_type_id":"4","last_reported":1744715292,"current_range_meters":18800,"station_id":"ce4bhs12rcd13ifvqhvg","pricing_plan_id":"cebpf4jnsgd1na2vs0mg"},{"bike_id":"dbd744a9-e832-44c6-8dc4-337938852083","system_id":"levelo_inurba_marseille","lat":43.29966,"lon":5.38501,"is_reserved":false,"is_disabled":false,"rental_uris":{"android":"levelo://app?vid=dbd744a9-e832-44c6-8dc4-337938852083","ios":"levelo://app?vid=dbd744a9-e832-44c6-8dc4-337938852083"},"vehicle_type_id":"4","last_reported":1744715292,"current_range_meters":18800,"station_id":"ce4bgj92rcd13ifvqbd0","pricing_plan_id":"cebpf4jnsgd1na2vs0mg"},{"bike_id":"8fa7643c-d40c-4709-a04f-74cf404b01bb","system_id":"levelo_inurba_marseille","lat":43.30533,"lon":5.36721,"is_reserved":false,"is_disabled":false,"rental_uris":{"android":"levelo://app?vid=8fa7643c-d40c-4709-a04f-74cf404b01bb","ios":"levelo://app?vid=8fa7643c-d40c-4709-a04f-74cf404b01bb"},"vehicle_type_id":"4","last_reported":1744715292,"current_range_meters":18800,"station_id":"ce4bgrp2rcd13ifvqc9g","pricing_plan_id":"cebpf4jnsgd1na2vs0mg"},{"bike_id":"a0ddb0a5-f7f0-4281-aa27-9e82747cc573","system_id":"levelo_inurba_marseille","lat":43.33745,"lon":5.37524,"is_reserved":false,"is_disabled":false,"rental_uris":{"android":"levelo://app?vid=a0ddb0a5-f7f0-4281-aa27-9e82747cc573","ios":"levelo://app?vid=a0ddb0a5-f7f0-4281-aa27-9e82747cc573"},"vehicle_type_id":"4","last_reported":1744715292,"current_range_meters":18800,"station_id":"","pricing_plan_id":"cebpf4jnsgd1na2vs0mg"},{"bike_id":"cea45a10-7fa8-4445-9048-4d736865a8ea","system_id":"levelo_inurba_marseille","lat":43.292338,"lon":5.360738,"is_reserved":false,"is_disabled":false,"rental_uris":{"android":"levelo://app?vid=cea45a10-7fa8-4445-9048-4d736865a8ea","ios":"levelo://app?vid=cea45a10-7fa8-4445-9048-4d736865a8ea"},"vehicle_type_id":"4","last_reported":1744715292,"current_range_meters":18800,"station_id":"ce4bhq12rcd13ifvqhig","pricing_plan_id":"cebpf4jnsgd1na2vs0mg"},{"bike_id":"4d4d0d48-2b72-44fe-b3a8-f9dca5bf8536","system_id":"levelo_inurba_marseille","lat":43.26601,"lon":5.37355,"is_reserved":false,"is_disabled":false,"rental_uris":{"android":"levelo://app?vid=4d4d0d48-2b72-44fe-b3a8-f9dca5bf8536","ios":"levelo://app?vid=4d4d0d48-2b72-44fe-b3a8-f9dca5bf8536"},"vehicle_type_id":"4","last_reported":1744715292,"current_range_meters":19200,"station_id":"ce4bhg12rcd13ifvqf70","pricing_plan_id":"cebpf4jnsgd1na2vs0mg"},{"bike_id":"8eab135f-19c1-4bf8-aead-fc6872404fdf","system_id":"levelo_inurba_marseille","lat":43.3126,"lon":5.36846,"is_reserved":false,"is_disabled":false,"rental_uris":{"android":"levelo://app?vid=8eab135f-19c1-4bf8-aead-fc6872404fdf","ios":"levelo://app?vid=8eab135f-19c1-4bf8-aead-fc6872404fdf"},"vehicle_type_id":"4","last_reported":1744715292,"current_range_meters":19200,"station_id":"ce4bgl92rcd13ifvqbq0","pricing_plan_id":"cebpf4jnsgd1na2vs0mg"},{"bike_id":"db366f6a-4713-4b08-b623-90c23cfcb48f","system_id":"levelo_inurba_marseille","lat":43.28066,"lon":5.3964,"is_reserved":false,"is_disabled":false,"rental_uris":{"android":"levelo://app?vid=db366f6a-4713-4b08-b623-90c23cfcb48f","ios":"levelo://app?vid=db366f6a-4713-4b08-b623-90c23cfcb48f"},"vehicle_type_id":"4","last_reported":1744715292,"current_range_meters":18800,"station_id":"ce4bho12rcd13ifvqh2g","pricing_plan_id":"cebpf4jnsgd1na2vs0mg"},{"bike_id":"ea302315-b185-4216-9579-fbabb6fbb376","system_id":"levelo_inurba_marseille","lat":43.30154,"lon":5.3808,"is_reserved":false,"is_disabled":false,"rental_uris":{"android":"levelo://app?vid=ea302315-b185-4216-9579-fbabb6fbb376","ios":"levelo://app?vid=ea302315-b185-4216-9579-fbabb6fbb376"},"vehicle_type_id":"4","last_reported":1744715292,"current_range_meters":19200,"station_id":"ce4bgjp2rcd13ifvqbh0","pricing_plan_id":"cebpf4jnsgd1na2vs0mg"},{"bike_id":"48f85ce2-d135-4466-bd9c-0b828c7a8c79","system_id":"levelo_inurba_marseille","lat":43.28343,"lon":5.38664,"is_reserved":false,"is_disabled":false,"rental_uris":{"android":"levelo://app?vid=48f85ce2-d135-4466-bd9c-0b828c7a8c79","ios":"levelo://app?vid=48f85ce2-d135-4466-bd9c-0b828c7a8c79"},"vehicle_type_id":"4","last_reported":1744715292,"current_range_meters":19200,"station_id":"ce4bh492rcd13ifvqdvg","pricing_plan_id":"cebpf4jnsgd1na2vs0mg"},{"bike_id":"f28ab945-c9df-4b0b-be4c-c2ea61470e17","system_id":"levelo_inurba_marseille","lat":43.32521,"lon":5.36618,"is_reserved":false,"is_disabled":false,"rental_uris":{"android":"levelo://app?vid=f28ab945-c9df-4b0b-be4c-c2ea61470e17","ios":"levelo://app?vid=f28ab945-c9df-4b0b-be4c-c2ea61470e17"},"vehicle_type_id":"4","last_reported":1744715292,"current_range_meters":19200,"station_id":"ce4bhs12rcd13ifvqhvg","pricing_plan_id":"cebpf4jnsgd1na2vs0mg"},{"bike_id":"481a8b24-0e02-4432-ba0f-4509c2905305","system_id":"levelo_inurba_marseille","lat":43.28466,"lon":5.38426,"is_reserved":false,"is_disabled":false,"rental_uris":{"android":"levelo://app?vid=481a8b24-0e02-4432-ba0f-4509c2905305","ios":"levelo://app?vid=481a8b24-0e02-4432-ba0f-4509c2905305"},"vehicle_type_id":"4","last_reported":1744715292,"current_range_meters":18800,"station_id":"ce4bh512rcd13ifvqe3g","pricing_plan_id":"cebpf4jnsgd1na2vs0mg"},{"bike_id":"c9d4ce12-4cb2-4834-8f67-2abea7b9300b","system_id":"levelo_inurba_marseille","lat":43.29964,"lon":5.38498,"is_reserved":false,"is_disabled":false,"rental_uris":{"android":"levelo://app?vid=c9d4ce12-4cb2-4834-8f67-2abea7b9300b","ios":"levelo://app?vid=c9d4ce12-4cb2-4834-8f67-2abea7b9300b"},"vehicle_type_id":"4","last_reported":1744715292,"current_range_meters":19600,"station_id":"ce4bgj92rcd13ifvqbd0","pricing_plan_id":"cebpf4jnsgd1na2vs0mg"},{"bike_id":"6187c7f4-4b11-4056-b01f-f4298b305f48","system_id":"levelo_inurba_marseille","lat":43.27572,"lon":5.38417,"is_reserved":false,"is_disabled":false,"rental_uris":{"android":"levelo://app?vid=6187c7f4-4b11-4056-b01f-f4298b305f48","ios":"levelo://app?vid=6187c7f4-4b11-4056-b01f-f4298b305f48"},"vehicle_type_id":"4","last_reported":1744715292,"current_range_meters":19200,"station_id":"ce4bhh92rcd13ifvqfi0","pricing_plan_id":"cebpf4jnsgd1na2vs0mg"},{"bike_id":"062c2503-d2c3-4b41-adf5-93bfb44879b2","system_id":"levelo_inurba_marseille","lat":43.28467,"lon":5.38418,"is_reserved":false,"is_disabled":false,"rental_uris":{"android":"levelo://app?vid=062c2503-d2c3-4b41-adf5-93bfb44879b2","ios":"levelo://app?vid=062c2503-d2c3-4b41-adf5-93bfb44879b2"},"vehicle_type_id":"4","last_reported":1744715292,"current_range_meters":19600,"station_id":"ce4bh512rcd13ifvqe3g","pricing_plan_id":"cebpf4jnsgd1na2vs0mg"},{"bike_id":"a8ed8bfe-e018-4ae7-b755-72caf268e29f","system_id":"levelo_inurba_marseille","lat":43.30159,"lon":5.38098,"is_reserved":false,"is_disabled":true,"rental_uris":{"android":"levelo://app?vid=a8ed8bfe-e018-4ae7-b755-72caf268e29f","ios":"levelo://app?vid=a8ed8bfe-e018-4ae7-b755-72caf268e29f"},"vehicle_type_id":"4","last_reported":1744715292,"current_range_meters":19600,"station_id":"ce4bgjp2rcd13ifvqbh0","pricing_plan_id":"cebpf4jnsgd1na2vs0mg"},{"bike_id":"834ec9e1-9d50-4bee-85ae-d1db335c55e5","system_id":"levelo_inurba_marseille","lat":43.31805,"lon":5.36828,"is_reserved":false,"is_disabled":false,"rental_uris":{"android":"levelo://app?vid=834ec9e1-9d50-4bee-85ae-d1db335c55e5","ios":"levelo://app?vid=834ec9e1-9d50-4bee-85ae-d1db335c55e5"},"vehicle_type_id":"4","last_reported":1744715292,"current_range_meters":19600,"station_id":"","pricing_plan_id":"cebpf4jnsgd1na2vs0mg"},{"bike_id":"50efe87b-8f4b-4bbd-9040-5d3f42461b3b","system_id":"levelo_inurba_marseille","lat":43.29532,"lon":5.38548,"is_reserved":false,"is_disabled":false,"rental_uris":{"android":"levelo://app?vid=50efe87b-8f4b-4bbd-9040-5d3f42461b3b","ios":"levelo://app?vid=50efe87b-8f4b-4bbd-9040-5d3f42461b3b"},"vehicle_type_id":"4","last_reported":1744715292,"current_range_meters":19600,"station_id":"ce4bgih2rcd13ifvqba0","pricing_plan_id":"cebpf4jnsgd1na2vs0mg"},{"bike_id":"22914c25-9780-48f5-8428-861b995ba68f","system_id":"levelo_inurba_marseille","lat":43.21199,"lon":5.35068,"is_reserved":false,"is_disabled":false,"rental_uris":{"android":"levelo://app?vid=22914c25-9780-48f5-8428-861b995ba68f","ios":"levelo://app?vid=22914c25-9780-48f5-8428-861b995ba68f"},"vehicle_type_id":"4","last_reported":1744715292,"current_range_meters":19600,"station_id":"st_cvj6sg6p6f1abm77japg","pricing_plan_id":"cebpf4jnsgd1na2vs0mg"},{"bike_id":"729f3ced-436b-45fb-817c-5716c04c6116","system_id":"levelo_inurba_marseille","lat":43.30905,"lon":5.36843,"is_reserved":false,"is_disabled":false,"rental_uris":{"android":"levelo://app?vid=729f3ced-436b-45fb-817c-5716c04c6116","ios":"levelo://app?vid=729f3ced-436b-45fb-817c-5716c04c6116"},"vehicle_type_id":"4","last_reported":1744715292,"current_range_meters":20000,"station_id":"ce4bgn92rcd13ifvqbvg","pricing_plan_id":"cebpf4jnsgd1na2vs0mg"},{"bike_id":"f06c4394-df29-478f-b606-e38b32292526","system_id":"levelo_inurba_marseille","lat":43.266785,"lon":5.382686,"is_reserved":false,"is_disabled":true,"rental_uris":{"android":"levelo://app?vid=f06c4394-df29-478f-b606-e38b32292526","ios":"levelo://app?vid=f06c4394-df29-478f-b606-e38b32292526"},"vehicle_type_id":"4","last_reported":1744715292,"current_range_meters":20000,"station_id":"ce4bhg92rcd13ifvqf90","pricing_plan_id":"cebpf4jnsgd1na2vs0mg"},{"bike_id":"810942cf-4e8e-49c5-a9b0-1039f0bcecc3","system_id":"levelo_inurba_marseille","lat":43.30559,"lon":5.36539,"is_reserved":false,"is_disabled":false,"rental_uris":{"android":"levelo://app?vid=810942cf-4e8e-49c5-a9b0-1039f0bcecc3","ios":"levelo://app?vid=810942cf-4e8e-49c5-a9b0-1039f0bcecc3"},"vehicle_type_id":"4","last_reported":1744715292,"current_range_meters":20000,"station_id":"ce4bgs12rcd13ifvqcag","pricing_plan_id":"cebpf4jnsgd1na2vs0mg"},{"bike_id":"cc3f3667-2607-4b5d-8bf5-eedf50add55e","system_id":"levelo_inurba_marseille","lat":43.2176,"lon":5.34608,"is_reserved":false,"is_disabled":false,"rental_uris":{"android":"levelo://app?vid=cc3f3667-2607-4b5d-8bf5-eedf50add55e","ios":"levelo://app?vid=cc3f3667-2607-4b5d-8bf5-eedf50add55e"},"vehicle_type_id":"4","last_reported":1744715292,"current_range_meters":20000,"station_id":"st_cvj6r9ubvosntc0bgbag","pricing_plan_id":"cebpf4jnsgd1na2vs0mg"},{"bike_id":"5458347c-3da3-4f6d-86d7-3f09725dacbb","system_id":"levelo_inurba_marseille","lat":43.299818,"lon":5.371809,"is_reserved":false,"is_disabled":false,"rental_uris":{"android":"levelo://app?vid=5458347c-3da3-4f6d-86d7-3f09725dacbb","ios":"levelo://app?vid=5458347c-3da3-4f6d-86d7-3f09725dacbb"},"vehicle_type_id":"4","last_reported":1744715292,"current_range_meters":20000,"station_id":"ce4bgr92rcd13ifvqc7g","pricing_plan_id":"cebpf4jnsgd1na2vs0mg"},{"bike_id":"846062da-9234-4287-9da7-b9e2f0d486c7","system_id":"levelo_inurba_marseille","lat":43.30561,"lon":5.36535,"is_reserved":false,"is_disabled":false,"rental_uris":{"android":"levelo://app?vid=846062da-9234-4287-9da7-b9e2f0d486c7","ios":"levelo://app?vid=846062da-9234-4287-9da7-b9e2f0d486c7"},"vehicle_type_id":"4","last_reported":1744715292,"current_range_meters":20000,"station_id":"ce4bgs12rcd13ifvqcag","pricing_plan_id":"cebpf4jnsgd1na2vs0mg"},{"bike_id":"cbe8ba3f-31f4-43a1-9523-88fb0e3ca28f","system_id":"levelo_inurba_marseille","lat":43.23151,"lon":5.43705,"is_reserved":false,"is_disabled":false,"rental_uris":{"android":"levelo://app?vid=cbe8ba3f-31f4-43a1-9523-88fb0e3ca28f","ios":"levelo://app?vid=cbe8ba3f-31f4-43a1-9523-88fb0e3ca28f"},"vehicle_type_id":"4","last_reported":1744715292,"current_range_meters":20000,"station_id":"ce4bhmp2rcd13ifvqgog","pricing_plan_id":"cebpf4jnsgd1na2vs0mg"},{"bike_id":"b21bc4e8-00ce-40c9-8592-bef4940f456b","system_id":"levelo_inurba_marseille","lat":43.29359,"lon":5.37845,"is_reserved":false,"is_disabled":false,"rental_uris":{"android":"levelo://app?vid=b21bc4e8-00ce-40c9-8592-bef4940f456b","ios":"levelo://app?vid=b21bc4e8-00ce-40c9-8592-bef4940f456b"},"vehicle_type_id":"4","last_reported":1744715292,"current_range_meters":20000,"station_id":"ce4bgjh2rcd13ifvqbf0","pricing_plan_id":"cebpf4jnsgd1na2vs0mg"},{"bike_id":"fa8b5d88-c56b-4501-99c1-1b5a6dfd1f66","system_id":"levelo_inurba_marseille","lat":43.21223,"lon":5.35061,"is_reserved":false,"is_disabled":false,"rental_uris":{"android":"levelo://app?vid=fa8b5d88-c56b-4501-99c1-1b5a6dfd1f66","ios":"levelo://app?vid=fa8b5d88-c56b-4501-99c1-1b5a6dfd1f66"},"vehicle_type_id":"4","last_reported":1744715292,"current_range_meters":20000,"station_id":"st_cvj6sg6p6f1abm77japg","pricing_plan_id":"cebpf4jnsgd1na2vs0mg"},{"bike_id":"6bf5a380-400e-4cd6-bc1e-356afac9ee45","system_id":"levelo_inurba_marseille","lat":43.24174,"lon":5.36393,"is_reserved":false,"is_disabled":false,"rental_uris":{"android":"levelo://app?vid=6bf5a380-400e-4cd6-bc1e-356afac9ee45","ios":"levelo://app?vid=6bf5a380-400e-4cd6-bc1e-356afac9ee45"},"vehicle_type_id":"4","last_reported":1744715292,"current_range_meters":20400,"station_id":"cpo36qri1sfpv3e86is0","pricing_plan_id":"cebpf4jnsgd1na2vs0mg"},{"bike_id":"aad7815f-948b-44ab-a2d7-4c843cca007f","system_id":"levelo_inurba_marseille","lat":43.229278,"lon":5.353801,"is_reserved":false,"is_disabled":false,"rental_uris":{"android":"levelo://app?vid=aad7815f-948b-44ab-a2d7-4c843cca007f","ios":"levelo://app?vid=aad7815f-948b-44ab-a2d7-4c843cca007f"},"vehicle_type_id":"4","last_reported":1744715292,"current_range_meters":20400,"station_id":"cpo3532slgdg3j2ikp40","pricing_plan_id":"cebpf4jnsgd1na2vs0mg"},{"bike_id":"7ad0bf0f-5294-442b-8825-791f1416a999","system_id":"levelo_inurba_marseille","lat":43.24173,"lon":5.3974,"is_reserved":false,"is_disabled":false,"rental_uris":{"android":"levelo://app?vid=7ad0bf0f-5294-442b-8825-791f1416a999","ios":"levelo://app?vid=7ad0bf0f-5294-442b-8825-791f1416a999"},"vehicle_type_id":"4","last_reported":1744715292,"current_range_meters":20400,"station_id":"ce4bhn12rcd13ifvqgpg","pricing_plan_id":"cebpf4jnsgd1na2vs0mg"},{"bike_id":"4c0ede51-6b22-44f8-8575-b86906a20779","system_id":"levelo_inurba_marseille","lat":43.21776,"lon":5.34588,"is_reserved":false,"is_disabled":false,"rental_uris":{"android":"levelo://app?vid=4c0ede51-6b22-44f8-8575-b86906a20779","ios":"levelo://app?vid=4c0ede51-6b22-44f8-8575-b86906a20779"},"vehicle_type_id":"4","last_reported":1744715292,"current_range_meters":20800,"station_id":"st_cvj6r9ubvosntc0bgbag","pricing_plan_id":"cebpf4jnsgd1na2vs0mg"},{"bike_id":"99466e4a-5098-45b2-9de5-b2e12687e6b1","system_id":"levelo_inurba_marseille","lat":43.28614,"lon":5.3706,"is_reserved":false,"is_disabled":false,"rental_uris":{"android":"levelo://app?vid=99466e4a-5098-45b2-9de5-b2e12687e6b1","ios":"levelo://app?vid=99466e4a-5098-45b2-9de5-b2e12687e6b1"},"vehicle_type_id":"4","last_reported":1744715292,"current_range_meters":20800,"station_id":"ce4bht12rcd13ifvqi60","pricing_plan_id":"cebpf4jnsgd1na2vs0mg"},{"bike_id":"33f80e18-d024-473f-ad3d-36fe4c6cb4b9","system_id":"levelo_inurba_marseille","lat":43.24651,"lon":5.38894,"is_reserved":false,"is_disabled":false,"rental_uris":{"android":"levelo://app?vid=33f80e18-d024-473f-ad3d-36fe4c6cb4b9","ios":"levelo://app?vid=33f80e18-d024-473f-ad3d-36fe4c6cb4b9"},"vehicle_type_id":"4","last_reported":1744715292,"current_range_meters":20800,"station_id":"ce4bhg12rcd13ifvqf60","pricing_plan_id":"cebpf4jnsgd1na2vs0mg"},{"bike_id":"27bbcba1-b9f3-4ed3-b67a-8b6a06b74ff1","system_id":"levelo_inurba_marseille","lat":43.31176,"lon":5.38721,"is_reserved":false,"is_disabled":false,"rental_uris":{"android":"levelo://app?vid=27bbcba1-b9f3-4ed3-b67a-8b6a06b74ff1","ios":"levelo://app?vid=27bbcba1-b9f3-4ed3-b67a-8b6a06b74ff1"},"vehicle_type_id":"4","last_reported":1744715292,"current_range_meters":21600,"station_id":"ce4bgv12rcd13ifvqcp0","pricing_plan_id":"cebpf4jnsgd1na2vs0mg"},{"bike_id":"ed97a721-7aee-47b1-b49b-a65ade99fd09","system_id":"levelo_inurba_marseille","lat":43.34343,"lon":5.37797,"is_reserved":false,"is_disabled":false,"rental_uris":{"android":"levelo://app?vid=ed97a721-7aee-47b1-b49b-a65ade99fd09","ios":"levelo://app?vid=ed97a721-7aee-47b1-b49b-a65ade99fd09"},"vehicle_type_id":"4","last_reported":1744715292,"current_range_meters":21600,"station_id":"","pricing_plan_id":"cebpf4jnsgd1na2vs0mg"},{"bike_id":"7dd5be5d-77b7-4b8d-950c-57ce96b09d37","system_id":"levelo_inurba_marseille","lat":43.29207,"lon":5.39322,"is_reserved":false,"is_disabled":true,"rental_uris":{"android":"levelo://app?vid=7dd5be5d-77b7-4b8d-950c-57ce96b09d37","ios":"levelo://app?vid=7dd5be5d-77b7-4b8d-950c-57ce96b09d37"},"vehicle_type_id":"4","last_reported":1744715292,"current_range_meters":21600,"station_id":"ce4bh192rcd13ifvqdd0","pricing_plan_id":"cebpf4jnsgd1na2vs0mg"},{"bike_id":"75aeda06-bbc2-4b16-85f7-54753a374ed6","system_id":"levelo_inurba_marseille","lat":43.23626,"lon":5.40347,"is_reserved":false,"is_disabled":false,"rental_uris":{"android":"levelo://app?vid=75aeda06-bbc2-4b16-85f7-54753a374ed6","ios":"levelo://app?vid=75aeda06-bbc2-4b16-85f7-54753a374ed6"},"vehicle_type_id":"4","last_reported":1744715292,"current_range_meters":21600,"station_id":"","pricing_plan_id":"cebpf4jnsgd1na2vs0mg"},{"bike_id":"b082caf9-1aa9-41e8-8081-4da72e64e8e4","system_id":"levelo_inurba_marseille","lat":43.30922,"lon":5.40138,"is_reserved":false,"is_disabled":true,"rental_uris":{"android":"levelo://app?vid=b082caf9-1aa9-41e8-8081-4da72e64e8e4","ios":"levelo://app?vid=b082caf9-1aa9-41e8-8081-4da72e64e8e4"},"vehicle_type_id":"4","last_reported":1744715292,"current_range_meters":21600,"station_id":"ce4bgvp2rcd13ifvqct0","pricing_plan_id":"cebpf4jnsgd1na2vs0mg"},{"bike_id":"3e0f16c4-cddd-4019-a5fc-51a8b9e895ab","system_id":"levelo_inurba_marseille","lat":43.29362,"lon":5.3784,"is_reserved":false,"is_disabled":false,"rental_uris":{"android":"levelo://app?vid=3e0f16c4-cddd-4019-a5fc-51a8b9e895ab","ios":"levelo://app?vid=3e0f16c4-cddd-4019-a5fc-51a8b9e895ab"},"vehicle_type_id":"4","last_reported":1744715292,"current_range_meters":21600,"station_id":"ce4bgjh2rcd13ifvqbf0","pricing_plan_id":"cebpf4jnsgd1na2vs0mg"},{"bike_id":"1883ad69-4b3b-4283-b927-fd173503e4a1","system_id":"levelo_inurba_marseille","lat":43.301439,"lon":5.374159,"is_reserved":false,"is_disabled":false,"rental_uris":{"android":"levelo://app?vid=1883ad69-4b3b-4283-b927-fd173503e4a1","ios":"levelo://app?vid=1883ad69-4b3b-4283-b927-fd173503e4a1"},"vehicle_type_id":"4","last_reported":1744715292,"current_range_meters":22000,"station_id":"ce4bgs92rcd13ifvqcc0","pricing_plan_id":"cebpf4jnsgd1na2vs0mg"},{"bike_id":"6c103f9f-c959-46ad-a2e8-e44f9660c68e","system_id":"levelo_inurba_marseille","lat":43.21187,"lon":5.35074,"is_reserved":false,"is_disabled":false,"rental_uris":{"android":"levelo://app?vid=6c103f9f-c959-46ad-a2e8-e44f9660c68e","ios":"levelo://app?vid=6c103f9f-c959-46ad-a2e8-e44f9660c68e"},"vehicle_type_id":"4","last_reported":1744715292,"current_range_meters":22000,"station_id":"st_cvj6sg6p6f1abm77japg","pricing_plan_id":"cebpf4jnsgd1na2vs0mg"},{"bike_id":"174c2c9b-2f0a-47fb-998b-9f7260f2f135","system_id":"levelo_inurba_marseille","lat":43.3073,"lon":5.42443,"is_reserved":false,"is_disabled":false,"rental_uris":{"android":"levelo://app?vid=174c2c9b-2f0a-47fb-998b-9f7260f2f135","ios":"levelo://app?vid=174c2c9b-2f0a-47fb-998b-9f7260f2f135"},"vehicle_type_id":"4","last_reported":1744715292,"current_range_meters":22000,"station_id":"st_cvj6ca6bvosntc0bfgr0","pricing_plan_id":"cebpf4jnsgd1na2vs0mg"},{"bike_id":"60ec4175-4537-435a-95f9-8e40681109c0","system_id":"levelo_inurba_marseille","lat":43.31348,"lon":5.36748,"is_reserved":false,"is_disabled":false,"rental_uris":{"android":"levelo://app?vid=60ec4175-4537-435a-95f9-8e40681109c0","ios":"levelo://app?vid=60ec4175-4537-435a-95f9-8e40681109c0"},"vehicle_type_id":"4","last_reported":1744715292,"current_range_meters":22000,"station_id":"ce4bgr92rcd13ifvqc6g","pricing_plan_id":"cebpf4jnsgd1na2vs0mg"},{"bike_id":"b4b20d18-0752-4379-ab07-ba6aaec05f66","system_id":"levelo_inurba_marseille","lat":43.279997,"lon":5.40015,"is_reserved":false,"is_disabled":false,"rental_uris":{"android":"levelo://app?vid=b4b20d18-0752-4379-ab07-ba6aaec05f66","ios":"levelo://app?vid=b4b20d18-0752-4379-ab07-ba6aaec05f66"},"vehicle_type_id":"4","last_reported":1744715292,"current_range_meters":22000,"station_id":"ce4bho92rcd13ifvqh4g","pricing_plan_id":"cebpf4jnsgd1na2vs0mg"},{"bike_id":"51dcafe7-6d76-4cfb-b8e0-6acfc8f1f9b6","system_id":"levelo_inurba_marseille","lat":43.30542,"lon":5.36534,"is_reserved":false,"is_disabled":false,"rental_uris":{"android":"levelo://app?vid=51dcafe7-6d76-4cfb-b8e0-6acfc8f1f9b6","ios":"levelo://app?vid=51dcafe7-6d76-4cfb-b8e0-6acfc8f1f9b6"},"vehicle_type_id":"4","last_reported":1744715292,"current_range_meters":22400,"station_id":"ce4bgs12rcd13ifvqcag","pricing_plan_id":"cebpf4jnsgd1na2vs0mg"},{"bike_id":"b328fc3c-4688-452e-bcb5-40b52ba89095","system_id":"levelo_inurba_marseille","lat":43.32107,"lon":5.36771,"is_reserved":false,"is_disabled":false,"rental_uris":{"android":"levelo://app?vid=b328fc3c-4688-452e-bcb5-40b52ba89095","ios":"levelo://app?vid=b328fc3c-4688-452e-bcb5-40b52ba89095"},"vehicle_type_id":"4","last_reported":1744715292,"current_range_meters":22400,"station_id":"ce4bhrh2rcd13ifvqhug","pricing_plan_id":"cebpf4jnsgd1na2vs0mg"},{"bike_id":"68fa0d46-7071-4f65-8360-b33f91ad677c","system_id":"levelo_inurba_marseille","lat":43.29543,"lon":5.42276,"is_reserved":false,"is_disabled":false,"rental_uris":{"android":"levelo://app?vid=68fa0d46-7071-4f65-8360-b33f91ad677c","ios":"levelo://app?vid=68fa0d46-7071-4f65-8360-b33f91ad677c"},"vehicle_type_id":"4","last_reported":1744715292,"current_range_meters":22400,"station_id":"ce4bhph2rcd13ifvqhdg","pricing_plan_id":"cebpf4jnsgd1na2vs0mg"},{"bike_id":"310292d5-bdeb-40f7-a94f-9d2b542d5222","system_id":"levelo_inurba_marseille","lat":43.24154,"lon":5.36411,"is_reserved":false,"is_disabled":false,"rental_uris":{"android":"levelo://app?vid=310292d5-bdeb-40f7-a94f-9d2b542d5222","ios":"levelo://app?vid=310292d5-bdeb-40f7-a94f-9d2b542d5222"},"vehicle_type_id":"4","last_reported":1744715292,"current_range_meters":22400,"station_id":"cpo36qri1sfpv3e86is0","pricing_plan_id":"cebpf4jnsgd1na2vs0mg"},{"bike_id":"4d331a86-a3cb-4d7d-a2e2-e0d35e11dfb8","system_id":"levelo_inurba_marseille","lat":43.312304,"lon":5.368557,"is_reserved":false,"is_disabled":false,"rental_uris":{"android":"levelo://app?vid=4d331a86-a3cb-4d7d-a2e2-e0d35e11dfb8","ios":"levelo://app?vid=4d331a86-a3cb-4d7d-a2e2-e0d35e11dfb8"},"vehicle_type_id":"4","last_reported":1744715292,"current_range_meters":22400,"station_id":"ce4bgl92rcd13ifvqbq0","pricing_plan_id":"cebpf4jnsgd1na2vs0mg"},{"bike_id":"44437ded-11c8-48c3-89d7-4d46f0120315","system_id":"levelo_inurba_marseille","lat":43.30297,"lon":5.39212,"is_reserved":false,"is_disabled":false,"rental_uris":{"android":"levelo://app?vid=44437ded-11c8-48c3-89d7-4d46f0120315","ios":"levelo://app?vid=44437ded-11c8-48c3-89d7-4d46f0120315"},"vehicle_type_id":"4","last_reported":1744715292,"current_range_meters":22400,"station_id":"ce4bgkh2rcd13ifvqbk0","pricing_plan_id":"cebpf4jnsgd1na2vs0mg"},{"bike_id":"f9fcf3e3-a171-4ffd-b2b8-dd230a51f6ba","system_id":"levelo_inurba_marseille","lat":43.30137,"lon":5.37415,"is_reserved":false,"is_disabled":false,"rental_uris":{"android":"levelo://app?vid=f9fcf3e3-a171-4ffd-b2b8-dd230a51f6ba","ios":"levelo://app?vid=f9fcf3e3-a171-4ffd-b2b8-dd230a51f6ba"},"vehicle_type_id":"4","last_reported":1744715292,"current_range_meters":22400,"station_id":"ce4bgs92rcd13ifvqcc0","pricing_plan_id":"cebpf4jnsgd1na2vs0mg"},{"bike_id":"c65ff487-ceb6-4782-b6cc-97c82691a316","system_id":"levelo_inurba_marseille","lat":43.30145,"lon":5.38067,"is_reserved":false,"is_disabled":false,"rental_uris":{"android":"levelo://app?vid=c65ff487-ceb6-4782-b6cc-97c82691a316","ios":"levelo://app?vid=c65ff487-ceb6-4782-b6cc-97c82691a316"},"vehicle_type_id":"4","last_reported":1744715292,"current_range_meters":22400,"station_id":"ce4bgjp2rcd13ifvqbh0","pricing_plan_id":"cebpf4jnsgd1na2vs0mg"},{"bike_id":"b5e7c49b-e7ce-4b05-acd9-3dd040e71334","system_id":"levelo_inurba_marseille","lat":43.2959,"lon":5.38097,"is_reserved":false,"is_disabled":false,"rental_uris":{"android":"levelo://app?vid=b5e7c49b-e7ce-4b05-acd9-3dd040e71334","ios":"levelo://app?vid=b5e7c49b-e7ce-4b05-acd9-3dd040e71334"},"vehicle_type_id":"4","last_reported":1744715292,"current_range_meters":22400,"station_id":"ce4bgl12rcd13ifvqbo0","pricing_plan_id":"cebpf4jnsgd1na2vs0mg"},{"bike_id":"d6fee597-3293-47ae-914e-c48760e9f772","system_id":"levelo_inurba_marseille","lat":43.24058,"lon":5.3777,"is_reserved":false,"is_disabled":false,"rental_uris":{"android":"levelo://app?vid=d6fee597-3293-47ae-914e-c48760e9f772","ios":"levelo://app?vid=d6fee597-3293-47ae-914e-c48760e9f772"},"vehicle_type_id":"4","last_reported":1744715292,"current_range_meters":22400,"station_id":"ce4bhnp2rcd13ifvqgvg","pricing_plan_id":"cebpf4jnsgd1na2vs0mg"},{"bike_id":"a44c2a83-f7cc-4188-b9c3-535bb880b90c","system_id":"levelo_inurba_marseille","lat":43.25914,"lon":5.40933,"is_reserved":false,"is_disabled":false,"rental_uris":{"android":"levelo://app?vid=a44c2a83-f7cc-4188-b9c3-535bb880b90c","ios":"levelo://app?vid=a44c2a83-f7cc-4188-b9c3-535bb880b90c"},"vehicle_type_id":"4","last_reported":1744715292,"current_range_meters":22800,"station_id":"ce4bhm92rcd13ifvqglg","pricing_plan_id":"cebpf4jnsgd1na2vs0mg"},{"bike_id":"b9b4a35a-ec0d-4cbd-8470-0c48f2eacab7","system_id":"levelo_inurba_marseille","lat":43.28357,"lon":5.38618,"is_reserved":false,"is_disabled":false,"rental_uris":{"android":"levelo://app?vid=b9b4a35a-ec0d-4cbd-8470-0c48f2eacab7","ios":"levelo://app?vid=b9b4a35a-ec0d-4cbd-8470-0c48f2eacab7"},"vehicle_type_id":"4","last_reported":1744715292,"current_range_meters":22400,"station_id":"ce4bh492rcd13ifvqdvg","pricing_plan_id":"cebpf4jnsgd1na2vs0mg"},{"bike_id":"b31b145a-937c-4a02-9448-757bf8403d6c","system_id":"levelo_inurba_marseille","lat":43.26558,"lon":5.37288,"is_reserved":false,"is_disabled":false,"rental_uris":{"android":"levelo://app?vid=b31b145a-937c-4a02-9448-757bf8403d6c","ios":"levelo://app?vid=b31b145a-937c-4a02-9448-757bf8403d6c"},"vehicle_type_id":"4","last_reported":1744715292,"current_range_meters":22800,"station_id":"ce4bhg12rcd13ifvqf70","pricing_plan_id":"cebpf4jnsgd1na2vs0mg"},{"bike_id":"5edb970d-3723-4d40-8f50-96e5f8fcd67b","system_id":"levelo_inurba_marseille","lat":43.29424,"lon":5.38646,"is_reserved":false,"is_disabled":false,"rental_uris":{"android":"levelo://app?vid=5edb970d-3723-4d40-8f50-96e5f8fcd67b","ios":"levelo://app?vid=5edb970d-3723-4d40-8f50-96e5f8fcd67b"},"vehicle_type_id":"4","last_reported":1744715292,"current_range_meters":22800,"station_id":"ce4bh2h2rcd13ifvqdh0","pricing_plan_id":"cebpf4jnsgd1na2vs0mg"},{"bike_id":"013b056d-37d2-4c25-8694-42a07a5a1b64","system_id":"levelo_inurba_marseille","lat":43.30902,"lon":5.36839,"is_reserved":false,"is_disabled":false,"rental_uris":{"android":"levelo://app?vid=013b056d-37d2-4c25-8694-42a07a5a1b64","ios":"levelo://app?vid=013b056d-37d2-4c25-8694-42a07a5a1b64"},"vehicle_type_id":"4","last_reported":1744715292,"current_range_meters":22800,"station_id":"ce4bgn92rcd13ifvqbvg","pricing_plan_id":"cebpf4jnsgd1na2vs0mg"},{"bike_id":"e4e18934-d615-46f4-92d4-ea2d40f5e00e","system_id":"levelo_inurba_marseille","lat":43.30262,"lon":5.4008,"is_reserved":false,"is_disabled":false,"rental_uris":{"android":"levelo://app?vid=e4e18934-d615-46f4-92d4-ea2d40f5e00e","ios":"levelo://app?vid=e4e18934-d615-46f4-92d4-ea2d40f5e00e"},"vehicle_type_id":"4","last_reported":1744715292,"current_range_meters":22400,"station_id":"ce4bgvh2rcd13ifvqcs0","pricing_plan_id":"cebpf4jnsgd1na2vs0mg"},{"bike_id":"c2d444b5-2205-4b26-8106-50ad97c6f270","system_id":"levelo_inurba_marseille","lat":43.30572,"lon":5.36532,"is_reserved":false,"is_disabled":false,"rental_uris":{"android":"levelo://app?vid=c2d444b5-2205-4b26-8106-50ad97c6f270","ios":"levelo://app?vid=c2d444b5-2205-4b26-8106-50ad97c6f270"},"vehicle_type_id":"4","last_reported":1744715292,"current_range_meters":23200,"station_id":"ce4bgs12rcd13ifvqcag","pricing_plan_id":"cebpf4jnsgd1na2vs0mg"},{"bike_id":"0cf6eb72-9668-456e-aec4-be91b4976fc6","system_id":"levelo_inurba_marseille","lat":43.30156,"lon":5.38084,"is_reserved":false,"is_disabled":false,"rental_uris":{"android":"levelo://app?vid=0cf6eb72-9668-456e-aec4-be91b4976fc6","ios":"levelo://app?vid=0cf6eb72-9668-456e-aec4-be91b4976fc6"},"vehicle_type_id":"4","last_reported":1744715292,"current_range_meters":23200,"station_id":"ce4bgjp2rcd13ifvqbh0","pricing_plan_id":"cebpf4jnsgd1na2vs0mg"},{"bike_id":"7930dc05-80f2-47cc-8343-e8c873c1cecd","system_id":"levelo_inurba_marseille","lat":43.29371,"lon":5.37866,"is_reserved":false,"is_disabled":false,"rental_uris":{"android":"levelo://app?vid=7930dc05-80f2-47cc-8343-e8c873c1cecd","ios":"levelo://app?vid=7930dc05-80f2-47cc-8343-e8c873c1cecd"},"vehicle_type_id":"4","last_reported":1744715292,"current_range_meters":22800,"station_id":"ce4bgjh2rcd13ifvqbf0","pricing_plan_id":"cebpf4jnsgd1na2vs0mg"},{"bike_id":"8e548073-2a3e-4576-99f3-c56e05e538bf","system_id":"levelo_inurba_marseille","lat":43.2931,"lon":5.37445,"is_reserved":false,"is_disabled":false,"rental_uris":{"android":"levelo://app?vid=8e548073-2a3e-4576-99f3-c56e05e538bf","ios":"levelo://app?vid=8e548073-2a3e-4576-99f3-c56e05e538bf"},"vehicle_type_id":"4","last_reported":1744715292,"current_range_meters":23200,"station_id":"ce4bgi12rcd13ifvqb70","pricing_plan_id":"cebpf4jnsgd1na2vs0mg"},{"bike_id":"3a4a0875-e02d-4f48-a733-27865bf39a17","system_id":"levelo_inurba_marseille","lat":43.29542,"lon":5.42253,"is_reserved":false,"is_disabled":false,"rental_uris":{"android":"levelo://app?vid=3a4a0875-e02d-4f48-a733-27865bf39a17","ios":"levelo://app?vid=3a4a0875-e02d-4f48-a733-27865bf39a17"},"vehicle_type_id":"4","last_reported":1744715292,"current_range_meters":22800,"station_id":"ce4bhph2rcd13ifvqhdg","pricing_plan_id":"cebpf4jnsgd1na2vs0mg"},{"bike_id":"e9df920b-7148-4d03-ac02-b9ea236db6b7","system_id":"levelo_inurba_marseille","lat":43.26491,"lon":5.39544,"is_reserved":false,"is_disabled":false,"rental_uris":{"android":"levelo://app?vid=e9df920b-7148-4d03-ac02-b9ea236db6b7","ios":"levelo://app?vid=e9df920b-7148-4d03-ac02-b9ea236db6b7"},"vehicle_type_id":"4","last_reported":1744715292,"current_range_meters":23200,"station_id":"ce4bhi12rcd13ifvqfq0","pricing_plan_id":"cebpf4jnsgd1na2vs0mg"},{"bike_id":"f85ddc3c-5ccd-4232-bf64-6e945cd829a3","system_id":"levelo_inurba_marseille","lat":43.24177,"lon":5.39716,"is_reserved":false,"is_disabled":false,"rental_uris":{"android":"levelo://app?vid=f85ddc3c-5ccd-4232-bf64-6e945cd829a3","ios":"levelo://app?vid=f85ddc3c-5ccd-4232-bf64-6e945cd829a3"},"vehicle_type_id":"4","last_reported":1744715292,"current_range_meters":23200,"station_id":"ce4bhn12rcd13ifvqgpg","pricing_plan_id":"cebpf4jnsgd1na2vs0mg"},{"bike_id":"60c3a2d4-6536-4b02-a68b-a2e439906952","system_id":"levelo_inurba_marseille","lat":43.30533,"lon":5.36532,"is_reserved":false,"is_disabled":false,"rental_uris":{"android":"levelo://app?vid=60c3a2d4-6536-4b02-a68b-a2e439906952","ios":"levelo://app?vid=60c3a2d4-6536-4b02-a68b-a2e439906952"},"vehicle_type_id":"4","last_reported":1744715292,"current_range_meters":23200,"station_id":"ce4bgs12rcd13ifvqcag","pricing_plan_id":"cebpf4jnsgd1na2vs0mg"},{"bike_id":"dd2fbc22-3df4-4720-a708-dd6f46ba7212","system_id":"levelo_inurba_marseille","lat":43.21217,"lon":5.35061,"is_reserved":false,"is_disabled":false,"rental_uris":{"android":"levelo://app?vid=dd2fbc22-3df4-4720-a708-dd6f46ba7212","ios":"levelo://app?vid=dd2fbc22-3df4-4720-a708-dd6f46ba7212"},"vehicle_type_id":"4","last_reported":1744715292,"current_range_meters":23200,"station_id":"st_cvj6sg6p6f1abm77japg","pricing_plan_id":"cebpf4jnsgd1na2vs0mg"},{"bike_id":"61c46ed6-9e00-4626-82c3-d65dd1ece6b2","system_id":"levelo_inurba_marseille","lat":43.30465,"lon":5.37916,"is_reserved":false,"is_disabled":false,"rental_uris":{"android":"levelo://app?vid=61c46ed6-9e00-4626-82c3-d65dd1ece6b2","ios":"levelo://app?vid=61c46ed6-9e00-4626-82c3-d65dd1ece6b2"},"vehicle_type_id":"4","last_reported":1744715292,"current_range_meters":23200,"station_id":"ce4bgup2rcd13ifvqcn0","pricing_plan_id":"cebpf4jnsgd1na2vs0mg"},{"bike_id":"04a1d15c-08a1-4906-8e8c-a31d913fbdff","system_id":"levelo_inurba_marseille","lat":43.27843,"lon":5.39216,"is_reserved":false,"is_disabled":false,"rental_uris":{"android":"levelo://app?vid=04a1d15c-08a1-4906-8e8c-a31d913fbdff","ios":"levelo://app?vid=04a1d15c-08a1-4906-8e8c-a31d913fbdff"},"vehicle_type_id":"4","last_reported":1744715292,"current_range_meters":24000,"station_id":"ce4bhjp2rcd13ifvqga0","pricing_plan_id":"cebpf4jnsgd1na2vs0mg"},{"bike_id":"712e005d-7fbf-4a25-b0e9-a6364df887a7","system_id":"levelo_inurba_marseille","lat":43.30266,"lon":5.3773,"is_reserved":false,"is_disabled":false,"rental_uris":{"android":"levelo://app?vid=712e005d-7fbf-4a25-b0e9-a6364df887a7","ios":"levelo://app?vid=712e005d-7fbf-4a25-b0e9-a6364df887a7"},"vehicle_type_id":"4","last_reported":1744715292,"current_range_meters":24000,"station_id":"ce4bguh2rcd13ifvqcj0","pricing_plan_id":"cebpf4jnsgd1na2vs0mg"},{"bike_id":"29adbd95-028a-40a4-856b-d3d896eec2fe","system_id":"levelo_inurba_marseille","lat":43.28,"lon":5.40014,"is_reserved":false,"is_disabled":false,"rental_uris":{"android":"levelo://app?vid=29adbd95-028a-40a4-856b-d3d896eec2fe","ios":"levelo://app?vid=29adbd95-028a-40a4-856b-d3d896eec2fe"},"vehicle_type_id":"4","last_reported":1744715292,"current_range_meters":24000,"station_id":"ce4bho92rcd13ifvqh4g","pricing_plan_id":"cebpf4jnsgd1na2vs0mg"},{"bike_id":"aafe301b-f3da-400b-98ce-a1635b36876e","system_id":"levelo_inurba_marseille","lat":43.30599,"lon":5.37226,"is_reserved":false,"is_disabled":false,"rental_uris":{"android":"levelo://app?vid=aafe301b-f3da-400b-98ce-a1635b36876e","ios":"levelo://app?vid=aafe301b-f3da-400b-98ce-a1635b36876e"},"vehicle_type_id":"4","last_reported":1744715292,"current_range_meters":24000,"station_id":"ce4bgqh2rcd13ifvqc4g","pricing_plan_id":"cebpf4jnsgd1na2vs0mg"},{"bike_id":"76e774ce-d4dc-48c4-bc8a-2e47a68f937d","system_id":"levelo_inurba_marseille","lat":43.28417,"lon":5.37506,"is_reserved":false,"is_disabled":false,"rental_uris":{"android":"levelo://app?vid=76e774ce-d4dc-48c4-bc8a-2e47a68f937d","ios":"levelo://app?vid=76e774ce-d4dc-48c4-bc8a-2e47a68f937d"},"vehicle_type_id":"4","last_reported":1744715292,"current_range_meters":24000,"station_id":"ce4bh412rcd13ifvqds0","pricing_plan_id":"cebpf4jnsgd1na2vs0mg"},{"bike_id":"8f02bb27-cea3-48e5-9728-2a83c02f47e3","system_id":"levelo_inurba_marseille","lat":43.28104,"lon":5.37839,"is_reserved":false,"is_disabled":false,"rental_uris":{"android":"levelo://app?vid=8f02bb27-cea3-48e5-9728-2a83c02f47e3","ios":"levelo://app?vid=8f02bb27-cea3-48e5-9728-2a83c02f47e3"},"vehicle_type_id":"4","last_reported":1744715292,"current_range_meters":24000,"station_id":"ce4bha12rcd13ifvqee0","pricing_plan_id":"cebpf4jnsgd1na2vs0mg"},{"bike_id":"c3bb870c-a7e6-4b46-ad78-da8dec4be5b6","system_id":"levelo_inurba_marseille","lat":43.3055,"lon":5.36682,"is_reserved":false,"is_disabled":false,"rental_uris":{"android":"levelo://app?vid=c3bb870c-a7e6-4b46-ad78-da8dec4be5b6","ios":"levelo://app?vid=c3bb870c-a7e6-4b46-ad78-da8dec4be5b6"},"vehicle_type_id":"4","last_reported":1744715292,"current_range_meters":24000,"station_id":"ce4bgrp2rcd13ifvqc9g","pricing_plan_id":"cebpf4jnsgd1na2vs0mg"},{"bike_id":"06d6f84a-6d25-43a8-9b99-75f10d893f66","system_id":"levelo_inurba_marseille","lat":43.303955,"lon":5.418554,"is_reserved":false,"is_disabled":false,"rental_uris":{"android":"levelo://app?vid=06d6f84a-6d25-43a8-9b99-75f10d893f66","ios":"levelo://app?vid=06d6f84a-6d25-43a8-9b99-75f10d893f66"},"vehicle_type_id":"4","last_reported":1744715292,"current_range_meters":24000,"station_id":"ce4bhop2rcd13ifvqh7g","pricing_plan_id":"cebpf4jnsgd1na2vs0mg"},{"bike_id":"ed277671-5069-41be-a386-38170335cdc8","system_id":"levelo_inurba_marseille","lat":43.31357,"lon":5.36712,"is_reserved":false,"is_disabled":false,"rental_uris":{"android":"levelo://app?vid=ed277671-5069-41be-a386-38170335cdc8","ios":"levelo://app?vid=ed277671-5069-41be-a386-38170335cdc8"},"vehicle_type_id":"4","last_reported":1744715292,"current_range_meters":24400,"station_id":"ce4bgr92rcd13ifvqc6g","pricing_plan_id":"cebpf4jnsgd1na2vs0mg"},{"bike_id":"f1e37c4d-de94-466d-afd3-a6054939c7ea","system_id":"levelo_inurba_marseille","lat":43.29794,"lon":5.38106,"is_reserved":false,"is_disabled":false,"rental_uris":{"android":"levelo://app?vid=f1e37c4d-de94-466d-afd3-a6054939c7ea","ios":"levelo://app?vid=f1e37c4d-de94-466d-afd3-a6054939c7ea"},"vehicle_type_id":"4","last_reported":1744715292,"current_range_meters":24000,"station_id":"ce4bgip2rcd13ifvqbb0","pricing_plan_id":"cebpf4jnsgd1na2vs0mg"},{"bike_id":"2d03e3c2-09e4-4978-8dbc-31228f7e9fd5","system_id":"levelo_inurba_marseille","lat":43.25581,"lon":5.38226,"is_reserved":false,"is_disabled":false,"rental_uris":{"android":"levelo://app?vid=2d03e3c2-09e4-4978-8dbc-31228f7e9fd5","ios":"levelo://app?vid=2d03e3c2-09e4-4978-8dbc-31228f7e9fd5"},"vehicle_type_id":"4","last_reported":1744715292,"current_range_meters":24400,"station_id":"ce4bhih2rcd13ifvqfs0","pricing_plan_id":"cebpf4jnsgd1na2vs0mg"},{"bike_id":"359fdaa0-bf9c-4933-9100-7a68179b70ef","system_id":"levelo_inurba_marseille","lat":43.24179,"lon":5.39729,"is_reserved":false,"is_disabled":false,"rental_uris":{"android":"levelo://app?vid=359fdaa0-bf9c-4933-9100-7a68179b70ef","ios":"levelo://app?vid=359fdaa0-bf9c-4933-9100-7a68179b70ef"},"vehicle_type_id":"4","last_reported":1744715292,"current_range_meters":24400,"station_id":"ce4bhn12rcd13ifvqgpg","pricing_plan_id":"cebpf4jnsgd1na2vs0mg"},{"bike_id":"ca2f587d-a6c0-4535-a2a0-b19828ef0083","system_id":"levelo_inurba_marseille","lat":43.292842,"lon":5.401785,"is_reserved":false,"is_disabled":false,"rental_uris":{"android":"levelo://app?vid=ca2f587d-a6c0-4535-a2a0-b19828ef0083","ios":"levelo://app?vid=ca2f587d-a6c0-4535-a2a0-b19828ef0083"},"vehicle_type_id":"4","last_reported":1744715292,"current_range_meters":24400,"station_id":"ce4bh312rcd13ifvqdk0","pricing_plan_id":"cebpf4jnsgd1na2vs0mg"},{"bike_id":"f4f2a3c2-2e88-42f2-a842-4b821963dedc","system_id":"levelo_inurba_marseille","lat":43.22932,"lon":5.35375,"is_reserved":false,"is_disabled":false,"rental_uris":{"android":"levelo://app?vid=f4f2a3c2-2e88-42f2-a842-4b821963dedc","ios":"levelo://app?vid=f4f2a3c2-2e88-42f2-a842-4b821963dedc"},"vehicle_type_id":"4","last_reported":1744715292,"current_range_meters":24400,"station_id":"cpo3532slgdg3j2ikp40","pricing_plan_id":"cebpf4jnsgd1na2vs0mg"},{"bike_id":"78ad1afe-5e0d-4443-b5b9-01cd0dc5c94b","system_id":"levelo_inurba_marseille","lat":43.25577,"lon":5.3822,"is_reserved":false,"is_disabled":false,"rental_uris":{"android":"levelo://app?vid=78ad1afe-5e0d-4443-b5b9-01cd0dc5c94b","ios":"levelo://app?vid=78ad1afe-5e0d-4443-b5b9-01cd0dc5c94b"},"vehicle_type_id":"4","last_reported":1744715292,"current_range_meters":24400,"station_id":"ce4bhih2rcd13ifvqfs0","pricing_plan_id":"cebpf4jnsgd1na2vs0mg"},{"bike_id":"6c6fd58d-d251-4fea-8c55-c0a7401c92d2","system_id":"levelo_inurba_marseille","lat":43.24168,"lon":5.39723,"is_reserved":false,"is_disabled":false,"rental_uris":{"android":"levelo://app?vid=6c6fd58d-d251-4fea-8c55-c0a7401c92d2","ios":"levelo://app?vid=6c6fd58d-d251-4fea-8c55-c0a7401c92d2"},"vehicle_type_id":"4","last_reported":1744715292,"current_range_meters":24400,"station_id":"ce4bhn12rcd13ifvqgpg","pricing_plan_id":"cebpf4jnsgd1na2vs0mg"},{"bike_id":"6ba75421-2540-4e6c-a03a-7cf0990137a4","system_id":"levelo_inurba_marseille","lat":43.24172,"lon":5.39733,"is_reserved":false,"is_disabled":false,"rental_uris":{"android":"levelo://app?vid=6ba75421-2540-4e6c-a03a-7cf0990137a4","ios":"levelo://app?vid=6ba75421-2540-4e6c-a03a-7cf0990137a4"},"vehicle_type_id":"4","last_reported":1744715292,"current_range_meters":24400,"station_id":"ce4bhn12rcd13ifvqgpg","pricing_plan_id":"cebpf4jnsgd1na2vs0mg"},{"bike_id":"469725df-9bdf-4a41-b17a-0b88309b977d","system_id":"levelo_inurba_marseille","lat":43.21748,"lon":5.34603,"is_reserved":false,"is_disabled":false,"rental_uris":{"android":"levelo://app?vid=469725df-9bdf-4a41-b17a-0b88309b977d","ios":"levelo://app?vid=469725df-9bdf-4a41-b17a-0b88309b977d"},"vehicle_type_id":"4","last_reported":1744715292,"current_range_meters":24800,"station_id":"st_cvj6r9ubvosntc0bgbag","pricing_plan_id":"cebpf4jnsgd1na2vs0mg"},{"bike_id":"20eb203e-428a-4993-8dc1-5d6a1fa8a489","system_id":"levelo_inurba_marseille","lat":43.27456,"lon":5.39385,"is_reserved":false,"is_disabled":true,"rental_uris":{"android":"levelo://app?vid=20eb203e-428a-4993-8dc1-5d6a1fa8a489","ios":"levelo://app?vid=20eb203e-428a-4993-8dc1-5d6a1fa8a489"},"vehicle_type_id":"4","last_reported":1744715292,"current_range_meters":24800,"station_id":"ce4bhdp2rcd13ifvqf20","pricing_plan_id":"cebpf4jnsgd1na2vs0mg"},{"bike_id":"da8b85b7-2e3a-4882-b1b1-00a4494eed2a","system_id":"levelo_inurba_marseille","lat":43.33049,"lon":5.39039,"is_reserved":false,"is_disabled":false,"rental_uris":{"android":"levelo://app?vid=da8b85b7-2e3a-4882-b1b1-00a4494eed2a","ios":"levelo://app?vid=da8b85b7-2e3a-4882-b1b1-00a4494eed2a"},"vehicle_type_id":"4","last_reported":1744715292,"current_range_meters":24800,"station_id":"ce4bhr92rcd13ifvqhrg","pricing_plan_id":"cebpf4jnsgd1na2vs0mg"},{"bike_id":"5bf33091-7ddc-47f7-b310-ed5f66f1e55d","system_id":"levelo_inurba_marseille","lat":43.28237,"lon":5.38619,"is_reserved":false,"is_disabled":false,"rental_uris":{"android":"levelo://app?vid=5bf33091-7ddc-47f7-b310-ed5f66f1e55d","ios":"levelo://app?vid=5bf33091-7ddc-47f7-b310-ed5f66f1e55d"},"vehicle_type_id":"4","last_reported":1744715292,"current_range_meters":24800,"station_id":"","pricing_plan_id":"cebpf4jnsgd1na2vs0mg"},{"bike_id":"81f8cde3-ded4-43c8-9dd4-6f585862aacf","system_id":"levelo_inurba_marseille","lat":43.31089,"lon":5.42425,"is_reserved":false,"is_disabled":false,"rental_uris":{"android":"levelo://app?vid=81f8cde3-ded4-43c8-9dd4-6f585862aacf","ios":"levelo://app?vid=81f8cde3-ded4-43c8-9dd4-6f585862aacf"},"vehicle_type_id":"4","last_reported":1744715292,"current_range_meters":24800,"station_id":"ce4bhp92rcd13ifvqhag","pricing_plan_id":"cebpf4jnsgd1na2vs0mg"},{"bike_id":"401ed369-c862-4e20-ad7d-88e3115373b7","system_id":"levelo_inurba_marseille","lat":43.24177,"lon":5.39713,"is_reserved":false,"is_disabled":false,"rental_uris":{"android":"levelo://app?vid=401ed369-c862-4e20-ad7d-88e3115373b7","ios":"levelo://app?vid=401ed369-c862-4e20-ad7d-88e3115373b7"},"vehicle_type_id":"4","last_reported":1744715292,"current_range_meters":24800,"station_id":"ce4bhn12rcd13ifvqgpg","pricing_plan_id":"cebpf4jnsgd1na2vs0mg"},{"bike_id":"a8c5d3e8-929c-4de6-93ec-216e129c42d0","system_id":"levelo_inurba_marseille","lat":43.29021,"lon":5.38657,"is_reserved":false,"is_disabled":false,"rental_uris":{"android":"levelo://app?vid=a8c5d3e8-929c-4de6-93ec-216e129c42d0","ios":"levelo://app?vid=a8c5d3e8-929c-4de6-93ec-216e129c42d0"},"vehicle_type_id":"4","last_reported":1744715292,"current_range_meters":24800,"station_id":"ce4bh4p2rcd13ifvqe0g","pricing_plan_id":"cebpf4jnsgd1na2vs0mg"},{"bike_id":"5a27cfb5-5fe8-436b-804e-cd0e4f292e06","system_id":"levelo_inurba_marseille","lat":43.3054,"lon":5.36562,"is_reserved":false,"is_disabled":false,"rental_uris":{"android":"levelo://app?vid=5a27cfb5-5fe8-436b-804e-cd0e4f292e06","ios":"levelo://app?vid=5a27cfb5-5fe8-436b-804e-cd0e4f292e06"},"vehicle_type_id":"4","last_reported":1744715292,"current_range_meters":24800,"station_id":"ce4bgs12rcd13ifvqcag","pricing_plan_id":"cebpf4jnsgd1na2vs0mg"},{"bike_id":"59248c0b-3f78-4d8d-bfd1-228e157830ea","system_id":"levelo_inurba_marseille","lat":43.261997,"lon":5.379345,"is_reserved":false,"is_disabled":false,"rental_uris":{"android":"levelo://app?vid=59248c0b-3f78-4d8d-bfd1-228e157830ea","ios":"levelo://app?vid=59248c0b-3f78-4d8d-bfd1-228e157830ea"},"vehicle_type_id":"4","last_reported":1744715292,"current_range_meters":25200,"station_id":"ce4bhlh2rcd13ifvqgig","pricing_plan_id":"cebpf4jnsgd1na2vs0mg"},{"bike_id":"3d9763b6-60d0-45ae-aae5-867124c3eedf","system_id":"levelo_inurba_marseille","lat":43.30541,"lon":5.36541,"is_reserved":false,"is_disabled":false,"rental_uris":{"android":"levelo://app?vid=3d9763b6-60d0-45ae-aae5-867124c3eedf","ios":"levelo://app?vid=3d9763b6-60d0-45ae-aae5-867124c3eedf"},"vehicle_type_id":"4","last_reported":1744715292,"current_range_meters":25200,"station_id":"ce4bgs12rcd13ifvqcag","pricing_plan_id":"cebpf4jnsgd1na2vs0mg"},{"bike_id":"8c1d73da-35cc-447e-8b7c-dd7c525a068b","system_id":"levelo_inurba_marseille","lat":43.3361,"lon":5.4104,"is_reserved":false,"is_disabled":false,"rental_uris":{"android":"levelo://app?vid=8c1d73da-35cc-447e-8b7c-dd7c525a068b","ios":"levelo://app?vid=8c1d73da-35cc-447e-8b7c-dd7c525a068b"},"vehicle_type_id":"4","last_reported":1744715292,"current_range_meters":25200,"station_id":"ce4bhqh2rcd13ifvqhmg","pricing_plan_id":"cebpf4jnsgd1na2vs0mg"},