{"last_updated":1773830445,"ttl":60,"version":"2.2","data":{"bikes":[{"bike_id":"3be68386-fcc7-4514-8adc-b98f87165b7f","system_id":"levelo_inurba_marseille","lat":43.31224,"lon":5.36867,"is_reserved":false,"is_disabled":false,"rental_uris":{"android":"levelo://app?vid=3be68386-fcc7-4514-8adc-b98f87165b7f","ios":"levelo://app?vid=3be68386-fcc7-4514-8adc-b98f87165b7f"},"vehicle_type_id":"4","last_reported":1773830446,"current_range_meters":2800,"station_id":"ce4bgl92rcd13ifvqbq0","pricing_plan_id":"cebpf4jnsgd1na2vs0mg"},{"bike_id":"f00fcd39-d458-47f2-97b4-5462c5c8dab5","system_id":"levelo_inurba_marseille","lat":43.25514,"lon":5.37658,"is_reserved":false,"is_disabled":false,"rental_uris":{"android":"levelo://app?vid=f00fcd39-d458-47f2-97b4-5462c5c8dab5","ios":"levelo://app?vid=f00fcd39-d458-47f2-97b4-5462c5c8dab5"},"vehicle_type_id":"4","last_reported":1773830446,"current_range_meters":2800,"station_id":"ce4bhh12rcd13ifvqff0","pricing_plan_id":"cebpf4jnsgd1na2vs0mg"},{"bike_id":"290e0ba0-353e-477a-89d4-70e72afe5fbc","system_id":"levelo_inurba_marseille","lat":43.32511,"lon":5.38278,"is_reserved":false,"is_disabled":false,"rental_uris":{"android":"levelo://app?vid=290e0ba0-353e-477a-89d4-70e72afe5fbc","ios":"levelo://app?vid=290e0ba0-353e-477a-89d4-70e72afe5fbc"},"vehicle_type_id":"4","last_reported":1773830446,"current_range_meters":2800,"station_id":"st_d4asgbiv49dc73anf9m0","pricing_plan_id":"cebpf4jnsgd1na2vs0mg"},{"bike_id":"d1a27662-cf42-48f8-8794-9e42584d230a","system_id":"levelo_inurba_marseille","lat":43.3133,"lon":5.39646,"is_reserved":false,"is_disabled":false,"rental_uris":{"android":"levelo://app?vid=d1a27662-cf42-48f8-8794-9e42584d230a","ios":"levelo://app?vid=d1a27662-cf42-48f8-8794-9e42584d230a"},"vehicle_type_id":"4","last_reported":1773830446,"current_range_meters":2800,"station_id":"ce4bgvp2rcd13ifvqcu0","pricing_plan_id":"cebpf4jnsgd1na2vs0mg"},{"bike_id":"e4b515b3-5a64-4f24-8a63-3407e3500a15","system_id":"levelo_inurba_marseille","lat":43.24318,"lon":5.40212,"is_reserved":false,"is_disabled":false,"rental_uris":{"android":"levelo://app?vid=e4b515b3-5a64-4f24-8a63-3407e3500a15","ios":"levelo://app?vid=e4b515b3-5a64-4f24-8a63-3407e3500a15"},"vehicle_type_id":"4","last_reported":1773830446,"current_range_meters":2800,"station_id":"","pricing_plan_id":"cebpf4jnsgd1na2vs0mg"},{"bike_id":"f6c860f4-9c2e-4a13-b509-50fb1709859b","system_id":"levelo_inurba_marseille","lat":43.21196,"lon":5.35071,"is_reserved":false,"is_disabled":false,"rental_uris":{"android":"levelo://app?vid=f6c860f4-9c2e-4a13-b509-50fb1709859b","ios":"levelo://app?vid=f6c860f4-9c2e-4a13-b509-50fb1709859b"},"vehicle_type_id":"4","last_reported":1773830446,"current_range_meters":3200,"station_id":"st_cvj6sg6p6f1abm77japg","pricing_plan_id":"cebpf4jnsgd1na2vs0mg"},{"bike_id":"28934219-7bc1-494b-8007-d3749b5ec108","system_id":"levelo_inurba_marseille","lat":43.25932,"lon":5.40882,"is_reserved":false,"is_disabled":false,"rental_uris":{"android":"levelo://app?vid=28934219-7bc1-494b-8007-d3749b5ec108","ios":"levelo://app?vid=28934219-7bc1-494b-8007-d3749b5ec108"},"vehicle_type_id":"4","last_reported":1773830446,"current_range_meters":3200,"station_id":"ce4bhm92rcd13ifvqglg","pricing_plan_id":"cebpf4jnsgd1na2vs0mg"},{"bike_id":"4eeecf6d-6108-42a0-b77f-fc0c0b55b73c","system_id":"levelo_inurba_marseille","lat":43.29924,"lon":5.37463,"is_reserved":false,"is_disabled":true,"rental_uris":{"android":"levelo://app?vid=4eeecf6d-6108-42a0-b77f-fc0c0b55b73c","ios":"levelo://app?vid=4eeecf6d-6108-42a0-b77f-fc0c0b55b73c"},"vehicle_type_id":"4","last_reported":1773830446,"current_range_meters":3200,"station_id":"ce4bgjh2rcd13ifvqbg0","pricing_plan_id":"cebpf4jnsgd1na2vs0mg"},{"bike_id":"ba16bc71-3c62-4074-9b94-56bc76b88dbc","system_id":"levelo_inurba_marseille","lat":43.27142,"lon":5.40366,"is_reserved":false,"is_disabled":true,"rental_uris":{"android":"levelo://app?vid=ba16bc71-3c62-4074-9b94-56bc76b88dbc","ios":"levelo://app?vid=ba16bc71-3c62-4074-9b94-56bc76b88dbc"},"vehicle_type_id":"4","last_reported":1773830446,"current_range_meters":3200,"station_id":"","pricing_plan_id":"cebpf4jnsgd1na2vs0mg"},{"bike_id":"d44e10fb-6d97-4c2b-8ab3-e3d4038e2dcf","system_id":"levelo_inurba_marseille","lat":43.31345,"lon":5.36721,"is_reserved":false,"is_disabled":false,"rental_uris":{"android":"levelo://app?vid=d44e10fb-6d97-4c2b-8ab3-e3d4038e2dcf","ios":"levelo://app?vid=d44e10fb-6d97-4c2b-8ab3-e3d4038e2dcf"},"vehicle_type_id":"4","last_reported":1773830446,"current_range_meters":3200,"station_id":"ce4bgr92rcd13ifvqc6g","pricing_plan_id":"cebpf4jnsgd1na2vs0mg"},{"bike_id":"da783e49-1347-455f-8b60-d2f97b4dacba","system_id":"levelo_inurba_marseille","lat":43.29268,"lon":5.3685,"is_reserved":false,"is_disabled":true,"rental_uris":{"android":"levelo://app?vid=da783e49-1347-455f-8b60-d2f97b4dacba","ios":"levelo://app?vid=da783e49-1347-455f-8b60-d2f97b4dacba"},"vehicle_type_id":"4","last_reported":1773830446,"current_range_meters":3200,"station_id":"ce4bhbp2rcd13ifvqesg","pricing_plan_id":"cebpf4jnsgd1na2vs0mg"},{"bike_id":"0afcc3ae-637b-4935-ba84-e803a97b98dd","system_id":"levelo_inurba_marseille","lat":43.29666,"lon":5.38707,"is_reserved":false,"is_disabled":false,"rental_uris":{"android":"levelo://app?vid=0afcc3ae-637b-4935-ba84-e803a97b98dd","ios":"levelo://app?vid=0afcc3ae-637b-4935-ba84-e803a97b98dd"},"vehicle_type_id":"4","last_reported":1773830446,"current_range_meters":3200,"station_id":"","pricing_plan_id":"cebpf4jnsgd1na2vs0mg"},{"bike_id":"a43b6b9c-a001-46bf-9219-96b1968817fa","system_id":"levelo_inurba_marseille","lat":43.27948,"lon":5.41041,"is_reserved":false,"is_disabled":false,"rental_uris":{"android":"levelo://app?vid=a43b6b9c-a001-46bf-9219-96b1968817fa","ios":"levelo://app?vid=a43b6b9c-a001-46bf-9219-96b1968817fa"},"vehicle_type_id":"4","last_reported":1773830446,"current_range_meters":3200,"station_id":"ce4bhnp2rcd13ifvqh0g","pricing_plan_id":"cebpf4jnsgd1na2vs0mg"},{"bike_id":"95d31319-d36d-403e-adf6-0b51cdaa5b1b","system_id":"levelo_inurba_marseille","lat":43.31316,"lon":5.39694,"is_reserved":false,"is_disabled":true,"rental_uris":{"android":"levelo://app?vid=95d31319-d36d-403e-adf6-0b51cdaa5b1b","ios":"levelo://app?vid=95d31319-d36d-403e-adf6-0b51cdaa5b1b"},"vehicle_type_id":"4","last_reported":1773830446,"current_range_meters":3200,"station_id":"ce4bgvp2rcd13ifvqcu0","pricing_plan_id":"cebpf4jnsgd1na2vs0mg"},{"bike_id":"f99c995a-f3e5-4eda-9d8f-d63ae576869e","system_id":"levelo_inurba_marseille","lat":43.315,"lon":5.37282,"is_reserved":false,"is_disabled":false,"rental_uris":{"android":"levelo://app?vid=f99c995a-f3e5-4eda-9d8f-d63ae576869e","ios":"levelo://app?vid=f99c995a-f3e5-4eda-9d8f-d63ae576869e"},"vehicle_type_id":"4","last_reported":1773830446,"current_range_meters":3200,"station_id":"ce4bgt12rcd13ifvqcd0","pricing_plan_id":"cebpf4jnsgd1na2vs0mg"},{"bike_id":"9581202a-9f0b-4e3d-8ba8-487d1612fe8d","system_id":"levelo_inurba_marseille","lat":43.29878,"lon":5.37891,"is_reserved":false,"is_disabled":false,"rental_uris":{"android":"levelo://app?vid=9581202a-9f0b-4e3d-8ba8-487d1612fe8d","ios":"levelo://app?vid=9581202a-9f0b-4e3d-8ba8-487d1612fe8d"},"vehicle_type_id":"4","last_reported":1773830446,"current_range_meters":3200,"station_id":"","pricing_plan_id":"cebpf4jnsgd1na2vs0mg"},{"bike_id":"f9fcd0e4-64a8-49e7-b1c7-7c4d0ac98b5d","system_id":"levelo_inurba_marseille","lat":43.31489,"lon":5.37283,"is_reserved":false,"is_disabled":false,"rental_uris":{"android":"levelo://app?vid=f9fcd0e4-64a8-49e7-b1c7-7c4d0ac98b5d","ios":"levelo://app?vid=f9fcd0e4-64a8-49e7-b1c7-7c4d0ac98b5d"},"vehicle_type_id":"4","last_reported":1773830446,"current_range_meters":3200,"station_id":"ce4bgt12rcd13ifvqcd0","pricing_plan_id":"cebpf4jnsgd1na2vs0mg"},{"bike_id":"2f12edde-8f91-4f41-90e6-5cc10e075e61","system_id":"levelo_inurba_marseille","lat":43.29965,"lon":5.38502,"is_reserved":false,"is_disabled":false,"rental_uris":{"android":"levelo://app?vid=2f12edde-8f91-4f41-90e6-5cc10e075e61","ios":"levelo://app?vid=2f12edde-8f91-4f41-90e6-5cc10e075e61"},"vehicle_type_id":"4","last_reported":1773830446,"current_range_meters":3200,"station_id":"ce4bgj92rcd13ifvqbd0","pricing_plan_id":"cebpf4jnsgd1na2vs0mg"},{"bike_id":"0d33946c-dda7-4b3f-9757-2c7ef637d9ab","system_id":"levelo_inurba_marseille","lat":43.29292,"lon":5.40964,"is_reserved":false,"is_disabled":true,"rental_uris":{"android":"levelo://app?vid=0d33946c-dda7-4b3f-9757-2c7ef637d9ab","ios":"levelo://app?vid=0d33946c-dda7-4b3f-9757-2c7ef637d9ab"},"vehicle_type_id":"4","last_reported":1773830446,"current_range_meters":3200,"station_id":"","pricing_plan_id":"cebpf4jnsgd1na2vs0mg"},{"bike_id":"1df8d8e4-7220-4a3d-adc0-53fdde08c129","system_id":"levelo_inurba_marseille","lat":43.25103,"lon":5.4031,"is_reserved":false,"is_disabled":false,"rental_uris":{"android":"levelo://app?vid=1df8d8e4-7220-4a3d-adc0-53fdde08c129","ios":"levelo://app?vid=1df8d8e4-7220-4a3d-adc0-53fdde08c129"},"vehicle_type_id":"4","last_reported":1773830446,"current_range_meters":3200,"station_id":"ce4bhlh2rcd13ifvqgig","pricing_plan_id":"cebpf4jnsgd1na2vs0mg"},{"bike_id":"a57dfb70-c1d5-4451-b485-10c7accf3045","system_id":"levelo_inurba_marseille","lat":43.2959,"lon":5.38105,"is_reserved":false,"is_disabled":false,"rental_uris":{"android":"levelo://app?vid=a57dfb70-c1d5-4451-b485-10c7accf3045","ios":"levelo://app?vid=a57dfb70-c1d5-4451-b485-10c7accf3045"},"vehicle_type_id":"4","last_reported":1773830446,"current_range_meters":3200,"station_id":"ce4bgl12rcd13ifvqbo0","pricing_plan_id":"cebpf4jnsgd1na2vs0mg"},{"bike_id":"4edc1e69-f919-4c2f-a6b8-66257e87a54f","system_id":"levelo_inurba_marseille","lat":43.28495,"lon":5.48395,"is_reserved":false,"is_disabled":false,"rental_uris":{"android":"levelo://app?vid=4edc1e69-f919-4c2f-a6b8-66257e87a54f","ios":"levelo://app?vid=4edc1e69-f919-4c2f-a6b8-66257e87a54f"},"vehicle_type_id":"4","last_reported":1773830446,"current_range_meters":3200,"station_id":"","pricing_plan_id":"cebpf4jnsgd1na2vs0mg"},{"bike_id":"44fae528-a2d3-4721-a681-d78a4e6bd801","system_id":"levelo_inurba_marseille","lat":43.23174,"lon":5.3999,"is_reserved":false,"is_disabled":false,"rental_uris":{"android":"levelo://app?vid=44fae528-a2d3-4721-a681-d78a4e6bd801","ios":"levelo://app?vid=44fae528-a2d3-4721-a681-d78a4e6bd801"},"vehicle_type_id":"4","last_reported":1773830446,"current_range_meters":3200,"station_id":"ce4bhn12rcd13ifvqgqg","pricing_plan_id":"cebpf4jnsgd1na2vs0mg"},{"bike_id":"a0c5c5f8-8fc8-49f2-af86-114516413325","system_id":"levelo_inurba_marseille","lat":43.32111,"lon":5.36814,"is_reserved":false,"is_disabled":false,"rental_uris":{"android":"levelo://app?vid=a0c5c5f8-8fc8-49f2-af86-114516413325","ios":"levelo://app?vid=a0c5c5f8-8fc8-49f2-af86-114516413325"},"vehicle_type_id":"4","last_reported":1773830446,"current_range_meters":3200,"station_id":"ce4bhrh2rcd13ifvqhug","pricing_plan_id":"cebpf4jnsgd1na2vs0mg"},{"bike_id":"70dc4d05-aae3-4732-b154-15fa01d1cd08","system_id":"levelo_inurba_marseille","lat":43.27802,"lon":5.40704,"is_reserved":false,"is_disabled":true,"rental_uris":{"android":"levelo://app?vid=70dc4d05-aae3-4732-b154-15fa01d1cd08","ios":"levelo://app?vid=70dc4d05-aae3-4732-b154-15fa01d1cd08"},"vehicle_type_id":"4","last_reported":1773830446,"current_range_meters":3600,"station_id":"ce4bhnh2rcd13ifvqgtg","pricing_plan_id":"cebpf4jnsgd1na2vs0mg"},{"bike_id":"cbd9339d-6b5d-45fe-8986-e925f0446131","system_id":"levelo_inurba_marseille","lat":43.26546,"lon":5.37272,"is_reserved":false,"is_disabled":false,"rental_uris":{"android":"levelo://app?vid=cbd9339d-6b5d-45fe-8986-e925f0446131","ios":"levelo://app?vid=cbd9339d-6b5d-45fe-8986-e925f0446131"},"vehicle_type_id":"4","last_reported":1773830446,"current_range_meters":3600,"station_id":"ce4bhg12rcd13ifvqf70","pricing_plan_id":"cebpf4jnsgd1na2vs0mg"},{"bike_id":"57f59ea7-9661-484b-ab62-8930e39b76a3","system_id":"levelo_inurba_marseille","lat":43.23795,"lon":5.36637,"is_reserved":false,"is_disabled":false,"rental_uris":{"android":"levelo://app?vid=57f59ea7-9661-484b-ab62-8930e39b76a3","ios":"levelo://app?vid=57f59ea7-9661-484b-ab62-8930e39b76a3"},"vehicle_type_id":"4","last_reported":1773830446,"current_range_meters":3600,"station_id":"st_d3nk18o9ro0c73en2l3g","pricing_plan_id":"cebpf4jnsgd1na2vs0mg"},{"bike_id":"7a73b128-6eb2-47bb-8ea6-432d8e929d53","system_id":"levelo_inurba_marseille","lat":43.29967,"lon":5.41296,"is_reserved":false,"is_disabled":false,"rental_uris":{"android":"levelo://app?vid=7a73b128-6eb2-47bb-8ea6-432d8e929d53","ios":"levelo://app?vid=7a73b128-6eb2-47bb-8ea6-432d8e929d53"},"vehicle_type_id":"4","last_reported":1773830446,"current_range_meters":3600,"station_id":"ce4bhp12rcd13ifvqh9g","pricing_plan_id":"cebpf4jnsgd1na2vs0mg"},{"bike_id":"36933889-678d-4cd5-8ee2-ec803e63bcef","system_id":"levelo_inurba_marseille","lat":43.29043,"lon":5.37553,"is_reserved":false,"is_disabled":false,"rental_uris":{"android":"levelo://app?vid=36933889-678d-4cd5-8ee2-ec803e63bcef","ios":"levelo://app?vid=36933889-678d-4cd5-8ee2-ec803e63bcef"},"vehicle_type_id":"4","last_reported":1773830446,"current_range_meters":3600,"station_id":"ce4bh692rcd13ifvqe90","pricing_plan_id":"cebpf4jnsgd1na2vs0mg"},{"bike_id":"9b3feee8-8fd8-4b4a-a450-d3efe1aaca44","system_id":"levelo_inurba_marseille","lat":43.29173,"lon":5.37147,"is_reserved":false,"is_disabled":false,"rental_uris":{"android":"levelo://app?vid=9b3feee8-8fd8-4b4a-a450-d3efe1aaca44","ios":"levelo://app?vid=9b3feee8-8fd8-4b4a-a450-d3efe1aaca44"},"vehicle_type_id":"4","last_reported":1773830446,"current_range_meters":3600,"station_id":"ce4bha92rcd13ifvqeh0","pricing_plan_id":"cebpf4jnsgd1na2vs0mg"},{"bike_id":"8518de49-644f-4a85-a5da-d0adbb5a3cc8","system_id":"levelo_inurba_marseille","lat":43.31499,"lon":5.37297,"is_reserved":false,"is_disabled":false,"rental_uris":{"android":"levelo://app?vid=8518de49-644f-4a85-a5da-d0adbb5a3cc8","ios":"levelo://app?vid=8518de49-644f-4a85-a5da-d0adbb5a3cc8"},"vehicle_type_id":"4","last_reported":1773830446,"current_range_meters":3600,"station_id":"ce4bgt12rcd13ifvqcd0","pricing_plan_id":"cebpf4jnsgd1na2vs0mg"},{"bike_id":"58df6535-2746-4ca5-8ec4-a2736cc7519f","system_id":"levelo_inurba_marseille","lat":43.21179,"lon":5.35071,"is_reserved":false,"is_disabled":false,"rental_uris":{"android":"levelo://app?vid=58df6535-2746-4ca5-8ec4-a2736cc7519f","ios":"levelo://app?vid=58df6535-2746-4ca5-8ec4-a2736cc7519f"},"vehicle_type_id":"4","last_reported":1773830446,"current_range_meters":3600,"station_id":"st_cvj6sg6p6f1abm77japg","pricing_plan_id":"cebpf4jnsgd1na2vs0mg"},{"bike_id":"f6c11f8a-b4ab-49a2-96a0-bdedfda19c92","system_id":"levelo_inurba_marseille","lat":43.31689,"lon":5.40485,"is_reserved":false,"is_disabled":true,"rental_uris":{"android":"levelo://app?vid=f6c11f8a-b4ab-49a2-96a0-bdedfda19c92","ios":"levelo://app?vid=f6c11f8a-b4ab-49a2-96a0-bdedfda19c92"},"vehicle_type_id":"4","last_reported":1773830446,"current_range_meters":3600,"station_id":"ce4bh012rcd13ifvqd00","pricing_plan_id":"cebpf4jnsgd1na2vs0mg"},{"bike_id":"b8ba924d-5db1-45a3-bd92-3c9891b9634f","system_id":"levelo_inurba_marseille","lat":43.23182,"lon":5.40001,"is_reserved":false,"is_disabled":false,"rental_uris":{"android":"levelo://app?vid=b8ba924d-5db1-45a3-bd92-3c9891b9634f","ios":"levelo://app?vid=b8ba924d-5db1-45a3-bd92-3c9891b9634f"},"vehicle_type_id":"4","last_reported":1773830446,"current_range_meters":3600,"station_id":"ce4bhn12rcd13ifvqgqg","pricing_plan_id":"cebpf4jnsgd1na2vs0mg"},{"bike_id":"4af15d60-b5e6-4a55-9404-2793b6d7cc47","system_id":"levelo_inurba_marseille","lat":43.24652,"lon":5.43139,"is_reserved":false,"is_disabled":false,"rental_uris":{"android":"levelo://app?vid=4af15d60-b5e6-4a55-9404-2793b6d7cc47","ios":"levelo://app?vid=4af15d60-b5e6-4a55-9404-2793b6d7cc47"},"vehicle_type_id":"4","last_reported":1773830446,"current_range_meters":3600,"station_id":"","pricing_plan_id":"cebpf4jnsgd1na2vs0mg"},{"bike_id":"0edc70b6-d69b-4a82-b984-b6dcbfbcb380","system_id":"levelo_inurba_marseille","lat":43.32889,"lon":5.37452,"is_reserved":false,"is_disabled":false,"rental_uris":{"android":"levelo://app?vid=0edc70b6-d69b-4a82-b984-b6dcbfbcb380","ios":"levelo://app?vid=0edc70b6-d69b-4a82-b984-b6dcbfbcb380"},"vehicle_type_id":"4","last_reported":1773830446,"current_range_meters":3600,"station_id":"","pricing_plan_id":"cebpf4jnsgd1na2vs0mg"},{"bike_id":"c7a19c3c-98d3-4e4e-af58-36ddb7720ff6","system_id":"levelo_inurba_marseille","lat":43.25941,"lon":5.40889,"is_reserved":false,"is_disabled":false,"rental_uris":{"android":"levelo://app?vid=c7a19c3c-98d3-4e4e-af58-36ddb7720ff6","ios":"levelo://app?vid=c7a19c3c-98d3-4e4e-af58-36ddb7720ff6"},"vehicle_type_id":"4","last_reported":1773830446,"current_range_meters":3600,"station_id":"ce4bhm92rcd13ifvqglg","pricing_plan_id":"cebpf4jnsgd1na2vs0mg"},{"bike_id":"b7033b5e-2a8b-42d6-bedd-622c768ee069","system_id":"levelo_inurba_marseille","lat":43.27207,"lon":5.39187,"is_reserved":false,"is_disabled":false,"rental_uris":{"android":"levelo://app?vid=b7033b5e-2a8b-42d6-bedd-622c768ee069","ios":"levelo://app?vid=b7033b5e-2a8b-42d6-bedd-622c768ee069"},"vehicle_type_id":"4","last_reported":1773830446,"current_range_meters":4000,"station_id":"ce4bhhp2rcd13ifvqfm0","pricing_plan_id":"cebpf4jnsgd1na2vs0mg"},{"bike_id":"1d851264-6ba3-48c2-86f6-b84e8d5a0c62","system_id":"levelo_inurba_marseille","lat":43.29222,"lon":5.35754,"is_reserved":false,"is_disabled":true,"rental_uris":{"android":"levelo://app?vid=1d851264-6ba3-48c2-86f6-b84e8d5a0c62","ios":"levelo://app?vid=1d851264-6ba3-48c2-86f6-b84e8d5a0c62"},"vehicle_type_id":"4","last_reported":1773830446,"current_range_meters":4000,"station_id":"ce4bhb12rcd13ifvqel0","pricing_plan_id":"cebpf4jnsgd1na2vs0mg"},{"bike_id":"34b2ba9f-48f7-42a8-b7ee-2760929850c9","system_id":"levelo_inurba_marseille","lat":43.255785,"lon":5.382189,"is_reserved":false,"is_disabled":false,"rental_uris":{"android":"levelo://app?vid=34b2ba9f-48f7-42a8-b7ee-2760929850c9","ios":"levelo://app?vid=34b2ba9f-48f7-42a8-b7ee-2760929850c9"},"vehicle_type_id":"4","last_reported":1773830446,"current_range_meters":4000,"station_id":"ce4bhih2rcd13ifvqfs0","pricing_plan_id":"cebpf4jnsgd1na2vs0mg"},{"bike_id":"40b31b29-2e9c-4452-9a1a-dfc7a53a0afd","system_id":"levelo_inurba_marseille","lat":43.31702,"lon":5.40465,"is_reserved":false,"is_disabled":false,"rental_uris":{"android":"levelo://app?vid=40b31b29-2e9c-4452-9a1a-dfc7a53a0afd","ios":"levelo://app?vid=40b31b29-2e9c-4452-9a1a-dfc7a53a0afd"},"vehicle_type_id":"4","last_reported":1773830446,"current_range_meters":4000,"station_id":"ce4bh012rcd13ifvqd00","pricing_plan_id":"cebpf4jnsgd1na2vs0mg"},{"bike_id":"09c93a62-ec01-48ba-9dba-e80f7664bbec","system_id":"levelo_inurba_marseille","lat":43.31326,"lon":5.36697,"is_reserved":false,"is_disabled":false,"rental_uris":{"android":"levelo://app?vid=09c93a62-ec01-48ba-9dba-e80f7664bbec","ios":"levelo://app?vid=09c93a62-ec01-48ba-9dba-e80f7664bbec"},"vehicle_type_id":"4","last_reported":1773830446,"current_range_meters":4000,"station_id":"ce4bgr92rcd13ifvqc6g","pricing_plan_id":"cebpf4jnsgd1na2vs0mg"},{"bike_id":"4e4ba8f7-60dc-4959-9a01-6da668abb084","system_id":"levelo_inurba_marseille","lat":43.21182,"lon":5.35086,"is_reserved":false,"is_disabled":false,"rental_uris":{"android":"levelo://app?vid=4e4ba8f7-60dc-4959-9a01-6da668abb084","ios":"levelo://app?vid=4e4ba8f7-60dc-4959-9a01-6da668abb084"},"vehicle_type_id":"4","last_reported":1773830446,"current_range_meters":4000,"station_id":"st_cvj6sg6p6f1abm77japg","pricing_plan_id":"cebpf4jnsgd1na2vs0mg"},{"bike_id":"ab2125f0-f477-425b-9c9a-e4231f7f002b","system_id":"levelo_inurba_marseille","lat":43.21741,"lon":5.34567,"is_reserved":false,"is_disabled":true,"rental_uris":{"android":"levelo://app?vid=ab2125f0-f477-425b-9c9a-e4231f7f002b","ios":"levelo://app?vid=ab2125f0-f477-425b-9c9a-e4231f7f002b"},"vehicle_type_id":"4","last_reported":1773830446,"current_range_meters":4000,"station_id":"st_cvj6r9ubvosntc0bgbag","pricing_plan_id":"cebpf4jnsgd1na2vs0mg"},{"bike_id":"851aef5b-71ee-4585-986f-f3a88a8fb267","system_id":"levelo_inurba_marseille","lat":43.28343,"lon":5.38106,"is_reserved":false,"is_disabled":false,"rental_uris":{"android":"levelo://app?vid=851aef5b-71ee-4585-986f-f3a88a8fb267","ios":"levelo://app?vid=851aef5b-71ee-4585-986f-f3a88a8fb267"},"vehicle_type_id":"4","last_reported":1773830446,"current_range_meters":4000,"station_id":"ce4bh412rcd13ifvqdr0","pricing_plan_id":"cebpf4jnsgd1na2vs0mg"},{"bike_id":"2134a193-4b3a-4038-a280-1a0ba6458570","system_id":"levelo_inurba_marseille","lat":43.29804,"lon":5.42113,"is_reserved":false,"is_disabled":false,"rental_uris":{"android":"levelo://app?vid=2134a193-4b3a-4038-a280-1a0ba6458570","ios":"levelo://app?vid=2134a193-4b3a-4038-a280-1a0ba6458570"},"vehicle_type_id":"4","last_reported":1773830446,"current_range_meters":4400,"station_id":"","pricing_plan_id":"cebpf4jnsgd1na2vs0mg"},{"bike_id":"a0de9855-9e04-444e-b119-6f4865faca00","system_id":"levelo_inurba_marseille","lat":43.29787,"lon":5.37107,"is_reserved":false,"is_disabled":false,"rental_uris":{"android":"levelo://app?vid=a0de9855-9e04-444e-b119-6f4865faca00","ios":"levelo://app?vid=a0de9855-9e04-444e-b119-6f4865faca00"},"vehicle_type_id":"4","last_reported":1773830446,"current_range_meters":4400,"station_id":"ce4bgop2rcd13ifvqc1g","pricing_plan_id":"cebpf4jnsgd1na2vs0mg"},{"bike_id":"292abd82-4146-466f-9e34-79bd05209e5a","system_id":"levelo_inurba_marseille","lat":43.29949,"lon":5.38521,"is_reserved":false,"is_disabled":false,"rental_uris":{"android":"levelo://app?vid=292abd82-4146-466f-9e34-79bd05209e5a","ios":"levelo://app?vid=292abd82-4146-466f-9e34-79bd05209e5a"},"vehicle_type_id":"4","last_reported":1773830446,"current_range_meters":4400,"station_id":"ce4bgj92rcd13ifvqbd0","pricing_plan_id":"cebpf4jnsgd1na2vs0mg"},{"bike_id":"83dfe6d5-7b4e-4962-9169-24132413c1be","system_id":"levelo_inurba_marseille","lat":43.3172,"lon":5.424,"is_reserved":false,"is_disabled":false,"rental_uris":{"android":"levelo://app?vid=83dfe6d5-7b4e-4962-9169-24132413c1be","ios":"levelo://app?vid=83dfe6d5-7b4e-4962-9169-24132413c1be"},"vehicle_type_id":"4","last_reported":1773830446,"current_range_meters":4400,"station_id":"ce4bhp92rcd13ifvqhbg","pricing_plan_id":"cebpf4jnsgd1na2vs0mg"},{"bike_id":"fa44eaac-f583-4562-b974-1e73ddc132f4","system_id":"levelo_inurba_marseille","lat":43.29507,"lon":5.375,"is_reserved":false,"is_disabled":false,"rental_uris":{"android":"levelo://app?vid=fa44eaac-f583-4562-b974-1e73ddc132f4","ios":"levelo://app?vid=fa44eaac-f583-4562-b974-1e73ddc132f4"},"vehicle_type_id":"4","last_reported":1773830446,"current_range_meters":4400,"station_id":"ce4bgkp2rcd13ifvqbmg","pricing_plan_id":"cebpf4jnsgd1na2vs0mg"},{"bike_id":"2bdcea7d-891e-4445-89ed-26e25517b94e","system_id":"levelo_inurba_marseille","lat":43.297819,"lon":5.370933,"is_reserved":false,"is_disabled":false,"rental_uris":{"android":"levelo://app?vid=2bdcea7d-891e-4445-89ed-26e25517b94e","ios":"levelo://app?vid=2bdcea7d-891e-4445-89ed-26e25517b94e"},"vehicle_type_id":"4","last_reported":1773830446,"current_range_meters":4400,"station_id":"ce4bgop2rcd13ifvqc1g","pricing_plan_id":"cebpf4jnsgd1na2vs0mg"},{"bike_id":"47f0df22-1d84-4e9c-a9de-44d74d7eeed2","system_id":"levelo_inurba_marseille","lat":43.30123,"lon":5.39848,"is_reserved":false,"is_disabled":false,"rental_uris":{"android":"levelo://app?vid=47f0df22-1d84-4e9c-a9de-44d74d7eeed2","ios":"levelo://app?vid=47f0df22-1d84-4e9c-a9de-44d74d7eeed2"},"vehicle_type_id":"4","last_reported":1773830446,"current_range_meters":4400,"station_id":"ce4bh0h2rcd13ifvqd40","pricing_plan_id":"cebpf4jnsgd1na2vs0mg"},{"bike_id":"df51f949-c059-425b-93d2-f280e0d91676","system_id":"levelo_inurba_marseille","lat":43.2861,"lon":5.35087,"is_reserved":false,"is_disabled":false,"rental_uris":{"android":"levelo://app?vid=df51f949-c059-425b-93d2-f280e0d91676","ios":"levelo://app?vid=df51f949-c059-425b-93d2-f280e0d91676"},"vehicle_type_id":"4","last_reported":1773830446,"current_range_meters":4400,"station_id":"ce4bhch2rcd13ifvqeug","pricing_plan_id":"cebpf4jnsgd1na2vs0mg"},{"bike_id":"344b53c5-7520-4b25-896f-8fe1b76ac0c9","system_id":"levelo_inurba_marseille","lat":43.29258,"lon":5.37626,"is_reserved":false,"is_disabled":false,"rental_uris":{"android":"levelo://app?vid=344b53c5-7520-4b25-896f-8fe1b76ac0c9","ios":"levelo://app?vid=344b53c5-7520-4b25-896f-8fe1b76ac0c9"},"vehicle_type_id":"4","last_reported":1773830446,"current_range_meters":4400,"station_id":"ce4bgi12rcd13ifvqb80","pricing_plan_id":"cebpf4jnsgd1na2vs0mg"},{"bike_id":"a1cfb408-da52-4413-a934-9b5c4a9189a4","system_id":"levelo_inurba_marseille","lat":43.29584,"lon":5.37524,"is_reserved":false,"is_disabled":false,"rental_uris":{"android":"levelo://app?vid=a1cfb408-da52-4413-a934-9b5c4a9189a4","ios":"levelo://app?vid=a1cfb408-da52-4413-a934-9b5c4a9189a4"},"vehicle_type_id":"4","last_reported":1773830446,"current_range_meters":4400,"station_id":"ce4bgh92rcd13ifvqb50","pricing_plan_id":"cebpf4jnsgd1na2vs0mg"},{"bike_id":"bd9aef9c-7b21-4372-8f6e-83816838458e","system_id":"levelo_inurba_marseille","lat":43.33532,"lon":5.37453,"is_reserved":false,"is_disabled":false,"rental_uris":{"android":"levelo://app?vid=bd9aef9c-7b21-4372-8f6e-83816838458e","ios":"levelo://app?vid=bd9aef9c-7b21-4372-8f6e-83816838458e"},"vehicle_type_id":"4","last_reported":1773830446,"current_range_meters":4400,"station_id":"st_d46tts09ee8s73dlu43g","pricing_plan_id":"cebpf4jnsgd1na2vs0mg"},{"bike_id":"a4456d89-d17c-400e-b5f6-bacb94ff5823","system_id":"levelo_inurba_marseille","lat":43.28156,"lon":5.42628,"is_reserved":false,"is_disabled":false,"rental_uris":{"android":"levelo://app?vid=a4456d89-d17c-400e-b5f6-bacb94ff5823","ios":"levelo://app?vid=a4456d89-d17c-400e-b5f6-bacb94ff5823"},"vehicle_type_id":"4","last_reported":1773830446,"current_range_meters":4800,"station_id":"ce4bhnh2rcd13ifvqgug","pricing_plan_id":"cebpf4jnsgd1na2vs0mg"},{"bike_id":"14088a16-fdc3-4ddc-a629-193ccf4601c3","system_id":"levelo_inurba_marseille","lat":43.24463,"lon":5.42539,"is_reserved":false,"is_disabled":false,"rental_uris":{"android":"levelo://app?vid=14088a16-fdc3-4ddc-a629-193ccf4601c3","ios":"levelo://app?vid=14088a16-fdc3-4ddc-a629-193ccf4601c3"},"vehicle_type_id":"4","last_reported":1773830446,"current_range_meters":4800,"station_id":"st_d4a3vfp97mjs738cd8kg","pricing_plan_id":"cebpf4jnsgd1na2vs0mg"},{"bike_id":"458f604b-e062-47bf-ac14-a001a31d10d8","system_id":"levelo_inurba_marseille","lat":43.28468,"lon":5.48383,"is_reserved":false,"is_disabled":false,"rental_uris":{"android":"levelo://app?vid=458f604b-e062-47bf-ac14-a001a31d10d8","ios":"levelo://app?vid=458f604b-e062-47bf-ac14-a001a31d10d8"},"vehicle_type_id":"4","last_reported":1773830446,"current_range_meters":4800,"station_id":"","pricing_plan_id":"cebpf4jnsgd1na2vs0mg"},{"bike_id":"f7e79517-161a-451a-8a95-bb710b1b4d21","system_id":"levelo_inurba_marseille","lat":43.29586,"lon":5.36745,"is_reserved":false,"is_disabled":true,"rental_uris":{"android":"levelo://app?vid=f7e79517-161a-451a-8a95-bb710b1b4d21","ios":"levelo://app?vid=f7e79517-161a-451a-8a95-bb710b1b4d21"},"vehicle_type_id":"4","last_reported":1773830446,"current_range_meters":4800,"station_id":"ce4bgph2rcd13ifvqc2g","pricing_plan_id":"cebpf4jnsgd1na2vs0mg"},{"bike_id":"9d940959-8b01-402d-90c3-07b9434dca7b","system_id":"levelo_inurba_marseille","lat":43.23793,"lon":5.36617,"is_reserved":false,"is_disabled":false,"rental_uris":{"android":"levelo://app?vid=9d940959-8b01-402d-90c3-07b9434dca7b","ios":"levelo://app?vid=9d940959-8b01-402d-90c3-07b9434dca7b"},"vehicle_type_id":"4","last_reported":1773830446,"current_range_meters":4800,"station_id":"st_d3nk18o9ro0c73en2l3g","pricing_plan_id":"cebpf4jnsgd1na2vs0mg"},{"bike_id":"1087517f-7252-4927-83ed-7ed14a3240b0","system_id":"levelo_inurba_marseille","lat":43.30947,"lon":5.39042,"is_reserved":false,"is_disabled":false,"rental_uris":{"android":"levelo://app?vid=1087517f-7252-4927-83ed-7ed14a3240b0","ios":"levelo://app?vid=1087517f-7252-4927-83ed-7ed14a3240b0"},"vehicle_type_id":"4","last_reported":1773830446,"current_range_meters":4800,"station_id":"ce4bgup2rcd13ifvqco0","pricing_plan_id":"cebpf4jnsgd1na2vs0mg"},{"bike_id":"b5b8b144-cfaf-4287-9933-5469d18ff1ca","system_id":"levelo_inurba_marseille","lat":43.28715,"lon":5.3792,"is_reserved":false,"is_disabled":true,"rental_uris":{"android":"levelo://app?vid=b5b8b144-cfaf-4287-9933-5469d18ff1ca","ios":"levelo://app?vid=b5b8b144-cfaf-4287-9933-5469d18ff1ca"},"vehicle_type_id":"4","last_reported":1773830446,"current_range_meters":4800,"station_id":"ce4bh9p2rcd13ifvqec0","pricing_plan_id":"cebpf4jnsgd1na2vs0mg"},{"bike_id":"847d4693-77d7-4471-b991-ce5127a5399e","system_id":"levelo_inurba_marseille","lat":43.33585,"lon":5.40997,"is_reserved":false,"is_disabled":false,"rental_uris":{"android":"levelo://app?vid=847d4693-77d7-4471-b991-ce5127a5399e","ios":"levelo://app?vid=847d4693-77d7-4471-b991-ce5127a5399e"},"vehicle_type_id":"4","last_reported":1773830446,"current_range_meters":4800,"station_id":"ce4bhqh2rcd13ifvqhmg","pricing_plan_id":"cebpf4jnsgd1na2vs0mg"},{"bike_id":"7c27bbc1-43c8-4af1-8a34-48b79713d044","system_id":"levelo_inurba_marseille","lat":43.21187,"lon":5.35073,"is_reserved":false,"is_disabled":false,"rental_uris":{"android":"levelo://app?vid=7c27bbc1-43c8-4af1-8a34-48b79713d044","ios":"levelo://app?vid=7c27bbc1-43c8-4af1-8a34-48b79713d044"},"vehicle_type_id":"4","last_reported":1773830446,"current_range_meters":4800,"station_id":"st_cvj6sg6p6f1abm77japg","pricing_plan_id":"cebpf4jnsgd1na2vs0mg"},{"bike_id":"bf249f81-2ef0-45f9-a595-8436dd14fe0c","system_id":"levelo_inurba_marseille","lat":43.32102,"lon":5.36734,"is_reserved":false,"is_disabled":false,"rental_uris":{"android":"levelo://app?vid=bf249f81-2ef0-45f9-a595-8436dd14fe0c","ios":"levelo://app?vid=bf249f81-2ef0-45f9-a595-8436dd14fe0c"},"vehicle_type_id":"4","last_reported":1773830446,"current_range_meters":4800,"station_id":"ce4bhrh2rcd13ifvqhug","pricing_plan_id":"cebpf4jnsgd1na2vs0mg"},{"bike_id":"2766531c-9d05-4842-a2e2-e847b8b79916","system_id":"levelo_inurba_marseille","lat":43.29882,"lon":5.3974,"is_reserved":false,"is_disabled":false,"rental_uris":{"android":"levelo://app?vid=2766531c-9d05-4842-a2e2-e847b8b79916","ios":"levelo://app?vid=2766531c-9d05-4842-a2e2-e847b8b79916"},"vehicle_type_id":"4","last_reported":1773830446,"current_range_meters":4800,"station_id":"ce4bh0h2rcd13ifvqd50","pricing_plan_id":"cebpf4jnsgd1na2vs0mg"},{"bike_id":"64e4942c-04ec-475a-8745-de522dcf5faa","system_id":"levelo_inurba_marseille","lat":43.22925,"lon":5.35375,"is_reserved":false,"is_disabled":false,"rental_uris":{"android":"levelo://app?vid=64e4942c-04ec-475a-8745-de522dcf5faa","ios":"levelo://app?vid=64e4942c-04ec-475a-8745-de522dcf5faa"},"vehicle_type_id":"4","last_reported":1773830446,"current_range_meters":4800,"station_id":"cpo3532slgdg3j2ikp40","pricing_plan_id":"cebpf4jnsgd1na2vs0mg"},{"bike_id":"811cb60e-c2e0-4eff-a720-ab1d90d9f80a","system_id":"levelo_inurba_marseille","lat":43.23389,"lon":5.41234,"is_reserved":false,"is_disabled":false,"rental_uris":{"android":"levelo://app?vid=811cb60e-c2e0-4eff-a720-ab1d90d9f80a","ios":"levelo://app?vid=811cb60e-c2e0-4eff-a720-ab1d90d9f80a"},"vehicle_type_id":"4","last_reported":1773830446,"current_range_meters":4800,"station_id":"","pricing_plan_id":"cebpf4jnsgd1na2vs0mg"},{"bike_id":"bf3f7384-e435-4586-a1ba-6882f33891b2","system_id":"levelo_inurba_marseille","lat":43.23193,"lon":5.35548,"is_reserved":false,"is_disabled":false,"rental_uris":{"android":"levelo://app?vid=bf3f7384-e435-4586-a1ba-6882f33891b2","ios":"levelo://app?vid=bf3f7384-e435-4586-a1ba-6882f33891b2"},"vehicle_type_id":"4","last_reported":1773830446,"current_range_meters":4800,"station_id":"ce4bhu92rcd13ifvqi70","pricing_plan_id":"cebpf4jnsgd1na2vs0mg"},{"bike_id":"c2c7c530-5d90-493e-bc68-4654d00e1dc7","system_id":"levelo_inurba_marseille","lat":43.25206,"lon":5.40634,"is_reserved":false,"is_disabled":false,"rental_uris":{"android":"levelo://app?vid=c2c7c530-5d90-493e-bc68-4654d00e1dc7","ios":"levelo://app?vid=c2c7c530-5d90-493e-bc68-4654d00e1dc7"},"vehicle_type_id":"4","last_reported":1773830446,"current_range_meters":4800,"station_id":"","pricing_plan_id":"cebpf4jnsgd1na2vs0mg"},{"bike_id":"7ada2641-316b-4e07-8cf0-f1c79c755356","system_id":"levelo_inurba_marseille","lat":43.24933,"lon":5.40503,"is_reserved":false,"is_disabled":false,"rental_uris":{"android":"levelo://app?vid=7ada2641-316b-4e07-8cf0-f1c79c755356","ios":"levelo://app?vid=7ada2641-316b-4e07-8cf0-f1c79c755356"},"vehicle_type_id":"4","last_reported":1773830446,"current_range_meters":5600,"station_id":"st_d2ngiaodas8pm72gd1h0","pricing_plan_id":"cebpf4jnsgd1na2vs0mg"},{"bike_id":"4f5be7bd-8bd9-4195-8304-bfa4c36e87f7","system_id":"levelo_inurba_marseille","lat":43.29485,"lon":5.43305,"is_reserved":false,"is_disabled":false,"rental_uris":{"android":"levelo://app?vid=4f5be7bd-8bd9-4195-8304-bfa4c36e87f7","ios":"levelo://app?vid=4f5be7bd-8bd9-4195-8304-bfa4c36e87f7"},"vehicle_type_id":"4","last_reported":1773830446,"current_range_meters":5600,"station_id":"st_d3j5ugp08ojc73fj9d10","pricing_plan_id":"cebpf4jnsgd1na2vs0mg"},{"bike_id":"09f02d40-2974-4297-a2c7-e005a4506121","system_id":"levelo_inurba_marseille","lat":43.28442,"lon":5.39198,"is_reserved":false,"is_disabled":false,"rental_uris":{"android":"levelo://app?vid=09f02d40-2974-4297-a2c7-e005a4506121","ios":"levelo://app?vid=09f02d40-2974-4297-a2c7-e005a4506121"},"vehicle_type_id":"4","last_reported":1773830446,"current_range_meters":5600,"station_id":"ce4bhoh2rcd13ifvqh5g","pricing_plan_id":"cebpf4jnsgd1na2vs0mg"},{"bike_id":"7e372e61-a4a4-4320-b78e-0115edf72ed5","system_id":"levelo_inurba_marseille","lat":43.24175,"lon":5.36398,"is_reserved":false,"is_disabled":true,"rental_uris":{"android":"levelo://app?vid=7e372e61-a4a4-4320-b78e-0115edf72ed5","ios":"levelo://app?vid=7e372e61-a4a4-4320-b78e-0115edf72ed5"},"vehicle_type_id":"4","last_reported":1773830446,"current_range_meters":5600,"station_id":"cpo36qri1sfpv3e86is0","pricing_plan_id":"cebpf4jnsgd1na2vs0mg"},{"bike_id":"b28612e8-5afe-40d1-881e-117417946dc7","system_id":"levelo_inurba_marseille","lat":43.26546,"lon":5.37274,"is_reserved":false,"is_disabled":false,"rental_uris":{"android":"levelo://app?vid=b28612e8-5afe-40d1-881e-117417946dc7","ios":"levelo://app?vid=b28612e8-5afe-40d1-881e-117417946dc7"},"vehicle_type_id":"4","last_reported":1773830446,"current_range_meters":5600,"station_id":"ce4bhg12rcd13ifvqf70","pricing_plan_id":"cebpf4jnsgd1na2vs0mg"},{"bike_id":"96dac97a-0c76-4079-a74f-d3b50e0ff04c","system_id":"levelo_inurba_marseille","lat":43.21191,"lon":5.35062,"is_reserved":false,"is_disabled":false,"rental_uris":{"android":"levelo://app?vid=96dac97a-0c76-4079-a74f-d3b50e0ff04c","ios":"levelo://app?vid=96dac97a-0c76-4079-a74f-d3b50e0ff04c"},"vehicle_type_id":"4","last_reported":1773830446,"current_range_meters":5600,"station_id":"st_cvj6sg6p6f1abm77japg","pricing_plan_id":"cebpf4jnsgd1na2vs0mg"},{"bike_id":"a0ac2246-9e7f-437c-a4db-c626663f282c","system_id":"levelo_inurba_marseille","lat":43.31208,"lon":5.36876,"is_reserved":false,"is_disabled":false,"rental_uris":{"android":"levelo://app?vid=a0ac2246-9e7f-437c-a4db-c626663f282c","ios":"levelo://app?vid=a0ac2246-9e7f-437c-a4db-c626663f282c"},"vehicle_type_id":"4","last_reported":1773830446,"current_range_meters":5600,"station_id":"ce4bgl92rcd13ifvqbq0","pricing_plan_id":"cebpf4jnsgd1na2vs0mg"},{"bike_id":"2874775b-146e-45de-9a13-98bbe699d55d","system_id":"levelo_inurba_marseille","lat":43.2463,"lon":5.43161,"is_reserved":false,"is_disabled":true,"rental_uris":{"android":"levelo://app?vid=2874775b-146e-45de-9a13-98bbe699d55d","ios":"levelo://app?vid=2874775b-146e-45de-9a13-98bbe699d55d"},"vehicle_type_id":"4","last_reported":1773830446,"current_range_meters":5600,"station_id":"","pricing_plan_id":"cebpf4jnsgd1na2vs0mg"},{"bike_id":"0940c0ab-3cca-4660-9974-509b4f5e9818","system_id":"levelo_inurba_marseille","lat":43.28928,"lon":5.39521,"is_reserved":false,"is_disabled":false,"rental_uris":{"android":"levelo://app?vid=0940c0ab-3cca-4660-9974-509b4f5e9818","ios":"levelo://app?vid=0940c0ab-3cca-4660-9974-509b4f5e9818"},"vehicle_type_id":"4","last_reported":1773830446,"current_range_meters":5600,"station_id":"","pricing_plan_id":"cebpf4jnsgd1na2vs0mg"},{"bike_id":"48a13444-46a5-4b65-8f70-d28e54c5c60c","system_id":"levelo_inurba_marseille","lat":43.3026,"lon":5.36875,"is_reserved":false,"is_disabled":false,"rental_uris":{"android":"levelo://app?vid=48a13444-46a5-4b65-8f70-d28e54c5c60c","ios":"levelo://app?vid=48a13444-46a5-4b65-8f70-d28e54c5c60c"},"vehicle_type_id":"4","last_reported":1773830446,"current_range_meters":5600,"station_id":"ce4bgqh2rcd13ifvqc5g","pricing_plan_id":"cebpf4jnsgd1na2vs0mg"},{"bike_id":"077ada9a-522a-41df-ad39-ea1bc4f99858","system_id":"levelo_inurba_marseille","lat":43.23134,"lon":5.43685,"is_reserved":false,"is_disabled":false,"rental_uris":{"android":"levelo://app?vid=077ada9a-522a-41df-ad39-ea1bc4f99858","ios":"levelo://app?vid=077ada9a-522a-41df-ad39-ea1bc4f99858"},"vehicle_type_id":"4","last_reported":1773830446,"current_range_meters":6000,"station_id":"ce4bhmp2rcd13ifvqgog","pricing_plan_id":"cebpf4jnsgd1na2vs0mg"},{"bike_id":"77f82e91-30b6-4c8c-a0ef-dfcf78d748db","system_id":"levelo_inurba_marseille","lat":43.28862,"lon":5.42531,"is_reserved":false,"is_disabled":false,"rental_uris":{"android":"levelo://app?vid=77f82e91-30b6-4c8c-a0ef-dfcf78d748db","ios":"levelo://app?vid=77f82e91-30b6-4c8c-a0ef-dfcf78d748db"},"vehicle_type_id":"4","last_reported":1773830446,"current_range_meters":6000,"station_id":"","pricing_plan_id":"cebpf4jnsgd1na2vs0mg"},{"bike_id":"d07643db-10aa-41b5-8d70-a93cb4b70050","system_id":"levelo_inurba_marseille","lat":43.23706,"lon":5.40217,"is_reserved":false,"is_disabled":false,"rental_uris":{"android":"levelo://app?vid=d07643db-10aa-41b5-8d70-a93cb4b70050","ios":"levelo://app?vid=d07643db-10aa-41b5-8d70-a93cb4b70050"},"vehicle_type_id":"4","last_reported":1773830446,"current_range_meters":6000,"station_id":"","pricing_plan_id":"cebpf4jnsgd1na2vs0mg"},{"bike_id":"94f8f466-8e71-4f87-978f-df55f1bc6e54","system_id":"levelo_inurba_marseille","lat":43.21185,"lon":5.3507,"is_reserved":false,"is_disabled":false,"rental_uris":{"android":"levelo://app?vid=94f8f466-8e71-4f87-978f-df55f1bc6e54","ios":"levelo://app?vid=94f8f466-8e71-4f87-978f-df55f1bc6e54"},"vehicle_type_id":"4","last_reported":1773830446,"current_range_meters":6000,"station_id":"st_cvj6sg6p6f1abm77japg","pricing_plan_id":"cebpf4jnsgd1na2vs0mg"},{"bike_id":"7bd419bf-7063-4648-840f-e4e63ac8cb30","system_id":"levelo_inurba_marseille","lat":43.27996,"lon":5.39994,"is_reserved":false,"is_disabled":true,"rental_uris":{"android":"levelo://app?vid=7bd419bf-7063-4648-840f-e4e63ac8cb30","ios":"levelo://app?vid=7bd419bf-7063-4648-840f-e4e63ac8cb30"},"vehicle_type_id":"4","last_reported":1773830446,"current_range_meters":6000,"station_id":"ce4bho92rcd13ifvqh4g","pricing_plan_id":"cebpf4jnsgd1na2vs0mg"},{"bike_id":"31e3819a-f513-4a8d-9344-521f47e7b0f9","system_id":"levelo_inurba_marseille","lat":43.28509,"lon":5.44079,"is_reserved":false,"is_disabled":false,"rental_uris":{"android":"levelo://app?vid=31e3819a-f513-4a8d-9344-521f47e7b0f9","ios":"levelo://app?vid=31e3819a-f513-4a8d-9344-521f47e7b0f9"},"vehicle_type_id":"4","last_reported":1773830446,"current_range_meters":6000,"station_id":"st_d3j3df2ikq2c7380ej80","pricing_plan_id":"cebpf4jnsgd1na2vs0mg"},{"bike_id":"71d1fbee-1405-484b-ac1a-38d153e0f20a","system_id":"levelo_inurba_marseille","lat":43.29252,"lon":5.37629,"is_reserved":false,"is_disabled":false,"rental_uris":{"android":"levelo://app?vid=71d1fbee-1405-484b-ac1a-38d153e0f20a","ios":"levelo://app?vid=71d1fbee-1405-484b-ac1a-38d153e0f20a"},"vehicle_type_id":"4","last_reported":1773830446,"current_range_meters":6000,"station_id":"","pricing_plan_id":"cebpf4jnsgd1na2vs0mg"},{"bike_id":"82dcdf4f-8f8d-49c8-bf8f-175264f4f3bd","system_id":"levelo_inurba_marseille","lat":43.22539,"lon":5.34826,"is_reserved":false,"is_disabled":false,"rental_uris":{"android":"levelo://app?vid=82dcdf4f-8f8d-49c8-bf8f-175264f4f3bd","ios":"levelo://app?vid=82dcdf4f-8f8d-49c8-bf8f-175264f4f3bd"},"vehicle_type_id":"4","last_reported":1773830446,"current_range_meters":6000,"station_id":"st_cvj5dfep6f1abm77gieg","pricing_plan_id":"cebpf4jnsgd1na2vs0mg"},{"bike_id":"11f2899e-c292-4a74-8610-546a51618984","system_id":"levelo_inurba_marseille","lat":43.29878,"lon":5.39738,"is_reserved":false,"is_disabled":false,"rental_uris":{"android":"levelo://app?vid=11f2899e-c292-4a74-8610-546a51618984","ios":"levelo://app?vid=11f2899e-c292-4a74-8610-546a51618984"},"vehicle_type_id":"4","last_reported":1773830446,"current_range_meters":6000,"station_id":"ce4bh0h2rcd13ifvqd50","pricing_plan_id":"cebpf4jnsgd1na2vs0mg"},{"bike_id":"e19bbcec-af9d-483d-ac29-18df3b9c0ab9","system_id":"levelo_inurba_marseille","lat":43.28468,"lon":5.48406,"is_reserved":false,"is_disabled":false,"rental_uris":{"android":"levelo://app?vid=e19bbcec-af9d-483d-ac29-18df3b9c0ab9","ios":"levelo://app?vid=e19bbcec-af9d-483d-ac29-18df3b9c0ab9"},"vehicle_type_id":"4","last_reported":1773830446,"current_range_meters":6000,"station_id":"st_d3svhcjqgbts73a3dn0g","pricing_plan_id":"cebpf4jnsgd1na2vs0mg"},{"bike_id":"f7cad0dd-4929-454b-8848-7575c69435e1","system_id":"levelo_inurba_marseille","lat":43.25862,"lon":5.39909,"is_reserved":false,"is_disabled":true,"rental_uris":{"android":"levelo://app?vid=f7cad0dd-4929-454b-8848-7575c69435e1","ios":"levelo://app?vid=f7cad0dd-4929-454b-8848-7575c69435e1"},"vehicle_type_id":"4","last_reported":1773830446,"current_range_meters":6000,"station_id":"ce4bhl92rcd13ifvqghg","pricing_plan_id":"cebpf4jnsgd1na2vs0mg"},{"bike_id":"0f8a9057-1ae1-45b6-af9b-ff1d43f8fd7d","system_id":"levelo_inurba_marseille","lat":43.28513,"lon":5.44076,"is_reserved":false,"is_disabled":false,"rental_uris":{"android":"levelo://app?vid=0f8a9057-1ae1-45b6-af9b-ff1d43f8fd7d","ios":"levelo://app?vid=0f8a9057-1ae1-45b6-af9b-ff1d43f8fd7d"},"vehicle_type_id":"4","last_reported":1773830446,"current_range_meters":6000,"station_id":"st_d3j3df2ikq2c7380ej80","pricing_plan_id":"cebpf4jnsgd1na2vs0mg"},{"bike_id":"b9f2e5d5-d6ac-4c0d-86f2-4fe1a54ef3b3","system_id":"levelo_inurba_marseille","lat":43.32108,"lon":5.36736,"is_reserved":false,"is_disabled":false,"rental_uris":{"android":"levelo://app?vid=b9f2e5d5-d6ac-4c0d-86f2-4fe1a54ef3b3","ios":"levelo://app?vid=b9f2e5d5-d6ac-4c0d-86f2-4fe1a54ef3b3"},"vehicle_type_id":"4","last_reported":1773830446,"current_range_meters":6000,"station_id":"ce4bhrh2rcd13ifvqhug","pricing_plan_id":"cebpf4jnsgd1na2vs0mg"},{"bike_id":"e64cfd25-fa2a-4361-a914-35d7799c7158","system_id":"levelo_inurba_marseille","lat":43.29879,"lon":5.38905,"is_reserved":false,"is_disabled":false,"rental_uris":{"android":"levelo://app?vid=e64cfd25-fa2a-4361-a914-35d7799c7158","ios":"levelo://app?vid=e64cfd25-fa2a-4361-a914-35d7799c7158"},"vehicle_type_id":"4","last_reported":1773830446,"current_range_meters":6400,"station_id":"ce4bh392rcd13ifvqdl0","pricing_plan_id":"cebpf4jnsgd1na2vs0mg"},{"bike_id":"fdecd160-76e3-42a9-a844-a39b7ba69ed8","system_id":"levelo_inurba_marseille","lat":43.28264,"lon":5.35062,"is_reserved":false,"is_disabled":false,"rental_uris":{"android":"levelo://app?vid=fdecd160-76e3-42a9-a844-a39b7ba69ed8","ios":"levelo://app?vid=fdecd160-76e3-42a9-a844-a39b7ba69ed8"},"vehicle_type_id":"4","last_reported":1773830446,"current_range_meters":6400,"station_id":"ce4bhbp2rcd13ifvqerg","pricing_plan_id":"cebpf4jnsgd1na2vs0mg"},{"bike_id":"0aa81194-5fca-4a70-91c6-3ef30d559635","system_id":"levelo_inurba_marseille","lat":43.24387,"lon":5.37044,"is_reserved":false,"is_disabled":false,"rental_uris":{"android":"levelo://app?vid=0aa81194-5fca-4a70-91c6-3ef30d559635","ios":"levelo://app?vid=0aa81194-5fca-4a70-91c6-3ef30d559635"},"vehicle_type_id":"4","last_reported":1773830446,"current_range_meters":6400,"station_id":"ce4bhhh2rcd13ifvqfk0","pricing_plan_id":"cebpf4jnsgd1na2vs0mg"},{"bike_id":"e563383a-8a89-4304-b11f-18268886193e","system_id":"levelo_inurba_marseille","lat":43.25585,"lon":5.38217,"is_reserved":false,"is_disabled":false,"rental_uris":{"android":"levelo://app?vid=e563383a-8a89-4304-b11f-18268886193e","ios":"levelo://app?vid=e563383a-8a89-4304-b11f-18268886193e"},"vehicle_type_id":"4","last_reported":1773830446,"current_range_meters":6400,"station_id":"ce4bhih2rcd13ifvqfs0","pricing_plan_id":"cebpf4jnsgd1na2vs0mg"},{"bike_id":"398a9d60-0718-4d42-a3ad-370773bdae58","system_id":"levelo_inurba_marseille","lat":43.30316,"lon":5.36894,"is_reserved":false,"is_disabled":false,"rental_uris":{"android":"levelo://app?vid=398a9d60-0718-4d42-a3ad-370773bdae58","ios":"levelo://app?vid=398a9d60-0718-4d42-a3ad-370773bdae58"},"vehicle_type_id":"4","last_reported":1773830446,"current_range_meters":6400,"station_id":"ce4bgqh2rcd13ifvqc5g","pricing_plan_id":"cebpf4jnsgd1na2vs0mg"},{"bike_id":"54230777-227e-4bf2-80e3-dd7a12aee99e","system_id":"levelo_inurba_marseille","lat":43.32542,"lon":5.41463,"is_reserved":false,"is_disabled":false,"rental_uris":{"android":"levelo://app?vid=54230777-227e-4bf2-80e3-dd7a12aee99e","ios":"levelo://app?vid=54230777-227e-4bf2-80e3-dd7a12aee99e"},"vehicle_type_id":"4","last_reported":1773830446,"current_range_meters":6400,"station_id":"","pricing_plan_id":"cebpf4jnsgd1na2vs0mg"},{"bike_id":"f8a00c49-c93d-41ce-9f11-d81257ca6394","system_id":"levelo_inurba_marseille","lat":43.22935,"lon":5.35369,"is_reserved":false,"is_disabled":false,"rental_uris":{"android":"levelo://app?vid=f8a00c49-c93d-41ce-9f11-d81257ca6394","ios":"levelo://app?vid=f8a00c49-c93d-41ce-9f11-d81257ca6394"},"vehicle_type_id":"4","last_reported":1773830446,"current_range_meters":6400,"station_id":"cpo3532slgdg3j2ikp40","pricing_plan_id":"cebpf4jnsgd1na2vs0mg"},{"bike_id":"8a00942b-2ac6-43aa-abf7-5e6e98252032","system_id":"levelo_inurba_marseille","lat":43.30144,"lon":5.37412,"is_reserved":false,"is_disabled":false,"rental_uris":{"android":"levelo://app?vid=8a00942b-2ac6-43aa-abf7-5e6e98252032","ios":"levelo://app?vid=8a00942b-2ac6-43aa-abf7-5e6e98252032"},"vehicle_type_id":"4","last_reported":1773830446,"current_range_meters":6400,"station_id":"ce4bgs92rcd13ifvqcc0","pricing_plan_id":"cebpf4jnsgd1na2vs0mg"},{"bike_id":"412b1028-06be-4a57-ab79-8d73741551ea","system_id":"levelo_inurba_marseille","lat":43.2861,"lon":5.37058,"is_reserved":false,"is_disabled":false,"rental_uris":{"android":"levelo://app?vid=412b1028-06be-4a57-ab79-8d73741551ea","ios":"levelo://app?vid=412b1028-06be-4a57-ab79-8d73741551ea"},"vehicle_type_id":"4","last_reported":1773830446,"current_range_meters":6400,"station_id":"ce4bht12rcd13ifvqi60","pricing_plan_id":"cebpf4jnsgd1na2vs0mg"},{"bike_id":"f55ead6a-bb51-419f-876f-0dd455ed8d43","system_id":"levelo_inurba_marseille","lat":43.28284,"lon":5.35084,"is_reserved":false,"is_disabled":false,"rental_uris":{"android":"levelo://app?vid=f55ead6a-bb51-419f-876f-0dd455ed8d43","ios":"levelo://app?vid=f55ead6a-bb51-419f-876f-0dd455ed8d43"},"vehicle_type_id":"4","last_reported":1773830446,"current_range_meters":6800,"station_id":"ce4bhbp2rcd13ifvqerg","pricing_plan_id":"cebpf4jnsgd1na2vs0mg"},{"bike_id":"b5af293d-1e36-45a6-8e0c-2208867b09e5","system_id":"levelo_inurba_marseille","lat":43.24075,"lon":5.37756,"is_reserved":false,"is_disabled":false,"rental_uris":{"android":"levelo://app?vid=b5af293d-1e36-45a6-8e0c-2208867b09e5","ios":"levelo://app?vid=b5af293d-1e36-45a6-8e0c-2208867b09e5"},"vehicle_type_id":"4","last_reported":1773830446,"current_range_meters":6800,"station_id":"ce4bhnp2rcd13ifvqgvg","pricing_plan_id":"cebpf4jnsgd1na2vs0mg"},{"bike_id":"0ad4a684-db39-4af3-b1f2-8ab09b04dcb9","system_id":"levelo_inurba_marseille","lat":43.29041,"lon":5.39962,"is_reserved":false,"is_disabled":true,"rental_uris":{"android":"levelo://app?vid=0ad4a684-db39-4af3-b1f2-8ab09b04dcb9","ios":"levelo://app?vid=0ad4a684-db39-4af3-b1f2-8ab09b04dcb9"},"vehicle_type_id":"4","last_reported":1773830446,"current_range_meters":6800,"station_id":"","pricing_plan_id":"cebpf4jnsgd1na2vs0mg"},{"bike_id":"901c28db-c015-4313-845b-db71a8b5949f","system_id":"levelo_inurba_marseille","lat":43.2417,"lon":5.39744,"is_reserved":false,"is_disabled":false,"rental_uris":{"android":"levelo://app?vid=901c28db-c015-4313-845b-db71a8b5949f","ios":"levelo://app?vid=901c28db-c015-4313-845b-db71a8b5949f"},"vehicle_type_id":"4","last_reported":1773830446,"current_range_meters":6800,"station_id":"ce4bhn12rcd13ifvqgpg","pricing_plan_id":"cebpf4jnsgd1na2vs0mg"},{"bike_id":"54ef3086-78c0-46f3-aaac-61b27bd0b964","system_id":"levelo_inurba_marseille","lat":43.28688,"lon":5.36366,"is_reserved":false,"is_disabled":false,"rental_uris":{"android":"levelo://app?vid=54ef3086-78c0-46f3-aaac-61b27bd0b964","ios":"levelo://app?vid=54ef3086-78c0-46f3-aaac-61b27bd0b964"},"vehicle_type_id":"4","last_reported":1773830446,"current_range_meters":6800,"station_id":"ce4bhah2rcd13ifvqej0","pricing_plan_id":"cebpf4jnsgd1na2vs0mg"},{"bike_id":"d1d58ffe-2b74-486b-89f8-33ac7a985d1b","system_id":"levelo_inurba_marseille","lat":43.25935,"lon":5.40917,"is_reserved":false,"is_disabled":false,"rental_uris":{"android":"levelo://app?vid=d1d58ffe-2b74-486b-89f8-33ac7a985d1b","ios":"levelo://app?vid=d1d58ffe-2b74-486b-89f8-33ac7a985d1b"},"vehicle_type_id":"4","last_reported":1773830446,"current_range_meters":6800,"station_id":"ce4bhm92rcd13ifvqglg","pricing_plan_id":"cebpf4jnsgd1na2vs0mg"},{"bike_id":"70f98469-d2c0-43f4-9102-c6ad6fb97bca","system_id":"levelo_inurba_marseille","lat":43.21739,"lon":5.34599,"is_reserved":false,"is_disabled":false,"rental_uris":{"android":"levelo://app?vid=70f98469-d2c0-43f4-9102-c6ad6fb97bca","ios":"levelo://app?vid=70f98469-d2c0-43f4-9102-c6ad6fb97bca"},"vehicle_type_id":"4","last_reported":1773830446,"current_range_meters":6800,"station_id":"st_cvj6r9ubvosntc0bgbag","pricing_plan_id":"cebpf4jnsgd1na2vs0mg"},{"bike_id":"a85feb76-c399-476e-ac57-90342e079215","system_id":"levelo_inurba_marseille","lat":43.33164,"lon":5.37686,"is_reserved":false,"is_disabled":false,"rental_uris":{"android":"levelo://app?vid=a85feb76-c399-476e-ac57-90342e079215","ios":"levelo://app?vid=a85feb76-c399-476e-ac57-90342e079215"},"vehicle_type_id":"4","last_reported":1773830446,"current_range_meters":6800,"station_id":"st_d46cu089ee8s73dldbu0","pricing_plan_id":"cebpf4jnsgd1na2vs0mg"},{"bike_id":"efa56788-fd95-4d6e-84ce-b31b80bc3dea","system_id":"levelo_inurba_marseille","lat":43.29311,"lon":5.37463,"is_reserved":false,"is_disabled":true,"rental_uris":{"android":"levelo://app?vid=efa56788-fd95-4d6e-84ce-b31b80bc3dea","ios":"levelo://app?vid=efa56788-fd95-4d6e-84ce-b31b80bc3dea"},"vehicle_type_id":"4","last_reported":1773830446,"current_range_meters":6800,"station_id":"ce4bgi12rcd13ifvqb70","pricing_plan_id":"cebpf4jnsgd1na2vs0mg"},{"bike_id":"69f9e7d0-9e6e-48d9-8402-311a294217e6","system_id":"levelo_inurba_marseille","lat":43.29351,"lon":5.37874,"is_reserved":false,"is_disabled":true,"rental_uris":{"android":"levelo://app?vid=69f9e7d0-9e6e-48d9-8402-311a294217e6","ios":"levelo://app?vid=69f9e7d0-9e6e-48d9-8402-311a294217e6"},"vehicle_type_id":"4","last_reported":1773830446,"current_range_meters":6800,"station_id":"ce4bgjh2rcd13ifvqbf0","pricing_plan_id":"cebpf4jnsgd1na2vs0mg"},{"bike_id":"a59eb050-ef44-43db-b2dd-a907f09304b7","system_id":"levelo_inurba_marseille","lat":43.29274,"lon":5.36843,"is_reserved":false,"is_disabled":false,"rental_uris":{"android":"levelo://app?vid=a59eb050-ef44-43db-b2dd-a907f09304b7","ios":"levelo://app?vid=a59eb050-ef44-43db-b2dd-a907f09304b7"},"vehicle_type_id":"4","last_reported":1773830446,"current_range_meters":6800,"station_id":"ce4bhbp2rcd13ifvqesg","pricing_plan_id":"cebpf4jnsgd1na2vs0mg"},{"bike_id":"75679cee-9f6a-4898-85df-049d18aab78a","system_id":"levelo_inurba_marseille","lat":43.24392,"lon":5.3709,"is_reserved":false,"is_disabled":false,"rental_uris":{"android":"levelo://app?vid=75679cee-9f6a-4898-85df-049d18aab78a","ios":"levelo://app?vid=75679cee-9f6a-4898-85df-049d18aab78a"},"vehicle_type_id":"4","last_reported":1773830446,"current_range_meters":6800,"station_id":"ce4bhhh2rcd13ifvqfk0","pricing_plan_id":"cebpf4jnsgd1na2vs0mg"},{"bike_id":"ba9acaf9-a04f-4cb7-b51f-474779e95aec","system_id":"levelo_inurba_marseille","lat":43.29194,"lon":5.39319,"is_reserved":false,"is_disabled":true,"rental_uris":{"android":"levelo://app?vid=ba9acaf9-a04f-4cb7-b51f-474779e95aec","ios":"levelo://app?vid=ba9acaf9-a04f-4cb7-b51f-474779e95aec"},"vehicle_type_id":"4","last_reported":1773830446,"current_range_meters":6800,"station_id":"ce4bh192rcd13ifvqdd0","pricing_plan_id":"cebpf4jnsgd1na2vs0mg"},{"bike_id":"3feb4c73-6e63-47f9-927f-446525b49f72","system_id":"levelo_inurba_marseille","lat":43.31906,"lon":5.36812,"is_reserved":false,"is_disabled":false,"rental_uris":{"android":"levelo://app?vid=3feb4c73-6e63-47f9-927f-446525b49f72","ios":"levelo://app?vid=3feb4c73-6e63-47f9-927f-446525b49f72"},"vehicle_type_id":"4","last_reported":1773830446,"current_range_meters":6800,"station_id":"st_d6o2h0d0559c73evc1b0","pricing_plan_id":"cebpf4jnsgd1na2vs0mg"},{"bike_id":"251b7e37-cfc9-4b36-b9b4-7aa83e45ffad","system_id":"levelo_inurba_marseille","lat":43.26563,"lon":5.38994,"is_reserved":false,"is_disabled":false,"rental_uris":{"android":"levelo://app?vid=251b7e37-cfc9-4b36-b9b4-7aa83e45ffad","ios":"levelo://app?vid=251b7e37-cfc9-4b36-b9b4-7aa83e45ffad"},"vehicle_type_id":"4","last_reported":1773830446,"current_range_meters":6800,"station_id":"ce4bhe12rcd13ifvqf30","pricing_plan_id":"cebpf4jnsgd1na2vs0mg"},{"bike_id":"82877de1-c111-4a0f-9611-53e403501a39","system_id":"levelo_inurba_marseille","lat":43.25944,"lon":5.40909,"is_reserved":false,"is_disabled":false,"rental_uris":{"android":"levelo://app?vid=82877de1-c111-4a0f-9611-53e403501a39","ios":"levelo://app?vid=82877de1-c111-4a0f-9611-53e403501a39"},"vehicle_type_id":"4","last_reported":1773830446,"current_range_meters":7200,"station_id":"ce4bhm92rcd13ifvqglg","pricing_plan_id":"cebpf4jnsgd1na2vs0mg"},{"bike_id":"f73db6d9-2a65-4f2c-a1d0-e3040f08eccf","system_id":"levelo_inurba_marseille","lat":43.23191,"lon":5.35544,"is_reserved":false,"is_disabled":false,"rental_uris":{"android":"levelo://app?vid=f73db6d9-2a65-4f2c-a1d0-e3040f08eccf","ios":"levelo://app?vid=f73db6d9-2a65-4f2c-a1d0-e3040f08eccf"},"vehicle_type_id":"4","last_reported":1773830446,"current_range_meters":7200,"station_id":"ce4bhu92rcd13ifvqi70","pricing_plan_id":"cebpf4jnsgd1na2vs0mg"},{"bike_id":"b703c509-0a53-4f14-907b-c60fb0017c10","system_id":"levelo_inurba_marseille","lat":43.31024,"lon":5.37115,"is_reserved":false,"is_disabled":false,"rental_uris":{"android":"levelo://app?vid=b703c509-0a53-4f14-907b-c60fb0017c10","ios":"levelo://app?vid=b703c509-0a53-4f14-907b-c60fb0017c10"},"vehicle_type_id":"4","last_reported":1773830446,"current_range_meters":7200,"station_id":"st_d4kl2rp97mjs73e7tdfg","pricing_plan_id":"cebpf4jnsgd1na2vs0mg"},{"bike_id":"affa91d1-81e6-49c6-8164-a3407522c26b","system_id":"levelo_inurba_marseille","lat":43.31277,"lon":5.40168,"is_reserved":false,"is_disabled":false,"rental_uris":{"android":"levelo://app?vid=affa91d1-81e6-49c6-8164-a3407522c26b","ios":"levelo://app?vid=affa91d1-81e6-49c6-8164-a3407522c26b"},"vehicle_type_id":"4","last_reported":1773830446,"current_range_meters":7200,"station_id":"ce4bh092rcd13ifvqd30","pricing_plan_id":"cebpf4jnsgd1na2vs0mg"},{"bike_id":"0de91aa7-85fc-42bc-9d70-ecd803417e08","system_id":"levelo_inurba_marseille","lat":43.27956,"lon":5.41045,"is_reserved":false,"is_disabled":true,"rental_uris":{"android":"levelo://app?vid=0de91aa7-85fc-42bc-9d70-ecd803417e08","ios":"levelo://app?vid=0de91aa7-85fc-42bc-9d70-ecd803417e08"},"vehicle_type_id":"4","last_reported":1773830446,"current_range_meters":7200,"station_id":"ce4bhnp2rcd13ifvqh0g","pricing_plan_id":"cebpf4jnsgd1na2vs0mg"},{"bike_id":"f20f82c5-e2c3-4db1-85d3-e096d4b03259","system_id":"levelo_inurba_marseille","lat":43.24647,"lon":5.38871,"is_reserved":false,"is_disabled":false,"rental_uris":{"android":"levelo://app?vid=f20f82c5-e2c3-4db1-85d3-e096d4b03259","ios":"levelo://app?vid=f20f82c5-e2c3-4db1-85d3-e096d4b03259"},"vehicle_type_id":"4","last_reported":1773830446,"current_range_meters":7200,"station_id":"ce4bhg12rcd13ifvqf60","pricing_plan_id":"cebpf4jnsgd1na2vs0mg"},{"bike_id":"17fc87a4-bceb-4d7f-9d3e-bbea5cd05894","system_id":"levelo_inurba_marseille","lat":43.29225,"lon":5.36067,"is_reserved":false,"is_disabled":false,"rental_uris":{"android":"levelo://app?vid=17fc87a4-bceb-4d7f-9d3e-bbea5cd05894","ios":"levelo://app?vid=17fc87a4-bceb-4d7f-9d3e-bbea5cd05894"},"vehicle_type_id":"4","last_reported":1773830446,"current_range_meters":7200,"station_id":"ce4bhbh2rcd13ifvqeqg","pricing_plan_id":"cebpf4jnsgd1na2vs0mg"},{"bike_id":"a266db77-7d4b-47a3-b204-b136086706b0","system_id":"levelo_inurba_marseille","lat":43.31175,"lon":5.36835,"is_reserved":false,"is_disabled":false,"rental_uris":{"android":"levelo://app?vid=a266db77-7d4b-47a3-b204-b136086706b0","ios":"levelo://app?vid=a266db77-7d4b-47a3-b204-b136086706b0"},"vehicle_type_id":"4","last_reported":1773830446,"current_range_meters":7200,"station_id":"","pricing_plan_id":"cebpf4jnsgd1na2vs0mg"},{"bike_id":"7c245f6b-63fb-4c36-8493-afb8fd5288f8","system_id":"levelo_inurba_marseille","lat":43.31191,"lon":5.39049,"is_reserved":false,"is_disabled":false,"rental_uris":{"android":"levelo://app?vid=7c245f6b-63fb-4c36-8493-afb8fd5288f8","ios":"levelo://app?vid=7c245f6b-63fb-4c36-8493-afb8fd5288f8"},"vehicle_type_id":"4","last_reported":1773830446,"current_range_meters":7200,"station_id":"","pricing_plan_id":"cebpf4jnsgd1na2vs0mg"},{"bike_id":"643281bc-1ddb-4326-b8ee-47c3de73f7fc","system_id":"levelo_inurba_marseille","lat":43.23051,"lon":5.35491,"is_reserved":false,"is_disabled":false,"rental_uris":{"android":"levelo://app?vid=643281bc-1ddb-4326-b8ee-47c3de73f7fc","ios":"levelo://app?vid=643281bc-1ddb-4326-b8ee-47c3de73f7fc"},"vehicle_type_id":"4","last_reported":1773830446,"current_range_meters":7200,"station_id":"cpo3342slgdg3j2ifvpg","pricing_plan_id":"cebpf4jnsgd1na2vs0mg"},{"bike_id":"2706db3b-3f01-4b6b-a1e9-42e6bda22571","system_id":"levelo_inurba_marseille","lat":43.26147,"lon":5.37301,"is_reserved":false,"is_disabled":false,"rental_uris":{"android":"levelo://app?vid=2706db3b-3f01-4b6b-a1e9-42e6bda22571","ios":"levelo://app?vid=2706db3b-3f01-4b6b-a1e9-42e6bda22571"},"vehicle_type_id":"4","last_reported":1773830446,"current_range_meters":7200,"station_id":"","pricing_plan_id":"cebpf4jnsgd1na2vs0mg"},{"bike_id":"052c329f-19a6-48ab-ba9f-1d15ae7d3f09","system_id":"levelo_inurba_marseille","lat":43.3104,"lon":5.37216,"is_reserved":false,"is_disabled":false,"rental_uris":{"android":"levelo://app?vid=052c329f-19a6-48ab-ba9f-1d15ae7d3f09","ios":"levelo://app?vid=052c329f-19a6-48ab-ba9f-1d15ae7d3f09"},"vehicle_type_id":"4","last_reported":1773830446,"current_range_meters":8000,"station_id":"","pricing_plan_id":"cebpf4jnsgd1na2vs0mg"},{"bike_id":"bd60a6ec-18d4-4476-ab1b-f354043c4b72","system_id":"levelo_inurba_marseille","lat":43.29798,"lon":5.42701,"is_reserved":false,"is_disabled":false,"rental_uris":{"android":"levelo://app?vid=bd60a6ec-18d4-4476-ab1b-f354043c4b72","ios":"levelo://app?vid=bd60a6ec-18d4-4476-ab1b-f354043c4b72"},"vehicle_type_id":"4","last_reported":1773830446,"current_range_meters":8000,"station_id":"","pricing_plan_id":"cebpf4jnsgd1na2vs0mg"},{"bike_id":"2f4efb97-069b-4d03-94d9-9d49e8b91a65","system_id":"levelo_inurba_marseille","lat":43.29556,"lon":5.37484,"is_reserved":false,"is_disabled":true,"rental_uris":{"android":"levelo://app?vid=2f4efb97-069b-4d03-94d9-9d49e8b91a65","ios":"levelo://app?vid=2f4efb97-069b-4d03-94d9-9d49e8b91a65"},"vehicle_type_id":"4","last_reported":1773830446,"current_range_meters":8000,"station_id":"ce4bgkp2rcd13ifvqbmg","pricing_plan_id":"cebpf4jnsgd1na2vs0mg"},{"bike_id":"4ca5e067-9350-4cc0-855c-d565dcef7221","system_id":"levelo_inurba_marseille","lat":43.23186,"lon":5.35562,"is_reserved":false,"is_disabled":false,"rental_uris":{"android":"levelo://app?vid=4ca5e067-9350-4cc0-855c-d565dcef7221","ios":"levelo://app?vid=4ca5e067-9350-4cc0-855c-d565dcef7221"},"vehicle_type_id":"4","last_reported":1773830446,"current_range_meters":8000,"station_id":"ce4bhu92rcd13ifvqi70","pricing_plan_id":"cebpf4jnsgd1na2vs0mg"},{"bike_id":"7d9d7aa8-fbf6-4ec2-9dd9-58e4fbfbf40b","system_id":"levelo_inurba_marseille","lat":43.33735,"lon":5.39179,"is_reserved":false,"is_disabled":false,"rental_uris":{"android":"levelo://app?vid=7d9d7aa8-fbf6-4ec2-9dd9-58e4fbfbf40b","ios":"levelo://app?vid=7d9d7aa8-fbf6-4ec2-9dd9-58e4fbfbf40b"},"vehicle_type_id":"4","last_reported":1773830446,"current_range_meters":8000,"station_id":"ce4bhr92rcd13ifvqhsg","pricing_plan_id":"cebpf4jnsgd1na2vs0mg"},{"bike_id":"a8831432-5dda-4112-a3e1-bcc9f2c881cc","system_id":"levelo_inurba_marseille","lat":43.2979,"lon":5.39362,"is_reserved":false,"is_disabled":true,"rental_uris":{"android":"levelo://app?vid=a8831432-5dda-4112-a3e1-bcc9f2c881cc","ios":"levelo://app?vid=a8831432-5dda-4112-a3e1-bcc9f2c881cc"},"vehicle_type_id":"4","last_reported":1773830446,"current_range_meters":8000,"station_id":"chh1huq6cuj3fo74tm60","pricing_plan_id":"cebpf4jnsgd1na2vs0mg"},{"bike_id":"d86f7f17-c40c-40d2-9445-70d30fa0ef64","system_id":"levelo_inurba_marseille","lat":43.21742,"lon":5.34595,"is_reserved":false,"is_disabled":true,"rental_uris":{"android":"levelo://app?vid=d86f7f17-c40c-40d2-9445-70d30fa0ef64","ios":"levelo://app?vid=d86f7f17-c40c-40d2-9445-70d30fa0ef64"},"vehicle_type_id":"4","last_reported":1773830446,"current_range_meters":8000,"station_id":"st_cvj6r9ubvosntc0bgbag","pricing_plan_id":"cebpf4jnsgd1na2vs0mg"},{"bike_id":"d0e658ae-6d7b-4756-a94b-be2999ddc02e","system_id":"levelo_inurba_marseille","lat":43.30693,"lon":5.39918,"is_reserved":false,"is_disabled":false,"rental_uris":{"android":"levelo://app?vid=d0e658ae-6d7b-4756-a94b-be2999ddc02e","ios":"levelo://app?vid=d0e658ae-6d7b-4756-a94b-be2999ddc02e"},"vehicle_type_id":"4","last_reported":1773830446,"current_range_meters":8000,"station_id":"","pricing_plan_id":"cebpf4jnsgd1na2vs0mg"},{"bike_id":"aafe2b99-28c9-4864-b0e8-45d46cc25909","system_id":"levelo_inurba_marseille","lat":43.30975,"lon":5.39032,"is_reserved":false,"is_disabled":false,"rental_uris":{"android":"levelo://app?vid=aafe2b99-28c9-4864-b0e8-45d46cc25909","ios":"levelo://app?vid=aafe2b99-28c9-4864-b0e8-45d46cc25909"},"vehicle_type_id":"4","last_reported":1773830446,"current_range_meters":8000,"station_id":"ce4bgup2rcd13ifvqco0","pricing_plan_id":"cebpf4jnsgd1na2vs0mg"},{"bike_id":"55bc7793-b953-4839-ac0e-e8ffa723bad6","system_id":"levelo_inurba_marseille","lat":43.30878,"lon":5.39648,"is_reserved":false,"is_disabled":false,"rental_uris":{"android":"levelo://app?vid=55bc7793-b953-4839-ac0e-e8ffa723bad6","ios":"levelo://app?vid=55bc7793-b953-4839-ac0e-e8ffa723bad6"},"vehicle_type_id":"4","last_reported":1773830446,"current_range_meters":8000,"station_id":"ce4bh012rcd13ifvqcv0","pricing_plan_id":"cebpf4jnsgd1na2vs0mg"},{"bike_id":"68efa146-ea2d-446b-949e-ea5852ef50c1","system_id":"levelo_inurba_marseille","lat":43.28572,"lon":5.3948,"is_reserved":false,"is_disabled":false,"rental_uris":{"android":"levelo://app?vid=68efa146-ea2d-446b-949e-ea5852ef50c1","ios":"levelo://app?vid=68efa146-ea2d-446b-949e-ea5852ef50c1"},"vehicle_type_id":"4","last_reported":1773830446,"current_range_meters":8000,"station_id":"ce4bh292rcd13ifvqdg0","pricing_plan_id":"cebpf4jnsgd1na2vs0mg"},{"bike_id":"41eddb91-9f23-4bfb-b1b1-be9d0638e06d","system_id":"levelo_inurba_marseille","lat":43.26684,"lon":5.3826,"is_reserved":false,"is_disabled":false,"rental_uris":{"android":"levelo://app?vid=41eddb91-9f23-4bfb-b1b1-be9d0638e06d","ios":"levelo://app?vid=41eddb91-9f23-4bfb-b1b1-be9d0638e06d"},"vehicle_type_id":"4","last_reported":1773830446,"current_range_meters":8000,"station_id":"ce4bhg92rcd13ifvqf90","pricing_plan_id":"cebpf4jnsgd1na2vs0mg"},{"bike_id":"383333ab-900a-4d8e-9e5f-5f8443133843","system_id":"levelo_inurba_marseille","lat":43.23986,"lon":5.36645,"is_reserved":false,"is_disabled":true,"rental_uris":{"android":"levelo://app?vid=383333ab-900a-4d8e-9e5f-5f8443133843","ios":"levelo://app?vid=383333ab-900a-4d8e-9e5f-5f8443133843"},"vehicle_type_id":"4","last_reported":1773830446,"current_range_meters":8000,"station_id":"ce4bhi12rcd13ifvqfp0","pricing_plan_id":"cebpf4jnsgd1na2vs0mg"},{"bike_id":"639bb6b3-4ec4-4153-8b41-915e2cf0b2f9","system_id":"levelo_inurba_marseille","lat":43.31372,"lon":5.36759,"is_reserved":false,"is_disabled":false,"rental_uris":{"android":"levelo://app?vid=639bb6b3-4ec4-4153-8b41-915e2cf0b2f9","ios":"levelo://app?vid=639bb6b3-4ec4-4153-8b41-915e2cf0b2f9"},"vehicle_type_id":"4","last_reported":1773830446,"current_range_meters":8000,"station_id":"","pricing_plan_id":"cebpf4jnsgd1na2vs0mg"},{"bike_id":"935da9a9-5f63-42ea-afe6-9baa0a1672c4","system_id":"levelo_inurba_marseille","lat":43.28316,"lon":5.4048,"is_reserved":false,"is_disabled":false,"rental_uris":{"android":"levelo://app?vid=935da9a9-5f63-42ea-afe6-9baa0a1672c4","ios":"levelo://app?vid=935da9a9-5f63-42ea-afe6-9baa0a1672c4"},"vehicle_type_id":"4","last_reported":1773830446,"current_range_meters":8000,"station_id":"","pricing_plan_id":"cebpf4jnsgd1na2vs0mg"},{"bike_id":"678b6c9c-a116-4af5-b89b-a22995431517","system_id":"levelo_inurba_marseille","lat":43.25557,"lon":5.38235,"is_reserved":false,"is_disabled":false,"rental_uris":{"android":"levelo://app?vid=678b6c9c-a116-4af5-b89b-a22995431517","ios":"levelo://app?vid=678b6c9c-a116-4af5-b89b-a22995431517"},"vehicle_type_id":"4","last_reported":1773830446,"current_range_meters":8000,"station_id":"ce4bhih2rcd13ifvqfs0","pricing_plan_id":"cebpf4jnsgd1na2vs0mg"},{"bike_id":"779b8a3c-1846-46b5-9cab-bf0ec2b1118f","system_id":"levelo_inurba_marseille","lat":43.28485,"lon":5.48397,"is_reserved":false,"is_disabled":false,"rental_uris":{"android":"levelo://app?vid=779b8a3c-1846-46b5-9cab-bf0ec2b1118f","ios":"levelo://app?vid=779b8a3c-1846-46b5-9cab-bf0ec2b1118f"},"vehicle_type_id":"4","last_reported":1773830446,"current_range_meters":8000,"station_id":"st_d3svhcjqgbts73a3dn0g","pricing_plan_id":"cebpf4jnsgd1na2vs0mg"},{"bike_id":"b933be80-1292-4915-aa4b-94a1a13e03e2","system_id":"levelo_inurba_marseille","lat":43.28575,"lon":5.39499,"is_reserved":false,"is_disabled":false,"rental_uris":{"android":"levelo://app?vid=b933be80-1292-4915-aa4b-94a1a13e03e2","ios":"levelo://app?vid=b933be80-1292-4915-aa4b-94a1a13e03e2"},"vehicle_type_id":"4","last_reported":1773830446,"current_range_meters":8000,"station_id":"ce4bh292rcd13ifvqdg0","pricing_plan_id":"cebpf4jnsgd1na2vs0mg"},{"bike_id":"58c09d1a-8208-4fa6-8c82-ca308155bd41","system_id":"levelo_inurba_marseille","lat":43.3133,"lon":5.39674,"is_reserved":false,"is_disabled":false,"rental_uris":{"android":"levelo://app?vid=58c09d1a-8208-4fa6-8c82-ca308155bd41","ios":"levelo://app?vid=58c09d1a-8208-4fa6-8c82-ca308155bd41"},"vehicle_type_id":"4","last_reported":1773830446,"current_range_meters":8400,"station_id":"ce4bgvp2rcd13ifvqcu0","pricing_plan_id":"cebpf4jnsgd1na2vs0mg"},{"bike_id":"78811ac8-d0b5-417a-afd7-1b7b81fef5f5","system_id":"levelo_inurba_marseille","lat":43.23149,"lon":5.43706,"is_reserved":false,"is_disabled":false,"rental_uris":{"android":"levelo://app?vid=78811ac8-d0b5-417a-afd7-1b7b81fef5f5","ios":"levelo://app?vid=78811ac8-d0b5-417a-afd7-1b7b81fef5f5"},"vehicle_type_id":"4","last_reported":1773830446,"current_range_meters":8400,"station_id":"ce4bhmp2rcd13ifvqgog","pricing_plan_id":"cebpf4jnsgd1na2vs0mg"},{"bike_id":"5d4f0ace-4abe-4c16-a1cc-e10ae7c1a306","system_id":"levelo_inurba_marseille","lat":43.29534,"lon":5.3749,"is_reserved":false,"is_disabled":false,"rental_uris":{"android":"levelo://app?vid=5d4f0ace-4abe-4c16-a1cc-e10ae7c1a306","ios":"levelo://app?vid=5d4f0ace-4abe-4c16-a1cc-e10ae7c1a306"},"vehicle_type_id":"4","last_reported":1773830446,"current_range_meters":8400,"station_id":"ce4bgkp2rcd13ifvqbmg","pricing_plan_id":"cebpf4jnsgd1na2vs0mg"},{"bike_id":"36323945-ea2b-4dee-961f-5225a022a89c","system_id":"levelo_inurba_marseille","lat":43.30294,"lon":5.37697,"is_reserved":false,"is_disabled":false,"rental_uris":{"android":"levelo://app?vid=36323945-ea2b-4dee-961f-5225a022a89c","ios":"levelo://app?vid=36323945-ea2b-4dee-961f-5225a022a89c"},"vehicle_type_id":"4","last_reported":1773830446,"current_range_meters":8400,"station_id":"ce4bguh2rcd13ifvqcj0","pricing_plan_id":"cebpf4jnsgd1na2vs0mg"},{"bike_id":"23270b19-27c7-4753-ad85-5690a845adb4","system_id":"levelo_inurba_marseille","lat":43.29369,"lon":5.37845,"is_reserved":false,"is_disabled":false,"rental_uris":{"android":"levelo://app?vid=23270b19-27c7-4753-ad85-5690a845adb4","ios":"levelo://app?vid=23270b19-27c7-4753-ad85-5690a845adb4"},"vehicle_type_id":"4","last_reported":1773830446,"current_range_meters":8400,"station_id":"ce4bgjh2rcd13ifvqbf0","pricing_plan_id":"cebpf4jnsgd1na2vs0mg"},{"bike_id":"b1678298-3f5b-4e9b-bb34-63fa7c9d9c9c","system_id":"levelo_inurba_marseille","lat":43.28475,"lon":5.48391,"is_reserved":false,"is_disabled":false,"rental_uris":{"android":"levelo://app?vid=b1678298-3f5b-4e9b-bb34-63fa7c9d9c9c","ios":"levelo://app?vid=b1678298-3f5b-4e9b-bb34-63fa7c9d9c9c"},"vehicle_type_id":"4","last_reported":1773830446,"current_range_meters":8400,"station_id":"","pricing_plan_id":"cebpf4jnsgd1na2vs0mg"},{"bike_id":"75b1f936-eed4-4c05-8e60-228ab1664ec0","system_id":"levelo_inurba_marseille","lat":43.31191,"lon":5.36901,"is_reserved":false,"is_disabled":false,"rental_uris":{"android":"levelo://app?vid=75b1f936-eed4-4c05-8e60-228ab1664ec0","ios":"levelo://app?vid=75b1f936-eed4-4c05-8e60-228ab1664ec0"},"vehicle_type_id":"4","last_reported":1773830446,"current_range_meters":8400,"station_id":"","pricing_plan_id":"cebpf4jnsgd1na2vs0mg"},{"bike_id":"d0b1f448-6af4-4ef1-a755-e03baf4488aa","system_id":"levelo_inurba_marseille","lat":43.29252,"lon":5.35746,"is_reserved":false,"is_disabled":false,"rental_uris":{"android":"levelo://app?vid=d0b1f448-6af4-4ef1-a755-e03baf4488aa","ios":"levelo://app?vid=d0b1f448-6af4-4ef1-a755-e03baf4488aa"},"vehicle_type_id":"4","last_reported":1773830446,"current_range_meters":8400,"station_id":"","pricing_plan_id":"cebpf4jnsgd1na2vs0mg"},{"bike_id":"d0c182af-fcaf-4e29-8f1c-b99abfd54af7","system_id":"levelo_inurba_marseille","lat":43.24548,"lon":5.39529,"is_reserved":false,"is_disabled":false,"rental_uris":{"android":"levelo://app?vid=d0c182af-fcaf-4e29-8f1c-b99abfd54af7","ios":"levelo://app?vid=d0c182af-fcaf-4e29-8f1c-b99abfd54af7"},"vehicle_type_id":"4","last_reported":1773830446,"current_range_meters":8400,"station_id":"ce4bhlp2rcd13ifvqgjg","pricing_plan_id":"cebpf4jnsgd1na2vs0mg"},{"bike_id":"8d1f2657-fe65-41f8-ac93-10688c583a73","system_id":"levelo_inurba_marseille","lat":43.29186,"lon":5.39326,"is_reserved":false,"is_disabled":false,"rental_uris":{"android":"levelo://app?vid=8d1f2657-fe65-41f8-ac93-10688c583a73","ios":"levelo://app?vid=8d1f2657-fe65-41f8-ac93-10688c583a73"},"vehicle_type_id":"4","last_reported":1773830446,"current_range_meters":8400,"station_id":"ce4bh192rcd13ifvqdd0","pricing_plan_id":"cebpf4jnsgd1na2vs0mg"},{"bike_id":"a9d31829-7e0d-482f-af05-97ddd320ae16","system_id":"levelo_inurba_marseille","lat":43.29751,"lon":5.42775,"is_reserved":false,"is_disabled":true,"rental_uris":{"android":"levelo://app?vid=a9d31829-7e0d-482f-af05-97ddd320ae16","ios":"levelo://app?vid=a9d31829-7e0d-482f-af05-97ddd320ae16"},"vehicle_type_id":"4","last_reported":1773830446,"current_range_meters":8400,"station_id":"st_d3md5207bmas73dh9klg","pricing_plan_id":"cebpf4jnsgd1na2vs0mg"},{"bike_id":"b842cd2d-c247-4005-9d2e-e55a08006e03","system_id":"levelo_inurba_marseille","lat":43.23156,"lon":5.43713,"is_reserved":false,"is_disabled":false,"rental_uris":{"android":"levelo://app?vid=b842cd2d-c247-4005-9d2e-e55a08006e03","ios":"levelo://app?vid=b842cd2d-c247-4005-9d2e-e55a08006e03"},"vehicle_type_id":"4","last_reported":1773830446,"current_range_meters":8400,"station_id":"ce4bhmp2rcd13ifvqgog","pricing_plan_id":"cebpf4jnsgd1na2vs0mg"},{"bike_id":"e107cb22-a13d-4c03-93ce-8114e06b9a0f","system_id":"levelo_inurba_marseille","lat":43.28488,"lon":5.48388,"is_reserved":false,"is_disabled":false,"rental_uris":{"android":"levelo://app?vid=e107cb22-a13d-4c03-93ce-8114e06b9a0f","ios":"levelo://app?vid=e107cb22-a13d-4c03-93ce-8114e06b9a0f"},"vehicle_type_id":"4","last_reported":1773830446,"current_range_meters":8400,"station_id":"","pricing_plan_id":"cebpf4jnsgd1na2vs0mg"},{"bike_id":"f436ac02-748f-415a-893c-f30ce2c44d3e","system_id":"levelo_inurba_marseille","lat":43.26514,"lon":5.39527,"is_reserved":false,"is_disabled":false,"rental_uris":{"android":"levelo://app?vid=f436ac02-748f-415a-893c-f30ce2c44d3e","ios":"levelo://app?vid=f436ac02-748f-415a-893c-f30ce2c44d3e"},"vehicle_type_id":"4","last_reported":1773830446,"current_range_meters":8400,"station_id":"ce4bhi12rcd13ifvqfq0","pricing_plan_id":"cebpf4jnsgd1na2vs0mg"},{"bike_id":"447b11a1-21b5-4523-80dc-ebe593853403","system_id":"levelo_inurba_marseille","lat":43.29203,"lon":5.42627,"is_reserved":false,"is_disabled":false,"rental_uris":{"android":"levelo://app?vid=447b11a1-21b5-4523-80dc-ebe593853403","ios":"levelo://app?vid=447b11a1-21b5-4523-80dc-ebe593853403"},"vehicle_type_id":"4","last_reported":1773830446,"current_range_meters":8400,"station_id":"","pricing_plan_id":"cebpf4jnsgd1na2vs0mg"},{"bike_id":"d4531119-47d1-4e6e-8eab-6fb1adfb9a69","system_id":"levelo_inurba_marseille","lat":43.29482,"lon":5.43309,"is_reserved":false,"is_disabled":false,"rental_uris":{"android":"levelo://app?vid=d4531119-47d1-4e6e-8eab-6fb1adfb9a69","ios":"levelo://app?vid=d4531119-47d1-4e6e-8eab-6fb1adfb9a69"},"vehicle_type_id":"4","last_reported":1773830446,"current_range_meters":8400,"station_id":"st_d3j5ugp08ojc73fj9d10","pricing_plan_id":"cebpf4jnsgd1na2vs0mg"},{"bike_id":"b9236ee7-cd1b-4e39-b04e-4a8e959fc4d2","system_id":"levelo_inurba_marseille","lat":43.29756,"lon":5.42773,"is_reserved":false,"is_disabled":false,"rental_uris":{"android":"levelo://app?vid=b9236ee7-cd1b-4e39-b04e-4a8e959fc4d2","ios":"levelo://app?vid=b9236ee7-cd1b-4e39-b04e-4a8e959fc4d2"},"vehicle_type_id":"4","last_reported":1773830446,"current_range_meters":8400,"station_id":"st_d3md5207bmas73dh9klg","pricing_plan_id":"cebpf4jnsgd1na2vs0mg"},{"bike_id":"b51425a2-b294-4b12-a06b-78afda0873c2","system_id":"levelo_inurba_marseille","lat":43.29802,"lon":5.40225,"is_reserved":false,"is_disabled":false,"rental_uris":{"android":"levelo://app?vid=b51425a2-b294-4b12-a06b-78afda0873c2","ios":"levelo://app?vid=b51425a2-b294-4b12-a06b-78afda0873c2"},"vehicle_type_id":"4","last_reported":1773830446,"current_range_meters":8400,"station_id":"","pricing_plan_id":"cebpf4jnsgd1na2vs0mg"},{"bike_id":"802f01cc-38ac-4593-b2ef-7684236846e7","system_id":"levelo_inurba_marseille","lat":43.30146,"lon":5.38077,"is_reserved":false,"is_disabled":false,"rental_uris":{"android":"levelo://app?vid=802f01cc-38ac-4593-b2ef-7684236846e7","ios":"levelo://app?vid=802f01cc-38ac-4593-b2ef-7684236846e7"},"vehicle_type_id":"4","last_reported":1773830446,"current_range_meters":8400,"station_id":"ce4bgjp2rcd13ifvqbh0","pricing_plan_id":"cebpf4jnsgd1na2vs0mg"},{"bike_id":"ede8bf75-b1b0-4834-bb2e-cdd9b3d7e62a","system_id":"levelo_inurba_marseille","lat":43.31274,"lon":5.46832,"is_reserved":false,"is_disabled":false,"rental_uris":{"android":"levelo://app?vid=ede8bf75-b1b0-4834-bb2e-cdd9b3d7e62a","ios":"levelo://app?vid=ede8bf75-b1b0-4834-bb2e-cdd9b3d7e62a"},"vehicle_type_id":"4","last_reported":1773830446,"current_range_meters":8400,"station_id":"","pricing_plan_id":"cebpf4jnsgd1na2vs0mg"},{"bike_id":"81330be2-86cd-4444-9307-8e51ae9fdf41","system_id":"levelo_inurba_marseille","lat":43.26213,"lon":5.37923,"is_reserved":false,"is_disabled":false,"rental_uris":{"android":"levelo://app?vid=81330be2-86cd-4444-9307-8e51ae9fdf41","ios":"levelo://app?vid=81330be2-86cd-4444-9307-8e51ae9fdf41"},"vehicle_type_id":"4","last_reported":1773830446,"current_range_meters":8800,"station_id":"ce4bhjp2rcd13ifvqg90","pricing_plan_id":"cebpf4jnsgd1na2vs0mg"},{"bike_id":"84634471-5fc8-4e87-99b5-cff7dbbc542b","system_id":"levelo_inurba_marseille","lat":43.30434,"lon":5.38896,"is_reserved":false,"is_disabled":false,"rental_uris":{"android":"levelo://app?vid=84634471-5fc8-4e87-99b5-cff7dbbc542b","ios":"levelo://app?vid=84634471-5fc8-4e87-99b5-cff7dbbc542b"},"vehicle_type_id":"4","last_reported":1773830446,"current_range_meters":8800,"station_id":"ce4bgk12rcd13ifvqbi0","pricing_plan_id":"cebpf4jnsgd1na2vs0mg"},{"bike_id":"1e0b341c-6b09-4225-9697-8d11216727af","system_id":"levelo_inurba_marseille","lat":43.31484,"lon":5.37278,"is_reserved":false,"is_disabled":false,"rental_uris":{"android":"levelo://app?vid=1e0b341c-6b09-4225-9697-8d11216727af","ios":"levelo://app?vid=1e0b341c-6b09-4225-9697-8d11216727af"},"vehicle_type_id":"4","last_reported":1773830446,"current_range_meters":8800,"station_id":"ce4bgt12rcd13ifvqcd0","pricing_plan_id":"cebpf4jnsgd1na2vs0mg"},{"bike_id":"1c51670a-46e5-4a0c-9d9c-3c2806d077a8","system_id":"levelo_inurba_marseille","lat":43.29016,"lon":5.38127,"is_reserved":false,"is_disabled":true,"rental_uris":{"android":"levelo://app?vid=1c51670a-46e5-4a0c-9d9c-3c2806d077a8","ios":"levelo://app?vid=1c51670a-46e5-4a0c-9d9c-3c2806d077a8"},"vehicle_type_id":"4","last_reported":1773830446,"current_range_meters":8800,"station_id":"ce4bh4p2rcd13ifvqe1g","pricing_plan_id":"cebpf4jnsgd1na2vs0mg"},{"bike_id":"0c568fbf-621d-4cc8-ade7-4b24ab6705de","system_id":"levelo_inurba_marseille","lat":43.21744,"lon":5.34601,"is_reserved":false,"is_disabled":false,"rental_uris":{"android":"levelo://app?vid=0c568fbf-621d-4cc8-ade7-4b24ab6705de","ios":"levelo://app?vid=0c568fbf-621d-4cc8-ade7-4b24ab6705de"},"vehicle_type_id":"4","last_reported":1773830446,"current_range_meters":8800,"station_id":"st_cvj6r9ubvosntc0bgbag","pricing_plan_id":"cebpf4jnsgd1na2vs0mg"},{"bike_id":"5c3c8d9a-5ab6-4633-82d3-1274a50b0966","system_id":"levelo_inurba_marseille","lat":43.25818,"lon":5.39435,"is_reserved":false,"is_disabled":false,"rental_uris":{"android":"levelo://app?vid=5c3c8d9a-5ab6-4633-82d3-1274a50b0966","ios":"levelo://app?vid=5c3c8d9a-5ab6-4633-82d3-1274a50b0966"},"vehicle_type_id":"4","last_reported":1773830446,"current_range_meters":8800,"station_id":"ce4bhip2rcd13ifvqft0","pricing_plan_id":"cebpf4jnsgd1na2vs0mg"},{"bike_id":"13ad50bf-7f2f-4ad1-a82f-209db682ff58","system_id":"levelo_inurba_marseille","lat":43.26563,"lon":5.39005,"is_reserved":false,"is_disabled":true,"rental_uris":{"android":"levelo://app?vid=13ad50bf-7f2f-4ad1-a82f-209db682ff58","ios":"levelo://app?vid=13ad50bf-7f2f-4ad1-a82f-209db682ff58"},"vehicle_type_id":"4","last_reported":1773830446,"current_range_meters":8800,"station_id":"ce4bhe12rcd13ifvqf30","pricing_plan_id":"cebpf4jnsgd1na2vs0mg"},{"bike_id":"e24fa6ea-0d5e-44c8-ac0d-12b2be5380f2","system_id":"levelo_inurba_marseille","lat":43.29032,"lon":5.37567,"is_reserved":false,"is_disabled":false,"rental_uris":{"android":"levelo://app?vid=e24fa6ea-0d5e-44c8-ac0d-12b2be5380f2","ios":"levelo://app?vid=e24fa6ea-0d5e-44c8-ac0d-12b2be5380f2"},"vehicle_type_id":"4","last_reported":1773830446,"current_range_meters":8800,"station_id":"ce4bh692rcd13ifvqe90","pricing_plan_id":"cebpf4jnsgd1na2vs0mg"},{"bike_id":"a8d6e79d-eb50-488f-a7ea-43cddfdc825e","system_id":"levelo_inurba_marseille","lat":43.23779,"lon":5.36629,"is_reserved":false,"is_disabled":false,"rental_uris":{"android":"levelo://app?vid=a8d6e79d-eb50-488f-a7ea-43cddfdc825e","ios":"levelo://app?vid=a8d6e79d-eb50-488f-a7ea-43cddfdc825e"},"vehicle_type_id":"4","last_reported":1773830446,"current_range_meters":8800,"station_id":"st_d3nk18o9ro0c73en2l3g","pricing_plan_id":"cebpf4jnsgd1na2vs0mg"},{"bike_id":"b2d32596-5bca-4b9e-ac0d-9f0f2f521e45","system_id":"levelo_inurba_marseille","lat":43.32979,"lon":5.36012,"is_reserved":false,"is_disabled":true,"rental_uris":{"android":"levelo://app?vid=b2d32596-5bca-4b9e-ac0d-9f0f2f521e45","ios":"levelo://app?vid=b2d32596-5bca-4b9e-ac0d-9f0f2f521e45"},"vehicle_type_id":"4","last_reported":1773830446,"current_range_meters":8800,"station_id":"","pricing_plan_id":"cebpf4jnsgd1na2vs0mg"},{"bike_id":"3dffcbda-9d1f-4157-bbd0-7b2b689f7134","system_id":"levelo_inurba_marseille","lat":43.23151,"lon":5.43686,"is_reserved":false,"is_disabled":false,"rental_uris":{"android":"levelo://app?vid=3dffcbda-9d1f-4157-bbd0-7b2b689f7134","ios":"levelo://app?vid=3dffcbda-9d1f-4157-bbd0-7b2b689f7134"},"vehicle_type_id":"4","last_reported":1773830446,"current_range_meters":8800,"station_id":"ce4bhmp2rcd13ifvqgog","pricing_plan_id":"cebpf4jnsgd1na2vs0mg"},{"bike_id":"caf5e45c-f3f2-43eb-99a6-b11ec33451e8","system_id":"levelo_inurba_marseille","lat":43.23966,"lon":5.36613,"is_reserved":false,"is_disabled":false,"rental_uris":{"android":"levelo://app?vid=caf5e45c-f3f2-43eb-99a6-b11ec33451e8","ios":"levelo://app?vid=caf5e45c-f3f2-43eb-99a6-b11ec33451e8"},"vehicle_type_id":"4","last_reported":1773830446,"current_range_meters":8800,"station_id":"ce4bhi12rcd13ifvqfp0","pricing_plan_id":"cebpf4jnsgd1na2vs0mg"},{"bike_id":"504924e0-02ad-44f1-b63e-c973a42108c3","system_id":"levelo_inurba_marseille","lat":43.25583,"lon":5.38224,"is_reserved":false,"is_disabled":false,"rental_uris":{"android":"levelo://app?vid=504924e0-02ad-44f1-b63e-c973a42108c3","ios":"levelo://app?vid=504924e0-02ad-44f1-b63e-c973a42108c3"},"vehicle_type_id":"4","last_reported":1773830446,"current_range_meters":8800,"station_id":"ce4bhih2rcd13ifvqfs0","pricing_plan_id":"cebpf4jnsgd1na2vs0mg"},{"bike_id":"76cb48e8-de3c-4720-96be-600ba87cce61","system_id":"levelo_inurba_marseille","lat":43.26092,"lon":5.39468,"is_reserved":false,"is_disabled":false,"rental_uris":{"android":"levelo://app?vid=76cb48e8-de3c-4720-96be-600ba87cce61","ios":"levelo://app?vid=76cb48e8-de3c-4720-96be-600ba87cce61"},"vehicle_type_id":"4","last_reported":1773830446,"current_range_meters":8800,"station_id":"","pricing_plan_id":"cebpf4jnsgd1na2vs0mg"},{"bike_id":"ed16ab64-9c0f-4050-80fd-94e1f15913c3","system_id":"levelo_inurba_marseille","lat":43.25069,"lon":5.40428,"is_reserved":false,"is_disabled":false,"rental_uris":{"android":"levelo://app?vid=ed16ab64-9c0f-4050-80fd-94e1f15913c3","ios":"levelo://app?vid=ed16ab64-9c0f-4050-80fd-94e1f15913c3"},"vehicle_type_id":"4","last_reported":1773830446,"current_range_meters":8800,"station_id":"","pricing_plan_id":"cebpf4jnsgd1na2vs0mg"},{"bike_id":"d0b1c86c-b662-441a-812f-51e262b17fb3","system_id":"levelo_inurba_marseille","lat":43.30088,"lon":5.39082,"is_reserved":false,"is_disabled":false,"rental_uris":{"android":"levelo://app?vid=d0b1c86c-b662-441a-812f-51e262b17fb3","ios":"levelo://app?vid=d0b1c86c-b662-441a-812f-51e262b17fb3"},"vehicle_type_id":"4","last_reported":1773830446,"current_range_meters":8800,"station_id":"ce4bh192rcd13ifvqdb0","pricing_plan_id":"cebpf4jnsgd1na2vs0mg"},{"bike_id":"72c2af1d-c829-426e-a247-06a2e53eb023","system_id":"levelo_inurba_marseille","lat":43.31477,"lon":5.37311,"is_reserved":false,"is_disabled":false,"rental_uris":{"android":"levelo://app?vid=72c2af1d-c829-426e-a247-06a2e53eb023","ios":"levelo://app?vid=72c2af1d-c829-426e-a247-06a2e53eb023"},"vehicle_type_id":"4","last_reported":1773830446,"current_range_meters":8800,"station_id":"ce4bgt12rcd13ifvqcd0","pricing_plan_id":"cebpf4jnsgd1na2vs0mg"},{"bike_id":"5173eb01-1501-409d-8735-5cd4a7564229","system_id":"levelo_inurba_marseille","lat":43.31805,"lon":5.44605,"is_reserved":false,"is_disabled":false,"rental_uris":{"android":"levelo://app?vid=5173eb01-1501-409d-8735-5cd4a7564229","ios":"levelo://app?vid=5173eb01-1501-409d-8735-5cd4a7564229"},"vehicle_type_id":"4","last_reported":1773830446,"current_range_meters":8800,"station_id":"","pricing_plan_id":"cebpf4jnsgd1na2vs0mg"},{"bike_id":"711cc478-4be2-49b5-9633-102eb85dbd0a","system_id":"levelo_inurba_marseille","lat":43.24037,"lon":5.37711,"is_reserved":false,"is_disabled":false,"rental_uris":{"android":"levelo://app?vid=711cc478-4be2-49b5-9633-102eb85dbd0a","ios":"levelo://app?vid=711cc478-4be2-49b5-9633-102eb85dbd0a"},"vehicle_type_id":"4","last_reported":1773830446,"current_range_meters":8800,"station_id":"","pricing_plan_id":"cebpf4jnsgd1na2vs0mg"},{"bike_id":"fad8e96d-acb2-4874-9608-7180f6b034b8","system_id":"levelo_inurba_marseille","lat":43.29155,"lon":5.40786,"is_reserved":false,"is_disabled":false,"rental_uris":{"android":"levelo://app?vid=fad8e96d-acb2-4874-9608-7180f6b034b8","ios":"levelo://app?vid=fad8e96d-acb2-4874-9608-7180f6b034b8"},"vehicle_type_id":"4","last_reported":1773830446,"current_range_meters":8800,"station_id":"","pricing_plan_id":"cebpf4jnsgd1na2vs0mg"},{"bike_id":"a2ba337b-0885-46a1-b4d5-1d0d04b18964","system_id":"levelo_inurba_marseille","lat":43.32488,"lon":5.36566,"is_reserved":false,"is_disabled":false,"rental_uris":{"android":"levelo://app?vid=a2ba337b-0885-46a1-b4d5-1d0d04b18964","ios":"levelo://app?vid=a2ba337b-0885-46a1-b4d5-1d0d04b18964"},"vehicle_type_id":"4","last_reported":1773830446,"current_range_meters":8800,"station_id":"ce4bhs12rcd13ifvqhvg","pricing_plan_id":"cebpf4jnsgd1na2vs0mg"},{"bike_id":"fd676e58-478d-401a-b670-a4ed7b7af8bf","system_id":"levelo_inurba_marseille","lat":43.24071,"lon":5.37747,"is_reserved":false,"is_disabled":false,"rental_uris":{"android":"levelo://app?vid=fd676e58-478d-401a-b670-a4ed7b7af8bf","ios":"levelo://app?vid=fd676e58-478d-401a-b670-a4ed7b7af8bf"},"vehicle_type_id":"4","last_reported":1773830446,"current_range_meters":8800,"station_id":"ce4bhnp2rcd13ifvqgvg","pricing_plan_id":"cebpf4jnsgd1na2vs0mg"},{"bike_id":"8b007602-7e5d-4bfa-b4c6-ce66f246ac35","system_id":"levelo_inurba_marseille","lat":43.31331,"lon":5.3969,"is_reserved":false,"is_disabled":false,"rental_uris":{"android":"levelo://app?vid=8b007602-7e5d-4bfa-b4c6-ce66f246ac35","ios":"levelo://app?vid=8b007602-7e5d-4bfa-b4c6-ce66f246ac35"},"vehicle_type_id":"4","last_reported":1773830446,"current_range_meters":8800,"station_id":"ce4bgvp2rcd13ifvqcu0","pricing_plan_id":"cebpf4jnsgd1na2vs0mg"},{"bike_id":"55614024-db25-486b-99e8-ed28b6d6957b","system_id":"levelo_inurba_marseille","lat":43.29121,"lon":5.39988,"is_reserved":false,"is_disabled":false,"rental_uris":{"android":"levelo://app?vid=55614024-db25-486b-99e8-ed28b6d6957b","ios":"levelo://app?vid=55614024-db25-486b-99e8-ed28b6d6957b"},"vehicle_type_id":"4","last_reported":1773830446,"current_range_meters":8800,"station_id":"","pricing_plan_id":"cebpf4jnsgd1na2vs0mg"},{"bike_id":"d532de73-31b0-408e-96ce-6676e6435a22","system_id":"levelo_inurba_marseille","lat":43.21191,"lon":5.35071,"is_reserved":false,"is_disabled":false,"rental_uris":{"android":"levelo://app?vid=d532de73-31b0-408e-96ce-6676e6435a22","ios":"levelo://app?vid=d532de73-31b0-408e-96ce-6676e6435a22"},"vehicle_type_id":"4","last_reported":1773830446,"current_range_meters":9200,"station_id":"st_cvj6sg6p6f1abm77japg","pricing_plan_id":"cebpf4jnsgd1na2vs0mg"},{"bike_id":"2cd6d2c4-9839-4b08-8d75-805c4c2214dc","system_id":"levelo_inurba_marseille","lat":43.23047,"lon":5.35497,"is_reserved":false,"is_disabled":false,"rental_uris":{"android":"levelo://app?vid=2cd6d2c4-9839-4b08-8d75-805c4c2214dc","ios":"levelo://app?vid=2cd6d2c4-9839-4b08-8d75-805c4c2214dc"},"vehicle_type_id":"4","last_reported":1773830446,"current_range_meters":9200,"station_id":"cpo3342slgdg3j2ifvpg","pricing_plan_id":"cebpf4jnsgd1na2vs0mg"},{"bike_id":"8c29270d-5d11-446e-a3f0-f5c56ae9c816","system_id":"levelo_inurba_marseille","lat":43.27557,"lon":5.43308,"is_reserved":false,"is_disabled":false,"rental_uris":{"android":"levelo://app?vid=8c29270d-5d11-446e-a3f0-f5c56ae9c816","ios":"levelo://app?vid=8c29270d-5d11-446e-a3f0-f5c56ae9c816"},"vehicle_type_id":"4","last_reported":1773830446,"current_range_meters":9200,"station_id":"","pricing_plan_id":"cebpf4jnsgd1na2vs0mg"},{"bike_id":"fd627f34-34e1-4ae6-b0d2-d80d077ae859","system_id":"levelo_inurba_marseille","lat":43.27489,"lon":5.42457,"is_reserved":false,"is_disabled":false,"rental_uris":{"android":"levelo://app?vid=fd627f34-34e1-4ae6-b0d2-d80d077ae859","ios":"levelo://app?vid=fd627f34-34e1-4ae6-b0d2-d80d077ae859"},"vehicle_type_id":"4","last_reported":1773830446,"current_range_meters":9200,"station_id":"","pricing_plan_id":"cebpf4jnsgd1na2vs0mg"},{"bike_id":"233b5201-c768-4dc5-9306-cf7441cce2c0","system_id":"levelo_inurba_marseille","lat":43.295731,"lon":5.375224,"is_reserved":false,"is_disabled":false,"rental_uris":{"android":"levelo://app?vid=233b5201-c768-4dc5-9306-cf7441cce2c0","ios":"levelo://app?vid=233b5201-c768-4dc5-9306-cf7441cce2c0"},"vehicle_type_id":"4","last_reported":1773830446,"current_range_meters":9200,"station_id":"ce4bgh92rcd13ifvqb50","pricing_plan_id":"cebpf4jnsgd1na2vs0mg"},{"bike_id":"b0f2815c-dcc7-45df-840a-33dda6c0d298","system_id":"levelo_inurba_marseille","lat":43.29868,"lon":5.397315,"is_reserved":false,"is_disabled":false,"rental_uris":{"android":"levelo://app?vid=b0f2815c-dcc7-45df-840a-33dda6c0d298","ios":"levelo://app?vid=b0f2815c-dcc7-45df-840a-33dda6c0d298"},"vehicle_type_id":"4","last_reported":1773830446,"current_range_meters":9200,"station_id":"ce4bh0h2rcd13ifvqd50","pricing_plan_id":"cebpf4jnsgd1na2vs0mg"},{"bike_id":"656f7f1c-73b7-415a-88df-0e80616a0a57","system_id":"levelo_inurba_marseille","lat":43.24998,"lon":5.38916,"is_reserved":false,"is_disabled":false,"rental_uris":{"android":"levelo://app?vid=656f7f1c-73b7-415a-88df-0e80616a0a57","ios":"levelo://app?vid=656f7f1c-73b7-415a-88df-0e80616a0a57"},"vehicle_type_id":"4","last_reported":1773830446,"current_range_meters":9200,"station_id":"ce4bhgp2rcd13ifvqfd0","pricing_plan_id":"cebpf4jnsgd1na2vs0mg"},{"bike_id":"caa001d7-09eb-4bb0-84d9-d57cad6bd54c","system_id":"levelo_inurba_marseille","lat":43.33586,"lon":5.40997,"is_reserved":false,"is_disabled":false,"rental_uris":{"android":"levelo://app?vid=caa001d7-09eb-4bb0-84d9-d57cad6bd54c","ios":"levelo://app?vid=caa001d7-09eb-4bb0-84d9-d57cad6bd54c"},"vehicle_type_id":"4","last_reported":1773830446,"current_range_meters":9200,"station_id":"ce4bhqh2rcd13ifvqhmg","pricing_plan_id":"cebpf4jnsgd1na2vs0mg"},{"bike_id":"6452d9cd-6a05-4ec2-8587-36bbcaecd809","system_id":"levelo_inurba_marseille","lat":43.23146,"lon":5.4372,"is_reserved":false,"is_disabled":false,"rental_uris":{"android":"levelo://app?vid=6452d9cd-6a05-4ec2-8587-36bbcaecd809","ios":"levelo://app?vid=6452d9cd-6a05-4ec2-8587-36bbcaecd809"},"vehicle_type_id":"4","last_reported":1773830446,"current_range_meters":9200,"station_id":"ce4bhmp2rcd13ifvqgog","pricing_plan_id":"cebpf4jnsgd1na2vs0mg"},{"bike_id":"c4de59ef-6398-4cec-b94b-a40317e8f015","system_id":"levelo_inurba_marseille","lat":43.29046,"lon":5.37567,"is_reserved":false,"is_disabled":false,"rental_uris":{"android":"levelo://app?vid=c4de59ef-6398-4cec-b94b-a40317e8f015","ios":"levelo://app?vid=c4de59ef-6398-4cec-b94b-a40317e8f015"},"vehicle_type_id":"4","last_reported":1773830446,"current_range_meters":9200,"station_id":"ce4bh692rcd13ifvqe90","pricing_plan_id":"cebpf4jnsgd1na2vs0mg"},{"bike_id":"56e68bb0-9b77-4db4-a369-96106c9eab13","system_id":"levelo_inurba_marseille","lat":43.24083,"lon":5.37754,"is_reserved":false,"is_disabled":false,"rental_uris":{"android":"levelo://app?vid=56e68bb0-9b77-4db4-a369-96106c9eab13","ios":"levelo://app?vid=56e68bb0-9b77-4db4-a369-96106c9eab13"},"vehicle_type_id":"4","last_reported":1773830446,"current_range_meters":9200,"station_id":"ce4bhnp2rcd13ifvqgvg","pricing_plan_id":"cebpf4jnsgd1na2vs0mg"},{"bike_id":"dc7f6158-e7fe-44ed-8541-1b7d8c3b9438","system_id":"levelo_inurba_marseille","lat":43.29902,"lon":5.37471,"is_reserved":false,"is_disabled":false,"rental_uris":{"android":"levelo://app?vid=dc7f6158-e7fe-44ed-8541-1b7d8c3b9438","ios":"levelo://app?vid=dc7f6158-e7fe-44ed-8541-1b7d8c3b9438"},"vehicle_type_id":"4","last_reported":1773830446,"current_range_meters":9200,"station_id":"ce4bgjh2rcd13ifvqbg0","pricing_plan_id":"cebpf4jnsgd1na2vs0mg"},{"bike_id":"988cf41c-8571-4251-94a5-cf5ad5ef4919","system_id":"levelo_inurba_marseille","lat":43.33591,"lon":5.40989,"is_reserved":false,"is_disabled":false,"rental_uris":{"android":"levelo://app?vid=988cf41c-8571-4251-94a5-cf5ad5ef4919","ios":"levelo://app?vid=988cf41c-8571-4251-94a5-cf5ad5ef4919"},"vehicle_type_id":"4","last_reported":1773830446,"current_range_meters":9200,"station_id":"ce4bhqh2rcd13ifvqhmg","pricing_plan_id":"cebpf4jnsgd1na2vs0mg"},{"bike_id":"025f570c-3539-4f19-b523-c59281348e39","system_id":"levelo_inurba_marseille","lat":43.32363,"lon":5.38879,"is_reserved":false,"is_disabled":false,"rental_uris":{"android":"levelo://app?vid=025f570c-3539-4f19-b523-c59281348e39","ios":"levelo://app?vid=025f570c-3539-4f19-b523-c59281348e39"},"vehicle_type_id":"4","last_reported":1773830446,"current_range_meters":9200,"station_id":"ce4bhqp2rcd13ifvqhog","pricing_plan_id":"cebpf4jnsgd1na2vs0mg"},{"bike_id":"49cf7273-f6a6-4ed6-97d0-9f645c1a1d02","system_id":"levelo_inurba_marseille","lat":43.27211,"lon":5.39173,"is_reserved":false,"is_disabled":false,"rental_uris":{"android":"levelo://app?vid=49cf7273-f6a6-4ed6-97d0-9f645c1a1d02","ios":"levelo://app?vid=49cf7273-f6a6-4ed6-97d0-9f645c1a1d02"},"vehicle_type_id":"4","last_reported":1773830446,"current_range_meters":9600,"station_id":"ce4bhhp2rcd13ifvqfm0","pricing_plan_id":"cebpf4jnsgd1na2vs0mg"},{"bike_id":"4603d8e6-1bdb-4e77-a999-dd174df795dd","system_id":"levelo_inurba_marseille","lat":43.21738,"lon":5.34591,"is_reserved":false,"is_disabled":false,"rental_uris":{"android":"levelo://app?vid=4603d8e6-1bdb-4e77-a999-dd174df795dd","ios":"levelo://app?vid=4603d8e6-1bdb-4e77-a999-dd174df795dd"},"vehicle_type_id":"4","last_reported":1773830446,"current_range_meters":9600,"station_id":"st_cvj6r9ubvosntc0bgbag","pricing_plan_id":"cebpf4jnsgd1na2vs0mg"},{"bike_id":"c7a58df1-e626-4613-bd92-acf1a3516baf","system_id":"levelo_inurba_marseille","lat":43.21743,"lon":5.346,"is_reserved":false,"is_disabled":false,"rental_uris":{"android":"levelo://app?vid=c7a58df1-e626-4613-bd92-acf1a3516baf","ios":"levelo://app?vid=c7a58df1-e626-4613-bd92-acf1a3516baf"},"vehicle_type_id":"4","last_reported":1773830446,"current_range_meters":9600,"station_id":"st_cvj6r9ubvosntc0bgbag","pricing_plan_id":"cebpf4jnsgd1na2vs0mg"},{"bike_id":"0ee4ce16-829f-49ee-9a2a-4b4670dfbc6f","system_id":"levelo_inurba_marseille","lat":43.28477,"lon":5.4838,"is_reserved":false,"is_disabled":false,"rental_uris":{"android":"levelo://app?vid=0ee4ce16-829f-49ee-9a2a-4b4670dfbc6f","ios":"levelo://app?vid=0ee4ce16-829f-49ee-9a2a-4b4670dfbc6f"},"vehicle_type_id":"4","last_reported":1773830446,"current_range_meters":9600,"station_id":"st_d3svhcjqgbts73a3dn0g","pricing_plan_id":"cebpf4jnsgd1na2vs0mg"},{"bike_id":"b273c7e7-c4fe-47a1-9ebd-69d87a83eebf","system_id":"levelo_inurba_marseille","lat":43.31328,"lon":5.36742,"is_reserved":false,"is_disabled":false,"rental_uris":{"android":"levelo://app?vid=b273c7e7-c4fe-47a1-9ebd-69d87a83eebf","ios":"levelo://app?vid=b273c7e7-c4fe-47a1-9ebd-69d87a83eebf"},"vehicle_type_id":"4","last_reported":1773830446,"current_range_meters":9600,"station_id":"ce4bgr92rcd13ifvqc6g","pricing_plan_id":"cebpf4jnsgd1na2vs0mg"},{"bike_id":"ef96a035-132f-4942-b25e-0504d02cf1f1","system_id":"levelo_inurba_marseille","lat":43.27208,"lon":5.39177,"is_reserved":false,"is_disabled":false,"rental_uris":{"android":"levelo://app?vid=ef96a035-132f-4942-b25e-0504d02cf1f1","ios":"levelo://app?vid=ef96a035-132f-4942-b25e-0504d02cf1f1"},"vehicle_type_id":"4","last_reported":1773830446,"current_range_meters":9600,"station_id":"ce4bhhp2rcd13ifvqfm0","pricing_plan_id":"cebpf4jnsgd1na2vs0mg"},{"bike_id":"30f098f2-037b-4b18-bb46-aaf0e1127844","system_id":"levelo_inurba_marseille","lat":43.30536,"lon":5.39894,"is_reserved":false,"is_disabled":false,"rental_uris":{"android":"levelo://app?vid=30f098f2-037b-4b18-bb46-aaf0e1127844","ios":"levelo://app?vid=30f098f2-037b-4b18-bb46-aaf0e1127844"},"vehicle_type_id":"4","last_reported":1773830446,"current_range_meters":9600,"station_id":"","pricing_plan_id":"cebpf4jnsgd1na2vs0mg"},{"bike_id":"88db41f5-96f3-4155-a4d0-ecc56f594edb","system_id":"levelo_inurba_marseille","lat":43.2293,"lon":5.35384,"is_reserved":false,"is_disabled":false,"rental_uris":{"android":"levelo://app?vid=88db41f5-96f3-4155-a4d0-ecc56f594edb","ios":"levelo://app?vid=88db41f5-96f3-4155-a4d0-ecc56f594edb"},"vehicle_type_id":"4","last_reported":1773830446,"current_range_meters":9600,"station_id":"cpo3532slgdg3j2ikp40","pricing_plan_id":"cebpf4jnsgd1na2vs0mg"},{"bike_id":"73e44213-1cd8-4593-a09e-a9c4a914a5d2","system_id":"levelo_inurba_marseille","lat":43.28474,"lon":5.48402,"is_reserved":false,"is_disabled":false,"rental_uris":{"android":"levelo://app?vid=73e44213-1cd8-4593-a09e-a9c4a914a5d2","ios":"levelo://app?vid=73e44213-1cd8-4593-a09e-a9c4a914a5d2"},"vehicle_type_id":"4","last_reported":1773830446,"current_range_meters":9600,"station_id":"","pricing_plan_id":"cebpf4jnsgd1na2vs0mg"},{"bike_id":"2ba8049f-246b-424c-9f7e-f998220f8071","system_id":"levelo_inurba_marseille","lat":43.272045,"lon":5.391842,"is_reserved":false,"is_disabled":false,"rental_uris":{"android":"levelo://app?vid=2ba8049f-246b-424c-9f7e-f998220f8071","ios":"levelo://app?vid=2ba8049f-246b-424c-9f7e-f998220f8071"},"vehicle_type_id":"4","last_reported":1773830446,"current_range_meters":9600,"station_id":"ce4bhhp2rcd13ifvqfm0","pricing_plan_id":"cebpf4jnsgd1na2vs0mg"},{"bike_id":"cdb60d63-5803-434d-9d13-34c70d19c222","system_id":"levelo_inurba_marseille","lat":43.2315,"lon":5.43712,"is_reserved":false,"is_disabled":false,"rental_uris":{"android":"levelo://app?vid=cdb60d63-5803-434d-9d13-34c70d19c222","ios":"levelo://app?vid=cdb60d63-5803-434d-9d13-34c70d19c222"},"vehicle_type_id":"4","last_reported":1773830446,"current_range_meters":9600,"station_id":"ce4bhmp2rcd13ifvqgog","pricing_plan_id":"cebpf4jnsgd1na2vs0mg"},{"bike_id":"04b3915d-c848-4783-b657-1507b621b373","system_id":"levelo_inurba_marseille","lat":43.275,"lon":5.42479,"is_reserved":false,"is_disabled":false,"rental_uris":{"android":"levelo://app?vid=04b3915d-c848-4783-b657-1507b621b373","ios":"levelo://app?vid=04b3915d-c848-4783-b657-1507b621b373"},"vehicle_type_id":"4","last_reported":1773830446,"current_range_meters":9600,"station_id":"","pricing_plan_id":"cebpf4jnsgd1na2vs0mg"},{"bike_id":"af9e9917-104d-4cfb-88dc-35d38c37713f","system_id":"levelo_inurba_marseille","lat":43.31359,"lon":5.36697,"is_reserved":false,"is_disabled":false,"rental_uris":{"android":"levelo://app?vid=af9e9917-104d-4cfb-88dc-35d38c37713f","ios":"levelo://app?vid=af9e9917-104d-4cfb-88dc-35d38c37713f"},"vehicle_type_id":"4","last_reported":1773830446,"current_range_meters":9600,"station_id":"ce4bgr92rcd13ifvqc6g","pricing_plan_id":"cebpf4jnsgd1na2vs0mg"},{"bike_id":"3ba51bb4-b712-4243-b48f-e76f4a07b59e","system_id":"levelo_inurba_marseille","lat":43.30141,"lon":5.38083,"is_reserved":false,"is_disabled":false,"rental_uris":{"android":"levelo://app?vid=3ba51bb4-b712-4243-b48f-e76f4a07b59e","ios":"levelo://app?vid=3ba51bb4-b712-4243-b48f-e76f4a07b59e"},"vehicle_type_id":"4","last_reported":1773830446,"current_range_meters":9600,"station_id":"ce4bgjp2rcd13ifvqbh0","pricing_plan_id":"cebpf4jnsgd1na2vs0mg"},{"bike_id":"d165435b-8936-4f85-a857-4db9515532b6","system_id":"levelo_inurba_marseille","lat":43.24809,"lon":5.37461,"is_reserved":false,"is_disabled":false,"rental_uris":{"android":"levelo://app?vid=d165435b-8936-4f85-a857-4db9515532b6","ios":"levelo://app?vid=d165435b-8936-4f85-a857-4db9515532b6"},"vehicle_type_id":"4","last_reported":1773830446,"current_range_meters":9600,"station_id":"ce4bhgh2rcd13ifvqfb0","pricing_plan_id":"cebpf4jnsgd1na2vs0mg"},{"bike_id":"a11c8cfa-453a-4892-a974-6a22bafa8290","system_id":"levelo_inurba_marseille","lat":43.23192,"lon":5.35551,"is_reserved":false,"is_disabled":false,"rental_uris":{"android":"levelo://app?vid=a11c8cfa-453a-4892-a974-6a22bafa8290","ios":"levelo://app?vid=a11c8cfa-453a-4892-a974-6a22bafa8290"},"vehicle_type_id":"4","last_reported":1773830446,"current_range_meters":10000,"station_id":"ce4bhu92rcd13ifvqi70","pricing_plan_id":"cebpf4jnsgd1na2vs0mg"},