{"last_updated":1733436563,"ttl":60,"version":"2.2","data":{"bikes":[{"bike_id":"0b41a6d6-c494-4679-bc43-0d3b21a53f75","system_id":"levelo_inurba_marseille","lat":43.27179,"lon":5.40993,"is_reserved":false,"is_disabled":false,"rental_uris":{"android":"levelo://app?vid=0b41a6d6-c494-4679-bc43-0d3b21a53f75","ios":"levelo://app?vid=0b41a6d6-c494-4679-bc43-0d3b21a53f75"},"vehicle_type_id":"4","last_reported":1733436563,"current_range_meters":38800,"station_id":"ce4bhl12rcd13ifvqgf0","pricing_plan_id":"cebpf4jnsgd1na2vs0mg"},{"bike_id":"5566b1e4-e72a-4189-8e1b-a6c3faeca7b6","system_id":"levelo_inurba_marseille","lat":43.292185,"lon":5.35791,"is_reserved":false,"is_disabled":true,"rental_uris":{"android":"levelo://app?vid=5566b1e4-e72a-4189-8e1b-a6c3faeca7b6","ios":"levelo://app?vid=5566b1e4-e72a-4189-8e1b-a6c3faeca7b6"},"vehicle_type_id":"4","last_reported":1733436563,"current_range_meters":0,"station_id":"ce4bhb12rcd13ifvqel0","pricing_plan_id":"cebpf4jnsgd1na2vs0mg"},{"bike_id":"056ec1aa-99e6-484a-b06a-615f236b43aa","system_id":"levelo_inurba_marseille","lat":43.31363,"lon":5.38491,"is_reserved":false,"is_disabled":false,"rental_uris":{"android":"levelo://app?vid=056ec1aa-99e6-484a-b06a-615f236b43aa","ios":"levelo://app?vid=056ec1aa-99e6-484a-b06a-615f236b43aa"},"vehicle_type_id":"4","last_reported":1733436563,"current_range_meters":27600,"station_id":"ce4bgt92rcd13ifvqcf0","pricing_plan_id":"cebpf4jnsgd1na2vs0mg"},{"bike_id":"df479c2c-35ac-44ad-b9d6-81c89ed769ce","system_id":"levelo_inurba_marseille","lat":43.29699,"lon":5.37054,"is_reserved":false,"is_disabled":true,"rental_uris":{"android":"levelo://app?vid=df479c2c-35ac-44ad-b9d6-81c89ed769ce","ios":"levelo://app?vid=df479c2c-35ac-44ad-b9d6-81c89ed769ce"},"vehicle_type_id":"4","last_reported":1733436563,"current_range_meters":0,"station_id":"","pricing_plan_id":"cebpf4jnsgd1na2vs0mg"},{"bike_id":"8e029eaf-e104-4c5d-858d-6cd39de73d09","system_id":"levelo_inurba_marseille","lat":43.24147,"lon":5.36441,"is_reserved":false,"is_disabled":false,"rental_uris":{"android":"levelo://app?vid=8e029eaf-e104-4c5d-858d-6cd39de73d09","ios":"levelo://app?vid=8e029eaf-e104-4c5d-858d-6cd39de73d09"},"vehicle_type_id":"4","last_reported":1733436563,"current_range_meters":38800,"station_id":"cpo36qri1sfpv3e86is0","pricing_plan_id":"cebpf4jnsgd1na2vs0mg"},{"bike_id":"bc6d1df1-c307-4d6f-9ccf-49fb0c32794a","system_id":"levelo_inurba_marseille","lat":43.25865,"lon":5.39912,"is_reserved":false,"is_disabled":false,"rental_uris":{"android":"levelo://app?vid=bc6d1df1-c307-4d6f-9ccf-49fb0c32794a","ios":"levelo://app?vid=bc6d1df1-c307-4d6f-9ccf-49fb0c32794a"},"vehicle_type_id":"4","last_reported":1733436563,"current_range_meters":38400,"station_id":"ce4bhl92rcd13ifvqghg","pricing_plan_id":"cebpf4jnsgd1na2vs0mg"},{"bike_id":"e0a1206c-cb7c-4ac7-8ffa-a61b040e391d","system_id":"levelo_inurba_marseille","lat":43.29189,"lon":5.36926,"is_reserved":false,"is_disabled":false,"rental_uris":{"android":"levelo://app?vid=e0a1206c-cb7c-4ac7-8ffa-a61b040e391d","ios":"levelo://app?vid=e0a1206c-cb7c-4ac7-8ffa-a61b040e391d"},"vehicle_type_id":"4","last_reported":1733436563,"current_range_meters":19600,"station_id":"","pricing_plan_id":"cebpf4jnsgd1na2vs0mg"},{"bike_id":"9e08f281-c0e3-4a9d-ba4a-3c95e0797110","system_id":"levelo_inurba_marseille","lat":43.28081,"lon":5.39657,"is_reserved":false,"is_disabled":false,"rental_uris":{"android":"levelo://app?vid=9e08f281-c0e3-4a9d-ba4a-3c95e0797110","ios":"levelo://app?vid=9e08f281-c0e3-4a9d-ba4a-3c95e0797110"},"vehicle_type_id":"4","last_reported":1733436563,"current_range_meters":39200,"station_id":"ce4bho12rcd13ifvqh2g","pricing_plan_id":"cebpf4jnsgd1na2vs0mg"},{"bike_id":"385713fa-f8fc-48ae-847d-7a572bf9e411","system_id":"levelo_inurba_marseille","lat":43.28152,"lon":5.4264,"is_reserved":false,"is_disabled":false,"rental_uris":{"android":"levelo://app?vid=385713fa-f8fc-48ae-847d-7a572bf9e411","ios":"levelo://app?vid=385713fa-f8fc-48ae-847d-7a572bf9e411"},"vehicle_type_id":"4","last_reported":1733436563,"current_range_meters":38800,"station_id":"ce4bhnh2rcd13ifvqgug","pricing_plan_id":"cebpf4jnsgd1na2vs0mg"},{"bike_id":"45d082ac-9dd3-49cf-83e9-921c44240ad6","system_id":"levelo_inurba_marseille","lat":43.32291,"lon":5.38266,"is_reserved":false,"is_disabled":false,"rental_uris":{"android":"levelo://app?vid=45d082ac-9dd3-49cf-83e9-921c44240ad6","ios":"levelo://app?vid=45d082ac-9dd3-49cf-83e9-921c44240ad6"},"vehicle_type_id":"4","last_reported":1733436563,"current_range_meters":22400,"station_id":"ce4bhr12rcd13ifvqhqg","pricing_plan_id":"cebpf4jnsgd1na2vs0mg"},{"bike_id":"be407bbe-d1ce-48de-8db2-09114af9efd7","system_id":"levelo_inurba_marseille","lat":43.32365,"lon":5.36764,"is_reserved":false,"is_disabled":false,"rental_uris":{"android":"levelo://app?vid=be407bbe-d1ce-48de-8db2-09114af9efd7","ios":"levelo://app?vid=be407bbe-d1ce-48de-8db2-09114af9efd7"},"vehicle_type_id":"4","last_reported":1733436563,"current_range_meters":27600,"station_id":"ce4bhsh2rcd13ifvqi2g","pricing_plan_id":"cebpf4jnsgd1na2vs0mg"},{"bike_id":"f837767d-1d97-449b-9b90-acb8a8f2d40c","system_id":"levelo_inurba_marseille","lat":43.27998,"lon":5.40014,"is_reserved":false,"is_disabled":false,"rental_uris":{"android":"levelo://app?vid=f837767d-1d97-449b-9b90-acb8a8f2d40c","ios":"levelo://app?vid=f837767d-1d97-449b-9b90-acb8a8f2d40c"},"vehicle_type_id":"4","last_reported":1733436563,"current_range_meters":26000,"station_id":"ce4bho92rcd13ifvqh4g","pricing_plan_id":"cebpf4jnsgd1na2vs0mg"},{"bike_id":"8c0b0fc8-734e-4ca6-b676-eb93f9346fac","system_id":"levelo_inurba_marseille","lat":43.27817,"lon":5.40706,"is_reserved":false,"is_disabled":false,"rental_uris":{"android":"levelo://app?vid=8c0b0fc8-734e-4ca6-b676-eb93f9346fac","ios":"levelo://app?vid=8c0b0fc8-734e-4ca6-b676-eb93f9346fac"},"vehicle_type_id":"4","last_reported":1733436563,"current_range_meters":9600,"station_id":"ce4bhnh2rcd13ifvqgtg","pricing_plan_id":"cebpf4jnsgd1na2vs0mg"},{"bike_id":"ca2a556f-9af6-4af4-8014-51a47bb9c9b7","system_id":"levelo_inurba_marseille","lat":43.330217,"lon":5.390393,"is_reserved":false,"is_disabled":false,"rental_uris":{"android":"levelo://app?vid=ca2a556f-9af6-4af4-8014-51a47bb9c9b7","ios":"levelo://app?vid=ca2a556f-9af6-4af4-8014-51a47bb9c9b7"},"vehicle_type_id":"4","last_reported":1733436563,"current_range_meters":38800,"station_id":"ce4bhr92rcd13ifvqhrg","pricing_plan_id":"cebpf4jnsgd1na2vs0mg"},{"bike_id":"8bd642b2-0279-44c7-9ee2-fc3b57332c83","system_id":"levelo_inurba_marseille","lat":43.27455,"lon":5.40073,"is_reserved":false,"is_disabled":true,"rental_uris":{"android":"levelo://app?vid=8bd642b2-0279-44c7-9ee2-fc3b57332c83","ios":"levelo://app?vid=8bd642b2-0279-44c7-9ee2-fc3b57332c83"},"vehicle_type_id":"4","last_reported":1733436563,"current_range_meters":0,"station_id":"","pricing_plan_id":"cebpf4jnsgd1na2vs0mg"},{"bike_id":"0d954519-28e2-4b37-9bd2-61dafafa530a","system_id":"levelo_inurba_marseille","lat":43.30147,"lon":5.38786,"is_reserved":false,"is_disabled":false,"rental_uris":{"android":"levelo://app?vid=0d954519-28e2-4b37-9bd2-61dafafa530a","ios":"levelo://app?vid=0d954519-28e2-4b37-9bd2-61dafafa530a"},"vehicle_type_id":"4","last_reported":1733436563,"current_range_meters":38400,"station_id":"ce4bghh2rcd13ifvqb60","pricing_plan_id":"cebpf4jnsgd1na2vs0mg"},{"bike_id":"5b667cd8-1ed1-4b03-8bee-ef4c0498560e","system_id":"levelo_inurba_marseille","lat":43.25,"lon":5.38929,"is_reserved":false,"is_disabled":false,"rental_uris":{"android":"levelo://app?vid=5b667cd8-1ed1-4b03-8bee-ef4c0498560e","ios":"levelo://app?vid=5b667cd8-1ed1-4b03-8bee-ef4c0498560e"},"vehicle_type_id":"4","last_reported":1733436563,"current_range_meters":29600,"station_id":"ce4bhgp2rcd13ifvqfd0","pricing_plan_id":"cebpf4jnsgd1na2vs0mg"},{"bike_id":"92096e66-982c-42ef-9a85-db8cb36f5689","system_id":"levelo_inurba_marseille","lat":43.27948,"lon":5.41044,"is_reserved":false,"is_disabled":false,"rental_uris":{"android":"levelo://app?vid=92096e66-982c-42ef-9a85-db8cb36f5689","ios":"levelo://app?vid=92096e66-982c-42ef-9a85-db8cb36f5689"},"vehicle_type_id":"4","last_reported":1733436563,"current_range_meters":8400,"station_id":"ce4bhnp2rcd13ifvqh0g","pricing_plan_id":"cebpf4jnsgd1na2vs0mg"},{"bike_id":"54a562cf-a93f-46f6-967f-5ffb46a4b32a","system_id":"levelo_inurba_marseille","lat":43.313324,"lon":5.39697,"is_reserved":false,"is_disabled":false,"rental_uris":{"android":"levelo://app?vid=54a562cf-a93f-46f6-967f-5ffb46a4b32a","ios":"levelo://app?vid=54a562cf-a93f-46f6-967f-5ffb46a4b32a"},"vehicle_type_id":"4","last_reported":1733436563,"current_range_meters":20000,"station_id":"","pricing_plan_id":"cebpf4jnsgd1na2vs0mg"},{"bike_id":"9558f4c4-f6fa-4f42-ba7b-f8326c0c5209","system_id":"levelo_inurba_marseille","lat":43.24079,"lon":5.37759,"is_reserved":false,"is_disabled":false,"rental_uris":{"android":"levelo://app?vid=9558f4c4-f6fa-4f42-ba7b-f8326c0c5209","ios":"levelo://app?vid=9558f4c4-f6fa-4f42-ba7b-f8326c0c5209"},"vehicle_type_id":"4","last_reported":1733436563,"current_range_meters":38000,"station_id":"ce4bhnp2rcd13ifvqgvg","pricing_plan_id":"cebpf4jnsgd1na2vs0mg"},{"bike_id":"0de10c80-f40f-4efc-b915-f06b5d9f017c","system_id":"levelo_inurba_marseille","lat":43.29248,"lon":5.40903,"is_reserved":false,"is_disabled":false,"rental_uris":{"android":"levelo://app?vid=0de10c80-f40f-4efc-b915-f06b5d9f017c","ios":"levelo://app?vid=0de10c80-f40f-4efc-b915-f06b5d9f017c"},"vehicle_type_id":"4","last_reported":1733436563,"current_range_meters":9600,"station_id":"ce4bh192rcd13ifvqdc0","pricing_plan_id":"cebpf4jnsgd1na2vs0mg"},{"bike_id":"3e19e3a1-e28b-4fe8-b131-f5d9e9e034b9","system_id":"levelo_inurba_marseille","lat":43.27946,"lon":5.41042,"is_reserved":false,"is_disabled":false,"rental_uris":{"android":"levelo://app?vid=3e19e3a1-e28b-4fe8-b131-f5d9e9e034b9","ios":"levelo://app?vid=3e19e3a1-e28b-4fe8-b131-f5d9e9e034b9"},"vehicle_type_id":"4","last_reported":1733436563,"current_range_meters":30400,"station_id":"ce4bhnp2rcd13ifvqh0g","pricing_plan_id":"cebpf4jnsgd1na2vs0mg"},{"bike_id":"f67dfab3-abcc-4688-bfd7-4284bf8c7187","system_id":"levelo_inurba_marseille","lat":43.33021,"lon":5.39044,"is_reserved":false,"is_disabled":false,"rental_uris":{"android":"levelo://app?vid=f67dfab3-abcc-4688-bfd7-4284bf8c7187","ios":"levelo://app?vid=f67dfab3-abcc-4688-bfd7-4284bf8c7187"},"vehicle_type_id":"4","last_reported":1733436563,"current_range_meters":8800,"station_id":"ce4bhr92rcd13ifvqhrg","pricing_plan_id":"cebpf4jnsgd1na2vs0mg"},{"bike_id":"95790cfc-de0e-4674-9d31-37835b1ced0b","system_id":"levelo_inurba_marseille","lat":43.2886,"lon":5.39295,"is_reserved":false,"is_disabled":false,"rental_uris":{"android":"levelo://app?vid=95790cfc-de0e-4674-9d31-37835b1ced0b","ios":"levelo://app?vid=95790cfc-de0e-4674-9d31-37835b1ced0b"},"vehicle_type_id":"4","last_reported":1733436563,"current_range_meters":35200,"station_id":"ce4bh2p2rcd13ifvqdi0","pricing_plan_id":"cebpf4jnsgd1na2vs0mg"},{"bike_id":"1235e9a6-d25e-4868-9ff4-6f488485e252","system_id":"levelo_inurba_marseille","lat":43.27958,"lon":5.38706,"is_reserved":false,"is_disabled":false,"rental_uris":{"android":"levelo://app?vid=1235e9a6-d25e-4868-9ff4-6f488485e252","ios":"levelo://app?vid=1235e9a6-d25e-4868-9ff4-6f488485e252"},"vehicle_type_id":"4","last_reported":1733436563,"current_range_meters":38800,"station_id":"ce4bhg12rcd13ifvqf80","pricing_plan_id":"cebpf4jnsgd1na2vs0mg"},{"bike_id":"28b52837-d828-49e4-b4be-cfbac010c328","system_id":"levelo_inurba_marseille","lat":43.33726,"lon":5.39194,"is_reserved":false,"is_disabled":false,"rental_uris":{"android":"levelo://app?vid=28b52837-d828-49e4-b4be-cfbac010c328","ios":"levelo://app?vid=28b52837-d828-49e4-b4be-cfbac010c328"},"vehicle_type_id":"4","last_reported":1733436563,"current_range_meters":28000,"station_id":"ce4bhr92rcd13ifvqhsg","pricing_plan_id":"cebpf4jnsgd1na2vs0mg"},{"bike_id":"b3f478ac-3b05-4edf-bdbf-76399090f8e9","system_id":"levelo_inurba_marseille","lat":43.29994,"lon":5.37639,"is_reserved":false,"is_disabled":true,"rental_uris":{"android":"levelo://app?vid=b3f478ac-3b05-4edf-bdbf-76399090f8e9","ios":"levelo://app?vid=b3f478ac-3b05-4edf-bdbf-76399090f8e9"},"vehicle_type_id":"4","last_reported":1733436563,"current_range_meters":0,"station_id":"","pricing_plan_id":"cebpf4jnsgd1na2vs0mg"},{"bike_id":"c5407afd-657a-440f-bb47-b130ed2eb03e","system_id":"levelo_inurba_marseille","lat":43.28665,"lon":5.36356,"is_reserved":false,"is_disabled":false,"rental_uris":{"android":"levelo://app?vid=c5407afd-657a-440f-bb47-b130ed2eb03e","ios":"levelo://app?vid=c5407afd-657a-440f-bb47-b130ed2eb03e"},"vehicle_type_id":"4","last_reported":1733436563,"current_range_meters":38800,"station_id":"ce4bhah2rcd13ifvqej0","pricing_plan_id":"cebpf4jnsgd1na2vs0mg"},{"bike_id":"b618e84f-e492-49e2-970c-1b170d4fbccb","system_id":"levelo_inurba_marseille","lat":43.28576,"lon":5.39498,"is_reserved":false,"is_disabled":false,"rental_uris":{"android":"levelo://app?vid=b618e84f-e492-49e2-970c-1b170d4fbccb","ios":"levelo://app?vid=b618e84f-e492-49e2-970c-1b170d4fbccb"},"vehicle_type_id":"4","last_reported":1733436563,"current_range_meters":35600,"station_id":"ce4bh292rcd13ifvqdg0","pricing_plan_id":"cebpf4jnsgd1na2vs0mg"},{"bike_id":"6a41e9d8-035a-4bf8-8d68-41af3a48766c","system_id":"levelo_inurba_marseille","lat":43.28421,"lon":5.34999,"is_reserved":false,"is_disabled":false,"rental_uris":{"android":"levelo://app?vid=6a41e9d8-035a-4bf8-8d68-41af3a48766c","ios":"levelo://app?vid=6a41e9d8-035a-4bf8-8d68-41af3a48766c"},"vehicle_type_id":"4","last_reported":1733436563,"current_range_meters":38800,"station_id":"ce4bhbh2rcd13ifvqepg","pricing_plan_id":"cebpf4jnsgd1na2vs0mg"},{"bike_id":"ac5e5dea-3392-4843-bb07-48d78675865d","system_id":"levelo_inurba_marseille","lat":43.3229,"lon":5.38277,"is_reserved":false,"is_disabled":false,"rental_uris":{"android":"levelo://app?vid=ac5e5dea-3392-4843-bb07-48d78675865d","ios":"levelo://app?vid=ac5e5dea-3392-4843-bb07-48d78675865d"},"vehicle_type_id":"4","last_reported":1733436563,"current_range_meters":32000,"station_id":"ce4bhr12rcd13ifvqhqg","pricing_plan_id":"cebpf4jnsgd1na2vs0mg"},{"bike_id":"5390a7cd-d778-4522-82bd-4adcecc9ff6e","system_id":"levelo_inurba_marseille","lat":43.29509,"lon":5.39426,"is_reserved":false,"is_disabled":false,"rental_uris":{"android":"levelo://app?vid=5390a7cd-d778-4522-82bd-4adcecc9ff6e","ios":"levelo://app?vid=5390a7cd-d778-4522-82bd-4adcecc9ff6e"},"vehicle_type_id":"4","last_reported":1733436563,"current_range_meters":35600,"station_id":"ce4bh292rcd13ifvqdf0","pricing_plan_id":"cebpf4jnsgd1na2vs0mg"},{"bike_id":"7029cc20-2347-438d-9ede-4278d15e8eb8","system_id":"levelo_inurba_marseille","lat":43.31169,"lon":5.38726,"is_reserved":false,"is_disabled":false,"rental_uris":{"android":"levelo://app?vid=7029cc20-2347-438d-9ede-4278d15e8eb8","ios":"levelo://app?vid=7029cc20-2347-438d-9ede-4278d15e8eb8"},"vehicle_type_id":"4","last_reported":1733436563,"current_range_meters":38000,"station_id":"ce4bgv12rcd13ifvqcp0","pricing_plan_id":"cebpf4jnsgd1na2vs0mg"},{"bike_id":"2d253869-068a-4521-86ba-68611819c501","system_id":"levelo_inurba_marseille","lat":43.31168,"lon":5.38716,"is_reserved":false,"is_disabled":false,"rental_uris":{"android":"levelo://app?vid=2d253869-068a-4521-86ba-68611819c501","ios":"levelo://app?vid=2d253869-068a-4521-86ba-68611819c501"},"vehicle_type_id":"4","last_reported":1733436563,"current_range_meters":32400,"station_id":"ce4bgv12rcd13ifvqcp0","pricing_plan_id":"cebpf4jnsgd1na2vs0mg"},{"bike_id":"1931079a-b91f-4b14-88d3-3cb6d99895b6","system_id":"levelo_inurba_marseille","lat":43.24388,"lon":5.37065,"is_reserved":false,"is_disabled":false,"rental_uris":{"android":"levelo://app?vid=1931079a-b91f-4b14-88d3-3cb6d99895b6","ios":"levelo://app?vid=1931079a-b91f-4b14-88d3-3cb6d99895b6"},"vehicle_type_id":"4","last_reported":1733436563,"current_range_meters":25600,"station_id":"ce4bhhh2rcd13ifvqfk0","pricing_plan_id":"cebpf4jnsgd1na2vs0mg"},{"bike_id":"eceaf54b-9ccb-4ae5-a119-e2ab39f83ee9","system_id":"levelo_inurba_marseille","lat":43.28461,"lon":5.35891,"is_reserved":false,"is_disabled":false,"rental_uris":{"android":"levelo://app?vid=eceaf54b-9ccb-4ae5-a119-e2ab39f83ee9","ios":"levelo://app?vid=eceaf54b-9ccb-4ae5-a119-e2ab39f83ee9"},"vehicle_type_id":"4","last_reported":1733436563,"current_range_meters":38800,"station_id":"ce4bhah2rcd13ifvqei0","pricing_plan_id":"cebpf4jnsgd1na2vs0mg"},{"bike_id":"876dfb36-35f9-4a81-99a8-1301e78e2d12","system_id":"levelo_inurba_marseille","lat":43.27839,"lon":5.39218,"is_reserved":false,"is_disabled":false,"rental_uris":{"android":"levelo://app?vid=876dfb36-35f9-4a81-99a8-1301e78e2d12","ios":"levelo://app?vid=876dfb36-35f9-4a81-99a8-1301e78e2d12"},"vehicle_type_id":"4","last_reported":1733436563,"current_range_meters":28800,"station_id":"ce4bhjp2rcd13ifvqga0","pricing_plan_id":"cebpf4jnsgd1na2vs0mg"},{"bike_id":"1fe39c46-689d-4ef3-85ac-95a61cc44bff","system_id":"levelo_inurba_marseille","lat":43.29029,"lon":5.37558,"is_reserved":false,"is_disabled":true,"rental_uris":{"android":"levelo://app?vid=1fe39c46-689d-4ef3-85ac-95a61cc44bff","ios":"levelo://app?vid=1fe39c46-689d-4ef3-85ac-95a61cc44bff"},"vehicle_type_id":"4","last_reported":1733436563,"current_range_meters":0,"station_id":"ce4bh692rcd13ifvqe90","pricing_plan_id":"cebpf4jnsgd1na2vs0mg"},{"bike_id":"c7937e55-70ee-4a20-b169-edc60cf12155","system_id":"levelo_inurba_marseille","lat":43.30797,"lon":5.43533,"is_reserved":false,"is_disabled":true,"rental_uris":{"android":"levelo://app?vid=c7937e55-70ee-4a20-b169-edc60cf12155","ios":"levelo://app?vid=c7937e55-70ee-4a20-b169-edc60cf12155"},"vehicle_type_id":"4","last_reported":1733436563,"current_range_meters":0,"station_id":"ce4bhph2rcd13ifvqheg","pricing_plan_id":"cebpf4jnsgd1na2vs0mg"},{"bike_id":"0d76dbf6-5e40-455b-a0e6-70fb0b70c5f9","system_id":"levelo_inurba_marseille","lat":43.32372,"lon":5.38887,"is_reserved":false,"is_disabled":false,"rental_uris":{"android":"levelo://app?vid=0d76dbf6-5e40-455b-a0e6-70fb0b70c5f9","ios":"levelo://app?vid=0d76dbf6-5e40-455b-a0e6-70fb0b70c5f9"},"vehicle_type_id":"4","last_reported":1733436563,"current_range_meters":38800,"station_id":"ce4bhqp2rcd13ifvqhog","pricing_plan_id":"cebpf4jnsgd1na2vs0mg"},{"bike_id":"bb33fa0c-b703-4470-8119-8d67c160e4d2","system_id":"levelo_inurba_marseille","lat":43.2509,"lon":5.39518,"is_reserved":false,"is_disabled":false,"rental_uris":{"android":"levelo://app?vid=bb33fa0c-b703-4470-8119-8d67c160e4d2","ios":"levelo://app?vid=bb33fa0c-b703-4470-8119-8d67c160e4d2"},"vehicle_type_id":"4","last_reported":1733436563,"current_range_meters":6400,"station_id":"ce4bhm12rcd13ifvqgkg","pricing_plan_id":"cebpf4jnsgd1na2vs0mg"},{"bike_id":"2f3968e7-9336-4ee4-ba78-8e92c0a818cc","system_id":"levelo_inurba_marseille","lat":43.31322,"lon":5.36647,"is_reserved":false,"is_disabled":true,"rental_uris":{"android":"levelo://app?vid=2f3968e7-9336-4ee4-ba78-8e92c0a818cc","ios":"levelo://app?vid=2f3968e7-9336-4ee4-ba78-8e92c0a818cc"},"vehicle_type_id":"4","last_reported":1733436563,"current_range_meters":0,"station_id":"","pricing_plan_id":"cebpf4jnsgd1na2vs0mg"},{"bike_id":"47241d2d-0042-414f-aa94-6649cc70c148","system_id":"levelo_inurba_marseille","lat":43.29883,"lon":5.36406,"is_reserved":false,"is_disabled":false,"rental_uris":{"android":"levelo://app?vid=47241d2d-0042-414f-aa94-6649cc70c148","ios":"levelo://app?vid=47241d2d-0042-414f-aa94-6649cc70c148"},"vehicle_type_id":"4","last_reported":1733436563,"current_range_meters":23200,"station_id":"","pricing_plan_id":"cebpf4jnsgd1na2vs0mg"},{"bike_id":"9aded1fd-28b2-485b-aa1d-02cd137f431b","system_id":"levelo_inurba_marseille","lat":43.26494,"lon":5.39549,"is_reserved":false,"is_disabled":false,"rental_uris":{"android":"levelo://app?vid=9aded1fd-28b2-485b-aa1d-02cd137f431b","ios":"levelo://app?vid=9aded1fd-28b2-485b-aa1d-02cd137f431b"},"vehicle_type_id":"4","last_reported":1733436563,"current_range_meters":38800,"station_id":"ce4bhi12rcd13ifvqfq0","pricing_plan_id":"cebpf4jnsgd1na2vs0mg"},{"bike_id":"86c47149-ed1d-4ab2-8964-74fc59cf1c0e","system_id":"levelo_inurba_marseille","lat":43.23964,"lon":5.36629,"is_reserved":false,"is_disabled":false,"rental_uris":{"android":"levelo://app?vid=86c47149-ed1d-4ab2-8964-74fc59cf1c0e","ios":"levelo://app?vid=86c47149-ed1d-4ab2-8964-74fc59cf1c0e"},"vehicle_type_id":"4","last_reported":1733436563,"current_range_meters":38400,"station_id":"ce4bhi12rcd13ifvqfp0","pricing_plan_id":"cebpf4jnsgd1na2vs0mg"},{"bike_id":"5f109a53-49dc-4109-b714-043e9397af3d","system_id":"levelo_inurba_marseille","lat":43.28567,"lon":5.39507,"is_reserved":false,"is_disabled":false,"rental_uris":{"android":"levelo://app?vid=5f109a53-49dc-4109-b714-043e9397af3d","ios":"levelo://app?vid=5f109a53-49dc-4109-b714-043e9397af3d"},"vehicle_type_id":"4","last_reported":1733436563,"current_range_meters":28400,"station_id":"ce4bh292rcd13ifvqdg0","pricing_plan_id":"cebpf4jnsgd1na2vs0mg"},{"bike_id":"3d392992-7941-4ad9-94b9-ceb9b8255144","system_id":"levelo_inurba_marseille","lat":43.24666,"lon":5.38162,"is_reserved":false,"is_disabled":false,"rental_uris":{"android":"levelo://app?vid=3d392992-7941-4ad9-94b9-ceb9b8255144","ios":"levelo://app?vid=3d392992-7941-4ad9-94b9-ceb9b8255144"},"vehicle_type_id":"4","last_reported":1733436563,"current_range_meters":13600,"station_id":"ce4bhih2rcd13ifvqfr0","pricing_plan_id":"cebpf4jnsgd1na2vs0mg"},{"bike_id":"1359d118-2a84-4a47-939c-e6915013d606","system_id":"levelo_inurba_marseille","lat":43.28702,"lon":5.37418,"is_reserved":false,"is_disabled":false,"rental_uris":{"android":"levelo://app?vid=1359d118-2a84-4a47-939c-e6915013d606","ios":"levelo://app?vid=1359d118-2a84-4a47-939c-e6915013d606"},"vehicle_type_id":"4","last_reported":1733436563,"current_range_meters":28800,"station_id":"ce4bh3p2rcd13ifvqdq0","pricing_plan_id":"cebpf4jnsgd1na2vs0mg"},{"bike_id":"16c25e55-4ae8-4704-9efd-743d76b8504f","system_id":"levelo_inurba_marseille","lat":43.31168,"lon":5.38722,"is_reserved":false,"is_disabled":false,"rental_uris":{"android":"levelo://app?vid=16c25e55-4ae8-4704-9efd-743d76b8504f","ios":"levelo://app?vid=16c25e55-4ae8-4704-9efd-743d76b8504f"},"vehicle_type_id":"4","last_reported":1733436563,"current_range_meters":27200,"station_id":"ce4bgv12rcd13ifvqcp0","pricing_plan_id":"cebpf4jnsgd1na2vs0mg"},{"bike_id":"18c465ad-16a0-4d72-a337-11a15929aab8","system_id":"levelo_inurba_marseille","lat":43.23957,"lon":5.36639,"is_reserved":false,"is_disabled":false,"rental_uris":{"android":"levelo://app?vid=18c465ad-16a0-4d72-a337-11a15929aab8","ios":"levelo://app?vid=18c465ad-16a0-4d72-a337-11a15929aab8"},"vehicle_type_id":"4","last_reported":1733436563,"current_range_meters":10800,"station_id":"ce4bhi12rcd13ifvqfp0","pricing_plan_id":"cebpf4jnsgd1na2vs0mg"},{"bike_id":"2f7b887c-1623-4de2-8868-e6f453f327e4","system_id":"levelo_inurba_marseille","lat":43.30357,"lon":5.41878,"is_reserved":false,"is_disabled":true,"rental_uris":{"android":"levelo://app?vid=2f7b887c-1623-4de2-8868-e6f453f327e4","ios":"levelo://app?vid=2f7b887c-1623-4de2-8868-e6f453f327e4"},"vehicle_type_id":"4","last_reported":1733436563,"current_range_meters":800,"station_id":"ce4bhop2rcd13ifvqh7g","pricing_plan_id":"cebpf4jnsgd1na2vs0mg"},{"bike_id":"8fccc1d6-d45b-423a-b239-5888f66205a2","system_id":"levelo_inurba_marseille","lat":43.31075,"lon":5.38365,"is_reserved":false,"is_disabled":false,"rental_uris":{"android":"levelo://app?vid=8fccc1d6-d45b-423a-b239-5888f66205a2","ios":"levelo://app?vid=8fccc1d6-d45b-423a-b239-5888f66205a2"},"vehicle_type_id":"4","last_reported":1733436563,"current_range_meters":32800,"station_id":"ce4bgv92rcd13ifvqcr0","pricing_plan_id":"cebpf4jnsgd1na2vs0mg"},{"bike_id":"b0025f03-f4b7-4e1f-b2ae-d738bfb01f75","system_id":"levelo_inurba_marseille","lat":43.31361,"lon":5.37714,"is_reserved":false,"is_disabled":true,"rental_uris":{"android":"levelo://app?vid=b0025f03-f4b7-4e1f-b2ae-d738bfb01f75","ios":"levelo://app?vid=b0025f03-f4b7-4e1f-b2ae-d738bfb01f75"},"vehicle_type_id":"4","last_reported":1733436563,"current_range_meters":36400,"station_id":"","pricing_plan_id":"cebpf4jnsgd1na2vs0mg"},{"bike_id":"79ed1f41-2857-451d-ac37-e1ef363105e4","system_id":"levelo_inurba_marseille","lat":43.28924,"lon":5.39605,"is_reserved":false,"is_disabled":false,"rental_uris":{"android":"levelo://app?vid=79ed1f41-2857-451d-ac37-e1ef363105e4","ios":"levelo://app?vid=79ed1f41-2857-451d-ac37-e1ef363105e4"},"vehicle_type_id":"4","last_reported":1733436563,"current_range_meters":38800,"station_id":"ce4bh3h2rcd13ifvqdn0","pricing_plan_id":"cebpf4jnsgd1na2vs0mg"},{"bike_id":"b85bb37f-2197-498e-b358-747241fe43e5","system_id":"levelo_inurba_marseille","lat":43.28426,"lon":5.39177,"is_reserved":false,"is_disabled":false,"rental_uris":{"android":"levelo://app?vid=b85bb37f-2197-498e-b358-747241fe43e5","ios":"levelo://app?vid=b85bb37f-2197-498e-b358-747241fe43e5"},"vehicle_type_id":"4","last_reported":1733436563,"current_range_meters":38800,"station_id":"ce4bhoh2rcd13ifvqh5g","pricing_plan_id":"cebpf4jnsgd1na2vs0mg"},{"bike_id":"a80a808b-d83a-48b0-a87c-889d0a59a5e3","system_id":"levelo_inurba_marseille","lat":43.243934,"lon":5.370592,"is_reserved":false,"is_disabled":false,"rental_uris":{"android":"levelo://app?vid=a80a808b-d83a-48b0-a87c-889d0a59a5e3","ios":"levelo://app?vid=a80a808b-d83a-48b0-a87c-889d0a59a5e3"},"vehicle_type_id":"4","last_reported":1733436563,"current_range_meters":38000,"station_id":"ce4bhhh2rcd13ifvqfk0","pricing_plan_id":"cebpf4jnsgd1na2vs0mg"},{"bike_id":"dc36f605-0451-477c-a651-d3be2c7b8ad3","system_id":"levelo_inurba_marseille","lat":43.31119,"lon":5.37784,"is_reserved":false,"is_disabled":false,"rental_uris":{"android":"levelo://app?vid=dc36f605-0451-477c-a651-d3be2c7b8ad3","ios":"levelo://app?vid=dc36f605-0451-477c-a651-d3be2c7b8ad3"},"vehicle_type_id":"4","last_reported":1733436563,"current_range_meters":35600,"station_id":"ce4bgt92rcd13ifvqcg0","pricing_plan_id":"cebpf4jnsgd1na2vs0mg"},{"bike_id":"0fb2159c-8ef4-40fa-8d5d-1393b3e943b2","system_id":"levelo_inurba_marseille","lat":43.28705,"lon":5.3998,"is_reserved":false,"is_disabled":false,"rental_uris":{"android":"levelo://app?vid=0fb2159c-8ef4-40fa-8d5d-1393b3e943b2","ios":"levelo://app?vid=0fb2159c-8ef4-40fa-8d5d-1393b3e943b2"},"vehicle_type_id":"4","last_reported":1733436563,"current_range_meters":32800,"station_id":"ce4bho92rcd13ifvqh3g","pricing_plan_id":"cebpf4jnsgd1na2vs0mg"},{"bike_id":"f10c5e90-601b-4bd4-87e7-4cbb6a13a4fb","system_id":"levelo_inurba_marseille","lat":43.26121,"lon":5.39272,"is_reserved":false,"is_disabled":false,"rental_uris":{"android":"levelo://app?vid=f10c5e90-601b-4bd4-87e7-4cbb6a13a4fb","ios":"levelo://app?vid=f10c5e90-601b-4bd4-87e7-4cbb6a13a4fb"},"vehicle_type_id":"4","last_reported":1733436563,"current_range_meters":4000,"station_id":"","pricing_plan_id":"cebpf4jnsgd1na2vs0mg"},{"bike_id":"62b5ba9b-f9b7-4cd1-af5a-3213898ede84","system_id":"levelo_inurba_marseille","lat":43.28848,"lon":5.35833,"is_reserved":false,"is_disabled":false,"rental_uris":{"android":"levelo://app?vid=62b5ba9b-f9b7-4cd1-af5a-3213898ede84","ios":"levelo://app?vid=62b5ba9b-f9b7-4cd1-af5a-3213898ede84"},"vehicle_type_id":"4","last_reported":1733436563,"current_range_meters":38800,"station_id":"ce4bhb12rcd13ifvqem0","pricing_plan_id":"cebpf4jnsgd1na2vs0mg"},{"bike_id":"216642dc-5e19-4552-8c52-74eda9279fe7","system_id":"levelo_inurba_marseille","lat":43.31687,"lon":5.40466,"is_reserved":false,"is_disabled":true,"rental_uris":{"android":"levelo://app?vid=216642dc-5e19-4552-8c52-74eda9279fe7","ios":"levelo://app?vid=216642dc-5e19-4552-8c52-74eda9279fe7"},"vehicle_type_id":"4","last_reported":1733436563,"current_range_meters":800,"station_id":"ce4bh012rcd13ifvqd00","pricing_plan_id":"cebpf4jnsgd1na2vs0mg"},{"bike_id":"afd1bf14-3ba1-4dce-845e-7ca743e06c7c","system_id":"levelo_inurba_marseille","lat":43.28153,"lon":5.42652,"is_reserved":false,"is_disabled":false,"rental_uris":{"android":"levelo://app?vid=afd1bf14-3ba1-4dce-845e-7ca743e06c7c","ios":"levelo://app?vid=afd1bf14-3ba1-4dce-845e-7ca743e06c7c"},"vehicle_type_id":"4","last_reported":1733436563,"current_range_meters":38800,"station_id":"ce4bhnh2rcd13ifvqgug","pricing_plan_id":"cebpf4jnsgd1na2vs0mg"},{"bike_id":"2165dbf2-bcf4-4c26-9cea-b5a99992ccff","system_id":"levelo_inurba_marseille","lat":43.28264,"lon":5.35074,"is_reserved":false,"is_disabled":false,"rental_uris":{"android":"levelo://app?vid=2165dbf2-bcf4-4c26-9cea-b5a99992ccff","ios":"levelo://app?vid=2165dbf2-bcf4-4c26-9cea-b5a99992ccff"},"vehicle_type_id":"4","last_reported":1733436563,"current_range_meters":38400,"station_id":"ce4bhbp2rcd13ifvqerg","pricing_plan_id":"cebpf4jnsgd1na2vs0mg"},{"bike_id":"e9f33ec6-71dd-4c01-81d1-548f83eda297","system_id":"levelo_inurba_marseille","lat":43.24669,"lon":5.381557,"is_reserved":false,"is_disabled":false,"rental_uris":{"android":"levelo://app?vid=e9f33ec6-71dd-4c01-81d1-548f83eda297","ios":"levelo://app?vid=e9f33ec6-71dd-4c01-81d1-548f83eda297"},"vehicle_type_id":"4","last_reported":1733436563,"current_range_meters":39200,"station_id":"ce4bhih2rcd13ifvqfr0","pricing_plan_id":"cebpf4jnsgd1na2vs0mg"},{"bike_id":"9c1aa655-2284-43d2-8676-2e7c29dc7883","system_id":"levelo_inurba_marseille","lat":43.32369,"lon":5.38888,"is_reserved":false,"is_disabled":false,"rental_uris":{"android":"levelo://app?vid=9c1aa655-2284-43d2-8676-2e7c29dc7883","ios":"levelo://app?vid=9c1aa655-2284-43d2-8676-2e7c29dc7883"},"vehicle_type_id":"4","last_reported":1733436563,"current_range_meters":19600,"station_id":"ce4bhqp2rcd13ifvqhog","pricing_plan_id":"cebpf4jnsgd1na2vs0mg"},{"bike_id":"25df6fa5-0e99-4ca3-b962-45e4d327f4cd","system_id":"levelo_inurba_marseille","lat":43.28613,"lon":5.35118,"is_reserved":false,"is_disabled":false,"rental_uris":{"android":"levelo://app?vid=25df6fa5-0e99-4ca3-b962-45e4d327f4cd","ios":"levelo://app?vid=25df6fa5-0e99-4ca3-b962-45e4d327f4cd"},"vehicle_type_id":"4","last_reported":1733436563,"current_range_meters":23200,"station_id":"ce4bhch2rcd13ifvqeug","pricing_plan_id":"cebpf4jnsgd1na2vs0mg"},{"bike_id":"1d5abf68-f515-4e54-a642-e37e178c6b1d","system_id":"levelo_inurba_marseille","lat":43.31759,"lon":5.39021,"is_reserved":false,"is_disabled":false,"rental_uris":{"android":"levelo://app?vid=1d5abf68-f515-4e54-a642-e37e178c6b1d","ios":"levelo://app?vid=1d5abf68-f515-4e54-a642-e37e178c6b1d"},"vehicle_type_id":"4","last_reported":1733436563,"current_range_meters":6400,"station_id":"ce4bhqp2rcd13ifvqhng","pricing_plan_id":"cebpf4jnsgd1na2vs0mg"},{"bike_id":"c0ecc308-ccc4-492f-bcda-d659d2cd5777","system_id":"levelo_inurba_marseille","lat":43.25106,"lon":5.40325,"is_reserved":false,"is_disabled":false,"rental_uris":{"android":"levelo://app?vid=c0ecc308-ccc4-492f-bcda-d659d2cd5777","ios":"levelo://app?vid=c0ecc308-ccc4-492f-bcda-d659d2cd5777"},"vehicle_type_id":"4","last_reported":1733436563,"current_range_meters":38800,"station_id":"ce4bhlh2rcd13ifvqgig","pricing_plan_id":"cebpf4jnsgd1na2vs0mg"},{"bike_id":"f5bd5773-3df4-400a-9c89-e449e0b42a96","system_id":"levelo_inurba_marseille","lat":43.2481,"lon":5.3746,"is_reserved":false,"is_disabled":true,"rental_uris":{"android":"levelo://app?vid=f5bd5773-3df4-400a-9c89-e449e0b42a96","ios":"levelo://app?vid=f5bd5773-3df4-400a-9c89-e449e0b42a96"},"vehicle_type_id":"4","last_reported":1733436563,"current_range_meters":38800,"station_id":"ce4bhgh2rcd13ifvqfb0","pricing_plan_id":"cebpf4jnsgd1na2vs0mg"},{"bike_id":"c53e92a2-2a41-4491-aefc-d0e3aab839c9","system_id":"levelo_inurba_marseille","lat":43.31481,"lon":5.37312,"is_reserved":false,"is_disabled":false,"rental_uris":{"android":"levelo://app?vid=c53e92a2-2a41-4491-aefc-d0e3aab839c9","ios":"levelo://app?vid=c53e92a2-2a41-4491-aefc-d0e3aab839c9"},"vehicle_type_id":"4","last_reported":1733436563,"current_range_meters":19600,"station_id":"ce4bgt12rcd13ifvqcd0","pricing_plan_id":"cebpf4jnsgd1na2vs0mg"},{"bike_id":"cee1a977-f386-4ca7-b7f4-ecb23b8538de","system_id":"levelo_inurba_marseille","lat":43.28484,"lon":5.38434,"is_reserved":false,"is_disabled":true,"rental_uris":{"android":"levelo://app?vid=cee1a977-f386-4ca7-b7f4-ecb23b8538de","ios":"levelo://app?vid=cee1a977-f386-4ca7-b7f4-ecb23b8538de"},"vehicle_type_id":"4","last_reported":1733436563,"current_range_meters":0,"station_id":"ce4bh512rcd13ifvqe3g","pricing_plan_id":"cebpf4jnsgd1na2vs0mg"},{"bike_id":"a4d3b324-e08a-49a2-ae58-8854d2d2da3b","system_id":"levelo_inurba_marseille","lat":43.31784,"lon":5.3727,"is_reserved":false,"is_disabled":false,"rental_uris":{"android":"levelo://app?vid=a4d3b324-e08a-49a2-ae58-8854d2d2da3b","ios":"levelo://app?vid=a4d3b324-e08a-49a2-ae58-8854d2d2da3b"},"vehicle_type_id":"4","last_reported":1733436563,"current_range_meters":36400,"station_id":"","pricing_plan_id":"cebpf4jnsgd1na2vs0mg"},{"bike_id":"cdfe6590-4984-4014-86c8-6dd70747c27a","system_id":"levelo_inurba_marseille","lat":43.29737,"lon":5.37434,"is_reserved":false,"is_disabled":true,"rental_uris":{"android":"levelo://app?vid=cdfe6590-4984-4014-86c8-6dd70747c27a","ios":"levelo://app?vid=cdfe6590-4984-4014-86c8-6dd70747c27a"},"vehicle_type_id":"4","last_reported":1733436563,"current_range_meters":0,"station_id":"","pricing_plan_id":"cebpf4jnsgd1na2vs0mg"},{"bike_id":"12b9e90f-ef64-450d-b3a9-b0fbf2b502a4","system_id":"levelo_inurba_marseille","lat":43.25863,"lon":5.39911,"is_reserved":false,"is_disabled":false,"rental_uris":{"android":"levelo://app?vid=12b9e90f-ef64-450d-b3a9-b0fbf2b502a4","ios":"levelo://app?vid=12b9e90f-ef64-450d-b3a9-b0fbf2b502a4"},"vehicle_type_id":"4","last_reported":1733436563,"current_range_meters":37600,"station_id":"ce4bhl92rcd13ifvqghg","pricing_plan_id":"cebpf4jnsgd1na2vs0mg"},{"bike_id":"4d0dadab-e6e1-4e5a-9b42-cd848beb1025","system_id":"levelo_inurba_marseille","lat":43.2558,"lon":5.38235,"is_reserved":false,"is_disabled":false,"rental_uris":{"android":"levelo://app?vid=4d0dadab-e6e1-4e5a-9b42-cd848beb1025","ios":"levelo://app?vid=4d0dadab-e6e1-4e5a-9b42-cd848beb1025"},"vehicle_type_id":"4","last_reported":1733436563,"current_range_meters":22000,"station_id":"ce4bhih2rcd13ifvqfs0","pricing_plan_id":"cebpf4jnsgd1na2vs0mg"},{"bike_id":"a0181206-4402-4eee-b282-307bc5035baf","system_id":"levelo_inurba_marseille","lat":43.27998,"lon":5.40022,"is_reserved":false,"is_disabled":false,"rental_uris":{"android":"levelo://app?vid=a0181206-4402-4eee-b282-307bc5035baf","ios":"levelo://app?vid=a0181206-4402-4eee-b282-307bc5035baf"},"vehicle_type_id":"4","last_reported":1733436563,"current_range_meters":38800,"station_id":"ce4bho92rcd13ifvqh4g","pricing_plan_id":"cebpf4jnsgd1na2vs0mg"},{"bike_id":"e2cdea43-ad97-4200-b914-6f7dfd53d908","system_id":"levelo_inurba_marseille","lat":43.29891,"lon":5.38432,"is_reserved":false,"is_disabled":false,"rental_uris":{"android":"levelo://app?vid=e2cdea43-ad97-4200-b914-6f7dfd53d908","ios":"levelo://app?vid=e2cdea43-ad97-4200-b914-6f7dfd53d908"},"vehicle_type_id":"4","last_reported":1733436563,"current_range_meters":25600,"station_id":"","pricing_plan_id":"cebpf4jnsgd1na2vs0mg"},{"bike_id":"469a864b-8404-47a6-8768-c5137a0c1978","system_id":"levelo_inurba_marseille","lat":43.2872,"lon":5.37944,"is_reserved":false,"is_disabled":false,"rental_uris":{"android":"levelo://app?vid=469a864b-8404-47a6-8768-c5137a0c1978","ios":"levelo://app?vid=469a864b-8404-47a6-8768-c5137a0c1978"},"vehicle_type_id":"4","last_reported":1733436563,"current_range_meters":31200,"station_id":"ce4bh9p2rcd13ifvqec0","pricing_plan_id":"cebpf4jnsgd1na2vs0mg"},{"bike_id":"6fb00969-21f8-4503-a74e-e887bd6407a1","system_id":"levelo_inurba_marseille","lat":43.274814,"lon":5.424544,"is_reserved":false,"is_disabled":false,"rental_uris":{"android":"levelo://app?vid=6fb00969-21f8-4503-a74e-e887bd6407a1","ios":"levelo://app?vid=6fb00969-21f8-4503-a74e-e887bd6407a1"},"vehicle_type_id":"4","last_reported":1733436563,"current_range_meters":38400,"station_id":"ce4bhn92rcd13ifvqgrg","pricing_plan_id":"cebpf4jnsgd1na2vs0mg"},{"bike_id":"987a5ab4-d60c-480c-94b6-7cab38975402","system_id":"levelo_inurba_marseille","lat":43.29748,"lon":5.37971,"is_reserved":false,"is_disabled":true,"rental_uris":{"android":"levelo://app?vid=987a5ab4-d60c-480c-94b6-7cab38975402","ios":"levelo://app?vid=987a5ab4-d60c-480c-94b6-7cab38975402"},"vehicle_type_id":"4","last_reported":1733436563,"current_range_meters":0,"station_id":"","pricing_plan_id":"cebpf4jnsgd1na2vs0mg"},{"bike_id":"2c4596ad-0ad9-4016-b92b-0093349de2b4","system_id":"levelo_inurba_marseille","lat":43.30755,"lon":5.38187,"is_reserved":false,"is_disabled":true,"rental_uris":{"android":"levelo://app?vid=2c4596ad-0ad9-4016-b92b-0093349de2b4","ios":"levelo://app?vid=2c4596ad-0ad9-4016-b92b-0093349de2b4"},"vehicle_type_id":"4","last_reported":1733436563,"current_range_meters":0,"station_id":"","pricing_plan_id":"cebpf4jnsgd1na2vs0mg"},{"bike_id":"a7bb67de-1f69-4c60-8636-2afa978b6670","system_id":"levelo_inurba_marseille","lat":43.27569,"lon":5.3844,"is_reserved":false,"is_disabled":false,"rental_uris":{"android":"levelo://app?vid=a7bb67de-1f69-4c60-8636-2afa978b6670","ios":"levelo://app?vid=a7bb67de-1f69-4c60-8636-2afa978b6670"},"vehicle_type_id":"4","last_reported":1733436563,"current_range_meters":35200,"station_id":"ce4bhh92rcd13ifvqfi0","pricing_plan_id":"cebpf4jnsgd1na2vs0mg"},{"bike_id":"041ff3e3-65ce-49c8-8613-01e5e11b8dc1","system_id":"levelo_inurba_marseille","lat":43.27942,"lon":5.41041,"is_reserved":false,"is_disabled":false,"rental_uris":{"android":"levelo://app?vid=041ff3e3-65ce-49c8-8613-01e5e11b8dc1","ios":"levelo://app?vid=041ff3e3-65ce-49c8-8613-01e5e11b8dc1"},"vehicle_type_id":"4","last_reported":1733436563,"current_range_meters":36400,"station_id":"ce4bhnp2rcd13ifvqh0g","pricing_plan_id":"cebpf4jnsgd1na2vs0mg"},{"bike_id":"b7ab8c01-033f-4395-8276-23c850ad3d02","system_id":"levelo_inurba_marseille","lat":43.30348,"lon":5.36626,"is_reserved":false,"is_disabled":true,"rental_uris":{"android":"levelo://app?vid=b7ab8c01-033f-4395-8276-23c850ad3d02","ios":"levelo://app?vid=b7ab8c01-033f-4395-8276-23c850ad3d02"},"vehicle_type_id":"4","last_reported":1733436563,"current_range_meters":0,"station_id":"","pricing_plan_id":"cebpf4jnsgd1na2vs0mg"},{"bike_id":"0279b2c0-513c-422a-b9fb-9fc99372925b","system_id":"levelo_inurba_marseille","lat":43.31322,"lon":5.39697,"is_reserved":false,"is_disabled":false,"rental_uris":{"android":"levelo://app?vid=0279b2c0-513c-422a-b9fb-9fc99372925b","ios":"levelo://app?vid=0279b2c0-513c-422a-b9fb-9fc99372925b"},"vehicle_type_id":"4","last_reported":1733436563,"current_range_meters":22000,"station_id":"ce4bgvp2rcd13ifvqcu0","pricing_plan_id":"cebpf4jnsgd1na2vs0mg"},{"bike_id":"f4676a9b-685c-4e8f-a479-8e34f48f1df5","system_id":"levelo_inurba_marseille","lat":43.33722,"lon":5.39182,"is_reserved":false,"is_disabled":false,"rental_uris":{"android":"levelo://app?vid=f4676a9b-685c-4e8f-a479-8e34f48f1df5","ios":"levelo://app?vid=f4676a9b-685c-4e8f-a479-8e34f48f1df5"},"vehicle_type_id":"4","last_reported":1733436563,"current_range_meters":38800,"station_id":"ce4bhr92rcd13ifvqhsg","pricing_plan_id":"cebpf4jnsgd1na2vs0mg"},{"bike_id":"132a5b8d-8909-414a-a469-2024a1763d7d","system_id":"levelo_inurba_marseille","lat":43.27559,"lon":5.3842,"is_reserved":false,"is_disabled":false,"rental_uris":{"android":"levelo://app?vid=132a5b8d-8909-414a-a469-2024a1763d7d","ios":"levelo://app?vid=132a5b8d-8909-414a-a469-2024a1763d7d"},"vehicle_type_id":"4","last_reported":1733436563,"current_range_meters":38800,"station_id":"ce4bhh92rcd13ifvqfi0","pricing_plan_id":"cebpf4jnsgd1na2vs0mg"},{"bike_id":"01fc086f-11d0-4126-a5a7-f83f36005f81","system_id":"levelo_inurba_marseille","lat":43.3188,"lon":5.37326,"is_reserved":false,"is_disabled":false,"rental_uris":{"android":"levelo://app?vid=01fc086f-11d0-4126-a5a7-f83f36005f81","ios":"levelo://app?vid=01fc086f-11d0-4126-a5a7-f83f36005f81"},"vehicle_type_id":"4","last_reported":1733436563,"current_range_meters":37600,"station_id":"","pricing_plan_id":"cebpf4jnsgd1na2vs0mg"},{"bike_id":"3d769a68-e6a2-4c4a-88b0-3c686dbb241d","system_id":"levelo_inurba_marseille","lat":43.28914,"lon":5.39523,"is_reserved":false,"is_disabled":false,"rental_uris":{"android":"levelo://app?vid=3d769a68-e6a2-4c4a-88b0-3c686dbb241d","ios":"levelo://app?vid=3d769a68-e6a2-4c4a-88b0-3c686dbb241d"},"vehicle_type_id":"4","last_reported":1733436563,"current_range_meters":6400,"station_id":"","pricing_plan_id":"cebpf4jnsgd1na2vs0mg"},{"bike_id":"365a7539-8d65-43f2-8f6f-884e74be06d8","system_id":"levelo_inurba_marseille","lat":43.28614,"lon":5.35103,"is_reserved":false,"is_disabled":false,"rental_uris":{"android":"levelo://app?vid=365a7539-8d65-43f2-8f6f-884e74be06d8","ios":"levelo://app?vid=365a7539-8d65-43f2-8f6f-884e74be06d8"},"vehicle_type_id":"4","last_reported":1733436563,"current_range_meters":6800,"station_id":"ce4bhch2rcd13ifvqeug","pricing_plan_id":"cebpf4jnsgd1na2vs0mg"},{"bike_id":"d0fd18c1-3898-46e2-812b-d16b1dad312a","system_id":"levelo_inurba_marseille","lat":43.27881,"lon":5.38828,"is_reserved":false,"is_disabled":false,"rental_uris":{"android":"levelo://app?vid=d0fd18c1-3898-46e2-812b-d16b1dad312a","ios":"levelo://app?vid=d0fd18c1-3898-46e2-812b-d16b1dad312a"},"vehicle_type_id":"4","last_reported":1733436563,"current_range_meters":8400,"station_id":"","pricing_plan_id":"cebpf4jnsgd1na2vs0mg"},{"bike_id":"6cc6805f-c0ca-4585-bdf1-b5a0339762b0","system_id":"levelo_inurba_marseille","lat":43.29017,"lon":5.42803,"is_reserved":false,"is_disabled":true,"rental_uris":{"android":"levelo://app?vid=6cc6805f-c0ca-4585-bdf1-b5a0339762b0","ios":"levelo://app?vid=6cc6805f-c0ca-4585-bdf1-b5a0339762b0"},"vehicle_type_id":"4","last_reported":1733436563,"current_range_meters":0,"station_id":"","pricing_plan_id":"cebpf4jnsgd1na2vs0mg"},{"bike_id":"70ad6bd3-29b1-4088-9b05-ff9c5c83c8ff","system_id":"levelo_inurba_marseille","lat":43.28842,"lon":5.35839,"is_reserved":false,"is_disabled":false,"rental_uris":{"android":"levelo://app?vid=70ad6bd3-29b1-4088-9b05-ff9c5c83c8ff","ios":"levelo://app?vid=70ad6bd3-29b1-4088-9b05-ff9c5c83c8ff"},"vehicle_type_id":"4","last_reported":1733436563,"current_range_meters":38800,"station_id":"ce4bhb12rcd13ifvqem0","pricing_plan_id":"cebpf4jnsgd1na2vs0mg"},{"bike_id":"4e6fc26f-c1d5-4d84-ac5b-7d384b8c30d5","system_id":"levelo_inurba_marseille","lat":43.32356,"lon":5.36737,"is_reserved":false,"is_disabled":false,"rental_uris":{"android":"levelo://app?vid=4e6fc26f-c1d5-4d84-ac5b-7d384b8c30d5","ios":"levelo://app?vid=4e6fc26f-c1d5-4d84-ac5b-7d384b8c30d5"},"vehicle_type_id":"4","last_reported":1733436563,"current_range_meters":8800,"station_id":"ce4bhsh2rcd13ifvqi2g","pricing_plan_id":"cebpf4jnsgd1na2vs0mg"},{"bike_id":"8d1c8b92-79bb-4181-b0d2-5e94db1a14d0","system_id":"levelo_inurba_marseille","lat":43.29972,"lon":5.3826,"is_reserved":false,"is_disabled":true,"rental_uris":{"android":"levelo://app?vid=8d1c8b92-79bb-4181-b0d2-5e94db1a14d0","ios":"levelo://app?vid=8d1c8b92-79bb-4181-b0d2-5e94db1a14d0"},"vehicle_type_id":"4","last_reported":1733436563,"current_range_meters":0,"station_id":"","pricing_plan_id":"cebpf4jnsgd1na2vs0mg"},{"bike_id":"66988d75-a9f0-423c-89be-11e06668ead3","system_id":"levelo_inurba_marseille","lat":43.26557,"lon":5.37287,"is_reserved":false,"is_disabled":true,"rental_uris":{"android":"levelo://app?vid=66988d75-a9f0-423c-89be-11e06668ead3","ios":"levelo://app?vid=66988d75-a9f0-423c-89be-11e06668ead3"},"vehicle_type_id":"4","last_reported":1733436563,"current_range_meters":0,"station_id":"ce4bhg12rcd13ifvqf70","pricing_plan_id":"cebpf4jnsgd1na2vs0mg"},{"bike_id":"ceb1ecfa-b58d-4608-8bd0-a733cf520ffd","system_id":"levelo_inurba_marseille","lat":43.27995,"lon":5.41664,"is_reserved":false,"is_disabled":false,"rental_uris":{"android":"levelo://app?vid=ceb1ecfa-b58d-4608-8bd0-a733cf520ffd","ios":"levelo://app?vid=ceb1ecfa-b58d-4608-8bd0-a733cf520ffd"},"vehicle_type_id":"4","last_reported":1733436563,"current_range_meters":25600,"station_id":"ce4bho12rcd13ifvqh1g","pricing_plan_id":"cebpf4jnsgd1na2vs0mg"},{"bike_id":"96c7c3a9-4b71-4b9b-933d-ced609f94a31","system_id":"levelo_inurba_marseille","lat":43.27971,"lon":5.38744,"is_reserved":false,"is_disabled":false,"rental_uris":{"android":"levelo://app?vid=96c7c3a9-4b71-4b9b-933d-ced609f94a31","ios":"levelo://app?vid=96c7c3a9-4b71-4b9b-933d-ced609f94a31"},"vehicle_type_id":"4","last_reported":1733436563,"current_range_meters":34800,"station_id":"ce4bhg12rcd13ifvqf80","pricing_plan_id":"cebpf4jnsgd1na2vs0mg"},{"bike_id":"bd97762a-c11b-4874-b403-203a52c032ea","system_id":"levelo_inurba_marseille","lat":43.25121,"lon":5.40316,"is_reserved":false,"is_disabled":false,"rental_uris":{"android":"levelo://app?vid=bd97762a-c11b-4874-b403-203a52c032ea","ios":"levelo://app?vid=bd97762a-c11b-4874-b403-203a52c032ea"},"vehicle_type_id":"4","last_reported":1733436563,"current_range_meters":11600,"station_id":"ce4bhlh2rcd13ifvqgig","pricing_plan_id":"cebpf4jnsgd1na2vs0mg"},{"bike_id":"7401184e-dcdc-4f69-89e9-1615045c1f8c","system_id":"levelo_inurba_marseille","lat":43.30033,"lon":5.38915,"is_reserved":false,"is_disabled":true,"rental_uris":{"android":"levelo://app?vid=7401184e-dcdc-4f69-89e9-1615045c1f8c","ios":"levelo://app?vid=7401184e-dcdc-4f69-89e9-1615045c1f8c"},"vehicle_type_id":"4","last_reported":1733436563,"current_range_meters":0,"station_id":"","pricing_plan_id":"cebpf4jnsgd1na2vs0mg"},{"bike_id":"496cc428-1475-4833-bb4e-835323ffa004","system_id":"levelo_inurba_marseille","lat":43.29186,"lon":5.35795,"is_reserved":false,"is_disabled":false,"rental_uris":{"android":"levelo://app?vid=496cc428-1475-4833-bb4e-835323ffa004","ios":"levelo://app?vid=496cc428-1475-4833-bb4e-835323ffa004"},"vehicle_type_id":"4","last_reported":1733436563,"current_range_meters":7200,"station_id":"ce4bhb12rcd13ifvqel0","pricing_plan_id":"cebpf4jnsgd1na2vs0mg"},{"bike_id":"66c7475d-8d9f-4e07-87f5-8b1c1f128cd1","system_id":"levelo_inurba_marseille","lat":43.29572,"lon":5.39973,"is_reserved":false,"is_disabled":false,"rental_uris":{"android":"levelo://app?vid=66c7475d-8d9f-4e07-87f5-8b1c1f128cd1","ios":"levelo://app?vid=66c7475d-8d9f-4e07-87f5-8b1c1f128cd1"},"vehicle_type_id":"4","last_reported":1733436563,"current_range_meters":22000,"station_id":"ce4bh312rcd13ifvqdj0","pricing_plan_id":"cebpf4jnsgd1na2vs0mg"},{"bike_id":"ea9e2f9d-0c58-47e6-ae84-970b726fc55f","system_id":"levelo_inurba_marseille","lat":43.2694,"lon":5.40257,"is_reserved":false,"is_disabled":false,"rental_uris":{"android":"levelo://app?vid=ea9e2f9d-0c58-47e6-ae84-970b726fc55f","ios":"levelo://app?vid=ea9e2f9d-0c58-47e6-ae84-970b726fc55f"},"vehicle_type_id":"4","last_reported":1733436563,"current_range_meters":27600,"station_id":"cjm6bp8fraef2m0cb0m0","pricing_plan_id":"cebpf4jnsgd1na2vs0mg"},{"bike_id":"4699164d-982f-49d7-b15c-44e1fbb2a7c3","system_id":"levelo_inurba_marseille","lat":43.2957,"lon":5.39984,"is_reserved":false,"is_disabled":false,"rental_uris":{"android":"levelo://app?vid=4699164d-982f-49d7-b15c-44e1fbb2a7c3","ios":"levelo://app?vid=4699164d-982f-49d7-b15c-44e1fbb2a7c3"},"vehicle_type_id":"4","last_reported":1733436563,"current_range_meters":36000,"station_id":"ce4bh312rcd13ifvqdj0","pricing_plan_id":"cebpf4jnsgd1na2vs0mg"},{"bike_id":"ef32b5a1-1434-474c-b080-e0808de885e6","system_id":"levelo_inurba_marseille","lat":43.27973,"lon":5.38734,"is_reserved":false,"is_disabled":false,"rental_uris":{"android":"levelo://app?vid=ef32b5a1-1434-474c-b080-e0808de885e6","ios":"levelo://app?vid=ef32b5a1-1434-474c-b080-e0808de885e6"},"vehicle_type_id":"4","last_reported":1733436563,"current_range_meters":22000,"station_id":"ce4bhg12rcd13ifvqf80","pricing_plan_id":"cebpf4jnsgd1na2vs0mg"},{"bike_id":"5e0f238b-ae64-4126-8ec3-f35e96dcf93f","system_id":"levelo_inurba_marseille","lat":43.24999,"lon":5.38925,"is_reserved":false,"is_disabled":false,"rental_uris":{"android":"levelo://app?vid=5e0f238b-ae64-4126-8ec3-f35e96dcf93f","ios":"levelo://app?vid=5e0f238b-ae64-4126-8ec3-f35e96dcf93f"},"vehicle_type_id":"4","last_reported":1733436563,"current_range_meters":25200,"station_id":"ce4bhgp2rcd13ifvqfd0","pricing_plan_id":"cebpf4jnsgd1na2vs0mg"},{"bike_id":"8029ec88-3d1a-41c8-91a0-43589d206562","system_id":"levelo_inurba_marseille","lat":43.28079,"lon":5.39665,"is_reserved":false,"is_disabled":false,"rental_uris":{"android":"levelo://app?vid=8029ec88-3d1a-41c8-91a0-43589d206562","ios":"levelo://app?vid=8029ec88-3d1a-41c8-91a0-43589d206562"},"vehicle_type_id":"4","last_reported":1733436563,"current_range_meters":36800,"station_id":"ce4bho12rcd13ifvqh2g","pricing_plan_id":"cebpf4jnsgd1na2vs0mg"},{"bike_id":"c61e3265-1add-4400-8091-4b8164bfe48a","system_id":"levelo_inurba_marseille","lat":43.25115,"lon":5.40324,"is_reserved":false,"is_disabled":false,"rental_uris":{"android":"levelo://app?vid=c61e3265-1add-4400-8091-4b8164bfe48a","ios":"levelo://app?vid=c61e3265-1add-4400-8091-4b8164bfe48a"},"vehicle_type_id":"4","last_reported":1733436563,"current_range_meters":36000,"station_id":"ce4bhlh2rcd13ifvqgig","pricing_plan_id":"cebpf4jnsgd1na2vs0mg"},{"bike_id":"3fab0d02-0b16-4f66-b1af-3c810bb7b85a","system_id":"levelo_inurba_marseille","lat":43.2937,"lon":5.37846,"is_reserved":false,"is_disabled":true,"rental_uris":{"android":"levelo://app?vid=3fab0d02-0b16-4f66-b1af-3c810bb7b85a","ios":"levelo://app?vid=3fab0d02-0b16-4f66-b1af-3c810bb7b85a"},"vehicle_type_id":"4","last_reported":1733436563,"current_range_meters":26800,"station_id":"ce4bgjh2rcd13ifvqbf0","pricing_plan_id":"cebpf4jnsgd1na2vs0mg"},{"bike_id":"2aab817b-3036-4778-b252-20a2852e9c7c","system_id":"levelo_inurba_marseille","lat":43.28081,"lon":5.39664,"is_reserved":false,"is_disabled":false,"rental_uris":{"android":"levelo://app?vid=2aab817b-3036-4778-b252-20a2852e9c7c","ios":"levelo://app?vid=2aab817b-3036-4778-b252-20a2852e9c7c"},"vehicle_type_id":"4","last_reported":1733436563,"current_range_meters":30400,"station_id":"ce4bho12rcd13ifvqh2g","pricing_plan_id":"cebpf4jnsgd1na2vs0mg"},{"bike_id":"7e138b6d-da12-4dd1-aa5c-731ba9e5976b","system_id":"levelo_inurba_marseille","lat":43.31687,"lon":5.37345,"is_reserved":false,"is_disabled":true,"rental_uris":{"android":"levelo://app?vid=7e138b6d-da12-4dd1-aa5c-731ba9e5976b","ios":"levelo://app?vid=7e138b6d-da12-4dd1-aa5c-731ba9e5976b"},"vehicle_type_id":"4","last_reported":1733436563,"current_range_meters":0,"station_id":"","pricing_plan_id":"cebpf4jnsgd1na2vs0mg"},{"bike_id":"3cf75da4-d788-46e6-b128-1f606a456513","system_id":"levelo_inurba_marseille","lat":43.27182,"lon":5.40991,"is_reserved":false,"is_disabled":false,"rental_uris":{"android":"levelo://app?vid=3cf75da4-d788-46e6-b128-1f606a456513","ios":"levelo://app?vid=3cf75da4-d788-46e6-b128-1f606a456513"},"vehicle_type_id":"4","last_reported":1733436563,"current_range_meters":32400,"station_id":"ce4bhl12rcd13ifvqgf0","pricing_plan_id":"cebpf4jnsgd1na2vs0mg"},{"bike_id":"97caf237-85e4-434f-9ad0-53e6794457f3","system_id":"levelo_inurba_marseille","lat":43.2318,"lon":5.39996,"is_reserved":false,"is_disabled":false,"rental_uris":{"android":"levelo://app?vid=97caf237-85e4-434f-9ad0-53e6794457f3","ios":"levelo://app?vid=97caf237-85e4-434f-9ad0-53e6794457f3"},"vehicle_type_id":"4","last_reported":1733436563,"current_range_meters":38400,"station_id":"ce4bhn12rcd13ifvqgqg","pricing_plan_id":"cebpf4jnsgd1na2vs0mg"},{"bike_id":"180e85fe-8073-4e39-9c71-441b88b9ccde","system_id":"levelo_inurba_marseille","lat":43.29038,"lon":5.35927,"is_reserved":false,"is_disabled":false,"rental_uris":{"android":"levelo://app?vid=180e85fe-8073-4e39-9c71-441b88b9ccde","ios":"levelo://app?vid=180e85fe-8073-4e39-9c71-441b88b9ccde"},"vehicle_type_id":"4","last_reported":1733436563,"current_range_meters":31200,"station_id":"ce4bha92rcd13ifvqeg0","pricing_plan_id":"cebpf4jnsgd1na2vs0mg"},{"bike_id":"90429cbc-d060-40de-b8f1-fb76045b8adc","system_id":"levelo_inurba_marseille","lat":43.28858,"lon":5.39329,"is_reserved":false,"is_disabled":false,"rental_uris":{"android":"levelo://app?vid=90429cbc-d060-40de-b8f1-fb76045b8adc","ios":"levelo://app?vid=90429cbc-d060-40de-b8f1-fb76045b8adc"},"vehicle_type_id":"4","last_reported":1733436563,"current_range_meters":38800,"station_id":"ce4bh2p2rcd13ifvqdi0","pricing_plan_id":"cebpf4jnsgd1na2vs0mg"},{"bike_id":"9c77a68d-2e99-44e9-b903-950fb6644d35","system_id":"levelo_inurba_marseille","lat":43.25265,"lon":5.39465,"is_reserved":false,"is_disabled":true,"rental_uris":{"android":"levelo://app?vid=9c77a68d-2e99-44e9-b903-950fb6644d35","ios":"levelo://app?vid=9c77a68d-2e99-44e9-b903-950fb6644d35"},"vehicle_type_id":"4","last_reported":1733436563,"current_range_meters":0,"station_id":"","pricing_plan_id":"cebpf4jnsgd1na2vs0mg"},{"bike_id":"315c7bc2-5174-410a-9110-4933c4ae6ab7","system_id":"levelo_inurba_marseille","lat":43.2511,"lon":5.40322,"is_reserved":false,"is_disabled":false,"rental_uris":{"android":"levelo://app?vid=315c7bc2-5174-410a-9110-4933c4ae6ab7","ios":"levelo://app?vid=315c7bc2-5174-410a-9110-4933c4ae6ab7"},"vehicle_type_id":"4","last_reported":1733436563,"current_range_meters":16000,"station_id":"ce4bhlh2rcd13ifvqgig","pricing_plan_id":"cebpf4jnsgd1na2vs0mg"},{"bike_id":"c37787ee-0ffa-42ae-a03d-56f1ddfd07e8","system_id":"levelo_inurba_marseille","lat":43.2808,"lon":5.39667,"is_reserved":false,"is_disabled":false,"rental_uris":{"android":"levelo://app?vid=c37787ee-0ffa-42ae-a03d-56f1ddfd07e8","ios":"levelo://app?vid=c37787ee-0ffa-42ae-a03d-56f1ddfd07e8"},"vehicle_type_id":"4","last_reported":1733436563,"current_range_meters":4000,"station_id":"ce4bho12rcd13ifvqh2g","pricing_plan_id":"cebpf4jnsgd1na2vs0mg"},{"bike_id":"bc3d5e10-8b3a-44c5-931e-a78f6c147614","system_id":"levelo_inurba_marseille","lat":43.27567,"lon":5.38425,"is_reserved":false,"is_disabled":false,"rental_uris":{"android":"levelo://app?vid=bc3d5e10-8b3a-44c5-931e-a78f6c147614","ios":"levelo://app?vid=bc3d5e10-8b3a-44c5-931e-a78f6c147614"},"vehicle_type_id":"4","last_reported":1733436563,"current_range_meters":38800,"station_id":"ce4bhh92rcd13ifvqfi0","pricing_plan_id":"cebpf4jnsgd1na2vs0mg"},{"bike_id":"d0c1876a-a4f3-4d77-a856-9a68b657c668","system_id":"levelo_inurba_marseille","lat":43.2407,"lon":5.37769,"is_reserved":false,"is_disabled":false,"rental_uris":{"android":"levelo://app?vid=d0c1876a-a4f3-4d77-a856-9a68b657c668","ios":"levelo://app?vid=d0c1876a-a4f3-4d77-a856-9a68b657c668"},"vehicle_type_id":"4","last_reported":1733436563,"current_range_meters":39200,"station_id":"ce4bhnp2rcd13ifvqgvg","pricing_plan_id":"cebpf4jnsgd1na2vs0mg"},{"bike_id":"83985555-c848-4b28-808f-8a7e7cf8519e","system_id":"levelo_inurba_marseille","lat":43.28115,"lon":5.43955,"is_reserved":false,"is_disabled":true,"rental_uris":{"android":"levelo://app?vid=83985555-c848-4b28-808f-8a7e7cf8519e","ios":"levelo://app?vid=83985555-c848-4b28-808f-8a7e7cf8519e"},"vehicle_type_id":"4","last_reported":1733436563,"current_range_meters":0,"station_id":"","pricing_plan_id":"cebpf4jnsgd1na2vs0mg"},{"bike_id":"76f22b2b-4267-4978-afb4-a70105660a0f","system_id":"levelo_inurba_marseille","lat":43.312309,"lon":5.368615,"is_reserved":false,"is_disabled":false,"rental_uris":{"android":"levelo://app?vid=76f22b2b-4267-4978-afb4-a70105660a0f","ios":"levelo://app?vid=76f22b2b-4267-4978-afb4-a70105660a0f"},"vehicle_type_id":"4","last_reported":1733436563,"current_range_meters":38800,"station_id":"ce4bgl92rcd13ifvqbq0","pricing_plan_id":"cebpf4jnsgd1na2vs0mg"},{"bike_id":"01afb4bc-870a-4bb9-b0a6-be7ee7b649f2","system_id":"levelo_inurba_marseille","lat":43.27178,"lon":5.40985,"is_reserved":false,"is_disabled":false,"rental_uris":{"android":"levelo://app?vid=01afb4bc-870a-4bb9-b0a6-be7ee7b649f2","ios":"levelo://app?vid=01afb4bc-870a-4bb9-b0a6-be7ee7b649f2"},"vehicle_type_id":"4","last_reported":1733436563,"current_range_meters":38800,"station_id":"ce4bhl12rcd13ifvqgf0","pricing_plan_id":"cebpf4jnsgd1na2vs0mg"},{"bike_id":"903ec8f1-f4c3-441f-a117-ff7454fcb959","system_id":"levelo_inurba_marseille","lat":43.29478,"lon":5.39404,"is_reserved":false,"is_disabled":true,"rental_uris":{"android":"levelo://app?vid=903ec8f1-f4c3-441f-a117-ff7454fcb959","ios":"levelo://app?vid=903ec8f1-f4c3-441f-a117-ff7454fcb959"},"vehicle_type_id":"4","last_reported":1733436563,"current_range_meters":0,"station_id":"ce4bh292rcd13ifvqdf0","pricing_plan_id":"cebpf4jnsgd1na2vs0mg"},{"bike_id":"9bc47e6e-404e-4d83-a9c3-862006ca093e","system_id":"levelo_inurba_marseille","lat":43.28811,"lon":5.37904,"is_reserved":false,"is_disabled":false,"rental_uris":{"android":"levelo://app?vid=9bc47e6e-404e-4d83-a9c3-862006ca093e","ios":"levelo://app?vid=9bc47e6e-404e-4d83-a9c3-862006ca093e"},"vehicle_type_id":"4","last_reported":1733436563,"current_range_meters":18000,"station_id":"","pricing_plan_id":"cebpf4jnsgd1na2vs0mg"},{"bike_id":"6b92794e-7050-4e5a-9429-d136dbbcc889","system_id":"levelo_inurba_marseille","lat":43.29631,"lon":5.40596,"is_reserved":false,"is_disabled":false,"rental_uris":{"android":"levelo://app?vid=6b92794e-7050-4e5a-9429-d136dbbcc889","ios":"levelo://app?vid=6b92794e-7050-4e5a-9429-d136dbbcc889"},"vehicle_type_id":"4","last_reported":1733436563,"current_range_meters":28000,"station_id":"ce4bh0h2rcd13ifvqd60","pricing_plan_id":"cebpf4jnsgd1na2vs0mg"},{"bike_id":"4a8e21e6-ec65-4655-92a4-dfff45da23c1","system_id":"levelo_inurba_marseille","lat":43.255,"lon":5.37644,"is_reserved":false,"is_disabled":false,"rental_uris":{"android":"levelo://app?vid=4a8e21e6-ec65-4655-92a4-dfff45da23c1","ios":"levelo://app?vid=4a8e21e6-ec65-4655-92a4-dfff45da23c1"},"vehicle_type_id":"4","last_reported":1733436563,"current_range_meters":38800,"station_id":"ce4bhh12rcd13ifvqff0","pricing_plan_id":"cebpf4jnsgd1na2vs0mg"},{"bike_id":"c842ca74-7c86-4f86-a2f8-8a33da487b2f","system_id":"levelo_inurba_marseille","lat":43.33024,"lon":5.39045,"is_reserved":false,"is_disabled":false,"rental_uris":{"android":"levelo://app?vid=c842ca74-7c86-4f86-a2f8-8a33da487b2f","ios":"levelo://app?vid=c842ca74-7c86-4f86-a2f8-8a33da487b2f"},"vehicle_type_id":"4","last_reported":1733436563,"current_range_meters":36800,"station_id":"ce4bhr92rcd13ifvqhrg","pricing_plan_id":"cebpf4jnsgd1na2vs0mg"},{"bike_id":"6ab515cf-0c36-470a-9dcf-74ce73ab72f2","system_id":"levelo_inurba_marseille","lat":43.28434,"lon":5.3919,"is_reserved":false,"is_disabled":false,"rental_uris":{"android":"levelo://app?vid=6ab515cf-0c36-470a-9dcf-74ce73ab72f2","ios":"levelo://app?vid=6ab515cf-0c36-470a-9dcf-74ce73ab72f2"},"vehicle_type_id":"4","last_reported":1733436563,"current_range_meters":38800,"station_id":"ce4bhoh2rcd13ifvqh5g","pricing_plan_id":"cebpf4jnsgd1na2vs0mg"},{"bike_id":"87665c9e-c2af-4d6c-a89d-78597bc8aff3","system_id":"levelo_inurba_marseille","lat":43.28104,"lon":5.37848,"is_reserved":false,"is_disabled":false,"rental_uris":{"android":"levelo://app?vid=87665c9e-c2af-4d6c-a89d-78597bc8aff3","ios":"levelo://app?vid=87665c9e-c2af-4d6c-a89d-78597bc8aff3"},"vehicle_type_id":"4","last_reported":1733436563,"current_range_meters":38800,"station_id":"ce4bha12rcd13ifvqee0","pricing_plan_id":"cebpf4jnsgd1na2vs0mg"},{"bike_id":"020719d4-c29b-4e35-be4b-81ca932ddaa9","system_id":"levelo_inurba_marseille","lat":43.30245,"lon":5.40075,"is_reserved":false,"is_disabled":true,"rental_uris":{"android":"levelo://app?vid=020719d4-c29b-4e35-be4b-81ca932ddaa9","ios":"levelo://app?vid=020719d4-c29b-4e35-be4b-81ca932ddaa9"},"vehicle_type_id":"4","last_reported":1733436563,"current_range_meters":29600,"station_id":"ce4bgvh2rcd13ifvqcs0","pricing_plan_id":"cebpf4jnsgd1na2vs0mg"},{"bike_id":"1663decc-784b-463c-a43f-548235ad78c8","system_id":"levelo_inurba_marseille","lat":43.26683,"lon":5.38269,"is_reserved":false,"is_disabled":false,"rental_uris":{"android":"levelo://app?vid=1663decc-784b-463c-a43f-548235ad78c8","ios":"levelo://app?vid=1663decc-784b-463c-a43f-548235ad78c8"},"vehicle_type_id":"4","last_reported":1733436563,"current_range_meters":38400,"station_id":"ce4bhg92rcd13ifvqf90","pricing_plan_id":"cebpf4jnsgd1na2vs0mg"},{"bike_id":"a8264fb2-dad4-4c52-9230-cf80b47302d6","system_id":"levelo_inurba_marseille","lat":43.31991,"lon":5.38154,"is_reserved":false,"is_disabled":true,"rental_uris":{"android":"levelo://app?vid=a8264fb2-dad4-4c52-9230-cf80b47302d6","ios":"levelo://app?vid=a8264fb2-dad4-4c52-9230-cf80b47302d6"},"vehicle_type_id":"4","last_reported":1733436563,"current_range_meters":16000,"station_id":"ce4bhr12rcd13ifvqhpg","pricing_plan_id":"cebpf4jnsgd1na2vs0mg"},{"bike_id":"5edf82fa-e9d0-4d1f-98f1-37c98092771a","system_id":"levelo_inurba_marseille","lat":43.23197,"lon":5.35549,"is_reserved":false,"is_disabled":false,"rental_uris":{"android":"levelo://app?vid=5edf82fa-e9d0-4d1f-98f1-37c98092771a","ios":"levelo://app?vid=5edf82fa-e9d0-4d1f-98f1-37c98092771a"},"vehicle_type_id":"4","last_reported":1733436563,"current_range_meters":38800,"station_id":"ce4bhu92rcd13ifvqi70","pricing_plan_id":"cebpf4jnsgd1na2vs0mg"},{"bike_id":"5c8c1563-790f-413c-92a4-e9bf05f3db3f","system_id":"levelo_inurba_marseille","lat":43.24069,"lon":5.37759,"is_reserved":false,"is_disabled":false,"rental_uris":{"android":"levelo://app?vid=5c8c1563-790f-413c-92a4-e9bf05f3db3f","ios":"levelo://app?vid=5c8c1563-790f-413c-92a4-e9bf05f3db3f"},"vehicle_type_id":"4","last_reported":1733436563,"current_range_meters":12400,"station_id":"ce4bhnp2rcd13ifvqgvg","pricing_plan_id":"cebpf4jnsgd1na2vs0mg"},{"bike_id":"f09b2e2b-131c-47e3-82b0-67af78c674ec","system_id":"levelo_inurba_marseille","lat":43.29707,"lon":5.36603,"is_reserved":false,"is_disabled":false,"rental_uris":{"android":"levelo://app?vid=f09b2e2b-131c-47e3-82b0-67af78c674ec","ios":"levelo://app?vid=f09b2e2b-131c-47e3-82b0-67af78c674ec"},"vehicle_type_id":"4","last_reported":1733436563,"current_range_meters":30000,"station_id":"ce4bgn12rcd13ifvqbt0","pricing_plan_id":"cebpf4jnsgd1na2vs0mg"},{"bike_id":"6f182dfe-98ef-4656-b618-ab899cf11d31","system_id":"levelo_inurba_marseille","lat":43.27812,"lon":5.40705,"is_reserved":false,"is_disabled":false,"rental_uris":{"android":"levelo://app?vid=6f182dfe-98ef-4656-b618-ab899cf11d31","ios":"levelo://app?vid=6f182dfe-98ef-4656-b618-ab899cf11d31"},"vehicle_type_id":"4","last_reported":1733436563,"current_range_meters":10000,"station_id":"ce4bhnh2rcd13ifvqgtg","pricing_plan_id":"cebpf4jnsgd1na2vs0mg"},{"bike_id":"d5e15d28-b299-4aa8-a951-43197e0a506c","system_id":"levelo_inurba_marseille","lat":43.26558,"lon":5.37289,"is_reserved":false,"is_disabled":false,"rental_uris":{"android":"levelo://app?vid=d5e15d28-b299-4aa8-a951-43197e0a506c","ios":"levelo://app?vid=d5e15d28-b299-4aa8-a951-43197e0a506c"},"vehicle_type_id":"4","last_reported":1733436563,"current_range_meters":20800,"station_id":"ce4bhg12rcd13ifvqf70","pricing_plan_id":"cebpf4jnsgd1na2vs0mg"},{"bike_id":"1fdd6986-fd3d-46ec-bb8e-b98d6a137718","system_id":"levelo_inurba_marseille","lat":43.31372,"lon":5.38494,"is_reserved":false,"is_disabled":false,"rental_uris":{"android":"levelo://app?vid=1fdd6986-fd3d-46ec-bb8e-b98d6a137718","ios":"levelo://app?vid=1fdd6986-fd3d-46ec-bb8e-b98d6a137718"},"vehicle_type_id":"4","last_reported":1733436563,"current_range_meters":31200,"station_id":"ce4bgt92rcd13ifvqcf0","pricing_plan_id":"cebpf4jnsgd1na2vs0mg"},{"bike_id":"506c09f4-6c9b-4fb3-996c-4c7f86dd75a8","system_id":"levelo_inurba_marseille","lat":43.25495,"lon":5.37646,"is_reserved":false,"is_disabled":true,"rental_uris":{"android":"levelo://app?vid=506c09f4-6c9b-4fb3-996c-4c7f86dd75a8","ios":"levelo://app?vid=506c09f4-6c9b-4fb3-996c-4c7f86dd75a8"},"vehicle_type_id":"4","last_reported":1733436563,"current_range_meters":0,"station_id":"ce4bhh12rcd13ifvqff0","pricing_plan_id":"cebpf4jnsgd1na2vs0mg"},{"bike_id":"d2e923ff-ec16-4f54-9716-5c6f75223ed7","system_id":"levelo_inurba_marseille","lat":43.29572,"lon":5.39973,"is_reserved":false,"is_disabled":false,"rental_uris":{"android":"levelo://app?vid=d2e923ff-ec16-4f54-9716-5c6f75223ed7","ios":"levelo://app?vid=d2e923ff-ec16-4f54-9716-5c6f75223ed7"},"vehicle_type_id":"4","last_reported":1733436563,"current_range_meters":34800,"station_id":"ce4bh312rcd13ifvqdj0","pricing_plan_id":"cebpf4jnsgd1na2vs0mg"},{"bike_id":"883bea6b-c390-4540-b150-e16901d4d2dd","system_id":"levelo_inurba_marseille","lat":43.30552,"lon":5.39917,"is_reserved":false,"is_disabled":false,"rental_uris":{"android":"levelo://app?vid=883bea6b-c390-4540-b150-e16901d4d2dd","ios":"levelo://app?vid=883bea6b-c390-4540-b150-e16901d4d2dd"},"vehicle_type_id":"4","last_reported":1733436563,"current_range_meters":19600,"station_id":"ce4bh112rcd13ifvqda0","pricing_plan_id":"cebpf4jnsgd1na2vs0mg"},{"bike_id":"9202c63e-372c-4469-a5c1-8e35757d1940","system_id":"levelo_inurba_marseille","lat":43.30053,"lon":5.38832,"is_reserved":false,"is_disabled":true,"rental_uris":{"android":"levelo://app?vid=9202c63e-372c-4469-a5c1-8e35757d1940","ios":"levelo://app?vid=9202c63e-372c-4469-a5c1-8e35757d1940"},"vehicle_type_id":"4","last_reported":1733436563,"current_range_meters":0,"station_id":"","pricing_plan_id":"cebpf4jnsgd1na2vs0mg"},{"bike_id":"4d75ea9c-71c5-44e7-a3ed-dd13a7651159","system_id":"levelo_inurba_marseille","lat":43.30796,"lon":5.43527,"is_reserved":false,"is_disabled":false,"rental_uris":{"android":"levelo://app?vid=4d75ea9c-71c5-44e7-a3ed-dd13a7651159","ios":"levelo://app?vid=4d75ea9c-71c5-44e7-a3ed-dd13a7651159"},"vehicle_type_id":"4","last_reported":1733436563,"current_range_meters":25200,"station_id":"ce4bhph2rcd13ifvqheg","pricing_plan_id":"cebpf4jnsgd1na2vs0mg"},{"bike_id":"5ecc5b41-0852-407d-a6ab-9fbe559e4644","system_id":"levelo_inurba_marseille","lat":43.32066,"lon":5.41539,"is_reserved":false,"is_disabled":true,"rental_uris":{"android":"levelo://app?vid=5ecc5b41-0852-407d-a6ab-9fbe559e4644","ios":"levelo://app?vid=5ecc5b41-0852-407d-a6ab-9fbe559e4644"},"vehicle_type_id":"4","last_reported":1733436563,"current_range_meters":38800,"station_id":"ce4bhq92rcd13ifvqhkg","pricing_plan_id":"cebpf4jnsgd1na2vs0mg"},{"bike_id":"6a3987a8-4d8d-4f3e-b9fe-0a73de82863a","system_id":"levelo_inurba_marseille","lat":43.28699,"lon":5.39985,"is_reserved":false,"is_disabled":false,"rental_uris":{"android":"levelo://app?vid=6a3987a8-4d8d-4f3e-b9fe-0a73de82863a","ios":"levelo://app?vid=6a3987a8-4d8d-4f3e-b9fe-0a73de82863a"},"vehicle_type_id":"4","last_reported":1733436563,"current_range_meters":27600,"station_id":"ce4bho92rcd13ifvqh3g","pricing_plan_id":"cebpf4jnsgd1na2vs0mg"},{"bike_id":"f5b09c02-5ff3-4fe2-b747-5cccdb37015c","system_id":"levelo_inurba_marseille","lat":43.29562,"lon":5.39989,"is_reserved":false,"is_disabled":false,"rental_uris":{"android":"levelo://app?vid=f5b09c02-5ff3-4fe2-b747-5cccdb37015c","ios":"levelo://app?vid=f5b09c02-5ff3-4fe2-b747-5cccdb37015c"},"vehicle_type_id":"4","last_reported":1733436563,"current_range_meters":36400,"station_id":"ce4bh312rcd13ifvqdj0","pricing_plan_id":"cebpf4jnsgd1na2vs0mg"},{"bike_id":"0deb7b46-3bee-4382-87b1-3984fb62457f","system_id":"levelo_inurba_marseille","lat":43.28747,"lon":5.38912,"is_reserved":false,"is_disabled":true,"rental_uris":{"android":"levelo://app?vid=0deb7b46-3bee-4382-87b1-3984fb62457f","ios":"levelo://app?vid=0deb7b46-3bee-4382-87b1-3984fb62457f"},"vehicle_type_id":"4","last_reported":1733436563,"current_range_meters":34800,"station_id":"","pricing_plan_id":"cebpf4jnsgd1na2vs0mg"},{"bike_id":"cf3e6ea0-09ff-406c-b357-28a6a6117f94","system_id":"levelo_inurba_marseille","lat":43.22935,"lon":5.35381,"is_reserved":false,"is_disabled":false,"rental_uris":{"android":"levelo://app?vid=cf3e6ea0-09ff-406c-b357-28a6a6117f94","ios":"levelo://app?vid=cf3e6ea0-09ff-406c-b357-28a6a6117f94"},"vehicle_type_id":"4","last_reported":1733436563,"current_range_meters":38800,"station_id":"cpo3532slgdg3j2ikp40","pricing_plan_id":"cebpf4jnsgd1na2vs0mg"},{"bike_id":"b7752d1c-2ee7-44ca-895e-ca3d79cf0acc","system_id":"levelo_inurba_marseille","lat":43.28941,"lon":5.39632,"is_reserved":false,"is_disabled":false,"rental_uris":{"android":"levelo://app?vid=b7752d1c-2ee7-44ca-895e-ca3d79cf0acc","ios":"levelo://app?vid=b7752d1c-2ee7-44ca-895e-ca3d79cf0acc"},"vehicle_type_id":"4","last_reported":1733436563,"current_range_meters":38800,"station_id":"ce4bh3h2rcd13ifvqdn0","pricing_plan_id":"cebpf4jnsgd1na2vs0mg"},{"bike_id":"285f2b15-1ff4-4bf4-9ef2-1c7b546f7bb5","system_id":"levelo_inurba_marseille","lat":43.248,"lon":5.37452,"is_reserved":false,"is_disabled":false,"rental_uris":{"android":"levelo://app?vid=285f2b15-1ff4-4bf4-9ef2-1c7b546f7bb5","ios":"levelo://app?vid=285f2b15-1ff4-4bf4-9ef2-1c7b546f7bb5"},"vehicle_type_id":"4","last_reported":1733436563,"current_range_meters":38800,"station_id":"ce4bhgh2rcd13ifvqfb0","pricing_plan_id":"cebpf4jnsgd1na2vs0mg"},{"bike_id":"7e85e943-0f00-45cd-800c-ff0c3db70fe3","system_id":"levelo_inurba_marseille","lat":43.30607,"lon":5.37227,"is_reserved":false,"is_disabled":false,"rental_uris":{"android":"levelo://app?vid=7e85e943-0f00-45cd-800c-ff0c3db70fe3","ios":"levelo://app?vid=7e85e943-0f00-45cd-800c-ff0c3db70fe3"},"vehicle_type_id":"4","last_reported":1733436563,"current_range_meters":38400,"station_id":"ce4bgqh2rcd13ifvqc4g","pricing_plan_id":"cebpf4jnsgd1na2vs0mg"},{"bike_id":"23759f14-892f-4869-8135-c89ea3b034cc","system_id":"levelo_inurba_marseille","lat":43.29508,"lon":5.37539,"is_reserved":false,"is_disabled":false,"rental_uris":{"android":"levelo://app?vid=23759f14-892f-4869-8135-c89ea3b034cc","ios":"levelo://app?vid=23759f14-892f-4869-8135-c89ea3b034cc"},"vehicle_type_id":"4","last_reported":1733436563,"current_range_meters":37600,"station_id":"ce4bgkp2rcd13ifvqbmg","pricing_plan_id":"cebpf4jnsgd1na2vs0mg"},{"bike_id":"719e509a-25e4-4b1b-9830-f708d85d7593","system_id":"levelo_inurba_marseille","lat":43.29404,"lon":5.37451,"is_reserved":false,"is_disabled":true,"rental_uris":{"android":"levelo://app?vid=719e509a-25e4-4b1b-9830-f708d85d7593","ios":"levelo://app?vid=719e509a-25e4-4b1b-9830-f708d85d7593"},"vehicle_type_id":"4","last_reported":1733436563,"current_range_meters":0,"station_id":"","pricing_plan_id":"cebpf4jnsgd1na2vs0mg"},{"bike_id":"ad104f85-8dde-4a89-a631-5d2f6d1842ec","system_id":"levelo_inurba_marseille","lat":43.25115,"lon":5.40325,"is_reserved":false,"is_disabled":false,"rental_uris":{"android":"levelo://app?vid=ad104f85-8dde-4a89-a631-5d2f6d1842ec","ios":"levelo://app?vid=ad104f85-8dde-4a89-a631-5d2f6d1842ec"},"vehicle_type_id":"4","last_reported":1733436563,"current_range_meters":9600,"station_id":"ce4bhlh2rcd13ifvqgig","pricing_plan_id":"cebpf4jnsgd1na2vs0mg"},{"bike_id":"690b5fb9-93a5-432c-84d2-b03e7fddb663","system_id":"levelo_inurba_marseille","lat":43.29975,"lon":5.38489,"is_reserved":false,"is_disabled":false,"rental_uris":{"android":"levelo://app?vid=690b5fb9-93a5-432c-84d2-b03e7fddb663","ios":"levelo://app?vid=690b5fb9-93a5-432c-84d2-b03e7fddb663"},"vehicle_type_id":"4","last_reported":1733436563,"current_range_meters":22800,"station_id":"ce4bgj92rcd13ifvqbd0","pricing_plan_id":"cebpf4jnsgd1na2vs0mg"},{"bike_id":"019f823f-40bc-4d83-a395-c1f726fe912f","system_id":"levelo_inurba_marseille","lat":43.28035,"lon":5.36947,"is_reserved":false,"is_disabled":false,"rental_uris":{"android":"levelo://app?vid=019f823f-40bc-4d83-a395-c1f726fe912f","ios":"levelo://app?vid=019f823f-40bc-4d83-a395-c1f726fe912f"},"vehicle_type_id":"4","last_reported":1733436563,"current_range_meters":35200,"station_id":"ce4bha12rcd13ifvqef0","pricing_plan_id":"cebpf4jnsgd1na2vs0mg"},{"bike_id":"2b6d8e3a-eba6-48ab-ae54-ba4181438667","system_id":"levelo_inurba_marseille","lat":43.28946,"lon":5.3964,"is_reserved":false,"is_disabled":false,"rental_uris":{"android":"levelo://app?vid=2b6d8e3a-eba6-48ab-ae54-ba4181438667","ios":"levelo://app?vid=2b6d8e3a-eba6-48ab-ae54-ba4181438667"},"vehicle_type_id":"4","last_reported":1733436563,"current_range_meters":35200,"station_id":"ce4bh3h2rcd13ifvqdn0","pricing_plan_id":"cebpf4jnsgd1na2vs0mg"},{"bike_id":"51555d17-b597-45bb-a9aa-39390a1cbc52","system_id":"levelo_inurba_marseille","lat":43.29268,"lon":5.40181,"is_reserved":false,"is_disabled":false,"rental_uris":{"android":"levelo://app?vid=51555d17-b597-45bb-a9aa-39390a1cbc52","ios":"levelo://app?vid=51555d17-b597-45bb-a9aa-39390a1cbc52"},"vehicle_type_id":"4","last_reported":1733436563,"current_range_meters":20400,"station_id":"ce4bh312rcd13ifvqdk0","pricing_plan_id":"cebpf4jnsgd1na2vs0mg"},{"bike_id":"3eac95d3-b5a4-4bbd-8508-0debbfb4ff6c","system_id":"levelo_inurba_marseille","lat":43.28616,"lon":5.35102,"is_reserved":false,"is_disabled":false,"rental_uris":{"android":"levelo://app?vid=3eac95d3-b5a4-4bbd-8508-0debbfb4ff6c","ios":"levelo://app?vid=3eac95d3-b5a4-4bbd-8508-0debbfb4ff6c"},"vehicle_type_id":"4","last_reported":1733436563,"current_range_meters":37600,"station_id":"ce4bhch2rcd13ifvqeug","pricing_plan_id":"cebpf4jnsgd1na2vs0mg"},{"bike_id":"6a7ba481-a30d-474a-8bb7-4161477695ef","system_id":"levelo_inurba_marseille","lat":43.31355,"lon":5.38499,"is_reserved":false,"is_disabled":false,"rental_uris":{"android":"levelo://app?vid=6a7ba481-a30d-474a-8bb7-4161477695ef","ios":"levelo://app?vid=6a7ba481-a30d-474a-8bb7-4161477695ef"},"vehicle_type_id":"4","last_reported":1733436563,"current_range_meters":37600,"station_id":"ce4bgt92rcd13ifvqcf0","pricing_plan_id":"cebpf4jnsgd1na2vs0mg"},{"bike_id":"c94d37c8-4de1-47b5-9000-3fa68adb2b7e","system_id":"levelo_inurba_marseille","lat":43.29559,"lon":5.42289,"is_reserved":false,"is_disabled":false,"rental_uris":{"android":"levelo://app?vid=c94d37c8-4de1-47b5-9000-3fa68adb2b7e","ios":"levelo://app?vid=c94d37c8-4de1-47b5-9000-3fa68adb2b7e"},"vehicle_type_id":"4","last_reported":1733436563,"current_range_meters":38400,"station_id":"ce4bhph2rcd13ifvqhdg","pricing_plan_id":"cebpf4jnsgd1na2vs0mg"},{"bike_id":"b27994f0-39f1-4888-861a-0dd6775a480c","system_id":"levelo_inurba_marseille","lat":43.27919,"lon":5.39584,"is_reserved":false,"is_disabled":false,"rental_uris":{"android":"levelo://app?vid=b27994f0-39f1-4888-861a-0dd6775a480c","ios":"levelo://app?vid=b27994f0-39f1-4888-861a-0dd6775a480c"},"vehicle_type_id":"4","last_reported":1733436563,"current_range_meters":33600,"station_id":"ce4bhf92rcd13ifvqf40","pricing_plan_id":"cebpf4jnsgd1na2vs0mg"},{"bike_id":"66faae85-196b-4944-b1fe-011aaac4cc91","system_id":"levelo_inurba_marseille","lat":43.29283,"lon":5.40131,"is_reserved":false,"is_disabled":false,"rental_uris":{"android":"levelo://app?vid=66faae85-196b-4944-b1fe-011aaac4cc91","ios":"levelo://app?vid=66faae85-196b-4944-b1fe-011aaac4cc91"},"vehicle_type_id":"4","last_reported":1733436563,"current_range_meters":36800,"station_id":"ce4bh312rcd13ifvqdk0","pricing_plan_id":"cebpf4jnsgd1na2vs0mg"},{"bike_id":"b01ba929-1580-401b-973d-e4a15d746d4a","system_id":"levelo_inurba_marseille","lat":43.22929,"lon":5.35379,"is_reserved":false,"is_disabled":false,"rental_uris":{"android":"levelo://app?vid=b01ba929-1580-401b-973d-e4a15d746d4a","ios":"levelo://app?vid=b01ba929-1580-401b-973d-e4a15d746d4a"},"vehicle_type_id":"4","last_reported":1733436563,"current_range_meters":12400,"station_id":"cpo3532slgdg3j2ikp40","pricing_plan_id":"cebpf4jnsgd1na2vs0mg"},{"bike_id":"7519ef7a-d08a-49a3-a099-389c2c29dff3","system_id":"levelo_inurba_marseille","lat":43.31329,"lon":5.37043,"is_reserved":false,"is_disabled":true,"rental_uris":{"android":"levelo://app?vid=7519ef7a-d08a-49a3-a099-389c2c29dff3","ios":"levelo://app?vid=7519ef7a-d08a-49a3-a099-389c2c29dff3"},"vehicle_type_id":"4","last_reported":1733436563,"current_range_meters":0,"station_id":"","pricing_plan_id":"cebpf4jnsgd1na2vs0mg"},{"bike_id":"8c1e28b4-904f-48d7-ba6d-d3b5b5d05922","system_id":"levelo_inurba_marseille","lat":43.2927,"lon":5.40137,"is_reserved":false,"is_disabled":true,"rental_uris":{"android":"levelo://app?vid=8c1e28b4-904f-48d7-ba6d-d3b5b5d05922","ios":"levelo://app?vid=8c1e28b4-904f-48d7-ba6d-d3b5b5d05922"},"vehicle_type_id":"4","last_reported":1733436563,"current_range_meters":33200,"station_id":"ce4bh312rcd13ifvqdk0","pricing_plan_id":"cebpf4jnsgd1na2vs0mg"},{"bike_id":"98bd27a7-f68e-47ad-abce-bda474169d6a","system_id":"levelo_inurba_marseille","lat":43.29824,"lon":5.371,"is_reserved":false,"is_disabled":false,"rental_uris":{"android":"levelo://app?vid=98bd27a7-f68e-47ad-abce-bda474169d6a","ios":"levelo://app?vid=98bd27a7-f68e-47ad-abce-bda474169d6a"},"vehicle_type_id":"4","last_reported":1733436563,"current_range_meters":35200,"station_id":"ce4bgop2rcd13ifvqc1g","pricing_plan_id":"cebpf4jnsgd1na2vs0mg"},{"bike_id":"f66bc7d0-86d7-4f10-b5d1-8e3a10824d0f","system_id":"levelo_inurba_marseille","lat":43.294341,"lon":5.397485,"is_reserved":false,"is_disabled":false,"rental_uris":{"android":"levelo://app?vid=f66bc7d0-86d7-4f10-b5d1-8e3a10824d0f","ios":"levelo://app?vid=f66bc7d0-86d7-4f10-b5d1-8e3a10824d0f"},"vehicle_type_id":"4","last_reported":1733436563,"current_range_meters":38400,"station_id":"ce4bh3h2rcd13ifvqdo0","pricing_plan_id":"cebpf4jnsgd1na2vs0mg"},{"bike_id":"f717bfb3-2a1d-47bd-9431-a55f347f5ad8","system_id":"levelo_inurba_marseille","lat":43.29769,"lon":5.37097,"is_reserved":false,"is_disabled":false,"rental_uris":{"android":"levelo://app?vid=f717bfb3-2a1d-47bd-9431-a55f347f5ad8","ios":"levelo://app?vid=f717bfb3-2a1d-47bd-9431-a55f347f5ad8"},"vehicle_type_id":"4","last_reported":1733436563,"current_range_meters":20000,"station_id":"ce4bgop2rcd13ifvqc1g","pricing_plan_id":"cebpf4jnsgd1na2vs0mg"},{"bike_id":"010f1ddc-a5dd-4595-9905-ebf82317a65f","system_id":"levelo_inurba_marseille","lat":43.33025,"lon":5.39037,"is_reserved":false,"is_disabled":false,"rental_uris":{"android":"levelo://app?vid=010f1ddc-a5dd-4595-9905-ebf82317a65f","ios":"levelo://app?vid=010f1ddc-a5dd-4595-9905-ebf82317a65f"},"vehicle_type_id":"4","last_reported":1733436563,"current_range_meters":38800,"station_id":"ce4bhr92rcd13ifvqhrg","pricing_plan_id":"cebpf4jnsgd1na2vs0mg"},{"bike_id":"89f354ff-272f-4588-9e1e-7f97eb7bac70","system_id":"levelo_inurba_marseille","lat":43.31359,"lon":5.385,"is_reserved":false,"is_disabled":false,"rental_uris":{"android":"levelo://app?vid=89f354ff-272f-4588-9e1e-7f97eb7bac70","ios":"levelo://app?vid=89f354ff-272f-4588-9e1e-7f97eb7bac70"},"vehicle_type_id":"4","last_reported":1733436563,"current_range_meters":38800,"station_id":"ce4bgt92rcd13ifvqcf0","pricing_plan_id":"cebpf4jnsgd1na2vs0mg"},{"bike_id":"c1a3972c-ea2b-4e1f-abd7-472a091a0292","system_id":"levelo_inurba_marseille","lat":43.2952,"lon":5.39398,"is_reserved":false,"is_disabled":false,"rental_uris":{"android":"levelo://app?vid=c1a3972c-ea2b-4e1f-abd7-472a091a0292","ios":"levelo://app?vid=c1a3972c-ea2b-4e1f-abd7-472a091a0292"},"vehicle_type_id":"4","last_reported":1733436563,"current_range_meters":9600,"station_id":"ce4bh292rcd13ifvqdf0","pricing_plan_id":"cebpf4jnsgd1na2vs0mg"},{"bike_id":"1ee74f47-c25e-4fca-8cea-1505429867e2","system_id":"levelo_inurba_marseille","lat":43.30316,"lon":5.39356,"is_reserved":false,"is_disabled":true,"rental_uris":{"android":"levelo://app?vid=1ee74f47-c25e-4fca-8cea-1505429867e2","ios":"levelo://app?vid=1ee74f47-c25e-4fca-8cea-1505429867e2"},"vehicle_type_id":"4","last_reported":1733436563,"current_range_meters":27600,"station_id":"","pricing_plan_id":"cebpf4jnsgd1na2vs0mg"},{"bike_id":"58f29f7f-b551-4264-9e3e-ea16f86c6a10","system_id":"levelo_inurba_marseille","lat":43.32657,"lon":5.40998,"is_reserved":false,"is_disabled":false,"rental_uris":{"android":"levelo://app?vid=58f29f7f-b551-4264-9e3e-ea16f86c6a10","ios":"levelo://app?vid=58f29f7f-b551-4264-9e3e-ea16f86c6a10"},"vehicle_type_id":"4","last_reported":1733436563,"current_range_meters":39200,"station_id":"ce4bhpp2rcd13ifvqhgg","pricing_plan_id":"cebpf4jnsgd1na2vs0mg"},{"bike_id":"f1b1e685-34fd-40ec-adf6-4158920b0b38","system_id":"levelo_inurba_marseille","lat":43.29714,"lon":5.36622,"is_reserved":false,"is_disabled":false,"rental_uris":{"android":"levelo://app?vid=f1b1e685-34fd-40ec-adf6-4158920b0b38","ios":"levelo://app?vid=f1b1e685-34fd-40ec-adf6-4158920b0b38"},"vehicle_type_id":"4","last_reported":1733436563,"current_range_meters":35600,"station_id":"ce4bgn12rcd13ifvqbt0","pricing_plan_id":"cebpf4jnsgd1na2vs0mg"},{"bike_id":"d68ce2c1-f9cc-46cc-8d04-2eb7462a4434","system_id":"levelo_inurba_marseille","lat":43.28573,"lon":5.39501,"is_reserved":false,"is_disabled":false,"rental_uris":{"android":"levelo://app?vid=d68ce2c1-f9cc-46cc-8d04-2eb7462a4434","ios":"levelo://app?vid=d68ce2c1-f9cc-46cc-8d04-2eb7462a4434"},"vehicle_type_id":"4","last_reported":1733436563,"current_range_meters":28000,"station_id":"ce4bh292rcd13ifvqdg0","pricing_plan_id":"cebpf4jnsgd1na2vs0mg"},{"bike_id":"1f41adbd-b25d-46c6-8a53-e4ecdbbf967f","system_id":"levelo_inurba_marseille","lat":43.24063,"lon":5.37753,"is_reserved":false,"is_disabled":false,"rental_uris":{"android":"levelo://app?vid=1f41adbd-b25d-46c6-8a53-e4ecdbbf967f","ios":"levelo://app?vid=1f41adbd-b25d-46c6-8a53-e4ecdbbf967f"},"vehicle_type_id":"4","last_reported":1733436563,"current_range_meters":19200,"station_id":"ce4bhnp2rcd13ifvqgvg","pricing_plan_id":"cebpf4jnsgd1na2vs0mg"},{"bike_id":"3e592e74-64b6-427b-a9f3-9c85b0d07de7","system_id":"levelo_inurba_marseille","lat":43.23181,"lon":5.39991,"is_reserved":false,"is_disabled":false,"rental_uris":{"android":"levelo://app?vid=3e592e74-64b6-427b-a9f3-9c85b0d07de7","ios":"levelo://app?vid=3e592e74-64b6-427b-a9f3-9c85b0d07de7"},"vehicle_type_id":"4","last_reported":1733436563,"current_range_meters":27600,"station_id":"ce4bhn12rcd13ifvqgqg","pricing_plan_id":"cebpf4jnsgd1na2vs0mg"},{"bike_id":"f45a0404-15ba-4c6b-b725-42587a894667","system_id":"levelo_inurba_marseille","lat":43.27833,"lon":5.39204,"is_reserved":false,"is_disabled":false,"rental_uris":{"android":"levelo://app?vid=f45a0404-15ba-4c6b-b725-42587a894667","ios":"levelo://app?vid=f45a0404-15ba-4c6b-b725-42587a894667"},"vehicle_type_id":"4","last_reported":1733436563,"current_range_meters":28000,"station_id":"ce4bhjp2rcd13ifvqga0","pricing_plan_id":"cebpf4jnsgd1na2vs0mg"},{"bike_id":"f678a3e7-e758-4a5b-aab5-0288c0276301","system_id":"levelo_inurba_marseille","lat":43.24664,"lon":5.38174,"is_reserved":false,"is_disabled":false,"rental_uris":{"android":"levelo://app?vid=f678a3e7-e758-4a5b-aab5-0288c0276301","ios":"levelo://app?vid=f678a3e7-e758-4a5b-aab5-0288c0276301"},"vehicle_type_id":"4","last_reported":1733436563,"current_range_meters":39200,"station_id":"ce4bhih2rcd13ifvqfr0","pricing_plan_id":"cebpf4jnsgd1na2vs0mg"},{"bike_id":"673ea827-9e65-48a5-89ae-6f1c00b68c61","system_id":"levelo_inurba_marseille","lat":43.26573,"lon":5.39026,"is_reserved":false,"is_disabled":false,"rental_uris":{"android":"levelo://app?vid=673ea827-9e65-48a5-89ae-6f1c00b68c61","ios":"levelo://app?vid=673ea827-9e65-48a5-89ae-6f1c00b68c61"},"vehicle_type_id":"4","last_reported":1733436563,"current_range_meters":31200,"station_id":"ce4bhe12rcd13ifvqf30","pricing_plan_id":"cebpf4jnsgd1na2vs0mg"},{"bike_id":"c175f0d0-645a-4ca5-8cad-1c2fa9cfc772","system_id":"levelo_inurba_marseille","lat":43.27942,"lon":5.4106,"is_reserved":false,"is_disabled":false,"rental_uris":{"android":"levelo://app?vid=c175f0d0-645a-4ca5-8cad-1c2fa9cfc772","ios":"levelo://app?vid=c175f0d0-645a-4ca5-8cad-1c2fa9cfc772"},"vehicle_type_id":"4","last_reported":1733436563,"current_range_meters":8400,"station_id":"ce4bhnp2rcd13ifvqh0g","pricing_plan_id":"cebpf4jnsgd1na2vs0mg"},{"bike_id":"710c9d13-8a64-4ca7-ba64-fd3194714b19","system_id":"levelo_inurba_marseille","lat":43.30792,"lon":5.37348,"is_reserved":false,"is_disabled":false,"rental_uris":{"android":"levelo://app?vid=710c9d13-8a64-4ca7-ba64-fd3194714b19","ios":"levelo://app?vid=710c9d13-8a64-4ca7-ba64-fd3194714b19"},"vehicle_type_id":"4","last_reported":1733436563,"current_range_meters":20000,"station_id":"","pricing_plan_id":"cebpf4jnsgd1na2vs0mg"},{"bike_id":"a4b9e425-64b8-4ce2-a5ab-5fcc5d1230a4","system_id":"levelo_inurba_marseille","lat":43.32106,"lon":5.36779,"is_reserved":false,"is_disabled":false,"rental_uris":{"android":"levelo://app?vid=a4b9e425-64b8-4ce2-a5ab-5fcc5d1230a4","ios":"levelo://app?vid=a4b9e425-64b8-4ce2-a5ab-5fcc5d1230a4"},"vehicle_type_id":"4","last_reported":1733436563,"current_range_meters":34000,"station_id":"ce4bhrh2rcd13ifvqhug","pricing_plan_id":"cebpf4jnsgd1na2vs0mg"},{"bike_id":"e574fed0-6465-4333-9799-7f4966d030ef","system_id":"levelo_inurba_marseille","lat":43.29034,"lon":5.37574,"is_reserved":false,"is_disabled":false,"rental_uris":{"android":"levelo://app?vid=e574fed0-6465-4333-9799-7f4966d030ef","ios":"levelo://app?vid=e574fed0-6465-4333-9799-7f4966d030ef"},"vehicle_type_id":"4","last_reported":1733436563,"current_range_meters":35600,"station_id":"ce4bh692rcd13ifvqe90","pricing_plan_id":"cebpf4jnsgd1na2vs0mg"},{"bike_id":"fd98eaa9-4d55-4e7b-aa90-0d14707466d9","system_id":"levelo_inurba_marseille","lat":43.337444,"lon":5.374475,"is_reserved":false,"is_disabled":true,"rental_uris":{"android":"levelo://app?vid=fd98eaa9-4d55-4e7b-aa90-0d14707466d9","ios":"levelo://app?vid=fd98eaa9-4d55-4e7b-aa90-0d14707466d9"},"vehicle_type_id":"4","last_reported":1733436563,"current_range_meters":0,"station_id":"","pricing_plan_id":"cebpf4jnsgd1na2vs0mg"},{"bike_id":"e41494ee-bbf2-46ca-9092-8514f5457e17","system_id":"levelo_inurba_marseille","lat":43.29528,"lon":5.38554,"is_reserved":false,"is_disabled":false,"rental_uris":{"android":"levelo://app?vid=e41494ee-bbf2-46ca-9092-8514f5457e17","ios":"levelo://app?vid=e41494ee-bbf2-46ca-9092-8514f5457e17"},"vehicle_type_id":"4","last_reported":1733436563,"current_range_meters":38800,"station_id":"ce4bgih2rcd13ifvqba0","pricing_plan_id":"cebpf4jnsgd1na2vs0mg"},{"bike_id":"7739e7e5-bcce-43a6-9d41-f90a9ba836ed","system_id":"levelo_inurba_marseille","lat":43.29596,"lon":5.38119,"is_reserved":false,"is_disabled":true,"rental_uris":{"android":"levelo://app?vid=7739e7e5-bcce-43a6-9d41-f90a9ba836ed","ios":"levelo://app?vid=7739e7e5-bcce-43a6-9d41-f90a9ba836ed"},"vehicle_type_id":"4","last_reported":1733436563,"current_range_meters":0,"station_id":"ce4bgl12rcd13ifvqbo0","pricing_plan_id":"cebpf4jnsgd1na2vs0mg"},{"bike_id":"e25dc6e3-1f83-4e32-ad60-7f8ea4cb5b47","system_id":"levelo_inurba_marseille","lat":43.29794,"lon":5.39351,"is_reserved":false,"is_disabled":true,"rental_uris":{"android":"levelo://app?vid=e25dc6e3-1f83-4e32-ad60-7f8ea4cb5b47","ios":"levelo://app?vid=e25dc6e3-1f83-4e32-ad60-7f8ea4cb5b47"},"vehicle_type_id":"4","last_reported":1733436563,"current_range_meters":0,"station_id":"chh1huq6cuj3fo74tm60","pricing_plan_id":"cebpf4jnsgd1na2vs0mg"},{"bike_id":"9f166179-3cc0-42ca-860b-06242525cca2","system_id":"levelo_inurba_marseille","lat":43.31991,"lon":5.4155,"is_reserved":false,"is_disabled":false,"rental_uris":{"android":"levelo://app?vid=9f166179-3cc0-42ca-860b-06242525cca2","ios":"levelo://app?vid=9f166179-3cc0-42ca-860b-06242525cca2"},"vehicle_type_id":"4","last_reported":1733436563,"current_range_meters":32800,"station_id":"","pricing_plan_id":"cebpf4jnsgd1na2vs0mg"},{"bike_id":"cbf578cc-cc2f-4189-9de2-b212a0c21f11","system_id":"levelo_inurba_marseille","lat":43.29533,"lon":5.39025,"is_reserved":false,"is_disabled":false,"rental_uris":{"android":"levelo://app?vid=cbf578cc-cc2f-4189-9de2-b212a0c21f11","ios":"levelo://app?vid=cbf578cc-cc2f-4189-9de2-b212a0c21f11"},"vehicle_type_id":"4","last_reported":1733436563,"current_range_meters":22800,"station_id":"ce4bh3p2rcd13ifvqdp0","pricing_plan_id":"cebpf4jnsgd1na2vs0mg"},{"bike_id":"c2d8a1c2-d166-4a36-b32f-beec95c93bd5","system_id":"levelo_inurba_marseille","lat":43.33756,"lon":5.37459,"is_reserved":false,"is_disabled":false,"rental_uris":{"android":"levelo://app?vid=c2d8a1c2-d166-4a36-b32f-beec95c93bd5","ios":"levelo://app?vid=c2d8a1c2-d166-4a36-b32f-beec95c93bd5"},"vehicle_type_id":"4","last_reported":1733436563,"current_range_meters":7200,"station_id":"","pricing_plan_id":"cebpf4jnsgd1na2vs0mg"},{"bike_id":"f64a47b2-d4e2-4351-9014-4a9126a5c6bd","system_id":"levelo_inurba_marseille","lat":43.24655,"lon":5.38885,"is_reserved":false,"is_disabled":false,"rental_uris":{"android":"levelo://app?vid=f64a47b2-d4e2-4351-9014-4a9126a5c6bd","ios":"levelo://app?vid=f64a47b2-d4e2-4351-9014-4a9126a5c6bd"},"vehicle_type_id":"4","last_reported":1733436563,"current_range_meters":17200,"station_id":"ce4bhg12rcd13ifvqf60","pricing_plan_id":"cebpf4jnsgd1na2vs0mg"},{"bike_id":"85cef265-1ab7-4584-87a5-693733045325","system_id":"levelo_inurba_marseille","lat":43.32344,"lon":5.40625,"is_reserved":false,"is_disabled":true,"rental_uris":{"android":"levelo://app?vid=85cef265-1ab7-4584-87a5-693733045325","ios":"levelo://app?vid=85cef265-1ab7-4584-87a5-693733045325"},"vehicle_type_id":"4","last_reported":1733436563,"current_range_meters":0,"station_id":"ce4bhq92rcd13ifvqhjg","pricing_plan_id":"cebpf4jnsgd1na2vs0mg"},{"bike_id":"c452b77b-6320-4d7e-bff7-1aa7805d0b04","system_id":"levelo_inurba_marseille","lat":43.28065,"lon":5.39655,"is_reserved":false,"is_disabled":false,"rental_uris":{"android":"levelo://app?vid=c452b77b-6320-4d7e-bff7-1aa7805d0b04","ios":"levelo://app?vid=c452b77b-6320-4d7e-bff7-1aa7805d0b04"},"vehicle_type_id":"4","last_reported":1733436563,"current_range_meters":6000,"station_id":"ce4bho12rcd13ifvqh2g","pricing_plan_id":"cebpf4jnsgd1na2vs0mg"},{"bike_id":"7bba4a56-0a32-49dd-be49-b0284a29e5a9","system_id":"levelo_inurba_marseille","lat":43.25109,"lon":5.40326,"is_reserved":false,"is_disabled":false,"rental_uris":{"android":"levelo://app?vid=7bba4a56-0a32-49dd-be49-b0284a29e5a9","ios":"levelo://app?vid=7bba4a56-0a32-49dd-be49-b0284a29e5a9"},"vehicle_type_id":"4","last_reported":1733436563,"current_range_meters":35600,"station_id":"ce4bhlh2rcd13ifvqgig","pricing_plan_id":"cebpf4jnsgd1na2vs0mg"},{"bike_id":"8b860a03-d690-40c5-bcbc-3838c7a66a48","system_id":"levelo_inurba_marseille","lat":43.31168,"lon":5.38722,"is_reserved":false,"is_disabled":false,"rental_uris":{"android":"levelo://app?vid=8b860a03-d690-40c5-bcbc-3838c7a66a48","ios":"levelo://app?vid=8b860a03-d690-40c5-bcbc-3838c7a66a48"},"vehicle_type_id":"4","last_reported":1733436563,"current_range_meters":31200,"station_id":"ce4bgv12rcd13ifvqcp0","pricing_plan_id":"cebpf4jnsgd1na2vs0mg"},{"bike_id":"e8d25b9b-2f6f-4f7f-8bc4-2102c4e24b79","system_id":"levelo_inurba_marseille","lat":43.28441,"lon":5.39189,"is_reserved":false,"is_disabled":false,"rental_uris":{"android":"levelo://app?vid=e8d25b9b-2f6f-4f7f-8bc4-2102c4e24b79","ios":"levelo://app?vid=e8d25b9b-2f6f-4f7f-8bc4-2102c4e24b79"},"vehicle_type_id":"4","last_reported":1733436563,"current_range_meters":38800,"station_id":"ce4bhoh2rcd13ifvqh5g","pricing_plan_id":"cebpf4jnsgd1na2vs0mg"},{"bike_id":"dce35d6a-08b0-4b4c-b89b-7b5e69e85874","system_id":"levelo_inurba_marseille","lat":43.32443,"lon":5.36377,"is_reserved":false,"is_disabled":false,"rental_uris":{"android":"levelo://app?vid=dce35d6a-08b0-4b4c-b89b-7b5e69e85874","ios":"levelo://app?vid=dce35d6a-08b0-4b4c-b89b-7b5e69e85874"},"vehicle_type_id":"4","last_reported":1733436563,"current_range_meters":8400,"station_id":"","pricing_plan_id":"cebpf4jnsgd1na2vs0mg"},{"bike_id":"37727576-2d28-4525-b065-40affdaee0f8","system_id":"levelo_inurba_marseille","lat":43.32367,"lon":5.38881,"is_reserved":false,"is_disabled":false,"rental_uris":{"android":"levelo://app?vid=37727576-2d28-4525-b065-40affdaee0f8","ios":"levelo://app?vid=37727576-2d28-4525-b065-40affdaee0f8"},"vehicle_type_id":"4","last_reported":1733436563,"current_range_meters":38000,"station_id":"ce4bhqp2rcd13ifvqhog","pricing_plan_id":"cebpf4jnsgd1na2vs0mg"},{"bike_id":"9adedb88-e1ce-4018-8f8f-4e35b7bc49c9","system_id":"levelo_inurba_marseille","lat":43.30921,"lon":5.40136,"is_reserved":false,"is_disabled":false,"rental_uris":{"android":"levelo://app?vid=9adedb88-e1ce-4018-8f8f-4e35b7bc49c9","ios":"levelo://app?vid=9adedb88-e1ce-4018-8f8f-4e35b7bc49c9"},"vehicle_type_id":"4","last_reported":1733436563,"current_range_meters":26800,"station_id":"ce4bgvp2rcd13ifvqct0","pricing_plan_id":"cebpf4jnsgd1na2vs0mg"},{"bike_id":"737bdef3-e4f9-4d42-9b3b-45164c8dc58f","system_id":"levelo_inurba_marseille","lat":43.240747,"lon":5.377318,"is_reserved":false,"is_disabled":true,"rental_uris":{"android":"levelo://app?vid=737bdef3-e4f9-4d42-9b3b-45164c8dc58f","ios":"levelo://app?vid=737bdef3-e4f9-4d42-9b3b-45164c8dc58f"},"vehicle_type_id":"4","last_reported":1733436563,"current_range_meters":10800,"station_id":"ce4bhnp2rcd13ifvqgvg","pricing_plan_id":"cebpf4jnsgd1na2vs0mg"},{"bike_id":"4a53085c-edee-457d-baad-2a365f253951","system_id":"levelo_inurba_marseille","lat":43.31114,"lon":5.37768,"is_reserved":false,"is_disabled":false,"rental_uris":{"android":"levelo://app?vid=4a53085c-edee-457d-baad-2a365f253951","ios":"levelo://app?vid=4a53085c-edee-457d-baad-2a365f253951"},"vehicle_type_id":"4","last_reported":1733436563,"current_range_meters":38800,"station_id":"ce4bgt92rcd13ifvqcg0","pricing_plan_id":"cebpf4jnsgd1na2vs0mg"},{"bike_id":"e73bc151-3e21-49c1-91c5-fff4da44e54c","system_id":"levelo_inurba_marseille","lat":43.31284,"lon":5.40172,"is_reserved":false,"is_disabled":true,"rental_uris":{"android":"levelo://app?vid=e73bc151-3e21-49c1-91c5-fff4da44e54c","ios":"levelo://app?vid=e73bc151-3e21-49c1-91c5-fff4da44e54c"},"vehicle_type_id":"4","last_reported":1733436563,"current_range_meters":400,"station_id":"ce4bh092rcd13ifvqd30","pricing_plan_id":"cebpf4jnsgd1na2vs0mg"},{"bike_id":"969bcf9d-9e6f-4c0b-9141-873aa6f27884","system_id":"levelo_inurba_marseille","lat":43.30948,"lon":5.39039,"is_reserved":false,"is_disabled":false,"rental_uris":{"android":"levelo://app?vid=969bcf9d-9e6f-4c0b-9141-873aa6f27884","ios":"levelo://app?vid=969bcf9d-9e6f-4c0b-9141-873aa6f27884"},"vehicle_type_id":"4","last_reported":1733436563,"current_range_meters":38000,"station_id":"ce4bgup2rcd13ifvqco0","pricing_plan_id":"cebpf4jnsgd1na2vs0mg"},{"bike_id":"caef05e5-3985-4194-8ee8-a708119875f7","system_id":"levelo_inurba_marseille","lat":43.24394,"lon":5.37061,"is_reserved":false,"is_disabled":false,"rental_uris":{"android":"levelo://app?vid=caef05e5-3985-4194-8ee8-a708119875f7","ios":"levelo://app?vid=caef05e5-3985-4194-8ee8-a708119875f7"},"vehicle_type_id":"4","last_reported":1733436563,"current_range_meters":22400,"station_id":"ce4bhhh2rcd13ifvqfk0","pricing_plan_id":"cebpf4jnsgd1na2vs0mg"},{"bike_id":"3be2ab6d-a63f-4342-b094-2ecdb93deb3d","system_id":"levelo_inurba_marseille","lat":43.29883,"lon":5.38103,"is_reserved":false,"is_disabled":false,"rental_uris":{"android":"levelo://app?vid=3be2ab6d-a63f-4342-b094-2ecdb93deb3d","ios":"levelo://app?vid=3be2ab6d-a63f-4342-b094-2ecdb93deb3d"},"vehicle_type_id":"4","last_reported":1733436563,"current_range_meters":23200,"station_id":"ce4bgj12rcd13ifvqbc0","pricing_plan_id":"cebpf4jnsgd1na2vs0mg"},{"bike_id":"487a8a85-8b2a-4495-8966-3f1f0214e4d9","system_id":"levelo_inurba_marseille","lat":43.24804,"lon":5.37458,"is_reserved":false,"is_disabled":false,"rental_uris":{"android":"levelo://app?vid=487a8a85-8b2a-4495-8966-3f1f0214e4d9","ios":"levelo://app?vid=487a8a85-8b2a-4495-8966-3f1f0214e4d9"},"vehicle_type_id":"4","last_reported":1733436563,"current_range_meters":25600,"station_id":"ce4bhgh2rcd13ifvqfb0","pricing_plan_id":"cebpf4jnsgd1na2vs0mg"},{"bike_id":"7cec87ae-5cf8-4ac3-b0bf-8d42d1422b1f","system_id":"levelo_inurba_marseille","lat":43.30439,"lon":5.40743,"is_reserved":false,"is_disabled":false,"rental_uris":{"android":"levelo://app?vid=7cec87ae-5cf8-4ac3-b0bf-8d42d1422b1f","ios":"levelo://app?vid=7cec87ae-5cf8-4ac3-b0bf-8d42d1422b1f"},"vehicle_type_id":"4","last_reported":1733436563,"current_range_meters":37600,"station_id":"","pricing_plan_id":"cebpf4jnsgd1na2vs0mg"},{"bike_id":"a6e158cf-77f1-4390-aad2-53120c9f5184","system_id":"levelo_inurba_marseille","lat":43.32657,"lon":5.40992,"is_reserved":false,"is_disabled":false,"rental_uris":{"android":"levelo://app?vid=a6e158cf-77f1-4390-aad2-53120c9f5184","ios":"levelo://app?vid=a6e158cf-77f1-4390-aad2-53120c9f5184"},"vehicle_type_id":"4","last_reported":1733436563,"current_range_meters":30000,"station_id":"ce4bhpp2rcd13ifvqhgg","pricing_plan_id":"cebpf4jnsgd1na2vs0mg"},{"bike_id":"a60ba351-5c8c-4211-afc6-2b8a64ae9d34","system_id":"levelo_inurba_marseille","lat":43.30655,"lon":5.40095,"is_reserved":false,"is_disabled":false,"rental_uris":{"android":"levelo://app?vid=a60ba351-5c8c-4211-afc6-2b8a64ae9d34","ios":"levelo://app?vid=a60ba351-5c8c-4211-afc6-2b8a64ae9d34"},"vehicle_type_id":"4","last_reported":1733436563,"current_range_meters":38800,"station_id":"ce4bh112rcd13ifvqda0","pricing_plan_id":"cebpf4jnsgd1na2vs0mg"},{"bike_id":"03bc0aa0-51b3-47d6-a417-6c2f75dce01f","system_id":"levelo_inurba_marseille","lat":43.25106,"lon":5.40326,"is_reserved":false,"is_disabled":false,"rental_uris":{"android":"levelo://app?vid=03bc0aa0-51b3-47d6-a417-6c2f75dce01f","ios":"levelo://app?vid=03bc0aa0-51b3-47d6-a417-6c2f75dce01f"},"vehicle_type_id":"4","last_reported":1733436563,"current_range_meters":36400,"station_id":"ce4bhlh2rcd13ifvqgig","pricing_plan_id":"cebpf4jnsgd1na2vs0mg"},{"bike_id":"e3a79bc4-4825-416e-9e52-ccbc926be5f5","system_id":"levelo_inurba_marseille","lat":43.26503,"lon":5.39535,"is_reserved":false,"is_disabled":false,"rental_uris":{"android":"levelo://app?vid=e3a79bc4-4825-416e-9e52-ccbc926be5f5","ios":"levelo://app?vid=e3a79bc4-4825-416e-9e52-ccbc926be5f5"},"vehicle_type_id":"4","last_reported":1733436563,"current_range_meters":10000,"station_id":"ce4bhi12rcd13ifvqfq0","pricing_plan_id":"cebpf4jnsgd1na2vs0mg"},{"bike_id":"33b4c2df-8476-4edb-a9b4-ce4a3051082b","system_id":"levelo_inurba_marseille","lat":43.31329,"lon":5.397,"is_reserved":false,"is_disabled":false,"rental_uris":{"android":"levelo://app?vid=33b4c2df-8476-4edb-a9b4-ce4a3051082b","ios":"levelo://app?vid=33b4c2df-8476-4edb-a9b4-ce4a3051082b"},"vehicle_type_id":"4","last_reported":1733436563,"current_range_meters":16800,"station_id":"ce4bgvp2rcd13ifvqcu0","pricing_plan_id":"cebpf4jnsgd1na2vs0mg"},{"bike_id":"21c61b3f-2ae1-41ed-96e8-21fc1b01a387","system_id":"levelo_inurba_marseille","lat":43.30087,"lon":5.37257,"is_reserved":false,"is_disabled":false,"rental_uris":{"android":"levelo://app?vid=21c61b3f-2ae1-41ed-96e8-21fc1b01a387","ios":"levelo://app?vid=21c61b3f-2ae1-41ed-96e8-21fc1b01a387"},"vehicle_type_id":"4","last_reported":1733436563,"current_range_meters":14000,"station_id":"","pricing_plan_id":"cebpf4jnsgd1na2vs0mg"},{"bike_id":"f51684b7-fd29-4622-9efb-7a87c0a48d7b","system_id":"levelo_inurba_marseille","lat":43.24391,"lon":5.37059,"is_reserved":false,"is_disabled":true,"rental_uris":{"android":"levelo://app?vid=f51684b7-fd29-4622-9efb-7a87c0a48d7b","ios":"levelo://app?vid=f51684b7-fd29-4622-9efb-7a87c0a48d7b"},"vehicle_type_id":"4","last_reported":1733436563,"current_range_meters":27200,"station_id":"ce4bhhh2rcd13ifvqfk0","pricing_plan_id":"cebpf4jnsgd1na2vs0mg"},{"bike_id":"b56023d7-9e19-4196-bb6a-b04b78aa1c89","system_id":"levelo_inurba_marseille","lat":43.29284,"lon":5.40114,"is_reserved":false,"is_disabled":false,"rental_uris":{"android":"levelo://app?vid=b56023d7-9e19-4196-bb6a-b04b78aa1c89","ios":"levelo://app?vid=b56023d7-9e19-4196-bb6a-b04b78aa1c89"},"vehicle_type_id":"4","last_reported":1733436563,"current_range_meters":19200,"station_id":"ce4bh312rcd13ifvqdk0","pricing_plan_id":"cebpf4jnsgd1na2vs0mg"},{"bike_id":"3a9149f3-357c-4d0a-859b-18382ef024a5","system_id":"levelo_inurba_marseille","lat":43.32114,"lon":5.36778,"is_reserved":false,"is_disabled":false,"rental_uris":{"android":"levelo://app?vid=3a9149f3-357c-4d0a-859b-18382ef024a5","ios":"levelo://app?vid=3a9149f3-357c-4d0a-859b-18382ef024a5"},"vehicle_type_id":"4","last_reported":1733436563,"current_range_meters":22400,"station_id":"ce4bhrh2rcd13ifvqhug","pricing_plan_id":"cebpf4jnsgd1na2vs0mg"},{"bike_id":"bbcbfa71-d8f5-4b8e-9040-d67356b9ece4","system_id":"levelo_inurba_marseille","lat":43.31369,"lon":5.38514,"is_reserved":false,"is_disabled":true,"rental_uris":{"android":"levelo://app?vid=bbcbfa71-d8f5-4b8e-9040-d67356b9ece4","ios":"levelo://app?vid=bbcbfa71-d8f5-4b8e-9040-d67356b9ece4"},"vehicle_type_id":"4","last_reported":1733436563,"current_range_meters":9200,"station_id":"ce4bgt92rcd13ifvqcf0","pricing_plan_id":"cebpf4jnsgd1na2vs0mg"},{"bike_id":"868a434e-7c11-4b20-84c6-7ecdbf24c83b","system_id":"levelo_inurba_marseille","lat":43.33026,"lon":5.39037,"is_reserved":false,"is_disabled":false,"rental_uris":{"android":"levelo://app?vid=868a434e-7c11-4b20-84c6-7ecdbf24c83b","ios":"levelo://app?vid=868a434e-7c11-4b20-84c6-7ecdbf24c83b"},