{"last_updated":1761664335,"ttl":60,"version":"2.2","data":{"bikes":[{"bike_id":"5804c510-2b18-4388-bc39-38f2c0799396","system_id":"levelo_inurba_marseille","lat":43.22918,"lon":5.35376,"is_reserved":false,"is_disabled":true,"rental_uris":{"android":"levelo://app?vid=5804c510-2b18-4388-bc39-38f2c0799396","ios":"levelo://app?vid=5804c510-2b18-4388-bc39-38f2c0799396"},"vehicle_type_id":"4","last_reported":1761664335,"current_range_meters":2800,"station_id":"cpo3532slgdg3j2ikp40","pricing_plan_id":"cebpf4jnsgd1na2vs0mg"},{"bike_id":"3481d2cb-d54f-4b7b-a56d-b0125a8c07a5","system_id":"levelo_inurba_marseille","lat":43.303103,"lon":5.368999,"is_reserved":false,"is_disabled":false,"rental_uris":{"android":"levelo://app?vid=3481d2cb-d54f-4b7b-a56d-b0125a8c07a5","ios":"levelo://app?vid=3481d2cb-d54f-4b7b-a56d-b0125a8c07a5"},"vehicle_type_id":"4","last_reported":1761664335,"current_range_meters":2800,"station_id":"ce4bgqh2rcd13ifvqc5g","pricing_plan_id":"cebpf4jnsgd1na2vs0mg"},{"bike_id":"dc6d11e8-f782-4d93-81cb-701f106bdcd8","system_id":"levelo_inurba_marseille","lat":43.26562,"lon":5.40327,"is_reserved":false,"is_disabled":false,"rental_uris":{"android":"levelo://app?vid=dc6d11e8-f782-4d93-81cb-701f106bdcd8","ios":"levelo://app?vid=dc6d11e8-f782-4d93-81cb-701f106bdcd8"},"vehicle_type_id":"4","last_reported":1761664335,"current_range_meters":3200,"station_id":"ce4bhmp2rcd13ifvqgng","pricing_plan_id":"cebpf4jnsgd1na2vs0mg"},{"bike_id":"c5670090-28e4-4a30-8b52-6f97e9f95071","system_id":"levelo_inurba_marseille","lat":43.29628,"lon":5.39203,"is_reserved":false,"is_disabled":false,"rental_uris":{"android":"levelo://app?vid=c5670090-28e4-4a30-8b52-6f97e9f95071","ios":"levelo://app?vid=c5670090-28e4-4a30-8b52-6f97e9f95071"},"vehicle_type_id":"4","last_reported":1761664335,"current_range_meters":3200,"station_id":"","pricing_plan_id":"cebpf4jnsgd1na2vs0mg"},{"bike_id":"e9eddfc7-979d-4c39-8639-ce4dd59614bf","system_id":"levelo_inurba_marseille","lat":43.29268,"lon":5.36848,"is_reserved":false,"is_disabled":false,"rental_uris":{"android":"levelo://app?vid=e9eddfc7-979d-4c39-8639-ce4dd59614bf","ios":"levelo://app?vid=e9eddfc7-979d-4c39-8639-ce4dd59614bf"},"vehicle_type_id":"4","last_reported":1761664335,"current_range_meters":3200,"station_id":"ce4bhbp2rcd13ifvqesg","pricing_plan_id":"cebpf4jnsgd1na2vs0mg"},{"bike_id":"f06fd6df-4f20-4ccd-a2d0-3b86a1c04dd5","system_id":"levelo_inurba_marseille","lat":43.31485,"lon":5.37306,"is_reserved":false,"is_disabled":false,"rental_uris":{"android":"levelo://app?vid=f06fd6df-4f20-4ccd-a2d0-3b86a1c04dd5","ios":"levelo://app?vid=f06fd6df-4f20-4ccd-a2d0-3b86a1c04dd5"},"vehicle_type_id":"4","last_reported":1761664335,"current_range_meters":3200,"station_id":"ce4bgt12rcd13ifvqcd0","pricing_plan_id":"cebpf4jnsgd1na2vs0mg"},{"bike_id":"703db484-cdb2-4607-9cde-5923f8eb3aa1","system_id":"levelo_inurba_marseille","lat":43.2656,"lon":5.37284,"is_reserved":false,"is_disabled":false,"rental_uris":{"android":"levelo://app?vid=703db484-cdb2-4607-9cde-5923f8eb3aa1","ios":"levelo://app?vid=703db484-cdb2-4607-9cde-5923f8eb3aa1"},"vehicle_type_id":"4","last_reported":1761664335,"current_range_meters":3200,"station_id":"ce4bhb92rcd13ifvqen0","pricing_plan_id":"cebpf4jnsgd1na2vs0mg"},{"bike_id":"dbc0e999-85bd-4a1d-a4d4-696c0adb85db","system_id":"levelo_inurba_marseille","lat":43.29843,"lon":5.36294,"is_reserved":false,"is_disabled":true,"rental_uris":{"android":"levelo://app?vid=dbc0e999-85bd-4a1d-a4d4-696c0adb85db","ios":"levelo://app?vid=dbc0e999-85bd-4a1d-a4d4-696c0adb85db"},"vehicle_type_id":"4","last_reported":1761664335,"current_range_meters":3600,"station_id":"ce4bgpp2rcd13ifvqc3g","pricing_plan_id":"cebpf4jnsgd1na2vs0mg"},{"bike_id":"b578aabd-03d3-430d-877c-c67ba7699321","system_id":"levelo_inurba_marseille","lat":43.30877,"lon":5.39655,"is_reserved":false,"is_disabled":false,"rental_uris":{"android":"levelo://app?vid=b578aabd-03d3-430d-877c-c67ba7699321","ios":"levelo://app?vid=b578aabd-03d3-430d-877c-c67ba7699321"},"vehicle_type_id":"4","last_reported":1761664335,"current_range_meters":4000,"station_id":"ce4bh012rcd13ifvqcv0","pricing_plan_id":"cebpf4jnsgd1na2vs0mg"},{"bike_id":"41d45b45-3a52-4b5a-b2b3-1e62d5490ada","system_id":"levelo_inurba_marseille","lat":43.28537,"lon":5.44096,"is_reserved":false,"is_disabled":false,"rental_uris":{"android":"levelo://app?vid=41d45b45-3a52-4b5a-b2b3-1e62d5490ada","ios":"levelo://app?vid=41d45b45-3a52-4b5a-b2b3-1e62d5490ada"},"vehicle_type_id":"4","last_reported":1761664335,"current_range_meters":4000,"station_id":"st_d3j3df2ikq2c7380ej80","pricing_plan_id":"cebpf4jnsgd1na2vs0mg"},{"bike_id":"64b75b4a-3497-4861-8cc2-90dd62cd9f5e","system_id":"levelo_inurba_marseille","lat":43.29302,"lon":5.43443,"is_reserved":false,"is_disabled":false,"rental_uris":{"android":"levelo://app?vid=64b75b4a-3497-4861-8cc2-90dd62cd9f5e","ios":"levelo://app?vid=64b75b4a-3497-4861-8cc2-90dd62cd9f5e"},"vehicle_type_id":"4","last_reported":1761664335,"current_range_meters":4000,"station_id":"","pricing_plan_id":"cebpf4jnsgd1na2vs0mg"},{"bike_id":"3acb8edc-0168-43d6-86c5-f849e654af7e","system_id":"levelo_inurba_marseille","lat":43.301514,"lon":5.380841,"is_reserved":false,"is_disabled":false,"rental_uris":{"android":"levelo://app?vid=3acb8edc-0168-43d6-86c5-f849e654af7e","ios":"levelo://app?vid=3acb8edc-0168-43d6-86c5-f849e654af7e"},"vehicle_type_id":"4","last_reported":1761664335,"current_range_meters":4000,"station_id":"ce4bgjp2rcd13ifvqbh0","pricing_plan_id":"cebpf4jnsgd1na2vs0mg"},{"bike_id":"b08c8cea-f37f-4482-87f8-b14e8d2da658","system_id":"levelo_inurba_marseille","lat":43.30217,"lon":5.39461,"is_reserved":false,"is_disabled":false,"rental_uris":{"android":"levelo://app?vid=b08c8cea-f37f-4482-87f8-b14e8d2da658","ios":"levelo://app?vid=b08c8cea-f37f-4482-87f8-b14e8d2da658"},"vehicle_type_id":"4","last_reported":1761664335,"current_range_meters":4400,"station_id":"ce4bh0p2rcd13ifvqd70","pricing_plan_id":"cebpf4jnsgd1na2vs0mg"},{"bike_id":"2d2d91cf-f024-4d07-9562-0a97bf5cc089","system_id":"levelo_inurba_marseille","lat":43.304109,"lon":5.378435,"is_reserved":false,"is_disabled":false,"rental_uris":{"android":"levelo://app?vid=2d2d91cf-f024-4d07-9562-0a97bf5cc089","ios":"levelo://app?vid=2d2d91cf-f024-4d07-9562-0a97bf5cc089"},"vehicle_type_id":"4","last_reported":1761664335,"current_range_meters":4400,"station_id":"ce4bgup2rcd13ifvqcn0","pricing_plan_id":"cebpf4jnsgd1na2vs0mg"},{"bike_id":"f27ff263-9f71-4aaf-877f-50a73cba7a9b","system_id":"levelo_inurba_marseille","lat":43.30179,"lon":5.36612,"is_reserved":false,"is_disabled":true,"rental_uris":{"android":"levelo://app?vid=f27ff263-9f71-4aaf-877f-50a73cba7a9b","ios":"levelo://app?vid=f27ff263-9f71-4aaf-877f-50a73cba7a9b"},"vehicle_type_id":"4","last_reported":1761664335,"current_range_meters":4400,"station_id":"ce4bgrh2rcd13ifvqc8g","pricing_plan_id":"cebpf4jnsgd1na2vs0mg"},{"bike_id":"1b8b63ec-7548-4816-b198-44e2162337ac","system_id":"levelo_inurba_marseille","lat":43.306438,"lon":5.400786,"is_reserved":false,"is_disabled":true,"rental_uris":{"android":"levelo://app?vid=1b8b63ec-7548-4816-b198-44e2162337ac","ios":"levelo://app?vid=1b8b63ec-7548-4816-b198-44e2162337ac"},"vehicle_type_id":"4","last_reported":1761664335,"current_range_meters":4400,"station_id":"ce4bh112rcd13ifvqda0","pricing_plan_id":"cebpf4jnsgd1na2vs0mg"},{"bike_id":"de5cece4-6186-4ccb-b70e-a25e8bd3fc86","system_id":"levelo_inurba_marseille","lat":43.337444,"lon":5.374475,"is_reserved":false,"is_disabled":false,"rental_uris":{"android":"levelo://app?vid=de5cece4-6186-4ccb-b70e-a25e8bd3fc86","ios":"levelo://app?vid=de5cece4-6186-4ccb-b70e-a25e8bd3fc86"},"vehicle_type_id":"4","last_reported":1761664335,"current_range_meters":4400,"station_id":"","pricing_plan_id":"cebpf4jnsgd1na2vs0mg"},{"bike_id":"3ea13603-c9ad-4550-9948-b83f47812af6","system_id":"levelo_inurba_marseille","lat":43.29079,"lon":5.36623,"is_reserved":false,"is_disabled":false,"rental_uris":{"android":"levelo://app?vid=3ea13603-c9ad-4550-9948-b83f47812af6","ios":"levelo://app?vid=3ea13603-c9ad-4550-9948-b83f47812af6"},"vehicle_type_id":"4","last_reported":1761664335,"current_range_meters":4800,"station_id":"","pricing_plan_id":"cebpf4jnsgd1na2vs0mg"},{"bike_id":"3a8e756e-b48f-4699-8426-5be74ed67f8f","system_id":"levelo_inurba_marseille","lat":43.30593,"lon":5.39357,"is_reserved":false,"is_disabled":false,"rental_uris":{"android":"levelo://app?vid=3a8e756e-b48f-4699-8426-5be74ed67f8f","ios":"levelo://app?vid=3a8e756e-b48f-4699-8426-5be74ed67f8f"},"vehicle_type_id":"4","last_reported":1761664335,"current_range_meters":4800,"station_id":"ce4bh0p2rcd13ifvqd80","pricing_plan_id":"cebpf4jnsgd1na2vs0mg"},{"bike_id":"80849f5e-5bcb-4d08-a490-5c661f42fd1a","system_id":"levelo_inurba_marseille","lat":43.304077,"lon":5.411271,"is_reserved":false,"is_disabled":false,"rental_uris":{"android":"levelo://app?vid=80849f5e-5bcb-4d08-a490-5c661f42fd1a","ios":"levelo://app?vid=80849f5e-5bcb-4d08-a490-5c661f42fd1a"},"vehicle_type_id":"4","last_reported":1761664335,"current_range_meters":5600,"station_id":"ce4bhop2rcd13ifvqh8g","pricing_plan_id":"cebpf4jnsgd1na2vs0mg"},{"bike_id":"4e790167-b089-49b5-b674-2e8a9edc9469","system_id":"levelo_inurba_marseille","lat":43.29521,"lon":5.39039,"is_reserved":false,"is_disabled":false,"rental_uris":{"android":"levelo://app?vid=4e790167-b089-49b5-b674-2e8a9edc9469","ios":"levelo://app?vid=4e790167-b089-49b5-b674-2e8a9edc9469"},"vehicle_type_id":"4","last_reported":1761664335,"current_range_meters":5600,"station_id":"ce4bh3p2rcd13ifvqdp0","pricing_plan_id":"cebpf4jnsgd1na2vs0mg"},{"bike_id":"3c1c4ac0-ca1a-44df-a918-1ec9d47442e3","system_id":"levelo_inurba_marseille","lat":43.30461,"lon":5.37904,"is_reserved":false,"is_disabled":false,"rental_uris":{"android":"levelo://app?vid=3c1c4ac0-ca1a-44df-a918-1ec9d47442e3","ios":"levelo://app?vid=3c1c4ac0-ca1a-44df-a918-1ec9d47442e3"},"vehicle_type_id":"4","last_reported":1761664335,"current_range_meters":5600,"station_id":"ce4bgup2rcd13ifvqcn0","pricing_plan_id":"cebpf4jnsgd1na2vs0mg"},{"bike_id":"4ade9d83-f2d5-4d19-a54e-74fbd9ec2b53","system_id":"levelo_inurba_marseille","lat":43.31195,"lon":5.40092,"is_reserved":false,"is_disabled":false,"rental_uris":{"android":"levelo://app?vid=4ade9d83-f2d5-4d19-a54e-74fbd9ec2b53","ios":"levelo://app?vid=4ade9d83-f2d5-4d19-a54e-74fbd9ec2b53"},"vehicle_type_id":"4","last_reported":1761664335,"current_range_meters":5600,"station_id":"","pricing_plan_id":"cebpf4jnsgd1na2vs0mg"},{"bike_id":"d3d90670-a6c1-4ae8-ac11-d9d2174e129e","system_id":"levelo_inurba_marseille","lat":43.29065,"lon":5.35907,"is_reserved":false,"is_disabled":false,"rental_uris":{"android":"levelo://app?vid=d3d90670-a6c1-4ae8-ac11-d9d2174e129e","ios":"levelo://app?vid=d3d90670-a6c1-4ae8-ac11-d9d2174e129e"},"vehicle_type_id":"4","last_reported":1761664335,"current_range_meters":5600,"station_id":"ce4bha92rcd13ifvqeg0","pricing_plan_id":"cebpf4jnsgd1na2vs0mg"},{"bike_id":"e4ccce50-4824-4895-aa8c-033835526f23","system_id":"levelo_inurba_marseille","lat":43.318768,"lon":5.399822,"is_reserved":false,"is_disabled":false,"rental_uris":{"android":"levelo://app?vid=e4ccce50-4824-4895-aa8c-033835526f23","ios":"levelo://app?vid=e4ccce50-4824-4895-aa8c-033835526f23"},"vehicle_type_id":"4","last_reported":1761664335,"current_range_meters":5600,"station_id":"","pricing_plan_id":"cebpf4jnsgd1na2vs0mg"},{"bike_id":"3b663f0c-d84e-4e68-b1f3-01798f431740","system_id":"levelo_inurba_marseille","lat":43.30227,"lon":5.39468,"is_reserved":false,"is_disabled":false,"rental_uris":{"android":"levelo://app?vid=3b663f0c-d84e-4e68-b1f3-01798f431740","ios":"levelo://app?vid=3b663f0c-d84e-4e68-b1f3-01798f431740"},"vehicle_type_id":"4","last_reported":1761664335,"current_range_meters":6000,"station_id":"ce4bh0p2rcd13ifvqd70","pricing_plan_id":"cebpf4jnsgd1na2vs0mg"},{"bike_id":"314079d6-ef9f-41e2-87c2-6e020f36d09c","system_id":"levelo_inurba_marseille","lat":43.21189,"lon":5.35076,"is_reserved":false,"is_disabled":false,"rental_uris":{"android":"levelo://app?vid=314079d6-ef9f-41e2-87c2-6e020f36d09c","ios":"levelo://app?vid=314079d6-ef9f-41e2-87c2-6e020f36d09c"},"vehicle_type_id":"4","last_reported":1761664335,"current_range_meters":6000,"station_id":"","pricing_plan_id":"cebpf4jnsgd1na2vs0mg"},{"bike_id":"d1f76c1d-d1d4-43dc-ad44-2a033155cae1","system_id":"levelo_inurba_marseille","lat":43.2417,"lon":5.39742,"is_reserved":false,"is_disabled":false,"rental_uris":{"android":"levelo://app?vid=d1f76c1d-d1d4-43dc-ad44-2a033155cae1","ios":"levelo://app?vid=d1f76c1d-d1d4-43dc-ad44-2a033155cae1"},"vehicle_type_id":"4","last_reported":1761664335,"current_range_meters":6400,"station_id":"ce4bhn12rcd13ifvqgpg","pricing_plan_id":"cebpf4jnsgd1na2vs0mg"},{"bike_id":"a26b9abd-e65c-4085-ab25-1b51f46ec410","system_id":"levelo_inurba_marseille","lat":43.29518,"lon":5.39036,"is_reserved":false,"is_disabled":false,"rental_uris":{"android":"levelo://app?vid=a26b9abd-e65c-4085-ab25-1b51f46ec410","ios":"levelo://app?vid=a26b9abd-e65c-4085-ab25-1b51f46ec410"},"vehicle_type_id":"4","last_reported":1761664335,"current_range_meters":6400,"station_id":"ce4bh3p2rcd13ifvqdp0","pricing_plan_id":"cebpf4jnsgd1na2vs0mg"},{"bike_id":"c5bb853f-d274-4eb2-b0f9-c9b5b41fea56","system_id":"levelo_inurba_marseille","lat":43.23164,"lon":5.43726,"is_reserved":false,"is_disabled":false,"rental_uris":{"android":"levelo://app?vid=c5bb853f-d274-4eb2-b0f9-c9b5b41fea56","ios":"levelo://app?vid=c5bb853f-d274-4eb2-b0f9-c9b5b41fea56"},"vehicle_type_id":"4","last_reported":1761664335,"current_range_meters":6400,"station_id":"ce4bhmp2rcd13ifvqgog","pricing_plan_id":"cebpf4jnsgd1na2vs0mg"},{"bike_id":"d1c5907d-9053-4017-978e-f0149b8bad4c","system_id":"levelo_inurba_marseille","lat":43.260683,"lon":5.393945,"is_reserved":false,"is_disabled":false,"rental_uris":{"android":"levelo://app?vid=d1c5907d-9053-4017-978e-f0149b8bad4c","ios":"levelo://app?vid=d1c5907d-9053-4017-978e-f0149b8bad4c"},"vehicle_type_id":"4","last_reported":1761664335,"current_range_meters":6400,"station_id":"ce4bhh92rcd13ifvqfj0","pricing_plan_id":"cebpf4jnsgd1na2vs0mg"},{"bike_id":"c11af1a1-491b-4b4c-a062-4c5f039ac05f","system_id":"levelo_inurba_marseille","lat":43.30184,"lon":5.3661,"is_reserved":false,"is_disabled":false,"rental_uris":{"android":"levelo://app?vid=c11af1a1-491b-4b4c-a062-4c5f039ac05f","ios":"levelo://app?vid=c11af1a1-491b-4b4c-a062-4c5f039ac05f"},"vehicle_type_id":"4","last_reported":1761664335,"current_range_meters":6400,"station_id":"ce4bgrh2rcd13ifvqc8g","pricing_plan_id":"cebpf4jnsgd1na2vs0mg"},{"bike_id":"5ba6aae0-5ed8-4fcf-b731-e692a96b24f5","system_id":"levelo_inurba_marseille","lat":43.25325,"lon":5.42158,"is_reserved":false,"is_disabled":false,"rental_uris":{"android":"levelo://app?vid=5ba6aae0-5ed8-4fcf-b731-e692a96b24f5","ios":"levelo://app?vid=5ba6aae0-5ed8-4fcf-b731-e692a96b24f5"},"vehicle_type_id":"4","last_reported":1761664335,"current_range_meters":6400,"station_id":"st_d2m65c5bi1j21697t3ng","pricing_plan_id":"cebpf4jnsgd1na2vs0mg"},{"bike_id":"c4a6a5ab-f472-4bff-80e2-092ca4fca1a0","system_id":"levelo_inurba_marseille","lat":43.29529,"lon":5.39035,"is_reserved":false,"is_disabled":true,"rental_uris":{"android":"levelo://app?vid=c4a6a5ab-f472-4bff-80e2-092ca4fca1a0","ios":"levelo://app?vid=c4a6a5ab-f472-4bff-80e2-092ca4fca1a0"},"vehicle_type_id":"4","last_reported":1761664335,"current_range_meters":6800,"station_id":"ce4bh3p2rcd13ifvqdp0","pricing_plan_id":"cebpf4jnsgd1na2vs0mg"},{"bike_id":"aba6b563-5093-4f2c-abdc-45b501f05388","system_id":"levelo_inurba_marseille","lat":43.27055,"lon":5.38313,"is_reserved":false,"is_disabled":true,"rental_uris":{"android":"levelo://app?vid=aba6b563-5093-4f2c-abdc-45b501f05388","ios":"levelo://app?vid=aba6b563-5093-4f2c-abdc-45b501f05388"},"vehicle_type_id":"4","last_reported":1761664335,"current_range_meters":6800,"station_id":"st_d3n2fo6cfp8s73cte1j0","pricing_plan_id":"cebpf4jnsgd1na2vs0mg"},{"bike_id":"5cb82801-6a1a-4af1-8a6f-d63b60c9a9a1","system_id":"levelo_inurba_marseille","lat":43.2417,"lon":5.39731,"is_reserved":false,"is_disabled":false,"rental_uris":{"android":"levelo://app?vid=5cb82801-6a1a-4af1-8a6f-d63b60c9a9a1","ios":"levelo://app?vid=5cb82801-6a1a-4af1-8a6f-d63b60c9a9a1"},"vehicle_type_id":"4","last_reported":1761664335,"current_range_meters":6800,"station_id":"ce4bhn12rcd13ifvqgpg","pricing_plan_id":"cebpf4jnsgd1na2vs0mg"},{"bike_id":"f7069c94-8bd9-4647-8796-50e124bd0a7d","system_id":"levelo_inurba_marseille","lat":43.307979,"lon":5.381504,"is_reserved":false,"is_disabled":false,"rental_uris":{"android":"levelo://app?vid=f7069c94-8bd9-4647-8796-50e124bd0a7d","ios":"levelo://app?vid=f7069c94-8bd9-4647-8796-50e124bd0a7d"},"vehicle_type_id":"4","last_reported":1761664335,"current_range_meters":6800,"station_id":"ce4bgt12rcd13ifvqce0","pricing_plan_id":"cebpf4jnsgd1na2vs0mg"},{"bike_id":"91842cf9-b4a7-417c-a055-62d650827b65","system_id":"levelo_inurba_marseille","lat":43.2897,"lon":5.37833,"is_reserved":false,"is_disabled":false,"rental_uris":{"android":"levelo://app?vid=91842cf9-b4a7-417c-a055-62d650827b65","ios":"levelo://app?vid=91842cf9-b4a7-417c-a055-62d650827b65"},"vehicle_type_id":"4","last_reported":1761664335,"current_range_meters":6800,"station_id":"ce4bh9p2rcd13ifvqed0","pricing_plan_id":"cebpf4jnsgd1na2vs0mg"},{"bike_id":"f33c9ae4-8913-49d7-bb12-7aac86f003eb","system_id":"levelo_inurba_marseille","lat":43.23062,"lon":5.35492,"is_reserved":false,"is_disabled":false,"rental_uris":{"android":"levelo://app?vid=f33c9ae4-8913-49d7-bb12-7aac86f003eb","ios":"levelo://app?vid=f33c9ae4-8913-49d7-bb12-7aac86f003eb"},"vehicle_type_id":"4","last_reported":1761664335,"current_range_meters":6800,"station_id":"cpo3342slgdg3j2ifvpg","pricing_plan_id":"cebpf4jnsgd1na2vs0mg"},{"bike_id":"8b45ebf7-1989-4cb9-8452-54d7599d0f51","system_id":"levelo_inurba_marseille","lat":43.29717,"lon":5.37685,"is_reserved":false,"is_disabled":false,"rental_uris":{"android":"levelo://app?vid=8b45ebf7-1989-4cb9-8452-54d7599d0f51","ios":"levelo://app?vid=8b45ebf7-1989-4cb9-8452-54d7599d0f51"},"vehicle_type_id":"4","last_reported":1761664335,"current_range_meters":6800,"station_id":"ce4bgkh2rcd13ifvqbl0","pricing_plan_id":"cebpf4jnsgd1na2vs0mg"},{"bike_id":"a183586c-5347-43fd-a11b-e67f57c87356","system_id":"levelo_inurba_marseille","lat":43.23967,"lon":5.36628,"is_reserved":false,"is_disabled":false,"rental_uris":{"android":"levelo://app?vid=a183586c-5347-43fd-a11b-e67f57c87356","ios":"levelo://app?vid=a183586c-5347-43fd-a11b-e67f57c87356"},"vehicle_type_id":"4","last_reported":1761664335,"current_range_meters":6800,"station_id":"ce4bhi12rcd13ifvqfp0","pricing_plan_id":"cebpf4jnsgd1na2vs0mg"},{"bike_id":"0761e85a-fc07-44e6-85ac-2b81d46f30fd","system_id":"levelo_inurba_marseille","lat":43.30634,"lon":5.40096,"is_reserved":false,"is_disabled":false,"rental_uris":{"android":"levelo://app?vid=0761e85a-fc07-44e6-85ac-2b81d46f30fd","ios":"levelo://app?vid=0761e85a-fc07-44e6-85ac-2b81d46f30fd"},"vehicle_type_id":"4","last_reported":1761664335,"current_range_meters":6800,"station_id":"ce4bh112rcd13ifvqda0","pricing_plan_id":"cebpf4jnsgd1na2vs0mg"},{"bike_id":"956862c6-5ab5-4e95-b419-d34dce03e0f6","system_id":"levelo_inurba_marseille","lat":43.29516,"lon":5.37495,"is_reserved":false,"is_disabled":false,"rental_uris":{"android":"levelo://app?vid=956862c6-5ab5-4e95-b419-d34dce03e0f6","ios":"levelo://app?vid=956862c6-5ab5-4e95-b419-d34dce03e0f6"},"vehicle_type_id":"4","last_reported":1761664335,"current_range_meters":7200,"station_id":"ce4bgkp2rcd13ifvqbmg","pricing_plan_id":"cebpf4jnsgd1na2vs0mg"},{"bike_id":"4624c6e4-12ce-44b9-bb48-ad42587dad99","system_id":"levelo_inurba_marseille","lat":43.249448,"lon":5.404906,"is_reserved":false,"is_disabled":false,"rental_uris":{"android":"levelo://app?vid=4624c6e4-12ce-44b9-bb48-ad42587dad99","ios":"levelo://app?vid=4624c6e4-12ce-44b9-bb48-ad42587dad99"},"vehicle_type_id":"4","last_reported":1761664335,"current_range_meters":7200,"station_id":"st_d2ngiaodas8pm72gd1h0","pricing_plan_id":"cebpf4jnsgd1na2vs0mg"},{"bike_id":"77cc6047-8908-4fd9-b29a-20dfea58a814","system_id":"levelo_inurba_marseille","lat":43.30304,"lon":5.36878,"is_reserved":false,"is_disabled":false,"rental_uris":{"android":"levelo://app?vid=77cc6047-8908-4fd9-b29a-20dfea58a814","ios":"levelo://app?vid=77cc6047-8908-4fd9-b29a-20dfea58a814"},"vehicle_type_id":"4","last_reported":1761664335,"current_range_meters":7200,"station_id":"ce4bgqh2rcd13ifvqc5g","pricing_plan_id":"cebpf4jnsgd1na2vs0mg"},{"bike_id":"18619ea4-1d14-4ba8-9170-8189de5d4da4","system_id":"levelo_inurba_marseille","lat":43.29238,"lon":5.37747,"is_reserved":false,"is_disabled":false,"rental_uris":{"android":"levelo://app?vid=18619ea4-1d14-4ba8-9170-8189de5d4da4","ios":"levelo://app?vid=18619ea4-1d14-4ba8-9170-8189de5d4da4"},"vehicle_type_id":"4","last_reported":1761664335,"current_range_meters":7200,"station_id":"","pricing_plan_id":"cebpf4jnsgd1na2vs0mg"},{"bike_id":"dd6c54aa-48de-429a-93b8-3e0e0d29eced","system_id":"levelo_inurba_marseille","lat":43.284628,"lon":5.359163,"is_reserved":false,"is_disabled":false,"rental_uris":{"android":"levelo://app?vid=dd6c54aa-48de-429a-93b8-3e0e0d29eced","ios":"levelo://app?vid=dd6c54aa-48de-429a-93b8-3e0e0d29eced"},"vehicle_type_id":"4","last_reported":1761664335,"current_range_meters":7200,"station_id":"ce4bhah2rcd13ifvqei0","pricing_plan_id":"cebpf4jnsgd1na2vs0mg"},{"bike_id":"4758faad-0fa6-4884-a9da-ff35f04b7123","system_id":"levelo_inurba_marseille","lat":43.28418,"lon":5.34982,"is_reserved":false,"is_disabled":false,"rental_uris":{"android":"levelo://app?vid=4758faad-0fa6-4884-a9da-ff35f04b7123","ios":"levelo://app?vid=4758faad-0fa6-4884-a9da-ff35f04b7123"},"vehicle_type_id":"4","last_reported":1761664335,"current_range_meters":7200,"station_id":"ce4bhbh2rcd13ifvqepg","pricing_plan_id":"cebpf4jnsgd1na2vs0mg"},{"bike_id":"f3f4c471-d987-4b75-a220-c1b989d636b7","system_id":"levelo_inurba_marseille","lat":43.25572,"lon":5.38238,"is_reserved":false,"is_disabled":false,"rental_uris":{"android":"levelo://app?vid=f3f4c471-d987-4b75-a220-c1b989d636b7","ios":"levelo://app?vid=f3f4c471-d987-4b75-a220-c1b989d636b7"},"vehicle_type_id":"4","last_reported":1761664335,"current_range_meters":8000,"station_id":"ce4bhih2rcd13ifvqfs0","pricing_plan_id":"cebpf4jnsgd1na2vs0mg"},{"bike_id":"6cc61a69-6f54-48d2-bb03-3d81045e56ce","system_id":"levelo_inurba_marseille","lat":43.28414,"lon":5.35011,"is_reserved":false,"is_disabled":false,"rental_uris":{"android":"levelo://app?vid=6cc61a69-6f54-48d2-bb03-3d81045e56ce","ios":"levelo://app?vid=6cc61a69-6f54-48d2-bb03-3d81045e56ce"},"vehicle_type_id":"4","last_reported":1761664335,"current_range_meters":8000,"station_id":"ce4bhbh2rcd13ifvqepg","pricing_plan_id":"cebpf4jnsgd1na2vs0mg"},{"bike_id":"2de87173-b7fb-40c1-89ab-3e347dfa39e7","system_id":"levelo_inurba_marseille","lat":43.30108,"lon":5.4313,"is_reserved":false,"is_disabled":false,"rental_uris":{"android":"levelo://app?vid=2de87173-b7fb-40c1-89ab-3e347dfa39e7","ios":"levelo://app?vid=2de87173-b7fb-40c1-89ab-3e347dfa39e7"},"vehicle_type_id":"4","last_reported":1761664335,"current_range_meters":8000,"station_id":"st_d3js3co5814s73ftftug","pricing_plan_id":"cebpf4jnsgd1na2vs0mg"},{"bike_id":"1ce9e9f4-0d58-4068-b067-7ac3914e4fb0","system_id":"levelo_inurba_marseille","lat":43.304271,"lon":5.388991,"is_reserved":false,"is_disabled":false,"rental_uris":{"android":"levelo://app?vid=1ce9e9f4-0d58-4068-b067-7ac3914e4fb0","ios":"levelo://app?vid=1ce9e9f4-0d58-4068-b067-7ac3914e4fb0"},"vehicle_type_id":"4","last_reported":1761664335,"current_range_meters":8000,"station_id":"ce4bgk12rcd13ifvqbi0","pricing_plan_id":"cebpf4jnsgd1na2vs0mg"},{"bike_id":"d2ed3ffa-d691-4080-a262-6c6dc06a554e","system_id":"levelo_inurba_marseille","lat":43.30133,"lon":5.38787,"is_reserved":false,"is_disabled":false,"rental_uris":{"android":"levelo://app?vid=d2ed3ffa-d691-4080-a262-6c6dc06a554e","ios":"levelo://app?vid=d2ed3ffa-d691-4080-a262-6c6dc06a554e"},"vehicle_type_id":"4","last_reported":1761664335,"current_range_meters":8000,"station_id":"ce4bghh2rcd13ifvqb60","pricing_plan_id":"cebpf4jnsgd1na2vs0mg"},{"bike_id":"bbbf3dbb-fbe2-4b7e-bfad-c027ca4e1c25","system_id":"levelo_inurba_marseille","lat":43.28425,"lon":5.48463,"is_reserved":false,"is_disabled":false,"rental_uris":{"android":"levelo://app?vid=bbbf3dbb-fbe2-4b7e-bfad-c027ca4e1c25","ios":"levelo://app?vid=bbbf3dbb-fbe2-4b7e-bfad-c027ca4e1c25"},"vehicle_type_id":"4","last_reported":1761664335,"current_range_meters":8400,"station_id":"st_d3svhcjqgbts73a3dn0g","pricing_plan_id":"cebpf4jnsgd1na2vs0mg"},{"bike_id":"95560b5f-8ea8-4033-94ba-80ee0a78620c","system_id":"levelo_inurba_marseille","lat":43.30368,"lon":5.42501,"is_reserved":false,"is_disabled":false,"rental_uris":{"android":"levelo://app?vid=95560b5f-8ea8-4033-94ba-80ee0a78620c","ios":"levelo://app?vid=95560b5f-8ea8-4033-94ba-80ee0a78620c"},"vehicle_type_id":"4","last_reported":1761664335,"current_range_meters":8400,"station_id":"ce4bhoh2rcd13ifvqh6g","pricing_plan_id":"cebpf4jnsgd1na2vs0mg"},{"bike_id":"a8e7fee9-4b47-487f-aa96-53bac735c567","system_id":"levelo_inurba_marseille","lat":43.29841,"lon":5.36282,"is_reserved":false,"is_disabled":false,"rental_uris":{"android":"levelo://app?vid=a8e7fee9-4b47-487f-aa96-53bac735c567","ios":"levelo://app?vid=a8e7fee9-4b47-487f-aa96-53bac735c567"},"vehicle_type_id":"4","last_reported":1761664335,"current_range_meters":8400,"station_id":"ce4bgpp2rcd13ifvqc3g","pricing_plan_id":"cebpf4jnsgd1na2vs0mg"},{"bike_id":"d5ed4b65-e523-4b0a-80b3-ce20c36757de","system_id":"levelo_inurba_marseille","lat":43.21188,"lon":5.35078,"is_reserved":false,"is_disabled":false,"rental_uris":{"android":"levelo://app?vid=d5ed4b65-e523-4b0a-80b3-ce20c36757de","ios":"levelo://app?vid=d5ed4b65-e523-4b0a-80b3-ce20c36757de"},"vehicle_type_id":"4","last_reported":1761664335,"current_range_meters":8400,"station_id":"st_cvj6sg6p6f1abm77japg","pricing_plan_id":"cebpf4jnsgd1na2vs0mg"},{"bike_id":"843cb0b4-4933-467f-b49b-9cf6143ce267","system_id":"levelo_inurba_marseille","lat":43.29525,"lon":5.37509,"is_reserved":false,"is_disabled":false,"rental_uris":{"android":"levelo://app?vid=843cb0b4-4933-467f-b49b-9cf6143ce267","ios":"levelo://app?vid=843cb0b4-4933-467f-b49b-9cf6143ce267"},"vehicle_type_id":"4","last_reported":1761664335,"current_range_meters":8800,"station_id":"ce4bgkp2rcd13ifvqbmg","pricing_plan_id":"cebpf4jnsgd1na2vs0mg"},{"bike_id":"eea3c3c3-734f-4fd3-8061-ed84cfe47b38","system_id":"levelo_inurba_marseille","lat":43.32562,"lon":5.39144,"is_reserved":false,"is_disabled":false,"rental_uris":{"android":"levelo://app?vid=eea3c3c3-734f-4fd3-8061-ed84cfe47b38","ios":"levelo://app?vid=eea3c3c3-734f-4fd3-8061-ed84cfe47b38"},"vehicle_type_id":"4","last_reported":1761664335,"current_range_meters":8800,"station_id":"","pricing_plan_id":"cebpf4jnsgd1na2vs0mg"},{"bike_id":"1db0a41d-ee5d-4a5e-aede-9043f8bd1f4d","system_id":"levelo_inurba_marseille","lat":43.30256,"lon":5.40078,"is_reserved":false,"is_disabled":false,"rental_uris":{"android":"levelo://app?vid=1db0a41d-ee5d-4a5e-aede-9043f8bd1f4d","ios":"levelo://app?vid=1db0a41d-ee5d-4a5e-aede-9043f8bd1f4d"},"vehicle_type_id":"4","last_reported":1761664335,"current_range_meters":8800,"station_id":"ce4bgvh2rcd13ifvqcs0","pricing_plan_id":"cebpf4jnsgd1na2vs0mg"},{"bike_id":"4c647fa9-74f2-4879-91d3-2315c1c4d447","system_id":"levelo_inurba_marseille","lat":43.283815,"lon":5.387584,"is_reserved":false,"is_disabled":false,"rental_uris":{"android":"levelo://app?vid=4c647fa9-74f2-4879-91d3-2315c1c4d447","ios":"levelo://app?vid=4c647fa9-74f2-4879-91d3-2315c1c4d447"},"vehicle_type_id":"4","last_reported":1761664335,"current_range_meters":8800,"station_id":"ce4bhoh2rcd13ifvqh5g","pricing_plan_id":"cebpf4jnsgd1na2vs0mg"},{"bike_id":"82690360-7c06-47da-94f6-54d79f9197ff","system_id":"levelo_inurba_marseille","lat":43.26029,"lon":5.37554,"is_reserved":false,"is_disabled":false,"rental_uris":{"android":"levelo://app?vid=82690360-7c06-47da-94f6-54d79f9197ff","ios":"levelo://app?vid=82690360-7c06-47da-94f6-54d79f9197ff"},"vehicle_type_id":"4","last_reported":1761664335,"current_range_meters":8800,"station_id":"ce4bhgh2rcd13ifvqfa0","pricing_plan_id":"cebpf4jnsgd1na2vs0mg"},{"bike_id":"6bebc23a-20ee-4a90-af25-5bd4e078e65b","system_id":"levelo_inurba_marseille","lat":43.29604,"lon":5.38111,"is_reserved":false,"is_disabled":false,"rental_uris":{"android":"levelo://app?vid=6bebc23a-20ee-4a90-af25-5bd4e078e65b","ios":"levelo://app?vid=6bebc23a-20ee-4a90-af25-5bd4e078e65b"},"vehicle_type_id":"4","last_reported":1761664335,"current_range_meters":8800,"station_id":"ce4bgl12rcd13ifvqbo0","pricing_plan_id":"cebpf4jnsgd1na2vs0mg"},{"bike_id":"49ee1c1a-c0cc-4db3-b467-2eef252c2dc2","system_id":"levelo_inurba_marseille","lat":43.301544,"lon":5.366387,"is_reserved":false,"is_disabled":false,"rental_uris":{"android":"levelo://app?vid=49ee1c1a-c0cc-4db3-b467-2eef252c2dc2","ios":"levelo://app?vid=49ee1c1a-c0cc-4db3-b467-2eef252c2dc2"},"vehicle_type_id":"4","last_reported":1761664335,"current_range_meters":9200,"station_id":"ce4bgrh2rcd13ifvqc8g","pricing_plan_id":"cebpf4jnsgd1na2vs0mg"},{"bike_id":"40822fea-b5df-4b45-8f67-4dadafa2ae81","system_id":"levelo_inurba_marseille","lat":43.27169,"lon":5.41012,"is_reserved":false,"is_disabled":false,"rental_uris":{"android":"levelo://app?vid=40822fea-b5df-4b45-8f67-4dadafa2ae81","ios":"levelo://app?vid=40822fea-b5df-4b45-8f67-4dadafa2ae81"},"vehicle_type_id":"4","last_reported":1761664335,"current_range_meters":9200,"station_id":"ce4bhl12rcd13ifvqgf0","pricing_plan_id":"cebpf4jnsgd1na2vs0mg"},{"bike_id":"fe99afd6-e3fd-422a-ab42-6b4d1a78b724","system_id":"levelo_inurba_marseille","lat":43.284517,"lon":5.349507,"is_reserved":false,"is_disabled":false,"rental_uris":{"android":"levelo://app?vid=fe99afd6-e3fd-422a-ab42-6b4d1a78b724","ios":"levelo://app?vid=fe99afd6-e3fd-422a-ab42-6b4d1a78b724"},"vehicle_type_id":"4","last_reported":1761664335,"current_range_meters":9600,"station_id":"","pricing_plan_id":"cebpf4jnsgd1na2vs0mg"},{"bike_id":"5b4c09ca-8c1a-40f4-8aaa-e8088c5f7075","system_id":"levelo_inurba_marseille","lat":43.24649,"lon":5.38892,"is_reserved":false,"is_disabled":false,"rental_uris":{"android":"levelo://app?vid=5b4c09ca-8c1a-40f4-8aaa-e8088c5f7075","ios":"levelo://app?vid=5b4c09ca-8c1a-40f4-8aaa-e8088c5f7075"},"vehicle_type_id":"4","last_reported":1761664335,"current_range_meters":9600,"station_id":"ce4bhg12rcd13ifvqf60","pricing_plan_id":"cebpf4jnsgd1na2vs0mg"},{"bike_id":"208a1fa9-c371-4a9e-bc97-d54ccd03a0b4","system_id":"levelo_inurba_marseille","lat":43.26156,"lon":5.41735,"is_reserved":false,"is_disabled":false,"rental_uris":{"android":"levelo://app?vid=208a1fa9-c371-4a9e-bc97-d54ccd03a0b4","ios":"levelo://app?vid=208a1fa9-c371-4a9e-bc97-d54ccd03a0b4"},"vehicle_type_id":"4","last_reported":1761664335,"current_range_meters":9600,"station_id":"","pricing_plan_id":"cebpf4jnsgd1na2vs0mg"},{"bike_id":"f9484733-c07f-4293-8628-46871c65b913","system_id":"levelo_inurba_marseille","lat":43.25456,"lon":5.38104,"is_reserved":false,"is_disabled":false,"rental_uris":{"android":"levelo://app?vid=f9484733-c07f-4293-8628-46871c65b913","ios":"levelo://app?vid=f9484733-c07f-4293-8628-46871c65b913"},"vehicle_type_id":"4","last_reported":1761664335,"current_range_meters":9600,"station_id":"","pricing_plan_id":"cebpf4jnsgd1na2vs0mg"},{"bike_id":"5324da54-2171-4ecf-ab73-1779ea9e17a9","system_id":"levelo_inurba_marseille","lat":43.30303,"lon":5.3922,"is_reserved":false,"is_disabled":false,"rental_uris":{"android":"levelo://app?vid=5324da54-2171-4ecf-ab73-1779ea9e17a9","ios":"levelo://app?vid=5324da54-2171-4ecf-ab73-1779ea9e17a9"},"vehicle_type_id":"4","last_reported":1761664335,"current_range_meters":9600,"station_id":"ce4bgkh2rcd13ifvqbk0","pricing_plan_id":"cebpf4jnsgd1na2vs0mg"},{"bike_id":"efbb9712-7054-4f05-aad1-6913b9e3154d","system_id":"levelo_inurba_marseille","lat":43.2842,"lon":5.35009,"is_reserved":false,"is_disabled":false,"rental_uris":{"android":"levelo://app?vid=efbb9712-7054-4f05-aad1-6913b9e3154d","ios":"levelo://app?vid=efbb9712-7054-4f05-aad1-6913b9e3154d"},"vehicle_type_id":"4","last_reported":1761664335,"current_range_meters":9600,"station_id":"ce4bhbh2rcd13ifvqepg","pricing_plan_id":"cebpf4jnsgd1na2vs0mg"},{"bike_id":"1880ebb9-7edb-463e-976b-226e958b9ebe","system_id":"levelo_inurba_marseille","lat":43.31097,"lon":5.37487,"is_reserved":false,"is_disabled":false,"rental_uris":{"android":"levelo://app?vid=1880ebb9-7edb-463e-976b-226e958b9ebe","ios":"levelo://app?vid=1880ebb9-7edb-463e-976b-226e958b9ebe"},"vehicle_type_id":"4","last_reported":1761664335,"current_range_meters":10000,"station_id":"ce4bgt12rcd13ifvqce0","pricing_plan_id":"cebpf4jnsgd1na2vs0mg"},{"bike_id":"c896b697-d7c3-47ea-81cb-50811f76c96f","system_id":"levelo_inurba_marseille","lat":43.25084,"lon":5.39512,"is_reserved":false,"is_disabled":false,"rental_uris":{"android":"levelo://app?vid=c896b697-d7c3-47ea-81cb-50811f76c96f","ios":"levelo://app?vid=c896b697-d7c3-47ea-81cb-50811f76c96f"},"vehicle_type_id":"4","last_reported":1761664335,"current_range_meters":10000,"station_id":"ce4bhm12rcd13ifvqgkg","pricing_plan_id":"cebpf4jnsgd1na2vs0mg"},{"bike_id":"f7c8b86a-a41f-4a37-a791-1cab69b55788","system_id":"levelo_inurba_marseille","lat":43.29623,"lon":5.37711,"is_reserved":false,"is_disabled":false,"rental_uris":{"android":"levelo://app?vid=f7c8b86a-a41f-4a37-a791-1cab69b55788","ios":"levelo://app?vid=f7c8b86a-a41f-4a37-a791-1cab69b55788"},"vehicle_type_id":"4","last_reported":1761664335,"current_range_meters":10000,"station_id":"ce4bgi92rcd13ifvqb90","pricing_plan_id":"cebpf4jnsgd1na2vs0mg"},{"bike_id":"168ac6e1-a515-47ab-a970-13362425e9de","system_id":"levelo_inurba_marseille","lat":43.2927,"lon":5.38434,"is_reserved":false,"is_disabled":false,"rental_uris":{"android":"levelo://app?vid=168ac6e1-a515-47ab-a970-13362425e9de","ios":"levelo://app?vid=168ac6e1-a515-47ab-a970-13362425e9de"},"vehicle_type_id":"4","last_reported":1761664335,"current_range_meters":10000,"station_id":"ce4bh692rcd13ifvqea0","pricing_plan_id":"cebpf4jnsgd1na2vs0mg"},{"bike_id":"f3673a60-efd2-465f-aa18-cb0baaf105f7","system_id":"levelo_inurba_marseille","lat":43.31054,"lon":5.40095,"is_reserved":false,"is_disabled":false,"rental_uris":{"android":"levelo://app?vid=f3673a60-efd2-465f-aa18-cb0baaf105f7","ios":"levelo://app?vid=f3673a60-efd2-465f-aa18-cb0baaf105f7"},"vehicle_type_id":"4","last_reported":1761664335,"current_range_meters":10000,"station_id":"","pricing_plan_id":"cebpf4jnsgd1na2vs0mg"},{"bike_id":"aae2869b-900b-4e16-b51e-3b91a63279e4","system_id":"levelo_inurba_marseille","lat":43.32364,"lon":5.38886,"is_reserved":false,"is_disabled":false,"rental_uris":{"android":"levelo://app?vid=aae2869b-900b-4e16-b51e-3b91a63279e4","ios":"levelo://app?vid=aae2869b-900b-4e16-b51e-3b91a63279e4"},"vehicle_type_id":"4","last_reported":1761664335,"current_range_meters":10000,"station_id":"ce4bhqp2rcd13ifvqhog","pricing_plan_id":"cebpf4jnsgd1na2vs0mg"},{"bike_id":"382357c9-5d61-4334-a31f-4ca25fe61ddc","system_id":"levelo_inurba_marseille","lat":43.322886,"lon":5.382707,"is_reserved":false,"is_disabled":false,"rental_uris":{"android":"levelo://app?vid=382357c9-5d61-4334-a31f-4ca25fe61ddc","ios":"levelo://app?vid=382357c9-5d61-4334-a31f-4ca25fe61ddc"},"vehicle_type_id":"4","last_reported":1761664335,"current_range_meters":10000,"station_id":"ce4bhr12rcd13ifvqhqg","pricing_plan_id":"cebpf4jnsgd1na2vs0mg"},{"bike_id":"d5903cd1-b0cd-47a9-89c6-8b738ecca177","system_id":"levelo_inurba_marseille","lat":43.30531,"lon":5.36547,"is_reserved":false,"is_disabled":false,"rental_uris":{"android":"levelo://app?vid=d5903cd1-b0cd-47a9-89c6-8b738ecca177","ios":"levelo://app?vid=d5903cd1-b0cd-47a9-89c6-8b738ecca177"},"vehicle_type_id":"4","last_reported":1761664335,"current_range_meters":10800,"station_id":"ce4bgs12rcd13ifvqcag","pricing_plan_id":"cebpf4jnsgd1na2vs0mg"},{"bike_id":"550bfa7e-5e41-4cb2-8258-5c2c5ac309a3","system_id":"levelo_inurba_marseille","lat":43.31189,"lon":5.38683,"is_reserved":false,"is_disabled":false,"rental_uris":{"android":"levelo://app?vid=550bfa7e-5e41-4cb2-8258-5c2c5ac309a3","ios":"levelo://app?vid=550bfa7e-5e41-4cb2-8258-5c2c5ac309a3"},"vehicle_type_id":"4","last_reported":1761664335,"current_range_meters":10800,"station_id":"ce4bgv12rcd13ifvqcp0","pricing_plan_id":"cebpf4jnsgd1na2vs0mg"},{"bike_id":"e29a9b7c-32c2-4569-b86e-d253fd27087f","system_id":"levelo_inurba_marseille","lat":43.30465,"lon":5.37902,"is_reserved":false,"is_disabled":false,"rental_uris":{"android":"levelo://app?vid=e29a9b7c-32c2-4569-b86e-d253fd27087f","ios":"levelo://app?vid=e29a9b7c-32c2-4569-b86e-d253fd27087f"},"vehicle_type_id":"4","last_reported":1761664335,"current_range_meters":10800,"station_id":"ce4bgup2rcd13ifvqcn0","pricing_plan_id":"cebpf4jnsgd1na2vs0mg"},{"bike_id":"dbcbcef0-4b5f-446e-9d2e-80d991993c2b","system_id":"levelo_inurba_marseille","lat":43.29537,"lon":5.40223,"is_reserved":false,"is_disabled":false,"rental_uris":{"android":"levelo://app?vid=dbcbcef0-4b5f-446e-9d2e-80d991993c2b","ios":"levelo://app?vid=dbcbcef0-4b5f-446e-9d2e-80d991993c2b"},"vehicle_type_id":"4","last_reported":1761664335,"current_range_meters":10800,"station_id":"","pricing_plan_id":"cebpf4jnsgd1na2vs0mg"},{"bike_id":"3b82aff6-7cb9-43aa-944c-0f02fe4ef9fa","system_id":"levelo_inurba_marseille","lat":43.28012,"lon":5.38702,"is_reserved":false,"is_disabled":true,"rental_uris":{"android":"levelo://app?vid=3b82aff6-7cb9-43aa-944c-0f02fe4ef9fa","ios":"levelo://app?vid=3b82aff6-7cb9-43aa-944c-0f02fe4ef9fa"},"vehicle_type_id":"4","last_reported":1761664335,"current_range_meters":10800,"station_id":"","pricing_plan_id":"cebpf4jnsgd1na2vs0mg"},{"bike_id":"7bd03824-3475-4140-aba2-39ea1097942c","system_id":"levelo_inurba_marseille","lat":43.2466,"lon":5.38161,"is_reserved":false,"is_disabled":false,"rental_uris":{"android":"levelo://app?vid=7bd03824-3475-4140-aba2-39ea1097942c","ios":"levelo://app?vid=7bd03824-3475-4140-aba2-39ea1097942c"},"vehicle_type_id":"4","last_reported":1761664335,"current_range_meters":10800,"station_id":"ce4bhih2rcd13ifvqfr0","pricing_plan_id":"cebpf4jnsgd1na2vs0mg"},{"bike_id":"5ce1da91-6712-48e3-b3b3-52da188a29db","system_id":"levelo_inurba_marseille","lat":43.2976,"lon":5.42782,"is_reserved":false,"is_disabled":false,"rental_uris":{"android":"levelo://app?vid=5ce1da91-6712-48e3-b3b3-52da188a29db","ios":"levelo://app?vid=5ce1da91-6712-48e3-b3b3-52da188a29db"},"vehicle_type_id":"4","last_reported":1761664335,"current_range_meters":11200,"station_id":"st_d3md5207bmas73dh9klg","pricing_plan_id":"cebpf4jnsgd1na2vs0mg"},{"bike_id":"7b1b6fda-acbf-4bcc-9c4e-eb02a7bb672a","system_id":"levelo_inurba_marseille","lat":43.241611,"lon":5.363929,"is_reserved":false,"is_disabled":false,"rental_uris":{"android":"levelo://app?vid=7b1b6fda-acbf-4bcc-9c4e-eb02a7bb672a","ios":"levelo://app?vid=7b1b6fda-acbf-4bcc-9c4e-eb02a7bb672a"},"vehicle_type_id":"4","last_reported":1761664335,"current_range_meters":11200,"station_id":"cpo36qri1sfpv3e86is0","pricing_plan_id":"cebpf4jnsgd1na2vs0mg"},{"bike_id":"e809b2e8-3405-4fa4-abe8-65e4a296b1cd","system_id":"levelo_inurba_marseille","lat":43.2119,"lon":5.35075,"is_reserved":false,"is_disabled":false,"rental_uris":{"android":"levelo://app?vid=e809b2e8-3405-4fa4-abe8-65e4a296b1cd","ios":"levelo://app?vid=e809b2e8-3405-4fa4-abe8-65e4a296b1cd"},"vehicle_type_id":"4","last_reported":1761664335,"current_range_meters":11200,"station_id":"","pricing_plan_id":"cebpf4jnsgd1na2vs0mg"},{"bike_id":"d94806bd-d31d-4b00-ad3b-2b71edb174ca","system_id":"levelo_inurba_marseille","lat":43.24388,"lon":5.37048,"is_reserved":false,"is_disabled":false,"rental_uris":{"android":"levelo://app?vid=d94806bd-d31d-4b00-ad3b-2b71edb174ca","ios":"levelo://app?vid=d94806bd-d31d-4b00-ad3b-2b71edb174ca"},"vehicle_type_id":"4","last_reported":1761664335,"current_range_meters":11200,"station_id":"ce4bhhh2rcd13ifvqfk0","pricing_plan_id":"cebpf4jnsgd1na2vs0mg"},{"bike_id":"a41a4089-dcd9-41ec-9840-5a1b410174fd","system_id":"levelo_inurba_marseille","lat":43.28385,"lon":5.3754,"is_reserved":false,"is_disabled":false,"rental_uris":{"android":"levelo://app?vid=a41a4089-dcd9-41ec-9840-5a1b410174fd","ios":"levelo://app?vid=a41a4089-dcd9-41ec-9840-5a1b410174fd"},"vehicle_type_id":"4","last_reported":1761664335,"current_range_meters":11200,"station_id":"","pricing_plan_id":"cebpf4jnsgd1na2vs0mg"},{"bike_id":"9eb27e8b-0951-4c08-8214-6e629081e2a3","system_id":"levelo_inurba_marseille","lat":43.24159,"lon":5.36423,"is_reserved":false,"is_disabled":false,"rental_uris":{"android":"levelo://app?vid=9eb27e8b-0951-4c08-8214-6e629081e2a3","ios":"levelo://app?vid=9eb27e8b-0951-4c08-8214-6e629081e2a3"},"vehicle_type_id":"4","last_reported":1761664335,"current_range_meters":11600,"station_id":"cpo36qri1sfpv3e86is0","pricing_plan_id":"cebpf4jnsgd1na2vs0mg"},{"bike_id":"6abb9e09-33f3-43f3-9417-8cc0cf0144f6","system_id":"levelo_inurba_marseille","lat":43.29916,"lon":5.37467,"is_reserved":false,"is_disabled":true,"rental_uris":{"android":"levelo://app?vid=6abb9e09-33f3-43f3-9417-8cc0cf0144f6","ios":"levelo://app?vid=6abb9e09-33f3-43f3-9417-8cc0cf0144f6"},"vehicle_type_id":"4","last_reported":1761664335,"current_range_meters":11600,"station_id":"ce4bgjh2rcd13ifvqbg0","pricing_plan_id":"cebpf4jnsgd1na2vs0mg"},{"bike_id":"a50f33a9-51f5-49fa-9b01-ee85eb3d8e89","system_id":"levelo_inurba_marseille","lat":43.23198,"lon":5.3556,"is_reserved":false,"is_disabled":false,"rental_uris":{"android":"levelo://app?vid=a50f33a9-51f5-49fa-9b01-ee85eb3d8e89","ios":"levelo://app?vid=a50f33a9-51f5-49fa-9b01-ee85eb3d8e89"},"vehicle_type_id":"4","last_reported":1761664335,"current_range_meters":11600,"station_id":"ce4bhu92rcd13ifvqi70","pricing_plan_id":"cebpf4jnsgd1na2vs0mg"},{"bike_id":"c9004226-a3ea-426e-8334-57543e359f1e","system_id":"levelo_inurba_marseille","lat":43.21179,"lon":5.351156,"is_reserved":false,"is_disabled":false,"rental_uris":{"android":"levelo://app?vid=c9004226-a3ea-426e-8334-57543e359f1e","ios":"levelo://app?vid=c9004226-a3ea-426e-8334-57543e359f1e"},"vehicle_type_id":"4","last_reported":1761664335,"current_range_meters":12400,"station_id":"","pricing_plan_id":"cebpf4jnsgd1na2vs0mg"},{"bike_id":"41cd7ba7-5288-430f-80f1-372ca85fe2bb","system_id":"levelo_inurba_marseille","lat":43.24806,"lon":5.37463,"is_reserved":false,"is_disabled":false,"rental_uris":{"android":"levelo://app?vid=41cd7ba7-5288-430f-80f1-372ca85fe2bb","ios":"levelo://app?vid=41cd7ba7-5288-430f-80f1-372ca85fe2bb"},"vehicle_type_id":"4","last_reported":1761664335,"current_range_meters":12400,"station_id":"ce4bhgh2rcd13ifvqfb0","pricing_plan_id":"cebpf4jnsgd1na2vs0mg"},{"bike_id":"d5ca831f-8041-403e-ada8-7b4196c3d5be","system_id":"levelo_inurba_marseille","lat":43.293714,"lon":5.379385,"is_reserved":false,"is_disabled":false,"rental_uris":{"android":"levelo://app?vid=d5ca831f-8041-403e-ada8-7b4196c3d5be","ios":"levelo://app?vid=d5ca831f-8041-403e-ada8-7b4196c3d5be"},"vehicle_type_id":"4","last_reported":1761664335,"current_range_meters":12400,"station_id":"","pricing_plan_id":"cebpf4jnsgd1na2vs0mg"},{"bike_id":"897d1025-cdde-48ec-9b73-6418bafdbbc5","system_id":"levelo_inurba_marseille","lat":43.28084,"lon":5.34762,"is_reserved":false,"is_disabled":false,"rental_uris":{"android":"levelo://app?vid=897d1025-cdde-48ec-9b73-6418bafdbbc5","ios":"levelo://app?vid=897d1025-cdde-48ec-9b73-6418bafdbbc5"},"vehicle_type_id":"4","last_reported":1761664335,"current_range_meters":12400,"station_id":"","pricing_plan_id":"cebpf4jnsgd1na2vs0mg"},{"bike_id":"f8571258-08c1-4134-853a-122c544d4bc4","system_id":"levelo_inurba_marseille","lat":43.21185,"lon":5.35093,"is_reserved":false,"is_disabled":false,"rental_uris":{"android":"levelo://app?vid=f8571258-08c1-4134-853a-122c544d4bc4","ios":"levelo://app?vid=f8571258-08c1-4134-853a-122c544d4bc4"},"vehicle_type_id":"4","last_reported":1761664335,"current_range_meters":12400,"station_id":"","pricing_plan_id":"cebpf4jnsgd1na2vs0mg"},{"bike_id":"dccef0b1-edb3-49b5-866c-43e10e5763cc","system_id":"levelo_inurba_marseille","lat":43.288859,"lon":5.437825,"is_reserved":false,"is_disabled":false,"rental_uris":{"android":"levelo://app?vid=dccef0b1-edb3-49b5-866c-43e10e5763cc","ios":"levelo://app?vid=dccef0b1-edb3-49b5-866c-43e10e5763cc"},"vehicle_type_id":"4","last_reported":1761664335,"current_range_meters":12800,"station_id":"","pricing_plan_id":"cebpf4jnsgd1na2vs0mg"},{"bike_id":"da1ab5c2-f93c-4e38-ab02-3398697b4587","system_id":"levelo_inurba_marseille","lat":43.24386,"lon":5.37055,"is_reserved":false,"is_disabled":false,"rental_uris":{"android":"levelo://app?vid=da1ab5c2-f93c-4e38-ab02-3398697b4587","ios":"levelo://app?vid=da1ab5c2-f93c-4e38-ab02-3398697b4587"},"vehicle_type_id":"4","last_reported":1761664335,"current_range_meters":12800,"station_id":"ce4bhhh2rcd13ifvqfk0","pricing_plan_id":"cebpf4jnsgd1na2vs0mg"},{"bike_id":"1fd266e2-e6c9-4a7e-8908-3af2fd2d0233","system_id":"levelo_inurba_marseille","lat":43.23795,"lon":5.36409,"is_reserved":false,"is_disabled":false,"rental_uris":{"android":"levelo://app?vid=1fd266e2-e6c9-4a7e-8908-3af2fd2d0233","ios":"levelo://app?vid=1fd266e2-e6c9-4a7e-8908-3af2fd2d0233"},"vehicle_type_id":"4","last_reported":1761664335,"current_range_meters":12800,"station_id":"","pricing_plan_id":"cebpf4jnsgd1na2vs0mg"},{"bike_id":"c82da906-ab51-4f99-a7e9-6d9e27e58356","system_id":"levelo_inurba_marseille","lat":43.31365,"lon":5.38489,"is_reserved":false,"is_disabled":false,"rental_uris":{"android":"levelo://app?vid=c82da906-ab51-4f99-a7e9-6d9e27e58356","ios":"levelo://app?vid=c82da906-ab51-4f99-a7e9-6d9e27e58356"},"vehicle_type_id":"4","last_reported":1761664335,"current_range_meters":12800,"station_id":"ce4bgt92rcd13ifvqcf0","pricing_plan_id":"cebpf4jnsgd1na2vs0mg"},{"bike_id":"e1ca1064-3ac1-495e-b8d2-df8047d11b2e","system_id":"levelo_inurba_marseille","lat":43.28479,"lon":5.48392,"is_reserved":false,"is_disabled":false,"rental_uris":{"android":"levelo://app?vid=e1ca1064-3ac1-495e-b8d2-df8047d11b2e","ios":"levelo://app?vid=e1ca1064-3ac1-495e-b8d2-df8047d11b2e"},"vehicle_type_id":"4","last_reported":1761664335,"current_range_meters":12800,"station_id":"st_d3svhcjqgbts73a3dn0g","pricing_plan_id":"cebpf4jnsgd1na2vs0mg"},{"bike_id":"68d872fa-8fcd-427e-a81c-cfb7044b72ae","system_id":"levelo_inurba_marseille","lat":43.27368,"lon":5.36257,"is_reserved":false,"is_disabled":false,"rental_uris":{"android":"levelo://app?vid=68d872fa-8fcd-427e-a81c-cfb7044b72ae","ios":"levelo://app?vid=68d872fa-8fcd-427e-a81c-cfb7044b72ae"},"vehicle_type_id":"4","last_reported":1761664335,"current_range_meters":13600,"station_id":"ce4bhbh2rcd13ifvqeo0","pricing_plan_id":"cebpf4jnsgd1na2vs0mg"},{"bike_id":"0514a3f3-67b0-4c2b-ad12-4e0494958384","system_id":"levelo_inurba_marseille","lat":43.2418,"lon":5.39724,"is_reserved":false,"is_disabled":false,"rental_uris":{"android":"levelo://app?vid=0514a3f3-67b0-4c2b-ad12-4e0494958384","ios":"levelo://app?vid=0514a3f3-67b0-4c2b-ad12-4e0494958384"},"vehicle_type_id":"4","last_reported":1761664335,"current_range_meters":13600,"station_id":"ce4bhn12rcd13ifvqgpg","pricing_plan_id":"cebpf4jnsgd1na2vs0mg"},{"bike_id":"db88a8a5-5637-4384-a6d7-41d8f099747a","system_id":"levelo_inurba_marseille","lat":43.312379,"lon":5.368484,"is_reserved":false,"is_disabled":false,"rental_uris":{"android":"levelo://app?vid=db88a8a5-5637-4384-a6d7-41d8f099747a","ios":"levelo://app?vid=db88a8a5-5637-4384-a6d7-41d8f099747a"},"vehicle_type_id":"4","last_reported":1761664335,"current_range_meters":13600,"station_id":"ce4bgr92rcd13ifvqc6g","pricing_plan_id":"cebpf4jnsgd1na2vs0mg"},{"bike_id":"a60cb070-d57c-4cd2-8d5d-f1d4b549ff3a","system_id":"levelo_inurba_marseille","lat":43.32344,"lon":5.36729,"is_reserved":false,"is_disabled":false,"rental_uris":{"android":"levelo://app?vid=a60cb070-d57c-4cd2-8d5d-f1d4b549ff3a","ios":"levelo://app?vid=a60cb070-d57c-4cd2-8d5d-f1d4b549ff3a"},"vehicle_type_id":"4","last_reported":1761664335,"current_range_meters":13600,"station_id":"ce4bhsh2rcd13ifvqi2g","pricing_plan_id":"cebpf4jnsgd1na2vs0mg"},{"bike_id":"905ace53-ae3b-42a4-a82e-5c4f8325ca63","system_id":"levelo_inurba_marseille","lat":43.25106,"lon":5.40327,"is_reserved":false,"is_disabled":false,"rental_uris":{"android":"levelo://app?vid=905ace53-ae3b-42a4-a82e-5c4f8325ca63","ios":"levelo://app?vid=905ace53-ae3b-42a4-a82e-5c4f8325ca63"},"vehicle_type_id":"4","last_reported":1761664335,"current_range_meters":13600,"station_id":"ce4bhlh2rcd13ifvqgig","pricing_plan_id":"cebpf4jnsgd1na2vs0mg"},{"bike_id":"9c44bc87-bffa-4b18-a1b4-206f52352fa3","system_id":"levelo_inurba_marseille","lat":43.27067,"lon":5.42284,"is_reserved":false,"is_disabled":false,"rental_uris":{"android":"levelo://app?vid=9c44bc87-bffa-4b18-a1b4-206f52352fa3","ios":"levelo://app?vid=9c44bc87-bffa-4b18-a1b4-206f52352fa3"},"vehicle_type_id":"4","last_reported":1761664335,"current_range_meters":14000,"station_id":"ce4bhk92rcd13ifvqgb0","pricing_plan_id":"cebpf4jnsgd1na2vs0mg"},{"bike_id":"743e5eb1-4edc-4cb7-ac0f-e1b7c5ffad24","system_id":"levelo_inurba_marseille","lat":43.28849,"lon":5.35842,"is_reserved":false,"is_disabled":false,"rental_uris":{"android":"levelo://app?vid=743e5eb1-4edc-4cb7-ac0f-e1b7c5ffad24","ios":"levelo://app?vid=743e5eb1-4edc-4cb7-ac0f-e1b7c5ffad24"},"vehicle_type_id":"4","last_reported":1761664335,"current_range_meters":14000,"station_id":"ce4bhb12rcd13ifvqem0","pricing_plan_id":"cebpf4jnsgd1na2vs0mg"},{"bike_id":"89987d58-a58d-4583-9ee5-8e7db6af9c02","system_id":"levelo_inurba_marseille","lat":43.27938,"lon":5.41045,"is_reserved":false,"is_disabled":false,"rental_uris":{"android":"levelo://app?vid=89987d58-a58d-4583-9ee5-8e7db6af9c02","ios":"levelo://app?vid=89987d58-a58d-4583-9ee5-8e7db6af9c02"},"vehicle_type_id":"4","last_reported":1761664335,"current_range_meters":14000,"station_id":"ce4bhnp2rcd13ifvqh0g","pricing_plan_id":"cebpf4jnsgd1na2vs0mg"},{"bike_id":"d2ce14a1-e9f5-407b-a0c3-2e69d0a16a79","system_id":"levelo_inurba_marseille","lat":43.28218,"lon":5.39081,"is_reserved":false,"is_disabled":true,"rental_uris":{"android":"levelo://app?vid=d2ce14a1-e9f5-407b-a0c3-2e69d0a16a79","ios":"levelo://app?vid=d2ce14a1-e9f5-407b-a0c3-2e69d0a16a79"},"vehicle_type_id":"4","last_reported":1761664335,"current_range_meters":14000,"station_id":"ce4bhn92rcd13ifvqgsg","pricing_plan_id":"cebpf4jnsgd1na2vs0mg"},{"bike_id":"dced2bcc-e95f-44ce-b7d8-7bb47def612a","system_id":"levelo_inurba_marseille","lat":43.23056,"lon":5.35493,"is_reserved":false,"is_disabled":false,"rental_uris":{"android":"levelo://app?vid=dced2bcc-e95f-44ce-b7d8-7bb47def612a","ios":"levelo://app?vid=dced2bcc-e95f-44ce-b7d8-7bb47def612a"},"vehicle_type_id":"4","last_reported":1761664335,"current_range_meters":14000,"station_id":"cpo3342slgdg3j2ifvpg","pricing_plan_id":"cebpf4jnsgd1na2vs0mg"},{"bike_id":"aa5b1d8b-20e7-4441-963d-a37d782ea6dc","system_id":"levelo_inurba_marseille","lat":43.25013,"lon":5.38925,"is_reserved":false,"is_disabled":false,"rental_uris":{"android":"levelo://app?vid=aa5b1d8b-20e7-4441-963d-a37d782ea6dc","ios":"levelo://app?vid=aa5b1d8b-20e7-4441-963d-a37d782ea6dc"},"vehicle_type_id":"4","last_reported":1761664335,"current_range_meters":14000,"station_id":"ce4bhgp2rcd13ifvqfd0","pricing_plan_id":"cebpf4jnsgd1na2vs0mg"},{"bike_id":"1c309c05-1de0-4802-9fa7-7b77f2b94cb5","system_id":"levelo_inurba_marseille","lat":43.26218,"lon":5.37435,"is_reserved":false,"is_disabled":false,"rental_uris":{"android":"levelo://app?vid=1c309c05-1de0-4802-9fa7-7b77f2b94cb5","ios":"levelo://app?vid=1c309c05-1de0-4802-9fa7-7b77f2b94cb5"},"vehicle_type_id":"4","last_reported":1761664335,"current_range_meters":14000,"station_id":"ce4bhgp2rcd13ifvqfc0","pricing_plan_id":"cebpf4jnsgd1na2vs0mg"},{"bike_id":"49ed0d39-51fe-4cd4-8527-50556baa8749","system_id":"levelo_inurba_marseille","lat":43.22531,"lon":5.348321,"is_reserved":false,"is_disabled":false,"rental_uris":{"android":"levelo://app?vid=49ed0d39-51fe-4cd4-8527-50556baa8749","ios":"levelo://app?vid=49ed0d39-51fe-4cd4-8527-50556baa8749"},"vehicle_type_id":"4","last_reported":1761664335,"current_range_meters":14000,"station_id":"","pricing_plan_id":"cebpf4jnsgd1na2vs0mg"},{"bike_id":"78fe263c-84db-4b4e-b9ac-b068d054132d","system_id":"levelo_inurba_marseille","lat":43.2454,"lon":5.39535,"is_reserved":false,"is_disabled":false,"rental_uris":{"android":"levelo://app?vid=78fe263c-84db-4b4e-b9ac-b068d054132d","ios":"levelo://app?vid=78fe263c-84db-4b4e-b9ac-b068d054132d"},"vehicle_type_id":"4","last_reported":1761664335,"current_range_meters":14000,"station_id":"ce4bhlp2rcd13ifvqgjg","pricing_plan_id":"cebpf4jnsgd1na2vs0mg"},{"bike_id":"2fc6b9c6-bcbd-44ff-9eb2-4488719f7133","system_id":"levelo_inurba_marseille","lat":43.29125,"lon":5.38072,"is_reserved":false,"is_disabled":false,"rental_uris":{"android":"levelo://app?vid=2fc6b9c6-bcbd-44ff-9eb2-4488719f7133","ios":"levelo://app?vid=2fc6b9c6-bcbd-44ff-9eb2-4488719f7133"},"vehicle_type_id":"4","last_reported":1761664335,"current_range_meters":14400,"station_id":"","pricing_plan_id":"cebpf4jnsgd1na2vs0mg"},{"bike_id":"391ea9da-1fb3-409b-be1f-2afa93e0e963","system_id":"levelo_inurba_marseille","lat":43.30525,"lon":5.36546,"is_reserved":false,"is_disabled":false,"rental_uris":{"android":"levelo://app?vid=391ea9da-1fb3-409b-be1f-2afa93e0e963","ios":"levelo://app?vid=391ea9da-1fb3-409b-be1f-2afa93e0e963"},"vehicle_type_id":"4","last_reported":1761664335,"current_range_meters":14400,"station_id":"ce4bgs12rcd13ifvqcag","pricing_plan_id":"cebpf4jnsgd1na2vs0mg"},{"bike_id":"1dce4340-80f3-4acd-b0db-256b33536040","system_id":"levelo_inurba_marseille","lat":43.25085,"lon":5.39518,"is_reserved":false,"is_disabled":false,"rental_uris":{"android":"levelo://app?vid=1dce4340-80f3-4acd-b0db-256b33536040","ios":"levelo://app?vid=1dce4340-80f3-4acd-b0db-256b33536040"},"vehicle_type_id":"4","last_reported":1761664335,"current_range_meters":14400,"station_id":"ce4bhm12rcd13ifvqgkg","pricing_plan_id":"cebpf4jnsgd1na2vs0mg"},{"bike_id":"756e2a56-071b-4486-96d1-ee7b0d2755fa","system_id":"levelo_inurba_marseille","lat":43.27377,"lon":5.36259,"is_reserved":false,"is_disabled":false,"rental_uris":{"android":"levelo://app?vid=756e2a56-071b-4486-96d1-ee7b0d2755fa","ios":"levelo://app?vid=756e2a56-071b-4486-96d1-ee7b0d2755fa"},"vehicle_type_id":"4","last_reported":1761664335,"current_range_meters":14400,"station_id":"ce4bhbh2rcd13ifvqeo0","pricing_plan_id":"cebpf4jnsgd1na2vs0mg"},{"bike_id":"b5821bab-7159-4d11-ae27-a8bfd4f60bfb","system_id":"levelo_inurba_marseille","lat":43.26194,"lon":5.37455,"is_reserved":false,"is_disabled":false,"rental_uris":{"android":"levelo://app?vid=b5821bab-7159-4d11-ae27-a8bfd4f60bfb","ios":"levelo://app?vid=b5821bab-7159-4d11-ae27-a8bfd4f60bfb"},"vehicle_type_id":"4","last_reported":1761664335,"current_range_meters":14400,"station_id":"ce4bhgp2rcd13ifvqfc0","pricing_plan_id":"cebpf4jnsgd1na2vs0mg"},{"bike_id":"a1d36066-483f-4245-8f71-981873efc5f9","system_id":"levelo_inurba_marseille","lat":43.24044,"lon":5.37828,"is_reserved":false,"is_disabled":false,"rental_uris":{"android":"levelo://app?vid=a1d36066-483f-4245-8f71-981873efc5f9","ios":"levelo://app?vid=a1d36066-483f-4245-8f71-981873efc5f9"},"vehicle_type_id":"4","last_reported":1761664335,"current_range_meters":14400,"station_id":"","pricing_plan_id":"cebpf4jnsgd1na2vs0mg"},{"bike_id":"f0e92081-7a93-4d76-8582-adf39cbaf116","system_id":"levelo_inurba_marseille","lat":43.25919,"lon":5.40883,"is_reserved":false,"is_disabled":false,"rental_uris":{"android":"levelo://app?vid=f0e92081-7a93-4d76-8582-adf39cbaf116","ios":"levelo://app?vid=f0e92081-7a93-4d76-8582-adf39cbaf116"},"vehicle_type_id":"4","last_reported":1761664335,"current_range_meters":14400,"station_id":"ce4bhm92rcd13ifvqglg","pricing_plan_id":"cebpf4jnsgd1na2vs0mg"},{"bike_id":"94e6b0aa-f8c9-477e-8091-c3a189e0f238","system_id":"levelo_inurba_marseille","lat":43.29673,"lon":5.38125,"is_reserved":false,"is_disabled":false,"rental_uris":{"android":"levelo://app?vid=94e6b0aa-f8c9-477e-8091-c3a189e0f238","ios":"levelo://app?vid=94e6b0aa-f8c9-477e-8091-c3a189e0f238"},"vehicle_type_id":"4","last_reported":1761664335,"current_range_meters":14800,"station_id":"","pricing_plan_id":"cebpf4jnsgd1na2vs0mg"},{"bike_id":"441ed056-5f8f-4613-8ac7-89f49c1aae14","system_id":"levelo_inurba_marseille","lat":43.29288,"lon":5.37174,"is_reserved":false,"is_disabled":false,"rental_uris":{"android":"levelo://app?vid=441ed056-5f8f-4613-8ac7-89f49c1aae14","ios":"levelo://app?vid=441ed056-5f8f-4613-8ac7-89f49c1aae14"},"vehicle_type_id":"4","last_reported":1761664335,"current_range_meters":14800,"station_id":"ce4bgh92rcd13ifvqb40","pricing_plan_id":"cebpf4jnsgd1na2vs0mg"},{"bike_id":"6e0b849b-e9ae-4a04-a9d7-267dd091bca4","system_id":"levelo_inurba_marseille","lat":43.308823,"lon":5.36813,"is_reserved":false,"is_disabled":false,"rental_uris":{"android":"levelo://app?vid=6e0b849b-e9ae-4a04-a9d7-267dd091bca4","ios":"levelo://app?vid=6e0b849b-e9ae-4a04-a9d7-267dd091bca4"},"vehicle_type_id":"4","last_reported":1761664335,"current_range_meters":14800,"station_id":"ce4bgn92rcd13ifvqbvg","pricing_plan_id":"cebpf4jnsgd1na2vs0mg"},{"bike_id":"2be3bf9b-39f4-4c37-8c01-9e9bcabe1c53","system_id":"levelo_inurba_marseille","lat":43.33741,"lon":5.37444,"is_reserved":false,"is_disabled":false,"rental_uris":{"android":"levelo://app?vid=2be3bf9b-39f4-4c37-8c01-9e9bcabe1c53","ios":"levelo://app?vid=2be3bf9b-39f4-4c37-8c01-9e9bcabe1c53"},"vehicle_type_id":"4","last_reported":1761664335,"current_range_meters":14800,"station_id":"","pricing_plan_id":"cebpf4jnsgd1na2vs0mg"},{"bike_id":"38f4ce6c-8abc-473a-8637-1d421f83c89c","system_id":"levelo_inurba_marseille","lat":43.30544,"lon":5.36551,"is_reserved":false,"is_disabled":false,"rental_uris":{"android":"levelo://app?vid=38f4ce6c-8abc-473a-8637-1d421f83c89c","ios":"levelo://app?vid=38f4ce6c-8abc-473a-8637-1d421f83c89c"},"vehicle_type_id":"4","last_reported":1761664335,"current_range_meters":14800,"station_id":"ce4bgs12rcd13ifvqcag","pricing_plan_id":"cebpf4jnsgd1na2vs0mg"},{"bike_id":"c6dbbc44-6e36-4460-b5d3-2562b4dbc44a","system_id":"levelo_inurba_marseille","lat":43.269281,"lon":5.389176,"is_reserved":false,"is_disabled":false,"rental_uris":{"android":"levelo://app?vid=c6dbbc44-6e36-4460-b5d3-2562b4dbc44a","ios":"levelo://app?vid=c6dbbc44-6e36-4460-b5d3-2562b4dbc44a"},"vehicle_type_id":"4","last_reported":1761664335,"current_range_meters":14800,"station_id":"ce4bhhh2rcd13ifvqfl0","pricing_plan_id":"cebpf4jnsgd1na2vs0mg"},{"bike_id":"818b43d9-1995-4134-bfc2-8ad8ab44ec8e","system_id":"levelo_inurba_marseille","lat":43.297803,"lon":5.371041,"is_reserved":false,"is_disabled":false,"rental_uris":{"android":"levelo://app?vid=818b43d9-1995-4134-bfc2-8ad8ab44ec8e","ios":"levelo://app?vid=818b43d9-1995-4134-bfc2-8ad8ab44ec8e"},"vehicle_type_id":"4","last_reported":1761664335,"current_range_meters":14800,"station_id":"ce4bgt12rcd13ifvqcd0","pricing_plan_id":"cebpf4jnsgd1na2vs0mg"},{"bike_id":"ef1bf2a8-a078-4087-b4e1-aba8c604d9aa","system_id":"levelo_inurba_marseille","lat":43.284576,"lon":5.358778,"is_reserved":false,"is_disabled":false,"rental_uris":{"android":"levelo://app?vid=ef1bf2a8-a078-4087-b4e1-aba8c604d9aa","ios":"levelo://app?vid=ef1bf2a8-a078-4087-b4e1-aba8c604d9aa"},"vehicle_type_id":"4","last_reported":1761664335,"current_range_meters":15200,"station_id":"ce4bhah2rcd13ifvqei0","pricing_plan_id":"cebpf4jnsgd1na2vs0mg"},{"bike_id":"ae8ebe94-fc0f-4409-8f77-39eb5c613a67","system_id":"levelo_inurba_marseille","lat":43.337444,"lon":5.374475,"is_reserved":false,"is_disabled":false,"rental_uris":{"android":"levelo://app?vid=ae8ebe94-fc0f-4409-8f77-39eb5c613a67","ios":"levelo://app?vid=ae8ebe94-fc0f-4409-8f77-39eb5c613a67"},"vehicle_type_id":"4","last_reported":1761664335,"current_range_meters":15200,"station_id":"","pricing_plan_id":"cebpf4jnsgd1na2vs0mg"},{"bike_id":"59b6c402-b856-4030-9e61-3831eca1bf61","system_id":"levelo_inurba_marseille","lat":43.30878,"lon":5.39655,"is_reserved":false,"is_disabled":false,"rental_uris":{"android":"levelo://app?vid=59b6c402-b856-4030-9e61-3831eca1bf61","ios":"levelo://app?vid=59b6c402-b856-4030-9e61-3831eca1bf61"},"vehicle_type_id":"4","last_reported":1761664335,"current_range_meters":15200,"station_id":"ce4bh012rcd13ifvqcv0","pricing_plan_id":"cebpf4jnsgd1na2vs0mg"},{"bike_id":"f202aef9-db9c-4b5f-b19b-62f40b9a9dba","system_id":"levelo_inurba_marseille","lat":43.2404,"lon":5.37776,"is_reserved":false,"is_disabled":false,"rental_uris":{"android":"levelo://app?vid=f202aef9-db9c-4b5f-b19b-62f40b9a9dba","ios":"levelo://app?vid=f202aef9-db9c-4b5f-b19b-62f40b9a9dba"},"vehicle_type_id":"4","last_reported":1761664335,"current_range_meters":15200,"station_id":"ce4bhnp2rcd13ifvqgvg","pricing_plan_id":"cebpf4jnsgd1na2vs0mg"},{"bike_id":"32d7653e-b033-4183-b4c0-f44169bb9067","system_id":"levelo_inurba_marseille","lat":43.32737,"lon":5.39173,"is_reserved":false,"is_disabled":false,"rental_uris":{"android":"levelo://app?vid=32d7653e-b033-4183-b4c0-f44169bb9067","ios":"levelo://app?vid=32d7653e-b033-4183-b4c0-f44169bb9067"},"vehicle_type_id":"4","last_reported":1761664335,"current_range_meters":15200,"station_id":"","pricing_plan_id":"cebpf4jnsgd1na2vs0mg"},{"bike_id":"52a67fc0-7eaf-49b6-9b05-e09a5497aafa","system_id":"levelo_inurba_marseille","lat":43.28089,"lon":5.35204,"is_reserved":false,"is_disabled":false,"rental_uris":{"android":"levelo://app?vid=52a67fc0-7eaf-49b6-9b05-e09a5497aafa","ios":"levelo://app?vid=52a67fc0-7eaf-49b6-9b05-e09a5497aafa"},"vehicle_type_id":"4","last_reported":1761664335,"current_range_meters":15200,"station_id":"","pricing_plan_id":"cebpf4jnsgd1na2vs0mg"},{"bike_id":"d2c083a8-9738-465f-b58d-99b565c32cef","system_id":"levelo_inurba_marseille","lat":43.26064,"lon":5.39392,"is_reserved":false,"is_disabled":false,"rental_uris":{"android":"levelo://app?vid=d2c083a8-9738-465f-b58d-99b565c32cef","ios":"levelo://app?vid=d2c083a8-9738-465f-b58d-99b565c32cef"},"vehicle_type_id":"4","last_reported":1761664335,"current_range_meters":15200,"station_id":"ce4bhh92rcd13ifvqfj0","pricing_plan_id":"cebpf4jnsgd1na2vs0mg"},{"bike_id":"ccb70ea4-5e24-46b2-8aff-e9b7c8d79f84","system_id":"levelo_inurba_marseille","lat":43.24658,"lon":5.38162,"is_reserved":false,"is_disabled":false,"rental_uris":{"android":"levelo://app?vid=ccb70ea4-5e24-46b2-8aff-e9b7c8d79f84","ios":"levelo://app?vid=ccb70ea4-5e24-46b2-8aff-e9b7c8d79f84"},"vehicle_type_id":"4","last_reported":1761664335,"current_range_meters":16000,"station_id":"ce4bhih2rcd13ifvqfr0","pricing_plan_id":"cebpf4jnsgd1na2vs0mg"},{"bike_id":"64e2336f-74ee-4915-8981-e57a85b97397","system_id":"levelo_inurba_marseille","lat":43.29532,"lon":5.37507,"is_reserved":false,"is_disabled":false,"rental_uris":{"android":"levelo://app?vid=64e2336f-74ee-4915-8981-e57a85b97397","ios":"levelo://app?vid=64e2336f-74ee-4915-8981-e57a85b97397"},"vehicle_type_id":"4","last_reported":1761664335,"current_range_meters":16000,"station_id":"ce4bgkp2rcd13ifvqbmg","pricing_plan_id":"cebpf4jnsgd1na2vs0mg"},{"bike_id":"0c2bbc95-448f-428a-b506-d27fbd2f5a0e","system_id":"levelo_inurba_marseille","lat":43.26556,"lon":5.37284,"is_reserved":false,"is_disabled":false,"rental_uris":{"android":"levelo://app?vid=0c2bbc95-448f-428a-b506-d27fbd2f5a0e","ios":"levelo://app?vid=0c2bbc95-448f-428a-b506-d27fbd2f5a0e"},"vehicle_type_id":"4","last_reported":1761664335,"current_range_meters":16000,"station_id":"ce4bhg12rcd13ifvqf70","pricing_plan_id":"cebpf4jnsgd1na2vs0mg"},{"bike_id":"6ef3f85c-a0aa-4e6e-a3a9-7cf377862446","system_id":"levelo_inurba_marseille","lat":43.30541,"lon":5.36561,"is_reserved":false,"is_disabled":false,"rental_uris":{"android":"levelo://app?vid=6ef3f85c-a0aa-4e6e-a3a9-7cf377862446","ios":"levelo://app?vid=6ef3f85c-a0aa-4e6e-a3a9-7cf377862446"},"vehicle_type_id":"4","last_reported":1761664335,"current_range_meters":16000,"station_id":"ce4bgs12rcd13ifvqcag","pricing_plan_id":"cebpf4jnsgd1na2vs0mg"},{"bike_id":"452e8e6e-6805-4d8b-9b13-79df7a637126","system_id":"levelo_inurba_marseille","lat":43.243884,"lon":5.370634,"is_reserved":false,"is_disabled":false,"rental_uris":{"android":"levelo://app?vid=452e8e6e-6805-4d8b-9b13-79df7a637126","ios":"levelo://app?vid=452e8e6e-6805-4d8b-9b13-79df7a637126"},"vehicle_type_id":"4","last_reported":1761664335,"current_range_meters":16000,"station_id":"ce4bhhh2rcd13ifvqfk0","pricing_plan_id":"cebpf4jnsgd1na2vs0mg"},{"bike_id":"cd0c84ba-521c-4dab-84db-462f9bd1c17f","system_id":"levelo_inurba_marseille","lat":43.284178,"lon":5.349779,"is_reserved":false,"is_disabled":false,"rental_uris":{"android":"levelo://app?vid=cd0c84ba-521c-4dab-84db-462f9bd1c17f","ios":"levelo://app?vid=cd0c84ba-521c-4dab-84db-462f9bd1c17f"},"vehicle_type_id":"4","last_reported":1761664335,"current_range_meters":16000,"station_id":"ce4bhbh2rcd13ifvqepg","pricing_plan_id":"cebpf4jnsgd1na2vs0mg"},{"bike_id":"1fb38de1-7f59-4c0c-acae-23bbb45916a1","system_id":"levelo_inurba_marseille","lat":43.26781,"lon":5.39417,"is_reserved":false,"is_disabled":false,"rental_uris":{"android":"levelo://app?vid=1fb38de1-7f59-4c0c-acae-23bbb45916a1","ios":"levelo://app?vid=1fb38de1-7f59-4c0c-acae-23bbb45916a1"},"vehicle_type_id":"4","last_reported":1761664335,"current_range_meters":16400,"station_id":"ce4bhh12rcd13ifvqfg0","pricing_plan_id":"cebpf4jnsgd1na2vs0mg"},{"bike_id":"eec6920b-23cf-4f99-92e4-6812b65fd347","system_id":"levelo_inurba_marseille","lat":43.29714,"lon":5.37699,"is_reserved":false,"is_disabled":false,"rental_uris":{"android":"levelo://app?vid=eec6920b-23cf-4f99-92e4-6812b65fd347","ios":"levelo://app?vid=eec6920b-23cf-4f99-92e4-6812b65fd347"},"vehicle_type_id":"4","last_reported":1761664335,"current_range_meters":16400,"station_id":"ce4bgkh2rcd13ifvqbl0","pricing_plan_id":"cebpf4jnsgd1na2vs0mg"},{"bike_id":"3e3dab04-eab7-4c23-84a4-ac175ecaa207","system_id":"levelo_inurba_marseille","lat":43.293802,"lon":5.385682,"is_reserved":false,"is_disabled":false,"rental_uris":{"android":"levelo://app?vid=3e3dab04-eab7-4c23-84a4-ac175ecaa207","ios":"levelo://app?vid=3e3dab04-eab7-4c23-84a4-ac175ecaa207"},"vehicle_type_id":"4","last_reported":1761664335,"current_range_meters":16400,"station_id":"ce4bh692rcd13ifvqea0","pricing_plan_id":"cebpf4jnsgd1na2vs0mg"},{"bike_id":"31f57ff6-6be6-4ae3-942c-ae0f33d8f6bb","system_id":"levelo_inurba_marseille","lat":43.28407,"lon":5.35008,"is_reserved":false,"is_disabled":false,"rental_uris":{"android":"levelo://app?vid=31f57ff6-6be6-4ae3-942c-ae0f33d8f6bb","ios":"levelo://app?vid=31f57ff6-6be6-4ae3-942c-ae0f33d8f6bb"},"vehicle_type_id":"4","last_reported":1761664335,"current_range_meters":16800,"station_id":"ce4bhbh2rcd13ifvqepg","pricing_plan_id":"cebpf4jnsgd1na2vs0mg"},{"bike_id":"a2c44ae7-52cc-4b80-a772-211a26fa85b1","system_id":"levelo_inurba_marseille","lat":43.30189,"lon":5.36646,"is_reserved":false,"is_disabled":true,"rental_uris":{"android":"levelo://app?vid=a2c44ae7-52cc-4b80-a772-211a26fa85b1","ios":"levelo://app?vid=a2c44ae7-52cc-4b80-a772-211a26fa85b1"},"vehicle_type_id":"4","last_reported":1761664335,"current_range_meters":16800,"station_id":"ce4bgrh2rcd13ifvqc8g","pricing_plan_id":"cebpf4jnsgd1na2vs0mg"},{"bike_id":"1f423b4b-7313-4496-aa7c-f50ef4391689","system_id":"levelo_inurba_marseille","lat":43.243877,"lon":5.370752,"is_reserved":false,"is_disabled":false,"rental_uris":{"android":"levelo://app?vid=1f423b4b-7313-4496-aa7c-f50ef4391689","ios":"levelo://app?vid=1f423b4b-7313-4496-aa7c-f50ef4391689"},"vehicle_type_id":"4","last_reported":1761664335,"current_range_meters":16800,"station_id":"ce4bhhh2rcd13ifvqfk0","pricing_plan_id":"cebpf4jnsgd1na2vs0mg"},{"bike_id":"99373ff4-c6ad-47a3-8ec0-acdae6a78daf","system_id":"levelo_inurba_marseille","lat":43.30544,"lon":5.36541,"is_reserved":false,"is_disabled":false,"rental_uris":{"android":"levelo://app?vid=99373ff4-c6ad-47a3-8ec0-acdae6a78daf","ios":"levelo://app?vid=99373ff4-c6ad-47a3-8ec0-acdae6a78daf"},"vehicle_type_id":"4","last_reported":1761664335,"current_range_meters":16800,"station_id":"ce4bgs12rcd13ifvqcag","pricing_plan_id":"cebpf4jnsgd1na2vs0mg"},{"bike_id":"81a1b6fb-1f88-4713-82cd-8758a38cffd9","system_id":"levelo_inurba_marseille","lat":43.23063,"lon":5.35499,"is_reserved":false,"is_disabled":false,"rental_uris":{"android":"levelo://app?vid=81a1b6fb-1f88-4713-82cd-8758a38cffd9","ios":"levelo://app?vid=81a1b6fb-1f88-4713-82cd-8758a38cffd9"},"vehicle_type_id":"4","last_reported":1761664335,"current_range_meters":16800,"station_id":"cpo3342slgdg3j2ifvpg","pricing_plan_id":"cebpf4jnsgd1na2vs0mg"},{"bike_id":"e29de5cc-3b02-44b1-b748-576f21caaa3f","system_id":"levelo_inurba_marseille","lat":43.25334,"lon":5.42173,"is_reserved":false,"is_disabled":false,"rental_uris":{"android":"levelo://app?vid=e29de5cc-3b02-44b1-b748-576f21caaa3f","ios":"levelo://app?vid=e29de5cc-3b02-44b1-b748-576f21caaa3f"},"vehicle_type_id":"4","last_reported":1761664335,"current_range_meters":16800,"station_id":"st_d2m65c5bi1j21697t3ng","pricing_plan_id":"cebpf4jnsgd1na2vs0mg"},{"bike_id":"02dd205b-e97c-4104-9683-066d2523fd3f","system_id":"levelo_inurba_marseille","lat":43.23078,"lon":5.35501,"is_reserved":false,"is_disabled":false,"rental_uris":{"android":"levelo://app?vid=02dd205b-e97c-4104-9683-066d2523fd3f","ios":"levelo://app?vid=02dd205b-e97c-4104-9683-066d2523fd3f"},"vehicle_type_id":"4","last_reported":1761664335,"current_range_meters":16800,"station_id":"cpo3342slgdg3j2ifvpg","pricing_plan_id":"cebpf4jnsgd1na2vs0mg"},{"bike_id":"aa0e7e4b-f890-4f53-a40a-615d9f77115a","system_id":"levelo_inurba_marseille","lat":43.32105,"lon":5.36785,"is_reserved":false,"is_disabled":false,"rental_uris":{"android":"levelo://app?vid=aa0e7e4b-f890-4f53-a40a-615d9f77115a","ios":"levelo://app?vid=aa0e7e4b-f890-4f53-a40a-615d9f77115a"},"vehicle_type_id":"4","last_reported":1761664335,"current_range_meters":17200,"station_id":"ce4bhrh2rcd13ifvqhug","pricing_plan_id":"cebpf4jnsgd1na2vs0mg"},{"bike_id":"380b27fc-c957-4ab8-b8bb-cad2a785c738","system_id":"levelo_inurba_marseille","lat":43.30469,"lon":5.37918,"is_reserved":false,"is_disabled":false,"rental_uris":{"android":"levelo://app?vid=380b27fc-c957-4ab8-b8bb-cad2a785c738","ios":"levelo://app?vid=380b27fc-c957-4ab8-b8bb-cad2a785c738"},"vehicle_type_id":"4","last_reported":1761664335,"current_range_meters":17200,"station_id":"ce4bgup2rcd13ifvqcn0","pricing_plan_id":"cebpf4jnsgd1na2vs0mg"},{"bike_id":"1ff14011-1bb3-49a1-9941-97d38a0c81be","system_id":"levelo_inurba_marseille","lat":43.25088,"lon":5.3954,"is_reserved":false,"is_disabled":false,"rental_uris":{"android":"levelo://app?vid=1ff14011-1bb3-49a1-9941-97d38a0c81be","ios":"levelo://app?vid=1ff14011-1bb3-49a1-9941-97d38a0c81be"},"vehicle_type_id":"4","last_reported":1761664335,"current_range_meters":17200,"station_id":"ce4bhm12rcd13ifvqgkg","pricing_plan_id":"cebpf4jnsgd1na2vs0mg"},{"bike_id":"3f5fe28d-bc55-49f6-a791-96e7d6902f11","system_id":"levelo_inurba_marseille","lat":43.25116,"lon":5.4032,"is_reserved":false,"is_disabled":false,"rental_uris":{"android":"levelo://app?vid=3f5fe28d-bc55-49f6-a791-96e7d6902f11","ios":"levelo://app?vid=3f5fe28d-bc55-49f6-a791-96e7d6902f11"},"vehicle_type_id":"4","last_reported":1761664335,"current_range_meters":17200,"station_id":"ce4bhlh2rcd13ifvqgig","pricing_plan_id":"cebpf4jnsgd1na2vs0mg"},{"bike_id":"0c662892-ed43-4d4e-8cd8-e45c8846ec4f","system_id":"levelo_inurba_marseille","lat":43.29268,"lon":5.38434,"is_reserved":false,"is_disabled":false,"rental_uris":{"android":"levelo://app?vid=0c662892-ed43-4d4e-8cd8-e45c8846ec4f","ios":"levelo://app?vid=0c662892-ed43-4d4e-8cd8-e45c8846ec4f"},"vehicle_type_id":"4","last_reported":1761664335,"current_range_meters":17600,"station_id":"ce4bh692rcd13ifvqea0","pricing_plan_id":"cebpf4jnsgd1na2vs0mg"},{"bike_id":"d2f4ea73-d40d-4278-869d-326caa328ad0","system_id":"levelo_inurba_marseille","lat":43.26186,"lon":5.37459,"is_reserved":false,"is_disabled":false,"rental_uris":{"android":"levelo://app?vid=d2f4ea73-d40d-4278-869d-326caa328ad0","ios":"levelo://app?vid=d2f4ea73-d40d-4278-869d-326caa328ad0"},"vehicle_type_id":"4","last_reported":1761664335,"current_range_meters":17600,"station_id":"ce4bhgp2rcd13ifvqfc0","pricing_plan_id":"cebpf4jnsgd1na2vs0mg"},{"bike_id":"e9b2ee31-6899-4f80-83bb-97bf6ef3d9d2","system_id":"levelo_inurba_marseille","lat":43.29489,"lon":5.39742,"is_reserved":false,"is_disabled":false,"rental_uris":{"android":"levelo://app?vid=e9b2ee31-6899-4f80-83bb-97bf6ef3d9d2","ios":"levelo://app?vid=e9b2ee31-6899-4f80-83bb-97bf6ef3d9d2"},"vehicle_type_id":"4","last_reported":1761664335,"current_range_meters":17600,"station_id":"","pricing_plan_id":"cebpf4jnsgd1na2vs0mg"},{"bike_id":"fd85f438-ca57-42ca-8075-89148600274c","system_id":"levelo_inurba_marseille","lat":43.27997,"lon":5.40011,"is_reserved":false,"is_disabled":false,"rental_uris":{"android":"levelo://app?vid=fd85f438-ca57-42ca-8075-89148600274c","ios":"levelo://app?vid=fd85f438-ca57-42ca-8075-89148600274c"},"vehicle_type_id":"4","last_reported":1761664335,"current_range_meters":17600,"station_id":"ce4bho92rcd13ifvqh4g","pricing_plan_id":"cebpf4jnsgd1na2vs0mg"},{"bike_id":"881fd72b-4460-442b-9a56-7650599e27b5","system_id":"levelo_inurba_marseille","lat":43.32106,"lon":5.36768,"is_reserved":false,"is_disabled":false,"rental_uris":{"android":"levelo://app?vid=881fd72b-4460-442b-9a56-7650599e27b5","ios":"levelo://app?vid=881fd72b-4460-442b-9a56-7650599e27b5"},"vehicle_type_id":"4","last_reported":1761664335,"current_range_meters":17600,"station_id":"ce4bhrh2rcd13ifvqhug","pricing_plan_id":"cebpf4jnsgd1na2vs0mg"},{"bike_id":"ee727485-d2ff-49cf-b146-a040fd55a025","system_id":"levelo_inurba_marseille","lat":43.24391,"lon":5.37074,"is_reserved":false,"is_disabled":false,"rental_uris":{"android":"levelo://app?vid=ee727485-d2ff-49cf-b146-a040fd55a025","ios":"levelo://app?vid=ee727485-d2ff-49cf-b146-a040fd55a025"},"vehicle_type_id":"4","last_reported":1761664335,"current_range_meters":17600,"station_id":"ce4bhhh2rcd13ifvqfk0","pricing_plan_id":"cebpf4jnsgd1na2vs0mg"},{"bike_id":"8743deb1-3e1b-4fe6-ab63-b75dc0a57f17","system_id":"levelo_inurba_marseille","lat":43.230655,"lon":5.354888,"is_reserved":false,"is_disabled":false,"rental_uris":{"android":"levelo://app?vid=8743deb1-3e1b-4fe6-ab63-b75dc0a57f17","ios":"levelo://app?vid=8743deb1-3e1b-4fe6-ab63-b75dc0a57f17"},"vehicle_type_id":"4","last_reported":1761664335,"current_range_meters":17600,"station_id":"cpo3342slgdg3j2ifvpg","pricing_plan_id":"cebpf4jnsgd1na2vs0mg"},{"bike_id":"b5000056-7468-48ff-9c8a-5eaccd07efc4","system_id":"levelo_inurba_marseille","lat":43.2119,"lon":5.35075,"is_reserved":false,"is_disabled":false,"rental_uris":{"android":"levelo://app?vid=b5000056-7468-48ff-9c8a-5eaccd07efc4","ios":"levelo://app?vid=b5000056-7468-48ff-9c8a-5eaccd07efc4"},"vehicle_type_id":"4","last_reported":1761664335,"current_range_meters":17600,"station_id":"st_cvj6sg6p6f1abm77japg","pricing_plan_id":"cebpf4jnsgd1na2vs0mg"},{"bike_id":"6ce8387a-7217-4885-b90c-41215d188545","system_id":"levelo_inurba_marseille","lat":43.28867,"lon":5.40951,"is_reserved":false,"is_disabled":false,"rental_uris":{"android":"levelo://app?vid=6ce8387a-7217-4885-b90c-41215d188545","ios":"levelo://app?vid=6ce8387a-7217-4885-b90c-41215d188545"},"vehicle_type_id":"4","last_reported":1761664335,"current_range_meters":17600,"station_id":"","pricing_plan_id":"cebpf4jnsgd1na2vs0mg"},{"bike_id":"facb2444-b910-4eae-bdfa-be231ba2cd33","system_id":"levelo_inurba_marseille","lat":43.22932,"lon":5.35382,"is_reserved":false,"is_disabled":false,"rental_uris":{"android":"levelo://app?vid=facb2444-b910-4eae-bdfa-be231ba2cd33","ios":"levelo://app?vid=facb2444-b910-4eae-bdfa-be231ba2cd33"},"vehicle_type_id":"4","last_reported":1761664335,"current_range_meters":18000,"station_id":"cpo3532slgdg3j2ikp40","pricing_plan_id":"cebpf4jnsgd1na2vs0mg"},{"bike_id":"86f7dfa3-57ce-4d83-9aa7-c8e40dd053a1","system_id":"levelo_inurba_marseille","lat":43.28611,"lon":5.35107,"is_reserved":false,"is_disabled":false,"rental_uris":{"android":"levelo://app?vid=86f7dfa3-57ce-4d83-9aa7-c8e40dd053a1","ios":"levelo://app?vid=86f7dfa3-57ce-4d83-9aa7-c8e40dd053a1"},"vehicle_type_id":"4","last_reported":1761664335,"current_range_meters":18000,"station_id":"ce4bhch2rcd13ifvqeug","pricing_plan_id":"cebpf4jnsgd1na2vs0mg"},{"bike_id":"82c3d2c8-f0bf-446e-b125-018f07998329","system_id":"levelo_inurba_marseille","lat":43.32751,"lon":5.40105,"is_reserved":false,"is_disabled":false,"rental_uris":{"android":"levelo://app?vid=82c3d2c8-f0bf-446e-b125-018f07998329","ios":"levelo://app?vid=82c3d2c8-f0bf-446e-b125-018f07998329"},"vehicle_type_id":"4","last_reported":1761664335,"current_range_meters":18000,"station_id":"","pricing_plan_id":"cebpf4jnsgd1na2vs0mg"},{"bike_id":"bf38cac9-e9d0-4311-8395-f78fa746e742","system_id":"levelo_inurba_marseille","lat":43.29227,"lon":5.40928,"is_reserved":false,"is_disabled":false,"rental_uris":{"android":"levelo://app?vid=bf38cac9-e9d0-4311-8395-f78fa746e742","ios":"levelo://app?vid=bf38cac9-e9d0-4311-8395-f78fa746e742"},"vehicle_type_id":"4","last_reported":1761664335,"current_range_meters":18000,"station_id":"ce4bh192rcd13ifvqdc0","pricing_plan_id":"cebpf4jnsgd1na2vs0mg"},{"bike_id":"0a052c97-8589-4b6c-bd9c-512587c69317","system_id":"levelo_inurba_marseille","lat":43.28036,"lon":5.36943,"is_reserved":false,"is_disabled":false,"rental_uris":{"android":"levelo://app?vid=0a052c97-8589-4b6c-bd9c-512587c69317","ios":"levelo://app?vid=0a052c97-8589-4b6c-bd9c-512587c69317"},"vehicle_type_id":"4","last_reported":1761664335,"current_range_meters":18000,"station_id":"ce4bha12rcd13ifvqef0","pricing_plan_id":"cebpf4jnsgd1na2vs0mg"},{"bike_id":"94baf338-1885-4a85-9a31-0c6290033e2b","system_id":"levelo_inurba_marseille","lat":43.24183,"lon":5.39737,"is_reserved":false,"is_disabled":false,"rental_uris":{"android":"levelo://app?vid=94baf338-1885-4a85-9a31-0c6290033e2b","ios":"levelo://app?vid=94baf338-1885-4a85-9a31-0c6290033e2b"},"vehicle_type_id":"4","last_reported":1761664335,"current_range_meters":18000,"station_id":"ce4bhn12rcd13ifvqgpg","pricing_plan_id":"cebpf4jnsgd1na2vs0mg"},{"bike_id":"96b93a83-82f2-4d31-acb8-139fbce4500d","system_id":"levelo_inurba_marseille","lat":43.229285,"lon":5.353668,"is_reserved":false,"is_disabled":false,"rental_uris":{"android":"levelo://app?vid=96b93a83-82f2-4d31-acb8-139fbce4500d","ios":"levelo://app?vid=96b93a83-82f2-4d31-acb8-139fbce4500d"},"vehicle_type_id":"4","last_reported":1761664335,"current_range_meters":18000,"station_id":"cpo3532slgdg3j2ikp40","pricing_plan_id":"cebpf4jnsgd1na2vs0mg"},{"bike_id":"09884e49-b43c-4ec9-85a5-6243e16f6787","system_id":"levelo_inurba_marseille","lat":43.30538,"lon":5.36545,"is_reserved":false,"is_disabled":false,"rental_uris":{"android":"levelo://app?vid=09884e49-b43c-4ec9-85a5-6243e16f6787","ios":"levelo://app?vid=09884e49-b43c-4ec9-85a5-6243e16f6787"},"vehicle_type_id":"4","last_reported":1761664335,"current_range_meters":18800,"station_id":"ce4bgs12rcd13ifvqcag","pricing_plan_id":"cebpf4jnsgd1na2vs0mg"},{"bike_id":"941eca81-61b6-4376-acbb-773a2fc9f625","system_id":"levelo_inurba_marseille","lat":43.320936,"lon":5.367755,"is_reserved":false,"is_disabled":false,"rental_uris":{"android":"levelo://app?vid=941eca81-61b6-4376-acbb-773a2fc9f625","ios":"levelo://app?vid=941eca81-61b6-4376-acbb-773a2fc9f625"},"vehicle_type_id":"4","last_reported":1761664335,"current_range_meters":18800,"station_id":"ce4bhrh2rcd13ifvqhug","pricing_plan_id":"cebpf4jnsgd1na2vs0mg"},{"bike_id":"7b39ac64-a7c9-4787-a097-76de236ff11e","system_id":"levelo_inurba_marseille","lat":43.29283,"lon":5.38431,"is_reserved":false,"is_disabled":false,"rental_uris":{"android":"levelo://app?vid=7b39ac64-a7c9-4787-a097-76de236ff11e","ios":"levelo://app?vid=7b39ac64-a7c9-4787-a097-76de236ff11e"},"vehicle_type_id":"4","last_reported":1761664335,"current_range_meters":18800,"station_id":"ce4bh692rcd13ifvqea0","pricing_plan_id":"cebpf4jnsgd1na2vs0mg"},{"bike_id":"04b716dc-bd6a-467b-a53f-4e4bb747b91e","system_id":"levelo_inurba_marseille","lat":43.21758,"lon":5.34597,"is_reserved":false,"is_disabled":false,"rental_uris":{"android":"levelo://app?vid=04b716dc-bd6a-467b-a53f-4e4bb747b91e","ios":"levelo://app?vid=04b716dc-bd6a-467b-a53f-4e4bb747b91e"},"vehicle_type_id":"4","last_reported":1761664335,"current_range_meters":18800,"station_id":"st_cvj6r9ubvosntc0bgbag","pricing_plan_id":"cebpf4jnsgd1na2vs0mg"},{"bike_id":"68fb8eb8-a4bc-4ad1-8fdc-7879d671900c","system_id":"levelo_inurba_marseille","lat":43.284,"lon":5.35006,"is_reserved":false,"is_disabled":false,"rental_uris":{"android":"levelo://app?vid=68fb8eb8-a4bc-4ad1-8fdc-7879d671900c","ios":"levelo://app?vid=68fb8eb8-a4bc-4ad1-8fdc-7879d671900c"},"vehicle_type_id":"4","last_reported":1761664335,"current_range_meters":18800,"station_id":"ce4bhbh2rcd13ifvqepg","pricing_plan_id":"cebpf4jnsgd1na2vs0mg"},{"bike_id":"6d56b5a4-2d39-4350-9ba8-2ad1464a5286","system_id":"levelo_inurba_marseille","lat":43.25082,"lon":5.39517,"is_reserved":false,"is_disabled":false,"rental_uris":{"android":"levelo://app?vid=6d56b5a4-2d39-4350-9ba8-2ad1464a5286","ios":"levelo://app?vid=6d56b5a4-2d39-4350-9ba8-2ad1464a5286"},"vehicle_type_id":"4","last_reported":1761664335,"current_range_meters":18800,"station_id":"ce4bhm12rcd13ifvqgkg","pricing_plan_id":"cebpf4jnsgd1na2vs0mg"},{"bike_id":"fbb699d2-8ead-4322-ad39-577cd03f58bd","system_id":"levelo_inurba_marseille","lat":43.285368,"lon":5.44104,"is_reserved":false,"is_disabled":false,"rental_uris":{"android":"levelo://app?vid=fbb699d2-8ead-4322-ad39-577cd03f58bd","ios":"levelo://app?vid=fbb699d2-8ead-4322-ad39-577cd03f58bd"},"vehicle_type_id":"4","last_reported":1761664335,"current_range_meters":18800,"station_id":"st_d3j3df2ikq2c7380ej80","pricing_plan_id":"cebpf4jnsgd1na2vs0mg"},{"bike_id":"856b78c4-2955-4ba2-ad1a-fb754690a552","system_id":"levelo_inurba_marseille","lat":43.21753,"lon":5.34603,"is_reserved":false,"is_disabled":false,"rental_uris":{"android":"levelo://app?vid=856b78c4-2955-4ba2-ad1a-fb754690a552","ios":"levelo://app?vid=856b78c4-2955-4ba2-ad1a-fb754690a552"},"vehicle_type_id":"4","last_reported":1761664335,"current_range_meters":18800,"station_id":"st_cvj6r9ubvosntc0bgbag","pricing_plan_id":"cebpf4jnsgd1na2vs0mg"},{"bike_id":"f6adb9c1-4a78-4322-baec-aa5f6f5d93b6","system_id":"levelo_inurba_marseille","lat":43.225321,"lon":5.348302,"is_reserved":false,"is_disabled":false,"rental_uris":{"android":"levelo://app?vid=f6adb9c1-4a78-4322-baec-aa5f6f5d93b6","ios":"levelo://app?vid=f6adb9c1-4a78-4322-baec-aa5f6f5d93b6"},"vehicle_type_id":"4","last_reported":1761664335,"current_range_meters":18800,"station_id":"","pricing_plan_id":"cebpf4jnsgd1na2vs0mg"},{"bike_id":"96874538-e338-47dd-8158-7284ae5bb7a5","system_id":"levelo_inurba_marseille","lat":43.28852,"lon":5.39324,"is_reserved":false,"is_disabled":false,"rental_uris":{"android":"levelo://app?vid=96874538-e338-47dd-8158-7284ae5bb7a5","ios":"levelo://app?vid=96874538-e338-47dd-8158-7284ae5bb7a5"},"vehicle_type_id":"4","last_reported":1761664335,"current_range_meters":19200,"station_id":"ce4bh2p2rcd13ifvqdi0","pricing_plan_id":"cebpf4jnsgd1na2vs0mg"},{"bike_id":"e3260d53-1f31-4048-a6b1-57d9b1375877","system_id":"levelo_inurba_marseille","lat":43.28529,"lon":5.44132,"is_reserved":false,"is_disabled":false,"rental_uris":{"android":"levelo://app?vid=e3260d53-1f31-4048-a6b1-57d9b1375877","ios":"levelo://app?vid=e3260d53-1f31-4048-a6b1-57d9b1375877"},"vehicle_type_id":"4","last_reported":1761664335,"current_range_meters":19200,"station_id":"st_d3j3df2ikq2c7380ej80","pricing_plan_id":"cebpf4jnsgd1na2vs0mg"},{"bike_id":"3d00cf23-a66b-47a1-8eb3-f05af16b09a1","system_id":"levelo_inurba_marseille","lat":43.244,"lon":5.37084,"is_reserved":false,"is_disabled":false,"rental_uris":{"android":"levelo://app?vid=3d00cf23-a66b-47a1-8eb3-f05af16b09a1","ios":"levelo://app?vid=3d00cf23-a66b-47a1-8eb3-f05af16b09a1"},"vehicle_type_id":"4","last_reported":1761664335,"current_range_meters":19200,"station_id":"ce4bhhh2rcd13ifvqfk0","pricing_plan_id":"cebpf4jnsgd1na2vs0mg"},{"bike_id":"8e2dcd31-6a9c-4b7f-a366-5e2640173d3c","system_id":"levelo_inurba_marseille","lat":43.22937,"lon":5.35376,"is_reserved":false,"is_disabled":false,"rental_uris":{"android":"levelo://app?vid=8e2dcd31-6a9c-4b7f-a366-5e2640173d3c","ios":"levelo://app?vid=8e2dcd31-6a9c-4b7f-a366-5e2640173d3c"},"vehicle_type_id":"4","last_reported":1761664335,"current_range_meters":19200,"station_id":"cpo3532slgdg3j2ikp40","pricing_plan_id":"cebpf4jnsgd1na2vs0mg"},{"bike_id":"9d40a700-0d92-4efa-9902-11e2f8d9e543","system_id":"levelo_inurba_marseille","lat":43.304194,"lon":5.412884,"is_reserved":false,"is_disabled":false,"rental_uris":{"android":"levelo://app?vid=9d40a700-0d92-4efa-9902-11e2f8d9e543","ios":"levelo://app?vid=9d40a700-0d92-4efa-9902-11e2f8d9e543"},"vehicle_type_id":"4","last_reported":1761664335,"current_range_meters":19200,"station_id":"ce4bhop2rcd13ifvqh8g","pricing_plan_id":"cebpf4jnsgd1na2vs0mg"},{"bike_id":"978465bb-158e-4984-a32b-852d1021b41b","system_id":"levelo_inurba_marseille","lat":43.28407,"lon":5.37513,"is_reserved":false,"is_disabled":false,"rental_uris":{"android":"levelo://app?vid=978465bb-158e-4984-a32b-852d1021b41b","ios":"levelo://app?vid=978465bb-158e-4984-a32b-852d1021b41b"},"vehicle_type_id":"4","last_reported":1761664335,"current_range_meters":19200,"station_id":"ce4bh412rcd13ifvqds0","pricing_plan_id":"cebpf4jnsgd1na2vs0mg"},{"bike_id":"73ada5f3-22ff-4cf4-bf85-c5c4a60f6341","system_id":"levelo_inurba_marseille","lat":43.32483,"lon":5.3656,"is_reserved":false,"is_disabled":false,"rental_uris":{"android":"levelo://app?vid=73ada5f3-22ff-4cf4-bf85-c5c4a60f6341","ios":"levelo://app?vid=73ada5f3-22ff-4cf4-bf85-c5c4a60f6341"},"vehicle_type_id":"4","last_reported":1761664335,"current_range_meters":19200,"station_id":"ce4bhs12rcd13ifvqhvg","pricing_plan_id":"cebpf4jnsgd1na2vs0mg"},{"bike_id":"8dafbf37-a2e6-4177-baf2-d33c935c68b1","system_id":"levelo_inurba_marseille","lat":43.27616,"lon":5.36121,"is_reserved":false,"is_disabled":false,"rental_uris":{"android":"levelo://app?vid=8dafbf37-a2e6-4177-baf2-d33c935c68b1","ios":"levelo://app?vid=8dafbf37-a2e6-4177-baf2-d33c935c68b1"},"vehicle_type_id":"4","last_reported":1761664335,"current_range_meters":19200,"station_id":"ce4bgj92rcd13ifvqbe0","pricing_plan_id":"cebpf4jnsgd1na2vs0mg"},{"bike_id":"faee4aed-34d1-4e59-9f3e-bc2337688920","system_id":"levelo_inurba_marseille","lat":43.317141,"lon":5.437029,"is_reserved":false,"is_disabled":true,"rental_uris":{"android":"levelo://app?vid=faee4aed-34d1-4e59-9f3e-bc2337688920","ios":"levelo://app?vid=faee4aed-34d1-4e59-9f3e-bc2337688920"},"vehicle_type_id":"4","last_reported":1761664335,"current_range_meters":19200,"station_id":"ce4bhp92rcd13ifvqhcg","pricing_plan_id":"cebpf4jnsgd1na2vs0mg"},{"bike_id":"1d2f5121-1156-406d-9bfb-6de607efd7cf","system_id":"levelo_inurba_marseille","lat":43.25939,"lon":5.40916,"is_reserved":false,"is_disabled":false,"rental_uris":{"android":"levelo://app?vid=1d2f5121-1156-406d-9bfb-6de607efd7cf","ios":"levelo://app?vid=1d2f5121-1156-406d-9bfb-6de607efd7cf"},"vehicle_type_id":"4","last_reported":1761664335,"current_range_meters":19200,"station_id":"ce4bhm92rcd13ifvqglg","pricing_plan_id":"cebpf4jnsgd1na2vs0mg"},{"bike_id":"3647b299-510c-4e4b-a87a-8e340897a2e3","system_id":"levelo_inurba_marseille","lat":43.292575,"lon":5.384337,"is_reserved":false,"is_disabled":false,"rental_uris":{"android":"levelo://app?vid=3647b299-510c-4e4b-a87a-8e340897a2e3","ios":"levelo://app?vid=3647b299-510c-4e4b-a87a-8e340897a2e3"},"vehicle_type_id":"4","last_reported":1761664335,"current_range_meters":19200,"station_id":"ce4bh692rcd13ifvqea0","pricing_plan_id":"cebpf4jnsgd1na2vs0mg"},{"bike_id":"4f24d0df-7b9a-48fa-a400-a6a0ae0f4ff8","system_id":"levelo_inurba_marseille","lat":43.24168,"lon":5.39748,"is_reserved":false,"is_disabled":false,"rental_uris":{"android":"levelo://app?vid=4f24d0df-7b9a-48fa-a400-a6a0ae0f4ff8","ios":"levelo://app?vid=4f24d0df-7b9a-48fa-a400-a6a0ae0f4ff8"},"vehicle_type_id":"4","last_reported":1761664335,"current_range_meters":19200,"station_id":"ce4bhn12rcd13ifvqgpg","pricing_plan_id":"cebpf4jnsgd1na2vs0mg"},{"bike_id":"9d0968ce-110f-4b8c-afc3-b80c623172db","system_id":"levelo_inurba_marseille","lat":43.33602,"lon":5.41038,"is_reserved":false,"is_disabled":false,"rental_uris":{"android":"levelo://app?vid=9d0968ce-110f-4b8c-afc3-b80c623172db","ios":"levelo://app?vid=9d0968ce-110f-4b8c-afc3-b80c623172db"},"vehicle_type_id":"4","last_reported":1761664335,"current_range_meters":19200,"station_id":"ce4bhqh2rcd13ifvqhmg","pricing_plan_id":"cebpf4jnsgd1na2vs0mg"},{"bike_id":"d6af242e-2c3e-4491-bbf5-040559ba9394","system_id":"levelo_inurba_marseille","lat":43.29706,"lon":5.36613,"is_reserved":false,"is_disabled":false,"rental_uris":{"android":"levelo://app?vid=d6af242e-2c3e-4491-bbf5-040559ba9394","ios":"levelo://app?vid=d6af242e-2c3e-4491-bbf5-040559ba9394"},"vehicle_type_id":"4","last_reported":1761664335,"current_range_meters":19200,"station_id":"ce4bgn12rcd13ifvqbt0","pricing_plan_id":"cebpf4jnsgd1na2vs0mg"},{"bike_id":"1a34b5a4-3c1e-479b-b6f5-76f97d5c5c52","system_id":"levelo_inurba_marseille","lat":43.28527,"lon":5.44097,"is_reserved":false,"is_disabled":false,"rental_uris":{"android":"levelo://app?vid=1a34b5a4-3c1e-479b-b6f5-76f97d5c5c52","ios":"levelo://app?vid=1a34b5a4-3c1e-479b-b6f5-76f97d5c5c52"},"vehicle_type_id":"4","last_reported":1761664335,"current_range_meters":19600,"station_id":"st_d3j3df2ikq2c7380ej80","pricing_plan_id":"cebpf4jnsgd1na2vs0mg"},{"bike_id":"aef18226-b002-45d5-ba0c-5d465a2c460e","system_id":"levelo_inurba_marseille","lat":43.22531,"lon":5.34836,"is_reserved":false,"is_disabled":false,"rental_uris":{"android":"levelo://app?vid=aef18226-b002-45d5-ba0c-5d465a2c460e","ios":"levelo://app?vid=aef18226-b002-45d5-ba0c-5d465a2c460e"},"vehicle_type_id":"4","last_reported":1761664335,"current_range_meters":19600,"station_id":"","pricing_plan_id":"cebpf4jnsgd1na2vs0mg"},{"bike_id":"17b54b23-d60b-4af1-8ead-39989afbcfba","system_id":"levelo_inurba_marseille","lat":43.24997,"lon":5.38934,"is_reserved":false,"is_disabled":false,"rental_uris":{"android":"levelo://app?vid=17b54b23-d60b-4af1-8ead-39989afbcfba","ios":"levelo://app?vid=17b54b23-d60b-4af1-8ead-39989afbcfba"},"vehicle_type_id":"4","last_reported":1761664335,"current_range_meters":19600,"station_id":"ce4bhgp2rcd13ifvqfd0","pricing_plan_id":"cebpf4jnsgd1na2vs0mg"},{"bike_id":"a049967b-d347-4414-83a8-1154d36b087e","system_id":"levelo_inurba_marseille","lat":43.243848,"lon":5.370798,"is_reserved":false,"is_disabled":false,"rental_uris":{"android":"levelo://app?vid=a049967b-d347-4414-83a8-1154d36b087e","ios":"levelo://app?vid=a049967b-d347-4414-83a8-1154d36b087e"},"vehicle_type_id":"4","last_reported":1761664335,"current_range_meters":19600,"station_id":"ce4bhhh2rcd13ifvqfk0","pricing_plan_id":"cebpf4jnsgd1na2vs0mg"},{"bike_id":"7787ad57-5717-4e2e-96af-4fdc16d60b50","system_id":"levelo_inurba_marseille","lat":43.24382,"lon":5.37067,"is_reserved":false,"is_disabled":false,"rental_uris":{"android":"levelo://app?vid=7787ad57-5717-4e2e-96af-4fdc16d60b50","ios":"levelo://app?vid=7787ad57-5717-4e2e-96af-4fdc16d60b50"},"vehicle_type_id":"4","last_reported":1761664335,"current_range_meters":19600,"station_id":"ce4bhhh2rcd13ifvqfk0","pricing_plan_id":"cebpf4jnsgd1na2vs0mg"},{"bike_id":"75dc66b3-0d26-400d-85b7-e985f64e2136","system_id":"levelo_inurba_marseille","lat":43.290038,"lon":5.437098,"is_reserved":false,"is_disabled":false,"rental_uris":{"android":"levelo://app?vid=75dc66b3-0d26-400d-85b7-e985f64e2136","ios":"levelo://app?vid=75dc66b3-0d26-400d-85b7-e985f64e2136"},"vehicle_type_id":"4","last_reported":1761664335,"current_range_meters":20000,"station_id":"","pricing_plan_id":"cebpf4jnsgd1na2vs0mg"},{"bike_id":"bbfec16f-6169-4572-af69-077582302813","system_id":"levelo_inurba_marseille","lat":43.297079,"lon":5.37693,"is_reserved":false,"is_disabled":false,"rental_uris":{"android":"levelo://app?vid=bbfec16f-6169-4572-af69-077582302813","ios":"levelo://app?vid=bbfec16f-6169-4572-af69-077582302813"},"vehicle_type_id":"4","last_reported":1761664335,"current_range_meters":20000,"station_id":"ce4bgkh2rcd13ifvqbl0","pricing_plan_id":"cebpf4jnsgd1na2vs0mg"},{"bike_id":"eca3502b-2048-4050-aaa5-d53089f6e068","system_id":"levelo_inurba_marseille","lat":43.29307,"lon":5.3715,"is_reserved":false,"is_disabled":false,"rental_uris":{"android":"levelo://app?vid=eca3502b-2048-4050-aaa5-d53089f6e068","ios":"levelo://app?vid=eca3502b-2048-4050-aaa5-d53089f6e068"},"vehicle_type_id":"4","last_reported":1761664335,"current_range_meters":20000,"station_id":"ce4bgh92rcd13ifvqb40","pricing_plan_id":"cebpf4jnsgd1na2vs0mg"},{"bike_id":"1bb29d11-05ec-479f-a52a-020c1aceb218","system_id":"levelo_inurba_marseille","lat":43.24082,"lon":5.37762,"is_reserved":false,"is_disabled":false,"rental_uris":{"android":"levelo://app?vid=1bb29d11-05ec-479f-a52a-020c1aceb218","ios":"levelo://app?vid=1bb29d11-05ec-479f-a52a-020c1aceb218"},"vehicle_type_id":"4","last_reported":1761664335,"current_range_meters":20000,"station_id":"ce4bhnp2rcd13ifvqgvg","pricing_plan_id":"cebpf4jnsgd1na2vs0mg"},{"bike_id":"723a003b-69e7-40c1-8770-b8861d0b490a","system_id":"levelo_inurba_marseille","lat":43.229305,"lon":5.353802,"is_reserved":false,"is_disabled":false,"rental_uris":{"android":"levelo://app?vid=723a003b-69e7-40c1-8770-b8861d0b490a","ios":"levelo://app?vid=723a003b-69e7-40c1-8770-b8861d0b490a"},"vehicle_type_id":"4","last_reported":1761664335,"current_range_meters":20000,"station_id":"cpo3532slgdg3j2ikp40","pricing_plan_id":"cebpf4jnsgd1na2vs0mg"},{"bike_id":"a5c56734-aacf-4d9e-a1f9-7450f867f83f","system_id":"levelo_inurba_marseille","lat":43.241802,"lon":5.397377,"is_reserved":false,"is_disabled":false,"rental_uris":{"android":"levelo://app?vid=a5c56734-aacf-4d9e-a1f9-7450f867f83f","ios":"levelo://app?vid=a5c56734-aacf-4d9e-a1f9-7450f867f83f"},"vehicle_type_id":"4","last_reported":1761664335,"current_range_meters":20000,"station_id":"ce4bhn12rcd13ifvqgpg","pricing_plan_id":"cebpf4jnsgd1na2vs0mg"},{"bike_id":"66f35c71-7548-4c33-9bb7-97e77983d5f2","system_id":"levelo_inurba_marseille","lat":43.30241,"lon":5.40093,"is_reserved":false,"is_disabled":true,"rental_uris":{"android":"levelo://app?vid=66f35c71-7548-4c33-9bb7-97e77983d5f2","ios":"levelo://app?vid=66f35c71-7548-4c33-9bb7-97e77983d5f2"},"vehicle_type_id":"4","last_reported":1761664335,"current_range_meters":20400,"station_id":"ce4bgvh2rcd13ifvqcs0","pricing_plan_id":"cebpf4jnsgd1na2vs0mg"},{"bike_id":"54b14a5b-1cb9-4119-885b-796c26f33979","system_id":"levelo_inurba_marseille","lat":43.33023,"lon":5.39039,"is_reserved":false,"is_disabled":false,"rental_uris":{"android":"levelo://app?vid=54b14a5b-1cb9-4119-885b-796c26f33979","ios":"levelo://app?vid=54b14a5b-1cb9-4119-885b-796c26f33979"},"vehicle_type_id":"4","last_reported":1761664335,"current_range_meters":20400,"station_id":"ce4bhr92rcd13ifvqhrg","pricing_plan_id":"cebpf4jnsgd1na2vs0mg"},{"bike_id":"2480ee2d-281a-4a06-8437-41b777bef070","system_id":"levelo_inurba_marseille","lat":43.32,"lon":5.38161,"is_reserved":false,"is_disabled":false,"rental_uris":{"android":"levelo://app?vid=2480ee2d-281a-4a06-8437-41b777bef070","ios":"levelo://app?vid=2480ee2d-281a-4a06-8437-41b777bef070"},"vehicle_type_id":"4","last_reported":1761664335,"current_range_meters":20400,"station_id":"ce4bhr12rcd13ifvqhpg","pricing_plan_id":"cebpf4jnsgd1na2vs0mg"},{"bike_id":"aed612f3-f193-4579-bc1c-d240fceed433","system_id":"levelo_inurba_marseille","lat":43.29253,"lon":5.40908,"is_reserved":false,"is_disabled":false,"rental_uris":{"android":"levelo://app?vid=aed612f3-f193-4579-bc1c-d240fceed433","ios":"levelo://app?vid=aed612f3-f193-4579-bc1c-d240fceed433"},"vehicle_type_id":"4","last_reported":1761664335,"current_range_meters":20400,"station_id":"ce4bh192rcd13ifvqdc0","pricing_plan_id":"cebpf4jnsgd1na2vs0mg"},{"bike_id":"26fe4e43-6685-4528-a529-fbd524981758","system_id":"levelo_inurba_marseille","lat":43.240672,"lon":5.377503,"is_reserved":false,"is_disabled":false,"rental_uris":{"android":"levelo://app?vid=26fe4e43-6685-4528-a529-fbd524981758","ios":"levelo://app?vid=26fe4e43-6685-4528-a529-fbd524981758"},"vehicle_type_id":"4","last_reported":1761664335,"current_range_meters":20400,"station_id":"ce4bhnp2rcd13ifvqgvg","pricing_plan_id":"cebpf4jnsgd1na2vs0mg"},{"bike_id":"d9a6a1f6-ad3e-4d83-b3dd-5f0ef903b947","system_id":"levelo_inurba_marseille","lat":43.230866,"lon":5.354803,"is_reserved":false,"is_disabled":false,"rental_uris":{"android":"levelo://app?vid=d9a6a1f6-ad3e-4d83-b3dd-5f0ef903b947","ios":"levelo://app?vid=d9a6a1f6-ad3e-4d83-b3dd-5f0ef903b947"},"vehicle_type_id":"4","last_reported":1761664335,"current_range_meters":20800,"station_id":"","pricing_plan_id":"cebpf4jnsgd1na2vs0mg"},{"bike_id":"51f5d3a4-5ca4-428d-8c3a-6dc58c961bd7","system_id":"levelo_inurba_marseille","lat":43.31295,"lon":5.36846,"is_reserved":false,"is_disabled":false,"rental_uris":{"android":"levelo://app?vid=51f5d3a4-5ca4-428d-8c3a-6dc58c961bd7","ios":"levelo://app?vid=51f5d3a4-5ca4-428d-8c3a-6dc58c961bd7"},"vehicle_type_id":"4","last_reported":1761664335,"current_range_meters":20800,"station_id":"","pricing_plan_id":"cebpf4jnsgd1na2vs0mg"},{"bike_id":"b95f54e7-30ec-4d03-ba4f-7ab68699eca1","system_id":"levelo_inurba_marseille","lat":43.29526,"lon":5.39041,"is_reserved":false,"is_disabled":false,"rental_uris":{"android":"levelo://app?vid=b95f54e7-30ec-4d03-ba4f-7ab68699eca1","ios":"levelo://app?vid=b95f54e7-30ec-4d03-ba4f-7ab68699eca1"},"vehicle_type_id":"4","last_reported":1761664335,"current_range_meters":20800,"station_id":"ce4bh3p2rcd13ifvqdp0","pricing_plan_id":"cebpf4jnsgd1na2vs0mg"},{"bike_id":"556c95c4-e39d-4a50-b32b-6e1b11658636","system_id":"levelo_inurba_marseille","lat":43.24179,"lon":5.36399,"is_reserved":false,"is_disabled":false,"rental_uris":{"android":"levelo://app?vid=556c95c4-e39d-4a50-b32b-6e1b11658636","ios":"levelo://app?vid=556c95c4-e39d-4a50-b32b-6e1b11658636"},"vehicle_type_id":"4","last_reported":1761664335,"current_range_meters":20800,"station_id":"cpo36qri1sfpv3e86is0","pricing_plan_id":"cebpf4jnsgd1na2vs0mg"},{"bike_id":"69930069-e70d-492f-864f-9204a708fb20","system_id":"levelo_inurba_marseille","lat":43.26788,"lon":5.39425,"is_reserved":false,"is_disabled":false,"rental_uris":{"android":"levelo://app?vid=69930069-e70d-492f-864f-9204a708fb20","ios":"levelo://app?vid=69930069-e70d-492f-864f-9204a708fb20"},"vehicle_type_id":"4","last_reported":1761664335,"current_range_meters":20800,"station_id":"ce4bhh12rcd13ifvqfg0","pricing_plan_id":"cebpf4jnsgd1na2vs0mg"},{"bike_id":"e9a9ddea-2837-4d72-bf26-15b436ffa177","system_id":"levelo_inurba_marseille","lat":43.27371,"lon":5.36263,"is_reserved":false,"is_disabled":false,"rental_uris":{"android":"levelo://app?vid=e9a9ddea-2837-4d72-bf26-15b436ffa177","ios":"levelo://app?vid=e9a9ddea-2837-4d72-bf26-15b436ffa177"},"vehicle_type_id":"4","last_reported":1761664335,"current_range_meters":20800,"station_id":"ce4bhbh2rcd13ifvqeo0","pricing_plan_id":"cebpf4jnsgd1na2vs0mg"},{"bike_id":"6eab395f-908f-4e05-896e-00982c676b97","system_id":"levelo_inurba_marseille","lat":43.26559,"lon":5.37287,"is_reserved":false,"is_disabled":false,"rental_uris":{"android":"levelo://app?vid=6eab395f-908f-4e05-896e-00982c676b97","ios":"levelo://app?vid=6eab395f-908f-4e05-896e-00982c676b97"},"vehicle_type_id":"4","last_reported":1761664335,"current_range_meters":20800,"station_id":"ce4bhg12rcd13ifvqf70","pricing_plan_id":"cebpf4jnsgd1na2vs0mg"},{"bike_id":"7e8c1e26-ecbd-4814-afed-2c8de011139c","system_id":"levelo_inurba_marseille","lat":43.26675,"lon":5.38261,"is_reserved":false,"is_disabled":false,"rental_uris":{"android":"levelo://app?vid=7e8c1e26-ecbd-4814-afed-2c8de011139c","ios":"levelo://app?vid=7e8c1e26-ecbd-4814-afed-2c8de011139c"},"vehicle_type_id":"4","last_reported":1761664335,"current_range_meters":21600,"station_id":"ce4bhg92rcd13ifvqf90","pricing_plan_id":"cebpf4jnsgd1na2vs0mg"},