{"last_updated":1728434658,"ttl":60,"version":"2.2","data":{"bikes":[{"bike_id":"5e298f33-cbb1-41c7-9d1f-6b6ff9bda3e9","system_id":"levelo_inurba_marseille","lat":43.25864,"lon":5.39912,"is_reserved":false,"is_disabled":false,"rental_uris":{"android":"levelo://app?vid=5e298f33-cbb1-41c7-9d1f-6b6ff9bda3e9","ios":"levelo://app?vid=5e298f33-cbb1-41c7-9d1f-6b6ff9bda3e9"},"vehicle_type_id":"4","last_reported":1728434658,"current_range_meters":36800,"station_id":"ce4bhl92rcd13ifvqghg","pricing_plan_id":"cebpf4jnsgd1na2vs0mg"},{"bike_id":"1aecd509-ea4f-40d9-b98b-65d7ca1a650a","system_id":"levelo_inurba_marseille","lat":43.24653,"lon":5.38896,"is_reserved":false,"is_disabled":false,"rental_uris":{"android":"levelo://app?vid=1aecd509-ea4f-40d9-b98b-65d7ca1a650a","ios":"levelo://app?vid=1aecd509-ea4f-40d9-b98b-65d7ca1a650a"},"vehicle_type_id":"4","last_reported":1728434658,"current_range_meters":35600,"station_id":"ce4bhg12rcd13ifvqf60","pricing_plan_id":"cebpf4jnsgd1na2vs0mg"},{"bike_id":"16a4d634-a2af-43fd-8689-a228e7165ff4","system_id":"levelo_inurba_marseille","lat":43.27806,"lon":5.40714,"is_reserved":false,"is_disabled":false,"rental_uris":{"android":"levelo://app?vid=16a4d634-a2af-43fd-8689-a228e7165ff4","ios":"levelo://app?vid=16a4d634-a2af-43fd-8689-a228e7165ff4"},"vehicle_type_id":"4","last_reported":1728434658,"current_range_meters":28800,"station_id":"ce4bhnh2rcd13ifvqgtg","pricing_plan_id":"cebpf4jnsgd1na2vs0mg"},{"bike_id":"a35661b2-b710-4aed-96d4-0351ce96658b","system_id":"levelo_inurba_marseille","lat":43.27617,"lon":5.36113,"is_reserved":false,"is_disabled":false,"rental_uris":{"android":"levelo://app?vid=a35661b2-b710-4aed-96d4-0351ce96658b","ios":"levelo://app?vid=a35661b2-b710-4aed-96d4-0351ce96658b"},"vehicle_type_id":"4","last_reported":1728434658,"current_range_meters":30400,"station_id":"ce4bgj92rcd13ifvqbe0","pricing_plan_id":"cebpf4jnsgd1na2vs0mg"},{"bike_id":"32b6ce76-b786-4714-ad62-d6e7cbb1900d","system_id":"levelo_inurba_marseille","lat":43.30598,"lon":5.3722,"is_reserved":false,"is_disabled":false,"rental_uris":{"android":"levelo://app?vid=32b6ce76-b786-4714-ad62-d6e7cbb1900d","ios":"levelo://app?vid=32b6ce76-b786-4714-ad62-d6e7cbb1900d"},"vehicle_type_id":"4","last_reported":1728434658,"current_range_meters":32000,"station_id":"ce4bgqh2rcd13ifvqc4g","pricing_plan_id":"cebpf4jnsgd1na2vs0mg"},{"bike_id":"7d7d40e8-bfdf-4275-80ec-9d24060f5bde","system_id":"levelo_inurba_marseille","lat":43.31115,"lon":5.37779,"is_reserved":false,"is_disabled":false,"rental_uris":{"android":"levelo://app?vid=7d7d40e8-bfdf-4275-80ec-9d24060f5bde","ios":"levelo://app?vid=7d7d40e8-bfdf-4275-80ec-9d24060f5bde"},"vehicle_type_id":"4","last_reported":1728434658,"current_range_meters":36400,"station_id":"ce4bgt92rcd13ifvqcg0","pricing_plan_id":"cebpf4jnsgd1na2vs0mg"},{"bike_id":"75f11660-7622-4c47-b2e5-57a2baeae5dd","system_id":"levelo_inurba_marseille","lat":43.27371,"lon":5.36263,"is_reserved":false,"is_disabled":false,"rental_uris":{"android":"levelo://app?vid=75f11660-7622-4c47-b2e5-57a2baeae5dd","ios":"levelo://app?vid=75f11660-7622-4c47-b2e5-57a2baeae5dd"},"vehicle_type_id":"4","last_reported":1728434658,"current_range_meters":38800,"station_id":"ce4bhbh2rcd13ifvqeo0","pricing_plan_id":"cebpf4jnsgd1na2vs0mg"},{"bike_id":"cd8f648d-3604-4910-8e4a-b926818f72e2","system_id":"levelo_inurba_marseille","lat":43.23062,"lon":5.35496,"is_reserved":false,"is_disabled":false,"rental_uris":{"android":"levelo://app?vid=cd8f648d-3604-4910-8e4a-b926818f72e2","ios":"levelo://app?vid=cd8f648d-3604-4910-8e4a-b926818f72e2"},"vehicle_type_id":"4","last_reported":1728434658,"current_range_meters":10800,"station_id":"cpo3342slgdg3j2ifvpg","pricing_plan_id":"cebpf4jnsgd1na2vs0mg"},{"bike_id":"b4cfcc4c-d506-4c5e-9655-e52e28dbc76c","system_id":"levelo_inurba_marseille","lat":43.32485,"lon":5.36567,"is_reserved":false,"is_disabled":false,"rental_uris":{"android":"levelo://app?vid=b4cfcc4c-d506-4c5e-9655-e52e28dbc76c","ios":"levelo://app?vid=b4cfcc4c-d506-4c5e-9655-e52e28dbc76c"},"vehicle_type_id":"4","last_reported":1728434658,"current_range_meters":39200,"station_id":"ce4bhs12rcd13ifvqhvg","pricing_plan_id":"cebpf4jnsgd1na2vs0mg"},{"bike_id":"cfdc080b-987b-4ecf-ac34-a0bc870e2974","system_id":"levelo_inurba_marseille","lat":43.32337,"lon":5.40624,"is_reserved":false,"is_disabled":false,"rental_uris":{"android":"levelo://app?vid=cfdc080b-987b-4ecf-ac34-a0bc870e2974","ios":"levelo://app?vid=cfdc080b-987b-4ecf-ac34-a0bc870e2974"},"vehicle_type_id":"4","last_reported":1728434658,"current_range_meters":28800,"station_id":"ce4bhq92rcd13ifvqhjg","pricing_plan_id":"cebpf4jnsgd1na2vs0mg"},{"bike_id":"f6d3cac9-5e1b-43cc-b43e-7d2b3bb1329f","system_id":"levelo_inurba_marseille","lat":43.309384,"lon":5.401467,"is_reserved":false,"is_disabled":false,"rental_uris":{"android":"levelo://app?vid=f6d3cac9-5e1b-43cc-b43e-7d2b3bb1329f","ios":"levelo://app?vid=f6d3cac9-5e1b-43cc-b43e-7d2b3bb1329f"},"vehicle_type_id":"4","last_reported":1728434658,"current_range_meters":38800,"station_id":"ce4bgvp2rcd13ifvqct0","pricing_plan_id":"cebpf4jnsgd1na2vs0mg"},{"bike_id":"6cc675ec-3169-495f-bedd-9e21101471c4","system_id":"levelo_inurba_marseille","lat":43.25111,"lon":5.40328,"is_reserved":false,"is_disabled":false,"rental_uris":{"android":"levelo://app?vid=6cc675ec-3169-495f-bedd-9e21101471c4","ios":"levelo://app?vid=6cc675ec-3169-495f-bedd-9e21101471c4"},"vehicle_type_id":"4","last_reported":1728434658,"current_range_meters":38800,"station_id":"ce4bhlh2rcd13ifvqgig","pricing_plan_id":"cebpf4jnsgd1na2vs0mg"},{"bike_id":"5c2e626b-e236-4bd8-92c5-ad2eef1aa781","system_id":"levelo_inurba_marseille","lat":43.28664,"lon":5.36357,"is_reserved":false,"is_disabled":false,"rental_uris":{"android":"levelo://app?vid=5c2e626b-e236-4bd8-92c5-ad2eef1aa781","ios":"levelo://app?vid=5c2e626b-e236-4bd8-92c5-ad2eef1aa781"},"vehicle_type_id":"4","last_reported":1728434658,"current_range_meters":35200,"station_id":"ce4bhah2rcd13ifvqej0","pricing_plan_id":"cebpf4jnsgd1na2vs0mg"},{"bike_id":"931a1788-e056-41a5-9382-d326cc75297f","system_id":"levelo_inurba_marseille","lat":43.2681,"lon":5.40261,"is_reserved":false,"is_disabled":false,"rental_uris":{"android":"levelo://app?vid=931a1788-e056-41a5-9382-d326cc75297f","ios":"levelo://app?vid=931a1788-e056-41a5-9382-d326cc75297f"},"vehicle_type_id":"4","last_reported":1728434658,"current_range_meters":9200,"station_id":"ce501612rcd8frsf0b60","pricing_plan_id":"cebpf4jnsgd1na2vs0mg"},{"bike_id":"77b6da1b-ffe6-4741-aab5-c6ffa897c82e","system_id":"levelo_inurba_marseille","lat":43.33603,"lon":5.41031,"is_reserved":false,"is_disabled":false,"rental_uris":{"android":"levelo://app?vid=77b6da1b-ffe6-4741-aab5-c6ffa897c82e","ios":"levelo://app?vid=77b6da1b-ffe6-4741-aab5-c6ffa897c82e"},"vehicle_type_id":"4","last_reported":1728434658,"current_range_meters":38800,"station_id":"ce4bhqh2rcd13ifvqhmg","pricing_plan_id":"cebpf4jnsgd1na2vs0mg"},{"bike_id":"0c830b6c-6f65-4dc5-9761-3b5fa8096668","system_id":"levelo_inurba_marseille","lat":43.31657,"lon":5.40425,"is_reserved":false,"is_disabled":false,"rental_uris":{"android":"levelo://app?vid=0c830b6c-6f65-4dc5-9761-3b5fa8096668","ios":"levelo://app?vid=0c830b6c-6f65-4dc5-9761-3b5fa8096668"},"vehicle_type_id":"4","last_reported":1728434658,"current_range_meters":6000,"station_id":"ce4bhq92rcd13ifvqhjg","pricing_plan_id":"cebpf4jnsgd1na2vs0mg"},{"bike_id":"cf8f16fb-4580-41c1-9847-689c326f31cc","system_id":"levelo_inurba_marseille","lat":43.31168,"lon":5.38717,"is_reserved":false,"is_disabled":false,"rental_uris":{"android":"levelo://app?vid=cf8f16fb-4580-41c1-9847-689c326f31cc","ios":"levelo://app?vid=cf8f16fb-4580-41c1-9847-689c326f31cc"},"vehicle_type_id":"4","last_reported":1728434658,"current_range_meters":38800,"station_id":"ce4bgv12rcd13ifvqcp0","pricing_plan_id":"cebpf4jnsgd1na2vs0mg"},{"bike_id":"47c6ebc8-f9c9-4ee5-a4e1-0f6b747dbb71","system_id":"levelo_inurba_marseille","lat":43.30885,"lon":5.39639,"is_reserved":false,"is_disabled":false,"rental_uris":{"android":"levelo://app?vid=47c6ebc8-f9c9-4ee5-a4e1-0f6b747dbb71","ios":"levelo://app?vid=47c6ebc8-f9c9-4ee5-a4e1-0f6b747dbb71"},"vehicle_type_id":"4","last_reported":1728434658,"current_range_meters":35200,"station_id":"ce4bh012rcd13ifvqcv0","pricing_plan_id":"cebpf4jnsgd1na2vs0mg"},{"bike_id":"2a69db13-8c07-46e8-abb4-06e9c733c156","system_id":"levelo_inurba_marseille","lat":43.28079,"lon":5.3966,"is_reserved":false,"is_disabled":false,"rental_uris":{"android":"levelo://app?vid=2a69db13-8c07-46e8-abb4-06e9c733c156","ios":"levelo://app?vid=2a69db13-8c07-46e8-abb4-06e9c733c156"},"vehicle_type_id":"4","last_reported":1728434658,"current_range_meters":38800,"station_id":"ce4bho12rcd13ifvqh2g","pricing_plan_id":"cebpf4jnsgd1na2vs0mg"},{"bike_id":"62360896-b7d8-4a0d-b5dc-eb63db6dba72","system_id":"levelo_inurba_marseille","lat":43.30644,"lon":5.40071,"is_reserved":false,"is_disabled":false,"rental_uris":{"android":"levelo://app?vid=62360896-b7d8-4a0d-b5dc-eb63db6dba72","ios":"levelo://app?vid=62360896-b7d8-4a0d-b5dc-eb63db6dba72"},"vehicle_type_id":"4","last_reported":1728434658,"current_range_meters":38800,"station_id":"ce4bh112rcd13ifvqda0","pricing_plan_id":"cebpf4jnsgd1na2vs0mg"},{"bike_id":"c383ee7b-21fb-4f73-a28d-385288d4939d","system_id":"levelo_inurba_marseille","lat":43.25089,"lon":5.39514,"is_reserved":false,"is_disabled":false,"rental_uris":{"android":"levelo://app?vid=c383ee7b-21fb-4f73-a28d-385288d4939d","ios":"levelo://app?vid=c383ee7b-21fb-4f73-a28d-385288d4939d"},"vehicle_type_id":"4","last_reported":1728434658,"current_range_meters":9600,"station_id":"ce4bhm12rcd13ifvqgkg","pricing_plan_id":"cebpf4jnsgd1na2vs0mg"},{"bike_id":"51c619ca-0af1-4ab5-9eb6-6dba9b814b1d","system_id":"levelo_inurba_marseille","lat":43.28573,"lon":5.39494,"is_reserved":false,"is_disabled":false,"rental_uris":{"android":"levelo://app?vid=51c619ca-0af1-4ab5-9eb6-6dba9b814b1d","ios":"levelo://app?vid=51c619ca-0af1-4ab5-9eb6-6dba9b814b1d"},"vehicle_type_id":"4","last_reported":1728434658,"current_range_meters":38800,"station_id":"ce4bh292rcd13ifvqdg0","pricing_plan_id":"cebpf4jnsgd1na2vs0mg"},{"bike_id":"3835c92e-3bf9-4211-9e27-8bf627d200a6","system_id":"levelo_inurba_marseille","lat":43.30931,"lon":5.40147,"is_reserved":false,"is_disabled":false,"rental_uris":{"android":"levelo://app?vid=3835c92e-3bf9-4211-9e27-8bf627d200a6","ios":"levelo://app?vid=3835c92e-3bf9-4211-9e27-8bf627d200a6"},"vehicle_type_id":"4","last_reported":1728434658,"current_range_meters":28400,"station_id":"ce4bgvp2rcd13ifvqct0","pricing_plan_id":"cebpf4jnsgd1na2vs0mg"},{"bike_id":"2144f07d-f6df-4254-911c-b629e74209f9","system_id":"levelo_inurba_marseille","lat":43.23063,"lon":5.35493,"is_reserved":false,"is_disabled":false,"rental_uris":{"android":"levelo://app?vid=2144f07d-f6df-4254-911c-b629e74209f9","ios":"levelo://app?vid=2144f07d-f6df-4254-911c-b629e74209f9"},"vehicle_type_id":"4","last_reported":1728434658,"current_range_meters":38800,"station_id":"cpo3342slgdg3j2ifvpg","pricing_plan_id":"cebpf4jnsgd1na2vs0mg"},{"bike_id":"ea0872fc-9eca-49a0-b167-bdea7333f1e7","system_id":"levelo_inurba_marseille","lat":43.25575,"lon":5.38236,"is_reserved":false,"is_disabled":false,"rental_uris":{"android":"levelo://app?vid=ea0872fc-9eca-49a0-b167-bdea7333f1e7","ios":"levelo://app?vid=ea0872fc-9eca-49a0-b167-bdea7333f1e7"},"vehicle_type_id":"4","last_reported":1728434658,"current_range_meters":38000,"station_id":"ce4bhih2rcd13ifvqfs0","pricing_plan_id":"cebpf4jnsgd1na2vs0mg"},{"bike_id":"dc044d99-2298-479c-8d77-f3c125080a79","system_id":"levelo_inurba_marseille","lat":43.32338,"lon":5.40622,"is_reserved":false,"is_disabled":false,"rental_uris":{"android":"levelo://app?vid=dc044d99-2298-479c-8d77-f3c125080a79","ios":"levelo://app?vid=dc044d99-2298-479c-8d77-f3c125080a79"},"vehicle_type_id":"4","last_reported":1728434658,"current_range_meters":28400,"station_id":"ce4bhq92rcd13ifvqhjg","pricing_plan_id":"cebpf4jnsgd1na2vs0mg"},{"bike_id":"c37527b3-d5ec-4b6a-9f1e-80bdc6c71314","system_id":"levelo_inurba_marseille","lat":43.30934,"lon":5.40145,"is_reserved":false,"is_disabled":false,"rental_uris":{"android":"levelo://app?vid=c37527b3-d5ec-4b6a-9f1e-80bdc6c71314","ios":"levelo://app?vid=c37527b3-d5ec-4b6a-9f1e-80bdc6c71314"},"vehicle_type_id":"4","last_reported":1728434658,"current_range_meters":24800,"station_id":"ce4bgvp2rcd13ifvqct0","pricing_plan_id":"cebpf4jnsgd1na2vs0mg"},{"bike_id":"1c5e9102-64cc-4162-ac44-ab9c67ef7cf6","system_id":"levelo_inurba_marseille","lat":43.31532,"lon":5.38025,"is_reserved":false,"is_disabled":false,"rental_uris":{"android":"levelo://app?vid=1c5e9102-64cc-4162-ac44-ab9c67ef7cf6","ios":"levelo://app?vid=1c5e9102-64cc-4162-ac44-ab9c67ef7cf6"},"vehicle_type_id":"4","last_reported":1728434658,"current_range_meters":38800,"station_id":"ce4bhsp2rcd13ifvqi50","pricing_plan_id":"cebpf4jnsgd1na2vs0mg"},{"bike_id":"3315b844-74f6-46ea-bc5d-816b30fec11b","system_id":"levelo_inurba_marseille","lat":43.295622,"lon":5.423003,"is_reserved":false,"is_disabled":false,"rental_uris":{"android":"levelo://app?vid=3315b844-74f6-46ea-bc5d-816b30fec11b","ios":"levelo://app?vid=3315b844-74f6-46ea-bc5d-816b30fec11b"},"vehicle_type_id":"4","last_reported":1728434658,"current_range_meters":38800,"station_id":"ce4bhph2rcd13ifvqhdg","pricing_plan_id":"cebpf4jnsgd1na2vs0mg"},{"bike_id":"e79e47f6-ca17-4ebb-8876-4879aae4f7fd","system_id":"levelo_inurba_marseille","lat":43.28457,"lon":5.35883,"is_reserved":false,"is_disabled":false,"rental_uris":{"android":"levelo://app?vid=e79e47f6-ca17-4ebb-8876-4879aae4f7fd","ios":"levelo://app?vid=e79e47f6-ca17-4ebb-8876-4879aae4f7fd"},"vehicle_type_id":"4","last_reported":1728434658,"current_range_meters":28000,"station_id":"ce4bhah2rcd13ifvqei0","pricing_plan_id":"cebpf4jnsgd1na2vs0mg"},{"bike_id":"2876eb60-5970-4a0f-8835-45a7f8bc85f3","system_id":"levelo_inurba_marseille","lat":43.31346,"lon":5.36704,"is_reserved":false,"is_disabled":false,"rental_uris":{"android":"levelo://app?vid=2876eb60-5970-4a0f-8835-45a7f8bc85f3","ios":"levelo://app?vid=2876eb60-5970-4a0f-8835-45a7f8bc85f3"},"vehicle_type_id":"4","last_reported":1728434658,"current_range_meters":38800,"station_id":"ce4bgr92rcd13ifvqc6g","pricing_plan_id":"cebpf4jnsgd1na2vs0mg"},{"bike_id":"400dca54-2fa5-4e12-8cd7-170b2414a591","system_id":"levelo_inurba_marseille","lat":43.27059,"lon":5.40252,"is_reserved":false,"is_disabled":false,"rental_uris":{"android":"levelo://app?vid=400dca54-2fa5-4e12-8cd7-170b2414a591","ios":"levelo://app?vid=400dca54-2fa5-4e12-8cd7-170b2414a591"},"vehicle_type_id":"4","last_reported":1728434658,"current_range_meters":38800,"station_id":"ce4bhk92rcd13ifvqgc0","pricing_plan_id":"cebpf4jnsgd1na2vs0mg"},{"bike_id":"728d6580-0a0d-4c50-a117-a8f67b546d67","system_id":"levelo_inurba_marseille","lat":43.28459,"lon":5.35881,"is_reserved":false,"is_disabled":false,"rental_uris":{"android":"levelo://app?vid=728d6580-0a0d-4c50-a117-a8f67b546d67","ios":"levelo://app?vid=728d6580-0a0d-4c50-a117-a8f67b546d67"},"vehicle_type_id":"4","last_reported":1728434658,"current_range_meters":36400,"station_id":"ce4bhah2rcd13ifvqei0","pricing_plan_id":"cebpf4jnsgd1na2vs0mg"},{"bike_id":"87197431-ee07-4ed3-815b-84c70514bc23","system_id":"levelo_inurba_marseille","lat":43.284634,"lon":5.35876,"is_reserved":false,"is_disabled":false,"rental_uris":{"android":"levelo://app?vid=87197431-ee07-4ed3-815b-84c70514bc23","ios":"levelo://app?vid=87197431-ee07-4ed3-815b-84c70514bc23"},"vehicle_type_id":"4","last_reported":1728434658,"current_range_meters":38800,"station_id":"ce4bhah2rcd13ifvqei0","pricing_plan_id":"cebpf4jnsgd1na2vs0mg"},{"bike_id":"90b7b815-be07-4d3f-a351-671d7e515226","system_id":"levelo_inurba_marseille","lat":43.24647,"lon":5.3889,"is_reserved":false,"is_disabled":false,"rental_uris":{"android":"levelo://app?vid=90b7b815-be07-4d3f-a351-671d7e515226","ios":"levelo://app?vid=90b7b815-be07-4d3f-a351-671d7e515226"},"vehicle_type_id":"4","last_reported":1728434658,"current_range_meters":14800,"station_id":"ce4bhg12rcd13ifvqf60","pricing_plan_id":"cebpf4jnsgd1na2vs0mg"},{"bike_id":"5abb41d0-b142-434e-b250-209044c42a73","system_id":"levelo_inurba_marseille","lat":43.31333,"lon":5.39691,"is_reserved":false,"is_disabled":false,"rental_uris":{"android":"levelo://app?vid=5abb41d0-b142-434e-b250-209044c42a73","ios":"levelo://app?vid=5abb41d0-b142-434e-b250-209044c42a73"},"vehicle_type_id":"4","last_reported":1728434658,"current_range_meters":24800,"station_id":"ce4bgvp2rcd13ifvqcu0","pricing_plan_id":"cebpf4jnsgd1na2vs0mg"},{"bike_id":"bc17e950-7543-41c9-b9fa-129cf0d5dec6","system_id":"levelo_inurba_marseille","lat":43.23965,"lon":5.36634,"is_reserved":false,"is_disabled":false,"rental_uris":{"android":"levelo://app?vid=bc17e950-7543-41c9-b9fa-129cf0d5dec6","ios":"levelo://app?vid=bc17e950-7543-41c9-b9fa-129cf0d5dec6"},"vehicle_type_id":"4","last_reported":1728434658,"current_range_meters":38800,"station_id":"ce4bhi12rcd13ifvqfp0","pricing_plan_id":"cebpf4jnsgd1na2vs0mg"},{"bike_id":"4517b0ca-5586-48b6-9bf9-dc3274854ebf","system_id":"levelo_inurba_marseille","lat":43.3093,"lon":5.4015,"is_reserved":false,"is_disabled":false,"rental_uris":{"android":"levelo://app?vid=4517b0ca-5586-48b6-9bf9-dc3274854ebf","ios":"levelo://app?vid=4517b0ca-5586-48b6-9bf9-dc3274854ebf"},"vehicle_type_id":"4","last_reported":1728434658,"current_range_meters":24800,"station_id":"ce4bgvp2rcd13ifvqct0","pricing_plan_id":"cebpf4jnsgd1na2vs0mg"},{"bike_id":"066ccb90-6b9a-4302-bde4-9c97dfce747d","system_id":"levelo_inurba_marseille","lat":43.337245,"lon":5.391941,"is_reserved":false,"is_disabled":false,"rental_uris":{"android":"levelo://app?vid=066ccb90-6b9a-4302-bde4-9c97dfce747d","ios":"levelo://app?vid=066ccb90-6b9a-4302-bde4-9c97dfce747d"},"vehicle_type_id":"4","last_reported":1728434658,"current_range_meters":34000,"station_id":"ce4bhr92rcd13ifvqhsg","pricing_plan_id":"cebpf4jnsgd1na2vs0mg"},{"bike_id":"0f5e5a18-f4da-4c3c-9a4f-f41090bc7661","system_id":"levelo_inurba_marseille","lat":43.31999,"lon":5.38154,"is_reserved":false,"is_disabled":false,"rental_uris":{"android":"levelo://app?vid=0f5e5a18-f4da-4c3c-9a4f-f41090bc7661","ios":"levelo://app?vid=0f5e5a18-f4da-4c3c-9a4f-f41090bc7661"},"vehicle_type_id":"4","last_reported":1728434658,"current_range_meters":24800,"station_id":"ce4bhr12rcd13ifvqhpg","pricing_plan_id":"cebpf4jnsgd1na2vs0mg"},{"bike_id":"78162ca2-a873-4095-b3f0-b96c3db339b0","system_id":"levelo_inurba_marseille","lat":43.28459,"lon":5.35894,"is_reserved":false,"is_disabled":false,"rental_uris":{"android":"levelo://app?vid=78162ca2-a873-4095-b3f0-b96c3db339b0","ios":"levelo://app?vid=78162ca2-a873-4095-b3f0-b96c3db339b0"},"vehicle_type_id":"4","last_reported":1728434658,"current_range_meters":37600,"station_id":"ce4bhah2rcd13ifvqei0","pricing_plan_id":"cebpf4jnsgd1na2vs0mg"},{"bike_id":"26deb83c-7d31-49fc-aca5-bc881f64f0bf","system_id":"levelo_inurba_marseille","lat":43.31171,"lon":5.38708,"is_reserved":false,"is_disabled":false,"rental_uris":{"android":"levelo://app?vid=26deb83c-7d31-49fc-aca5-bc881f64f0bf","ios":"levelo://app?vid=26deb83c-7d31-49fc-aca5-bc881f64f0bf"},"vehicle_type_id":"4","last_reported":1728434658,"current_range_meters":38400,"station_id":"ce4bgv12rcd13ifvqcp0","pricing_plan_id":"cebpf4jnsgd1na2vs0mg"},{"bike_id":"ed562e92-c866-45b4-8326-59263b0e5fa7","system_id":"levelo_inurba_marseille","lat":43.31166,"lon":5.38719,"is_reserved":false,"is_disabled":false,"rental_uris":{"android":"levelo://app?vid=ed562e92-c866-45b4-8326-59263b0e5fa7","ios":"levelo://app?vid=ed562e92-c866-45b4-8326-59263b0e5fa7"},"vehicle_type_id":"4","last_reported":1728434658,"current_range_meters":33600,"station_id":"ce4bgv12rcd13ifvqcp0","pricing_plan_id":"cebpf4jnsgd1na2vs0mg"},{"bike_id":"8c81a4b1-7025-4920-b034-cfb8aa6a4141","system_id":"levelo_inurba_marseille","lat":43.33609,"lon":5.41023,"is_reserved":false,"is_disabled":false,"rental_uris":{"android":"levelo://app?vid=8c81a4b1-7025-4920-b034-cfb8aa6a4141","ios":"levelo://app?vid=8c81a4b1-7025-4920-b034-cfb8aa6a4141"},"vehicle_type_id":"4","last_reported":1728434658,"current_range_meters":38800,"station_id":"ce4bhqh2rcd13ifvqhmg","pricing_plan_id":"cebpf4jnsgd1na2vs0mg"},{"bike_id":"35db5aab-a536-4286-87d7-90ec43783f24","system_id":"levelo_inurba_marseille","lat":43.23196,"lon":5.35553,"is_reserved":false,"is_disabled":false,"rental_uris":{"android":"levelo://app?vid=35db5aab-a536-4286-87d7-90ec43783f24","ios":"levelo://app?vid=35db5aab-a536-4286-87d7-90ec43783f24"},"vehicle_type_id":"4","last_reported":1728434658,"current_range_meters":27600,"station_id":"ce4bhu92rcd13ifvqi70","pricing_plan_id":"cebpf4jnsgd1na2vs0mg"},{"bike_id":"958a4695-4e83-43eb-ad4e-ced4abf9d2fb","system_id":"levelo_inurba_marseille","lat":43.2895,"lon":5.36407,"is_reserved":false,"is_disabled":false,"rental_uris":{"android":"levelo://app?vid=958a4695-4e83-43eb-ad4e-ced4abf9d2fb","ios":"levelo://app?vid=958a4695-4e83-43eb-ad4e-ced4abf9d2fb"},"vehicle_type_id":"4","last_reported":1728434658,"current_range_meters":38000,"station_id":"ce4bhc92rcd13ifvqetg","pricing_plan_id":"cebpf4jnsgd1na2vs0mg"},{"bike_id":"c93754a0-7901-47c2-8cd6-f99824f44ef4","system_id":"levelo_inurba_marseille","lat":43.33729,"lon":5.39186,"is_reserved":false,"is_disabled":false,"rental_uris":{"android":"levelo://app?vid=c93754a0-7901-47c2-8cd6-f99824f44ef4","ios":"levelo://app?vid=c93754a0-7901-47c2-8cd6-f99824f44ef4"},"vehicle_type_id":"4","last_reported":1728434658,"current_range_meters":38000,"station_id":"ce4bhr92rcd13ifvqhsg","pricing_plan_id":"cebpf4jnsgd1na2vs0mg"},{"bike_id":"f8651fb9-6db1-42c3-b707-a0153b1d457b","system_id":"levelo_inurba_marseille","lat":43.23184,"lon":5.39984,"is_reserved":false,"is_disabled":false,"rental_uris":{"android":"levelo://app?vid=f8651fb9-6db1-42c3-b707-a0153b1d457b","ios":"levelo://app?vid=f8651fb9-6db1-42c3-b707-a0153b1d457b"},"vehicle_type_id":"4","last_reported":1728434658,"current_range_meters":6400,"station_id":"ce4bhn12rcd13ifvqgqg","pricing_plan_id":"cebpf4jnsgd1na2vs0mg"},{"bike_id":"58df3b6c-dd3d-45e8-bdec-33bb836515c1","system_id":"levelo_inurba_marseille","lat":43.30418,"lon":5.41297,"is_reserved":false,"is_disabled":false,"rental_uris":{"android":"levelo://app?vid=58df3b6c-dd3d-45e8-bdec-33bb836515c1","ios":"levelo://app?vid=58df3b6c-dd3d-45e8-bdec-33bb836515c1"},"vehicle_type_id":"4","last_reported":1728434658,"current_range_meters":28000,"station_id":"ce4bhop2rcd13ifvqh8g","pricing_plan_id":"cebpf4jnsgd1na2vs0mg"},{"bike_id":"cf04dd36-45fa-4484-802b-f0a1fce41782","system_id":"levelo_inurba_marseille","lat":43.2811,"lon":5.37838,"is_reserved":false,"is_disabled":false,"rental_uris":{"android":"levelo://app?vid=cf04dd36-45fa-4484-802b-f0a1fce41782","ios":"levelo://app?vid=cf04dd36-45fa-4484-802b-f0a1fce41782"},"vehicle_type_id":"4","last_reported":1728434658,"current_range_meters":37600,"station_id":"ce4bha12rcd13ifvqee0","pricing_plan_id":"cebpf4jnsgd1na2vs0mg"},{"bike_id":"07798584-af35-4cb1-bb20-dbce495e83ea","system_id":"levelo_inurba_marseille","lat":43.28037,"lon":5.36942,"is_reserved":false,"is_disabled":false,"rental_uris":{"android":"levelo://app?vid=07798584-af35-4cb1-bb20-dbce495e83ea","ios":"levelo://app?vid=07798584-af35-4cb1-bb20-dbce495e83ea"},"vehicle_type_id":"4","last_reported":1728434658,"current_range_meters":38800,"station_id":"ce4bha12rcd13ifvqef0","pricing_plan_id":"cebpf4jnsgd1na2vs0mg"},{"bike_id":"f2ca1e44-e304-48eb-ae87-fe965c250b6f","system_id":"levelo_inurba_marseille","lat":43.2467,"lon":5.38159,"is_reserved":false,"is_disabled":false,"rental_uris":{"android":"levelo://app?vid=f2ca1e44-e304-48eb-ae87-fe965c250b6f","ios":"levelo://app?vid=f2ca1e44-e304-48eb-ae87-fe965c250b6f"},"vehicle_type_id":"4","last_reported":1728434658,"current_range_meters":38800,"station_id":"ce4bhih2rcd13ifvqfr0","pricing_plan_id":"cebpf4jnsgd1na2vs0mg"},{"bike_id":"2795bedb-4905-4643-86e1-987aafd52090","system_id":"levelo_inurba_marseille","lat":43.24078,"lon":5.37754,"is_reserved":false,"is_disabled":false,"rental_uris":{"android":"levelo://app?vid=2795bedb-4905-4643-86e1-987aafd52090","ios":"levelo://app?vid=2795bedb-4905-4643-86e1-987aafd52090"},"vehicle_type_id":"4","last_reported":1728434658,"current_range_meters":38000,"station_id":"ce4bhnp2rcd13ifvqgvg","pricing_plan_id":"cebpf4jnsgd1na2vs0mg"},{"bike_id":"4700db27-b328-4da7-b5f9-137896b15491","system_id":"levelo_inurba_marseille","lat":43.27805,"lon":5.40717,"is_reserved":false,"is_disabled":false,"rental_uris":{"android":"levelo://app?vid=4700db27-b328-4da7-b5f9-137896b15491","ios":"levelo://app?vid=4700db27-b328-4da7-b5f9-137896b15491"},"vehicle_type_id":"4","last_reported":1728434658,"current_range_meters":30000,"station_id":"ce4bhnh2rcd13ifvqgtg","pricing_plan_id":"cebpf4jnsgd1na2vs0mg"},{"bike_id":"c2718e9a-14b3-4c6e-9c95-ece768c509e1","system_id":"levelo_inurba_marseille","lat":43.29279,"lon":5.4014,"is_reserved":false,"is_disabled":false,"rental_uris":{"android":"levelo://app?vid=c2718e9a-14b3-4c6e-9c95-ece768c509e1","ios":"levelo://app?vid=c2718e9a-14b3-4c6e-9c95-ece768c509e1"},"vehicle_type_id":"4","last_reported":1728434658,"current_range_meters":38400,"station_id":"ce4bh312rcd13ifvqdk0","pricing_plan_id":"cebpf4jnsgd1na2vs0mg"},{"bike_id":"84a25c78-53fb-4e69-92f5-1e9f12b485cd","system_id":"levelo_inurba_marseille","lat":43.28704,"lon":5.39996,"is_reserved":false,"is_disabled":false,"rental_uris":{"android":"levelo://app?vid=84a25c78-53fb-4e69-92f5-1e9f12b485cd","ios":"levelo://app?vid=84a25c78-53fb-4e69-92f5-1e9f12b485cd"},"vehicle_type_id":"4","last_reported":1728434658,"current_range_meters":38800,"station_id":"ce4bho92rcd13ifvqh3g","pricing_plan_id":"cebpf4jnsgd1na2vs0mg"},{"bike_id":"9dcfb907-c7dd-4c2d-a961-3d4ea695a7fe","system_id":"levelo_inurba_marseille","lat":43.28606,"lon":5.35108,"is_reserved":false,"is_disabled":false,"rental_uris":{"android":"levelo://app?vid=9dcfb907-c7dd-4c2d-a961-3d4ea695a7fe","ios":"levelo://app?vid=9dcfb907-c7dd-4c2d-a961-3d4ea695a7fe"},"vehicle_type_id":"4","last_reported":1728434658,"current_range_meters":10800,"station_id":"ce4bhch2rcd13ifvqeug","pricing_plan_id":"cebpf4jnsgd1na2vs0mg"},{"bike_id":"1de0dda2-2f7b-47b3-8ba2-3c1df56f1211","system_id":"levelo_inurba_marseille","lat":43.2572,"lon":5.41105,"is_reserved":false,"is_disabled":false,"rental_uris":{"android":"levelo://app?vid=1de0dda2-2f7b-47b3-8ba2-3c1df56f1211","ios":"levelo://app?vid=1de0dda2-2f7b-47b3-8ba2-3c1df56f1211"},"vehicle_type_id":"4","last_reported":1728434658,"current_range_meters":38800,"station_id":"ce4bhkp2rcd13ifvqgd0","pricing_plan_id":"cebpf4jnsgd1na2vs0mg"},{"bike_id":"8f44e2c8-4083-4df2-814d-6c39861952bd","system_id":"levelo_inurba_marseille","lat":43.24168,"lon":5.36398,"is_reserved":false,"is_disabled":false,"rental_uris":{"android":"levelo://app?vid=8f44e2c8-4083-4df2-814d-6c39861952bd","ios":"levelo://app?vid=8f44e2c8-4083-4df2-814d-6c39861952bd"},"vehicle_type_id":"4","last_reported":1728434658,"current_range_meters":38800,"station_id":"cpo36qri1sfpv3e86is0","pricing_plan_id":"cebpf4jnsgd1na2vs0mg"},{"bike_id":"14578538-07ea-4061-88ab-838f1fb2830e","system_id":"levelo_inurba_marseille","lat":43.28701,"lon":5.39982,"is_reserved":false,"is_disabled":false,"rental_uris":{"android":"levelo://app?vid=14578538-07ea-4061-88ab-838f1fb2830e","ios":"levelo://app?vid=14578538-07ea-4061-88ab-838f1fb2830e"},"vehicle_type_id":"4","last_reported":1728434658,"current_range_meters":38800,"station_id":"ce4bho92rcd13ifvqh3g","pricing_plan_id":"cebpf4jnsgd1na2vs0mg"},{"bike_id":"7c215b2b-d171-4274-a2bc-6e3f486b6e46","system_id":"levelo_inurba_marseille","lat":43.308,"lon":5.38157,"is_reserved":false,"is_disabled":false,"rental_uris":{"android":"levelo://app?vid=7c215b2b-d171-4274-a2bc-6e3f486b6e46","ios":"levelo://app?vid=7c215b2b-d171-4274-a2bc-6e3f486b6e46"},"vehicle_type_id":"4","last_reported":1728434658,"current_range_meters":6000,"station_id":"ce4bgt12rcd13ifvqce0","pricing_plan_id":"cebpf4jnsgd1na2vs0mg"},{"bike_id":"5d3a7879-3cf7-43b9-93ee-26b51bccbad5","system_id":"levelo_inurba_marseille","lat":43.32334,"lon":5.40618,"is_reserved":false,"is_disabled":false,"rental_uris":{"android":"levelo://app?vid=5d3a7879-3cf7-43b9-93ee-26b51bccbad5","ios":"levelo://app?vid=5d3a7879-3cf7-43b9-93ee-26b51bccbad5"},"vehicle_type_id":"4","last_reported":1728434658,"current_range_meters":32400,"station_id":"ce4bhq92rcd13ifvqhjg","pricing_plan_id":"cebpf4jnsgd1na2vs0mg"},{"bike_id":"17afa167-77cd-4d8b-a45a-e9cce985f678","system_id":"levelo_inurba_marseille","lat":43.27906,"lon":5.38018,"is_reserved":false,"is_disabled":false,"rental_uris":{"android":"levelo://app?vid=17afa167-77cd-4d8b-a45a-e9cce985f678","ios":"levelo://app?vid=17afa167-77cd-4d8b-a45a-e9cce985f678"},"vehicle_type_id":"4","last_reported":1728434658,"current_range_meters":39200,"station_id":"ce4bhf92rcd13ifvqf50","pricing_plan_id":"cebpf4jnsgd1na2vs0mg"},{"bike_id":"2f45b26e-94ba-4f51-9791-a64c6b18c2a5","system_id":"levelo_inurba_marseille","lat":43.24667,"lon":5.38156,"is_reserved":false,"is_disabled":false,"rental_uris":{"android":"levelo://app?vid=2f45b26e-94ba-4f51-9791-a64c6b18c2a5","ios":"levelo://app?vid=2f45b26e-94ba-4f51-9791-a64c6b18c2a5"},"vehicle_type_id":"4","last_reported":1728434658,"current_range_meters":38800,"station_id":"ce4bhih2rcd13ifvqfr0","pricing_plan_id":"cebpf4jnsgd1na2vs0mg"},{"bike_id":"72f390d6-8036-4225-a9fd-bbdc6e34eeea","system_id":"levelo_inurba_marseille","lat":43.23186,"lon":5.39999,"is_reserved":false,"is_disabled":false,"rental_uris":{"android":"levelo://app?vid=72f390d6-8036-4225-a9fd-bbdc6e34eeea","ios":"levelo://app?vid=72f390d6-8036-4225-a9fd-bbdc6e34eeea"},"vehicle_type_id":"4","last_reported":1728434658,"current_range_meters":35600,"station_id":"ce4bhn12rcd13ifvqgqg","pricing_plan_id":"cebpf4jnsgd1na2vs0mg"},{"bike_id":"714107bd-ae76-4985-a869-3353cdfa3255","system_id":"levelo_inurba_marseille","lat":43.32289,"lon":5.38269,"is_reserved":false,"is_disabled":false,"rental_uris":{"android":"levelo://app?vid=714107bd-ae76-4985-a869-3353cdfa3255","ios":"levelo://app?vid=714107bd-ae76-4985-a869-3353cdfa3255"},"vehicle_type_id":"4","last_reported":1728434658,"current_range_meters":38800,"station_id":"ce4bhr12rcd13ifvqhqg","pricing_plan_id":"cebpf4jnsgd1na2vs0mg"},{"bike_id":"7349a4ac-55f1-4d99-9645-68ef0bb4f3b7","system_id":"levelo_inurba_marseille","lat":43.24803,"lon":5.37452,"is_reserved":false,"is_disabled":false,"rental_uris":{"android":"levelo://app?vid=7349a4ac-55f1-4d99-9645-68ef0bb4f3b7","ios":"levelo://app?vid=7349a4ac-55f1-4d99-9645-68ef0bb4f3b7"},"vehicle_type_id":"4","last_reported":1728434658,"current_range_meters":38800,"station_id":"ce4bhgh2rcd13ifvqfb0","pricing_plan_id":"cebpf4jnsgd1na2vs0mg"},{"bike_id":"2bb8ae6c-7b17-45f6-ae2f-a94631598955","system_id":"levelo_inurba_marseille","lat":43.22929,"lon":5.35379,"is_reserved":false,"is_disabled":false,"rental_uris":{"android":"levelo://app?vid=2bb8ae6c-7b17-45f6-ae2f-a94631598955","ios":"levelo://app?vid=2bb8ae6c-7b17-45f6-ae2f-a94631598955"},"vehicle_type_id":"4","last_reported":1728434658,"current_range_meters":19200,"station_id":"cpo3532slgdg3j2ikp40","pricing_plan_id":"cebpf4jnsgd1na2vs0mg"},{"bike_id":"aef699d7-fbe2-4182-8087-8dbbaca62417","system_id":"levelo_inurba_marseille","lat":43.30547,"lon":5.3672,"is_reserved":false,"is_disabled":false,"rental_uris":{"android":"levelo://app?vid=aef699d7-fbe2-4182-8087-8dbbaca62417","ios":"levelo://app?vid=aef699d7-fbe2-4182-8087-8dbbaca62417"},"vehicle_type_id":"4","last_reported":1728434658,"current_range_meters":29600,"station_id":"ce4bgrp2rcd13ifvqc9g","pricing_plan_id":"cebpf4jnsgd1na2vs0mg"},{"bike_id":"1108f945-2562-4a37-b07f-6ae5d87c264e","system_id":"levelo_inurba_marseille","lat":43.337444,"lon":5.374475,"is_reserved":false,"is_disabled":false,"rental_uris":{"android":"levelo://app?vid=1108f945-2562-4a37-b07f-6ae5d87c264e","ios":"levelo://app?vid=1108f945-2562-4a37-b07f-6ae5d87c264e"},"vehicle_type_id":"4","last_reported":1728434658,"current_range_meters":35600,"station_id":"","pricing_plan_id":"cebpf4jnsgd1na2vs0mg"},{"bike_id":"7fc470c2-fbc0-4a14-bcaa-2e4461b39bbf","system_id":"levelo_inurba_marseille","lat":43.28734,"lon":5.36084,"is_reserved":false,"is_disabled":false,"rental_uris":{"android":"levelo://app?vid=7fc470c2-fbc0-4a14-bcaa-2e4461b39bbf","ios":"levelo://app?vid=7fc470c2-fbc0-4a14-bcaa-2e4461b39bbf"},"vehicle_type_id":"4","last_reported":1728434658,"current_range_meters":6800,"station_id":"cki0cbj6b192h4jlfktg","pricing_plan_id":"cebpf4jnsgd1na2vs0mg"},{"bike_id":"8bd6fd30-094c-4d3f-8529-044837d92131","system_id":"levelo_inurba_marseille","lat":43.27177,"lon":5.40988,"is_reserved":false,"is_disabled":false,"rental_uris":{"android":"levelo://app?vid=8bd6fd30-094c-4d3f-8529-044837d92131","ios":"levelo://app?vid=8bd6fd30-094c-4d3f-8529-044837d92131"},"vehicle_type_id":"4","last_reported":1728434658,"current_range_meters":28400,"station_id":"ce4bhl12rcd13ifvqgf0","pricing_plan_id":"cebpf4jnsgd1na2vs0mg"},{"bike_id":"b4c76401-0432-4f05-908b-d6e6c8549326","system_id":"levelo_inurba_marseille","lat":43.31324,"lon":5.39691,"is_reserved":false,"is_disabled":false,"rental_uris":{"android":"levelo://app?vid=b4c76401-0432-4f05-908b-d6e6c8549326","ios":"levelo://app?vid=b4c76401-0432-4f05-908b-d6e6c8549326"},"vehicle_type_id":"4","last_reported":1728434658,"current_range_meters":38400,"station_id":"ce4bgvp2rcd13ifvqcu0","pricing_plan_id":"cebpf4jnsgd1na2vs0mg"},{"bike_id":"d97ef086-b101-46be-b171-9933c814020e","system_id":"levelo_inurba_marseille","lat":43.32541,"lon":5.41436,"is_reserved":false,"is_disabled":false,"rental_uris":{"android":"levelo://app?vid=d97ef086-b101-46be-b171-9933c814020e","ios":"levelo://app?vid=d97ef086-b101-46be-b171-9933c814020e"},"vehicle_type_id":"4","last_reported":1728434658,"current_range_meters":24400,"station_id":"ce4bhq12rcd13ifvqhhg","pricing_plan_id":"cebpf4jnsgd1na2vs0mg"},{"bike_id":"c3dcfaf8-ee35-41a9-9bbb-2f3cd3374475","system_id":"levelo_inurba_marseille","lat":43.31692,"lon":5.40469,"is_reserved":false,"is_disabled":false,"rental_uris":{"android":"levelo://app?vid=c3dcfaf8-ee35-41a9-9bbb-2f3cd3374475","ios":"levelo://app?vid=c3dcfaf8-ee35-41a9-9bbb-2f3cd3374475"},"vehicle_type_id":"4","last_reported":1728434658,"current_range_meters":38800,"station_id":"ce4bh012rcd13ifvqd00","pricing_plan_id":"cebpf4jnsgd1na2vs0mg"},{"bike_id":"c887f412-ea8d-487c-ab0e-69fd90f37ecb","system_id":"levelo_inurba_marseille","lat":43.336,"lon":5.41015,"is_reserved":false,"is_disabled":false,"rental_uris":{"android":"levelo://app?vid=c887f412-ea8d-487c-ab0e-69fd90f37ecb","ios":"levelo://app?vid=c887f412-ea8d-487c-ab0e-69fd90f37ecb"},"vehicle_type_id":"4","last_reported":1728434658,"current_range_meters":38800,"station_id":"ce4bhqh2rcd13ifvqhmg","pricing_plan_id":"cebpf4jnsgd1na2vs0mg"},{"bike_id":"b2d703e6-d826-4cbc-9e49-facc3ed591fb","system_id":"levelo_inurba_marseille","lat":43.28715,"lon":5.39988,"is_reserved":false,"is_disabled":false,"rental_uris":{"android":"levelo://app?vid=b2d703e6-d826-4cbc-9e49-facc3ed591fb","ios":"levelo://app?vid=b2d703e6-d826-4cbc-9e49-facc3ed591fb"},"vehicle_type_id":"4","last_reported":1728434658,"current_range_meters":38800,"station_id":"ce4bho92rcd13ifvqh3g","pricing_plan_id":"cebpf4jnsgd1na2vs0mg"},{"bike_id":"7068c100-70e7-4102-96d3-eed41161479f","system_id":"levelo_inurba_marseille","lat":43.25866,"lon":5.39899,"is_reserved":false,"is_disabled":false,"rental_uris":{"android":"levelo://app?vid=7068c100-70e7-4102-96d3-eed41161479f","ios":"levelo://app?vid=7068c100-70e7-4102-96d3-eed41161479f"},"vehicle_type_id":"4","last_reported":1728434658,"current_range_meters":38800,"station_id":"ce4bhl92rcd13ifvqghg","pricing_plan_id":"cebpf4jnsgd1na2vs0mg"},{"bike_id":"0717f2ed-bd1a-494c-a39d-d14168cdcaeb","system_id":"levelo_inurba_marseille","lat":43.25858,"lon":5.39902,"is_reserved":false,"is_disabled":false,"rental_uris":{"android":"levelo://app?vid=0717f2ed-bd1a-494c-a39d-d14168cdcaeb","ios":"levelo://app?vid=0717f2ed-bd1a-494c-a39d-d14168cdcaeb"},"vehicle_type_id":"4","last_reported":1728434658,"current_range_meters":12000,"station_id":"ce4bhl92rcd13ifvqghg","pricing_plan_id":"cebpf4jnsgd1na2vs0mg"},{"bike_id":"c12c46a4-bd86-493d-803e-5d507cd7924b","system_id":"levelo_inurba_marseille","lat":43.23196,"lon":5.35544,"is_reserved":false,"is_disabled":false,"rental_uris":{"android":"levelo://app?vid=c12c46a4-bd86-493d-803e-5d507cd7924b","ios":"levelo://app?vid=c12c46a4-bd86-493d-803e-5d507cd7924b"},"vehicle_type_id":"4","last_reported":1728434658,"current_range_meters":16000,"station_id":"ce4bhu92rcd13ifvqi70","pricing_plan_id":"cebpf4jnsgd1na2vs0mg"},{"bike_id":"1e22ea5d-d406-4b63-92d6-06a783dc0af8","system_id":"levelo_inurba_marseille","lat":43.23182,"lon":5.3998,"is_reserved":false,"is_disabled":false,"rental_uris":{"android":"levelo://app?vid=1e22ea5d-d406-4b63-92d6-06a783dc0af8","ios":"levelo://app?vid=1e22ea5d-d406-4b63-92d6-06a783dc0af8"},"vehicle_type_id":"4","last_reported":1728434658,"current_range_meters":15200,"station_id":"ce4bhn12rcd13ifvqgqg","pricing_plan_id":"cebpf4jnsgd1na2vs0mg"},{"bike_id":"8342a0a5-17b2-4524-a2d2-e2cbce1247d1","system_id":"levelo_inurba_marseille","lat":43.25093,"lon":5.39516,"is_reserved":false,"is_disabled":false,"rental_uris":{"android":"levelo://app?vid=8342a0a5-17b2-4524-a2d2-e2cbce1247d1","ios":"levelo://app?vid=8342a0a5-17b2-4524-a2d2-e2cbce1247d1"},"vehicle_type_id":"4","last_reported":1728434658,"current_range_meters":12400,"station_id":"ce4bhm12rcd13ifvqgkg","pricing_plan_id":"cebpf4jnsgd1na2vs0mg"},{"bike_id":"e7c5992f-7492-40be-b975-686fdbc74928","system_id":"levelo_inurba_marseille","lat":43.293053,"lon":5.374529,"is_reserved":false,"is_disabled":false,"rental_uris":{"android":"levelo://app?vid=e7c5992f-7492-40be-b975-686fdbc74928","ios":"levelo://app?vid=e7c5992f-7492-40be-b975-686fdbc74928"},"vehicle_type_id":"4","last_reported":1728434658,"current_range_meters":22400,"station_id":"ce4bhi12rcd13ifvqfq0","pricing_plan_id":"cebpf4jnsgd1na2vs0mg"},{"bike_id":"662f4970-f45a-4eb7-8b5b-5f2d14dbdf57","system_id":"levelo_inurba_marseille","lat":43.26681,"lon":5.3828,"is_reserved":false,"is_disabled":false,"rental_uris":{"android":"levelo://app?vid=662f4970-f45a-4eb7-8b5b-5f2d14dbdf57","ios":"levelo://app?vid=662f4970-f45a-4eb7-8b5b-5f2d14dbdf57"},"vehicle_type_id":"4","last_reported":1728434658,"current_range_meters":35200,"station_id":"ce4bhg92rcd13ifvqf90","pricing_plan_id":"cebpf4jnsgd1na2vs0mg"},{"bike_id":"ebbe9305-8d38-453e-9b7f-2d43ee783e63","system_id":"levelo_inurba_marseille","lat":43.28845,"lon":5.37034,"is_reserved":false,"is_disabled":false,"rental_uris":{"android":"levelo://app?vid=ebbe9305-8d38-453e-9b7f-2d43ee783e63","ios":"levelo://app?vid=ebbe9305-8d38-453e-9b7f-2d43ee783e63"},"vehicle_type_id":"4","last_reported":1728434658,"current_range_meters":28400,"station_id":"","pricing_plan_id":"cebpf4jnsgd1na2vs0mg"},{"bike_id":"0574c1a0-3cc8-4f7d-b926-8637ca5584a1","system_id":"levelo_inurba_marseille","lat":43.28274,"lon":5.35074,"is_reserved":false,"is_disabled":false,"rental_uris":{"android":"levelo://app?vid=0574c1a0-3cc8-4f7d-b926-8637ca5584a1","ios":"levelo://app?vid=0574c1a0-3cc8-4f7d-b926-8637ca5584a1"},"vehicle_type_id":"4","last_reported":1728434658,"current_range_meters":38000,"station_id":"ce4bhbp2rcd13ifvqerg","pricing_plan_id":"cebpf4jnsgd1na2vs0mg"},{"bike_id":"49b65ce5-2e92-45f9-b37a-0ea6f1abcc01","system_id":"levelo_inurba_marseille","lat":43.29631,"lon":5.40595,"is_reserved":false,"is_disabled":false,"rental_uris":{"android":"levelo://app?vid=49b65ce5-2e92-45f9-b37a-0ea6f1abcc01","ios":"levelo://app?vid=49b65ce5-2e92-45f9-b37a-0ea6f1abcc01"},"vehicle_type_id":"4","last_reported":1728434658,"current_range_meters":14400,"station_id":"ce4bh0h2rcd13ifvqd60","pricing_plan_id":"cebpf4jnsgd1na2vs0mg"},{"bike_id":"ff37f7e1-e99a-4b52-86d8-31b7b45f3954","system_id":"levelo_inurba_marseille","lat":43.31073,"lon":5.38362,"is_reserved":false,"is_disabled":false,"rental_uris":{"android":"levelo://app?vid=ff37f7e1-e99a-4b52-86d8-31b7b45f3954","ios":"levelo://app?vid=ff37f7e1-e99a-4b52-86d8-31b7b45f3954"},"vehicle_type_id":"4","last_reported":1728434658,"current_range_meters":38400,"station_id":"ce4bgv92rcd13ifvqcr0","pricing_plan_id":"cebpf4jnsgd1na2vs0mg"},{"bike_id":"c0691f4d-dfb2-42e9-a4fe-2cf03229ac6d","system_id":"levelo_inurba_marseille","lat":43.28461,"lon":5.3589,"is_reserved":false,"is_disabled":false,"rental_uris":{"android":"levelo://app?vid=c0691f4d-dfb2-42e9-a4fe-2cf03229ac6d","ios":"levelo://app?vid=c0691f4d-dfb2-42e9-a4fe-2cf03229ac6d"},"vehicle_type_id":"4","last_reported":1728434658,"current_range_meters":39200,"station_id":"ce4bhah2rcd13ifvqei0","pricing_plan_id":"cebpf4jnsgd1na2vs0mg"},{"bike_id":"bfe5fe22-94f4-4b74-ae9d-12276765ac4b","system_id":"levelo_inurba_marseille","lat":43.27808,"lon":5.40701,"is_reserved":false,"is_disabled":false,"rental_uris":{"android":"levelo://app?vid=bfe5fe22-94f4-4b74-ae9d-12276765ac4b","ios":"levelo://app?vid=bfe5fe22-94f4-4b74-ae9d-12276765ac4b"},"vehicle_type_id":"4","last_reported":1728434658,"current_range_meters":34800,"station_id":"ce4bhnh2rcd13ifvqgtg","pricing_plan_id":"cebpf4jnsgd1na2vs0mg"},{"bike_id":"76b5739c-3fe8-4732-8926-2dbce7cf1045","system_id":"levelo_inurba_marseille","lat":43.27969,"lon":5.38741,"is_reserved":false,"is_disabled":false,"rental_uris":{"android":"levelo://app?vid=76b5739c-3fe8-4732-8926-2dbce7cf1045","ios":"levelo://app?vid=76b5739c-3fe8-4732-8926-2dbce7cf1045"},"vehicle_type_id":"4","last_reported":1728434658,"current_range_meters":36400,"station_id":"ce4bhg12rcd13ifvqf80","pricing_plan_id":"cebpf4jnsgd1na2vs0mg"},{"bike_id":"1f34bfe5-df22-4708-9f9d-c9c4647794f2","system_id":"levelo_inurba_marseille","lat":43.29521,"lon":5.37506,"is_reserved":false,"is_disabled":false,"rental_uris":{"android":"levelo://app?vid=1f34bfe5-df22-4708-9f9d-c9c4647794f2","ios":"levelo://app?vid=1f34bfe5-df22-4708-9f9d-c9c4647794f2"},"vehicle_type_id":"4","last_reported":1728434658,"current_range_meters":23200,"station_id":"ce4bgkp2rcd13ifvqbmg","pricing_plan_id":"cebpf4jnsgd1na2vs0mg"},{"bike_id":"ce0b03a7-4b03-4bd7-928b-a4a84159b584","system_id":"levelo_inurba_marseille","lat":43.23957,"lon":5.3663,"is_reserved":false,"is_disabled":false,"rental_uris":{"android":"levelo://app?vid=ce0b03a7-4b03-4bd7-928b-a4a84159b584","ios":"levelo://app?vid=ce0b03a7-4b03-4bd7-928b-a4a84159b584"},"vehicle_type_id":"4","last_reported":1728434658,"current_range_meters":38800,"station_id":"ce4bhi12rcd13ifvqfp0","pricing_plan_id":"cebpf4jnsgd1na2vs0mg"},{"bike_id":"0df931ef-1289-41f2-861a-73c4dec9ecc0","system_id":"levelo_inurba_marseille","lat":43.30329,"lon":5.40446,"is_reserved":false,"is_disabled":false,"rental_uris":{"android":"levelo://app?vid=0df931ef-1289-41f2-861a-73c4dec9ecc0","ios":"levelo://app?vid=0df931ef-1289-41f2-861a-73c4dec9ecc0"},"vehicle_type_id":"4","last_reported":1728434658,"current_range_meters":8400,"station_id":"ce4bh012rcd13ifvqd10","pricing_plan_id":"cebpf4jnsgd1na2vs0mg"},{"bike_id":"f2fb36e6-c40d-4117-91af-ee9819d24f58","system_id":"levelo_inurba_marseille","lat":43.2928,"lon":5.40122,"is_reserved":false,"is_disabled":false,"rental_uris":{"android":"levelo://app?vid=f2fb36e6-c40d-4117-91af-ee9819d24f58","ios":"levelo://app?vid=f2fb36e6-c40d-4117-91af-ee9819d24f58"},"vehicle_type_id":"4","last_reported":1728434658,"current_range_meters":35600,"station_id":"ce4bh312rcd13ifvqdk0","pricing_plan_id":"cebpf4jnsgd1na2vs0mg"},{"bike_id":"ec064514-133e-4489-9db9-c55c86f65b9b","system_id":"levelo_inurba_marseille","lat":43.28087,"lon":5.39662,"is_reserved":false,"is_disabled":false,"rental_uris":{"android":"levelo://app?vid=ec064514-133e-4489-9db9-c55c86f65b9b","ios":"levelo://app?vid=ec064514-133e-4489-9db9-c55c86f65b9b"},"vehicle_type_id":"4","last_reported":1728434658,"current_range_meters":38400,"station_id":"ce4bho12rcd13ifvqh2g","pricing_plan_id":"cebpf4jnsgd1na2vs0mg"},{"bike_id":"ceb62acd-7dd2-4d3d-b3f8-de35fbdf5f47","system_id":"levelo_inurba_marseille","lat":43.30886,"lon":5.39649,"is_reserved":false,"is_disabled":false,"rental_uris":{"android":"levelo://app?vid=ceb62acd-7dd2-4d3d-b3f8-de35fbdf5f47","ios":"levelo://app?vid=ceb62acd-7dd2-4d3d-b3f8-de35fbdf5f47"},"vehicle_type_id":"4","last_reported":1728434658,"current_range_meters":36400,"station_id":"ce4bh012rcd13ifvqcv0","pricing_plan_id":"cebpf4jnsgd1na2vs0mg"},{"bike_id":"f7e33ae8-a9d3-41ff-9b7d-88856e2948b5","system_id":"levelo_inurba_marseille","lat":43.23054,"lon":5.35488,"is_reserved":false,"is_disabled":false,"rental_uris":{"android":"levelo://app?vid=f7e33ae8-a9d3-41ff-9b7d-88856e2948b5","ios":"levelo://app?vid=f7e33ae8-a9d3-41ff-9b7d-88856e2948b5"},"vehicle_type_id":"4","last_reported":1728434658,"current_range_meters":38800,"station_id":"cpo3342slgdg3j2ifvpg","pricing_plan_id":"cebpf4jnsgd1na2vs0mg"},{"bike_id":"47310f57-4821-46eb-a9c5-bf781b07c0f8","system_id":"levelo_inurba_marseille","lat":43.30237,"lon":5.40064,"is_reserved":false,"is_disabled":false,"rental_uris":{"android":"levelo://app?vid=47310f57-4821-46eb-a9c5-bf781b07c0f8","ios":"levelo://app?vid=47310f57-4821-46eb-a9c5-bf781b07c0f8"},"vehicle_type_id":"4","last_reported":1728434658,"current_range_meters":27600,"station_id":"ce4bgvh2rcd13ifvqcs0","pricing_plan_id":"cebpf4jnsgd1na2vs0mg"},{"bike_id":"a96960fb-1ae0-4688-92ce-8bc122ef6c6a","system_id":"levelo_inurba_marseille","lat":43.31325,"lon":5.39699,"is_reserved":false,"is_disabled":false,"rental_uris":{"android":"levelo://app?vid=a96960fb-1ae0-4688-92ce-8bc122ef6c6a","ios":"levelo://app?vid=a96960fb-1ae0-4688-92ce-8bc122ef6c6a"},"vehicle_type_id":"4","last_reported":1728434658,"current_range_meters":38800,"station_id":"ce4bgvp2rcd13ifvqcu0","pricing_plan_id":"cebpf4jnsgd1na2vs0mg"},{"bike_id":"ab58da5c-f39a-4108-8290-f35621db6eb5","system_id":"levelo_inurba_marseille","lat":43.31708,"lon":5.37754,"is_reserved":false,"is_disabled":false,"rental_uris":{"android":"levelo://app?vid=ab58da5c-f39a-4108-8290-f35621db6eb5","ios":"levelo://app?vid=ab58da5c-f39a-4108-8290-f35621db6eb5"},"vehicle_type_id":"4","last_reported":1728434658,"current_range_meters":38400,"station_id":"ce4bgth2rcd13ifvqch0","pricing_plan_id":"cebpf4jnsgd1na2vs0mg"},{"bike_id":"5168ceab-979d-43a1-b94c-e7bb32216aa9","system_id":"levelo_inurba_marseille","lat":43.30597,"lon":5.37216,"is_reserved":false,"is_disabled":false,"rental_uris":{"android":"levelo://app?vid=5168ceab-979d-43a1-b94c-e7bb32216aa9","ios":"levelo://app?vid=5168ceab-979d-43a1-b94c-e7bb32216aa9"},"vehicle_type_id":"4","last_reported":1728434658,"current_range_meters":36000,"station_id":"ce4bgqh2rcd13ifvqc4g","pricing_plan_id":"cebpf4jnsgd1na2vs0mg"},{"bike_id":"b8027c65-46fe-41c6-8a64-7db37d07dbc4","system_id":"levelo_inurba_marseille","lat":43.31997,"lon":5.38152,"is_reserved":false,"is_disabled":false,"rental_uris":{"android":"levelo://app?vid=b8027c65-46fe-41c6-8a64-7db37d07dbc4","ios":"levelo://app?vid=b8027c65-46fe-41c6-8a64-7db37d07dbc4"},"vehicle_type_id":"4","last_reported":1728434658,"current_range_meters":37600,"station_id":"ce4bhr12rcd13ifvqhpg","pricing_plan_id":"cebpf4jnsgd1na2vs0mg"},{"bike_id":"0285541c-6146-4e1c-a2ea-c54b685c3d25","system_id":"levelo_inurba_marseille","lat":43.295681,"lon":5.42322,"is_reserved":false,"is_disabled":false,"rental_uris":{"android":"levelo://app?vid=0285541c-6146-4e1c-a2ea-c54b685c3d25","ios":"levelo://app?vid=0285541c-6146-4e1c-a2ea-c54b685c3d25"},"vehicle_type_id":"4","last_reported":1728434658,"current_range_meters":39200,"station_id":"ce4bhph2rcd13ifvqhdg","pricing_plan_id":"cebpf4jnsgd1na2vs0mg"},{"bike_id":"1a16b4b2-3882-45ac-8e9c-156fab61c883","system_id":"levelo_inurba_marseille","lat":43.2707,"lon":5.42281,"is_reserved":false,"is_disabled":false,"rental_uris":{"android":"levelo://app?vid=1a16b4b2-3882-45ac-8e9c-156fab61c883","ios":"levelo://app?vid=1a16b4b2-3882-45ac-8e9c-156fab61c883"},"vehicle_type_id":"4","last_reported":1728434658,"current_range_meters":4400,"station_id":"ce4bhk92rcd13ifvqgb0","pricing_plan_id":"cebpf4jnsgd1na2vs0mg"},{"bike_id":"7227cd1a-1bab-4f19-a4b5-ba88a10c9913","system_id":"levelo_inurba_marseille","lat":43.25824,"lon":5.39436,"is_reserved":false,"is_disabled":false,"rental_uris":{"android":"levelo://app?vid=7227cd1a-1bab-4f19-a4b5-ba88a10c9913","ios":"levelo://app?vid=7227cd1a-1bab-4f19-a4b5-ba88a10c9913"},"vehicle_type_id":"4","last_reported":1728434658,"current_range_meters":38800,"station_id":"ce4bhip2rcd13ifvqft0","pricing_plan_id":"cebpf4jnsgd1na2vs0mg"},{"bike_id":"6e108dd4-4c65-48e3-92c3-d7d49f875bac","system_id":"levelo_inurba_marseille","lat":43.28347,"lon":5.38105,"is_reserved":false,"is_disabled":false,"rental_uris":{"android":"levelo://app?vid=6e108dd4-4c65-48e3-92c3-d7d49f875bac","ios":"levelo://app?vid=6e108dd4-4c65-48e3-92c3-d7d49f875bac"},"vehicle_type_id":"4","last_reported":1728434658,"current_range_meters":38000,"station_id":"ce4bh412rcd13ifvqdr0","pricing_plan_id":"cebpf4jnsgd1na2vs0mg"},{"bike_id":"e8f38f77-6572-42be-9296-0cbe6e7cb972","system_id":"levelo_inurba_marseille","lat":43.23054,"lon":5.35492,"is_reserved":false,"is_disabled":false,"rental_uris":{"android":"levelo://app?vid=e8f38f77-6572-42be-9296-0cbe6e7cb972","ios":"levelo://app?vid=e8f38f77-6572-42be-9296-0cbe6e7cb972"},"vehicle_type_id":"4","last_reported":1728434658,"current_range_meters":28800,"station_id":"cpo3342slgdg3j2ifvpg","pricing_plan_id":"cebpf4jnsgd1na2vs0mg"},{"bike_id":"d380ab9c-1c96-4b77-a08a-e8542ffe82c1","system_id":"levelo_inurba_marseille","lat":43.23198,"lon":5.35541,"is_reserved":false,"is_disabled":false,"rental_uris":{"android":"levelo://app?vid=d380ab9c-1c96-4b77-a08a-e8542ffe82c1","ios":"levelo://app?vid=d380ab9c-1c96-4b77-a08a-e8542ffe82c1"},"vehicle_type_id":"4","last_reported":1728434658,"current_range_meters":6400,"station_id":"ce4bhu92rcd13ifvqi70","pricing_plan_id":"cebpf4jnsgd1na2vs0mg"},{"bike_id":"9a963101-fba1-489f-ae6d-bbe98eb365c2","system_id":"levelo_inurba_marseille","lat":43.31361,"lon":5.38493,"is_reserved":false,"is_disabled":false,"rental_uris":{"android":"levelo://app?vid=9a963101-fba1-489f-ae6d-bbe98eb365c2","ios":"levelo://app?vid=9a963101-fba1-489f-ae6d-bbe98eb365c2"},"vehicle_type_id":"4","last_reported":1728434658,"current_range_meters":32800,"station_id":"ce4bgt92rcd13ifvqcf0","pricing_plan_id":"cebpf4jnsgd1na2vs0mg"},{"bike_id":"8773303d-c3d2-4b99-8f9f-2eb4e24fad51","system_id":"levelo_inurba_marseille","lat":43.25925,"lon":5.4091,"is_reserved":false,"is_disabled":false,"rental_uris":{"android":"levelo://app?vid=8773303d-c3d2-4b99-8f9f-2eb4e24fad51","ios":"levelo://app?vid=8773303d-c3d2-4b99-8f9f-2eb4e24fad51"},"vehicle_type_id":"4","last_reported":1728434658,"current_range_meters":38800,"station_id":"ce4bhm92rcd13ifvqglg","pricing_plan_id":"cebpf4jnsgd1na2vs0mg"},{"bike_id":"4f9e06d7-90c2-4722-86ad-ae66a813a129","system_id":"levelo_inurba_marseille","lat":43.23959,"lon":5.3663,"is_reserved":false,"is_disabled":false,"rental_uris":{"android":"levelo://app?vid=4f9e06d7-90c2-4722-86ad-ae66a813a129","ios":"levelo://app?vid=4f9e06d7-90c2-4722-86ad-ae66a813a129"},"vehicle_type_id":"4","last_reported":1728434658,"current_range_meters":32400,"station_id":"ce4bhi12rcd13ifvqfp0","pricing_plan_id":"cebpf4jnsgd1na2vs0mg"},{"bike_id":"1a312de3-74a7-445a-ba8d-2b9575083afb","system_id":"levelo_inurba_marseille","lat":43.32485,"lon":5.36582,"is_reserved":false,"is_disabled":false,"rental_uris":{"android":"levelo://app?vid=1a312de3-74a7-445a-ba8d-2b9575083afb","ios":"levelo://app?vid=1a312de3-74a7-445a-ba8d-2b9575083afb"},"vehicle_type_id":"4","last_reported":1728434658,"current_range_meters":38800,"station_id":"ce4bhs12rcd13ifvqhvg","pricing_plan_id":"cebpf4jnsgd1na2vs0mg"},{"bike_id":"e8f09d7c-8742-4833-a698-54878d39b10c","system_id":"levelo_inurba_marseille","lat":43.2827,"lon":5.3508,"is_reserved":false,"is_disabled":false,"rental_uris":{"android":"levelo://app?vid=e8f09d7c-8742-4833-a698-54878d39b10c","ios":"levelo://app?vid=e8f09d7c-8742-4833-a698-54878d39b10c"},"vehicle_type_id":"4","last_reported":1728434658,"current_range_meters":20800,"station_id":"ce4bhbp2rcd13ifvqerg","pricing_plan_id":"cebpf4jnsgd1na2vs0mg"},{"bike_id":"69227cd4-a9ef-43e9-b9a7-5881f7386579","system_id":"levelo_inurba_marseille","lat":43.30445,"lon":5.38904,"is_reserved":false,"is_disabled":false,"rental_uris":{"android":"levelo://app?vid=69227cd4-a9ef-43e9-b9a7-5881f7386579","ios":"levelo://app?vid=69227cd4-a9ef-43e9-b9a7-5881f7386579"},"vehicle_type_id":"4","last_reported":1728434658,"current_range_meters":37600,"station_id":"ce4bgk12rcd13ifvqbi0","pricing_plan_id":"cebpf4jnsgd1na2vs0mg"},{"bike_id":"1302f1d5-5433-4f37-bda5-bf64fc3e260b","system_id":"levelo_inurba_marseille","lat":43.29876,"lon":5.39734,"is_reserved":false,"is_disabled":false,"rental_uris":{"android":"levelo://app?vid=1302f1d5-5433-4f37-bda5-bf64fc3e260b","ios":"levelo://app?vid=1302f1d5-5433-4f37-bda5-bf64fc3e260b"},"vehicle_type_id":"4","last_reported":1728434658,"current_range_meters":3600,"station_id":"ce4bh0h2rcd13ifvqd50","pricing_plan_id":"cebpf4jnsgd1na2vs0mg"},{"bike_id":"27990b65-6928-4044-8b6b-0fd7c4f76242","system_id":"levelo_inurba_marseille","lat":43.29867,"lon":5.39735,"is_reserved":false,"is_disabled":false,"rental_uris":{"android":"levelo://app?vid=27990b65-6928-4044-8b6b-0fd7c4f76242","ios":"levelo://app?vid=27990b65-6928-4044-8b6b-0fd7c4f76242"},"vehicle_type_id":"4","last_reported":1728434658,"current_range_meters":20400,"station_id":"ce4bh0h2rcd13ifvqd50","pricing_plan_id":"cebpf4jnsgd1na2vs0mg"},{"bike_id":"aed65775-eb09-432b-9669-a64133e2c0f9","system_id":"levelo_inurba_marseille","lat":43.30931,"lon":5.40148,"is_reserved":false,"is_disabled":false,"rental_uris":{"android":"levelo://app?vid=aed65775-eb09-432b-9669-a64133e2c0f9","ios":"levelo://app?vid=aed65775-eb09-432b-9669-a64133e2c0f9"},"vehicle_type_id":"4","last_reported":1728434658,"current_range_meters":24400,"station_id":"ce4bgvp2rcd13ifvqct0","pricing_plan_id":"cebpf4jnsgd1na2vs0mg"},{"bike_id":"e61c3a29-6607-40e9-b0b8-328b07bd30c4","system_id":"levelo_inurba_marseille","lat":43.25116,"lon":5.40322,"is_reserved":false,"is_disabled":false,"rental_uris":{"android":"levelo://app?vid=e61c3a29-6607-40e9-b0b8-328b07bd30c4","ios":"levelo://app?vid=e61c3a29-6607-40e9-b0b8-328b07bd30c4"},"vehicle_type_id":"4","last_reported":1728434658,"current_range_meters":36800,"station_id":"ce4bhlh2rcd13ifvqgig","pricing_plan_id":"cebpf4jnsgd1na2vs0mg"},{"bike_id":"f1fa1e77-7918-4922-b3b7-f1f80240a5aa","system_id":"levelo_inurba_marseille","lat":43.30661,"lon":5.40087,"is_reserved":false,"is_disabled":false,"rental_uris":{"android":"levelo://app?vid=f1fa1e77-7918-4922-b3b7-f1f80240a5aa","ios":"levelo://app?vid=f1fa1e77-7918-4922-b3b7-f1f80240a5aa"},"vehicle_type_id":"4","last_reported":1728434658,"current_range_meters":20800,"station_id":"ce4bh112rcd13ifvqda0","pricing_plan_id":"cebpf4jnsgd1na2vs0mg"},{"bike_id":"8ad55eee-602b-4949-a535-c4965d8587b5","system_id":"levelo_inurba_marseille","lat":43.313275,"lon":5.396915,"is_reserved":false,"is_disabled":false,"rental_uris":{"android":"levelo://app?vid=8ad55eee-602b-4949-a535-c4965d8587b5","ios":"levelo://app?vid=8ad55eee-602b-4949-a535-c4965d8587b5"},"vehicle_type_id":"4","last_reported":1728434658,"current_range_meters":38800,"station_id":"ce4bgvp2rcd13ifvqcu0","pricing_plan_id":"cebpf4jnsgd1na2vs0mg"},{"bike_id":"ccf35b56-07ed-4d71-b000-5fba20236cfb","system_id":"levelo_inurba_marseille","lat":43.2707,"lon":5.42282,"is_reserved":false,"is_disabled":false,"rental_uris":{"android":"levelo://app?vid=ccf35b56-07ed-4d71-b000-5fba20236cfb","ios":"levelo://app?vid=ccf35b56-07ed-4d71-b000-5fba20236cfb"},"vehicle_type_id":"4","last_reported":1728434658,"current_range_meters":10000,"station_id":"ce4bhk92rcd13ifvqgb0","pricing_plan_id":"cebpf4jnsgd1na2vs0mg"},{"bike_id":"4644a34d-f8c9-4fca-9cb3-630b7b932888","system_id":"levelo_inurba_marseille","lat":43.28847,"lon":5.3931,"is_reserved":false,"is_disabled":false,"rental_uris":{"android":"levelo://app?vid=4644a34d-f8c9-4fca-9cb3-630b7b932888","ios":"levelo://app?vid=4644a34d-f8c9-4fca-9cb3-630b7b932888"},"vehicle_type_id":"4","last_reported":1728434658,"current_range_meters":38800,"station_id":"ce4bh2p2rcd13ifvqdi0","pricing_plan_id":"cebpf4jnsgd1na2vs0mg"},{"bike_id":"b5142c12-3f3f-452c-853c-bcb33ce12fbf","system_id":"levelo_inurba_marseille","lat":43.23196,"lon":5.35546,"is_reserved":false,"is_disabled":false,"rental_uris":{"android":"levelo://app?vid=b5142c12-3f3f-452c-853c-bcb33ce12fbf","ios":"levelo://app?vid=b5142c12-3f3f-452c-853c-bcb33ce12fbf"},"vehicle_type_id":"4","last_reported":1728434658,"current_range_meters":35600,"station_id":"ce4bhu92rcd13ifvqi70","pricing_plan_id":"cebpf4jnsgd1na2vs0mg"},{"bike_id":"41cbd591-be75-4a59-afc5-fbe9986717e5","system_id":"levelo_inurba_marseille","lat":43.30887,"lon":5.3964,"is_reserved":false,"is_disabled":false,"rental_uris":{"android":"levelo://app?vid=41cbd591-be75-4a59-afc5-fbe9986717e5","ios":"levelo://app?vid=41cbd591-be75-4a59-afc5-fbe9986717e5"},"vehicle_type_id":"4","last_reported":1728434658,"current_range_meters":30800,"station_id":"ce4bh012rcd13ifvqcv0","pricing_plan_id":"cebpf4jnsgd1na2vs0mg"},{"bike_id":"21de6ba0-bc03-48e1-8d9f-f875bba9c5b9","system_id":"levelo_inurba_marseille","lat":43.30801,"lon":5.43523,"is_reserved":false,"is_disabled":false,"rental_uris":{"android":"levelo://app?vid=21de6ba0-bc03-48e1-8d9f-f875bba9c5b9","ios":"levelo://app?vid=21de6ba0-bc03-48e1-8d9f-f875bba9c5b9"},"vehicle_type_id":"4","last_reported":1728434658,"current_range_meters":9600,"station_id":"ce4bhph2rcd13ifvqheg","pricing_plan_id":"cebpf4jnsgd1na2vs0mg"},{"bike_id":"d68a00d3-3919-4ce5-b0fb-0b21f92dc987","system_id":"levelo_inurba_marseille","lat":43.295538,"lon":5.422905,"is_reserved":false,"is_disabled":false,"rental_uris":{"android":"levelo://app?vid=d68a00d3-3919-4ce5-b0fb-0b21f92dc987","ios":"levelo://app?vid=d68a00d3-3919-4ce5-b0fb-0b21f92dc987"},"vehicle_type_id":"4","last_reported":1728434658,"current_range_meters":38800,"station_id":"ce4bhph2rcd13ifvqhdg","pricing_plan_id":"cebpf4jnsgd1na2vs0mg"},{"bike_id":"0a73dcc2-9e57-441a-8302-27e1273d0ebb","system_id":"levelo_inurba_marseille","lat":43.26801,"lon":5.40264,"is_reserved":false,"is_disabled":false,"rental_uris":{"android":"levelo://app?vid=0a73dcc2-9e57-441a-8302-27e1273d0ebb","ios":"levelo://app?vid=0a73dcc2-9e57-441a-8302-27e1273d0ebb"},"vehicle_type_id":"4","last_reported":1728434658,"current_range_meters":38800,"station_id":"ce501612rcd8frsf0b60","pricing_plan_id":"cebpf4jnsgd1na2vs0mg"},{"bike_id":"68fe04c0-5d75-45e6-beba-6d59590df5a2","system_id":"levelo_inurba_marseille","lat":43.30792,"lon":5.43529,"is_reserved":false,"is_disabled":false,"rental_uris":{"android":"levelo://app?vid=68fe04c0-5d75-45e6-beba-6d59590df5a2","ios":"levelo://app?vid=68fe04c0-5d75-45e6-beba-6d59590df5a2"},"vehicle_type_id":"4","last_reported":1728434658,"current_range_meters":38800,"station_id":"ce4bhph2rcd13ifvqheg","pricing_plan_id":"cebpf4jnsgd1na2vs0mg"},{"bike_id":"fa1bbc51-e1e1-4088-81f5-a0e8b7769bb0","system_id":"levelo_inurba_marseille","lat":43.29254,"lon":5.40904,"is_reserved":false,"is_disabled":false,"rental_uris":{"android":"levelo://app?vid=fa1bbc51-e1e1-4088-81f5-a0e8b7769bb0","ios":"levelo://app?vid=fa1bbc51-e1e1-4088-81f5-a0e8b7769bb0"},"vehicle_type_id":"4","last_reported":1728434658,"current_range_meters":39200,"station_id":"ce4bh192rcd13ifvqdc0","pricing_plan_id":"cebpf4jnsgd1na2vs0mg"},{"bike_id":"158499d5-c64b-418b-80a5-9c6e53779981","system_id":"levelo_inurba_marseille","lat":43.2843,"lon":5.39179,"is_reserved":false,"is_disabled":false,"rental_uris":{"android":"levelo://app?vid=158499d5-c64b-418b-80a5-9c6e53779981","ios":"levelo://app?vid=158499d5-c64b-418b-80a5-9c6e53779981"},"vehicle_type_id":"4","last_reported":1728434658,"current_range_meters":38800,"station_id":"ce4bhoh2rcd13ifvqh5g","pricing_plan_id":"cebpf4jnsgd1na2vs0mg"},{"bike_id":"8e3669e3-0cc0-4473-bf2c-3229597f49cf","system_id":"levelo_inurba_marseille","lat":43.31169,"lon":5.38713,"is_reserved":false,"is_disabled":false,"rental_uris":{"android":"levelo://app?vid=8e3669e3-0cc0-4473-bf2c-3229597f49cf","ios":"levelo://app?vid=8e3669e3-0cc0-4473-bf2c-3229597f49cf"},"vehicle_type_id":"4","last_reported":1728434658,"current_range_meters":38000,"station_id":"ce4bgv12rcd13ifvqcp0","pricing_plan_id":"cebpf4jnsgd1na2vs0mg"},{"bike_id":"92829d75-d115-4295-b003-d6326e416a76","system_id":"levelo_inurba_marseille","lat":43.29252,"lon":5.40915,"is_reserved":false,"is_disabled":false,"rental_uris":{"android":"levelo://app?vid=92829d75-d115-4295-b003-d6326e416a76","ios":"levelo://app?vid=92829d75-d115-4295-b003-d6326e416a76"},"vehicle_type_id":"4","last_reported":1728434658,"current_range_meters":6800,"station_id":"ce4bh192rcd13ifvqdc0","pricing_plan_id":"cebpf4jnsgd1na2vs0mg"},{"bike_id":"15230e94-24b0-49ed-8e60-0b8909aeb71d","system_id":"levelo_inurba_marseille","lat":43.25577,"lon":5.3823,"is_reserved":false,"is_disabled":false,"rental_uris":{"android":"levelo://app?vid=15230e94-24b0-49ed-8e60-0b8909aeb71d","ios":"levelo://app?vid=15230e94-24b0-49ed-8e60-0b8909aeb71d"},"vehicle_type_id":"4","last_reported":1728434658,"current_range_meters":38800,"station_id":"ce4bhih2rcd13ifvqfs0","pricing_plan_id":"cebpf4jnsgd1na2vs0mg"},{"bike_id":"774e6f17-b939-4570-ac09-435652952c86","system_id":"levelo_inurba_marseille","lat":43.30799,"lon":5.43524,"is_reserved":false,"is_disabled":false,"rental_uris":{"android":"levelo://app?vid=774e6f17-b939-4570-ac09-435652952c86","ios":"levelo://app?vid=774e6f17-b939-4570-ac09-435652952c86"},"vehicle_type_id":"4","last_reported":1728434658,"current_range_meters":25200,"station_id":"ce4bhph2rcd13ifvqheg","pricing_plan_id":"cebpf4jnsgd1na2vs0mg"},{"bike_id":"6b6fccf1-65e3-46a0-9685-167e63d8af73","system_id":"levelo_inurba_marseille","lat":43.28836,"lon":5.3586,"is_reserved":false,"is_disabled":false,"rental_uris":{"android":"levelo://app?vid=6b6fccf1-65e3-46a0-9685-167e63d8af73","ios":"levelo://app?vid=6b6fccf1-65e3-46a0-9685-167e63d8af73"},"vehicle_type_id":"4","last_reported":1728434658,"current_range_meters":18800,"station_id":"ce4bhb12rcd13ifvqem0","pricing_plan_id":"cebpf4jnsgd1na2vs0mg"},{"bike_id":"213d39cb-ed73-406e-9edc-73f49befcc73","system_id":"levelo_inurba_marseille","lat":43.29551,"lon":5.4228,"is_reserved":false,"is_disabled":false,"rental_uris":{"android":"levelo://app?vid=213d39cb-ed73-406e-9edc-73f49befcc73","ios":"levelo://app?vid=213d39cb-ed73-406e-9edc-73f49befcc73"},"vehicle_type_id":"4","last_reported":1728434658,"current_range_meters":32400,"station_id":"ce4bhph2rcd13ifvqhdg","pricing_plan_id":"cebpf4jnsgd1na2vs0mg"},{"bike_id":"eef20880-69ac-46a0-bf41-cb04e825b119","system_id":"levelo_inurba_marseille","lat":43.31371,"lon":5.38501,"is_reserved":false,"is_disabled":false,"rental_uris":{"android":"levelo://app?vid=eef20880-69ac-46a0-bf41-cb04e825b119","ios":"levelo://app?vid=eef20880-69ac-46a0-bf41-cb04e825b119"},"vehicle_type_id":"4","last_reported":1728434658,"current_range_meters":38800,"station_id":"ce4bgt92rcd13ifvqcf0","pricing_plan_id":"cebpf4jnsgd1na2vs0mg"},{"bike_id":"7e4e1190-65d6-4af4-9683-e5033bda14f8","system_id":"levelo_inurba_marseille","lat":43.28851,"lon":5.39307,"is_reserved":false,"is_disabled":false,"rental_uris":{"android":"levelo://app?vid=7e4e1190-65d6-4af4-9683-e5033bda14f8","ios":"levelo://app?vid=7e4e1190-65d6-4af4-9683-e5033bda14f8"},"vehicle_type_id":"4","last_reported":1728434658,"current_range_meters":39200,"station_id":"ce4bh2p2rcd13ifvqdi0","pricing_plan_id":"cebpf4jnsgd1na2vs0mg"},{"bike_id":"6bd8d135-24da-44f3-b5bc-274530ed6a96","system_id":"levelo_inurba_marseille","lat":43.279144,"lon":5.383248,"is_reserved":false,"is_disabled":false,"rental_uris":{"android":"levelo://app?vid=6bd8d135-24da-44f3-b5bc-274530ed6a96","ios":"levelo://app?vid=6bd8d135-24da-44f3-b5bc-274530ed6a96"},"vehicle_type_id":"4","last_reported":1728434658,"current_range_meters":34800,"station_id":"ce4bhoh2rcd13ifvqh5g","pricing_plan_id":"cebpf4jnsgd1na2vs0mg"},{"bike_id":"75c417ac-9c4a-4f40-991f-acba0d9658ac","system_id":"levelo_inurba_marseille","lat":43.2925,"lon":5.40908,"is_reserved":false,"is_disabled":false,"rental_uris":{"android":"levelo://app?vid=75c417ac-9c4a-4f40-991f-acba0d9658ac","ios":"levelo://app?vid=75c417ac-9c4a-4f40-991f-acba0d9658ac"},"vehicle_type_id":"4","last_reported":1728434658,"current_range_meters":24000,"station_id":"ce4bh192rcd13ifvqdc0","pricing_plan_id":"cebpf4jnsgd1na2vs0mg"},{"bike_id":"017308ad-f481-4218-b7f9-5a36c9fab05f","system_id":"levelo_inurba_marseille","lat":43.23192,"lon":5.3555,"is_reserved":false,"is_disabled":false,"rental_uris":{"android":"levelo://app?vid=017308ad-f481-4218-b7f9-5a36c9fab05f","ios":"levelo://app?vid=017308ad-f481-4218-b7f9-5a36c9fab05f"},"vehicle_type_id":"4","last_reported":1728434658,"current_range_meters":20800,"station_id":"ce4bhu92rcd13ifvqi70","pricing_plan_id":"cebpf4jnsgd1na2vs0mg"},{"bike_id":"dd795a3b-44ae-4612-b4ff-1d4bc62338cf","system_id":"levelo_inurba_marseille","lat":43.33508,"lon":5.41037,"is_reserved":false,"is_disabled":false,"rental_uris":{"android":"levelo://app?vid=dd795a3b-44ae-4612-b4ff-1d4bc62338cf","ios":"levelo://app?vid=dd795a3b-44ae-4612-b4ff-1d4bc62338cf"},"vehicle_type_id":"4","last_reported":1728434658,"current_range_meters":32000,"station_id":"ce4bh4p2rcd13ifvqe0g","pricing_plan_id":"cebpf4jnsgd1na2vs0mg"},{"bike_id":"35358756-8a04-461c-91b9-f95b19362143","system_id":"levelo_inurba_marseille","lat":43.24999,"lon":5.38935,"is_reserved":false,"is_disabled":false,"rental_uris":{"android":"levelo://app?vid=35358756-8a04-461c-91b9-f95b19362143","ios":"levelo://app?vid=35358756-8a04-461c-91b9-f95b19362143"},"vehicle_type_id":"4","last_reported":1728434658,"current_range_meters":8800,"station_id":"ce4bhgp2rcd13ifvqfd0","pricing_plan_id":"cebpf4jnsgd1na2vs0mg"},{"bike_id":"d4e800e3-54ee-4d1a-aa67-8e38d3256263","system_id":"levelo_inurba_marseille","lat":43.28847,"lon":5.35854,"is_reserved":false,"is_disabled":false,"rental_uris":{"android":"levelo://app?vid=d4e800e3-54ee-4d1a-aa67-8e38d3256263","ios":"levelo://app?vid=d4e800e3-54ee-4d1a-aa67-8e38d3256263"},"vehicle_type_id":"4","last_reported":1728434658,"current_range_meters":6400,"station_id":"ce4bhb12rcd13ifvqem0","pricing_plan_id":"cebpf4jnsgd1na2vs0mg"},{"bike_id":"18dc9840-28f2-47db-a6c2-550f1ddbc175","system_id":"levelo_inurba_marseille","lat":43.31174,"lon":5.38711,"is_reserved":false,"is_disabled":false,"rental_uris":{"android":"levelo://app?vid=18dc9840-28f2-47db-a6c2-550f1ddbc175","ios":"levelo://app?vid=18dc9840-28f2-47db-a6c2-550f1ddbc175"},"vehicle_type_id":"4","last_reported":1728434658,"current_range_meters":38000,"station_id":"ce4bgv12rcd13ifvqcp0","pricing_plan_id":"cebpf4jnsgd1na2vs0mg"},{"bike_id":"88633afe-b2d0-440a-8dee-4e86d48af92f","system_id":"levelo_inurba_marseille","lat":43.26937,"lon":5.40258,"is_reserved":false,"is_disabled":false,"rental_uris":{"android":"levelo://app?vid=88633afe-b2d0-440a-8dee-4e86d48af92f","ios":"levelo://app?vid=88633afe-b2d0-440a-8dee-4e86d48af92f"},"vehicle_type_id":"4","last_reported":1728434658,"current_range_meters":38800,"station_id":"cjm6bp8fraef2m0cb0m0","pricing_plan_id":"cebpf4jnsgd1na2vs0mg"},{"bike_id":"5f5b34ea-c761-44ef-965d-2cd145c53c6a","system_id":"levelo_inurba_marseille","lat":43.23201,"lon":5.35549,"is_reserved":false,"is_disabled":false,"rental_uris":{"android":"levelo://app?vid=5f5b34ea-c761-44ef-965d-2cd145c53c6a","ios":"levelo://app?vid=5f5b34ea-c761-44ef-965d-2cd145c53c6a"},"vehicle_type_id":"4","last_reported":1728434658,"current_range_meters":8400,"station_id":"ce4bhu92rcd13ifvqi70","pricing_plan_id":"cebpf4jnsgd1na2vs0mg"},{"bike_id":"178c8a07-fc3c-40f3-bf60-ec60da6d93b3","system_id":"levelo_inurba_marseille","lat":43.29031,"lon":5.37576,"is_reserved":false,"is_disabled":false,"rental_uris":{"android":"levelo://app?vid=178c8a07-fc3c-40f3-bf60-ec60da6d93b3","ios":"levelo://app?vid=178c8a07-fc3c-40f3-bf60-ec60da6d93b3"},"vehicle_type_id":"4","last_reported":1728434658,"current_range_meters":37600,"station_id":"ce4bh692rcd13ifvqe90","pricing_plan_id":"cebpf4jnsgd1na2vs0mg"},{"bike_id":"a92f6206-1720-4e29-9ed4-ca1db6a5dc4b","system_id":"levelo_inurba_marseille","lat":43.29771,"lon":5.3741,"is_reserved":false,"is_disabled":false,"rental_uris":{"android":"levelo://app?vid=a92f6206-1720-4e29-9ed4-ca1db6a5dc4b","ios":"levelo://app?vid=a92f6206-1720-4e29-9ed4-ca1db6a5dc4b"},"vehicle_type_id":"4","last_reported":1728434658,"current_range_meters":22000,"station_id":"","pricing_plan_id":"cebpf4jnsgd1na2vs0mg"},{"bike_id":"d0850092-4278-4187-a96c-02205bb49626","system_id":"levelo_inurba_marseille","lat":43.29255,"lon":5.40918,"is_reserved":false,"is_disabled":false,"rental_uris":{"android":"levelo://app?vid=d0850092-4278-4187-a96c-02205bb49626","ios":"levelo://app?vid=d0850092-4278-4187-a96c-02205bb49626"},"vehicle_type_id":"4","last_reported":1728434658,"current_range_meters":38800,"station_id":"ce4bh192rcd13ifvqdc0","pricing_plan_id":"cebpf4jnsgd1na2vs0mg"},{"bike_id":"4ab9f254-ccb8-4e88-87f7-c1bcee3c3514","system_id":"levelo_inurba_marseille","lat":43.23963,"lon":5.36632,"is_reserved":false,"is_disabled":false,"rental_uris":{"android":"levelo://app?vid=4ab9f254-ccb8-4e88-87f7-c1bcee3c3514","ios":"levelo://app?vid=4ab9f254-ccb8-4e88-87f7-c1bcee3c3514"},"vehicle_type_id":"4","last_reported":1728434658,"current_range_meters":38800,"station_id":"ce4bhi12rcd13ifvqfp0","pricing_plan_id":"cebpf4jnsgd1na2vs0mg"},{"bike_id":"e2d3c3a0-de00-42f4-9eca-de6205a9e51f","system_id":"levelo_inurba_marseille","lat":43.309337,"lon":5.401427,"is_reserved":false,"is_disabled":false,"rental_uris":{"android":"levelo://app?vid=e2d3c3a0-de00-42f4-9eca-de6205a9e51f","ios":"levelo://app?vid=e2d3c3a0-de00-42f4-9eca-de6205a9e51f"},"vehicle_type_id":"4","last_reported":1728434658,"current_range_meters":35200,"station_id":"ce4bgvp2rcd13ifvqct0","pricing_plan_id":"cebpf4jnsgd1na2vs0mg"},{"bike_id":"382d7afa-ea41-443e-a474-82676a9810b4","system_id":"levelo_inurba_marseille","lat":43.26556,"lon":5.37289,"is_reserved":false,"is_disabled":false,"rental_uris":{"android":"levelo://app?vid=382d7afa-ea41-443e-a474-82676a9810b4","ios":"levelo://app?vid=382d7afa-ea41-443e-a474-82676a9810b4"},"vehicle_type_id":"4","last_reported":1728434658,"current_range_meters":38400,"station_id":"ce4bhg12rcd13ifvqf70","pricing_plan_id":"cebpf4jnsgd1na2vs0mg"},{"bike_id":"78bd0264-bc12-48d3-96d1-ec6fa3195a78","system_id":"levelo_inurba_marseille","lat":43.31371,"lon":5.38497,"is_reserved":false,"is_disabled":false,"rental_uris":{"android":"levelo://app?vid=78bd0264-bc12-48d3-96d1-ec6fa3195a78","ios":"levelo://app?vid=78bd0264-bc12-48d3-96d1-ec6fa3195a78"},"vehicle_type_id":"4","last_reported":1728434658,"current_range_meters":24800,"station_id":"ce4bgt92rcd13ifvqcf0","pricing_plan_id":"cebpf4jnsgd1na2vs0mg"},{"bike_id":"de7907c7-2957-4c83-85f3-0a3346ef4e6e","system_id":"levelo_inurba_marseille","lat":43.29897,"lon":5.43678,"is_reserved":false,"is_disabled":false,"rental_uris":{"android":"levelo://app?vid=de7907c7-2957-4c83-85f3-0a3346ef4e6e","ios":"levelo://app?vid=de7907c7-2957-4c83-85f3-0a3346ef4e6e"},"vehicle_type_id":"4","last_reported":1728434658,"current_range_meters":38800,"station_id":"ce4bhpp2rcd13ifvqhfg","pricing_plan_id":"cebpf4jnsgd1na2vs0mg"},{"bike_id":"0aa6d389-94e7-428f-90c8-24f882237419","system_id":"levelo_inurba_marseille","lat":43.25105,"lon":5.40328,"is_reserved":false,"is_disabled":false,"rental_uris":{"android":"levelo://app?vid=0aa6d389-94e7-428f-90c8-24f882237419","ios":"levelo://app?vid=0aa6d389-94e7-428f-90c8-24f882237419"},"vehicle_type_id":"4","last_reported":1728434658,"current_range_meters":38000,"station_id":"ce4bhlh2rcd13ifvqgig","pricing_plan_id":"cebpf4jnsgd1na2vs0mg"},{"bike_id":"82d7f2cc-cda9-444d-add9-d52c1569a748","system_id":"levelo_inurba_marseille","lat":43.28727,"lon":5.36075,"is_reserved":false,"is_disabled":false,"rental_uris":{"android":"levelo://app?vid=82d7f2cc-cda9-444d-add9-d52c1569a748","ios":"levelo://app?vid=82d7f2cc-cda9-444d-add9-d52c1569a748"},"vehicle_type_id":"4","last_reported":1728434658,"current_range_meters":16400,"station_id":"cki0cbj6b192h4jlfktg","pricing_plan_id":"cebpf4jnsgd1na2vs0mg"},{"bike_id":"6f5caca5-cfa5-499d-90ee-b4064d7ce9f5","system_id":"levelo_inurba_marseille","lat":43.29558,"lon":5.422917,"is_reserved":false,"is_disabled":false,"rental_uris":{"android":"levelo://app?vid=6f5caca5-cfa5-499d-90ee-b4064d7ce9f5","ios":"levelo://app?vid=6f5caca5-cfa5-499d-90ee-b4064d7ce9f5"},"vehicle_type_id":"4","last_reported":1728434658,"current_range_meters":36800,"station_id":"ce4bhph2rcd13ifvqhdg","pricing_plan_id":"cebpf4jnsgd1na2vs0mg"},{"bike_id":"9b4b4694-c341-4c5e-a8f0-f621730b64c3","system_id":"levelo_inurba_marseille","lat":43.25868,"lon":5.399,"is_reserved":false,"is_disabled":false,"rental_uris":{"android":"levelo://app?vid=9b4b4694-c341-4c5e-a8f0-f621730b64c3","ios":"levelo://app?vid=9b4b4694-c341-4c5e-a8f0-f621730b64c3"},"vehicle_type_id":"4","last_reported":1728434658,"current_range_meters":39200,"station_id":"ce4bhl92rcd13ifvqghg","pricing_plan_id":"cebpf4jnsgd1na2vs0mg"},{"bike_id":"580e2b43-d31a-457d-9f81-6e60aba46f6e","system_id":"levelo_inurba_marseille","lat":43.25112,"lon":5.40322,"is_reserved":false,"is_disabled":false,"rental_uris":{"android":"levelo://app?vid=580e2b43-d31a-457d-9f81-6e60aba46f6e","ios":"levelo://app?vid=580e2b43-d31a-457d-9f81-6e60aba46f6e"},"vehicle_type_id":"4","last_reported":1728434658,"current_range_meters":22800,"station_id":"ce4bhlh2rcd13ifvqgig","pricing_plan_id":"cebpf4jnsgd1na2vs0mg"},{"bike_id":"cecab7d6-44b8-450c-b12f-f814164542ef","system_id":"levelo_inurba_marseille","lat":43.30194,"lon":5.36619,"is_reserved":false,"is_disabled":false,"rental_uris":{"android":"levelo://app?vid=cecab7d6-44b8-450c-b12f-f814164542ef","ios":"levelo://app?vid=cecab7d6-44b8-450c-b12f-f814164542ef"},"vehicle_type_id":"4","last_reported":1728434658,"current_range_meters":38800,"station_id":"ce4bgrh2rcd13ifvqc8g","pricing_plan_id":"cebpf4jnsgd1na2vs0mg"},{"bike_id":"62b6d635-7bcb-41a7-b9d5-21dbc57fd938","system_id":"levelo_inurba_marseille","lat":43.28886,"lon":5.3741,"is_reserved":false,"is_disabled":false,"rental_uris":{"android":"levelo://app?vid=62b6d635-7bcb-41a7-b9d5-21dbc57fd938","ios":"levelo://app?vid=62b6d635-7bcb-41a7-b9d5-21dbc57fd938"},"vehicle_type_id":"4","last_reported":1728434658,"current_range_meters":32800,"station_id":"","pricing_plan_id":"cebpf4jnsgd1na2vs0mg"},{"bike_id":"d81c4e57-55c3-4f81-b3e2-2d5e979bda91","system_id":"levelo_inurba_marseille","lat":43.28404,"lon":5.37525,"is_reserved":false,"is_disabled":false,"rental_uris":{"android":"levelo://app?vid=d81c4e57-55c3-4f81-b3e2-2d5e979bda91","ios":"levelo://app?vid=d81c4e57-55c3-4f81-b3e2-2d5e979bda91"},"vehicle_type_id":"4","last_reported":1728434658,"current_range_meters":35200,"station_id":"ce4bh412rcd13ifvqds0","pricing_plan_id":"cebpf4jnsgd1na2vs0mg"},{"bike_id":"4373f90a-6b76-4f0f-9c3d-664e4248e923","system_id":"levelo_inurba_marseille","lat":43.30785,"lon":5.37643,"is_reserved":false,"is_disabled":false,"rental_uris":{"android":"levelo://app?vid=4373f90a-6b76-4f0f-9c3d-664e4248e923","ios":"levelo://app?vid=4373f90a-6b76-4f0f-9c3d-664e4248e923"},"vehicle_type_id":"4","last_reported":1728434658,"current_range_meters":22400,"station_id":"ce4bgv92rcd13ifvqcq0","pricing_plan_id":"cebpf4jnsgd1na2vs0mg"},{"bike_id":"420b2816-87d0-4210-972c-76597452bb87","system_id":"levelo_inurba_marseille","lat":43.26054,"lon":5.39391,"is_reserved":false,"is_disabled":false,"rental_uris":{"android":"levelo://app?vid=420b2816-87d0-4210-972c-76597452bb87","ios":"levelo://app?vid=420b2816-87d0-4210-972c-76597452bb87"},"vehicle_type_id":"4","last_reported":1728434658,"current_range_meters":35600,"station_id":"ce4bhh92rcd13ifvqfj0","pricing_plan_id":"cebpf4jnsgd1na2vs0mg"},{"bike_id":"346de8cd-501a-48a6-9587-1945899090d2","system_id":"levelo_inurba_marseille","lat":43.25081,"lon":5.39507,"is_reserved":false,"is_disabled":false,"rental_uris":{"android":"levelo://app?vid=346de8cd-501a-48a6-9587-1945899090d2","ios":"levelo://app?vid=346de8cd-501a-48a6-9587-1945899090d2"},"vehicle_type_id":"4","last_reported":1728434658,"current_range_meters":28400,"station_id":"ce4bhm12rcd13ifvqgkg","pricing_plan_id":"cebpf4jnsgd1na2vs0mg"},{"bike_id":"d80c3082-7f25-4723-94c3-58096a5ff2be","system_id":"levelo_inurba_marseille","lat":43.29574,"lon":5.37509,"is_reserved":false,"is_disabled":false,"rental_uris":{"android":"levelo://app?vid=d80c3082-7f25-4723-94c3-58096a5ff2be","ios":"levelo://app?vid=d80c3082-7f25-4723-94c3-58096a5ff2be"},"vehicle_type_id":"4","last_reported":1728434658,"current_range_meters":37600,"station_id":"ce4bgh92rcd13ifvqb50","pricing_plan_id":"cebpf4jnsgd1na2vs0mg"},{"bike_id":"ee5eb330-bcb1-4e90-85ac-4bf87e80a797","system_id":"levelo_inurba_marseille","lat":43.28349,"lon":5.38102,"is_reserved":false,"is_disabled":false,"rental_uris":{"android":"levelo://app?vid=ee5eb330-bcb1-4e90-85ac-4bf87e80a797","ios":"levelo://app?vid=ee5eb330-bcb1-4e90-85ac-4bf87e80a797"},"vehicle_type_id":"4","last_reported":1728434658,"current_range_meters":39200,"station_id":"ce4bh412rcd13ifvqdr0","pricing_plan_id":"cebpf4jnsgd1na2vs0mg"},{"bike_id":"34f1c192-0cfc-4cdf-8170-dc6a46a8b058","system_id":"levelo_inurba_marseille","lat":43.27322,"lon":5.39101,"is_reserved":false,"is_disabled":false,"rental_uris":{"android":"levelo://app?vid=34f1c192-0cfc-4cdf-8170-dc6a46a8b058","ios":"levelo://app?vid=34f1c192-0cfc-4cdf-8170-dc6a46a8b058"},"vehicle_type_id":"4","last_reported":1728434658,"current_range_meters":38800,"station_id":"ce4bhgp2rcd13ifvqfe0","pricing_plan_id":"cebpf4jnsgd1na2vs0mg"},{"bike_id":"7eb8c577-b668-4f97-a2ab-5d968230bba8","system_id":"levelo_inurba_marseille","lat":43.23154,"lon":5.43705,"is_reserved":false,"is_disabled":false,"rental_uris":{"android":"levelo://app?vid=7eb8c577-b668-4f97-a2ab-5d968230bba8","ios":"levelo://app?vid=7eb8c577-b668-4f97-a2ab-5d968230bba8"},"vehicle_type_id":"4","last_reported":1728434658,"current_range_meters":38800,"station_id":"ce4bhmp2rcd13ifvqgog","pricing_plan_id":"cebpf4jnsgd1na2vs0mg"},{"bike_id":"c9507823-7653-4239-9822-143d3962fa1c","system_id":"levelo_inurba_marseille","lat":43.30929,"lon":5.4015,"is_reserved":false,"is_disabled":false,"rental_uris":{"android":"levelo://app?vid=c9507823-7653-4239-9822-143d3962fa1c","ios":"levelo://app?vid=c9507823-7653-4239-9822-143d3962fa1c"},"vehicle_type_id":"4","last_reported":1728434658,"current_range_meters":16800,"station_id":"ce4bgvp2rcd13ifvqct0","pricing_plan_id":"cebpf4jnsgd1na2vs0mg"},{"bike_id":"5461c3e7-d9cc-4da4-b334-efd4b151e719","system_id":"levelo_inurba_marseille","lat":43.25103,"lon":5.40327,"is_reserved":false,"is_disabled":false,"rental_uris":{"android":"levelo://app?vid=5461c3e7-d9cc-4da4-b334-efd4b151e719","ios":"levelo://app?vid=5461c3e7-d9cc-4da4-b334-efd4b151e719"},"vehicle_type_id":"4","last_reported":1728434658,"current_range_meters":38800,"station_id":"ce4bhlh2rcd13ifvqgig","pricing_plan_id":"cebpf4jnsgd1na2vs0mg"},{"bike_id":"23a23253-4a33-4800-be9f-9e81e9112eeb","system_id":"levelo_inurba_marseille","lat":43.30932,"lon":5.40139,"is_reserved":false,"is_disabled":false,"rental_uris":{"android":"levelo://app?vid=23a23253-4a33-4800-be9f-9e81e9112eeb","ios":"levelo://app?vid=23a23253-4a33-4800-be9f-9e81e9112eeb"},"vehicle_type_id":"4","last_reported":1728434658,"current_range_meters":23200,"station_id":"ce4bgvp2rcd13ifvqct0","pricing_plan_id":"cebpf4jnsgd1na2vs0mg"},{"bike_id":"480eb3d6-1957-4aad-bb0d-1be1e5336de1","system_id":"levelo_inurba_marseille","lat":43.27369,"lon":5.36255,"is_reserved":false,"is_disabled":false,"rental_uris":{"android":"levelo://app?vid=480eb3d6-1957-4aad-bb0d-1be1e5336de1","ios":"levelo://app?vid=480eb3d6-1957-4aad-bb0d-1be1e5336de1"},"vehicle_type_id":"4","last_reported":1728434658,"current_range_meters":38800,"station_id":"ce4bhbh2rcd13ifvqeo0","pricing_plan_id":"cebpf4jnsgd1na2vs0mg"},{"bike_id":"172b6004-71d4-410e-80e8-ffa36892cac3","system_id":"levelo_inurba_marseille","lat":43.3004,"lon":5.40193,"is_reserved":false,"is_disabled":false,"rental_uris":{"android":"levelo://app?vid=172b6004-71d4-410e-80e8-ffa36892cac3","ios":"levelo://app?vid=172b6004-71d4-410e-80e8-ffa36892cac3"},"vehicle_type_id":"4","last_reported":1728434658,"current_range_meters":30000,"station_id":"","pricing_plan_id":"cebpf4jnsgd1na2vs0mg"},{"bike_id":"cf927195-cafe-4fe6-8a9b-b503bf9be2b0","system_id":"levelo_inurba_marseille","lat":43.23186,"lon":5.39981,"is_reserved":false,"is_disabled":false,"rental_uris":{"android":"levelo://app?vid=cf927195-cafe-4fe6-8a9b-b503bf9be2b0","ios":"levelo://app?vid=cf927195-cafe-4fe6-8a9b-b503bf9be2b0"},"vehicle_type_id":"4","last_reported":1728434658,"current_range_meters":33600,"station_id":"ce4bhn12rcd13ifvqgqg","pricing_plan_id":"cebpf4jnsgd1na2vs0mg"},{"bike_id":"23c7d298-ae87-4b9b-9148-3a903a188a1c","system_id":"levelo_inurba_marseille","lat":43.25115,"lon":5.40324,"is_reserved":false,"is_disabled":false,"rental_uris":{"android":"levelo://app?vid=23c7d298-ae87-4b9b-9148-3a903a188a1c","ios":"levelo://app?vid=23c7d298-ae87-4b9b-9148-3a903a188a1c"},"vehicle_type_id":"4","last_reported":1728434658,"current_range_meters":6000,"station_id":"ce4bhlh2rcd13ifvqgig","pricing_plan_id":"cebpf4jnsgd1na2vs0mg"},{"bike_id":"875f4a64-216b-4be8-b9d8-fbdcea85c3e4","system_id":"levelo_inurba_marseille","lat":43.31175,"lon":5.38721,"is_reserved":false,"is_disabled":false,"rental_uris":{"android":"levelo://app?vid=875f4a64-216b-4be8-b9d8-fbdcea85c3e4","ios":"levelo://app?vid=875f4a64-216b-4be8-b9d8-fbdcea85c3e4"},"vehicle_type_id":"4","last_reported":1728434658,"current_range_meters":38800,"station_id":"ce4bgv12rcd13ifvqcp0","pricing_plan_id":"cebpf4jnsgd1na2vs0mg"},{"bike_id":"e7c8a2a0-d85a-4c13-803a-4175eee6563b","system_id":"levelo_inurba_marseille","lat":43.2439,"lon":5.37058,"is_reserved":false,"is_disabled":false,"rental_uris":{"android":"levelo://app?vid=e7c8a2a0-d85a-4c13-803a-4175eee6563b","ios":"levelo://app?vid=e7c8a2a0-d85a-4c13-803a-4175eee6563b"},"vehicle_type_id":"4","last_reported":1728434658,"current_range_meters":14400,"station_id":"ce4bhhh2rcd13ifvqfk0","pricing_plan_id":"cebpf4jnsgd1na2vs0mg"},{"bike_id":"c702c586-f17c-4c40-8247-b29f3a777c84","system_id":"levelo_inurba_marseille","lat":43.27175,"lon":5.40993,"is_reserved":false,"is_disabled":false,"rental_uris":{"android":"levelo://app?vid=c702c586-f17c-4c40-8247-b29f3a777c84","ios":"levelo://app?vid=c702c586-f17c-4c40-8247-b29f3a777c84"},"vehicle_type_id":"4","last_reported":1728434658,"current_range_meters":38800,"station_id":"ce4bhl12rcd13ifvqgf0","pricing_plan_id":"cebpf4jnsgd1na2vs0mg"},{"bike_id":"9f4daeda-2fcd-43c2-9058-c507ef3d4b4b","system_id":"levelo_inurba_marseille","lat":43.31705,"lon":5.40464,"is_reserved":false,"is_disabled":false,"rental_uris":{"android":"levelo://app?vid=9f4daeda-2fcd-43c2-9058-c507ef3d4b4b","ios":"levelo://app?vid=9f4daeda-2fcd-43c2-9058-c507ef3d4b4b"},"vehicle_type_id":"4","last_reported":1728434658,"current_range_meters":38400,"station_id":"ce4bh012rcd13ifvqd00","pricing_plan_id":"cebpf4jnsgd1na2vs0mg"},{"bike_id":"f25c3320-3c59-4058-a283-2b0b09b21a7a","system_id":"levelo_inurba_marseille","lat":43.27182,"lon":5.40993,"is_reserved":false,"is_disabled":false,"rental_uris":{"android":"levelo://app?vid=f25c3320-3c59-4058-a283-2b0b09b21a7a","ios":"levelo://app?vid=f25c3320-3c59-4058-a283-2b0b09b21a7a"},"vehicle_type_id":"4","last_reported":1728434658,"current_range_meters":4000,"station_id":"ce4bhl12rcd13ifvqgf0","pricing_plan_id":"cebpf4jnsgd1na2vs0mg"},{"bike_id":"606a5d56-75a8-46e2-998d-fe9536fac9c0","system_id":"levelo_inurba_marseille","lat":43.3133,"lon":5.39694,"is_reserved":false,"is_disabled":false,"rental_uris":{"android":"levelo://app?vid=606a5d56-75a8-46e2-998d-fe9536fac9c0","ios":"levelo://app?vid=606a5d56-75a8-46e2-998d-fe9536fac9c0"},"vehicle_type_id":"4","last_reported":1728434658,"current_range_meters":36400,"station_id":"ce4bgvp2rcd13ifvqcu0","pricing_plan_id":"cebpf4jnsgd1na2vs0mg"},{"bike_id":"fcf45b4d-956a-4223-af97-955dc3078b1e","system_id":"levelo_inurba_marseille","lat":43.25723,"lon":5.4111,"is_reserved":false,"is_disabled":false,"rental_uris":{"android":"levelo://app?vid=fcf45b4d-956a-4223-af97-955dc3078b1e","ios":"levelo://app?vid=fcf45b4d-956a-4223-af97-955dc3078b1e"},"vehicle_type_id":"4","last_reported":1728434658,"current_range_meters":38800,"station_id":"ce4bhkp2rcd13ifvqgd0","pricing_plan_id":"cebpf4jnsgd1na2vs0mg"},{"bike_id":"30347c51-d416-4c51-93c2-316e063eca73","system_id":"levelo_inurba_marseille","lat":43.30882,"lon":5.39644,"is_reserved":false,"is_disabled":false,"rental_uris":{"android":"levelo://app?vid=30347c51-d416-4c51-93c2-316e063eca73","ios":"levelo://app?vid=30347c51-d416-4c51-93c2-316e063eca73"},"vehicle_type_id":"4","last_reported":1728434658,"current_range_meters":8000,"station_id":"ce4bh012rcd13ifvqcv0","pricing_plan_id":"cebpf4jnsgd1na2vs0mg"},{"bike_id":"a68a1345-1f08-4d0f-8934-51d7201f7067","system_id":"levelo_inurba_marseille","lat":43.25581,"lon":5.38238,"is_reserved":false,"is_disabled":false,"rental_uris":{"android":"levelo://app?vid=a68a1345-1f08-4d0f-8934-51d7201f7067","ios":"levelo://app?vid=a68a1345-1f08-4d0f-8934-51d7201f7067"},"vehicle_type_id":"4","last_reported":1728434658,"current_range_meters":38800,"station_id":"ce4bhih2rcd13ifvqfs0","pricing_plan_id":"cebpf4jnsgd1na2vs0mg"},{"bike_id":"9a9df624-1549-41fb-b7f5-bd4059f46f71","system_id":"levelo_inurba_marseille","lat":43.31757,"lon":5.39002,"is_reserved":false,"is_disabled":false,"rental_uris":{"android":"levelo://app?vid=9a9df624-1549-41fb-b7f5-bd4059f46f71","ios":"levelo://app?vid=9a9df624-1549-41fb-b7f5-bd4059f46f71"},"vehicle_type_id":"4","last_reported":1728434658,"current_range_meters":25600,"station_id":"ce4bhqp2rcd13ifvqhng","pricing_plan_id":"cebpf4jnsgd1na2vs0mg"},{"bike_id":"94af21cb-3b77-4a57-b3de-dcd8ddf38fad","system_id":"levelo_inurba_marseille","lat":43.31164,"lon":5.38711,"is_reserved":false,"is_disabled":false,"rental_uris":{"android":"levelo://app?vid=94af21cb-3b77-4a57-b3de-dcd8ddf38fad","ios":"levelo://app?vid=94af21cb-3b77-4a57-b3de-dcd8ddf38fad"},"vehicle_type_id":"4","last_reported":1728434658,"current_range_meters":38800,"station_id":"ce4bgv12rcd13ifvqcp0","pricing_plan_id":"cebpf4jnsgd1na2vs0mg"},{"bike_id":"8a2b8dd0-98e0-4968-9352-c0bddd703783","system_id":"levelo_inurba_marseille","lat":43.29625,"lon":5.40599,"is_reserved":false,"is_disabled":false,"rental_uris":{"android":"levelo://app?vid=8a2b8dd0-98e0-4968-9352-c0bddd703783","ios":"levelo://app?vid=8a2b8dd0-98e0-4968-9352-c0bddd703783"},"vehicle_type_id":"4","last_reported":1728434658,"current_range_meters":11200,"station_id":"ce4bh0h2rcd13ifvqd60","pricing_plan_id":"cebpf4jnsgd1na2vs0mg"},{"bike_id":"8f415114-ad8c-4b59-89e5-ea5880511cbf","system_id":"levelo_inurba_marseille","lat":43.28662,"lon":5.38673,"is_reserved":false,"is_disabled":false,"rental_uris":{"android":"levelo://app?vid=8f415114-ad8c-4b59-89e5-ea5880511cbf","ios":"levelo://app?vid=8f415114-ad8c-4b59-89e5-ea5880511cbf"},"vehicle_type_id":"4","last_reported":1728434658,"current_range_meters":38800,"station_id":"ce4bh492rcd13ifvqdug","pricing_plan_id":"cebpf4jnsgd1na2vs0mg"},{"bike_id":"f276946a-c301-4fd8-9ee9-b3ea2a208df0","system_id":"levelo_inurba_marseille","lat":43.23065,"lon":5.3549,"is_reserved":false,"is_disabled":false,"rental_uris":{"android":"levelo://app?vid=f276946a-c301-4fd8-9ee9-b3ea2a208df0","ios":"levelo://app?vid=f276946a-c301-4fd8-9ee9-b3ea2a208df0"},"vehicle_type_id":"4","last_reported":1728434658,"current_range_meters":21600,"station_id":"cpo3342slgdg3j2ifvpg","pricing_plan_id":"cebpf4jnsgd1na2vs0mg"},{"bike_id":"785dd6e2-063e-4f34-bde4-815072a28081","system_id":"levelo_inurba_marseille","lat":43.31357,"lon":5.38507,"is_reserved":false,"is_disabled":false,"rental_uris":{"android":"levelo://app?vid=785dd6e2-063e-4f34-bde4-815072a28081","ios":"levelo://app?vid=785dd6e2-063e-4f34-bde4-815072a28081"},"vehicle_type_id":"4","last_reported":1728434658,"current_range_meters":4400,"station_id":"ce4bgt92rcd13ifvqcf0","pricing_plan_id":"cebpf4jnsgd1na2vs0mg"},{"bike_id":"5eb1d50f-ca91-4fb8-860f-c0199bb2576b","system_id":"levelo_inurba_marseille","lat":43.25575,"lon":5.38237,"is_reserved":false,"is_disabled":false,"rental_uris":{"android":"levelo://app?vid=5eb1d50f-ca91-4fb8-860f-c0199bb2576b","ios":"levelo://app?vid=5eb1d50f-ca91-4fb8-860f-c0199bb2576b"},"vehicle_type_id":"4","last_reported":1728434658,"current_range_meters":36000,"station_id":"ce4bhih2rcd13ifvqfs0","pricing_plan_id":"cebpf4jnsgd1na2vs0mg"},{"bike_id":"492f14e7-4fbf-408e-ab6a-6f9f9e8646ff","system_id":"levelo_inurba_marseille","lat":43.30598,"lon":5.37223,"is_reserved":false,"is_disabled":false,"rental_uris":{"android":"levelo://app?vid=492f14e7-4fbf-408e-ab6a-6f9f9e8646ff","ios":"levelo://app?vid=492f14e7-4fbf-408e-ab6a-6f9f9e8646ff"},"vehicle_type_id":"4","last_reported":1728434658,"current_range_meters":36800,"station_id":"ce4bgqh2rcd13ifvqc4g","pricing_plan_id":"cebpf4jnsgd1na2vs0mg"},{"bike_id":"486cfdaf-755e-4605-abad-093b9c4e08db","system_id":"levelo_inurba_marseille","lat":43.28722,"lon":5.37943,"is_reserved":false,"is_disabled":false,"rental_uris":{"android":"levelo://app?vid=486cfdaf-755e-4605-abad-093b9c4e08db","ios":"levelo://app?vid=486cfdaf-755e-4605-abad-093b9c4e08db"},"vehicle_type_id":"4","last_reported":1728434658,"current_range_meters":25600,"station_id":"ce4bh9p2rcd13ifvqec0","pricing_plan_id":"cebpf4jnsgd1na2vs0mg"},{"bike_id":"988f14d4-dc02-4e1f-a975-0ae5006f3cef","system_id":"levelo_inurba_marseille","lat":43.23186,"lon":5.39989,"is_reserved":false,"is_disabled":false,"rental_uris":{"android":"levelo://app?vid=988f14d4-dc02-4e1f-a975-0ae5006f3cef","ios":"levelo://app?vid=988f14d4-dc02-4e1f-a975-0ae5006f3cef"},"vehicle_type_id":"4","last_reported":1728434658,"current_range_meters":38800,"station_id":"ce4bhn12rcd13ifvqgqg","pricing_plan_id":"cebpf4jnsgd1na2vs0mg"},{"bike_id":"9c22db92-af8c-47ad-860f-5dee6a257b8e","system_id":"levelo_inurba_marseille","lat":43.30598,"lon":5.37224,"is_reserved":false,"is_disabled":false,"rental_uris":{"android":"levelo://app?vid=9c22db92-af8c-47ad-860f-5dee6a257b8e","ios":"levelo://app?vid=9c22db92-af8c-47ad-860f-5dee6a257b8e"},"vehicle_type_id":"4","last_reported":1728434658,"current_range_meters":8800,"station_id":"ce4bgqh2rcd13ifvqc4g","pricing_plan_id":"cebpf4jnsgd1na2vs0mg"},{"bike_id":"a0c7664f-7ae4-459b-a42b-dd14b0b42df7","system_id":"levelo_inurba_marseille","lat":43.31527,"lon":5.38034,"is_reserved":false,"is_disabled":false,"rental_uris":{"android":"levelo://app?vid=a0c7664f-7ae4-459b-a42b-dd14b0b42df7","ios":"levelo://app?vid=a0c7664f-7ae4-459b-a42b-dd14b0b42df7"},"vehicle_type_id":"4","last_reported":1728434658,"current_range_meters":37600,"station_id":"ce4bhsp2rcd13ifvqi50","pricing_plan_id":"cebpf4jnsgd1na2vs0mg"},{"bike_id":"4fad5107-e3f9-4429-bee6-9969100d859f","system_id":"levelo_inurba_marseille","lat":43.27181,"lon":5.40987,"is_reserved":false,"is_disabled":false,"rental_uris":{"android":"levelo://app?vid=4fad5107-e3f9-4429-bee6-9969100d859f","ios":"levelo://app?vid=4fad5107-e3f9-4429-bee6-9969100d859f"},"vehicle_type_id":"4","last_reported":1728434658,"current_range_meters":8400,"station_id":"ce4bhl12rcd13ifvqgf0","pricing_plan_id":"cebpf4jnsgd1na2vs0mg"},{"bike_id":"2b8677da-3fc9-4a5d-9046-7e7ea7827e3c","system_id":"levelo_inurba_marseille","lat":43.31535,"lon":5.38025,"is_reserved":false,"is_disabled":false,"rental_uris":{"android":"levelo://app?vid=2b8677da-3fc9-4a5d-9046-7e7ea7827e3c","ios":"levelo://app?vid=2b8677da-3fc9-4a5d-9046-7e7ea7827e3c"},"vehicle_type_id":"4","last_reported":1728434658,"current_range_meters":30000,"station_id":"ce4bhsp2rcd13ifvqi50","pricing_plan_id":"cebpf4jnsgd1na2vs0mg"},{"bike_id":"fedb4b55-d65a-4c63-add9-09cf94815482","system_id":"levelo_inurba_marseille","lat":43.25862,"lon":5.399,"is_reserved":false,"is_disabled":false,"rental_uris":{"android":"levelo://app?vid=fedb4b55-d65a-4c63-add9-09cf94815482","ios":"levelo://app?vid=fedb4b55-d65a-4c63-add9-09cf94815482"},"vehicle_type_id":"4","last_reported":1728434658,"current_range_meters":33200,"station_id":"ce4bhl92rcd13ifvqghg","pricing_plan_id":"cebpf4jnsgd1na2vs0mg"},{"bike_id":"652ea6b0-0568-4c2d-ae7b-676bb46190fb","system_id":"levelo_inurba_marseille","lat":43.29552,"lon":5.42293,"is_reserved":false,"is_disabled":false,"rental_uris":{"android":"levelo://app?vid=652ea6b0-0568-4c2d-ae7b-676bb46190fb","ios":"levelo://app?vid=652ea6b0-0568-4c2d-ae7b-676bb46190fb"},"vehicle_type_id":"4","last_reported":1728434658,"current_range_meters":30800,"station_id":"ce4bhph2rcd13ifvqhdg","pricing_plan_id":"cebpf4jnsgd1na2vs0mg"},{"bike_id":"8c20e0a7-82e3-4b42-b629-3109b44f1a7d","system_id":"levelo_inurba_marseille","lat":43.28468,"lon":5.35885,"is_reserved":false,"is_disabled":false,"rental_uris":{"android":"levelo://app?vid=8c20e0a7-82e3-4b42-b629-3109b44f1a7d","ios":"levelo://app?vid=8c20e0a7-82e3-4b42-b629-3109b44f1a7d"},"vehicle_type_id":"4","last_reported":1728434658,"current_range_meters":28800,"station_id":"ce4bhah2rcd13ifvqei0","pricing_plan_id":"cebpf4jnsgd1na2vs0mg"},{"bike_id":"7e7b42c3-2718-4895-b66b-7bef603e67bb","system_id":"levelo_inurba_marseille","lat":43.28042,"lon":5.36956,"is_reserved":false,"is_disabled":false,"rental_uris":{"android":"levelo://app?vid=7e7b42c3-2718-4895-b66b-7bef603e67bb","ios":"levelo://app?vid=7e7b42c3-2718-4895-b66b-7bef603e67bb"},"vehicle_type_id":"4","last_reported":1728434658,"current_range_meters":38800,"station_id":"ce4bha12rcd13ifvqef0","pricing_plan_id":"cebpf4jnsgd1na2vs0mg"},{"bike_id":"36405bfb-b3f5-459a-9616-27e77d7569ec","system_id":"levelo_inurba_marseille","lat":43.29281,"lon":5.40123,"is_reserved":false,"is_disabled":false,"rental_uris":{"android":"levelo://app?vid=36405bfb-b3f5-459a-9616-27e77d7569ec","ios":"levelo://app?vid=36405bfb-b3f5-459a-9616-27e77d7569ec"},"vehicle_type_id":"4","last_reported":1728434658,"current_range_meters":38800,"station_id":"ce4bh312rcd13ifvqdk0","pricing_plan_id":"cebpf4jnsgd1na2vs0mg"},{"bike_id":"9f249347-75e4-47cc-bbf5-03b5e106bc17","system_id":"levelo_inurba_marseille","lat":43.28459,"lon":5.35896,"is_reserved":false,"is_disabled":false,"rental_uris":{"android":"levelo://app?vid=9f249347-75e4-47cc-bbf5-03b5e106bc17","ios":"levelo://app?vid=9f249347-75e4-47cc-bbf5-03b5e106bc17"},"vehicle_type_id":"4","last_reported":1728434658,"current_range_meters":32400,"station_id":"ce4bhah2rcd13ifvqei0","pricing_plan_id":"cebpf4jnsgd1na2vs0mg"},{"bike_id":"4a489799-c7fc-4b6a-befb-18b51c7cac5c","system_id":"levelo_inurba_marseille","lat":43.31331,"lon":5.39702,"is_reserved":false,"is_disabled":false,"rental_uris":{"android":"levelo://app?vid=4a489799-c7fc-4b6a-befb-18b51c7cac5c","ios":"levelo://app?vid=4a489799-c7fc-4b6a-befb-18b51c7cac5c"},"vehicle_type_id":"4","last_reported":1728434658,"current_range_meters":38800,"station_id":"ce4bgvp2rcd13ifvqcu0","pricing_plan_id":"cebpf4jnsgd1na2vs0mg"},{"bike_id":"e6d86d2f-929e-412d-b639-89761e6c74e0","system_id":"levelo_inurba_marseille","lat":43.337444,"lon":5.374475,"is_reserved":false,"is_disabled":false,"rental_uris":{"android":"levelo://app?vid=e6d86d2f-929e-412d-b639-89761e6c74e0","ios":"levelo://app?vid=e6d86d2f-929e-412d-b639-89761e6c74e0"},"vehicle_type_id":"4","last_reported":1728434658,"current_range_meters":28000,"station_id":"","pricing_plan_id":"cebpf4jnsgd1na2vs0mg"},{"bike_id":"4746ca8d-9001-4c4b-a2a7-45d43b443c06","system_id":"levelo_inurba_marseille","lat":43.30574,"lon":5.38858,"is_reserved":false,"is_disabled":false,"rental_uris":{"android":"levelo://app?vid=4746ca8d-9001-4c4b-a2a7-45d43b443c06","ios":"levelo://app?vid=4746ca8d-9001-4c4b-a2a7-45d43b443c06"},"vehicle_type_id":"4","last_reported":1728434658,"current_range_meters":30000,"station_id":"","pricing_plan_id":"cebpf4jnsgd1na2vs0mg"},{"bike_id":"519f3bbc-1f74-45d8-976e-3629653692a4","system_id":"levelo_inurba_marseille","lat":43.28151,"lon":5.42634,"is_reserved":false,"is_disabled":false,"rental_uris":{"android":"levelo://app?vid=519f3bbc-1f74-45d8-976e-3629653692a4","ios":"levelo://app?vid=519f3bbc-1f74-45d8-976e-3629653692a4"},"vehicle_type_id":"4","last_reported":1728434658,"current_range_meters":38800,"station_id":"ce4bhnh2rcd13ifvqgug","pricing_plan_id":"cebpf4jnsgd1na2vs0mg"},{"bike_id":"5723cdf0-f0fc-4216-8ec9-db677c2fd517","system_id":"levelo_inurba_marseille","lat":43.31127,"lon":5.3778,"is_reserved":false,"is_disabled":false,"rental_uris":{"android":"levelo://app?vid=5723cdf0-f0fc-4216-8ec9-db677c2fd517","ios":"levelo://app?vid=5723cdf0-f0fc-4216-8ec9-db677c2fd517"},"vehicle_type_id":"4","last_reported":1728434658,"current_range_meters":38800,"station_id":"ce4bgt92rcd13ifvqcg0","pricing_plan_id":"cebpf4jnsgd1na2vs0mg"},{"bike_id":"5605aad9-a50f-4c9d-b9fe-9eaafdbbdd16","system_id":"levelo_inurba_marseille","lat":43.30876,"lon":5.3964,"is_reserved":false,"is_disabled":false,"rental_uris":{"android":"levelo://app?vid=5605aad9-a50f-4c9d-b9fe-9eaafdbbdd16","ios":"levelo://app?vid=5605aad9-a50f-4c9d-b9fe-9eaafdbbdd16"},"vehicle_type_id":"4","last_reported":1728434658,"current_range_meters":5600,"station_id":"ce4bh012rcd13ifvqcv0","pricing_plan_id":"cebpf4jnsgd1na2vs0mg"},{"bike_id":"faa76c66-9da5-41c1-afec-f0c38264aa94","system_id":"levelo_inurba_marseille","lat":43.22932,"lon":5.3538,"is_reserved":false,"is_disabled":false,"rental_uris":{"android":"levelo://app?vid=faa76c66-9da5-41c1-afec-f0c38264aa94","ios":"levelo://app?vid=faa76c66-9da5-41c1-afec-f0c38264aa94"},"vehicle_type_id":"4","last_reported":1728434658,"current_range_meters":25200,"station_id":"cpo3532slgdg3j2ikp40","pricing_plan_id":"cebpf4jnsgd1na2vs0mg"},{"bike_id":"67b75f3d-f633-4a8c-905d-64e37aa1fbb1","system_id":"levelo_inurba_marseille","lat":43.23146,"lon":5.43721,"is_reserved":false,"is_disabled":false,"rental_uris":{"android":"levelo://app?vid=67b75f3d-f633-4a8c-905d-64e37aa1fbb1","ios":"levelo://app?vid=67b75f3d-f633-4a8c-905d-64e37aa1fbb1"},"vehicle_type_id":"4","last_reported":1728434658,"current_range_meters":38400,"station_id":"ce4bhmp2rcd13ifvqgog","pricing_plan_id":"cebpf4jnsgd1na2vs0mg"},{"bike_id":"9dca58e9-6ed3-42fc-b2b2-e8452fa520db","system_id":"levelo_inurba_marseille","lat":43.265657,"lon":5.390075,"is_reserved":false,"is_disabled":false,"rental_uris":{"android":"levelo://app?vid=9dca58e9-6ed3-42fc-b2b2-e8452fa520db","ios":"levelo://app?vid=9dca58e9-6ed3-42fc-b2b2-e8452fa520db"},"vehicle_type_id":"4","last_reported":1728434658,"current_range_meters":38800,"station_id":"ce4bhe12rcd13ifvqf30","pricing_plan_id":"cebpf4jnsgd1na2vs0mg"},{"bike_id":"57e31f62-840f-4b1e-a00a-b95f2bcdb078","system_id":"levelo_inurba_marseille","lat":43.31492,"lon":5.37305,"is_reserved":false,"is_disabled":false,"rental_uris":{"android":"levelo://app?vid=57e31f62-840f-4b1e-a00a-b95f2bcdb078","ios":"levelo://app?vid=57e31f62-840f-4b1e-a00a-b95f2bcdb078"},"vehicle_type_id":"4","last_reported":1728434658,"current_range_meters":38800,"station_id":"ce4bgt12rcd13ifvqcd0","pricing_plan_id":"cebpf4jnsgd1na2vs0mg"},{"bike_id":"ee3fb93f-6ce1-4017-a20b-a68b1249cf58","system_id":"levelo_inurba_marseille","lat":43.31757,"lon":5.39021,"is_reserved":false,"is_disabled":false,"rental_uris":{"android":"levelo://app?vid=ee3fb93f-6ce1-4017-a20b-a68b1249cf58","ios":"levelo://app?vid=ee3fb93f-6ce1-4017-a20b-a68b1249cf58"},"vehicle_type_id":"4","last_reported":1728434658,"current_range_meters":39200,"station_id":"ce4bhqp2rcd13ifvqhng","pricing_plan_id":"cebpf4jnsgd1na2vs0mg"},{"bike_id":"4521cc39-3b96-4524-93b2-848e0507ce14","system_id":"levelo_inurba_marseille","lat":43.2904,"lon":5.35913,"is_reserved":false,"is_disabled":false,"rental_uris":{"android":"levelo://app?vid=4521cc39-3b96-4524-93b2-848e0507ce14","ios":"levelo://app?vid=4521cc39-3b96-4524-93b2-848e0507ce14"},"vehicle_type_id":"4","last_reported":1728434658,"current_range_meters":38800,"station_id":"ce4bha92rcd13ifvqeg0","pricing_plan_id":"cebpf4jnsgd1na2vs0mg"},