{"last_updated":1768375087,"ttl":60,"version":"2.2","data":{"bikes":[{"bike_id":"04ec84f1-706e-4524-95a4-7d82b4caa1ab","system_id":"levelo_inurba_marseille","lat":43.29486,"lon":5.433064,"is_reserved":false,"is_disabled":false,"rental_uris":{"android":"levelo://app?vid=04ec84f1-706e-4524-95a4-7d82b4caa1ab","ios":"levelo://app?vid=04ec84f1-706e-4524-95a4-7d82b4caa1ab"},"vehicle_type_id":"4","last_reported":1768375087,"current_range_meters":2800,"station_id":"st_d3j5ugp08ojc73fj9d10","pricing_plan_id":"cebpf4jnsgd1na2vs0mg"},{"bike_id":"0628f0b3-7776-482c-8ee5-134e44f8ddcc","system_id":"levelo_inurba_marseille","lat":43.25938,"lon":5.409,"is_reserved":false,"is_disabled":false,"rental_uris":{"android":"levelo://app?vid=0628f0b3-7776-482c-8ee5-134e44f8ddcc","ios":"levelo://app?vid=0628f0b3-7776-482c-8ee5-134e44f8ddcc"},"vehicle_type_id":"4","last_reported":1768375087,"current_range_meters":2800,"station_id":"ce4bhm92rcd13ifvqglg","pricing_plan_id":"cebpf4jnsgd1na2vs0mg"},{"bike_id":"d482a981-b8e5-47f2-8ac3-59649288ddda","system_id":"levelo_inurba_marseille","lat":43.301385,"lon":5.380771,"is_reserved":false,"is_disabled":false,"rental_uris":{"android":"levelo://app?vid=d482a981-b8e5-47f2-8ac3-59649288ddda","ios":"levelo://app?vid=d482a981-b8e5-47f2-8ac3-59649288ddda"},"vehicle_type_id":"4","last_reported":1768375087,"current_range_meters":2800,"station_id":"ce4bgjp2rcd13ifvqbh0","pricing_plan_id":"cebpf4jnsgd1na2vs0mg"},{"bike_id":"8a59b28d-9b53-4e6f-bf01-24f62df35e7c","system_id":"levelo_inurba_marseille","lat":43.29172,"lon":5.37159,"is_reserved":false,"is_disabled":false,"rental_uris":{"android":"levelo://app?vid=8a59b28d-9b53-4e6f-bf01-24f62df35e7c","ios":"levelo://app?vid=8a59b28d-9b53-4e6f-bf01-24f62df35e7c"},"vehicle_type_id":"4","last_reported":1768375087,"current_range_meters":2800,"station_id":"ce4bha92rcd13ifvqeh0","pricing_plan_id":"cebpf4jnsgd1na2vs0mg"},{"bike_id":"cf73e13d-86b4-438d-aab1-b429c491e455","system_id":"levelo_inurba_marseille","lat":43.30891,"lon":5.37182,"is_reserved":false,"is_disabled":false,"rental_uris":{"android":"levelo://app?vid=cf73e13d-86b4-438d-aab1-b429c491e455","ios":"levelo://app?vid=cf73e13d-86b4-438d-aab1-b429c491e455"},"vehicle_type_id":"4","last_reported":1768375087,"current_range_meters":2800,"station_id":"ce4bguh2rcd13ifvqckg","pricing_plan_id":"cebpf4jnsgd1na2vs0mg"},{"bike_id":"07a7b147-b66d-4ab3-8840-f296d0b67fcc","system_id":"levelo_inurba_marseille","lat":43.25862,"lon":5.39895,"is_reserved":false,"is_disabled":false,"rental_uris":{"android":"levelo://app?vid=07a7b147-b66d-4ab3-8840-f296d0b67fcc","ios":"levelo://app?vid=07a7b147-b66d-4ab3-8840-f296d0b67fcc"},"vehicle_type_id":"4","last_reported":1768375087,"current_range_meters":2800,"station_id":"ce4bhl92rcd13ifvqghg","pricing_plan_id":"cebpf4jnsgd1na2vs0mg"},{"bike_id":"f34ce2e5-33b6-4187-bd26-bd7acd5eae89","system_id":"levelo_inurba_marseille","lat":43.26546,"lon":5.37254,"is_reserved":false,"is_disabled":false,"rental_uris":{"android":"levelo://app?vid=f34ce2e5-33b6-4187-bd26-bd7acd5eae89","ios":"levelo://app?vid=f34ce2e5-33b6-4187-bd26-bd7acd5eae89"},"vehicle_type_id":"4","last_reported":1768375087,"current_range_meters":2800,"station_id":"ce4bhg12rcd13ifvqf70","pricing_plan_id":"cebpf4jnsgd1na2vs0mg"},{"bike_id":"479d04b3-091e-4637-ab2f-f901b6f36a36","system_id":"levelo_inurba_marseille","lat":43.24162,"lon":5.36394,"is_reserved":false,"is_disabled":false,"rental_uris":{"android":"levelo://app?vid=479d04b3-091e-4637-ab2f-f901b6f36a36","ios":"levelo://app?vid=479d04b3-091e-4637-ab2f-f901b6f36a36"},"vehicle_type_id":"4","last_reported":1768375087,"current_range_meters":2800,"station_id":"cpo36qri1sfpv3e86is0","pricing_plan_id":"cebpf4jnsgd1na2vs0mg"},{"bike_id":"dedc092e-5a64-44c2-8d92-91df13a8a88e","system_id":"levelo_inurba_marseille","lat":43.278144,"lon":5.406914,"is_reserved":false,"is_disabled":false,"rental_uris":{"android":"levelo://app?vid=dedc092e-5a64-44c2-8d92-91df13a8a88e","ios":"levelo://app?vid=dedc092e-5a64-44c2-8d92-91df13a8a88e"},"vehicle_type_id":"4","last_reported":1768375087,"current_range_meters":2800,"station_id":"ce4bhnh2rcd13ifvqgtg","pricing_plan_id":"cebpf4jnsgd1na2vs0mg"},{"bike_id":"d46055d1-aeba-471e-b91d-dd000c167354","system_id":"levelo_inurba_marseille","lat":43.24815,"lon":5.37462,"is_reserved":false,"is_disabled":false,"rental_uris":{"android":"levelo://app?vid=d46055d1-aeba-471e-b91d-dd000c167354","ios":"levelo://app?vid=d46055d1-aeba-471e-b91d-dd000c167354"},"vehicle_type_id":"4","last_reported":1768375087,"current_range_meters":2800,"station_id":"ce4bhgh2rcd13ifvqfb0","pricing_plan_id":"cebpf4jnsgd1na2vs0mg"},{"bike_id":"e5bed33a-c967-4582-b052-7b806f8e7dff","system_id":"levelo_inurba_marseille","lat":43.28266,"lon":5.35065,"is_reserved":false,"is_disabled":false,"rental_uris":{"android":"levelo://app?vid=e5bed33a-c967-4582-b052-7b806f8e7dff","ios":"levelo://app?vid=e5bed33a-c967-4582-b052-7b806f8e7dff"},"vehicle_type_id":"4","last_reported":1768375087,"current_range_meters":2800,"station_id":"ce4bhbp2rcd13ifvqerg","pricing_plan_id":"cebpf4jnsgd1na2vs0mg"},{"bike_id":"4c634be7-9818-49f5-8d71-63e4d896f34f","system_id":"levelo_inurba_marseille","lat":43.30598,"lon":5.37226,"is_reserved":false,"is_disabled":false,"rental_uris":{"android":"levelo://app?vid=4c634be7-9818-49f5-8d71-63e4d896f34f","ios":"levelo://app?vid=4c634be7-9818-49f5-8d71-63e4d896f34f"},"vehicle_type_id":"4","last_reported":1768375087,"current_range_meters":2800,"station_id":"ce4bgqh2rcd13ifvqc4g","pricing_plan_id":"cebpf4jnsgd1na2vs0mg"},{"bike_id":"dde8313a-fc3b-46aa-b9a7-dda3c06bd237","system_id":"levelo_inurba_marseille","lat":43.27494,"lon":5.42447,"is_reserved":false,"is_disabled":false,"rental_uris":{"android":"levelo://app?vid=dde8313a-fc3b-46aa-b9a7-dda3c06bd237","ios":"levelo://app?vid=dde8313a-fc3b-46aa-b9a7-dda3c06bd237"},"vehicle_type_id":"4","last_reported":1768375087,"current_range_meters":2800,"station_id":"ce4bhn92rcd13ifvqgrg","pricing_plan_id":"cebpf4jnsgd1na2vs0mg"},{"bike_id":"c00c862c-8699-45b2-a5cd-16a25e30ba31","system_id":"levelo_inurba_marseille","lat":43.26567,"lon":5.39011,"is_reserved":false,"is_disabled":false,"rental_uris":{"android":"levelo://app?vid=c00c862c-8699-45b2-a5cd-16a25e30ba31","ios":"levelo://app?vid=c00c862c-8699-45b2-a5cd-16a25e30ba31"},"vehicle_type_id":"4","last_reported":1768375087,"current_range_meters":2800,"station_id":"ce4bhe12rcd13ifvqf30","pricing_plan_id":"cebpf4jnsgd1na2vs0mg"},{"bike_id":"02872e5e-41bc-47d4-b124-74b0638c6e65","system_id":"levelo_inurba_marseille","lat":43.29007,"lon":5.35613,"is_reserved":false,"is_disabled":false,"rental_uris":{"android":"levelo://app?vid=02872e5e-41bc-47d4-b124-74b0638c6e65","ios":"levelo://app?vid=02872e5e-41bc-47d4-b124-74b0638c6e65"},"vehicle_type_id":"4","last_reported":1768375087,"current_range_meters":2800,"station_id":"ce4bhb92rcd13ifvqen0","pricing_plan_id":"cebpf4jnsgd1na2vs0mg"},{"bike_id":"84395230-17a0-4801-81be-563fe2e8d1e3","system_id":"levelo_inurba_marseille","lat":43.28651,"lon":5.36344,"is_reserved":false,"is_disabled":false,"rental_uris":{"android":"levelo://app?vid=84395230-17a0-4801-81be-563fe2e8d1e3","ios":"levelo://app?vid=84395230-17a0-4801-81be-563fe2e8d1e3"},"vehicle_type_id":"4","last_reported":1768375087,"current_range_meters":2800,"station_id":"ce4bhah2rcd13ifvqej0","pricing_plan_id":"cebpf4jnsgd1na2vs0mg"},{"bike_id":"3c91a548-2cc3-4705-ab80-5230129be485","system_id":"levelo_inurba_marseille","lat":43.29831,"lon":5.37655,"is_reserved":false,"is_disabled":false,"rental_uris":{"android":"levelo://app?vid=3c91a548-2cc3-4705-ab80-5230129be485","ios":"levelo://app?vid=3c91a548-2cc3-4705-ab80-5230129be485"},"vehicle_type_id":"4","last_reported":1768375087,"current_range_meters":2800,"station_id":"","pricing_plan_id":"cebpf4jnsgd1na2vs0mg"},{"bike_id":"a697b178-790d-4592-a00c-7ee0bedd6efb","system_id":"levelo_inurba_marseille","lat":43.28977,"lon":5.37837,"is_reserved":false,"is_disabled":false,"rental_uris":{"android":"levelo://app?vid=a697b178-790d-4592-a00c-7ee0bedd6efb","ios":"levelo://app?vid=a697b178-790d-4592-a00c-7ee0bedd6efb"},"vehicle_type_id":"4","last_reported":1768375087,"current_range_meters":2800,"station_id":"ce4bh9p2rcd13ifvqed0","pricing_plan_id":"cebpf4jnsgd1na2vs0mg"},{"bike_id":"a2d976b2-4930-45bf-896b-10cb61922490","system_id":"levelo_inurba_marseille","lat":43.231898,"lon":5.355593,"is_reserved":false,"is_disabled":false,"rental_uris":{"android":"levelo://app?vid=a2d976b2-4930-45bf-896b-10cb61922490","ios":"levelo://app?vid=a2d976b2-4930-45bf-896b-10cb61922490"},"vehicle_type_id":"4","last_reported":1768375087,"current_range_meters":2800,"station_id":"ce4bhu92rcd13ifvqi70","pricing_plan_id":"cebpf4jnsgd1na2vs0mg"},{"bike_id":"ad7187c1-3ab5-43ad-a676-62277cab75d8","system_id":"levelo_inurba_marseille","lat":43.26905,"lon":5.40288,"is_reserved":false,"is_disabled":false,"rental_uris":{"android":"levelo://app?vid=ad7187c1-3ab5-43ad-a676-62277cab75d8","ios":"levelo://app?vid=ad7187c1-3ab5-43ad-a676-62277cab75d8"},"vehicle_type_id":"4","last_reported":1768375087,"current_range_meters":3200,"station_id":"cjm6bp8fraef2m0cb0m0","pricing_plan_id":"cebpf4jnsgd1na2vs0mg"},{"bike_id":"6f79d757-9588-4eb5-bfc7-4efded30fef6","system_id":"levelo_inurba_marseille","lat":43.29567,"lon":5.37522,"is_reserved":false,"is_disabled":false,"rental_uris":{"android":"levelo://app?vid=6f79d757-9588-4eb5-bfc7-4efded30fef6","ios":"levelo://app?vid=6f79d757-9588-4eb5-bfc7-4efded30fef6"},"vehicle_type_id":"4","last_reported":1768375087,"current_range_meters":3200,"station_id":"ce4bgh92rcd13ifvqb50","pricing_plan_id":"cebpf4jnsgd1na2vs0mg"},{"bike_id":"48395e8e-6aaf-45af-8e4f-2e84f998f576","system_id":"levelo_inurba_marseille","lat":43.31635,"lon":5.38324,"is_reserved":false,"is_disabled":false,"rental_uris":{"android":"levelo://app?vid=48395e8e-6aaf-45af-8e4f-2e84f998f576","ios":"levelo://app?vid=48395e8e-6aaf-45af-8e4f-2e84f998f576"},"vehicle_type_id":"4","last_reported":1768375087,"current_range_meters":3200,"station_id":"","pricing_plan_id":"cebpf4jnsgd1na2vs0mg"},{"bike_id":"3b88fccb-2070-42e4-8a4f-8d5ceb071e46","system_id":"levelo_inurba_marseille","lat":43.3254,"lon":5.41421,"is_reserved":false,"is_disabled":false,"rental_uris":{"android":"levelo://app?vid=3b88fccb-2070-42e4-8a4f-8d5ceb071e46","ios":"levelo://app?vid=3b88fccb-2070-42e4-8a4f-8d5ceb071e46"},"vehicle_type_id":"4","last_reported":1768375087,"current_range_meters":3200,"station_id":"ce4bhq12rcd13ifvqhhg","pricing_plan_id":"cebpf4jnsgd1na2vs0mg"},{"bike_id":"5af3242c-9133-4734-9374-77f1f4f62acf","system_id":"levelo_inurba_marseille","lat":43.24141,"lon":5.3643,"is_reserved":false,"is_disabled":false,"rental_uris":{"android":"levelo://app?vid=5af3242c-9133-4734-9374-77f1f4f62acf","ios":"levelo://app?vid=5af3242c-9133-4734-9374-77f1f4f62acf"},"vehicle_type_id":"4","last_reported":1768375087,"current_range_meters":3200,"station_id":"cpo36qri1sfpv3e86is0","pricing_plan_id":"cebpf4jnsgd1na2vs0mg"},{"bike_id":"7d8b4a96-12ec-44ee-9ebd-48ad324b1e13","system_id":"levelo_inurba_marseille","lat":43.28224,"lon":5.39064,"is_reserved":false,"is_disabled":false,"rental_uris":{"android":"levelo://app?vid=7d8b4a96-12ec-44ee-9ebd-48ad324b1e13","ios":"levelo://app?vid=7d8b4a96-12ec-44ee-9ebd-48ad324b1e13"},"vehicle_type_id":"4","last_reported":1768375087,"current_range_meters":3200,"station_id":"ce4bhn92rcd13ifvqgsg","pricing_plan_id":"cebpf4jnsgd1na2vs0mg"},{"bike_id":"7853a038-add4-4db6-a4ec-3ad5a74e7529","system_id":"levelo_inurba_marseille","lat":43.29604,"lon":5.380867,"is_reserved":false,"is_disabled":false,"rental_uris":{"android":"levelo://app?vid=7853a038-add4-4db6-a4ec-3ad5a74e7529","ios":"levelo://app?vid=7853a038-add4-4db6-a4ec-3ad5a74e7529"},"vehicle_type_id":"4","last_reported":1768375087,"current_range_meters":3200,"station_id":"ce4bgl12rcd13ifvqbo0","pricing_plan_id":"cebpf4jnsgd1na2vs0mg"},{"bike_id":"7081730b-7cb8-478a-8a20-7ed3e76630e6","system_id":"levelo_inurba_marseille","lat":43.29606,"lon":5.38091,"is_reserved":false,"is_disabled":false,"rental_uris":{"android":"levelo://app?vid=7081730b-7cb8-478a-8a20-7ed3e76630e6","ios":"levelo://app?vid=7081730b-7cb8-478a-8a20-7ed3e76630e6"},"vehicle_type_id":"4","last_reported":1768375087,"current_range_meters":3200,"station_id":"ce4bgl12rcd13ifvqbo0","pricing_plan_id":"cebpf4jnsgd1na2vs0mg"},{"bike_id":"00ecf178-30a7-43b8-9a77-5308a08cf29e","system_id":"levelo_inurba_marseille","lat":43.2495,"lon":5.40506,"is_reserved":false,"is_disabled":false,"rental_uris":{"android":"levelo://app?vid=00ecf178-30a7-43b8-9a77-5308a08cf29e","ios":"levelo://app?vid=00ecf178-30a7-43b8-9a77-5308a08cf29e"},"vehicle_type_id":"4","last_reported":1768375087,"current_range_meters":3200,"station_id":"st_d2ngiaodas8pm72gd1h0","pricing_plan_id":"cebpf4jnsgd1na2vs0mg"},{"bike_id":"5335de27-5e88-4333-8998-b7e9ee9f6042","system_id":"levelo_inurba_marseille","lat":43.24805,"lon":5.37458,"is_reserved":false,"is_disabled":false,"rental_uris":{"android":"levelo://app?vid=5335de27-5e88-4333-8998-b7e9ee9f6042","ios":"levelo://app?vid=5335de27-5e88-4333-8998-b7e9ee9f6042"},"vehicle_type_id":"4","last_reported":1768375087,"current_range_meters":3200,"station_id":"ce4bhgh2rcd13ifvqfb0","pricing_plan_id":"cebpf4jnsgd1na2vs0mg"},{"bike_id":"435db267-3d15-44f5-8420-37d50b585844","system_id":"levelo_inurba_marseille","lat":43.29686,"lon":5.37286,"is_reserved":false,"is_disabled":false,"rental_uris":{"android":"levelo://app?vid=435db267-3d15-44f5-8420-37d50b585844","ios":"levelo://app?vid=435db267-3d15-44f5-8420-37d50b585844"},"vehicle_type_id":"4","last_reported":1768375087,"current_range_meters":3200,"station_id":"ce4bgk12rcd13ifvqbj0","pricing_plan_id":"cebpf4jnsgd1na2vs0mg"},{"bike_id":"35849305-954b-4864-bd14-c9f086ede345","system_id":"levelo_inurba_marseille","lat":43.2828,"lon":5.35064,"is_reserved":false,"is_disabled":false,"rental_uris":{"android":"levelo://app?vid=35849305-954b-4864-bd14-c9f086ede345","ios":"levelo://app?vid=35849305-954b-4864-bd14-c9f086ede345"},"vehicle_type_id":"4","last_reported":1768375087,"current_range_meters":3200,"station_id":"ce4bhbp2rcd13ifvqerg","pricing_plan_id":"cebpf4jnsgd1na2vs0mg"},{"bike_id":"b18ac3c9-14e5-4efa-9da9-02ee070d0040","system_id":"levelo_inurba_marseille","lat":43.30893,"lon":5.39638,"is_reserved":false,"is_disabled":false,"rental_uris":{"android":"levelo://app?vid=b18ac3c9-14e5-4efa-9da9-02ee070d0040","ios":"levelo://app?vid=b18ac3c9-14e5-4efa-9da9-02ee070d0040"},"vehicle_type_id":"4","last_reported":1768375087,"current_range_meters":3200,"station_id":"ce4bh012rcd13ifvqcv0","pricing_plan_id":"cebpf4jnsgd1na2vs0mg"},{"bike_id":"a947621c-cc32-4c57-86c8-37a227c68519","system_id":"levelo_inurba_marseille","lat":43.25832,"lon":5.39898,"is_reserved":false,"is_disabled":false,"rental_uris":{"android":"levelo://app?vid=a947621c-cc32-4c57-86c8-37a227c68519","ios":"levelo://app?vid=a947621c-cc32-4c57-86c8-37a227c68519"},"vehicle_type_id":"4","last_reported":1768375087,"current_range_meters":3600,"station_id":"ce4bhl92rcd13ifvqghg","pricing_plan_id":"cebpf4jnsgd1na2vs0mg"},{"bike_id":"5c513b35-843f-4bf9-bb5d-9f3924c22006","system_id":"levelo_inurba_marseille","lat":43.26883,"lon":5.4025,"is_reserved":false,"is_disabled":false,"rental_uris":{"android":"levelo://app?vid=5c513b35-843f-4bf9-bb5d-9f3924c22006","ios":"levelo://app?vid=5c513b35-843f-4bf9-bb5d-9f3924c22006"},"vehicle_type_id":"4","last_reported":1768375087,"current_range_meters":3600,"station_id":"","pricing_plan_id":"cebpf4jnsgd1na2vs0mg"},{"bike_id":"cafe9508-7db5-496a-a0cd-bcd349231be5","system_id":"levelo_inurba_marseille","lat":43.255088,"lon":5.376544,"is_reserved":false,"is_disabled":false,"rental_uris":{"android":"levelo://app?vid=cafe9508-7db5-496a-a0cd-bcd349231be5","ios":"levelo://app?vid=cafe9508-7db5-496a-a0cd-bcd349231be5"},"vehicle_type_id":"4","last_reported":1768375087,"current_range_meters":3600,"station_id":"ce4bhh12rcd13ifvqff0","pricing_plan_id":"cebpf4jnsgd1na2vs0mg"},{"bike_id":"abcd74ad-91b3-4bfb-baff-2442ed322096","system_id":"levelo_inurba_marseille","lat":43.315151,"lon":5.380328,"is_reserved":false,"is_disabled":false,"rental_uris":{"android":"levelo://app?vid=abcd74ad-91b3-4bfb-baff-2442ed322096","ios":"levelo://app?vid=abcd74ad-91b3-4bfb-baff-2442ed322096"},"vehicle_type_id":"4","last_reported":1768375087,"current_range_meters":3600,"station_id":"ce4bghh2rcd13ifvqb60","pricing_plan_id":"cebpf4jnsgd1na2vs0mg"},{"bike_id":"6f340d65-8a96-4245-a37f-c84a4e9a1d07","system_id":"levelo_inurba_marseille","lat":43.32363,"lon":5.36742,"is_reserved":false,"is_disabled":false,"rental_uris":{"android":"levelo://app?vid=6f340d65-8a96-4245-a37f-c84a4e9a1d07","ios":"levelo://app?vid=6f340d65-8a96-4245-a37f-c84a4e9a1d07"},"vehicle_type_id":"4","last_reported":1768375087,"current_range_meters":3600,"station_id":"ce4bhsh2rcd13ifvqi2g","pricing_plan_id":"cebpf4jnsgd1na2vs0mg"},{"bike_id":"e0b736cf-1ab2-4544-a405-b305fb79ae81","system_id":"levelo_inurba_marseille","lat":43.29688,"lon":5.37289,"is_reserved":false,"is_disabled":false,"rental_uris":{"android":"levelo://app?vid=e0b736cf-1ab2-4544-a405-b305fb79ae81","ios":"levelo://app?vid=e0b736cf-1ab2-4544-a405-b305fb79ae81"},"vehicle_type_id":"4","last_reported":1768375087,"current_range_meters":3600,"station_id":"ce4bgk12rcd13ifvqbj0","pricing_plan_id":"cebpf4jnsgd1na2vs0mg"},{"bike_id":"77648d21-2eba-4733-a182-ee140dc2d61a","system_id":"levelo_inurba_marseille","lat":43.23189,"lon":5.35531,"is_reserved":false,"is_disabled":false,"rental_uris":{"android":"levelo://app?vid=77648d21-2eba-4733-a182-ee140dc2d61a","ios":"levelo://app?vid=77648d21-2eba-4733-a182-ee140dc2d61a"},"vehicle_type_id":"4","last_reported":1768375087,"current_range_meters":3600,"station_id":"ce4bhu92rcd13ifvqi70","pricing_plan_id":"cebpf4jnsgd1na2vs0mg"},{"bike_id":"f410f9df-96ab-419f-b024-528d339388eb","system_id":"levelo_inurba_marseille","lat":43.30595,"lon":5.39362,"is_reserved":false,"is_disabled":false,"rental_uris":{"android":"levelo://app?vid=f410f9df-96ab-419f-b024-528d339388eb","ios":"levelo://app?vid=f410f9df-96ab-419f-b024-528d339388eb"},"vehicle_type_id":"4","last_reported":1768375087,"current_range_meters":3600,"station_id":"ce4bh0p2rcd13ifvqd80","pricing_plan_id":"cebpf4jnsgd1na2vs0mg"},{"bike_id":"9af6439d-78fa-4b0d-a1a0-dc05ff49244a","system_id":"levelo_inurba_marseille","lat":43.23764,"lon":5.36608,"is_reserved":false,"is_disabled":false,"rental_uris":{"android":"levelo://app?vid=9af6439d-78fa-4b0d-a1a0-dc05ff49244a","ios":"levelo://app?vid=9af6439d-78fa-4b0d-a1a0-dc05ff49244a"},"vehicle_type_id":"4","last_reported":1768375087,"current_range_meters":4000,"station_id":"st_d3nk18o9ro0c73en2l3g","pricing_plan_id":"cebpf4jnsgd1na2vs0mg"},{"bike_id":"3db0fcf7-9abc-4be1-b3b7-ce569865437a","system_id":"levelo_inurba_marseille","lat":43.24951,"lon":5.40499,"is_reserved":false,"is_disabled":false,"rental_uris":{"android":"levelo://app?vid=3db0fcf7-9abc-4be1-b3b7-ce569865437a","ios":"levelo://app?vid=3db0fcf7-9abc-4be1-b3b7-ce569865437a"},"vehicle_type_id":"4","last_reported":1768375087,"current_range_meters":4000,"station_id":"st_d2ngiaodas8pm72gd1h0","pricing_plan_id":"cebpf4jnsgd1na2vs0mg"},{"bike_id":"ebb10861-12ff-4141-8d3f-f237f2035add","system_id":"levelo_inurba_marseille","lat":43.299782,"lon":5.371745,"is_reserved":false,"is_disabled":false,"rental_uris":{"android":"levelo://app?vid=ebb10861-12ff-4141-8d3f-f237f2035add","ios":"levelo://app?vid=ebb10861-12ff-4141-8d3f-f237f2035add"},"vehicle_type_id":"4","last_reported":1768375087,"current_range_meters":4000,"station_id":"ce4bgr92rcd13ifvqc7g","pricing_plan_id":"cebpf4jnsgd1na2vs0mg"},{"bike_id":"b01bd06b-fc49-4792-951c-f196ad6738f6","system_id":"levelo_inurba_marseille","lat":43.29782,"lon":5.3809,"is_reserved":false,"is_disabled":false,"rental_uris":{"android":"levelo://app?vid=b01bd06b-fc49-4792-951c-f196ad6738f6","ios":"levelo://app?vid=b01bd06b-fc49-4792-951c-f196ad6738f6"},"vehicle_type_id":"4","last_reported":1768375087,"current_range_meters":4000,"station_id":"ce4bgip2rcd13ifvqbb0","pricing_plan_id":"cebpf4jnsgd1na2vs0mg"},{"bike_id":"6688a629-7822-4dde-a1b1-aa24df94d1e6","system_id":"levelo_inurba_marseille","lat":43.31356,"lon":5.3671,"is_reserved":false,"is_disabled":true,"rental_uris":{"android":"levelo://app?vid=6688a629-7822-4dde-a1b1-aa24df94d1e6","ios":"levelo://app?vid=6688a629-7822-4dde-a1b1-aa24df94d1e6"},"vehicle_type_id":"4","last_reported":1768375087,"current_range_meters":4000,"station_id":"ce4bgr92rcd13ifvqc6g","pricing_plan_id":"cebpf4jnsgd1na2vs0mg"},{"bike_id":"877508b3-9095-4431-8056-dd6da7db4ee4","system_id":"levelo_inurba_marseille","lat":43.28532,"lon":5.44094,"is_reserved":false,"is_disabled":false,"rental_uris":{"android":"levelo://app?vid=877508b3-9095-4431-8056-dd6da7db4ee4","ios":"levelo://app?vid=877508b3-9095-4431-8056-dd6da7db4ee4"},"vehicle_type_id":"4","last_reported":1768375087,"current_range_meters":4000,"station_id":"st_d3j3df2ikq2c7380ej80","pricing_plan_id":"cebpf4jnsgd1na2vs0mg"},{"bike_id":"d97e0ede-3940-40ea-9e91-339dcd403227","system_id":"levelo_inurba_marseille","lat":43.25719,"lon":5.41109,"is_reserved":false,"is_disabled":false,"rental_uris":{"android":"levelo://app?vid=d97e0ede-3940-40ea-9e91-339dcd403227","ios":"levelo://app?vid=d97e0ede-3940-40ea-9e91-339dcd403227"},"vehicle_type_id":"4","last_reported":1768375087,"current_range_meters":4000,"station_id":"ce4bhkp2rcd13ifvqgd0","pricing_plan_id":"cebpf4jnsgd1na2vs0mg"},{"bike_id":"3502b945-707a-499e-b3af-6caf8e3903bc","system_id":"levelo_inurba_marseille","lat":43.28489,"lon":5.48384,"is_reserved":false,"is_disabled":false,"rental_uris":{"android":"levelo://app?vid=3502b945-707a-499e-b3af-6caf8e3903bc","ios":"levelo://app?vid=3502b945-707a-499e-b3af-6caf8e3903bc"},"vehicle_type_id":"4","last_reported":1768375087,"current_range_meters":4000,"station_id":"","pricing_plan_id":"cebpf4jnsgd1na2vs0mg"},{"bike_id":"37f478a4-02ba-45f2-a4d6-fdcdc6b39bc8","system_id":"levelo_inurba_marseille","lat":43.28828,"lon":5.4263,"is_reserved":false,"is_disabled":false,"rental_uris":{"android":"levelo://app?vid=37f478a4-02ba-45f2-a4d6-fdcdc6b39bc8","ios":"levelo://app?vid=37f478a4-02ba-45f2-a4d6-fdcdc6b39bc8"},"vehicle_type_id":"4","last_reported":1768375087,"current_range_meters":4000,"station_id":"","pricing_plan_id":"cebpf4jnsgd1na2vs0mg"},{"bike_id":"d44da389-3a87-4535-a64e-c256b77944a6","system_id":"levelo_inurba_marseille","lat":43.289415,"lon":5.366416,"is_reserved":false,"is_disabled":false,"rental_uris":{"android":"levelo://app?vid=d44da389-3a87-4535-a64e-c256b77944a6","ios":"levelo://app?vid=d44da389-3a87-4535-a64e-c256b77944a6"},"vehicle_type_id":"4","last_reported":1768375087,"current_range_meters":4000,"station_id":"ce4bhap2rcd13ifvqek0","pricing_plan_id":"cebpf4jnsgd1na2vs0mg"},{"bike_id":"3655a9f7-901b-4885-8038-e7046951f14d","system_id":"levelo_inurba_marseille","lat":43.2977,"lon":5.42759,"is_reserved":false,"is_disabled":false,"rental_uris":{"android":"levelo://app?vid=3655a9f7-901b-4885-8038-e7046951f14d","ios":"levelo://app?vid=3655a9f7-901b-4885-8038-e7046951f14d"},"vehicle_type_id":"4","last_reported":1768375087,"current_range_meters":4000,"station_id":"st_d3md5207bmas73dh9klg","pricing_plan_id":"cebpf4jnsgd1na2vs0mg"},{"bike_id":"f44e7fc0-57ad-4c5c-87c8-d57ce9d37a8a","system_id":"levelo_inurba_marseille","lat":43.26198,"lon":5.37457,"is_reserved":false,"is_disabled":false,"rental_uris":{"android":"levelo://app?vid=f44e7fc0-57ad-4c5c-87c8-d57ce9d37a8a","ios":"levelo://app?vid=f44e7fc0-57ad-4c5c-87c8-d57ce9d37a8a"},"vehicle_type_id":"4","last_reported":1768375087,"current_range_meters":4000,"station_id":"ce4bhgp2rcd13ifvqfc0","pricing_plan_id":"cebpf4jnsgd1na2vs0mg"},{"bike_id":"ffcf206e-2a6e-4fc2-8998-7e22064b3e4e","system_id":"levelo_inurba_marseille","lat":43.295294,"lon":5.385488,"is_reserved":false,"is_disabled":false,"rental_uris":{"android":"levelo://app?vid=ffcf206e-2a6e-4fc2-8998-7e22064b3e4e","ios":"levelo://app?vid=ffcf206e-2a6e-4fc2-8998-7e22064b3e4e"},"vehicle_type_id":"4","last_reported":1768375087,"current_range_meters":4400,"station_id":"ce4bgih2rcd13ifvqba0","pricing_plan_id":"cebpf4jnsgd1na2vs0mg"},{"bike_id":"81650adf-0280-4e4b-889a-c23ed1914cfa","system_id":"levelo_inurba_marseille","lat":43.27838,"lon":5.392,"is_reserved":false,"is_disabled":false,"rental_uris":{"android":"levelo://app?vid=81650adf-0280-4e4b-889a-c23ed1914cfa","ios":"levelo://app?vid=81650adf-0280-4e4b-889a-c23ed1914cfa"},"vehicle_type_id":"4","last_reported":1768375087,"current_range_meters":4400,"station_id":"ce4bhjp2rcd13ifvqga0","pricing_plan_id":"cebpf4jnsgd1na2vs0mg"},{"bike_id":"f38b4217-e7ce-4441-9531-2f1d1a856441","system_id":"levelo_inurba_marseille","lat":43.28327,"lon":5.38105,"is_reserved":false,"is_disabled":true,"rental_uris":{"android":"levelo://app?vid=f38b4217-e7ce-4441-9531-2f1d1a856441","ios":"levelo://app?vid=f38b4217-e7ce-4441-9531-2f1d1a856441"},"vehicle_type_id":"4","last_reported":1768375087,"current_range_meters":4400,"station_id":"ce4bh412rcd13ifvqdr0","pricing_plan_id":"cebpf4jnsgd1na2vs0mg"},{"bike_id":"ea9769ab-39d8-4325-b701-f75eef547046","system_id":"levelo_inurba_marseille","lat":43.22536,"lon":5.34825,"is_reserved":false,"is_disabled":false,"rental_uris":{"android":"levelo://app?vid=ea9769ab-39d8-4325-b701-f75eef547046","ios":"levelo://app?vid=ea9769ab-39d8-4325-b701-f75eef547046"},"vehicle_type_id":"4","last_reported":1768375087,"current_range_meters":4400,"station_id":"st_cvj5dfep6f1abm77gieg","pricing_plan_id":"cebpf4jnsgd1na2vs0mg"},{"bike_id":"34809879-5c78-46b9-8640-8f0f333de3ff","system_id":"levelo_inurba_marseille","lat":43.23191,"lon":5.39982,"is_reserved":false,"is_disabled":false,"rental_uris":{"android":"levelo://app?vid=34809879-5c78-46b9-8640-8f0f333de3ff","ios":"levelo://app?vid=34809879-5c78-46b9-8640-8f0f333de3ff"},"vehicle_type_id":"4","last_reported":1768375087,"current_range_meters":4400,"station_id":"ce4bhn12rcd13ifvqgqg","pricing_plan_id":"cebpf4jnsgd1na2vs0mg"},{"bike_id":"d3adc42d-0576-4954-8492-720260568653","system_id":"levelo_inurba_marseille","lat":43.2463,"lon":5.38913,"is_reserved":false,"is_disabled":false,"rental_uris":{"android":"levelo://app?vid=d3adc42d-0576-4954-8492-720260568653","ios":"levelo://app?vid=d3adc42d-0576-4954-8492-720260568653"},"vehicle_type_id":"4","last_reported":1768375087,"current_range_meters":4400,"station_id":"ce4bhg12rcd13ifvqf60","pricing_plan_id":"cebpf4jnsgd1na2vs0mg"},{"bike_id":"bf87b720-3963-46cc-a1f5-4b941bd16732","system_id":"levelo_inurba_marseille","lat":43.30475,"lon":5.37897,"is_reserved":false,"is_disabled":false,"rental_uris":{"android":"levelo://app?vid=bf87b720-3963-46cc-a1f5-4b941bd16732","ios":"levelo://app?vid=bf87b720-3963-46cc-a1f5-4b941bd16732"},"vehicle_type_id":"4","last_reported":1768375087,"current_range_meters":4400,"station_id":"ce4bgup2rcd13ifvqcn0","pricing_plan_id":"cebpf4jnsgd1na2vs0mg"},{"bike_id":"b945bd28-a3b4-4961-a0bf-743fe57cc1a5","system_id":"levelo_inurba_marseille","lat":43.29898,"lon":5.43663,"is_reserved":false,"is_disabled":false,"rental_uris":{"android":"levelo://app?vid=b945bd28-a3b4-4961-a0bf-743fe57cc1a5","ios":"levelo://app?vid=b945bd28-a3b4-4961-a0bf-743fe57cc1a5"},"vehicle_type_id":"4","last_reported":1768375087,"current_range_meters":4400,"station_id":"ce4bhpp2rcd13ifvqhfg","pricing_plan_id":"cebpf4jnsgd1na2vs0mg"},{"bike_id":"1f93f595-e601-4fc1-8ef1-644d261550d1","system_id":"levelo_inurba_marseille","lat":43.28432,"lon":5.39194,"is_reserved":false,"is_disabled":false,"rental_uris":{"android":"levelo://app?vid=1f93f595-e601-4fc1-8ef1-644d261550d1","ios":"levelo://app?vid=1f93f595-e601-4fc1-8ef1-644d261550d1"},"vehicle_type_id":"4","last_reported":1768375087,"current_range_meters":4400,"station_id":"ce4bhoh2rcd13ifvqh5g","pricing_plan_id":"cebpf4jnsgd1na2vs0mg"},{"bike_id":"d12a5c37-df8a-440d-b99b-49d121d9a484","system_id":"levelo_inurba_marseille","lat":43.22932,"lon":5.35384,"is_reserved":false,"is_disabled":false,"rental_uris":{"android":"levelo://app?vid=d12a5c37-df8a-440d-b99b-49d121d9a484","ios":"levelo://app?vid=d12a5c37-df8a-440d-b99b-49d121d9a484"},"vehicle_type_id":"4","last_reported":1768375087,"current_range_meters":4400,"station_id":"cpo3532slgdg3j2ikp40","pricing_plan_id":"cebpf4jnsgd1na2vs0mg"},{"bike_id":"bee2231a-aedd-4f8a-ae11-883f123d575e","system_id":"levelo_inurba_marseille","lat":43.31218,"lon":5.38182,"is_reserved":false,"is_disabled":false,"rental_uris":{"android":"levelo://app?vid=bee2231a-aedd-4f8a-ae11-883f123d575e","ios":"levelo://app?vid=bee2231a-aedd-4f8a-ae11-883f123d575e"},"vehicle_type_id":"4","last_reported":1768375087,"current_range_meters":4400,"station_id":"","pricing_plan_id":"cebpf4jnsgd1na2vs0mg"},{"bike_id":"a8ecfe7d-195f-47f3-8f55-54974257ce75","system_id":"levelo_inurba_marseille","lat":43.26561,"lon":5.40317,"is_reserved":false,"is_disabled":false,"rental_uris":{"android":"levelo://app?vid=a8ecfe7d-195f-47f3-8f55-54974257ce75","ios":"levelo://app?vid=a8ecfe7d-195f-47f3-8f55-54974257ce75"},"vehicle_type_id":"4","last_reported":1768375087,"current_range_meters":4800,"station_id":"ce4bhmp2rcd13ifvqgng","pricing_plan_id":"cebpf4jnsgd1na2vs0mg"},{"bike_id":"a9ceab4f-7363-474c-a0e0-4e83cf033539","system_id":"levelo_inurba_marseille","lat":43.28938,"lon":5.36612,"is_reserved":false,"is_disabled":false,"rental_uris":{"android":"levelo://app?vid=a9ceab4f-7363-474c-a0e0-4e83cf033539","ios":"levelo://app?vid=a9ceab4f-7363-474c-a0e0-4e83cf033539"},"vehicle_type_id":"4","last_reported":1768375087,"current_range_meters":4800,"station_id":"ce4bhap2rcd13ifvqek0","pricing_plan_id":"cebpf4jnsgd1na2vs0mg"},{"bike_id":"754deb6d-b707-4695-aea3-a1b1544cd133","system_id":"levelo_inurba_marseille","lat":43.31564,"lon":5.36634,"is_reserved":false,"is_disabled":false,"rental_uris":{"android":"levelo://app?vid=754deb6d-b707-4695-aea3-a1b1544cd133","ios":"levelo://app?vid=754deb6d-b707-4695-aea3-a1b1544cd133"},"vehicle_type_id":"4","last_reported":1768375087,"current_range_meters":4800,"station_id":"","pricing_plan_id":"cebpf4jnsgd1na2vs0mg"},{"bike_id":"1801c6f9-0c65-4e78-bbf2-c91fed55b8f3","system_id":"levelo_inurba_marseille","lat":43.26177,"lon":5.3745,"is_reserved":false,"is_disabled":false,"rental_uris":{"android":"levelo://app?vid=1801c6f9-0c65-4e78-bbf2-c91fed55b8f3","ios":"levelo://app?vid=1801c6f9-0c65-4e78-bbf2-c91fed55b8f3"},"vehicle_type_id":"4","last_reported":1768375087,"current_range_meters":4800,"station_id":"ce4bhgp2rcd13ifvqfc0","pricing_plan_id":"cebpf4jnsgd1na2vs0mg"},{"bike_id":"0b0bd9e8-0e91-4cd7-8087-c13549508128","system_id":"levelo_inurba_marseille","lat":43.28533,"lon":5.44096,"is_reserved":false,"is_disabled":false,"rental_uris":{"android":"levelo://app?vid=0b0bd9e8-0e91-4cd7-8087-c13549508128","ios":"levelo://app?vid=0b0bd9e8-0e91-4cd7-8087-c13549508128"},"vehicle_type_id":"4","last_reported":1768375087,"current_range_meters":4800,"station_id":"st_d3j3df2ikq2c7380ej80","pricing_plan_id":"cebpf4jnsgd1na2vs0mg"},{"bike_id":"2c28e345-3b7f-4fdf-87d4-a456c2fe72fa","system_id":"levelo_inurba_marseille","lat":43.27214,"lon":5.39191,"is_reserved":false,"is_disabled":false,"rental_uris":{"android":"levelo://app?vid=2c28e345-3b7f-4fdf-87d4-a456c2fe72fa","ios":"levelo://app?vid=2c28e345-3b7f-4fdf-87d4-a456c2fe72fa"},"vehicle_type_id":"4","last_reported":1768375087,"current_range_meters":4800,"station_id":"ce4bhhp2rcd13ifvqfm0","pricing_plan_id":"cebpf4jnsgd1na2vs0mg"},{"bike_id":"ee6bb603-2e1d-4a52-ab5e-41c6bc6127f2","system_id":"levelo_inurba_marseille","lat":43.25508,"lon":5.3765,"is_reserved":false,"is_disabled":false,"rental_uris":{"android":"levelo://app?vid=ee6bb603-2e1d-4a52-ab5e-41c6bc6127f2","ios":"levelo://app?vid=ee6bb603-2e1d-4a52-ab5e-41c6bc6127f2"},"vehicle_type_id":"4","last_reported":1768375087,"current_range_meters":4800,"station_id":"","pricing_plan_id":"cebpf4jnsgd1na2vs0mg"},{"bike_id":"8095316e-1f14-4289-a6c9-f7c766e6f4c5","system_id":"levelo_inurba_marseille","lat":43.30459,"lon":5.37898,"is_reserved":false,"is_disabled":false,"rental_uris":{"android":"levelo://app?vid=8095316e-1f14-4289-a6c9-f7c766e6f4c5","ios":"levelo://app?vid=8095316e-1f14-4289-a6c9-f7c766e6f4c5"},"vehicle_type_id":"4","last_reported":1768375087,"current_range_meters":4800,"station_id":"ce4bgup2rcd13ifvqcn0","pricing_plan_id":"cebpf4jnsgd1na2vs0mg"},{"bike_id":"3d44c391-3636-4c92-bdc2-ea5ed37600c1","system_id":"levelo_inurba_marseille","lat":43.27948,"lon":5.38742,"is_reserved":false,"is_disabled":false,"rental_uris":{"android":"levelo://app?vid=3d44c391-3636-4c92-bdc2-ea5ed37600c1","ios":"levelo://app?vid=3d44c391-3636-4c92-bdc2-ea5ed37600c1"},"vehicle_type_id":"4","last_reported":1768375087,"current_range_meters":4800,"station_id":"ce4bhg12rcd13ifvqf80","pricing_plan_id":"cebpf4jnsgd1na2vs0mg"},{"bike_id":"8a7b85d3-c7d2-4196-b1ab-690364287dcf","system_id":"levelo_inurba_marseille","lat":43.31353,"lon":5.36722,"is_reserved":false,"is_disabled":false,"rental_uris":{"android":"levelo://app?vid=8a7b85d3-c7d2-4196-b1ab-690364287dcf","ios":"levelo://app?vid=8a7b85d3-c7d2-4196-b1ab-690364287dcf"},"vehicle_type_id":"4","last_reported":1768375087,"current_range_meters":4800,"station_id":"ce4bgr92rcd13ifvqc6g","pricing_plan_id":"cebpf4jnsgd1na2vs0mg"},{"bike_id":"162df2af-c479-4dd8-b4e8-25c451ec3ee6","system_id":"levelo_inurba_marseille","lat":43.302736,"lon":5.376971,"is_reserved":false,"is_disabled":true,"rental_uris":{"android":"levelo://app?vid=162df2af-c479-4dd8-b4e8-25c451ec3ee6","ios":"levelo://app?vid=162df2af-c479-4dd8-b4e8-25c451ec3ee6"},"vehicle_type_id":"4","last_reported":1768375087,"current_range_meters":4800,"station_id":"","pricing_plan_id":"cebpf4jnsgd1na2vs0mg"},{"bike_id":"23a3eada-dea7-4044-b22b-1e0f7c60e76c","system_id":"levelo_inurba_marseille","lat":43.29548,"lon":5.39186,"is_reserved":false,"is_disabled":true,"rental_uris":{"android":"levelo://app?vid=23a3eada-dea7-4044-b22b-1e0f7c60e76c","ios":"levelo://app?vid=23a3eada-dea7-4044-b22b-1e0f7c60e76c"},"vehicle_type_id":"4","last_reported":1768375087,"current_range_meters":4800,"station_id":"","pricing_plan_id":"cebpf4jnsgd1na2vs0mg"},{"bike_id":"b41f9551-ae47-4da7-a60d-f3352e00b4ad","system_id":"levelo_inurba_marseille","lat":43.28485,"lon":5.48388,"is_reserved":false,"is_disabled":false,"rental_uris":{"android":"levelo://app?vid=b41f9551-ae47-4da7-a60d-f3352e00b4ad","ios":"levelo://app?vid=b41f9551-ae47-4da7-a60d-f3352e00b4ad"},"vehicle_type_id":"4","last_reported":1768375087,"current_range_meters":4800,"station_id":"","pricing_plan_id":"cebpf4jnsgd1na2vs0mg"},{"bike_id":"7af13e9c-1761-41d0-87e5-35c03d8aedd1","system_id":"levelo_inurba_marseille","lat":43.310552,"lon":5.371659,"is_reserved":false,"is_disabled":false,"rental_uris":{"android":"levelo://app?vid=7af13e9c-1761-41d0-87e5-35c03d8aedd1","ios":"levelo://app?vid=7af13e9c-1761-41d0-87e5-35c03d8aedd1"},"vehicle_type_id":"4","last_reported":1768375087,"current_range_meters":4800,"station_id":"","pricing_plan_id":"cebpf4jnsgd1na2vs0mg"},{"bike_id":"19acb0d9-5641-4610-b2b2-7ba868c5f563","system_id":"levelo_inurba_marseille","lat":43.23951,"lon":5.36629,"is_reserved":false,"is_disabled":false,"rental_uris":{"android":"levelo://app?vid=19acb0d9-5641-4610-b2b2-7ba868c5f563","ios":"levelo://app?vid=19acb0d9-5641-4610-b2b2-7ba868c5f563"},"vehicle_type_id":"4","last_reported":1768375087,"current_range_meters":4800,"station_id":"ce4bhi12rcd13ifvqfp0","pricing_plan_id":"cebpf4jnsgd1na2vs0mg"},{"bike_id":"1104f587-3777-4d17-9b58-b6d053090d96","system_id":"levelo_inurba_marseille","lat":43.23186,"lon":5.35562,"is_reserved":false,"is_disabled":false,"rental_uris":{"android":"levelo://app?vid=1104f587-3777-4d17-9b58-b6d053090d96","ios":"levelo://app?vid=1104f587-3777-4d17-9b58-b6d053090d96"},"vehicle_type_id":"4","last_reported":1768375087,"current_range_meters":4800,"station_id":"ce4bhu92rcd13ifvqi70","pricing_plan_id":"cebpf4jnsgd1na2vs0mg"},{"bike_id":"0725747e-cfd2-48d7-a439-96e56deadb81","system_id":"levelo_inurba_marseille","lat":43.29794,"lon":5.38105,"is_reserved":false,"is_disabled":false,"rental_uris":{"android":"levelo://app?vid=0725747e-cfd2-48d7-a439-96e56deadb81","ios":"levelo://app?vid=0725747e-cfd2-48d7-a439-96e56deadb81"},"vehicle_type_id":"4","last_reported":1768375087,"current_range_meters":4800,"station_id":"ce4bgip2rcd13ifvqbb0","pricing_plan_id":"cebpf4jnsgd1na2vs0mg"},{"bike_id":"76552cfe-7302-442d-8d69-e04466b0a7f8","system_id":"levelo_inurba_marseille","lat":43.27679,"lon":5.3887,"is_reserved":false,"is_disabled":false,"rental_uris":{"android":"levelo://app?vid=76552cfe-7302-442d-8d69-e04466b0a7f8","ios":"levelo://app?vid=76552cfe-7302-442d-8d69-e04466b0a7f8"},"vehicle_type_id":"4","last_reported":1768375087,"current_range_meters":5600,"station_id":"ce4bhi12rcd13ifvqfo0","pricing_plan_id":"cebpf4jnsgd1na2vs0mg"},{"bike_id":"7aaa5463-7c58-4e08-89ff-e62dd5259471","system_id":"levelo_inurba_marseille","lat":43.24808,"lon":5.37457,"is_reserved":false,"is_disabled":false,"rental_uris":{"android":"levelo://app?vid=7aaa5463-7c58-4e08-89ff-e62dd5259471","ios":"levelo://app?vid=7aaa5463-7c58-4e08-89ff-e62dd5259471"},"vehicle_type_id":"4","last_reported":1768375087,"current_range_meters":5600,"station_id":"ce4bhgh2rcd13ifvqfb0","pricing_plan_id":"cebpf4jnsgd1na2vs0mg"},{"bike_id":"b88d5c4f-e510-4564-b7d1-84231c11cf04","system_id":"levelo_inurba_marseille","lat":43.27494,"lon":5.42445,"is_reserved":false,"is_disabled":false,"rental_uris":{"android":"levelo://app?vid=b88d5c4f-e510-4564-b7d1-84231c11cf04","ios":"levelo://app?vid=b88d5c4f-e510-4564-b7d1-84231c11cf04"},"vehicle_type_id":"4","last_reported":1768375087,"current_range_meters":5600,"station_id":"ce4bhn92rcd13ifvqgrg","pricing_plan_id":"cebpf4jnsgd1na2vs0mg"},{"bike_id":"03161749-86db-45ff-8793-2e6b95b69b7a","system_id":"levelo_inurba_marseille","lat":43.25086,"lon":5.39515,"is_reserved":false,"is_disabled":false,"rental_uris":{"android":"levelo://app?vid=03161749-86db-45ff-8793-2e6b95b69b7a","ios":"levelo://app?vid=03161749-86db-45ff-8793-2e6b95b69b7a"},"vehicle_type_id":"4","last_reported":1768375087,"current_range_meters":5600,"station_id":"ce4bhm12rcd13ifvqgkg","pricing_plan_id":"cebpf4jnsgd1na2vs0mg"},{"bike_id":"d78b271b-18ce-4f01-9647-55a18d501c89","system_id":"levelo_inurba_marseille","lat":43.2903,"lon":5.3864,"is_reserved":false,"is_disabled":false,"rental_uris":{"android":"levelo://app?vid=d78b271b-18ce-4f01-9647-55a18d501c89","ios":"levelo://app?vid=d78b271b-18ce-4f01-9647-55a18d501c89"},"vehicle_type_id":"4","last_reported":1768375087,"current_range_meters":5600,"station_id":"ce4bh4p2rcd13ifvqe0g","pricing_plan_id":"cebpf4jnsgd1na2vs0mg"},{"bike_id":"eb596b59-153d-41b5-a80c-4e1ae8f0bece","system_id":"levelo_inurba_marseille","lat":43.27684,"lon":5.38858,"is_reserved":false,"is_disabled":false,"rental_uris":{"android":"levelo://app?vid=eb596b59-153d-41b5-a80c-4e1ae8f0bece","ios":"levelo://app?vid=eb596b59-153d-41b5-a80c-4e1ae8f0bece"},"vehicle_type_id":"4","last_reported":1768375087,"current_range_meters":5600,"station_id":"ce4bhi12rcd13ifvqfo0","pricing_plan_id":"cebpf4jnsgd1na2vs0mg"},{"bike_id":"39becb68-37d2-4fe5-af83-65d5813b987b","system_id":"levelo_inurba_marseille","lat":43.32527,"lon":5.36872,"is_reserved":false,"is_disabled":false,"rental_uris":{"android":"levelo://app?vid=39becb68-37d2-4fe5-af83-65d5813b987b","ios":"levelo://app?vid=39becb68-37d2-4fe5-af83-65d5813b987b"},"vehicle_type_id":"4","last_reported":1768375087,"current_range_meters":5600,"station_id":"","pricing_plan_id":"cebpf4jnsgd1na2vs0mg"},{"bike_id":"57762c16-ad13-4c51-a4ff-faf9712b156a","system_id":"levelo_inurba_marseille","lat":43.28154,"lon":5.42634,"is_reserved":false,"is_disabled":false,"rental_uris":{"android":"levelo://app?vid=57762c16-ad13-4c51-a4ff-faf9712b156a","ios":"levelo://app?vid=57762c16-ad13-4c51-a4ff-faf9712b156a"},"vehicle_type_id":"4","last_reported":1768375087,"current_range_meters":5600,"station_id":"ce4bhnh2rcd13ifvqgug","pricing_plan_id":"cebpf4jnsgd1na2vs0mg"},{"bike_id":"b523c110-d25e-4af1-b7ea-2ae80dfe757b","system_id":"levelo_inurba_marseille","lat":43.23792,"lon":5.36643,"is_reserved":false,"is_disabled":false,"rental_uris":{"android":"levelo://app?vid=b523c110-d25e-4af1-b7ea-2ae80dfe757b","ios":"levelo://app?vid=b523c110-d25e-4af1-b7ea-2ae80dfe757b"},"vehicle_type_id":"4","last_reported":1768375087,"current_range_meters":6000,"station_id":"st_d3nk18o9ro0c73en2l3g","pricing_plan_id":"cebpf4jnsgd1na2vs0mg"},{"bike_id":"7e09f6aa-6a01-490d-a5d4-56de9c0277ad","system_id":"levelo_inurba_marseille","lat":43.28531,"lon":5.44097,"is_reserved":false,"is_disabled":false,"rental_uris":{"android":"levelo://app?vid=7e09f6aa-6a01-490d-a5d4-56de9c0277ad","ios":"levelo://app?vid=7e09f6aa-6a01-490d-a5d4-56de9c0277ad"},"vehicle_type_id":"4","last_reported":1768375087,"current_range_meters":6000,"station_id":"st_d3j3df2ikq2c7380ej80","pricing_plan_id":"cebpf4jnsgd1na2vs0mg"},{"bike_id":"d93aad5b-726f-4681-895f-a4263493fbd8","system_id":"levelo_inurba_marseille","lat":43.3015,"lon":5.38083,"is_reserved":false,"is_disabled":false,"rental_uris":{"android":"levelo://app?vid=d93aad5b-726f-4681-895f-a4263493fbd8","ios":"levelo://app?vid=d93aad5b-726f-4681-895f-a4263493fbd8"},"vehicle_type_id":"4","last_reported":1768375087,"current_range_meters":6000,"station_id":"ce4bgjp2rcd13ifvqbh0","pricing_plan_id":"cebpf4jnsgd1na2vs0mg"},{"bike_id":"23f90f90-4766-44cf-a3ad-ecda2307978a","system_id":"levelo_inurba_marseille","lat":43.26059,"lon":5.39394,"is_reserved":false,"is_disabled":false,"rental_uris":{"android":"levelo://app?vid=23f90f90-4766-44cf-a3ad-ecda2307978a","ios":"levelo://app?vid=23f90f90-4766-44cf-a3ad-ecda2307978a"},"vehicle_type_id":"4","last_reported":1768375087,"current_range_meters":6000,"station_id":"ce4bhh92rcd13ifvqfj0","pricing_plan_id":"cebpf4jnsgd1na2vs0mg"},{"bike_id":"8a689e49-1449-46e9-9d9f-6cee66305474","system_id":"levelo_inurba_marseille","lat":43.29265,"lon":5.40913,"is_reserved":false,"is_disabled":true,"rental_uris":{"android":"levelo://app?vid=8a689e49-1449-46e9-9d9f-6cee66305474","ios":"levelo://app?vid=8a689e49-1449-46e9-9d9f-6cee66305474"},"vehicle_type_id":"4","last_reported":1768375087,"current_range_meters":6000,"station_id":"ce4bh192rcd13ifvqdc0","pricing_plan_id":"cebpf4jnsgd1na2vs0mg"},{"bike_id":"c7abc581-c1e2-4eb4-888d-9d1cf33dbdd8","system_id":"levelo_inurba_marseille","lat":43.25086,"lon":5.3951,"is_reserved":false,"is_disabled":false,"rental_uris":{"android":"levelo://app?vid=c7abc581-c1e2-4eb4-888d-9d1cf33dbdd8","ios":"levelo://app?vid=c7abc581-c1e2-4eb4-888d-9d1cf33dbdd8"},"vehicle_type_id":"4","last_reported":1768375087,"current_range_meters":6000,"station_id":"ce4bhm12rcd13ifvqgkg","pricing_plan_id":"cebpf4jnsgd1na2vs0mg"},{"bike_id":"bbb74105-3be2-48fe-95ba-d328ecd4aedb","system_id":"levelo_inurba_marseille","lat":43.2465,"lon":5.38881,"is_reserved":false,"is_disabled":false,"rental_uris":{"android":"levelo://app?vid=bbb74105-3be2-48fe-95ba-d328ecd4aedb","ios":"levelo://app?vid=bbb74105-3be2-48fe-95ba-d328ecd4aedb"},"vehicle_type_id":"4","last_reported":1768375087,"current_range_meters":6000,"station_id":"ce4bhg12rcd13ifvqf60","pricing_plan_id":"cebpf4jnsgd1na2vs0mg"},{"bike_id":"2aa88b9d-9dea-421d-9316-f9eede645848","system_id":"levelo_inurba_marseille","lat":43.24384,"lon":5.37046,"is_reserved":false,"is_disabled":false,"rental_uris":{"android":"levelo://app?vid=2aa88b9d-9dea-421d-9316-f9eede645848","ios":"levelo://app?vid=2aa88b9d-9dea-421d-9316-f9eede645848"},"vehicle_type_id":"4","last_reported":1768375087,"current_range_meters":6000,"station_id":"ce4bhhh2rcd13ifvqfk0","pricing_plan_id":"cebpf4jnsgd1na2vs0mg"},{"bike_id":"7565d9e4-5737-444e-a6cb-70b726a9685a","system_id":"levelo_inurba_marseille","lat":43.24406,"lon":5.37055,"is_reserved":false,"is_disabled":false,"rental_uris":{"android":"levelo://app?vid=7565d9e4-5737-444e-a6cb-70b726a9685a","ios":"levelo://app?vid=7565d9e4-5737-444e-a6cb-70b726a9685a"},"vehicle_type_id":"4","last_reported":1768375087,"current_range_meters":6000,"station_id":"ce4bhhh2rcd13ifvqfk0","pricing_plan_id":"cebpf4jnsgd1na2vs0mg"},{"bike_id":"d9e8d64d-749f-4ce9-b275-b723d4415519","system_id":"levelo_inurba_marseille","lat":43.23191,"lon":5.39987,"is_reserved":false,"is_disabled":false,"rental_uris":{"android":"levelo://app?vid=d9e8d64d-749f-4ce9-b275-b723d4415519","ios":"levelo://app?vid=d9e8d64d-749f-4ce9-b275-b723d4415519"},"vehicle_type_id":"4","last_reported":1768375087,"current_range_meters":6000,"station_id":"ce4bhn12rcd13ifvqgqg","pricing_plan_id":"cebpf4jnsgd1na2vs0mg"},{"bike_id":"3c3da866-b2d6-427c-b158-dfa88daa4967","system_id":"levelo_inurba_marseille","lat":43.30236,"lon":5.40047,"is_reserved":false,"is_disabled":false,"rental_uris":{"android":"levelo://app?vid=3c3da866-b2d6-427c-b158-dfa88daa4967","ios":"levelo://app?vid=3c3da866-b2d6-427c-b158-dfa88daa4967"},"vehicle_type_id":"4","last_reported":1768375087,"current_range_meters":6000,"station_id":"ce4bgvh2rcd13ifvqcs0","pricing_plan_id":"cebpf4jnsgd1na2vs0mg"},{"bike_id":"1a58bed3-1661-4da4-8d4b-ecee0c3b8636","system_id":"levelo_inurba_marseille","lat":43.303027,"lon":5.392085,"is_reserved":false,"is_disabled":false,"rental_uris":{"android":"levelo://app?vid=1a58bed3-1661-4da4-8d4b-ecee0c3b8636","ios":"levelo://app?vid=1a58bed3-1661-4da4-8d4b-ecee0c3b8636"},"vehicle_type_id":"4","last_reported":1768375087,"current_range_meters":6000,"station_id":"ce4bgkh2rcd13ifvqbk0","pricing_plan_id":"cebpf4jnsgd1na2vs0mg"},{"bike_id":"53e022ad-e5c5-4539-8c53-cc2b0aa06d27","system_id":"levelo_inurba_marseille","lat":43.28327,"lon":5.38846,"is_reserved":false,"is_disabled":true,"rental_uris":{"android":"levelo://app?vid=53e022ad-e5c5-4539-8c53-cc2b0aa06d27","ios":"levelo://app?vid=53e022ad-e5c5-4539-8c53-cc2b0aa06d27"},"vehicle_type_id":"4","last_reported":1768375087,"current_range_meters":6000,"station_id":"ce4bh492rcd13ifvqdvg","pricing_plan_id":"cebpf4jnsgd1na2vs0mg"},{"bike_id":"99eb6c51-7f0f-4137-8b85-23f4caea2333","system_id":"levelo_inurba_marseille","lat":43.29896,"lon":5.39671,"is_reserved":false,"is_disabled":false,"rental_uris":{"android":"levelo://app?vid=99eb6c51-7f0f-4137-8b85-23f4caea2333","ios":"levelo://app?vid=99eb6c51-7f0f-4137-8b85-23f4caea2333"},"vehicle_type_id":"4","last_reported":1768375087,"current_range_meters":6000,"station_id":"","pricing_plan_id":"cebpf4jnsgd1na2vs0mg"},{"bike_id":"b70f3d61-cba9-49c5-9c00-1aa5298b7f6f","system_id":"levelo_inurba_marseille","lat":43.26494,"lon":5.39531,"is_reserved":false,"is_disabled":false,"rental_uris":{"android":"levelo://app?vid=b70f3d61-cba9-49c5-9c00-1aa5298b7f6f","ios":"levelo://app?vid=b70f3d61-cba9-49c5-9c00-1aa5298b7f6f"},"vehicle_type_id":"4","last_reported":1768375087,"current_range_meters":6000,"station_id":"ce4bhi12rcd13ifvqfq0","pricing_plan_id":"cebpf4jnsgd1na2vs0mg"},{"bike_id":"ec6556c0-8771-44be-b1ce-12b0d62b8bfb","system_id":"levelo_inurba_marseille","lat":43.32906,"lon":5.3912,"is_reserved":false,"is_disabled":false,"rental_uris":{"android":"levelo://app?vid=ec6556c0-8771-44be-b1ce-12b0d62b8bfb","ios":"levelo://app?vid=ec6556c0-8771-44be-b1ce-12b0d62b8bfb"},"vehicle_type_id":"4","last_reported":1768375087,"current_range_meters":6000,"station_id":"","pricing_plan_id":"cebpf4jnsgd1na2vs0mg"},{"bike_id":"18e7aed4-7cab-4e5f-b147-5c98f8a1e192","system_id":"levelo_inurba_marseille","lat":43.3236,"lon":5.36793,"is_reserved":false,"is_disabled":false,"rental_uris":{"android":"levelo://app?vid=18e7aed4-7cab-4e5f-b147-5c98f8a1e192","ios":"levelo://app?vid=18e7aed4-7cab-4e5f-b147-5c98f8a1e192"},"vehicle_type_id":"4","last_reported":1768375087,"current_range_meters":6400,"station_id":"ce4bhsh2rcd13ifvqi2g","pricing_plan_id":"cebpf4jnsgd1na2vs0mg"},{"bike_id":"da58c203-b71c-49df-82bd-167b4c295812","system_id":"levelo_inurba_marseille","lat":43.28833,"lon":5.35876,"is_reserved":false,"is_disabled":false,"rental_uris":{"android":"levelo://app?vid=da58c203-b71c-49df-82bd-167b4c295812","ios":"levelo://app?vid=da58c203-b71c-49df-82bd-167b4c295812"},"vehicle_type_id":"4","last_reported":1768375087,"current_range_meters":6400,"station_id":"ce4bhb12rcd13ifvqem0","pricing_plan_id":"cebpf4jnsgd1na2vs0mg"},{"bike_id":"feba94b8-89e0-43a3-bcc3-4d546088cc4d","system_id":"levelo_inurba_marseille","lat":43.29036,"lon":5.39902,"is_reserved":false,"is_disabled":false,"rental_uris":{"android":"levelo://app?vid=feba94b8-89e0-43a3-bcc3-4d546088cc4d","ios":"levelo://app?vid=feba94b8-89e0-43a3-bcc3-4d546088cc4d"},"vehicle_type_id":"4","last_reported":1768375087,"current_range_meters":6400,"station_id":"","pricing_plan_id":"cebpf4jnsgd1na2vs0mg"},{"bike_id":"7e5c4cdc-e769-420e-80ce-12c73d8bc862","system_id":"levelo_inurba_marseille","lat":43.30469,"lon":5.37914,"is_reserved":false,"is_disabled":false,"rental_uris":{"android":"levelo://app?vid=7e5c4cdc-e769-420e-80ce-12c73d8bc862","ios":"levelo://app?vid=7e5c4cdc-e769-420e-80ce-12c73d8bc862"},"vehicle_type_id":"4","last_reported":1768375087,"current_range_meters":6400,"station_id":"ce4bgup2rcd13ifvqcn0","pricing_plan_id":"cebpf4jnsgd1na2vs0mg"},{"bike_id":"724de8c9-2883-4455-a458-126b64737fa0","system_id":"levelo_inurba_marseille","lat":43.28531,"lon":5.44103,"is_reserved":false,"is_disabled":false,"rental_uris":{"android":"levelo://app?vid=724de8c9-2883-4455-a458-126b64737fa0","ios":"levelo://app?vid=724de8c9-2883-4455-a458-126b64737fa0"},"vehicle_type_id":"4","last_reported":1768375087,"current_range_meters":6400,"station_id":"st_d3j3df2ikq2c7380ej80","pricing_plan_id":"cebpf4jnsgd1na2vs0mg"},{"bike_id":"14adbf01-ed8b-4190-baad-fa0d709b5866","system_id":"levelo_inurba_marseille","lat":43.27949,"lon":5.41045,"is_reserved":false,"is_disabled":false,"rental_uris":{"android":"levelo://app?vid=14adbf01-ed8b-4190-baad-fa0d709b5866","ios":"levelo://app?vid=14adbf01-ed8b-4190-baad-fa0d709b5866"},"vehicle_type_id":"4","last_reported":1768375087,"current_range_meters":6400,"station_id":"ce4bhnp2rcd13ifvqh0g","pricing_plan_id":"cebpf4jnsgd1na2vs0mg"},{"bike_id":"d8b52035-9107-4203-ba3b-8ab85229defc","system_id":"levelo_inurba_marseille","lat":43.25885,"lon":5.39923,"is_reserved":false,"is_disabled":true,"rental_uris":{"android":"levelo://app?vid=d8b52035-9107-4203-ba3b-8ab85229defc","ios":"levelo://app?vid=d8b52035-9107-4203-ba3b-8ab85229defc"},"vehicle_type_id":"4","last_reported":1768375087,"current_range_meters":6400,"station_id":"ce4bhl92rcd13ifvqghg","pricing_plan_id":"cebpf4jnsgd1na2vs0mg"},{"bike_id":"cff36d3a-a2a6-4fcb-ac92-f47e8ea4afef","system_id":"levelo_inurba_marseille","lat":43.2886,"lon":5.42513,"is_reserved":false,"is_disabled":false,"rental_uris":{"android":"levelo://app?vid=cff36d3a-a2a6-4fcb-ac92-f47e8ea4afef","ios":"levelo://app?vid=cff36d3a-a2a6-4fcb-ac92-f47e8ea4afef"},"vehicle_type_id":"4","last_reported":1768375087,"current_range_meters":6400,"station_id":"st_d3b462108ojc7389ooeg","pricing_plan_id":"cebpf4jnsgd1na2vs0mg"},{"bike_id":"25c87b78-5b26-4fe6-a9bc-748ac1fc6751","system_id":"levelo_inurba_marseille","lat":43.27986,"lon":5.41664,"is_reserved":false,"is_disabled":false,"rental_uris":{"android":"levelo://app?vid=25c87b78-5b26-4fe6-a9bc-748ac1fc6751","ios":"levelo://app?vid=25c87b78-5b26-4fe6-a9bc-748ac1fc6751"},"vehicle_type_id":"4","last_reported":1768375087,"current_range_meters":6400,"station_id":"ce4bho12rcd13ifvqh1g","pricing_plan_id":"cebpf4jnsgd1na2vs0mg"},{"bike_id":"4da4b9b5-8e34-4a21-a7eb-76e6a1792527","system_id":"levelo_inurba_marseille","lat":43.28247,"lon":5.43023,"is_reserved":false,"is_disabled":false,"rental_uris":{"android":"levelo://app?vid=4da4b9b5-8e34-4a21-a7eb-76e6a1792527","ios":"levelo://app?vid=4da4b9b5-8e34-4a21-a7eb-76e6a1792527"},"vehicle_type_id":"4","last_reported":1768375087,"current_range_meters":6400,"station_id":"","pricing_plan_id":"cebpf4jnsgd1na2vs0mg"},{"bike_id":"ddb27af3-8387-40a9-899b-b6343321eed2","system_id":"levelo_inurba_marseille","lat":43.29619,"lon":5.37167,"is_reserved":false,"is_disabled":false,"rental_uris":{"android":"levelo://app?vid=ddb27af3-8387-40a9-899b-b6343321eed2","ios":"levelo://app?vid=ddb27af3-8387-40a9-899b-b6343321eed2"},"vehicle_type_id":"4","last_reported":1768375087,"current_range_meters":6400,"station_id":"ce4bgnh2rcd13ifvqc0g","pricing_plan_id":"cebpf4jnsgd1na2vs0mg"},{"bike_id":"b7f4c54f-f481-4643-9c7b-e12e55533981","system_id":"levelo_inurba_marseille","lat":43.28404,"lon":5.37522,"is_reserved":false,"is_disabled":false,"rental_uris":{"android":"levelo://app?vid=b7f4c54f-f481-4643-9c7b-e12e55533981","ios":"levelo://app?vid=b7f4c54f-f481-4643-9c7b-e12e55533981"},"vehicle_type_id":"4","last_reported":1768375087,"current_range_meters":6400,"station_id":"ce4bh412rcd13ifvqds0","pricing_plan_id":"cebpf4jnsgd1na2vs0mg"},{"bike_id":"91399a0c-dd7f-4fd7-8b50-9d35f2fccb16","system_id":"levelo_inurba_marseille","lat":43.29042,"lon":5.39947,"is_reserved":false,"is_disabled":false,"rental_uris":{"android":"levelo://app?vid=91399a0c-dd7f-4fd7-8b50-9d35f2fccb16","ios":"levelo://app?vid=91399a0c-dd7f-4fd7-8b50-9d35f2fccb16"},"vehicle_type_id":"4","last_reported":1768375087,"current_range_meters":6400,"station_id":"ce4bh392rcd13ifvqdm0","pricing_plan_id":"cebpf4jnsgd1na2vs0mg"},{"bike_id":"35a38165-7388-4804-b0ac-dd1568936910","system_id":"levelo_inurba_marseille","lat":43.24073,"lon":5.37754,"is_reserved":false,"is_disabled":false,"rental_uris":{"android":"levelo://app?vid=35a38165-7388-4804-b0ac-dd1568936910","ios":"levelo://app?vid=35a38165-7388-4804-b0ac-dd1568936910"},"vehicle_type_id":"4","last_reported":1768375087,"current_range_meters":6400,"station_id":"ce4bhnp2rcd13ifvqgvg","pricing_plan_id":"cebpf4jnsgd1na2vs0mg"},{"bike_id":"10ac20d7-138c-46d6-a589-0f09c8494f85","system_id":"levelo_inurba_marseille","lat":43.298122,"lon":5.381101,"is_reserved":false,"is_disabled":false,"rental_uris":{"android":"levelo://app?vid=10ac20d7-138c-46d6-a589-0f09c8494f85","ios":"levelo://app?vid=10ac20d7-138c-46d6-a589-0f09c8494f85"},"vehicle_type_id":"4","last_reported":1768375087,"current_range_meters":6400,"station_id":"ce4bgip2rcd13ifvqbb0","pricing_plan_id":"cebpf4jnsgd1na2vs0mg"},{"bike_id":"20dfd869-45e6-4006-9159-9978d938bbe1","system_id":"levelo_inurba_marseille","lat":43.31051,"lon":5.37176,"is_reserved":false,"is_disabled":false,"rental_uris":{"android":"levelo://app?vid=20dfd869-45e6-4006-9159-9978d938bbe1","ios":"levelo://app?vid=20dfd869-45e6-4006-9159-9978d938bbe1"},"vehicle_type_id":"4","last_reported":1768375087,"current_range_meters":6400,"station_id":"st_d4kl2rp97mjs73e7tdfg","pricing_plan_id":"cebpf4jnsgd1na2vs0mg"},{"bike_id":"9ef5d9ec-e95c-4da5-97de-1325e69f8ed2","system_id":"levelo_inurba_marseille","lat":43.2696,"lon":5.38634,"is_reserved":false,"is_disabled":false,"rental_uris":{"android":"levelo://app?vid=9ef5d9ec-e95c-4da5-97de-1325e69f8ed2","ios":"levelo://app?vid=9ef5d9ec-e95c-4da5-97de-1325e69f8ed2"},"vehicle_type_id":"4","last_reported":1768375087,"current_range_meters":6400,"station_id":"ce4bhh92rcd13ifvqfh0","pricing_plan_id":"cebpf4jnsgd1na2vs0mg"},{"bike_id":"e2f7f7db-8117-41c3-8922-7691d948953c","system_id":"levelo_inurba_marseille","lat":43.31349,"lon":5.39709,"is_reserved":false,"is_disabled":false,"rental_uris":{"android":"levelo://app?vid=e2f7f7db-8117-41c3-8922-7691d948953c","ios":"levelo://app?vid=e2f7f7db-8117-41c3-8922-7691d948953c"},"vehicle_type_id":"4","last_reported":1768375087,"current_range_meters":6400,"station_id":"ce4bgvp2rcd13ifvqcu0","pricing_plan_id":"cebpf4jnsgd1na2vs0mg"},{"bike_id":"a31c8f9e-9708-4ea2-9e5d-05e3441bc85f","system_id":"levelo_inurba_marseille","lat":43.28471,"lon":5.48393,"is_reserved":false,"is_disabled":false,"rental_uris":{"android":"levelo://app?vid=a31c8f9e-9708-4ea2-9e5d-05e3441bc85f","ios":"levelo://app?vid=a31c8f9e-9708-4ea2-9e5d-05e3441bc85f"},"vehicle_type_id":"4","last_reported":1768375087,"current_range_meters":6400,"station_id":"","pricing_plan_id":"cebpf4jnsgd1na2vs0mg"},{"bike_id":"43738401-0000-4ed6-a69e-b6ebffac4bdb","system_id":"levelo_inurba_marseille","lat":43.251132,"lon":5.403296,"is_reserved":false,"is_disabled":false,"rental_uris":{"android":"levelo://app?vid=43738401-0000-4ed6-a69e-b6ebffac4bdb","ios":"levelo://app?vid=43738401-0000-4ed6-a69e-b6ebffac4bdb"},"vehicle_type_id":"4","last_reported":1768375087,"current_range_meters":6800,"station_id":"ce4bhlh2rcd13ifvqgig","pricing_plan_id":"cebpf4jnsgd1na2vs0mg"},{"bike_id":"dccf6443-2690-4508-8f9a-a0435732725f","system_id":"levelo_inurba_marseille","lat":43.25491,"lon":5.37645,"is_reserved":false,"is_disabled":false,"rental_uris":{"android":"levelo://app?vid=dccf6443-2690-4508-8f9a-a0435732725f","ios":"levelo://app?vid=dccf6443-2690-4508-8f9a-a0435732725f"},"vehicle_type_id":"4","last_reported":1768375087,"current_range_meters":6800,"station_id":"ce4bhh12rcd13ifvqff0","pricing_plan_id":"cebpf4jnsgd1na2vs0mg"},{"bike_id":"0b2e5999-e36b-4e15-9cd3-3bc979acd06f","system_id":"levelo_inurba_marseille","lat":43.28485,"lon":5.38414,"is_reserved":false,"is_disabled":false,"rental_uris":{"android":"levelo://app?vid=0b2e5999-e36b-4e15-9cd3-3bc979acd06f","ios":"levelo://app?vid=0b2e5999-e36b-4e15-9cd3-3bc979acd06f"},"vehicle_type_id":"4","last_reported":1768375087,"current_range_meters":6800,"station_id":"ce4bh512rcd13ifvqe3g","pricing_plan_id":"cebpf4jnsgd1na2vs0mg"},{"bike_id":"edae41ff-efa7-45e8-b9af-a8202fc573da","system_id":"levelo_inurba_marseille","lat":43.249925,"lon":5.389349,"is_reserved":false,"is_disabled":false,"rental_uris":{"android":"levelo://app?vid=edae41ff-efa7-45e8-b9af-a8202fc573da","ios":"levelo://app?vid=edae41ff-efa7-45e8-b9af-a8202fc573da"},"vehicle_type_id":"4","last_reported":1768375087,"current_range_meters":6800,"station_id":"ce4bhgp2rcd13ifvqfd0","pricing_plan_id":"cebpf4jnsgd1na2vs0mg"},{"bike_id":"bbcbf6d8-3631-46ab-9432-1791110aa370","system_id":"levelo_inurba_marseille","lat":43.28457,"lon":5.3588,"is_reserved":false,"is_disabled":false,"rental_uris":{"android":"levelo://app?vid=bbcbf6d8-3631-46ab-9432-1791110aa370","ios":"levelo://app?vid=bbcbf6d8-3631-46ab-9432-1791110aa370"},"vehicle_type_id":"4","last_reported":1768375087,"current_range_meters":6800,"station_id":"ce4bhah2rcd13ifvqei0","pricing_plan_id":"cebpf4jnsgd1na2vs0mg"},{"bike_id":"d5a682ec-18b1-4126-b3fa-b372c1184e0b","system_id":"levelo_inurba_marseille","lat":43.27489,"lon":5.4246,"is_reserved":false,"is_disabled":false,"rental_uris":{"android":"levelo://app?vid=d5a682ec-18b1-4126-b3fa-b372c1184e0b","ios":"levelo://app?vid=d5a682ec-18b1-4126-b3fa-b372c1184e0b"},"vehicle_type_id":"4","last_reported":1768375087,"current_range_meters":6800,"station_id":"ce4bhn92rcd13ifvqgrg","pricing_plan_id":"cebpf4jnsgd1na2vs0mg"},{"bike_id":"edcf3188-4a6b-46e2-aa32-dc6a17ca3c7d","system_id":"levelo_inurba_marseille","lat":43.25579,"lon":5.38218,"is_reserved":false,"is_disabled":false,"rental_uris":{"android":"levelo://app?vid=edcf3188-4a6b-46e2-aa32-dc6a17ca3c7d","ios":"levelo://app?vid=edcf3188-4a6b-46e2-aa32-dc6a17ca3c7d"},"vehicle_type_id":"4","last_reported":1768375087,"current_range_meters":6800,"station_id":"ce4bhih2rcd13ifvqfs0","pricing_plan_id":"cebpf4jnsgd1na2vs0mg"},{"bike_id":"54a665b1-efb8-4a74-a5c5-3658aaf489a2","system_id":"levelo_inurba_marseille","lat":43.28476,"lon":5.48394,"is_reserved":false,"is_disabled":false,"rental_uris":{"android":"levelo://app?vid=54a665b1-efb8-4a74-a5c5-3658aaf489a2","ios":"levelo://app?vid=54a665b1-efb8-4a74-a5c5-3658aaf489a2"},"vehicle_type_id":"4","last_reported":1768375087,"current_range_meters":6800,"station_id":"","pricing_plan_id":"cebpf4jnsgd1na2vs0mg"},{"bike_id":"521f471e-a653-4d10-8c44-c4d572eae1a8","system_id":"levelo_inurba_marseille","lat":43.28717,"lon":5.37931,"is_reserved":false,"is_disabled":false,"rental_uris":{"android":"levelo://app?vid=521f471e-a653-4d10-8c44-c4d572eae1a8","ios":"levelo://app?vid=521f471e-a653-4d10-8c44-c4d572eae1a8"},"vehicle_type_id":"4","last_reported":1768375087,"current_range_meters":6800,"station_id":"ce4bh9p2rcd13ifvqec0","pricing_plan_id":"cebpf4jnsgd1na2vs0mg"},{"bike_id":"bbb120f2-87a4-486a-93f9-ea6dd21f6924","system_id":"levelo_inurba_marseille","lat":43.29039,"lon":5.39963,"is_reserved":false,"is_disabled":false,"rental_uris":{"android":"levelo://app?vid=bbb120f2-87a4-486a-93f9-ea6dd21f6924","ios":"levelo://app?vid=bbb120f2-87a4-486a-93f9-ea6dd21f6924"},"vehicle_type_id":"4","last_reported":1768375087,"current_range_meters":6800,"station_id":"ce4bh392rcd13ifvqdm0","pricing_plan_id":"cebpf4jnsgd1na2vs0mg"},{"bike_id":"9deafb92-9293-47db-b696-81fef639ab5e","system_id":"levelo_inurba_marseille","lat":43.29963,"lon":5.38475,"is_reserved":false,"is_disabled":true,"rental_uris":{"android":"levelo://app?vid=9deafb92-9293-47db-b696-81fef639ab5e","ios":"levelo://app?vid=9deafb92-9293-47db-b696-81fef639ab5e"},"vehicle_type_id":"4","last_reported":1768375087,"current_range_meters":6800,"station_id":"ce4bgj92rcd13ifvqbd0","pricing_plan_id":"cebpf4jnsgd1na2vs0mg"},{"bike_id":"7dc4a4d7-a5c6-40f4-856f-e09ac0559518","system_id":"levelo_inurba_marseille","lat":43.29186,"lon":5.38597,"is_reserved":false,"is_disabled":false,"rental_uris":{"android":"levelo://app?vid=7dc4a4d7-a5c6-40f4-856f-e09ac0559518","ios":"levelo://app?vid=7dc4a4d7-a5c6-40f4-856f-e09ac0559518"},"vehicle_type_id":"4","last_reported":1768375087,"current_range_meters":7200,"station_id":"","pricing_plan_id":"cebpf4jnsgd1na2vs0mg"},{"bike_id":"27ea8170-0361-438d-b591-2ebcd05d2dfe","system_id":"levelo_inurba_marseille","lat":43.28444,"lon":5.34979,"is_reserved":false,"is_disabled":false,"rental_uris":{"android":"levelo://app?vid=27ea8170-0361-438d-b591-2ebcd05d2dfe","ios":"levelo://app?vid=27ea8170-0361-438d-b591-2ebcd05d2dfe"},"vehicle_type_id":"4","last_reported":1768375087,"current_range_meters":7200,"station_id":"ce4bhbh2rcd13ifvqepg","pricing_plan_id":"cebpf4jnsgd1na2vs0mg"},{"bike_id":"d996d36c-95b7-437c-bf1d-9061453cbb1a","system_id":"levelo_inurba_marseille","lat":43.28845,"lon":5.35871,"is_reserved":false,"is_disabled":false,"rental_uris":{"android":"levelo://app?vid=d996d36c-95b7-437c-bf1d-9061453cbb1a","ios":"levelo://app?vid=d996d36c-95b7-437c-bf1d-9061453cbb1a"},"vehicle_type_id":"4","last_reported":1768375087,"current_range_meters":7200,"station_id":"ce4bhb12rcd13ifvqem0","pricing_plan_id":"cebpf4jnsgd1na2vs0mg"},{"bike_id":"2ee0fab5-7040-4975-9414-0b1e23a72b5b","system_id":"levelo_inurba_marseille","lat":43.32366,"lon":5.36761,"is_reserved":false,"is_disabled":false,"rental_uris":{"android":"levelo://app?vid=2ee0fab5-7040-4975-9414-0b1e23a72b5b","ios":"levelo://app?vid=2ee0fab5-7040-4975-9414-0b1e23a72b5b"},"vehicle_type_id":"4","last_reported":1768375087,"current_range_meters":7200,"station_id":"ce4bhsh2rcd13ifvqi2g","pricing_plan_id":"cebpf4jnsgd1na2vs0mg"},{"bike_id":"ca2623b8-5127-4625-a997-d9019ae9a32f","system_id":"levelo_inurba_marseille","lat":43.30163,"lon":5.38086,"is_reserved":false,"is_disabled":false,"rental_uris":{"android":"levelo://app?vid=ca2623b8-5127-4625-a997-d9019ae9a32f","ios":"levelo://app?vid=ca2623b8-5127-4625-a997-d9019ae9a32f"},"vehicle_type_id":"4","last_reported":1768375087,"current_range_meters":7200,"station_id":"ce4bgjp2rcd13ifvqbh0","pricing_plan_id":"cebpf4jnsgd1na2vs0mg"},{"bike_id":"1621444e-17e7-4c3c-bee0-067ccd01ec41","system_id":"levelo_inurba_marseille","lat":43.28164,"lon":5.42684,"is_reserved":false,"is_disabled":false,"rental_uris":{"android":"levelo://app?vid=1621444e-17e7-4c3c-bee0-067ccd01ec41","ios":"levelo://app?vid=1621444e-17e7-4c3c-bee0-067ccd01ec41"},"vehicle_type_id":"4","last_reported":1768375087,"current_range_meters":7200,"station_id":"ce4bhnh2rcd13ifvqgug","pricing_plan_id":"cebpf4jnsgd1na2vs0mg"},{"bike_id":"5d753472-8af1-40a8-b93c-6901afeb049e","system_id":"levelo_inurba_marseille","lat":43.23784,"lon":5.3663,"is_reserved":false,"is_disabled":false,"rental_uris":{"android":"levelo://app?vid=5d753472-8af1-40a8-b93c-6901afeb049e","ios":"levelo://app?vid=5d753472-8af1-40a8-b93c-6901afeb049e"},"vehicle_type_id":"4","last_reported":1768375087,"current_range_meters":7200,"station_id":"st_d3nk18o9ro0c73en2l3g","pricing_plan_id":"cebpf4jnsgd1na2vs0mg"},{"bike_id":"b56713af-f00e-4869-8063-775f8dc178bd","system_id":"levelo_inurba_marseille","lat":43.27969,"lon":5.41665,"is_reserved":false,"is_disabled":true,"rental_uris":{"android":"levelo://app?vid=b56713af-f00e-4869-8063-775f8dc178bd","ios":"levelo://app?vid=b56713af-f00e-4869-8063-775f8dc178bd"},"vehicle_type_id":"4","last_reported":1768375087,"current_range_meters":7200,"station_id":"ce4bho12rcd13ifvqh1g","pricing_plan_id":"cebpf4jnsgd1na2vs0mg"},{"bike_id":"3628cfe9-19f5-43ff-9270-69e7b74c63cf","system_id":"levelo_inurba_marseille","lat":43.29354,"lon":5.40419,"is_reserved":false,"is_disabled":false,"rental_uris":{"android":"levelo://app?vid=3628cfe9-19f5-43ff-9270-69e7b74c63cf","ios":"levelo://app?vid=3628cfe9-19f5-43ff-9270-69e7b74c63cf"},"vehicle_type_id":"4","last_reported":1768375087,"current_range_meters":7200,"station_id":"","pricing_plan_id":"cebpf4jnsgd1na2vs0mg"},{"bike_id":"d10c3e03-17c1-4a18-84d3-e167ce7531e2","system_id":"levelo_inurba_marseille","lat":43.323559,"lon":5.367429,"is_reserved":false,"is_disabled":false,"rental_uris":{"android":"levelo://app?vid=d10c3e03-17c1-4a18-84d3-e167ce7531e2","ios":"levelo://app?vid=d10c3e03-17c1-4a18-84d3-e167ce7531e2"},"vehicle_type_id":"4","last_reported":1768375087,"current_range_meters":7200,"station_id":"ce4bhsh2rcd13ifvqi2g","pricing_plan_id":"cebpf4jnsgd1na2vs0mg"},{"bike_id":"a6ca6171-9762-4ef9-aaac-71d84868e27a","system_id":"levelo_inurba_marseille","lat":43.28477,"lon":5.38417,"is_reserved":false,"is_disabled":false,"rental_uris":{"android":"levelo://app?vid=a6ca6171-9762-4ef9-aaac-71d84868e27a","ios":"levelo://app?vid=a6ca6171-9762-4ef9-aaac-71d84868e27a"},"vehicle_type_id":"4","last_reported":1768375087,"current_range_meters":7200,"station_id":"ce4bh512rcd13ifvqe3g","pricing_plan_id":"cebpf4jnsgd1na2vs0mg"},{"bike_id":"f46e8896-f60b-49f2-b8ac-80520c0162b1","system_id":"levelo_inurba_marseille","lat":43.29037,"lon":5.37412,"is_reserved":false,"is_disabled":false,"rental_uris":{"android":"levelo://app?vid=f46e8896-f60b-49f2-b8ac-80520c0162b1","ios":"levelo://app?vid=f46e8896-f60b-49f2-b8ac-80520c0162b1"},"vehicle_type_id":"4","last_reported":1768375087,"current_range_meters":7200,"station_id":"","pricing_plan_id":"cebpf4jnsgd1na2vs0mg"},{"bike_id":"fbe88db2-416a-478a-ac7c-29c397f79fa0","system_id":"levelo_inurba_marseille","lat":43.24649,"lon":5.3888,"is_reserved":false,"is_disabled":false,"rental_uris":{"android":"levelo://app?vid=fbe88db2-416a-478a-ac7c-29c397f79fa0","ios":"levelo://app?vid=fbe88db2-416a-478a-ac7c-29c397f79fa0"},"vehicle_type_id":"4","last_reported":1768375087,"current_range_meters":7200,"station_id":"ce4bhg12rcd13ifvqf60","pricing_plan_id":"cebpf4jnsgd1na2vs0mg"},{"bike_id":"c6c69f6e-3401-41a3-8f77-9ad00cda4af7","system_id":"levelo_inurba_marseille","lat":43.28074,"lon":5.3965,"is_reserved":false,"is_disabled":false,"rental_uris":{"android":"levelo://app?vid=c6c69f6e-3401-41a3-8f77-9ad00cda4af7","ios":"levelo://app?vid=c6c69f6e-3401-41a3-8f77-9ad00cda4af7"},"vehicle_type_id":"4","last_reported":1768375087,"current_range_meters":7200,"station_id":"ce4bho12rcd13ifvqh2g","pricing_plan_id":"cebpf4jnsgd1na2vs0mg"},{"bike_id":"decbe7cf-1650-48eb-a860-106f8d0efcb1","system_id":"levelo_inurba_marseille","lat":43.2694,"lon":5.388799,"is_reserved":false,"is_disabled":false,"rental_uris":{"android":"levelo://app?vid=decbe7cf-1650-48eb-a860-106f8d0efcb1","ios":"levelo://app?vid=decbe7cf-1650-48eb-a860-106f8d0efcb1"},"vehicle_type_id":"4","last_reported":1768375087,"current_range_meters":8000,"station_id":"ce4bhhh2rcd13ifvqfl0","pricing_plan_id":"cebpf4jnsgd1na2vs0mg"},{"bike_id":"eff1c099-2175-4cfc-822d-368ef04ab989","system_id":"levelo_inurba_marseille","lat":43.27042,"lon":5.42298,"is_reserved":false,"is_disabled":false,"rental_uris":{"android":"levelo://app?vid=eff1c099-2175-4cfc-822d-368ef04ab989","ios":"levelo://app?vid=eff1c099-2175-4cfc-822d-368ef04ab989"},"vehicle_type_id":"4","last_reported":1768375087,"current_range_meters":8000,"station_id":"ce4bhk92rcd13ifvqgb0","pricing_plan_id":"cebpf4jnsgd1na2vs0mg"},{"bike_id":"80e1cacf-c38d-4e99-beb6-97caf9f5d5a5","system_id":"levelo_inurba_marseille","lat":43.28212,"lon":5.39073,"is_reserved":false,"is_disabled":false,"rental_uris":{"android":"levelo://app?vid=80e1cacf-c38d-4e99-beb6-97caf9f5d5a5","ios":"levelo://app?vid=80e1cacf-c38d-4e99-beb6-97caf9f5d5a5"},"vehicle_type_id":"4","last_reported":1768375087,"current_range_meters":8000,"station_id":"","pricing_plan_id":"cebpf4jnsgd1na2vs0mg"},{"bike_id":"794f162f-97ce-41a5-a715-29d2690bc658","system_id":"levelo_inurba_marseille","lat":43.28673,"lon":5.38691,"is_reserved":false,"is_disabled":false,"rental_uris":{"android":"levelo://app?vid=794f162f-97ce-41a5-a715-29d2690bc658","ios":"levelo://app?vid=794f162f-97ce-41a5-a715-29d2690bc658"},"vehicle_type_id":"4","last_reported":1768375087,"current_range_meters":8000,"station_id":"ce4bh492rcd13ifvqdug","pricing_plan_id":"cebpf4jnsgd1na2vs0mg"},{"bike_id":"52b1696a-4946-4218-bad2-363e78c37719","system_id":"levelo_inurba_marseille","lat":43.30162,"lon":5.38084,"is_reserved":false,"is_disabled":false,"rental_uris":{"android":"levelo://app?vid=52b1696a-4946-4218-bad2-363e78c37719","ios":"levelo://app?vid=52b1696a-4946-4218-bad2-363e78c37719"},"vehicle_type_id":"4","last_reported":1768375087,"current_range_meters":8000,"station_id":"ce4bgjp2rcd13ifvqbh0","pricing_plan_id":"cebpf4jnsgd1na2vs0mg"},{"bike_id":"47e8d937-7ec7-4d88-84dd-f958423c70de","system_id":"levelo_inurba_marseille","lat":43.263705,"lon":5.410836,"is_reserved":false,"is_disabled":false,"rental_uris":{"android":"levelo://app?vid=47e8d937-7ec7-4d88-84dd-f958423c70de","ios":"levelo://app?vid=47e8d937-7ec7-4d88-84dd-f958423c70de"},"vehicle_type_id":"4","last_reported":1768375087,"current_range_meters":8000,"station_id":"","pricing_plan_id":"cebpf4jnsgd1na2vs0mg"},{"bike_id":"7cccb604-f149-4e8e-9ee8-78300c58372e","system_id":"levelo_inurba_marseille","lat":43.23198,"lon":5.39987,"is_reserved":false,"is_disabled":false,"rental_uris":{"android":"levelo://app?vid=7cccb604-f149-4e8e-9ee8-78300c58372e","ios":"levelo://app?vid=7cccb604-f149-4e8e-9ee8-78300c58372e"},"vehicle_type_id":"4","last_reported":1768375087,"current_range_meters":8000,"station_id":"ce4bhn12rcd13ifvqgqg","pricing_plan_id":"cebpf4jnsgd1na2vs0mg"},{"bike_id":"d8e03ef6-0c5e-49db-943c-98c26bf654da","system_id":"levelo_inurba_marseille","lat":43.2995,"lon":5.37411,"is_reserved":false,"is_disabled":false,"rental_uris":{"android":"levelo://app?vid=d8e03ef6-0c5e-49db-943c-98c26bf654da","ios":"levelo://app?vid=d8e03ef6-0c5e-49db-943c-98c26bf654da"},"vehicle_type_id":"4","last_reported":1768375087,"current_range_meters":8000,"station_id":"","pricing_plan_id":"cebpf4jnsgd1na2vs0mg"},{"bike_id":"323bdf5a-fc85-45ab-8b18-361a392bbea5","system_id":"levelo_inurba_marseille","lat":43.29939,"lon":5.37921,"is_reserved":false,"is_disabled":false,"rental_uris":{"android":"levelo://app?vid=323bdf5a-fc85-45ab-8b18-361a392bbea5","ios":"levelo://app?vid=323bdf5a-fc85-45ab-8b18-361a392bbea5"},"vehicle_type_id":"4","last_reported":1768375087,"current_range_meters":8000,"station_id":"","pricing_plan_id":"cebpf4jnsgd1na2vs0mg"},{"bike_id":"09274d01-4a95-409b-8171-0131639b6dc1","system_id":"levelo_inurba_marseille","lat":43.29931,"lon":5.37481,"is_reserved":false,"is_disabled":false,"rental_uris":{"android":"levelo://app?vid=09274d01-4a95-409b-8171-0131639b6dc1","ios":"levelo://app?vid=09274d01-4a95-409b-8171-0131639b6dc1"},"vehicle_type_id":"4","last_reported":1768375087,"current_range_meters":8000,"station_id":"ce4bgjh2rcd13ifvqbg0","pricing_plan_id":"cebpf4jnsgd1na2vs0mg"},{"bike_id":"0261c6fd-283d-4283-af45-cb4a9ce5e8c4","system_id":"levelo_inurba_marseille","lat":43.2353,"lon":5.35951,"is_reserved":false,"is_disabled":false,"rental_uris":{"android":"levelo://app?vid=0261c6fd-283d-4283-af45-cb4a9ce5e8c4","ios":"levelo://app?vid=0261c6fd-283d-4283-af45-cb4a9ce5e8c4"},"vehicle_type_id":"4","last_reported":1768375087,"current_range_meters":8000,"station_id":"","pricing_plan_id":"cebpf4jnsgd1na2vs0mg"},{"bike_id":"a2c3fda5-fb1e-4329-88c2-2e7960229574","system_id":"levelo_inurba_marseille","lat":43.31203,"lon":5.40305,"is_reserved":false,"is_disabled":false,"rental_uris":{"android":"levelo://app?vid=a2c3fda5-fb1e-4329-88c2-2e7960229574","ios":"levelo://app?vid=a2c3fda5-fb1e-4329-88c2-2e7960229574"},"vehicle_type_id":"4","last_reported":1768375087,"current_range_meters":8000,"station_id":"","pricing_plan_id":"cebpf4jnsgd1na2vs0mg"},{"bike_id":"c584537b-62c7-4948-a162-60dcd0d33c4c","system_id":"levelo_inurba_marseille","lat":43.32347,"lon":5.36734,"is_reserved":false,"is_disabled":false,"rental_uris":{"android":"levelo://app?vid=c584537b-62c7-4948-a162-60dcd0d33c4c","ios":"levelo://app?vid=c584537b-62c7-4948-a162-60dcd0d33c4c"},"vehicle_type_id":"4","last_reported":1768375087,"current_range_meters":8000,"station_id":"ce4bhsh2rcd13ifvqi2g","pricing_plan_id":"cebpf4jnsgd1na2vs0mg"},{"bike_id":"f680f50c-74ae-434a-9907-5a62e8f7d3ec","system_id":"levelo_inurba_marseille","lat":43.30542,"lon":5.36693,"is_reserved":false,"is_disabled":false,"rental_uris":{"android":"levelo://app?vid=f680f50c-74ae-434a-9907-5a62e8f7d3ec","ios":"levelo://app?vid=f680f50c-74ae-434a-9907-5a62e8f7d3ec"},"vehicle_type_id":"4","last_reported":1768375087,"current_range_meters":8000,"station_id":"ce4bgrp2rcd13ifvqc9g","pricing_plan_id":"cebpf4jnsgd1na2vs0mg"},{"bike_id":"2469529a-4c4f-45b7-b2ce-c4433e05b931","system_id":"levelo_inurba_marseille","lat":43.284819,"lon":5.483883,"is_reserved":false,"is_disabled":false,"rental_uris":{"android":"levelo://app?vid=2469529a-4c4f-45b7-b2ce-c4433e05b931","ios":"levelo://app?vid=2469529a-4c4f-45b7-b2ce-c4433e05b931"},"vehicle_type_id":"4","last_reported":1768375087,"current_range_meters":8000,"station_id":"st_d3svhcjqgbts73a3dn0g","pricing_plan_id":"cebpf4jnsgd1na2vs0mg"},{"bike_id":"f779cea2-2439-4f21-8a92-51321276319a","system_id":"levelo_inurba_marseille","lat":43.26806,"lon":5.40258,"is_reserved":false,"is_disabled":false,"rental_uris":{"android":"levelo://app?vid=f779cea2-2439-4f21-8a92-51321276319a","ios":"levelo://app?vid=f779cea2-2439-4f21-8a92-51321276319a"},"vehicle_type_id":"4","last_reported":1768375087,"current_range_meters":8000,"station_id":"ce501612rcd8frsf0b60","pricing_plan_id":"cebpf4jnsgd1na2vs0mg"},{"bike_id":"6fa11f81-435a-4bcd-884f-792aac365db4","system_id":"levelo_inurba_marseille","lat":43.24664,"lon":5.38146,"is_reserved":false,"is_disabled":false,"rental_uris":{"android":"levelo://app?vid=6fa11f81-435a-4bcd-884f-792aac365db4","ios":"levelo://app?vid=6fa11f81-435a-4bcd-884f-792aac365db4"},"vehicle_type_id":"4","last_reported":1768375087,"current_range_meters":8000,"station_id":"ce4bhih2rcd13ifvqfr0","pricing_plan_id":"cebpf4jnsgd1na2vs0mg"},{"bike_id":"b0591438-4f8b-458b-95d3-396e832bb098","system_id":"levelo_inurba_marseille","lat":43.22546,"lon":5.41638,"is_reserved":false,"is_disabled":false,"rental_uris":{"android":"levelo://app?vid=b0591438-4f8b-458b-95d3-396e832bb098","ios":"levelo://app?vid=b0591438-4f8b-458b-95d3-396e832bb098"},"vehicle_type_id":"4","last_reported":1768375087,"current_range_meters":8000,"station_id":"st_d2o4gvlbi1j2169b742g","pricing_plan_id":"cebpf4jnsgd1na2vs0mg"},{"bike_id":"6a544cec-1683-4d6b-b4c5-a2e458a30d2d","system_id":"levelo_inurba_marseille","lat":43.30597,"lon":5.39355,"is_reserved":false,"is_disabled":false,"rental_uris":{"android":"levelo://app?vid=6a544cec-1683-4d6b-b4c5-a2e458a30d2d","ios":"levelo://app?vid=6a544cec-1683-4d6b-b4c5-a2e458a30d2d"},"vehicle_type_id":"4","last_reported":1768375087,"current_range_meters":8000,"station_id":"ce4bh0p2rcd13ifvqd80","pricing_plan_id":"cebpf4jnsgd1na2vs0mg"},{"bike_id":"8d83de58-7bec-479f-b839-23794cb47780","system_id":"levelo_inurba_marseille","lat":43.30957,"lon":5.39032,"is_reserved":false,"is_disabled":false,"rental_uris":{"android":"levelo://app?vid=8d83de58-7bec-479f-b839-23794cb47780","ios":"levelo://app?vid=8d83de58-7bec-479f-b839-23794cb47780"},"vehicle_type_id":"4","last_reported":1768375087,"current_range_meters":8000,"station_id":"ce4bgup2rcd13ifvqco0","pricing_plan_id":"cebpf4jnsgd1na2vs0mg"},{"bike_id":"0d671e60-48d8-460e-bae2-8c406f4aa248","system_id":"levelo_inurba_marseille","lat":43.28622,"lon":5.351,"is_reserved":false,"is_disabled":false,"rental_uris":{"android":"levelo://app?vid=0d671e60-48d8-460e-bae2-8c406f4aa248","ios":"levelo://app?vid=0d671e60-48d8-460e-bae2-8c406f4aa248"},"vehicle_type_id":"4","last_reported":1768375087,"current_range_meters":8000,"station_id":"ce4bhch2rcd13ifvqeug","pricing_plan_id":"cebpf4jnsgd1na2vs0mg"},{"bike_id":"c5ca41df-a10b-4946-8859-f377e5e5fca6","system_id":"levelo_inurba_marseille","lat":43.32524,"lon":5.41476,"is_reserved":false,"is_disabled":false,"rental_uris":{"android":"levelo://app?vid=c5ca41df-a10b-4946-8859-f377e5e5fca6","ios":"levelo://app?vid=c5ca41df-a10b-4946-8859-f377e5e5fca6"},"vehicle_type_id":"4","last_reported":1768375087,"current_range_meters":8000,"station_id":"ce4bhq12rcd13ifvqhhg","pricing_plan_id":"cebpf4jnsgd1na2vs0mg"},{"bike_id":"4644c3bf-6f06-4710-923c-485055976419","system_id":"levelo_inurba_marseille","lat":43.30909,"lon":5.36839,"is_reserved":false,"is_disabled":false,"rental_uris":{"android":"levelo://app?vid=4644c3bf-6f06-4710-923c-485055976419","ios":"levelo://app?vid=4644c3bf-6f06-4710-923c-485055976419"},"vehicle_type_id":"4","last_reported":1768375087,"current_range_meters":8400,"station_id":"ce4bgn92rcd13ifvqbvg","pricing_plan_id":"cebpf4jnsgd1na2vs0mg"},{"bike_id":"b7d49573-3e66-48d0-a113-0b261fcd2347","system_id":"levelo_inurba_marseille","lat":43.30134,"lon":5.37423,"is_reserved":false,"is_disabled":false,"rental_uris":{"android":"levelo://app?vid=b7d49573-3e66-48d0-a113-0b261fcd2347","ios":"levelo://app?vid=b7d49573-3e66-48d0-a113-0b261fcd2347"},"vehicle_type_id":"4","last_reported":1768375087,"current_range_meters":8400,"station_id":"ce4bgs92rcd13ifvqcc0","pricing_plan_id":"cebpf4jnsgd1na2vs0mg"},{"bike_id":"48ea19fd-bb24-48f1-8ab5-b2e9ca879b10","system_id":"levelo_inurba_marseille","lat":43.28429,"lon":5.39197,"is_reserved":false,"is_disabled":false,"rental_uris":{"android":"levelo://app?vid=48ea19fd-bb24-48f1-8ab5-b2e9ca879b10","ios":"levelo://app?vid=48ea19fd-bb24-48f1-8ab5-b2e9ca879b10"},"vehicle_type_id":"4","last_reported":1768375087,"current_range_meters":8400,"station_id":"ce4bhoh2rcd13ifvqh5g","pricing_plan_id":"cebpf4jnsgd1na2vs0mg"},{"bike_id":"f27272d4-b42c-4660-aff8-11729aa104cc","system_id":"levelo_inurba_marseille","lat":43.31227,"lon":5.36891,"is_reserved":false,"is_disabled":false,"rental_uris":{"android":"levelo://app?vid=f27272d4-b42c-4660-aff8-11729aa104cc","ios":"levelo://app?vid=f27272d4-b42c-4660-aff8-11729aa104cc"},"vehicle_type_id":"4","last_reported":1768375087,"current_range_meters":8400,"station_id":"ce4bgl92rcd13ifvqbq0","pricing_plan_id":"cebpf4jnsgd1na2vs0mg"},{"bike_id":"7dd08ae0-15c1-430e-b90c-31bae0657aec","system_id":"levelo_inurba_marseille","lat":43.28396,"lon":5.35003,"is_reserved":false,"is_disabled":false,"rental_uris":{"android":"levelo://app?vid=7dd08ae0-15c1-430e-b90c-31bae0657aec","ios":"levelo://app?vid=7dd08ae0-15c1-430e-b90c-31bae0657aec"},"vehicle_type_id":"4","last_reported":1768375087,"current_range_meters":8400,"station_id":"ce4bhbh2rcd13ifvqepg","pricing_plan_id":"cebpf4jnsgd1na2vs0mg"},{"bike_id":"f7abde8f-7468-4866-b223-898f45c00d6c","system_id":"levelo_inurba_marseille","lat":43.266666,"lon":5.382535,"is_reserved":false,"is_disabled":false,"rental_uris":{"android":"levelo://app?vid=f7abde8f-7468-4866-b223-898f45c00d6c","ios":"levelo://app?vid=f7abde8f-7468-4866-b223-898f45c00d6c"},"vehicle_type_id":"4","last_reported":1768375087,"current_range_meters":8400,"station_id":"ce4bhg92rcd13ifvqf90","pricing_plan_id":"cebpf4jnsgd1na2vs0mg"},{"bike_id":"a0f9b52c-bbb7-4f7a-b55f-b65905b6c8ef","system_id":"levelo_inurba_marseille","lat":43.24962,"lon":5.40478,"is_reserved":false,"is_disabled":false,"rental_uris":{"android":"levelo://app?vid=a0f9b52c-bbb7-4f7a-b55f-b65905b6c8ef","ios":"levelo://app?vid=a0f9b52c-bbb7-4f7a-b55f-b65905b6c8ef"},"vehicle_type_id":"4","last_reported":1768375087,"current_range_meters":8400,"station_id":"st_d2ngiaodas8pm72gd1h0","pricing_plan_id":"cebpf4jnsgd1na2vs0mg"},{"bike_id":"8803a6e9-67a3-479e-b849-a893754260d5","system_id":"levelo_inurba_marseille","lat":43.22923,"lon":5.35372,"is_reserved":false,"is_disabled":false,"rental_uris":{"android":"levelo://app?vid=8803a6e9-67a3-479e-b849-a893754260d5","ios":"levelo://app?vid=8803a6e9-67a3-479e-b849-a893754260d5"},"vehicle_type_id":"4","last_reported":1768375087,"current_range_meters":8400,"station_id":"cpo3532slgdg3j2ikp40","pricing_plan_id":"cebpf4jnsgd1na2vs0mg"},{"bike_id":"a95b6f12-0846-4420-87fd-d24a14a6b78d","system_id":"levelo_inurba_marseille","lat":43.26213,"lon":5.37939,"is_reserved":false,"is_disabled":false,"rental_uris":{"android":"levelo://app?vid=a95b6f12-0846-4420-87fd-d24a14a6b78d","ios":"levelo://app?vid=a95b6f12-0846-4420-87fd-d24a14a6b78d"},"vehicle_type_id":"4","last_reported":1768375087,"current_range_meters":8400,"station_id":"ce4bhjp2rcd13ifvqg90","pricing_plan_id":"cebpf4jnsgd1na2vs0mg"},{"bike_id":"5b18981c-eb74-4370-aa72-d8d6f3c3d193","system_id":"levelo_inurba_marseille","lat":43.24957,"lon":5.4049,"is_reserved":false,"is_disabled":false,"rental_uris":{"android":"levelo://app?vid=5b18981c-eb74-4370-aa72-d8d6f3c3d193","ios":"levelo://app?vid=5b18981c-eb74-4370-aa72-d8d6f3c3d193"},"vehicle_type_id":"4","last_reported":1768375087,"current_range_meters":8400,"station_id":"st_d2ngiaodas8pm72gd1h0","pricing_plan_id":"cebpf4jnsgd1na2vs0mg"},{"bike_id":"f9fd48c7-1477-4fd5-8b45-b2681b056249","system_id":"levelo_inurba_marseille","lat":43.284875,"lon":5.385713,"is_reserved":false,"is_disabled":false,"rental_uris":{"android":"levelo://app?vid=f9fd48c7-1477-4fd5-8b45-b2681b056249","ios":"levelo://app?vid=f9fd48c7-1477-4fd5-8b45-b2681b056249"},"vehicle_type_id":"4","last_reported":1768375087,"current_range_meters":8400,"station_id":"ce4bh8p2rcd13ifvqeb0","pricing_plan_id":"cebpf4jnsgd1na2vs0mg"},{"bike_id":"1d7b7cd8-cdff-4a8e-81d2-46cbf4a666a0","system_id":"levelo_inurba_marseille","lat":43.30436,"lon":5.3887,"is_reserved":false,"is_disabled":false,"rental_uris":{"android":"levelo://app?vid=1d7b7cd8-cdff-4a8e-81d2-46cbf4a666a0","ios":"levelo://app?vid=1d7b7cd8-cdff-4a8e-81d2-46cbf4a666a0"},"vehicle_type_id":"4","last_reported":1768375087,"current_range_meters":8400,"station_id":"ce4bgk12rcd13ifvqbi0","pricing_plan_id":"cebpf4jnsgd1na2vs0mg"},{"bike_id":"005db5fd-3fd2-4f85-bce0-b72cb46d6a4f","system_id":"levelo_inurba_marseille","lat":43.26938,"lon":5.38634,"is_reserved":false,"is_disabled":false,"rental_uris":{"android":"levelo://app?vid=005db5fd-3fd2-4f85-bce0-b72cb46d6a4f","ios":"levelo://app?vid=005db5fd-3fd2-4f85-bce0-b72cb46d6a4f"},"vehicle_type_id":"4","last_reported":1768375087,"current_range_meters":8400,"station_id":"ce4bhh92rcd13ifvqfh0","pricing_plan_id":"cebpf4jnsgd1na2vs0mg"},{"bike_id":"a58f59e5-c695-4724-9409-f8408af03486","system_id":"levelo_inurba_marseille","lat":43.27068,"lon":5.42263,"is_reserved":false,"is_disabled":true,"rental_uris":{"android":"levelo://app?vid=a58f59e5-c695-4724-9409-f8408af03486","ios":"levelo://app?vid=a58f59e5-c695-4724-9409-f8408af03486"},"vehicle_type_id":"4","last_reported":1768375087,"current_range_meters":8400,"station_id":"ce4bhk92rcd13ifvqgb0","pricing_plan_id":"cebpf4jnsgd1na2vs0mg"},{"bike_id":"204ac4ab-e203-4329-9ff0-720626e1f908","system_id":"levelo_inurba_marseille","lat":43.27076,"lon":5.38302,"is_reserved":false,"is_disabled":false,"rental_uris":{"android":"levelo://app?vid=204ac4ab-e203-4329-9ff0-720626e1f908","ios":"levelo://app?vid=204ac4ab-e203-4329-9ff0-720626e1f908"},"vehicle_type_id":"4","last_reported":1768375087,"current_range_meters":8400,"station_id":"st_d3n2fo6cfp8s73cte1j0","pricing_plan_id":"cebpf4jnsgd1na2vs0mg"},{"bike_id":"037a0099-1ded-43c7-8e30-7e3e2a0dc4bc","system_id":"levelo_inurba_marseille","lat":43.2495,"lon":5.40494,"is_reserved":false,"is_disabled":false,"rental_uris":{"android":"levelo://app?vid=037a0099-1ded-43c7-8e30-7e3e2a0dc4bc","ios":"levelo://app?vid=037a0099-1ded-43c7-8e30-7e3e2a0dc4bc"},"vehicle_type_id":"4","last_reported":1768375087,"current_range_meters":8400,"station_id":"st_d2ngiaodas8pm72gd1h0","pricing_plan_id":"cebpf4jnsgd1na2vs0mg"},{"bike_id":"90f57fd5-3859-4c52-9455-816635f4d12a","system_id":"levelo_inurba_marseille","lat":43.287037,"lon":5.373911,"is_reserved":false,"is_disabled":false,"rental_uris":{"android":"levelo://app?vid=90f57fd5-3859-4c52-9455-816635f4d12a","ios":"levelo://app?vid=90f57fd5-3859-4c52-9455-816635f4d12a"},"vehicle_type_id":"4","last_reported":1768375087,"current_range_meters":8800,"station_id":"","pricing_plan_id":"cebpf4jnsgd1na2vs0mg"},{"bike_id":"ac51e41a-d68d-43fd-8cda-0bb66198b83a","system_id":"levelo_inurba_marseille","lat":43.29058,"lon":5.37125,"is_reserved":false,"is_disabled":true,"rental_uris":{"android":"levelo://app?vid=ac51e41a-d68d-43fd-8cda-0bb66198b83a","ios":"levelo://app?vid=ac51e41a-d68d-43fd-8cda-0bb66198b83a"},"vehicle_type_id":"4","last_reported":1768375087,"current_range_meters":8800,"station_id":"ce4bh5p2rcd13ifvqe4g","pricing_plan_id":"cebpf4jnsgd1na2vs0mg"},{"bike_id":"6ffb6899-6aab-41b8-bca8-e001e76d9cdc","system_id":"levelo_inurba_marseille","lat":43.27493,"lon":5.42456,"is_reserved":false,"is_disabled":false,"rental_uris":{"android":"levelo://app?vid=6ffb6899-6aab-41b8-bca8-e001e76d9cdc","ios":"levelo://app?vid=6ffb6899-6aab-41b8-bca8-e001e76d9cdc"},"vehicle_type_id":"4","last_reported":1768375087,"current_range_meters":8800,"station_id":"ce4bhn92rcd13ifvqgrg","pricing_plan_id":"cebpf4jnsgd1na2vs0mg"},{"bike_id":"2f317efe-a01b-468a-9036-21dfc4cc3358","system_id":"levelo_inurba_marseille","lat":43.25826,"lon":5.3943,"is_reserved":false,"is_disabled":false,"rental_uris":{"android":"levelo://app?vid=2f317efe-a01b-468a-9036-21dfc4cc3358","ios":"levelo://app?vid=2f317efe-a01b-468a-9036-21dfc4cc3358"},"vehicle_type_id":"4","last_reported":1768375087,"current_range_meters":8800,"station_id":"ce4bhip2rcd13ifvqft0","pricing_plan_id":"cebpf4jnsgd1na2vs0mg"},{"bike_id":"660f8d3d-996c-4d0c-a098-476ebc30f600","system_id":"levelo_inurba_marseille","lat":43.22553,"lon":5.41655,"is_reserved":false,"is_disabled":false,"rental_uris":{"android":"levelo://app?vid=660f8d3d-996c-4d0c-a098-476ebc30f600","ios":"levelo://app?vid=660f8d3d-996c-4d0c-a098-476ebc30f600"},"vehicle_type_id":"4","last_reported":1768375087,"current_range_meters":8800,"station_id":"st_d2o4gvlbi1j2169b742g","pricing_plan_id":"cebpf4jnsgd1na2vs0mg"},{"bike_id":"e6a4415e-66da-4886-926f-dde89eafb0da","system_id":"levelo_inurba_marseille","lat":43.265395,"lon":5.372878,"is_reserved":false,"is_disabled":false,"rental_uris":{"android":"levelo://app?vid=e6a4415e-66da-4886-926f-dde89eafb0da","ios":"levelo://app?vid=e6a4415e-66da-4886-926f-dde89eafb0da"},"vehicle_type_id":"4","last_reported":1768375087,"current_range_meters":8800,"station_id":"ce4bhg12rcd13ifvqf70","pricing_plan_id":"cebpf4jnsgd1na2vs0mg"},{"bike_id":"e3689fe5-a0aa-4258-8eec-13656f1f8382","system_id":"levelo_inurba_marseille","lat":43.24808,"lon":5.37454,"is_reserved":false,"is_disabled":false,"rental_uris":{"android":"levelo://app?vid=e3689fe5-a0aa-4258-8eec-13656f1f8382","ios":"levelo://app?vid=e3689fe5-a0aa-4258-8eec-13656f1f8382"},"vehicle_type_id":"4","last_reported":1768375087,"current_range_meters":8800,"station_id":"ce4bhgh2rcd13ifvqfb0","pricing_plan_id":"cebpf4jnsgd1na2vs0mg"},{"bike_id":"92f25360-f2b1-4b1c-aeac-9e402cd6c0ed","system_id":"levelo_inurba_marseille","lat":43.28124,"lon":5.35024,"is_reserved":false,"is_disabled":false,"rental_uris":{"android":"levelo://app?vid=92f25360-f2b1-4b1c-aeac-9e402cd6c0ed","ios":"levelo://app?vid=92f25360-f2b1-4b1c-aeac-9e402cd6c0ed"},"vehicle_type_id":"4","last_reported":1768375087,"current_range_meters":8800,"station_id":"","pricing_plan_id":"cebpf4jnsgd1na2vs0mg"},{"bike_id":"0018a145-5229-40b3-8721-56b2cedfd3d6","system_id":"levelo_inurba_marseille","lat":43.31359,"lon":5.39692,"is_reserved":false,"is_disabled":false,"rental_uris":{"android":"levelo://app?vid=0018a145-5229-40b3-8721-56b2cedfd3d6","ios":"levelo://app?vid=0018a145-5229-40b3-8721-56b2cedfd3d6"},"vehicle_type_id":"4","last_reported":1768375087,"current_range_meters":8800,"station_id":"ce4bgvp2rcd13ifvqcu0","pricing_plan_id":"cebpf4jnsgd1na2vs0mg"},{"bike_id":"5410fd45-b8b4-470d-9bd7-ad1acafbc363","system_id":"levelo_inurba_marseille","lat":43.28477,"lon":5.48392,"is_reserved":false,"is_disabled":false,"rental_uris":{"android":"levelo://app?vid=5410fd45-b8b4-470d-9bd7-ad1acafbc363","ios":"levelo://app?vid=5410fd45-b8b4-470d-9bd7-ad1acafbc363"},"vehicle_type_id":"4","last_reported":1768375087,"current_range_meters":8800,"station_id":"","pricing_plan_id":"cebpf4jnsgd1na2vs0mg"},{"bike_id":"f29901d9-41c1-4fa3-8314-c74a529a48c0","system_id":"levelo_inurba_marseille","lat":43.300324,"lon":5.388794,"is_reserved":false,"is_disabled":false,"rental_uris":{"android":"levelo://app?vid=f29901d9-41c1-4fa3-8314-c74a529a48c0","ios":"levelo://app?vid=f29901d9-41c1-4fa3-8314-c74a529a48c0"},"vehicle_type_id":"4","last_reported":1768375087,"current_range_meters":8800,"station_id":"","pricing_plan_id":"cebpf4jnsgd1na2vs0mg"},{"bike_id":"cb91171a-b433-4d62-9e48-7aa16e13fdf7","system_id":"levelo_inurba_marseille","lat":43.29751,"lon":5.42801,"is_reserved":false,"is_disabled":false,"rental_uris":{"android":"levelo://app?vid=cb91171a-b433-4d62-9e48-7aa16e13fdf7","ios":"levelo://app?vid=cb91171a-b433-4d62-9e48-7aa16e13fdf7"},"vehicle_type_id":"4","last_reported":1768375087,"current_range_meters":8800,"station_id":"st_d3md5207bmas73dh9klg","pricing_plan_id":"cebpf4jnsgd1na2vs0mg"},{"bike_id":"f08c0b7b-c445-4bf5-ac0a-6d0e0ada65e2","system_id":"levelo_inurba_marseille","lat":43.28935,"lon":5.3664,"is_reserved":false,"is_disabled":false,"rental_uris":{"android":"levelo://app?vid=f08c0b7b-c445-4bf5-ac0a-6d0e0ada65e2","ios":"levelo://app?vid=f08c0b7b-c445-4bf5-ac0a-6d0e0ada65e2"},"vehicle_type_id":"4","last_reported":1768375087,"current_range_meters":8800,"station_id":"ce4bhap2rcd13ifvqek0","pricing_plan_id":"cebpf4jnsgd1na2vs0mg"},{"bike_id":"7757c024-8de5-4d60-ba36-3581873ca4bd","system_id":"levelo_inurba_marseille","lat":43.29249,"lon":5.38437,"is_reserved":false,"is_disabled":true,"rental_uris":{"android":"levelo://app?vid=7757c024-8de5-4d60-ba36-3581873ca4bd","ios":"levelo://app?vid=7757c024-8de5-4d60-ba36-3581873ca4bd"},"vehicle_type_id":"4","last_reported":1768375087,"current_range_meters":8800,"station_id":"ce4bh692rcd13ifvqea0","pricing_plan_id":"cebpf4jnsgd1na2vs0mg"},{"bike_id":"10a8b439-3518-4251-8041-5d71e3d761fd","system_id":"levelo_inurba_marseille","lat":43.292556,"lon":5.409134,"is_reserved":false,"is_disabled":true,"rental_uris":{"android":"levelo://app?vid=10a8b439-3518-4251-8041-5d71e3d761fd","ios":"levelo://app?vid=10a8b439-3518-4251-8041-5d71e3d761fd"},"vehicle_type_id":"4","last_reported":1768375087,"current_range_meters":8800,"station_id":"ce4bh192rcd13ifvqdc0","pricing_plan_id":"cebpf4jnsgd1na2vs0mg"},{"bike_id":"55194f29-42dd-4454-96b2-a5d4401446b6","system_id":"levelo_inurba_marseille","lat":43.299405,"lon":5.427567,"is_reserved":false,"is_disabled":false,"rental_uris":{"android":"levelo://app?vid=55194f29-42dd-4454-96b2-a5d4401446b6","ios":"levelo://app?vid=55194f29-42dd-4454-96b2-a5d4401446b6"},"vehicle_type_id":"4","last_reported":1768375087,"current_range_meters":8800,"station_id":"","pricing_plan_id":"cebpf4jnsgd1na2vs0mg"},{"bike_id":"091c8081-61de-43ac-bb2c-74077a5d4149","system_id":"levelo_inurba_marseille","lat":43.22554,"lon":5.41622,"is_reserved":false,"is_disabled":false,"rental_uris":{"android":"levelo://app?vid=091c8081-61de-43ac-bb2c-74077a5d4149","ios":"levelo://app?vid=091c8081-61de-43ac-bb2c-74077a5d4149"},"vehicle_type_id":"4","last_reported":1768375087,"current_range_meters":8800,"station_id":"st_d2o4gvlbi1j2169b742g","pricing_plan_id":"cebpf4jnsgd1na2vs0mg"},{"bike_id":"d822d21f-2a31-408a-b00b-b3387695630b","system_id":"levelo_inurba_marseille","lat":43.21169,"lon":5.35098,"is_reserved":false,"is_disabled":false,"rental_uris":{"android":"levelo://app?vid=d822d21f-2a31-408a-b00b-b3387695630b","ios":"levelo://app?vid=d822d21f-2a31-408a-b00b-b3387695630b"},"vehicle_type_id":"4","last_reported":1768375087,"current_range_meters":8800,"station_id":"st_cvj6sg6p6f1abm77japg","pricing_plan_id":"cebpf4jnsgd1na2vs0mg"},{"bike_id":"212e3e9d-aea1-4db2-bf31-7f94b2458124","system_id":"levelo_inurba_marseille","lat":43.25821,"lon":5.39434,"is_reserved":false,"is_disabled":false,"rental_uris":{"android":"levelo://app?vid=212e3e9d-aea1-4db2-bf31-7f94b2458124","ios":"levelo://app?vid=212e3e9d-aea1-4db2-bf31-7f94b2458124"},"vehicle_type_id":"4","last_reported":1768375087,"current_range_meters":8800,"station_id":"ce4bhip2rcd13ifvqft0","pricing_plan_id":"cebpf4jnsgd1na2vs0mg"},{"bike_id":"8edd0db3-c88a-4cbe-8904-85542e04b406","system_id":"levelo_inurba_marseille","lat":43.25918,"lon":5.40896,"is_reserved":false,"is_disabled":false,"rental_uris":{"android":"levelo://app?vid=8edd0db3-c88a-4cbe-8904-85542e04b406","ios":"levelo://app?vid=8edd0db3-c88a-4cbe-8904-85542e04b406"},"vehicle_type_id":"4","last_reported":1768375087,"current_range_meters":8800,"station_id":"ce4bhm92rcd13ifvqglg","pricing_plan_id":"cebpf4jnsgd1na2vs0mg"},{"bike_id":"b4112837-76e8-4e23-9737-316144e3c090","system_id":"levelo_inurba_marseille","lat":43.29975,"lon":5.38481,"is_reserved":false,"is_disabled":true,"rental_uris":{"android":"levelo://app?vid=b4112837-76e8-4e23-9737-316144e3c090","ios":"levelo://app?vid=b4112837-76e8-4e23-9737-316144e3c090"},"vehicle_type_id":"4","last_reported":1768375087,"current_range_meters":8800,"station_id":"ce4bgj92rcd13ifvqbd0","pricing_plan_id":"cebpf4jnsgd1na2vs0mg"},{"bike_id":"a17e8d5f-3b35-487b-a91b-1f29ad7b4c5b","system_id":"levelo_inurba_marseille","lat":43.24947,"lon":5.40498,"is_reserved":false,"is_disabled":false,"rental_uris":{"android":"levelo://app?vid=a17e8d5f-3b35-487b-a91b-1f29ad7b4c5b","ios":"levelo://app?vid=a17e8d5f-3b35-487b-a91b-1f29ad7b4c5b"},"vehicle_type_id":"4","last_reported":1768375087,"current_range_meters":8800,"station_id":"st_d2ngiaodas8pm72gd1h0","pricing_plan_id":"cebpf4jnsgd1na2vs0mg"},{"bike_id":"2faf456b-ee2d-4133-b7ba-f7af1e348aa1","system_id":"levelo_inurba_marseille","lat":43.27359,"lon":5.42427,"is_reserved":false,"is_disabled":false,"rental_uris":{"android":"levelo://app?vid=2faf456b-ee2d-4133-b7ba-f7af1e348aa1","ios":"levelo://app?vid=2faf456b-ee2d-4133-b7ba-f7af1e348aa1"},"vehicle_type_id":"4","last_reported":1768375087,"current_range_meters":8800,"station_id":"","pricing_plan_id":"cebpf4jnsgd1na2vs0mg"},{"bike_id":"e132dfde-773d-467b-b281-4eeb31a6b007","system_id":"levelo_inurba_marseille","lat":43.24808,"lon":5.37458,"is_reserved":false,"is_disabled":false,"rental_uris":{"android":"levelo://app?vid=e132dfde-773d-467b-b281-4eeb31a6b007","ios":"levelo://app?vid=e132dfde-773d-467b-b281-4eeb31a6b007"},"vehicle_type_id":"4","last_reported":1768375087,"current_range_meters":9200,"station_id":"ce4bhgh2rcd13ifvqfb0","pricing_plan_id":"cebpf4jnsgd1na2vs0mg"},{"bike_id":"46abc91a-a7e1-4f64-907a-05b40199c6bd","system_id":"levelo_inurba_marseille","lat":43.30786,"lon":5.37645,"is_reserved":false,"is_disabled":false,"rental_uris":{"android":"levelo://app?vid=46abc91a-a7e1-4f64-907a-05b40199c6bd","ios":"levelo://app?vid=46abc91a-a7e1-4f64-907a-05b40199c6bd"},"vehicle_type_id":"4","last_reported":1768375087,"current_range_meters":9200,"station_id":"ce4bgv92rcd13ifvqcq0","pricing_plan_id":"cebpf4jnsgd1na2vs0mg"},{"bike_id":"c75b139b-6977-457c-8fab-86c172554976","system_id":"levelo_inurba_marseille","lat":43.25095,"lon":5.40446,"is_reserved":false,"is_disabled":false,"rental_uris":{"android":"levelo://app?vid=c75b139b-6977-457c-8fab-86c172554976","ios":"levelo://app?vid=c75b139b-6977-457c-8fab-86c172554976"},"vehicle_type_id":"4","last_reported":1768375087,"current_range_meters":9200,"station_id":"","pricing_plan_id":"cebpf4jnsgd1na2vs0mg"},{"bike_id":"7cb21a0a-0b9b-4eea-84c7-3aed4979c105","system_id":"levelo_inurba_marseille","lat":43.26558,"lon":5.39035,"is_reserved":false,"is_disabled":false,"rental_uris":{"android":"levelo://app?vid=7cb21a0a-0b9b-4eea-84c7-3aed4979c105","ios":"levelo://app?vid=7cb21a0a-0b9b-4eea-84c7-3aed4979c105"},"vehicle_type_id":"4","last_reported":1768375087,"current_range_meters":9200,"station_id":"ce4bhe12rcd13ifvqf30","pricing_plan_id":"cebpf4jnsgd1na2vs0mg"},{"bike_id":"7aebede3-29e7-422e-9949-e6406848b636","system_id":"levelo_inurba_marseille","lat":43.25107,"lon":5.40326,"is_reserved":false,"is_disabled":false,"rental_uris":{"android":"levelo://app?vid=7aebede3-29e7-422e-9949-e6406848b636","ios":"levelo://app?vid=7aebede3-29e7-422e-9949-e6406848b636"},"vehicle_type_id":"4","last_reported":1768375087,"current_range_meters":9200,"station_id":"ce4bhlh2rcd13ifvqgig","pricing_plan_id":"cebpf4jnsgd1na2vs0mg"},{"bike_id":"5b09bda2-27b8-404f-b1ea-ff8b174b2601","system_id":"levelo_inurba_marseille","lat":43.25102,"lon":5.40293,"is_reserved":false,"is_disabled":false,"rental_uris":{"android":"levelo://app?vid=5b09bda2-27b8-404f-b1ea-ff8b174b2601","ios":"levelo://app?vid=5b09bda2-27b8-404f-b1ea-ff8b174b2601"},"vehicle_type_id":"4","last_reported":1768375087,"current_range_meters":9200,"station_id":"ce4bhlh2rcd13ifvqgig","pricing_plan_id":"cebpf4jnsgd1na2vs0mg"},{"bike_id":"2a5bc01f-8c89-4919-bd8a-e9e6b8dbad74","system_id":"levelo_inurba_marseille","lat":43.26309,"lon":5.39811,"is_reserved":false,"is_disabled":false,"rental_uris":{"android":"levelo://app?vid=2a5bc01f-8c89-4919-bd8a-e9e6b8dbad74","ios":"levelo://app?vid=2a5bc01f-8c89-4919-bd8a-e9e6b8dbad74"},"vehicle_type_id":"4","last_reported":1768375087,"current_range_meters":9200,"station_id":"","pricing_plan_id":"cebpf4jnsgd1na2vs0mg"},{"bike_id":"52dc7a23-02b1-49ea-88fe-a1d65ef8f548","system_id":"levelo_inurba_marseille","lat":43.22938,"lon":5.35426,"is_reserved":false,"is_disabled":false,"rental_uris":{"android":"levelo://app?vid=52dc7a23-02b1-49ea-88fe-a1d65ef8f548","ios":"levelo://app?vid=52dc7a23-02b1-49ea-88fe-a1d65ef8f548"},"vehicle_type_id":"4","last_reported":1768375087,"current_range_meters":9200,"station_id":"cpo3532slgdg3j2ikp40","pricing_plan_id":"cebpf4jnsgd1na2vs0mg"},{"bike_id":"7fa2aa3b-290f-497a-8a4a-d30fc43d2d85","system_id":"levelo_inurba_marseille","lat":43.24531,"lon":5.38032,"is_reserved":false,"is_disabled":false,"rental_uris":{"android":"levelo://app?vid=7fa2aa3b-290f-497a-8a4a-d30fc43d2d85","ios":"levelo://app?vid=7fa2aa3b-290f-497a-8a4a-d30fc43d2d85"},"vehicle_type_id":"4","last_reported":1768375087,"current_range_meters":9200,"station_id":"","pricing_plan_id":"cebpf4jnsgd1na2vs0mg"},{"bike_id":"86aaef4b-aac1-4248-ac79-0d9f37b8c62f","system_id":"levelo_inurba_marseille","lat":43.27317,"lon":5.41682,"is_reserved":false,"is_disabled":false,"rental_uris":{"android":"levelo://app?vid=86aaef4b-aac1-4248-ac79-0d9f37b8c62f","ios":"levelo://app?vid=86aaef4b-aac1-4248-ac79-0d9f37b8c62f"},"vehicle_type_id":"4","last_reported":1768375087,"current_range_meters":9200,"station_id":"","pricing_plan_id":"cebpf4jnsgd1na2vs0mg"},{"bike_id":"a293b5ac-cc9d-4eaf-9c82-287a9bc7812d","system_id":"levelo_inurba_marseille","lat":43.28946,"lon":5.38844,"is_reserved":false,"is_disabled":false,"rental_uris":{"android":"levelo://app?vid=a293b5ac-cc9d-4eaf-9c82-287a9bc7812d","ios":"levelo://app?vid=a293b5ac-cc9d-4eaf-9c82-287a9bc7812d"},"vehicle_type_id":"4","last_reported":1768375087,"current_range_meters":9200,"station_id":"","pricing_plan_id":"cebpf4jnsgd1na2vs0mg"},{"bike_id":"396fbd50-99cc-4598-ada2-23bb3a56180e","system_id":"levelo_inurba_marseille","lat":43.25011,"lon":5.38936,"is_reserved":false,"is_disabled":false,"rental_uris":{"android":"levelo://app?vid=396fbd50-99cc-4598-ada2-23bb3a56180e","ios":"levelo://app?vid=396fbd50-99cc-4598-ada2-23bb3a56180e"},