{"last_updated":1748455978,"ttl":60,"version":"2.2","data":{"bikes":[{"bike_id":"55d42eeb-6b71-4987-a0f2-3d758b10d43e","system_id":"levelo_inurba_marseille","lat":43.33771,"lon":5.37424,"is_reserved":false,"is_disabled":true,"rental_uris":{"android":"levelo://app?vid=55d42eeb-6b71-4987-a0f2-3d758b10d43e","ios":"levelo://app?vid=55d42eeb-6b71-4987-a0f2-3d758b10d43e"},"vehicle_type_id":"4","last_reported":1748455978,"current_range_meters":0,"station_id":"","pricing_plan_id":"cebpf4jnsgd1na2vs0mg"},{"bike_id":"b7fe4621-b706-42f0-9085-4811142f84e8","system_id":"levelo_inurba_marseille","lat":43.337499,"lon":5.374469,"is_reserved":false,"is_disabled":true,"rental_uris":{"android":"levelo://app?vid=b7fe4621-b706-42f0-9085-4811142f84e8","ios":"levelo://app?vid=b7fe4621-b706-42f0-9085-4811142f84e8"},"vehicle_type_id":"4","last_reported":1748455978,"current_range_meters":0,"station_id":"","pricing_plan_id":"cebpf4jnsgd1na2vs0mg"},{"bike_id":"ad402f0f-3192-410c-afac-8cf064a40c6d","system_id":"levelo_inurba_marseille","lat":43.337444,"lon":5.374475,"is_reserved":false,"is_disabled":true,"rental_uris":{"android":"levelo://app?vid=ad402f0f-3192-410c-afac-8cf064a40c6d","ios":"levelo://app?vid=ad402f0f-3192-410c-afac-8cf064a40c6d"},"vehicle_type_id":"4","last_reported":1748455978,"current_range_meters":0,"station_id":"","pricing_plan_id":"cebpf4jnsgd1na2vs0mg"},{"bike_id":"7255f8df-425a-4703-bec2-4d9fab29da8c","system_id":"levelo_inurba_marseille","lat":43.27459,"lon":5.36076,"is_reserved":false,"is_disabled":true,"rental_uris":{"android":"levelo://app?vid=7255f8df-425a-4703-bec2-4d9fab29da8c","ios":"levelo://app?vid=7255f8df-425a-4703-bec2-4d9fab29da8c"},"vehicle_type_id":"4","last_reported":1748455978,"current_range_meters":0,"station_id":"","pricing_plan_id":"cebpf4jnsgd1na2vs0mg"},{"bike_id":"80dc1064-d63f-4a22-ad21-d8abd70986c0","system_id":"levelo_inurba_marseille","lat":43.33776,"lon":5.37479,"is_reserved":false,"is_disabled":true,"rental_uris":{"android":"levelo://app?vid=80dc1064-d63f-4a22-ad21-d8abd70986c0","ios":"levelo://app?vid=80dc1064-d63f-4a22-ad21-d8abd70986c0"},"vehicle_type_id":"4","last_reported":1748455978,"current_range_meters":0,"station_id":"","pricing_plan_id":"cebpf4jnsgd1na2vs0mg"},{"bike_id":"060547db-3f71-4084-ba2a-2f2c4c9fe4dd","system_id":"levelo_inurba_marseille","lat":43.29995,"lon":5.40049,"is_reserved":false,"is_disabled":true,"rental_uris":{"android":"levelo://app?vid=060547db-3f71-4084-ba2a-2f2c4c9fe4dd","ios":"levelo://app?vid=060547db-3f71-4084-ba2a-2f2c4c9fe4dd"},"vehicle_type_id":"4","last_reported":1748455978,"current_range_meters":0,"station_id":"","pricing_plan_id":"cebpf4jnsgd1na2vs0mg"},{"bike_id":"e082a7e3-9601-48a8-99c3-8e25f2736751","system_id":"levelo_inurba_marseille","lat":43.24989,"lon":5.38192,"is_reserved":false,"is_disabled":true,"rental_uris":{"android":"levelo://app?vid=e082a7e3-9601-48a8-99c3-8e25f2736751","ios":"levelo://app?vid=e082a7e3-9601-48a8-99c3-8e25f2736751"},"vehicle_type_id":"4","last_reported":1748455978,"current_range_meters":0,"station_id":"","pricing_plan_id":"cebpf4jnsgd1na2vs0mg"},{"bike_id":"a63080ed-4ecd-4704-b675-515543c32834","system_id":"levelo_inurba_marseille","lat":43.284,"lon":5.37517,"is_reserved":false,"is_disabled":true,"rental_uris":{"android":"levelo://app?vid=a63080ed-4ecd-4704-b675-515543c32834","ios":"levelo://app?vid=a63080ed-4ecd-4704-b675-515543c32834"},"vehicle_type_id":"4","last_reported":1748455978,"current_range_meters":0,"station_id":"","pricing_plan_id":"cebpf4jnsgd1na2vs0mg"},{"bike_id":"2fd7e160-685c-4858-b57b-dcaef27a8e94","system_id":"levelo_inurba_marseille","lat":43.230331,"lon":5.401847,"is_reserved":false,"is_disabled":true,"rental_uris":{"android":"levelo://app?vid=2fd7e160-685c-4858-b57b-dcaef27a8e94","ios":"levelo://app?vid=2fd7e160-685c-4858-b57b-dcaef27a8e94"},"vehicle_type_id":"4","last_reported":1748455978,"current_range_meters":0,"station_id":"","pricing_plan_id":"cebpf4jnsgd1na2vs0mg"},{"bike_id":"7626e5e9-c8ff-4838-8acb-a441aa89d52c","system_id":"levelo_inurba_marseille","lat":43.33164,"lon":5.38614,"is_reserved":false,"is_disabled":true,"rental_uris":{"android":"levelo://app?vid=7626e5e9-c8ff-4838-8acb-a441aa89d52c","ios":"levelo://app?vid=7626e5e9-c8ff-4838-8acb-a441aa89d52c"},"vehicle_type_id":"4","last_reported":1748455978,"current_range_meters":0,"station_id":"","pricing_plan_id":"cebpf4jnsgd1na2vs0mg"},{"bike_id":"dd3a65ba-b06d-471e-a127-922317010a39","system_id":"levelo_inurba_marseille","lat":43.30611,"lon":5.37233,"is_reserved":false,"is_disabled":true,"rental_uris":{"android":"levelo://app?vid=dd3a65ba-b06d-471e-a127-922317010a39","ios":"levelo://app?vid=dd3a65ba-b06d-471e-a127-922317010a39"},"vehicle_type_id":"4","last_reported":1748455978,"current_range_meters":0,"station_id":"ce4bgqh2rcd13ifvqc4g","pricing_plan_id":"cebpf4jnsgd1na2vs0mg"},{"bike_id":"59c5ab77-e3f5-42a5-a0a5-74efe7a50c2a","system_id":"levelo_inurba_marseille","lat":43.30467,"lon":5.37908,"is_reserved":false,"is_disabled":true,"rental_uris":{"android":"levelo://app?vid=59c5ab77-e3f5-42a5-a0a5-74efe7a50c2a","ios":"levelo://app?vid=59c5ab77-e3f5-42a5-a0a5-74efe7a50c2a"},"vehicle_type_id":"4","last_reported":1748455978,"current_range_meters":0,"station_id":"ce4bgup2rcd13ifvqcn0","pricing_plan_id":"cebpf4jnsgd1na2vs0mg"},{"bike_id":"edf3792f-21d0-4d10-9c03-4fc0b8ad8d43","system_id":"levelo_inurba_marseille","lat":43.31059,"lon":5.3835,"is_reserved":false,"is_disabled":true,"rental_uris":{"android":"levelo://app?vid=edf3792f-21d0-4d10-9c03-4fc0b8ad8d43","ios":"levelo://app?vid=edf3792f-21d0-4d10-9c03-4fc0b8ad8d43"},"vehicle_type_id":"4","last_reported":1748455978,"current_range_meters":0,"station_id":"ce4bgv92rcd13ifvqcr0","pricing_plan_id":"cebpf4jnsgd1na2vs0mg"},{"bike_id":"7a9116eb-9f83-4273-b380-c269ab60d952","system_id":"levelo_inurba_marseille","lat":43.30936,"lon":5.40151,"is_reserved":false,"is_disabled":true,"rental_uris":{"android":"levelo://app?vid=7a9116eb-9f83-4273-b380-c269ab60d952","ios":"levelo://app?vid=7a9116eb-9f83-4273-b380-c269ab60d952"},"vehicle_type_id":"4","last_reported":1748455978,"current_range_meters":0,"station_id":"ce4bgvp2rcd13ifvqct0","pricing_plan_id":"cebpf4jnsgd1na2vs0mg"},{"bike_id":"da80e2d0-1105-45ef-a414-26be64f73b0b","system_id":"levelo_inurba_marseille","lat":43.31312,"lon":5.3972,"is_reserved":false,"is_disabled":true,"rental_uris":{"android":"levelo://app?vid=da80e2d0-1105-45ef-a414-26be64f73b0b","ios":"levelo://app?vid=da80e2d0-1105-45ef-a414-26be64f73b0b"},"vehicle_type_id":"4","last_reported":1748455978,"current_range_meters":0,"station_id":"ce4bgvp2rcd13ifvqcu0","pricing_plan_id":"cebpf4jnsgd1na2vs0mg"},{"bike_id":"a63d47f3-7eb7-47b8-b6b2-69d6a45d6252","system_id":"levelo_inurba_marseille","lat":43.30595,"lon":5.39355,"is_reserved":false,"is_disabled":true,"rental_uris":{"android":"levelo://app?vid=a63d47f3-7eb7-47b8-b6b2-69d6a45d6252","ios":"levelo://app?vid=a63d47f3-7eb7-47b8-b6b2-69d6a45d6252"},"vehicle_type_id":"4","last_reported":1748455978,"current_range_meters":0,"station_id":"ce4bh0p2rcd13ifvqd80","pricing_plan_id":"cebpf4jnsgd1na2vs0mg"},{"bike_id":"6967d382-e1ff-4df3-844f-beafa03ab836","system_id":"levelo_inurba_marseille","lat":43.30602,"lon":5.39358,"is_reserved":false,"is_disabled":true,"rental_uris":{"android":"levelo://app?vid=6967d382-e1ff-4df3-844f-beafa03ab836","ios":"levelo://app?vid=6967d382-e1ff-4df3-844f-beafa03ab836"},"vehicle_type_id":"4","last_reported":1748455978,"current_range_meters":0,"station_id":"ce4bh0p2rcd13ifvqd80","pricing_plan_id":"cebpf4jnsgd1na2vs0mg"},{"bike_id":"cae40f1f-6859-4eee-b015-72004aa24811","system_id":"levelo_inurba_marseille","lat":43.30653,"lon":5.40082,"is_reserved":false,"is_disabled":true,"rental_uris":{"android":"levelo://app?vid=cae40f1f-6859-4eee-b015-72004aa24811","ios":"levelo://app?vid=cae40f1f-6859-4eee-b015-72004aa24811"},"vehicle_type_id":"4","last_reported":1748455978,"current_range_meters":0,"station_id":"ce4bh112rcd13ifvqda0","pricing_plan_id":"cebpf4jnsgd1na2vs0mg"},{"bike_id":"aa00d28c-bc08-4d5b-a63f-ec0575e0ff7d","system_id":"levelo_inurba_marseille","lat":43.29016,"lon":5.38647,"is_reserved":false,"is_disabled":true,"rental_uris":{"android":"levelo://app?vid=aa00d28c-bc08-4d5b-a63f-ec0575e0ff7d","ios":"levelo://app?vid=aa00d28c-bc08-4d5b-a63f-ec0575e0ff7d"},"vehicle_type_id":"4","last_reported":1748455978,"current_range_meters":0,"station_id":"ce4bh4p2rcd13ifvqe0g","pricing_plan_id":"cebpf4jnsgd1na2vs0mg"},{"bike_id":"a2a40c2d-5bc3-4a02-8059-5bc34e49d193","system_id":"levelo_inurba_marseille","lat":43.281,"lon":5.37844,"is_reserved":false,"is_disabled":true,"rental_uris":{"android":"levelo://app?vid=a2a40c2d-5bc3-4a02-8059-5bc34e49d193","ios":"levelo://app?vid=a2a40c2d-5bc3-4a02-8059-5bc34e49d193"},"vehicle_type_id":"4","last_reported":1748455978,"current_range_meters":0,"station_id":"ce4bha12rcd13ifvqee0","pricing_plan_id":"cebpf4jnsgd1na2vs0mg"},{"bike_id":"4e7b88e7-0102-46bd-91bb-7ff3cee05dcb","system_id":"levelo_inurba_marseille","lat":43.29193,"lon":5.35792,"is_reserved":false,"is_disabled":true,"rental_uris":{"android":"levelo://app?vid=4e7b88e7-0102-46bd-91bb-7ff3cee05dcb","ios":"levelo://app?vid=4e7b88e7-0102-46bd-91bb-7ff3cee05dcb"},"vehicle_type_id":"4","last_reported":1748455978,"current_range_meters":0,"station_id":"ce4bhb12rcd13ifvqel0","pricing_plan_id":"cebpf4jnsgd1na2vs0mg"},{"bike_id":"de95adaf-9dca-43e1-a7f7-a9c4f655f891","system_id":"levelo_inurba_marseille","lat":43.29197,"lon":5.35778,"is_reserved":false,"is_disabled":true,"rental_uris":{"android":"levelo://app?vid=de95adaf-9dca-43e1-a7f7-a9c4f655f891","ios":"levelo://app?vid=de95adaf-9dca-43e1-a7f7-a9c4f655f891"},"vehicle_type_id":"4","last_reported":1748455978,"current_range_meters":0,"station_id":"ce4bhb12rcd13ifvqel0","pricing_plan_id":"cebpf4jnsgd1na2vs0mg"},{"bike_id":"42d53b61-da1c-4e1b-9ea5-62e5cb9d4433","system_id":"levelo_inurba_marseille","lat":43.2826,"lon":5.35063,"is_reserved":false,"is_disabled":true,"rental_uris":{"android":"levelo://app?vid=42d53b61-da1c-4e1b-9ea5-62e5cb9d4433","ios":"levelo://app?vid=42d53b61-da1c-4e1b-9ea5-62e5cb9d4433"},"vehicle_type_id":"4","last_reported":1748455978,"current_range_meters":0,"station_id":"ce4bhbp2rcd13ifvqerg","pricing_plan_id":"cebpf4jnsgd1na2vs0mg"},{"bike_id":"0839f4b2-ac88-4acf-b82a-61ca72dfb022","system_id":"levelo_inurba_marseille","lat":43.29271,"lon":5.36845,"is_reserved":false,"is_disabled":true,"rental_uris":{"android":"levelo://app?vid=0839f4b2-ac88-4acf-b82a-61ca72dfb022","ios":"levelo://app?vid=0839f4b2-ac88-4acf-b82a-61ca72dfb022"},"vehicle_type_id":"4","last_reported":1748455978,"current_range_meters":0,"station_id":"ce4bhbp2rcd13ifvqesg","pricing_plan_id":"cebpf4jnsgd1na2vs0mg"},{"bike_id":"a2901076-f9d6-4c7f-a18d-ea31e087e3b3","system_id":"levelo_inurba_marseille","lat":43.27888,"lon":5.38004,"is_reserved":false,"is_disabled":true,"rental_uris":{"android":"levelo://app?vid=a2901076-f9d6-4c7f-a18d-ea31e087e3b3","ios":"levelo://app?vid=a2901076-f9d6-4c7f-a18d-ea31e087e3b3"},"vehicle_type_id":"4","last_reported":1748455978,"current_range_meters":0,"station_id":"ce4bhf92rcd13ifvqf50","pricing_plan_id":"cebpf4jnsgd1na2vs0mg"},{"bike_id":"d664320e-8b73-4025-a8cb-ca88dff57426","system_id":"levelo_inurba_marseille","lat":43.25502,"lon":5.37655,"is_reserved":false,"is_disabled":true,"rental_uris":{"android":"levelo://app?vid=d664320e-8b73-4025-a8cb-ca88dff57426","ios":"levelo://app?vid=d664320e-8b73-4025-a8cb-ca88dff57426"},"vehicle_type_id":"4","last_reported":1748455978,"current_range_meters":0,"station_id":"ce4bhh12rcd13ifvqff0","pricing_plan_id":"cebpf4jnsgd1na2vs0mg"},{"bike_id":"2b3ecf13-5244-4904-be95-0506af0239de","system_id":"levelo_inurba_marseille","lat":43.27173,"lon":5.40996,"is_reserved":false,"is_disabled":true,"rental_uris":{"android":"levelo://app?vid=2b3ecf13-5244-4904-be95-0506af0239de","ios":"levelo://app?vid=2b3ecf13-5244-4904-be95-0506af0239de"},"vehicle_type_id":"4","last_reported":1748455978,"current_range_meters":0,"station_id":"ce4bhl12rcd13ifvqgf0","pricing_plan_id":"cebpf4jnsgd1na2vs0mg"},{"bike_id":"503eb789-3e03-423a-8947-debb0828dad9","system_id":"levelo_inurba_marseille","lat":43.25884,"lon":5.39894,"is_reserved":false,"is_disabled":true,"rental_uris":{"android":"levelo://app?vid=503eb789-3e03-423a-8947-debb0828dad9","ios":"levelo://app?vid=503eb789-3e03-423a-8947-debb0828dad9"},"vehicle_type_id":"4","last_reported":1748455978,"current_range_meters":0,"station_id":"ce4bhl92rcd13ifvqghg","pricing_plan_id":"cebpf4jnsgd1na2vs0mg"},{"bike_id":"01f04c71-893a-4e49-9d7d-f4ec90f85357","system_id":"levelo_inurba_marseille","lat":43.23166,"lon":5.39997,"is_reserved":false,"is_disabled":true,"rental_uris":{"android":"levelo://app?vid=01f04c71-893a-4e49-9d7d-f4ec90f85357","ios":"levelo://app?vid=01f04c71-893a-4e49-9d7d-f4ec90f85357"},"vehicle_type_id":"4","last_reported":1748455978,"current_range_meters":0,"station_id":"ce4bhn12rcd13ifvqgqg","pricing_plan_id":"cebpf4jnsgd1na2vs0mg"},{"bike_id":"ac941aa7-ae64-4e06-9ba9-ae9b002a5c62","system_id":"levelo_inurba_marseille","lat":43.3037,"lon":5.42484,"is_reserved":false,"is_disabled":true,"rental_uris":{"android":"levelo://app?vid=ac941aa7-ae64-4e06-9ba9-ae9b002a5c62","ios":"levelo://app?vid=ac941aa7-ae64-4e06-9ba9-ae9b002a5c62"},"vehicle_type_id":"4","last_reported":1748455978,"current_range_meters":0,"station_id":"ce4bhoh2rcd13ifvqh6g","pricing_plan_id":"cebpf4jnsgd1na2vs0mg"},{"bike_id":"0d16491c-abaf-49ec-8676-8595a7c9f9c4","system_id":"levelo_inurba_marseille","lat":43.30409,"lon":5.41285,"is_reserved":false,"is_disabled":true,"rental_uris":{"android":"levelo://app?vid=0d16491c-abaf-49ec-8676-8595a7c9f9c4","ios":"levelo://app?vid=0d16491c-abaf-49ec-8676-8595a7c9f9c4"},"vehicle_type_id":"4","last_reported":1748455978,"current_range_meters":0,"station_id":"ce4bhop2rcd13ifvqh8g","pricing_plan_id":"cebpf4jnsgd1na2vs0mg"},{"bike_id":"3dcb201d-de81-4b3c-b43b-0dd0cfb79b79","system_id":"levelo_inurba_marseille","lat":43.315341,"lon":5.380392,"is_reserved":false,"is_disabled":true,"rental_uris":{"android":"levelo://app?vid=3dcb201d-de81-4b3c-b43b-0dd0cfb79b79","ios":"levelo://app?vid=3dcb201d-de81-4b3c-b43b-0dd0cfb79b79"},"vehicle_type_id":"4","last_reported":1748455978,"current_range_meters":0,"station_id":"ce4bhsp2rcd13ifvqi50","pricing_plan_id":"cebpf4jnsgd1na2vs0mg"},{"bike_id":"dfffa491-9570-4ba4-ba14-39d61ced1527","system_id":"levelo_inurba_marseille","lat":43.29964,"lon":5.385,"is_reserved":false,"is_disabled":true,"rental_uris":{"android":"levelo://app?vid=dfffa491-9570-4ba4-ba14-39d61ced1527","ios":"levelo://app?vid=dfffa491-9570-4ba4-ba14-39d61ced1527"},"vehicle_type_id":"4","last_reported":1748455978,"current_range_meters":400,"station_id":"ce4bgj92rcd13ifvqbd0","pricing_plan_id":"cebpf4jnsgd1na2vs0mg"},{"bike_id":"1806edcd-d251-4d9a-a5f8-2af78342cfc0","system_id":"levelo_inurba_marseille","lat":43.30235,"lon":5.40087,"is_reserved":false,"is_disabled":true,"rental_uris":{"android":"levelo://app?vid=1806edcd-d251-4d9a-a5f8-2af78342cfc0","ios":"levelo://app?vid=1806edcd-d251-4d9a-a5f8-2af78342cfc0"},"vehicle_type_id":"4","last_reported":1748455978,"current_range_meters":400,"station_id":"ce4bgvh2rcd13ifvqcs0","pricing_plan_id":"cebpf4jnsgd1na2vs0mg"},{"bike_id":"7b0caa28-ed9f-463d-b3ed-009ae15df6ec","system_id":"levelo_inurba_marseille","lat":43.29881,"lon":5.38896,"is_reserved":false,"is_disabled":true,"rental_uris":{"android":"levelo://app?vid=7b0caa28-ed9f-463d-b3ed-009ae15df6ec","ios":"levelo://app?vid=7b0caa28-ed9f-463d-b3ed-009ae15df6ec"},"vehicle_type_id":"4","last_reported":1748455978,"current_range_meters":400,"station_id":"ce4bh392rcd13ifvqdl0","pricing_plan_id":"cebpf4jnsgd1na2vs0mg"},{"bike_id":"fa495556-c818-45ae-b0f9-642970d64d87","system_id":"levelo_inurba_marseille","lat":43.29161,"lon":5.3717,"is_reserved":false,"is_disabled":true,"rental_uris":{"android":"levelo://app?vid=fa495556-c818-45ae-b0f9-642970d64d87","ios":"levelo://app?vid=fa495556-c818-45ae-b0f9-642970d64d87"},"vehicle_type_id":"4","last_reported":1748455978,"current_range_meters":400,"station_id":"ce4bha92rcd13ifvqeh0","pricing_plan_id":"cebpf4jnsgd1na2vs0mg"},{"bike_id":"439b2175-bd28-486e-aa9c-f9b5b3249c66","system_id":"levelo_inurba_marseille","lat":43.24813,"lon":5.3746,"is_reserved":false,"is_disabled":true,"rental_uris":{"android":"levelo://app?vid=439b2175-bd28-486e-aa9c-f9b5b3249c66","ios":"levelo://app?vid=439b2175-bd28-486e-aa9c-f9b5b3249c66"},"vehicle_type_id":"4","last_reported":1748455978,"current_range_meters":400,"station_id":"ce4bhgh2rcd13ifvqfb0","pricing_plan_id":"cebpf4jnsgd1na2vs0mg"},{"bike_id":"e73357c5-67ed-4075-84be-4246c5fbde4a","system_id":"levelo_inurba_marseille","lat":43.23179,"lon":5.43752,"is_reserved":false,"is_disabled":true,"rental_uris":{"android":"levelo://app?vid=e73357c5-67ed-4075-84be-4246c5fbde4a","ios":"levelo://app?vid=e73357c5-67ed-4075-84be-4246c5fbde4a"},"vehicle_type_id":"4","last_reported":1748455978,"current_range_meters":400,"station_id":"ce4bhmp2rcd13ifvqgog","pricing_plan_id":"cebpf4jnsgd1na2vs0mg"},{"bike_id":"9c135680-911b-4840-8586-0118a43842f4","system_id":"levelo_inurba_marseille","lat":43.30988,"lon":5.39028,"is_reserved":false,"is_disabled":true,"rental_uris":{"android":"levelo://app?vid=9c135680-911b-4840-8586-0118a43842f4","ios":"levelo://app?vid=9c135680-911b-4840-8586-0118a43842f4"},"vehicle_type_id":"4","last_reported":1748455978,"current_range_meters":800,"station_id":"ce4bgup2rcd13ifvqco0","pricing_plan_id":"cebpf4jnsgd1na2vs0mg"},{"bike_id":"befc8438-bb98-4f02-ae0f-bff69448aaa7","system_id":"levelo_inurba_marseille","lat":43.29523,"lon":5.39034,"is_reserved":false,"is_disabled":true,"rental_uris":{"android":"levelo://app?vid=befc8438-bb98-4f02-ae0f-bff69448aaa7","ios":"levelo://app?vid=befc8438-bb98-4f02-ae0f-bff69448aaa7"},"vehicle_type_id":"4","last_reported":1748455978,"current_range_meters":800,"station_id":"ce4bh3p2rcd13ifvqdp0","pricing_plan_id":"cebpf4jnsgd1na2vs0mg"},{"bike_id":"9d8b1229-e624-4c6e-a145-512d0dc7057d","system_id":"levelo_inurba_marseille","lat":43.32098,"lon":5.36788,"is_reserved":false,"is_disabled":true,"rental_uris":{"android":"levelo://app?vid=9d8b1229-e624-4c6e-a145-512d0dc7057d","ios":"levelo://app?vid=9d8b1229-e624-4c6e-a145-512d0dc7057d"},"vehicle_type_id":"4","last_reported":1748455978,"current_range_meters":800,"station_id":"ce4bhrh2rcd13ifvqhug","pricing_plan_id":"cebpf4jnsgd1na2vs0mg"},{"bike_id":"2b5b78cb-01a8-4885-92e5-eef232c87bbd","system_id":"levelo_inurba_marseille","lat":43.29414,"lon":5.38624,"is_reserved":false,"is_disabled":true,"rental_uris":{"android":"levelo://app?vid=2b5b78cb-01a8-4885-92e5-eef232c87bbd","ios":"levelo://app?vid=2b5b78cb-01a8-4885-92e5-eef232c87bbd"},"vehicle_type_id":"4","last_reported":1748455978,"current_range_meters":1200,"station_id":"ce4bh2h2rcd13ifvqdh0","pricing_plan_id":"cebpf4jnsgd1na2vs0mg"},{"bike_id":"60d6abd4-aa17-48e7-98a7-557a189c4241","system_id":"levelo_inurba_marseille","lat":43.2798,"lon":5.3872,"is_reserved":false,"is_disabled":true,"rental_uris":{"android":"levelo://app?vid=60d6abd4-aa17-48e7-98a7-557a189c4241","ios":"levelo://app?vid=60d6abd4-aa17-48e7-98a7-557a189c4241"},"vehicle_type_id":"4","last_reported":1748455978,"current_range_meters":1200,"station_id":"ce4bhg12rcd13ifvqf80","pricing_plan_id":"cebpf4jnsgd1na2vs0mg"},{"bike_id":"5aefb386-e416-4906-998c-ff23207edc6c","system_id":"levelo_inurba_marseille","lat":43.21758,"lon":5.34598,"is_reserved":false,"is_disabled":true,"rental_uris":{"android":"levelo://app?vid=5aefb386-e416-4906-998c-ff23207edc6c","ios":"levelo://app?vid=5aefb386-e416-4906-998c-ff23207edc6c"},"vehicle_type_id":"4","last_reported":1748455978,"current_range_meters":1200,"station_id":"st_cvj6r9ubvosntc0bgbag","pricing_plan_id":"cebpf4jnsgd1na2vs0mg"},{"bike_id":"e258e812-07e0-407b-bac6-028935f7c63a","system_id":"levelo_inurba_marseille","lat":43.28352,"lon":5.38102,"is_reserved":false,"is_disabled":true,"rental_uris":{"android":"levelo://app?vid=e258e812-07e0-407b-bac6-028935f7c63a","ios":"levelo://app?vid=e258e812-07e0-407b-bac6-028935f7c63a"},"vehicle_type_id":"4","last_reported":1748455978,"current_range_meters":1600,"station_id":"ce4bh412rcd13ifvqdr0","pricing_plan_id":"cebpf4jnsgd1na2vs0mg"},{"bike_id":"c57c718f-151a-4fc6-8de3-82ed5d4966e3","system_id":"levelo_inurba_marseille","lat":43.28103,"lon":5.37836,"is_reserved":false,"is_disabled":true,"rental_uris":{"android":"levelo://app?vid=c57c718f-151a-4fc6-8de3-82ed5d4966e3","ios":"levelo://app?vid=c57c718f-151a-4fc6-8de3-82ed5d4966e3"},"vehicle_type_id":"4","last_reported":1748455978,"current_range_meters":1600,"station_id":"ce4bha12rcd13ifvqee0","pricing_plan_id":"cebpf4jnsgd1na2vs0mg"},{"bike_id":"47a83c21-68e1-4415-b5f4-5eb241b63f7e","system_id":"levelo_inurba_marseille","lat":43.28098,"lon":5.37877,"is_reserved":false,"is_disabled":true,"rental_uris":{"android":"levelo://app?vid=47a83c21-68e1-4415-b5f4-5eb241b63f7e","ios":"levelo://app?vid=47a83c21-68e1-4415-b5f4-5eb241b63f7e"},"vehicle_type_id":"4","last_reported":1748455978,"current_range_meters":1600,"station_id":"ce4bha12rcd13ifvqee0","pricing_plan_id":"cebpf4jnsgd1na2vs0mg"},{"bike_id":"86d176bb-0b73-4e06-94f3-1369774ca89b","system_id":"levelo_inurba_marseille","lat":43.26553,"lon":5.37295,"is_reserved":false,"is_disabled":true,"rental_uris":{"android":"levelo://app?vid=86d176bb-0b73-4e06-94f3-1369774ca89b","ios":"levelo://app?vid=86d176bb-0b73-4e06-94f3-1369774ca89b"},"vehicle_type_id":"4","last_reported":1748455978,"current_range_meters":1600,"station_id":"ce4bhg12rcd13ifvqf70","pricing_plan_id":"cebpf4jnsgd1na2vs0mg"},{"bike_id":"feb12a42-05fc-477e-8e17-463424e5ef9e","system_id":"levelo_inurba_marseille","lat":43.2481,"lon":5.37456,"is_reserved":false,"is_disabled":true,"rental_uris":{"android":"levelo://app?vid=feb12a42-05fc-477e-8e17-463424e5ef9e","ios":"levelo://app?vid=feb12a42-05fc-477e-8e17-463424e5ef9e"},"vehicle_type_id":"4","last_reported":1748455978,"current_range_meters":1600,"station_id":"ce4bhgh2rcd13ifvqfb0","pricing_plan_id":"cebpf4jnsgd1na2vs0mg"},{"bike_id":"b48de140-6071-4c68-a03c-0327efbe82a9","system_id":"levelo_inurba_marseille","lat":43.248,"lon":5.374586,"is_reserved":false,"is_disabled":true,"rental_uris":{"android":"levelo://app?vid=b48de140-6071-4c68-a03c-0327efbe82a9","ios":"levelo://app?vid=b48de140-6071-4c68-a03c-0327efbe82a9"},"vehicle_type_id":"4","last_reported":1748455978,"current_range_meters":1600,"station_id":"ce4bhgh2rcd13ifvqfb0","pricing_plan_id":"cebpf4jnsgd1na2vs0mg"},{"bike_id":"fa4e6d19-56eb-42fa-a339-5e291de90a2b","system_id":"levelo_inurba_marseille","lat":43.275548,"lon":5.38435,"is_reserved":false,"is_disabled":true,"rental_uris":{"android":"levelo://app?vid=fa4e6d19-56eb-42fa-a339-5e291de90a2b","ios":"levelo://app?vid=fa4e6d19-56eb-42fa-a339-5e291de90a2b"},"vehicle_type_id":"4","last_reported":1748455978,"current_range_meters":1600,"station_id":"ce4bhh92rcd13ifvqfi0","pricing_plan_id":"cebpf4jnsgd1na2vs0mg"},{"bike_id":"35b90a38-d05a-460c-8fe8-b5d665d934f7","system_id":"levelo_inurba_marseille","lat":43.26062,"lon":5.3939,"is_reserved":false,"is_disabled":true,"rental_uris":{"android":"levelo://app?vid=35b90a38-d05a-460c-8fe8-b5d665d934f7","ios":"levelo://app?vid=35b90a38-d05a-460c-8fe8-b5d665d934f7"},"vehicle_type_id":"4","last_reported":1748455978,"current_range_meters":1600,"station_id":"ce4bhh92rcd13ifvqfj0","pricing_plan_id":"cebpf4jnsgd1na2vs0mg"},{"bike_id":"7250bcba-164c-472f-8c43-dba667f22e9c","system_id":"levelo_inurba_marseille","lat":43.2511,"lon":5.4034,"is_reserved":false,"is_disabled":true,"rental_uris":{"android":"levelo://app?vid=7250bcba-164c-472f-8c43-dba667f22e9c","ios":"levelo://app?vid=7250bcba-164c-472f-8c43-dba667f22e9c"},"vehicle_type_id":"4","last_reported":1748455978,"current_range_meters":1600,"station_id":"ce4bhlh2rcd13ifvqgig","pricing_plan_id":"cebpf4jnsgd1na2vs0mg"},{"bike_id":"602d85ef-724d-4bfe-a5eb-f04cdc0e3539","system_id":"levelo_inurba_marseille","lat":43.30374,"lon":5.42474,"is_reserved":false,"is_disabled":true,"rental_uris":{"android":"levelo://app?vid=602d85ef-724d-4bfe-a5eb-f04cdc0e3539","ios":"levelo://app?vid=602d85ef-724d-4bfe-a5eb-f04cdc0e3539"},"vehicle_type_id":"4","last_reported":1748455978,"current_range_meters":1600,"station_id":"ce4bhoh2rcd13ifvqh6g","pricing_plan_id":"cebpf4jnsgd1na2vs0mg"},{"bike_id":"ef53bb08-3221-45a4-aeab-27ec5b84f36b","system_id":"levelo_inurba_marseille","lat":43.307327,"lon":5.424525,"is_reserved":false,"is_disabled":true,"rental_uris":{"android":"levelo://app?vid=ef53bb08-3221-45a4-aeab-27ec5b84f36b","ios":"levelo://app?vid=ef53bb08-3221-45a4-aeab-27ec5b84f36b"},"vehicle_type_id":"4","last_reported":1748455978,"current_range_meters":1600,"station_id":"st_cvj6ca6bvosntc0bfgr0","pricing_plan_id":"cebpf4jnsgd1na2vs0mg"},{"bike_id":"19ddf677-f666-41e6-a571-99f0082e0a79","system_id":"levelo_inurba_marseille","lat":43.23121,"lon":5.36618,"is_reserved":false,"is_disabled":true,"rental_uris":{"android":"levelo://app?vid=19ddf677-f666-41e6-a571-99f0082e0a79","ios":"levelo://app?vid=19ddf677-f666-41e6-a571-99f0082e0a79"},"vehicle_type_id":"4","last_reported":1748455978,"current_range_meters":2000,"station_id":"","pricing_plan_id":"cebpf4jnsgd1na2vs0mg"},{"bike_id":"22a86348-3abb-4405-b2ed-74157286ee33","system_id":"levelo_inurba_marseille","lat":43.31688,"lon":5.40458,"is_reserved":false,"is_disabled":true,"rental_uris":{"android":"levelo://app?vid=22a86348-3abb-4405-b2ed-74157286ee33","ios":"levelo://app?vid=22a86348-3abb-4405-b2ed-74157286ee33"},"vehicle_type_id":"4","last_reported":1748455978,"current_range_meters":2000,"station_id":"ce4bh012rcd13ifvqd00","pricing_plan_id":"cebpf4jnsgd1na2vs0mg"},{"bike_id":"6f370ccd-bf3a-43b3-96d2-9fbc0ef455e6","system_id":"levelo_inurba_marseille","lat":43.30114,"lon":5.39867,"is_reserved":false,"is_disabled":true,"rental_uris":{"android":"levelo://app?vid=6f370ccd-bf3a-43b3-96d2-9fbc0ef455e6","ios":"levelo://app?vid=6f370ccd-bf3a-43b3-96d2-9fbc0ef455e6"},"vehicle_type_id":"4","last_reported":1748455978,"current_range_meters":2000,"station_id":"ce4bh0h2rcd13ifvqd40","pricing_plan_id":"cebpf4jnsgd1na2vs0mg"},{"bike_id":"d559a211-0838-43ef-b914-c02cb6b8da22","system_id":"levelo_inurba_marseille","lat":43.295683,"lon":5.375159,"is_reserved":false,"is_disabled":true,"rental_uris":{"android":"levelo://app?vid=d559a211-0838-43ef-b914-c02cb6b8da22","ios":"levelo://app?vid=d559a211-0838-43ef-b914-c02cb6b8da22"},"vehicle_type_id":"4","last_reported":1748455978,"current_range_meters":2000,"station_id":"ce4bhb92rcd13ifvqen0","pricing_plan_id":"cebpf4jnsgd1na2vs0mg"},{"bike_id":"1fb1f3c6-3576-4b81-9202-36138daf9b27","system_id":"levelo_inurba_marseille","lat":43.33051,"lon":5.38224,"is_reserved":false,"is_disabled":false,"rental_uris":{"android":"levelo://app?vid=1fb1f3c6-3576-4b81-9202-36138daf9b27","ios":"levelo://app?vid=1fb1f3c6-3576-4b81-9202-36138daf9b27"},"vehicle_type_id":"4","last_reported":1748455978,"current_range_meters":2800,"station_id":"","pricing_plan_id":"cebpf4jnsgd1na2vs0mg"},{"bike_id":"39b4f656-bb98-4d94-b20e-82e30f56222b","system_id":"levelo_inurba_marseille","lat":43.297663,"lon":5.381032,"is_reserved":false,"is_disabled":false,"rental_uris":{"android":"levelo://app?vid=39b4f656-bb98-4d94-b20e-82e30f56222b","ios":"levelo://app?vid=39b4f656-bb98-4d94-b20e-82e30f56222b"},"vehicle_type_id":"4","last_reported":1748455978,"current_range_meters":2800,"station_id":"ce4bh0h2rcd13ifvqd40","pricing_plan_id":"cebpf4jnsgd1na2vs0mg"},{"bike_id":"95905bdb-1cb7-4f3d-94bb-8ac9edfe1a32","system_id":"levelo_inurba_marseille","lat":43.26232,"lon":5.40453,"is_reserved":false,"is_disabled":false,"rental_uris":{"android":"levelo://app?vid=95905bdb-1cb7-4f3d-94bb-8ac9edfe1a32","ios":"levelo://app?vid=95905bdb-1cb7-4f3d-94bb-8ac9edfe1a32"},"vehicle_type_id":"4","last_reported":1748455978,"current_range_meters":2800,"station_id":"ce4bhmh2rcd13ifvqgmg","pricing_plan_id":"cebpf4jnsgd1na2vs0mg"},{"bike_id":"43b6268f-713b-4ce1-a3b8-ddabc3b09adb","system_id":"levelo_inurba_marseille","lat":43.24079,"lon":5.37759,"is_reserved":false,"is_disabled":false,"rental_uris":{"android":"levelo://app?vid=43b6268f-713b-4ce1-a3b8-ddabc3b09adb","ios":"levelo://app?vid=43b6268f-713b-4ce1-a3b8-ddabc3b09adb"},"vehicle_type_id":"4","last_reported":1748455978,"current_range_meters":2800,"station_id":"ce4bhnp2rcd13ifvqgvg","pricing_plan_id":"cebpf4jnsgd1na2vs0mg"},{"bike_id":"f4c45e95-54cf-46e5-83c5-d89c27c9a69c","system_id":"levelo_inurba_marseille","lat":43.273035,"lon":5.41589,"is_reserved":false,"is_disabled":false,"rental_uris":{"android":"levelo://app?vid=f4c45e95-54cf-46e5-83c5-d89c27c9a69c","ios":"levelo://app?vid=f4c45e95-54cf-46e5-83c5-d89c27c9a69c"},"vehicle_type_id":"4","last_reported":1748455978,"current_range_meters":3200,"station_id":"","pricing_plan_id":"cebpf4jnsgd1na2vs0mg"},{"bike_id":"c580574f-ab20-4d19-924b-eea59425cded","system_id":"levelo_inurba_marseille","lat":43.292572,"lon":5.384414,"is_reserved":false,"is_disabled":false,"rental_uris":{"android":"levelo://app?vid=c580574f-ab20-4d19-924b-eea59425cded","ios":"levelo://app?vid=c580574f-ab20-4d19-924b-eea59425cded"},"vehicle_type_id":"4","last_reported":1748455978,"current_range_meters":3200,"station_id":"ce4bh692rcd13ifvqea0","pricing_plan_id":"cebpf4jnsgd1na2vs0mg"},{"bike_id":"82abdd1d-707d-4eef-ae5a-83510e2f0567","system_id":"levelo_inurba_marseille","lat":43.2846,"lon":5.35888,"is_reserved":false,"is_disabled":false,"rental_uris":{"android":"levelo://app?vid=82abdd1d-707d-4eef-ae5a-83510e2f0567","ios":"levelo://app?vid=82abdd1d-707d-4eef-ae5a-83510e2f0567"},"vehicle_type_id":"4","last_reported":1748455978,"current_range_meters":3200,"station_id":"ce4bhah2rcd13ifvqei0","pricing_plan_id":"cebpf4jnsgd1na2vs0mg"},{"bike_id":"c72f052b-81cd-475a-8441-f4ee1f9dc165","system_id":"levelo_inurba_marseille","lat":43.25862,"lon":5.39913,"is_reserved":false,"is_disabled":false,"rental_uris":{"android":"levelo://app?vid=c72f052b-81cd-475a-8441-f4ee1f9dc165","ios":"levelo://app?vid=c72f052b-81cd-475a-8441-f4ee1f9dc165"},"vehicle_type_id":"4","last_reported":1748455978,"current_range_meters":3200,"station_id":"ce4bhl92rcd13ifvqghg","pricing_plan_id":"cebpf4jnsgd1na2vs0mg"},{"bike_id":"853af661-08d8-4756-8d5b-2b9e72379594","system_id":"levelo_inurba_marseille","lat":43.289398,"lon":5.354992,"is_reserved":false,"is_disabled":false,"rental_uris":{"android":"levelo://app?vid=853af661-08d8-4756-8d5b-2b9e72379594","ios":"levelo://app?vid=853af661-08d8-4756-8d5b-2b9e72379594"},"vehicle_type_id":"4","last_reported":1748455978,"current_range_meters":3600,"station_id":"","pricing_plan_id":"cebpf4jnsgd1na2vs0mg"},{"bike_id":"d4cb537e-78b4-4b69-a3d6-d44c526d937c","system_id":"levelo_inurba_marseille","lat":43.30928,"lon":5.40147,"is_reserved":false,"is_disabled":false,"rental_uris":{"android":"levelo://app?vid=d4cb537e-78b4-4b69-a3d6-d44c526d937c","ios":"levelo://app?vid=d4cb537e-78b4-4b69-a3d6-d44c526d937c"},"vehicle_type_id":"4","last_reported":1748455978,"current_range_meters":3600,"station_id":"ce4bgvp2rcd13ifvqct0","pricing_plan_id":"cebpf4jnsgd1na2vs0mg"},{"bike_id":"65587daf-6427-4379-8a8a-064ff958258c","system_id":"levelo_inurba_marseille","lat":43.31689,"lon":5.40479,"is_reserved":false,"is_disabled":false,"rental_uris":{"android":"levelo://app?vid=65587daf-6427-4379-8a8a-064ff958258c","ios":"levelo://app?vid=65587daf-6427-4379-8a8a-064ff958258c"},"vehicle_type_id":"4","last_reported":1748455978,"current_range_meters":3600,"station_id":"ce4bh012rcd13ifvqd00","pricing_plan_id":"cebpf4jnsgd1na2vs0mg"},{"bike_id":"cc694e79-e6f0-4127-8500-54d3ddb5d38e","system_id":"levelo_inurba_marseille","lat":43.30154,"lon":5.39842,"is_reserved":false,"is_disabled":false,"rental_uris":{"android":"levelo://app?vid=cc694e79-e6f0-4127-8500-54d3ddb5d38e","ios":"levelo://app?vid=cc694e79-e6f0-4127-8500-54d3ddb5d38e"},"vehicle_type_id":"4","last_reported":1748455978,"current_range_meters":3600,"station_id":"ce4bh0h2rcd13ifvqd40","pricing_plan_id":"cebpf4jnsgd1na2vs0mg"},{"bike_id":"a594a94a-136c-4761-a542-8fce23a873d5","system_id":"levelo_inurba_marseille","lat":43.2827,"lon":5.35079,"is_reserved":false,"is_disabled":false,"rental_uris":{"android":"levelo://app?vid=a594a94a-136c-4761-a542-8fce23a873d5","ios":"levelo://app?vid=a594a94a-136c-4761-a542-8fce23a873d5"},"vehicle_type_id":"4","last_reported":1748455978,"current_range_meters":3600,"station_id":"ce4bhbp2rcd13ifvqerg","pricing_plan_id":"cebpf4jnsgd1na2vs0mg"},{"bike_id":"263293f0-44a9-49dc-bcf9-34763f3d4116","system_id":"levelo_inurba_marseille","lat":43.29254,"lon":5.40904,"is_reserved":false,"is_disabled":false,"rental_uris":{"android":"levelo://app?vid=263293f0-44a9-49dc-bcf9-34763f3d4116","ios":"levelo://app?vid=263293f0-44a9-49dc-bcf9-34763f3d4116"},"vehicle_type_id":"4","last_reported":1748455978,"current_range_meters":4000,"station_id":"ce4bh192rcd13ifvqdc0","pricing_plan_id":"cebpf4jnsgd1na2vs0mg"},{"bike_id":"9a3e1852-c375-4c13-8e02-a3b243957aa9","system_id":"levelo_inurba_marseille","lat":43.29261,"lon":5.38446,"is_reserved":false,"is_disabled":false,"rental_uris":{"android":"levelo://app?vid=9a3e1852-c375-4c13-8e02-a3b243957aa9","ios":"levelo://app?vid=9a3e1852-c375-4c13-8e02-a3b243957aa9"},"vehicle_type_id":"4","last_reported":1748455978,"current_range_meters":4400,"station_id":"ce4bh692rcd13ifvqea0","pricing_plan_id":"cebpf4jnsgd1na2vs0mg"},{"bike_id":"a38e5d8b-7b4d-4861-9b8b-97543a6aa3d6","system_id":"levelo_inurba_marseille","lat":43.29157,"lon":5.37179,"is_reserved":false,"is_disabled":false,"rental_uris":{"android":"levelo://app?vid=a38e5d8b-7b4d-4861-9b8b-97543a6aa3d6","ios":"levelo://app?vid=a38e5d8b-7b4d-4861-9b8b-97543a6aa3d6"},"vehicle_type_id":"4","last_reported":1748455978,"current_range_meters":4400,"station_id":"ce4bha92rcd13ifvqeh0","pricing_plan_id":"cebpf4jnsgd1na2vs0mg"},{"bike_id":"7bf489c9-ba1e-47ee-b4d9-3319ccbdc7bd","system_id":"levelo_inurba_marseille","lat":43.28454,"lon":5.35889,"is_reserved":false,"is_disabled":false,"rental_uris":{"android":"levelo://app?vid=7bf489c9-ba1e-47ee-b4d9-3319ccbdc7bd","ios":"levelo://app?vid=7bf489c9-ba1e-47ee-b4d9-3319ccbdc7bd"},"vehicle_type_id":"4","last_reported":1748455978,"current_range_meters":4400,"station_id":"ce4bhah2rcd13ifvqei0","pricing_plan_id":"cebpf4jnsgd1na2vs0mg"},{"bike_id":"cb91e7c8-032e-485c-a2a6-e9949f4f2a5c","system_id":"levelo_inurba_marseille","lat":43.28404,"lon":5.34993,"is_reserved":false,"is_disabled":false,"rental_uris":{"android":"levelo://app?vid=cb91e7c8-032e-485c-a2a6-e9949f4f2a5c","ios":"levelo://app?vid=cb91e7c8-032e-485c-a2a6-e9949f4f2a5c"},"vehicle_type_id":"4","last_reported":1748455978,"current_range_meters":4400,"station_id":"ce4bhbh2rcd13ifvqepg","pricing_plan_id":"cebpf4jnsgd1na2vs0mg"},{"bike_id":"c5e29f97-61b9-491c-b94e-060a1f4f005f","system_id":"levelo_inurba_marseille","lat":43.26557,"lon":5.37289,"is_reserved":false,"is_disabled":false,"rental_uris":{"android":"levelo://app?vid=c5e29f97-61b9-491c-b94e-060a1f4f005f","ios":"levelo://app?vid=c5e29f97-61b9-491c-b94e-060a1f4f005f"},"vehicle_type_id":"4","last_reported":1748455978,"current_range_meters":4400,"station_id":"ce4bhg12rcd13ifvqf70","pricing_plan_id":"cebpf4jnsgd1na2vs0mg"},{"bike_id":"c2dfaf07-764f-4e07-a44e-0525a2f9f08f","system_id":"levelo_inurba_marseille","lat":43.262087,"lon":5.374415,"is_reserved":false,"is_disabled":false,"rental_uris":{"android":"levelo://app?vid=c2dfaf07-764f-4e07-a44e-0525a2f9f08f","ios":"levelo://app?vid=c2dfaf07-764f-4e07-a44e-0525a2f9f08f"},"vehicle_type_id":"4","last_reported":1748455978,"current_range_meters":4800,"station_id":"","pricing_plan_id":"cebpf4jnsgd1na2vs0mg"},{"bike_id":"061748d0-52d6-450f-81df-1e11a20ec4dd","system_id":"levelo_inurba_marseille","lat":43.28716,"lon":5.379294,"is_reserved":false,"is_disabled":false,"rental_uris":{"android":"levelo://app?vid=061748d0-52d6-450f-81df-1e11a20ec4dd","ios":"levelo://app?vid=061748d0-52d6-450f-81df-1e11a20ec4dd"},"vehicle_type_id":"4","last_reported":1748455978,"current_range_meters":4800,"station_id":"ce4bh9p2rcd13ifvqec0","pricing_plan_id":"cebpf4jnsgd1na2vs0mg"},{"bike_id":"57c029cb-4723-428f-a26f-39162e6f852d","system_id":"levelo_inurba_marseille","lat":43.28935,"lon":5.36647,"is_reserved":false,"is_disabled":false,"rental_uris":{"android":"levelo://app?vid=57c029cb-4723-428f-a26f-39162e6f852d","ios":"levelo://app?vid=57c029cb-4723-428f-a26f-39162e6f852d"},"vehicle_type_id":"4","last_reported":1748455978,"current_range_meters":4800,"station_id":"ce4bhap2rcd13ifvqek0","pricing_plan_id":"cebpf4jnsgd1na2vs0mg"},{"bike_id":"dd02c59a-c3a9-475d-9608-bbe4726d08b8","system_id":"levelo_inurba_marseille","lat":43.30131,"lon":5.3985,"is_reserved":false,"is_disabled":false,"rental_uris":{"android":"levelo://app?vid=dd02c59a-c3a9-475d-9608-bbe4726d08b8","ios":"levelo://app?vid=dd02c59a-c3a9-475d-9608-bbe4726d08b8"},"vehicle_type_id":"4","last_reported":1748455978,"current_range_meters":5600,"station_id":"ce4bh0h2rcd13ifvqd40","pricing_plan_id":"cebpf4jnsgd1na2vs0mg"},{"bike_id":"fa62dad4-fdf1-45d9-af12-0bf6532d07e4","system_id":"levelo_inurba_marseille","lat":43.29442,"lon":5.39749,"is_reserved":false,"is_disabled":false,"rental_uris":{"android":"levelo://app?vid=fa62dad4-fdf1-45d9-af12-0bf6532d07e4","ios":"levelo://app?vid=fa62dad4-fdf1-45d9-af12-0bf6532d07e4"},"vehicle_type_id":"4","last_reported":1748455978,"current_range_meters":5600,"station_id":"ce4bh3h2rcd13ifvqdo0","pricing_plan_id":"cebpf4jnsgd1na2vs0mg"},{"bike_id":"0e3d707a-5734-487c-8486-f1260ad0c86d","system_id":"levelo_inurba_marseille","lat":43.29257,"lon":5.38443,"is_reserved":false,"is_disabled":false,"rental_uris":{"android":"levelo://app?vid=0e3d707a-5734-487c-8486-f1260ad0c86d","ios":"levelo://app?vid=0e3d707a-5734-487c-8486-f1260ad0c86d"},"vehicle_type_id":"4","last_reported":1748455978,"current_range_meters":5600,"station_id":"ce4bh692rcd13ifvqea0","pricing_plan_id":"cebpf4jnsgd1na2vs0mg"},{"bike_id":"19f089c8-ece4-4eb7-b6fe-ffe7e904e503","system_id":"levelo_inurba_marseille","lat":43.28927,"lon":5.36633,"is_reserved":false,"is_disabled":false,"rental_uris":{"android":"levelo://app?vid=19f089c8-ece4-4eb7-b6fe-ffe7e904e503","ios":"levelo://app?vid=19f089c8-ece4-4eb7-b6fe-ffe7e904e503"},"vehicle_type_id":"4","last_reported":1748455978,"current_range_meters":5600,"station_id":"ce4bhap2rcd13ifvqek0","pricing_plan_id":"cebpf4jnsgd1na2vs0mg"},{"bike_id":"533987bc-c391-402a-82cb-7c470a9aba56","system_id":"levelo_inurba_marseille","lat":43.25497,"lon":5.37655,"is_reserved":false,"is_disabled":false,"rental_uris":{"android":"levelo://app?vid=533987bc-c391-402a-82cb-7c470a9aba56","ios":"levelo://app?vid=533987bc-c391-402a-82cb-7c470a9aba56"},"vehicle_type_id":"4","last_reported":1748455978,"current_range_meters":5600,"station_id":"ce4bhh12rcd13ifvqff0","pricing_plan_id":"cebpf4jnsgd1na2vs0mg"},{"bike_id":"282eb04e-4b2c-4240-aceb-ad36b389035c","system_id":"levelo_inurba_marseille","lat":43.284821,"lon":5.384095,"is_reserved":false,"is_disabled":false,"rental_uris":{"android":"levelo://app?vid=282eb04e-4b2c-4240-aceb-ad36b389035c","ios":"levelo://app?vid=282eb04e-4b2c-4240-aceb-ad36b389035c"},"vehicle_type_id":"4","last_reported":1748455978,"current_range_meters":6000,"station_id":"","pricing_plan_id":"cebpf4jnsgd1na2vs0mg"},{"bike_id":"3840b2fa-1fc0-4cf8-bc3a-4649fa8722bc","system_id":"levelo_inurba_marseille","lat":43.29894,"lon":5.36497,"is_reserved":false,"is_disabled":false,"rental_uris":{"android":"levelo://app?vid=3840b2fa-1fc0-4cf8-bc3a-4649fa8722bc","ios":"levelo://app?vid=3840b2fa-1fc0-4cf8-bc3a-4649fa8722bc"},"vehicle_type_id":"4","last_reported":1748455978,"current_range_meters":6000,"station_id":"","pricing_plan_id":"cebpf4jnsgd1na2vs0mg"},{"bike_id":"91fe0fdb-9208-4c3b-b3ce-9d082b75904c","system_id":"levelo_inurba_marseille","lat":43.29034,"lon":5.39992,"is_reserved":false,"is_disabled":false,"rental_uris":{"android":"levelo://app?vid=91fe0fdb-9208-4c3b-b3ce-9d082b75904c","ios":"levelo://app?vid=91fe0fdb-9208-4c3b-b3ce-9d082b75904c"},"vehicle_type_id":"4","last_reported":1748455978,"current_range_meters":6000,"station_id":"ce4bh392rcd13ifvqdm0","pricing_plan_id":"cebpf4jnsgd1na2vs0mg"},{"bike_id":"cc82bd18-1b33-41c6-a2e5-a5acd49b702d","system_id":"levelo_inurba_marseille","lat":43.280356,"lon":5.369492,"is_reserved":false,"is_disabled":false,"rental_uris":{"android":"levelo://app?vid=cc82bd18-1b33-41c6-a2e5-a5acd49b702d","ios":"levelo://app?vid=cc82bd18-1b33-41c6-a2e5-a5acd49b702d"},"vehicle_type_id":"4","last_reported":1748455978,"current_range_meters":6000,"station_id":"ce4bha12rcd13ifvqef0","pricing_plan_id":"cebpf4jnsgd1na2vs0mg"},{"bike_id":"9bcf5511-1b05-40ca-a685-de851c141b91","system_id":"levelo_inurba_marseille","lat":43.27378,"lon":5.36264,"is_reserved":false,"is_disabled":false,"rental_uris":{"android":"levelo://app?vid=9bcf5511-1b05-40ca-a685-de851c141b91","ios":"levelo://app?vid=9bcf5511-1b05-40ca-a685-de851c141b91"},"vehicle_type_id":"4","last_reported":1748455978,"current_range_meters":6000,"station_id":"ce4bhbh2rcd13ifvqeo0","pricing_plan_id":"cebpf4jnsgd1na2vs0mg"},{"bike_id":"a5f90b1e-a09e-40ad-8d54-7442721c8689","system_id":"levelo_inurba_marseille","lat":43.24603,"lon":5.39262,"is_reserved":false,"is_disabled":false,"rental_uris":{"android":"levelo://app?vid=a5f90b1e-a09e-40ad-8d54-7442721c8689","ios":"levelo://app?vid=a5f90b1e-a09e-40ad-8d54-7442721c8689"},"vehicle_type_id":"4","last_reported":1748455978,"current_range_meters":6400,"station_id":"","pricing_plan_id":"cebpf4jnsgd1na2vs0mg"},{"bike_id":"82727515-fa92-42c5-9d4d-f9601572772b","system_id":"levelo_inurba_marseille","lat":43.30328,"lon":5.40427,"is_reserved":false,"is_disabled":false,"rental_uris":{"android":"levelo://app?vid=82727515-fa92-42c5-9d4d-f9601572772b","ios":"levelo://app?vid=82727515-fa92-42c5-9d4d-f9601572772b"},"vehicle_type_id":"4","last_reported":1748455978,"current_range_meters":6400,"station_id":"ce4bh012rcd13ifvqd10","pricing_plan_id":"cebpf4jnsgd1na2vs0mg"},{"bike_id":"e652c318-ab63-4d20-bb17-b984b6fadee6","system_id":"levelo_inurba_marseille","lat":43.30586,"lon":5.39351,"is_reserved":false,"is_disabled":false,"rental_uris":{"android":"levelo://app?vid=e652c318-ab63-4d20-bb17-b984b6fadee6","ios":"levelo://app?vid=e652c318-ab63-4d20-bb17-b984b6fadee6"},"vehicle_type_id":"4","last_reported":1748455978,"current_range_meters":6400,"station_id":"ce4bh0p2rcd13ifvqd80","pricing_plan_id":"cebpf4jnsgd1na2vs0mg"},{"bike_id":"b4aae3e9-f2b6-4d3e-b53c-1b914158a96b","system_id":"levelo_inurba_marseille","lat":43.29193,"lon":5.35799,"is_reserved":false,"is_disabled":false,"rental_uris":{"android":"levelo://app?vid=b4aae3e9-f2b6-4d3e-b53c-1b914158a96b","ios":"levelo://app?vid=b4aae3e9-f2b6-4d3e-b53c-1b914158a96b"},"vehicle_type_id":"4","last_reported":1748455978,"current_range_meters":6400,"station_id":"ce4bhb12rcd13ifvqel0","pricing_plan_id":"cebpf4jnsgd1na2vs0mg"},{"bike_id":"db1992ae-8df0-45a1-a5da-5a7c5ed89646","system_id":"levelo_inurba_marseille","lat":43.26209,"lon":5.37442,"is_reserved":false,"is_disabled":false,"rental_uris":{"android":"levelo://app?vid=db1992ae-8df0-45a1-a5da-5a7c5ed89646","ios":"levelo://app?vid=db1992ae-8df0-45a1-a5da-5a7c5ed89646"},"vehicle_type_id":"4","last_reported":1748455978,"current_range_meters":6400,"station_id":"ce4bhgp2rcd13ifvqfc0","pricing_plan_id":"cebpf4jnsgd1na2vs0mg"},{"bike_id":"5cffbfd0-d612-48c9-9700-10475ad84b57","system_id":"levelo_inurba_marseille","lat":43.28442,"lon":5.39164,"is_reserved":false,"is_disabled":false,"rental_uris":{"android":"levelo://app?vid=5cffbfd0-d612-48c9-9700-10475ad84b57","ios":"levelo://app?vid=5cffbfd0-d612-48c9-9700-10475ad84b57"},"vehicle_type_id":"4","last_reported":1748455978,"current_range_meters":6400,"station_id":"ce4bhoh2rcd13ifvqh5g","pricing_plan_id":"cebpf4jnsgd1na2vs0mg"},{"bike_id":"8e0937d4-6770-44f3-8144-92acc0bde57f","system_id":"levelo_inurba_marseille","lat":43.29963,"lon":5.38501,"is_reserved":false,"is_disabled":false,"rental_uris":{"android":"levelo://app?vid=8e0937d4-6770-44f3-8144-92acc0bde57f","ios":"levelo://app?vid=8e0937d4-6770-44f3-8144-92acc0bde57f"},"vehicle_type_id":"4","last_reported":1748455978,"current_range_meters":6800,"station_id":"ce4bgj92rcd13ifvqbd0","pricing_plan_id":"cebpf4jnsgd1na2vs0mg"},{"bike_id":"56d9c3c1-d5a8-40e7-be94-477d674e97bf","system_id":"levelo_inurba_marseille","lat":43.298559,"lon":5.363002,"is_reserved":false,"is_disabled":false,"rental_uris":{"android":"levelo://app?vid=56d9c3c1-d5a8-40e7-be94-477d674e97bf","ios":"levelo://app?vid=56d9c3c1-d5a8-40e7-be94-477d674e97bf"},"vehicle_type_id":"4","last_reported":1748455978,"current_range_meters":6800,"station_id":"ce4bgpp2rcd13ifvqc3g","pricing_plan_id":"cebpf4jnsgd1na2vs0mg"},{"bike_id":"e4a2b9b1-c8b7-46f3-8eae-acd8047c350d","system_id":"levelo_inurba_marseille","lat":43.29531,"lon":5.39397,"is_reserved":false,"is_disabled":false,"rental_uris":{"android":"levelo://app?vid=e4a2b9b1-c8b7-46f3-8eae-acd8047c350d","ios":"levelo://app?vid=e4a2b9b1-c8b7-46f3-8eae-acd8047c350d"},"vehicle_type_id":"4","last_reported":1748455978,"current_range_meters":6800,"station_id":"ce4bh292rcd13ifvqdf0","pricing_plan_id":"cebpf4jnsgd1na2vs0mg"},{"bike_id":"3d21ff5d-34c2-4752-bf73-03cc2bc7e978","system_id":"levelo_inurba_marseille","lat":43.29278,"lon":5.40116,"is_reserved":false,"is_disabled":false,"rental_uris":{"android":"levelo://app?vid=3d21ff5d-34c2-4752-bf73-03cc2bc7e978","ios":"levelo://app?vid=3d21ff5d-34c2-4752-bf73-03cc2bc7e978"},"vehicle_type_id":"4","last_reported":1748455978,"current_range_meters":6800,"station_id":"ce4bh312rcd13ifvqdk0","pricing_plan_id":"cebpf4jnsgd1na2vs0mg"},{"bike_id":"e15c392e-b303-4ccc-8d98-d55bb78101e3","system_id":"levelo_inurba_marseille","lat":43.29526,"lon":5.39049,"is_reserved":false,"is_disabled":false,"rental_uris":{"android":"levelo://app?vid=e15c392e-b303-4ccc-8d98-d55bb78101e3","ios":"levelo://app?vid=e15c392e-b303-4ccc-8d98-d55bb78101e3"},"vehicle_type_id":"4","last_reported":1748455978,"current_range_meters":6800,"station_id":"ce4bh3p2rcd13ifvqdp0","pricing_plan_id":"cebpf4jnsgd1na2vs0mg"},{"bike_id":"2f1cc9dc-7cb4-4d6c-8778-0fe1631e964f","system_id":"levelo_inurba_marseille","lat":43.290518,"lon":5.375468,"is_reserved":false,"is_disabled":false,"rental_uris":{"android":"levelo://app?vid=2f1cc9dc-7cb4-4d6c-8778-0fe1631e964f","ios":"levelo://app?vid=2f1cc9dc-7cb4-4d6c-8778-0fe1631e964f"},"vehicle_type_id":"4","last_reported":1748455978,"current_range_meters":6800,"station_id":"ce4bh5p2rcd13ifvqe4g","pricing_plan_id":"cebpf4jnsgd1na2vs0mg"},{"bike_id":"3738dba7-66a2-493d-8627-83539fdb1aa9","system_id":"levelo_inurba_marseille","lat":43.266824,"lon":5.382721,"is_reserved":false,"is_disabled":false,"rental_uris":{"android":"levelo://app?vid=3738dba7-66a2-493d-8627-83539fdb1aa9","ios":"levelo://app?vid=3738dba7-66a2-493d-8627-83539fdb1aa9"},"vehicle_type_id":"4","last_reported":1748455978,"current_range_meters":6800,"station_id":"ce4bhg92rcd13ifvqf90","pricing_plan_id":"cebpf4jnsgd1na2vs0mg"},{"bike_id":"0e298602-0967-4a15-8f4b-da3075b94a79","system_id":"levelo_inurba_marseille","lat":43.24809,"lon":5.37459,"is_reserved":false,"is_disabled":false,"rental_uris":{"android":"levelo://app?vid=0e298602-0967-4a15-8f4b-da3075b94a79","ios":"levelo://app?vid=0e298602-0967-4a15-8f4b-da3075b94a79"},"vehicle_type_id":"4","last_reported":1748455978,"current_range_meters":6800,"station_id":"ce4bhgh2rcd13ifvqfb0","pricing_plan_id":"cebpf4jnsgd1na2vs0mg"},{"bike_id":"69668f6a-b606-4365-8526-2700f81f1bc7","system_id":"levelo_inurba_marseille","lat":43.2621,"lon":5.37443,"is_reserved":false,"is_disabled":false,"rental_uris":{"android":"levelo://app?vid=69668f6a-b606-4365-8526-2700f81f1bc7","ios":"levelo://app?vid=69668f6a-b606-4365-8526-2700f81f1bc7"},"vehicle_type_id":"4","last_reported":1748455978,"current_range_meters":6800,"station_id":"ce4bhgp2rcd13ifvqfc0","pricing_plan_id":"cebpf4jnsgd1na2vs0mg"},{"bike_id":"6de6e0c1-1c63-466e-ac67-f5e76199ec79","system_id":"levelo_inurba_marseille","lat":43.279354,"lon":5.410506,"is_reserved":false,"is_disabled":false,"rental_uris":{"android":"levelo://app?vid=6de6e0c1-1c63-466e-ac67-f5e76199ec79","ios":"levelo://app?vid=6de6e0c1-1c63-466e-ac67-f5e76199ec79"},"vehicle_type_id":"4","last_reported":1748455978,"current_range_meters":6800,"station_id":"ce4bhnp2rcd13ifvqh0g","pricing_plan_id":"cebpf4jnsgd1na2vs0mg"},{"bike_id":"7429077a-c930-4227-94da-3de7dd9768a2","system_id":"levelo_inurba_marseille","lat":43.27944,"lon":5.41045,"is_reserved":false,"is_disabled":false,"rental_uris":{"android":"levelo://app?vid=7429077a-c930-4227-94da-3de7dd9768a2","ios":"levelo://app?vid=7429077a-c930-4227-94da-3de7dd9768a2"},"vehicle_type_id":"4","last_reported":1748455978,"current_range_meters":6800,"station_id":"ce4bhnp2rcd13ifvqh0g","pricing_plan_id":"cebpf4jnsgd1na2vs0mg"},{"bike_id":"87b395fb-0dfd-464d-b68d-3afc622e0d48","system_id":"levelo_inurba_marseille","lat":43.29536,"lon":5.39474,"is_reserved":false,"is_disabled":false,"rental_uris":{"android":"levelo://app?vid=87b395fb-0dfd-464d-b68d-3afc622e0d48","ios":"levelo://app?vid=87b395fb-0dfd-464d-b68d-3afc622e0d48"},"vehicle_type_id":"4","last_reported":1748455978,"current_range_meters":7200,"station_id":"","pricing_plan_id":"cebpf4jnsgd1na2vs0mg"},{"bike_id":"1a9deaa6-5b0b-41ea-a3a0-9c49f0de8473","system_id":"levelo_inurba_marseille","lat":43.293232,"lon":5.411719,"is_reserved":false,"is_disabled":false,"rental_uris":{"android":"levelo://app?vid=1a9deaa6-5b0b-41ea-a3a0-9c49f0de8473","ios":"levelo://app?vid=1a9deaa6-5b0b-41ea-a3a0-9c49f0de8473"},"vehicle_type_id":"4","last_reported":1748455978,"current_range_meters":7200,"station_id":"","pricing_plan_id":"cebpf4jnsgd1na2vs0mg"},{"bike_id":"2a11d1de-dc92-4c99-bc1c-ed8f36699d22","system_id":"levelo_inurba_marseille","lat":43.301254,"lon":5.387902,"is_reserved":false,"is_disabled":false,"rental_uris":{"android":"levelo://app?vid=2a11d1de-dc92-4c99-bc1c-ed8f36699d22","ios":"levelo://app?vid=2a11d1de-dc92-4c99-bc1c-ed8f36699d22"},"vehicle_type_id":"4","last_reported":1748455978,"current_range_meters":7200,"station_id":"ce4bghh2rcd13ifvqb60","pricing_plan_id":"cebpf4jnsgd1na2vs0mg"},{"bike_id":"72863236-e4ab-4631-8f06-ad70463d2d92","system_id":"levelo_inurba_marseille","lat":43.293,"lon":5.37454,"is_reserved":false,"is_disabled":false,"rental_uris":{"android":"levelo://app?vid=72863236-e4ab-4631-8f06-ad70463d2d92","ios":"levelo://app?vid=72863236-e4ab-4631-8f06-ad70463d2d92"},"vehicle_type_id":"4","last_reported":1748455978,"current_range_meters":7200,"station_id":"ce4bgi12rcd13ifvqb70","pricing_plan_id":"cebpf4jnsgd1na2vs0mg"},{"bike_id":"dba8e9bc-814d-4462-8091-5c6b376f4cf2","system_id":"levelo_inurba_marseille","lat":43.29886,"lon":5.39737,"is_reserved":false,"is_disabled":false,"rental_uris":{"android":"levelo://app?vid=dba8e9bc-814d-4462-8091-5c6b376f4cf2","ios":"levelo://app?vid=dba8e9bc-814d-4462-8091-5c6b376f4cf2"},"vehicle_type_id":"4","last_reported":1748455978,"current_range_meters":7200,"station_id":"ce4bh0h2rcd13ifvqd50","pricing_plan_id":"cebpf4jnsgd1na2vs0mg"},{"bike_id":"6f41a5fa-acfb-4891-bce4-7a93f601bc74","system_id":"levelo_inurba_marseille","lat":43.29414,"lon":5.38626,"is_reserved":false,"is_disabled":false,"rental_uris":{"android":"levelo://app?vid=6f41a5fa-acfb-4891-bce4-7a93f601bc74","ios":"levelo://app?vid=6f41a5fa-acfb-4891-bce4-7a93f601bc74"},"vehicle_type_id":"4","last_reported":1748455978,"current_range_meters":7200,"station_id":"ce4bh2h2rcd13ifvqdh0","pricing_plan_id":"cebpf4jnsgd1na2vs0mg"},{"bike_id":"6aee7286-7c1c-4b5f-a14b-2b7840021176","system_id":"levelo_inurba_marseille","lat":43.27182,"lon":5.4099,"is_reserved":false,"is_disabled":false,"rental_uris":{"android":"levelo://app?vid=6aee7286-7c1c-4b5f-a14b-2b7840021176","ios":"levelo://app?vid=6aee7286-7c1c-4b5f-a14b-2b7840021176"},"vehicle_type_id":"4","last_reported":1748455978,"current_range_meters":7200,"station_id":"ce4bhl12rcd13ifvqgf0","pricing_plan_id":"cebpf4jnsgd1na2vs0mg"},{"bike_id":"aee99834-6ced-49c8-834c-860cbb28d2f3","system_id":"levelo_inurba_marseille","lat":43.23181,"lon":5.39989,"is_reserved":false,"is_disabled":false,"rental_uris":{"android":"levelo://app?vid=aee99834-6ced-49c8-834c-860cbb28d2f3","ios":"levelo://app?vid=aee99834-6ced-49c8-834c-860cbb28d2f3"},"vehicle_type_id":"4","last_reported":1748455978,"current_range_meters":7200,"station_id":"ce4bhn12rcd13ifvqgqg","pricing_plan_id":"cebpf4jnsgd1na2vs0mg"},{"bike_id":"06491b1e-81f7-49df-bc73-2a2fd354a763","system_id":"levelo_inurba_marseille","lat":43.28143,"lon":5.42661,"is_reserved":false,"is_disabled":false,"rental_uris":{"android":"levelo://app?vid=06491b1e-81f7-49df-bc73-2a2fd354a763","ios":"levelo://app?vid=06491b1e-81f7-49df-bc73-2a2fd354a763"},"vehicle_type_id":"4","last_reported":1748455978,"current_range_meters":7200,"station_id":"ce4bhnh2rcd13ifvqgug","pricing_plan_id":"cebpf4jnsgd1na2vs0mg"},{"bike_id":"697f1bc0-ae34-4ad9-8ede-6a27c99a6ea7","system_id":"levelo_inurba_marseille","lat":43.279765,"lon":5.416595,"is_reserved":false,"is_disabled":false,"rental_uris":{"android":"levelo://app?vid=697f1bc0-ae34-4ad9-8ede-6a27c99a6ea7","ios":"levelo://app?vid=697f1bc0-ae34-4ad9-8ede-6a27c99a6ea7"},"vehicle_type_id":"4","last_reported":1748455978,"current_range_meters":7200,"station_id":"ce4bho12rcd13ifvqh1g","pricing_plan_id":"cebpf4jnsgd1na2vs0mg"},{"bike_id":"c1934e4b-2644-45f4-96ce-2efcd06fc31a","system_id":"levelo_inurba_marseille","lat":43.27997,"lon":5.40009,"is_reserved":false,"is_disabled":false,"rental_uris":{"android":"levelo://app?vid=c1934e4b-2644-45f4-96ce-2efcd06fc31a","ios":"levelo://app?vid=c1934e4b-2644-45f4-96ce-2efcd06fc31a"},"vehicle_type_id":"4","last_reported":1748455978,"current_range_meters":7200,"station_id":"ce4bho92rcd13ifvqh4g","pricing_plan_id":"cebpf4jnsgd1na2vs0mg"},{"bike_id":"b22adf8d-8c8a-42cf-8ddf-75b4f7d0f3a0","system_id":"levelo_inurba_marseille","lat":43.2952,"lon":5.38532,"is_reserved":false,"is_disabled":false,"rental_uris":{"android":"levelo://app?vid=b22adf8d-8c8a-42cf-8ddf-75b4f7d0f3a0","ios":"levelo://app?vid=b22adf8d-8c8a-42cf-8ddf-75b4f7d0f3a0"},"vehicle_type_id":"4","last_reported":1748455978,"current_range_meters":8000,"station_id":"ce4bgih2rcd13ifvqba0","pricing_plan_id":"cebpf4jnsgd1na2vs0mg"},{"bike_id":"3b1c710a-44fa-456d-b21d-d68a51d6736a","system_id":"levelo_inurba_marseille","lat":43.29768,"lon":5.37116,"is_reserved":false,"is_disabled":false,"rental_uris":{"android":"levelo://app?vid=3b1c710a-44fa-456d-b21d-d68a51d6736a","ios":"levelo://app?vid=3b1c710a-44fa-456d-b21d-d68a51d6736a"},"vehicle_type_id":"4","last_reported":1748455978,"current_range_meters":8000,"station_id":"ce4bgop2rcd13ifvqc1g","pricing_plan_id":"cebpf4jnsgd1na2vs0mg"},{"bike_id":"1fa797f5-0674-4c21-a47f-cf7e5e59126f","system_id":"levelo_inurba_marseille","lat":43.30194,"lon":5.36627,"is_reserved":false,"is_disabled":false,"rental_uris":{"android":"levelo://app?vid=1fa797f5-0674-4c21-a47f-cf7e5e59126f","ios":"levelo://app?vid=1fa797f5-0674-4c21-a47f-cf7e5e59126f"},"vehicle_type_id":"4","last_reported":1748455978,"current_range_meters":8000,"station_id":"ce4bgrh2rcd13ifvqc8g","pricing_plan_id":"cebpf4jnsgd1na2vs0mg"},{"bike_id":"b8af87b1-e896-494b-8995-b603fead637f","system_id":"levelo_inurba_marseille","lat":43.30083,"lon":5.3908,"is_reserved":false,"is_disabled":false,"rental_uris":{"android":"levelo://app?vid=b8af87b1-e896-494b-8995-b603fead637f","ios":"levelo://app?vid=b8af87b1-e896-494b-8995-b603fead637f"},"vehicle_type_id":"4","last_reported":1748455978,"current_range_meters":8000,"station_id":"ce4bh192rcd13ifvqdb0","pricing_plan_id":"cebpf4jnsgd1na2vs0mg"},{"bike_id":"b5b5aadf-bd81-494a-bb00-f02c9fe63b8e","system_id":"levelo_inurba_marseille","lat":43.29258,"lon":5.38436,"is_reserved":false,"is_disabled":false,"rental_uris":{"android":"levelo://app?vid=b5b5aadf-bd81-494a-bb00-f02c9fe63b8e","ios":"levelo://app?vid=b5b5aadf-bd81-494a-bb00-f02c9fe63b8e"},"vehicle_type_id":"4","last_reported":1748455978,"current_range_meters":8000,"station_id":"ce4bh692rcd13ifvqea0","pricing_plan_id":"cebpf4jnsgd1na2vs0mg"},{"bike_id":"0e048a84-0448-4577-977a-d005e4730bc2","system_id":"levelo_inurba_marseille","lat":43.29169,"lon":5.37156,"is_reserved":false,"is_disabled":false,"rental_uris":{"android":"levelo://app?vid=0e048a84-0448-4577-977a-d005e4730bc2","ios":"levelo://app?vid=0e048a84-0448-4577-977a-d005e4730bc2"},"vehicle_type_id":"4","last_reported":1748455978,"current_range_meters":8000,"station_id":"ce4bha92rcd13ifvqeh0","pricing_plan_id":"cebpf4jnsgd1na2vs0mg"},{"bike_id":"828c9c20-6f75-4835-a373-87fcd67fe6c3","system_id":"levelo_inurba_marseille","lat":43.28461,"lon":5.35906,"is_reserved":false,"is_disabled":false,"rental_uris":{"android":"levelo://app?vid=828c9c20-6f75-4835-a373-87fcd67fe6c3","ios":"levelo://app?vid=828c9c20-6f75-4835-a373-87fcd67fe6c3"},"vehicle_type_id":"4","last_reported":1748455978,"current_range_meters":8000,"station_id":"ce4bhah2rcd13ifvqei0","pricing_plan_id":"cebpf4jnsgd1na2vs0mg"},{"bike_id":"0dfc4f83-122d-4a9c-b0a4-9ffcaf6d069b","system_id":"levelo_inurba_marseille","lat":43.28271,"lon":5.35087,"is_reserved":false,"is_disabled":false,"rental_uris":{"android":"levelo://app?vid=0dfc4f83-122d-4a9c-b0a4-9ffcaf6d069b","ios":"levelo://app?vid=0dfc4f83-122d-4a9c-b0a4-9ffcaf6d069b"},"vehicle_type_id":"4","last_reported":1748455978,"current_range_meters":8000,"station_id":"ce4bhbp2rcd13ifvqerg","pricing_plan_id":"cebpf4jnsgd1na2vs0mg"},{"bike_id":"cb911723-b6d6-4804-99d8-269c143285b3","system_id":"levelo_inurba_marseille","lat":43.32481,"lon":5.36568,"is_reserved":false,"is_disabled":false,"rental_uris":{"android":"levelo://app?vid=cb911723-b6d6-4804-99d8-269c143285b3","ios":"levelo://app?vid=cb911723-b6d6-4804-99d8-269c143285b3"},"vehicle_type_id":"4","last_reported":1748455978,"current_range_meters":8000,"station_id":"ce4bhs12rcd13ifvqhvg","pricing_plan_id":"cebpf4jnsgd1na2vs0mg"},{"bike_id":"9a76c849-083c-4a04-b9d2-8897cc05df2b","system_id":"levelo_inurba_marseille","lat":43.29566,"lon":5.37532,"is_reserved":false,"is_disabled":false,"rental_uris":{"android":"levelo://app?vid=9a76c849-083c-4a04-b9d2-8897cc05df2b","ios":"levelo://app?vid=9a76c849-083c-4a04-b9d2-8897cc05df2b"},"vehicle_type_id":"4","last_reported":1748455978,"current_range_meters":8400,"station_id":"ce4bgh92rcd13ifvqb50","pricing_plan_id":"cebpf4jnsgd1na2vs0mg"},{"bike_id":"524b402d-83ef-4088-9a8d-5fe7be6e768c","system_id":"levelo_inurba_marseille","lat":43.27613,"lon":5.36113,"is_reserved":false,"is_disabled":false,"rental_uris":{"android":"levelo://app?vid=524b402d-83ef-4088-9a8d-5fe7be6e768c","ios":"levelo://app?vid=524b402d-83ef-4088-9a8d-5fe7be6e768c"},"vehicle_type_id":"4","last_reported":1748455978,"current_range_meters":8400,"station_id":"ce4bgj92rcd13ifvqbe0","pricing_plan_id":"cebpf4jnsgd1na2vs0mg"},{"bike_id":"bfc5c0c9-8b93-4628-b059-51f6d0615d41","system_id":"levelo_inurba_marseille","lat":43.29783,"lon":5.37102,"is_reserved":false,"is_disabled":false,"rental_uris":{"android":"levelo://app?vid=bfc5c0c9-8b93-4628-b059-51f6d0615d41","ios":"levelo://app?vid=bfc5c0c9-8b93-4628-b059-51f6d0615d41"},"vehicle_type_id":"4","last_reported":1748455978,"current_range_meters":8400,"station_id":"ce4bgop2rcd13ifvqc1g","pricing_plan_id":"cebpf4jnsgd1na2vs0mg"},{"bike_id":"a730478f-f1e3-4a9f-9eaf-78873adcf903","system_id":"levelo_inurba_marseille","lat":43.28932,"lon":5.36637,"is_reserved":false,"is_disabled":false,"rental_uris":{"android":"levelo://app?vid=a730478f-f1e3-4a9f-9eaf-78873adcf903","ios":"levelo://app?vid=a730478f-f1e3-4a9f-9eaf-78873adcf903"},"vehicle_type_id":"4","last_reported":1748455978,"current_range_meters":8400,"station_id":"ce4bhap2rcd13ifvqek0","pricing_plan_id":"cebpf4jnsgd1na2vs0mg"},{"bike_id":"0e60b4ca-3f24-40ae-a7f6-9cf0f33c29b2","system_id":"levelo_inurba_marseille","lat":43.25575,"lon":5.38242,"is_reserved":false,"is_disabled":false,"rental_uris":{"android":"levelo://app?vid=0e60b4ca-3f24-40ae-a7f6-9cf0f33c29b2","ios":"levelo://app?vid=0e60b4ca-3f24-40ae-a7f6-9cf0f33c29b2"},"vehicle_type_id":"4","last_reported":1748455978,"current_range_meters":8400,"station_id":"ce4bhih2rcd13ifvqfs0","pricing_plan_id":"cebpf4jnsgd1na2vs0mg"},{"bike_id":"b80ee325-09b2-4724-993d-4f8d3707c41c","system_id":"levelo_inurba_marseille","lat":43.25862,"lon":5.39902,"is_reserved":false,"is_disabled":false,"rental_uris":{"android":"levelo://app?vid=b80ee325-09b2-4724-993d-4f8d3707c41c","ios":"levelo://app?vid=b80ee325-09b2-4724-993d-4f8d3707c41c"},"vehicle_type_id":"4","last_reported":1748455978,"current_range_meters":8400,"station_id":"ce4bhl92rcd13ifvqghg","pricing_plan_id":"cebpf4jnsgd1na2vs0mg"},{"bike_id":"478e2a27-6d8d-4436-9059-cfc080fccb94","system_id":"levelo_inurba_marseille","lat":43.301278,"lon":5.398582,"is_reserved":false,"is_disabled":false,"rental_uris":{"android":"levelo://app?vid=478e2a27-6d8d-4436-9059-cfc080fccb94","ios":"levelo://app?vid=478e2a27-6d8d-4436-9059-cfc080fccb94"},"vehicle_type_id":"4","last_reported":1748455978,"current_range_meters":8800,"station_id":"ce4bh0h2rcd13ifvqd40","pricing_plan_id":"cebpf4jnsgd1na2vs0mg"},{"bike_id":"9694985b-b61b-4b80-be16-7f1c7436c556","system_id":"levelo_inurba_marseille","lat":43.28038,"lon":5.36944,"is_reserved":false,"is_disabled":false,"rental_uris":{"android":"levelo://app?vid=9694985b-b61b-4b80-be16-7f1c7436c556","ios":"levelo://app?vid=9694985b-b61b-4b80-be16-7f1c7436c556"},"vehicle_type_id":"4","last_reported":1748455978,"current_range_meters":8800,"station_id":"ce4bha12rcd13ifvqef0","pricing_plan_id":"cebpf4jnsgd1na2vs0mg"},{"bike_id":"573c423d-0f09-4b5a-9b8a-7a392efbda26","system_id":"levelo_inurba_marseille","lat":43.24069,"lon":5.37763,"is_reserved":false,"is_disabled":false,"rental_uris":{"android":"levelo://app?vid=573c423d-0f09-4b5a-9b8a-7a392efbda26","ios":"levelo://app?vid=573c423d-0f09-4b5a-9b8a-7a392efbda26"},"vehicle_type_id":"4","last_reported":1748455978,"current_range_meters":8800,"station_id":"ce4bhnp2rcd13ifvqgvg","pricing_plan_id":"cebpf4jnsgd1na2vs0mg"},{"bike_id":"ed3bbdbe-6f0e-422e-a2e0-4ea388afaaee","system_id":"levelo_inurba_marseille","lat":43.28438,"lon":5.39196,"is_reserved":false,"is_disabled":false,"rental_uris":{"android":"levelo://app?vid=ed3bbdbe-6f0e-422e-a2e0-4ea388afaaee","ios":"levelo://app?vid=ed3bbdbe-6f0e-422e-a2e0-4ea388afaaee"},"vehicle_type_id":"4","last_reported":1748455978,"current_range_meters":8800,"station_id":"ce4bhoh2rcd13ifvqh5g","pricing_plan_id":"cebpf4jnsgd1na2vs0mg"},{"bike_id":"6d7cfdcd-f061-4eee-b4e5-78d9b6729328","system_id":"levelo_inurba_marseille","lat":43.330006,"lon":5.438571,"is_reserved":false,"is_disabled":false,"rental_uris":{"android":"levelo://app?vid=6d7cfdcd-f061-4eee-b4e5-78d9b6729328","ios":"levelo://app?vid=6d7cfdcd-f061-4eee-b4e5-78d9b6729328"},"vehicle_type_id":"4","last_reported":1748455978,"current_range_meters":9200,"station_id":"","pricing_plan_id":"cebpf4jnsgd1na2vs0mg"},{"bike_id":"16578a9c-c460-4d38-be25-a20250881a73","system_id":"levelo_inurba_marseille","lat":43.32219,"lon":5.38428,"is_reserved":false,"is_disabled":false,"rental_uris":{"android":"levelo://app?vid=16578a9c-c460-4d38-be25-a20250881a73","ios":"levelo://app?vid=16578a9c-c460-4d38-be25-a20250881a73"},"vehicle_type_id":"4","last_reported":1748455978,"current_range_meters":9200,"station_id":"","pricing_plan_id":"cebpf4jnsgd1na2vs0mg"},{"bike_id":"cf365b9c-78c3-43df-a38c-7e1d118bef80","system_id":"levelo_inurba_marseille","lat":43.29526,"lon":5.38524,"is_reserved":false,"is_disabled":false,"rental_uris":{"android":"levelo://app?vid=cf365b9c-78c3-43df-a38c-7e1d118bef80","ios":"levelo://app?vid=cf365b9c-78c3-43df-a38c-7e1d118bef80"},"vehicle_type_id":"4","last_reported":1748455978,"current_range_meters":9200,"station_id":"ce4bgih2rcd13ifvqba0","pricing_plan_id":"cebpf4jnsgd1na2vs0mg"},{"bike_id":"cc5ca844-4ea4-4ad2-9615-5f6fa508d5c7","system_id":"levelo_inurba_marseille","lat":43.29414,"lon":5.38631,"is_reserved":false,"is_disabled":false,"rental_uris":{"android":"levelo://app?vid=cc5ca844-4ea4-4ad2-9615-5f6fa508d5c7","ios":"levelo://app?vid=cc5ca844-4ea4-4ad2-9615-5f6fa508d5c7"},"vehicle_type_id":"4","last_reported":1748455978,"current_range_meters":9200,"station_id":"ce4bh2h2rcd13ifvqdh0","pricing_plan_id":"cebpf4jnsgd1na2vs0mg"},{"bike_id":"893cd993-af37-45aa-864b-010be845d391","system_id":"levelo_inurba_marseille","lat":43.298767,"lon":5.389052,"is_reserved":false,"is_disabled":false,"rental_uris":{"android":"levelo://app?vid=893cd993-af37-45aa-864b-010be845d391","ios":"levelo://app?vid=893cd993-af37-45aa-864b-010be845d391"},"vehicle_type_id":"4","last_reported":1748455978,"current_range_meters":9200,"station_id":"ce4bh392rcd13ifvqdl0","pricing_plan_id":"cebpf4jnsgd1na2vs0mg"},{"bike_id":"bbca82b6-a4c7-4a31-a0da-6c724be95d22","system_id":"levelo_inurba_marseille","lat":43.28409,"lon":5.37516,"is_reserved":false,"is_disabled":false,"rental_uris":{"android":"levelo://app?vid=bbca82b6-a4c7-4a31-a0da-6c724be95d22","ios":"levelo://app?vid=bbca82b6-a4c7-4a31-a0da-6c724be95d22"},"vehicle_type_id":"4","last_reported":1748455978,"current_range_meters":9200,"station_id":"ce4bh412rcd13ifvqds0","pricing_plan_id":"cebpf4jnsgd1na2vs0mg"},{"bike_id":"df6b8606-d013-4c9f-9923-9bd3f1fc439e","system_id":"levelo_inurba_marseille","lat":43.29166,"lon":5.37169,"is_reserved":false,"is_disabled":false,"rental_uris":{"android":"levelo://app?vid=df6b8606-d013-4c9f-9923-9bd3f1fc439e","ios":"levelo://app?vid=df6b8606-d013-4c9f-9923-9bd3f1fc439e"},"vehicle_type_id":"4","last_reported":1748455978,"current_range_meters":9200,"station_id":"ce4bha92rcd13ifvqeh0","pricing_plan_id":"cebpf4jnsgd1na2vs0mg"},{"bike_id":"916f59bf-d489-40cb-9398-95a1ca03879e","system_id":"levelo_inurba_marseille","lat":43.245972,"lon":5.380084,"is_reserved":false,"is_disabled":false,"rental_uris":{"android":"levelo://app?vid=916f59bf-d489-40cb-9398-95a1ca03879e","ios":"levelo://app?vid=916f59bf-d489-40cb-9398-95a1ca03879e"},"vehicle_type_id":"4","last_reported":1748455978,"current_range_meters":9200,"station_id":"ce4bhih2rcd13ifvqfr0","pricing_plan_id":"cebpf4jnsgd1na2vs0mg"},{"bike_id":"be4b293e-8744-4637-8ca2-a3e9032e9cec","system_id":"levelo_inurba_marseille","lat":43.22916,"lon":5.35397,"is_reserved":false,"is_disabled":false,"rental_uris":{"android":"levelo://app?vid=be4b293e-8744-4637-8ca2-a3e9032e9cec","ios":"levelo://app?vid=be4b293e-8744-4637-8ca2-a3e9032e9cec"},"vehicle_type_id":"4","last_reported":1748455978,"current_range_meters":9200,"station_id":"cpo3532slgdg3j2ikp40","pricing_plan_id":"cebpf4jnsgd1na2vs0mg"},{"bike_id":"7763e5d7-6ee6-4743-b902-05b7a7fc8c5b","system_id":"levelo_inurba_marseille","lat":43.23204,"lon":5.39988,"is_reserved":false,"is_disabled":false,"rental_uris":{"android":"levelo://app?vid=7763e5d7-6ee6-4743-b902-05b7a7fc8c5b","ios":"levelo://app?vid=7763e5d7-6ee6-4743-b902-05b7a7fc8c5b"},"vehicle_type_id":"4","last_reported":1748455978,"current_range_meters":9600,"station_id":"","pricing_plan_id":"cebpf4jnsgd1na2vs0mg"},{"bike_id":"6b420e7b-1e9f-4d6e-be9c-0e3378209dcb","system_id":"levelo_inurba_marseille","lat":43.31225,"lon":5.36884,"is_reserved":false,"is_disabled":false,"rental_uris":{"android":"levelo://app?vid=6b420e7b-1e9f-4d6e-be9c-0e3378209dcb","ios":"levelo://app?vid=6b420e7b-1e9f-4d6e-be9c-0e3378209dcb"},"vehicle_type_id":"4","last_reported":1748455978,"current_range_meters":9600,"station_id":"ce4bgl92rcd13ifvqbq0","pricing_plan_id":"cebpf4jnsgd1na2vs0mg"},{"bike_id":"bd072944-4e43-4911-a1d0-2ec3427d001e","system_id":"levelo_inurba_marseille","lat":43.31702,"lon":5.37733,"is_reserved":false,"is_disabled":false,"rental_uris":{"android":"levelo://app?vid=bd072944-4e43-4911-a1d0-2ec3427d001e","ios":"levelo://app?vid=bd072944-4e43-4911-a1d0-2ec3427d001e"},"vehicle_type_id":"4","last_reported":1748455978,"current_range_meters":9600,"station_id":"ce4bgth2rcd13ifvqch0","pricing_plan_id":"cebpf4jnsgd1na2vs0mg"},{"bike_id":"3b6883fc-b1b8-4919-a71b-9e592f7bed7d","system_id":"levelo_inurba_marseille","lat":43.286139,"lon":5.351003,"is_reserved":false,"is_disabled":false,"rental_uris":{"android":"levelo://app?vid=3b6883fc-b1b8-4919-a71b-9e592f7bed7d","ios":"levelo://app?vid=3b6883fc-b1b8-4919-a71b-9e592f7bed7d"},"vehicle_type_id":"4","last_reported":1748455978,"current_range_meters":9600,"station_id":"ce4bhch2rcd13ifvqeug","pricing_plan_id":"cebpf4jnsgd1na2vs0mg"},{"bike_id":"df491afd-2cc9-4702-aee8-5979df1b4b28","system_id":"levelo_inurba_marseille","lat":43.2706,"lon":5.40264,"is_reserved":false,"is_disabled":false,"rental_uris":{"android":"levelo://app?vid=df491afd-2cc9-4702-aee8-5979df1b4b28","ios":"levelo://app?vid=df491afd-2cc9-4702-aee8-5979df1b4b28"},"vehicle_type_id":"4","last_reported":1748455978,"current_range_meters":9600,"station_id":"ce4bhk92rcd13ifvqgc0","pricing_plan_id":"cebpf4jnsgd1na2vs0mg"},{"bike_id":"02aa495c-8be1-4696-9c9b-539aa927156e","system_id":"levelo_inurba_marseille","lat":43.24071,"lon":5.37761,"is_reserved":false,"is_disabled":false,"rental_uris":{"android":"levelo://app?vid=02aa495c-8be1-4696-9c9b-539aa927156e","ios":"levelo://app?vid=02aa495c-8be1-4696-9c9b-539aa927156e"},"vehicle_type_id":"4","last_reported":1748455978,"current_range_meters":9600,"station_id":"ce4bhnp2rcd13ifvqgvg","pricing_plan_id":"cebpf4jnsgd1na2vs0mg"},{"bike_id":"efbd1a4e-fc56-4853-82c8-98259f93046d","system_id":"levelo_inurba_marseille","lat":43.26943,"lon":5.40254,"is_reserved":false,"is_disabled":false,"rental_uris":{"android":"levelo://app?vid=efbd1a4e-fc56-4853-82c8-98259f93046d","ios":"levelo://app?vid=efbd1a4e-fc56-4853-82c8-98259f93046d"},"vehicle_type_id":"4","last_reported":1748455978,"current_range_meters":9600,"station_id":"cjm6bp8fraef2m0cb0m0","pricing_plan_id":"cebpf4jnsgd1na2vs0mg"},{"bike_id":"163dde50-0427-4875-84dc-facac4662e05","system_id":"levelo_inurba_marseille","lat":43.28719,"lon":5.36097,"is_reserved":false,"is_disabled":false,"rental_uris":{"android":"levelo://app?vid=163dde50-0427-4875-84dc-facac4662e05","ios":"levelo://app?vid=163dde50-0427-4875-84dc-facac4662e05"},"vehicle_type_id":"4","last_reported":1748455978,"current_range_meters":9600,"station_id":"cki0cbj6b192h4jlfktg","pricing_plan_id":"cebpf4jnsgd1na2vs0mg"},{"bike_id":"c222331a-13ac-42f3-a17a-1b71b99536bb","system_id":"levelo_inurba_marseille","lat":43.29416,"lon":5.3863,"is_reserved":false,"is_disabled":false,"rental_uris":{"android":"levelo://app?vid=c222331a-13ac-42f3-a17a-1b71b99536bb","ios":"levelo://app?vid=c222331a-13ac-42f3-a17a-1b71b99536bb"},"vehicle_type_id":"4","last_reported":1748455978,"current_range_meters":10000,"station_id":"ce4bh2h2rcd13ifvqdh0","pricing_plan_id":"cebpf4jnsgd1na2vs0mg"},{"bike_id":"640ab82b-53f0-4a38-866a-52d0678e2c7f","system_id":"levelo_inurba_marseille","lat":43.280233,"lon":5.36943,"is_reserved":false,"is_disabled":false,"rental_uris":{"android":"levelo://app?vid=640ab82b-53f0-4a38-866a-52d0678e2c7f","ios":"levelo://app?vid=640ab82b-53f0-4a38-866a-52d0678e2c7f"},"vehicle_type_id":"4","last_reported":1748455978,"current_range_meters":10000,"station_id":"ce4bha12rcd13ifvqef0","pricing_plan_id":"cebpf4jnsgd1na2vs0mg"},{"bike_id":"6a872200-9528-4d81-9c60-e245d2d18c19","system_id":"levelo_inurba_marseille","lat":43.291926,"lon":5.357938,"is_reserved":false,"is_disabled":false,"rental_uris":{"android":"levelo://app?vid=6a872200-9528-4d81-9c60-e245d2d18c19","ios":"levelo://app?vid=6a872200-9528-4d81-9c60-e245d2d18c19"},"vehicle_type_id":"4","last_reported":1748455978,"current_range_meters":10000,"station_id":"ce4bhb12rcd13ifvqel0","pricing_plan_id":"cebpf4jnsgd1na2vs0mg"},{"bike_id":"5e703e03-e240-4b49-9f2f-4a5035fe04a6","system_id":"levelo_inurba_marseille","lat":43.27374,"lon":5.36257,"is_reserved":false,"is_disabled":false,"rental_uris":{"android":"levelo://app?vid=5e703e03-e240-4b49-9f2f-4a5035fe04a6","ios":"levelo://app?vid=5e703e03-e240-4b49-9f2f-4a5035fe04a6"},"vehicle_type_id":"4","last_reported":1748455978,"current_range_meters":10000,"station_id":"ce4bhbh2rcd13ifvqeo0","pricing_plan_id":"cebpf4jnsgd1na2vs0mg"},{"bike_id":"5c93d864-5241-4b53-b8d7-f7772e9887ea","system_id":"levelo_inurba_marseille","lat":43.28145,"lon":5.42643,"is_reserved":false,"is_disabled":false,"rental_uris":{"android":"levelo://app?vid=5c93d864-5241-4b53-b8d7-f7772e9887ea","ios":"levelo://app?vid=5c93d864-5241-4b53-b8d7-f7772e9887ea"},"vehicle_type_id":"4","last_reported":1748455978,"current_range_meters":10000,"station_id":"ce4bhnh2rcd13ifvqgug","pricing_plan_id":"cebpf4jnsgd1na2vs0mg"},{"bike_id":"2f650bb1-6027-4191-83d2-16315820a0a7","system_id":"levelo_inurba_marseille","lat":43.299998,"lon":5.373495,"is_reserved":false,"is_disabled":false,"rental_uris":{"android":"levelo://app?vid=2f650bb1-6027-4191-83d2-16315820a0a7","ios":"levelo://app?vid=2f650bb1-6027-4191-83d2-16315820a0a7"},"vehicle_type_id":"4","last_reported":1748455978,"current_range_meters":10800,"station_id":"","pricing_plan_id":"cebpf4jnsgd1na2vs0mg"},{"bike_id":"a8df0f50-e238-464d-9f62-ca42e984d069","system_id":"levelo_inurba_marseille","lat":43.29529,"lon":5.38539,"is_reserved":false,"is_disabled":false,"rental_uris":{"android":"levelo://app?vid=a8df0f50-e238-464d-9f62-ca42e984d069","ios":"levelo://app?vid=a8df0f50-e238-464d-9f62-ca42e984d069"},"vehicle_type_id":"4","last_reported":1748455978,"current_range_meters":10800,"station_id":"ce4bgih2rcd13ifvqba0","pricing_plan_id":"cebpf4jnsgd1na2vs0mg"},{"bike_id":"91830b8e-dabe-47db-9ee2-9624a70f510f","system_id":"levelo_inurba_marseille","lat":43.30945,"lon":5.39033,"is_reserved":false,"is_disabled":false,"rental_uris":{"android":"levelo://app?vid=91830b8e-dabe-47db-9ee2-9624a70f510f","ios":"levelo://app?vid=91830b8e-dabe-47db-9ee2-9624a70f510f"},"vehicle_type_id":"4","last_reported":1748455978,"current_range_meters":10800,"station_id":"ce4bgup2rcd13ifvqco0","pricing_plan_id":"cebpf4jnsgd1na2vs0mg"},{"bike_id":"d25159ca-ca3d-46fe-9c80-935b0883777b","system_id":"levelo_inurba_marseille","lat":43.30452,"lon":5.39755,"is_reserved":false,"is_disabled":false,"rental_uris":{"android":"levelo://app?vid=d25159ca-ca3d-46fe-9c80-935b0883777b","ios":"levelo://app?vid=d25159ca-ca3d-46fe-9c80-935b0883777b"},"vehicle_type_id":"4","last_reported":1748455978,"current_range_meters":10800,"station_id":"ce4bh092rcd13ifvqd20","pricing_plan_id":"cebpf4jnsgd1na2vs0mg"},{"bike_id":"15e3c363-a9c9-49fe-991b-87ffbe183d35","system_id":"levelo_inurba_marseille","lat":43.30126,"lon":5.39844,"is_reserved":false,"is_disabled":false,"rental_uris":{"android":"levelo://app?vid=15e3c363-a9c9-49fe-991b-87ffbe183d35","ios":"levelo://app?vid=15e3c363-a9c9-49fe-991b-87ffbe183d35"},"vehicle_type_id":"4","last_reported":1748455978,"current_range_meters":10800,"station_id":"ce4bh0h2rcd13ifvqd40","pricing_plan_id":"cebpf4jnsgd1na2vs0mg"},{"bike_id":"df051c43-86fe-4a10-a3b3-d3e1752a668f","system_id":"levelo_inurba_marseille","lat":43.29202,"lon":5.39319,"is_reserved":false,"is_disabled":false,"rental_uris":{"android":"levelo://app?vid=df051c43-86fe-4a10-a3b3-d3e1752a668f","ios":"levelo://app?vid=df051c43-86fe-4a10-a3b3-d3e1752a668f"},"vehicle_type_id":"4","last_reported":1748455978,"current_range_meters":10800,"station_id":"ce4bh192rcd13ifvqdd0","pricing_plan_id":"cebpf4jnsgd1na2vs0mg"},{"bike_id":"11ab2fe2-df1c-4f5e-8061-3a7e90502bf7","system_id":"levelo_inurba_marseille","lat":43.26032,"lon":5.37546,"is_reserved":false,"is_disabled":false,"rental_uris":{"android":"levelo://app?vid=11ab2fe2-df1c-4f5e-8061-3a7e90502bf7","ios":"levelo://app?vid=11ab2fe2-df1c-4f5e-8061-3a7e90502bf7"},"vehicle_type_id":"4","last_reported":1748455978,"current_range_meters":10800,"station_id":"ce4bhgh2rcd13ifvqfa0","pricing_plan_id":"cebpf4jnsgd1na2vs0mg"},{"bike_id":"edb4dd33-0807-4dcd-ac6e-3b85cce8a8c7","system_id":"levelo_inurba_marseille","lat":43.23182,"lon":5.39987,"is_reserved":false,"is_disabled":false,"rental_uris":{"android":"levelo://app?vid=edb4dd33-0807-4dcd-ac6e-3b85cce8a8c7","ios":"levelo://app?vid=edb4dd33-0807-4dcd-ac6e-3b85cce8a8c7"},"vehicle_type_id":"4","last_reported":1748455978,"current_range_meters":10800,"station_id":"ce4bhn12rcd13ifvqgqg","pricing_plan_id":"cebpf4jnsgd1na2vs0mg"},{"bike_id":"5a445724-1adc-416a-8847-19de1062a8c9","system_id":"levelo_inurba_marseille","lat":43.31708,"lon":5.43707,"is_reserved":false,"is_disabled":false,"rental_uris":{"android":"levelo://app?vid=5a445724-1adc-416a-8847-19de1062a8c9","ios":"levelo://app?vid=5a445724-1adc-416a-8847-19de1062a8c9"},"vehicle_type_id":"4","last_reported":1748455978,"current_range_meters":10800,"station_id":"ce4bhp92rcd13ifvqhcg","pricing_plan_id":"cebpf4jnsgd1na2vs0mg"},{"bike_id":"837ac862-978b-4d2d-bdcc-6ef41a6f0938","system_id":"levelo_inurba_marseille","lat":43.31712,"lon":5.43727,"is_reserved":false,"is_disabled":false,"rental_uris":{"android":"levelo://app?vid=837ac862-978b-4d2d-bdcc-6ef41a6f0938","ios":"levelo://app?vid=837ac862-978b-4d2d-bdcc-6ef41a6f0938"},"vehicle_type_id":"4","last_reported":1748455978,"current_range_meters":10800,"station_id":"ce4bhp92rcd13ifvqhcg","pricing_plan_id":"cebpf4jnsgd1na2vs0mg"},{"bike_id":"c84f8025-f392-4efb-8662-faa8b7ebbd21","system_id":"levelo_inurba_marseille","lat":43.295066,"lon":5.374448,"is_reserved":false,"is_disabled":false,"rental_uris":{"android":"levelo://app?vid=c84f8025-f392-4efb-8662-faa8b7ebbd21","ios":"levelo://app?vid=c84f8025-f392-4efb-8662-faa8b7ebbd21"},"vehicle_type_id":"4","last_reported":1748455978,"current_range_meters":11200,"station_id":"ce4bgh92rcd13ifvqb50","pricing_plan_id":"cebpf4jnsgd1na2vs0mg"},{"bike_id":"8717213e-027d-495c-a074-5234a5a2f840","system_id":"levelo_inurba_marseille","lat":43.30131,"lon":5.38792,"is_reserved":false,"is_disabled":false,"rental_uris":{"android":"levelo://app?vid=8717213e-027d-495c-a074-5234a5a2f840","ios":"levelo://app?vid=8717213e-027d-495c-a074-5234a5a2f840"},"vehicle_type_id":"4","last_reported":1748455978,"current_range_meters":11200,"station_id":"ce4bghh2rcd13ifvqb60","pricing_plan_id":"cebpf4jnsgd1na2vs0mg"},{"bike_id":"94ee4415-cb7d-4445-9360-22a247ed2bec","system_id":"levelo_inurba_marseille","lat":43.2762,"lon":5.36109,"is_reserved":false,"is_disabled":false,"rental_uris":{"android":"levelo://app?vid=94ee4415-cb7d-4445-9360-22a247ed2bec","ios":"levelo://app?vid=94ee4415-cb7d-4445-9360-22a247ed2bec"},"vehicle_type_id":"4","last_reported":1748455978,"current_range_meters":11200,"station_id":"ce4bgj92rcd13ifvqbe0","pricing_plan_id":"cebpf4jnsgd1na2vs0mg"},{"bike_id":"8cfc3d68-b690-4908-a7df-841be69944c4","system_id":"levelo_inurba_marseille","lat":43.29062,"lon":5.37167,"is_reserved":false,"is_disabled":false,"rental_uris":{"android":"levelo://app?vid=8cfc3d68-b690-4908-a7df-841be69944c4","ios":"levelo://app?vid=8cfc3d68-b690-4908-a7df-841be69944c4"},"vehicle_type_id":"4","last_reported":1748455978,"current_range_meters":11200,"station_id":"ce4bh5p2rcd13ifvqe4g","pricing_plan_id":"cebpf4jnsgd1na2vs0mg"},{"bike_id":"937b6a41-4fcc-4603-9b71-4509d813758a","system_id":"levelo_inurba_marseille","lat":43.289926,"lon":5.356175,"is_reserved":false,"is_disabled":false,"rental_uris":{"android":"levelo://app?vid=937b6a41-4fcc-4603-9b71-4509d813758a","ios":"levelo://app?vid=937b6a41-4fcc-4603-9b71-4509d813758a"},"vehicle_type_id":"4","last_reported":1748455978,"current_range_meters":11200,"station_id":"ce4bhb92rcd13ifvqen0","pricing_plan_id":"cebpf4jnsgd1na2vs0mg"},{"bike_id":"08fbb7f0-10de-4946-a42f-890babd1b26f","system_id":"levelo_inurba_marseille","lat":43.27368,"lon":5.36244,"is_reserved":false,"is_disabled":false,"rental_uris":{"android":"levelo://app?vid=08fbb7f0-10de-4946-a42f-890babd1b26f","ios":"levelo://app?vid=08fbb7f0-10de-4946-a42f-890babd1b26f"},"vehicle_type_id":"4","last_reported":1748455978,"current_range_meters":11200,"station_id":"ce4bhbh2rcd13ifvqeo0","pricing_plan_id":"cebpf4jnsgd1na2vs0mg"},{"bike_id":"3b3f20fb-be76-498a-a9f5-ae1aa0fc1802","system_id":"levelo_inurba_marseille","lat":43.27996,"lon":5.41676,"is_reserved":false,"is_disabled":false,"rental_uris":{"android":"levelo://app?vid=3b3f20fb-be76-498a-a9f5-ae1aa0fc1802","ios":"levelo://app?vid=3b3f20fb-be76-498a-a9f5-ae1aa0fc1802"},"vehicle_type_id":"4","last_reported":1748455978,"current_range_meters":11200,"station_id":"ce4bho12rcd13ifvqh1g","pricing_plan_id":"cebpf4jnsgd1na2vs0mg"},{"bike_id":"3a44b427-635c-4151-a15f-521b47226020","system_id":"levelo_inurba_marseille","lat":43.2953,"lon":5.38541,"is_reserved":false,"is_disabled":false,"rental_uris":{"android":"levelo://app?vid=3a44b427-635c-4151-a15f-521b47226020","ios":"levelo://app?vid=3a44b427-635c-4151-a15f-521b47226020"},"vehicle_type_id":"4","last_reported":1748455978,"current_range_meters":11600,"station_id":"ce4bgih2rcd13ifvqba0","pricing_plan_id":"cebpf4jnsgd1na2vs0mg"},{"bike_id":"3e2f9d6c-1b30-4958-9f28-1b8d9fc8029c","system_id":"levelo_inurba_marseille","lat":43.299752,"lon":5.385239,"is_reserved":false,"is_disabled":false,"rental_uris":{"android":"levelo://app?vid=3e2f9d6c-1b30-4958-9f28-1b8d9fc8029c","ios":"levelo://app?vid=3e2f9d6c-1b30-4958-9f28-1b8d9fc8029c"},"vehicle_type_id":"4","last_reported":1748455978,"current_range_meters":11600,"station_id":"ce4bgj92rcd13ifvqbd0","pricing_plan_id":"cebpf4jnsgd1na2vs0mg"},{"bike_id":"ee2ad96c-9552-48b8-a08a-c0e6ac955d69","system_id":"levelo_inurba_marseille","lat":43.30463,"lon":5.3791,"is_reserved":false,"is_disabled":false,"rental_uris":{"android":"levelo://app?vid=ee2ad96c-9552-48b8-a08a-c0e6ac955d69","ios":"levelo://app?vid=ee2ad96c-9552-48b8-a08a-c0e6ac955d69"},"vehicle_type_id":"4","last_reported":1748455978,"current_range_meters":11600,"station_id":"ce4bgup2rcd13ifvqcn0","pricing_plan_id":"cebpf4jnsgd1na2vs0mg"},{"bike_id":"e5fea674-65d3-4c7c-bef7-8438ca6cb557","system_id":"levelo_inurba_marseille","lat":43.28369,"lon":5.38625,"is_reserved":false,"is_disabled":false,"rental_uris":{"android":"levelo://app?vid=e5fea674-65d3-4c7c-bef7-8438ca6cb557","ios":"levelo://app?vid=e5fea674-65d3-4c7c-bef7-8438ca6cb557"},"vehicle_type_id":"4","last_reported":1748455978,"current_range_meters":11600,"station_id":"ce4bh492rcd13ifvqdvg","pricing_plan_id":"cebpf4jnsgd1na2vs0mg"},{"bike_id":"ef574341-3678-44dd-901d-b2e9b1affeba","system_id":"levelo_inurba_marseille","lat":43.28405,"lon":5.34996,"is_reserved":false,"is_disabled":false,"rental_uris":{"android":"levelo://app?vid=ef574341-3678-44dd-901d-b2e9b1affeba","ios":"levelo://app?vid=ef574341-3678-44dd-901d-b2e9b1affeba"},"vehicle_type_id":"4","last_reported":1748455978,"current_range_meters":11600,"station_id":"ce4bhbh2rcd13ifvqepg","pricing_plan_id":"cebpf4jnsgd1na2vs0mg"},{"bike_id":"9b0a719a-fbc0-4a5e-9037-c71f34fab866","system_id":"levelo_inurba_marseille","lat":43.28396,"lon":5.34997,"is_reserved":false,"is_disabled":false,"rental_uris":{"android":"levelo://app?vid=9b0a719a-fbc0-4a5e-9037-c71f34fab866","ios":"levelo://app?vid=9b0a719a-fbc0-4a5e-9037-c71f34fab866"},"vehicle_type_id":"4","last_reported":1748455978,"current_range_meters":11600,"station_id":"ce4bhbh2rcd13ifvqepg","pricing_plan_id":"cebpf4jnsgd1na2vs0mg"},{"bike_id":"903af1ca-1009-44e6-930e-3dbbb610a029","system_id":"levelo_inurba_marseille","lat":43.28289,"lon":5.35071,"is_reserved":false,"is_disabled":false,"rental_uris":{"android":"levelo://app?vid=903af1ca-1009-44e6-930e-3dbbb610a029","ios":"levelo://app?vid=903af1ca-1009-44e6-930e-3dbbb610a029"},"vehicle_type_id":"4","last_reported":1748455978,"current_range_meters":12000,"station_id":"","pricing_plan_id":"cebpf4jnsgd1na2vs0mg"},{"bike_id":"e96e6ad8-66a5-4a74-9b8a-04311f0e6684","system_id":"levelo_inurba_marseille","lat":43.331,"lon":5.38952,"is_reserved":false,"is_disabled":false,"rental_uris":{"android":"levelo://app?vid=e96e6ad8-66a5-4a74-9b8a-04311f0e6684","ios":"levelo://app?vid=e96e6ad8-66a5-4a74-9b8a-04311f0e6684"},"vehicle_type_id":"4","last_reported":1748455978,"current_range_meters":12000,"station_id":"","pricing_plan_id":"cebpf4jnsgd1na2vs0mg"},{"bike_id":"ecf71085-e044-43dc-8ce9-5812bcc30d7e","system_id":"levelo_inurba_marseille","lat":43.28566,"lon":5.39511,"is_reserved":false,"is_disabled":false,"rental_uris":{"android":"levelo://app?vid=ecf71085-e044-43dc-8ce9-5812bcc30d7e","ios":"levelo://app?vid=ecf71085-e044-43dc-8ce9-5812bcc30d7e"},"vehicle_type_id":"4","last_reported":1748455978,"current_range_meters":12000,"station_id":"ce4bh292rcd13ifvqdg0","pricing_plan_id":"cebpf4jnsgd1na2vs0mg"},{"bike_id":"5c0f8465-71bc-4354-8deb-5136cbb83dd0","system_id":"levelo_inurba_marseille","lat":43.29282,"lon":5.40117,"is_reserved":false,"is_disabled":false,"rental_uris":{"android":"levelo://app?vid=5c0f8465-71bc-4354-8deb-5136cbb83dd0","ios":"levelo://app?vid=5c0f8465-71bc-4354-8deb-5136cbb83dd0"},"vehicle_type_id":"4","last_reported":1748455978,"current_range_meters":12000,"station_id":"ce4bh312rcd13ifvqdk0","pricing_plan_id":"cebpf4jnsgd1na2vs0mg"},{"bike_id":"9b62950b-b16d-4cf8-993f-f698ace3294e","system_id":"levelo_inurba_marseille","lat":43.28701,"lon":5.37385,"is_reserved":false,"is_disabled":false,"rental_uris":{"android":"levelo://app?vid=9b62950b-b16d-4cf8-993f-f698ace3294e","ios":"levelo://app?vid=9b62950b-b16d-4cf8-993f-f698ace3294e"},"vehicle_type_id":"4","last_reported":1748455978,"current_range_meters":12000,"station_id":"ce4bh3p2rcd13ifvqdq0","pricing_plan_id":"cebpf4jnsgd1na2vs0mg"},{"bike_id":"bcbca984-1466-4b60-a392-8680cea8dff1","system_id":"levelo_inurba_marseille","lat":43.28413,"lon":5.34981,"is_reserved":false,"is_disabled":false,"rental_uris":{"android":"levelo://app?vid=bcbca984-1466-4b60-a392-8680cea8dff1","ios":"levelo://app?vid=bcbca984-1466-4b60-a392-8680cea8dff1"},"vehicle_type_id":"4","last_reported":1748455978,"current_range_meters":12000,"station_id":"ce4bhbh2rcd13ifvqepg","pricing_plan_id":"cebpf4jnsgd1na2vs0mg"},{"bike_id":"22771043-09b1-43eb-91e0-5c845144e1e3","system_id":"levelo_inurba_marseille","lat":43.27715,"lon":5.40877,"is_reserved":false,"is_disabled":false,"rental_uris":{"android":"levelo://app?vid=22771043-09b1-43eb-91e0-5c845144e1e3","ios":"levelo://app?vid=22771043-09b1-43eb-91e0-5c845144e1e3"},"vehicle_type_id":"4","last_reported":1748455978,"current_range_meters":12400,"station_id":"","pricing_plan_id":"cebpf4jnsgd1na2vs0mg"},{"bike_id":"a7b28dad-b0e3-4373-84c9-ca1db05de1f6","system_id":"levelo_inurba_marseille","lat":43.29994,"lon":5.3838,"is_reserved":false,"is_disabled":false,"rental_uris":{"android":"levelo://app?vid=a7b28dad-b0e3-4373-84c9-ca1db05de1f6","ios":"levelo://app?vid=a7b28dad-b0e3-4373-84c9-ca1db05de1f6"},"vehicle_type_id":"4","last_reported":1748455978,"current_range_meters":12400,"station_id":"","pricing_plan_id":"cebpf4jnsgd1na2vs0mg"},{"bike_id":"344392b2-ac7c-439b-863e-ebcbbf94dfce","system_id":"levelo_inurba_marseille","lat":43.243865,"lon":5.37057,"is_reserved":false,"is_disabled":false,"rental_uris":{"android":"levelo://app?vid=344392b2-ac7c-439b-863e-ebcbbf94dfce","ios":"levelo://app?vid=344392b2-ac7c-439b-863e-ebcbbf94dfce"},"vehicle_type_id":"4","last_reported":1748455978,"current_range_meters":12400,"station_id":"","pricing_plan_id":"cebpf4jnsgd1na2vs0mg"},{"bike_id":"7e21b4c5-84e6-49b9-999a-4fa6883be7c5","system_id":"levelo_inurba_marseille","lat":43.284135,"lon":5.349934,"is_reserved":false,"is_disabled":false,"rental_uris":{"android":"levelo://app?vid=7e21b4c5-84e6-49b9-999a-4fa6883be7c5","ios":"levelo://app?vid=7e21b4c5-84e6-49b9-999a-4fa6883be7c5"},"vehicle_type_id":"4","last_reported":1748455978,"current_range_meters":12400,"station_id":"ce4bhbh2rcd13ifvqepg","pricing_plan_id":"cebpf4jnsgd1na2vs0mg"},{"bike_id":"36ed502d-c634-4e66-99e6-d7d53ef0a91a","system_id":"levelo_inurba_marseille","lat":43.29271,"lon":5.36849,"is_reserved":false,"is_disabled":false,"rental_uris":{"android":"levelo://app?vid=36ed502d-c634-4e66-99e6-d7d53ef0a91a","ios":"levelo://app?vid=36ed502d-c634-4e66-99e6-d7d53ef0a91a"},"vehicle_type_id":"4","last_reported":1748455978,"current_range_meters":12400,"station_id":"ce4bhbp2rcd13ifvqesg","pricing_plan_id":"cebpf4jnsgd1na2vs0mg"},{"bike_id":"3ab5c9ec-b419-43d4-9e09-3f1a90ac7f27","system_id":"levelo_inurba_marseille","lat":43.28157,"lon":5.42647,"is_reserved":false,"is_disabled":false,"rental_uris":{"android":"levelo://app?vid=3ab5c9ec-b419-43d4-9e09-3f1a90ac7f27","ios":"levelo://app?vid=3ab5c9ec-b419-43d4-9e09-3f1a90ac7f27"},"vehicle_type_id":"4","last_reported":1748455978,"current_range_meters":12400,"station_id":"ce4bhnh2rcd13ifvqgug","pricing_plan_id":"cebpf4jnsgd1na2vs0mg"},{"bike_id":"847031ec-c235-4f90-8158-8e4eae043a67","system_id":"levelo_inurba_marseille","lat":43.289337,"lon":5.366375,"is_reserved":false,"is_disabled":false,"rental_uris":{"android":"levelo://app?vid=847031ec-c235-4f90-8158-8e4eae043a67","ios":"levelo://app?vid=847031ec-c235-4f90-8158-8e4eae043a67"},"vehicle_type_id":"4","last_reported":1748455978,"current_range_meters":12800,"station_id":"ce4bhap2rcd13ifvqek0","pricing_plan_id":"cebpf4jnsgd1na2vs0mg"},{"bike_id":"cee6d839-762b-41ef-b260-184e05e5126c","system_id":"levelo_inurba_marseille","lat":43.24804,"lon":5.37456,"is_reserved":false,"is_disabled":false,"rental_uris":{"android":"levelo://app?vid=cee6d839-762b-41ef-b260-184e05e5126c","ios":"levelo://app?vid=cee6d839-762b-41ef-b260-184e05e5126c"},"vehicle_type_id":"4","last_reported":1748455978,"current_range_meters":12800,"station_id":"ce4bhgh2rcd13ifvqfb0","pricing_plan_id":"cebpf4jnsgd1na2vs0mg"},{"bike_id":"2682b282-a599-416b-8b55-57060df2aad7","system_id":"levelo_inurba_marseille","lat":43.26193,"lon":5.37448,"is_reserved":false,"is_disabled":false,"rental_uris":{"android":"levelo://app?vid=2682b282-a599-416b-8b55-57060df2aad7","ios":"levelo://app?vid=2682b282-a599-416b-8b55-57060df2aad7"},"vehicle_type_id":"4","last_reported":1748455978,"current_range_meters":12800,"station_id":"ce4bhgp2rcd13ifvqfc0","pricing_plan_id":"cebpf4jnsgd1na2vs0mg"},{"bike_id":"68e04928-c944-4caf-a324-ebe61682f8ec","system_id":"levelo_inurba_marseille","lat":43.33724,"lon":5.39179,"is_reserved":false,"is_disabled":false,"rental_uris":{"android":"levelo://app?vid=68e04928-c944-4caf-a324-ebe61682f8ec","ios":"levelo://app?vid=68e04928-c944-4caf-a324-ebe61682f8ec"},"vehicle_type_id":"4","last_reported":1748455978,"current_range_meters":12800,"station_id":"ce4bhr92rcd13ifvqhsg","pricing_plan_id":"cebpf4jnsgd1na2vs0mg"},{"bike_id":"63616c72-9029-44e6-98de-a040d6b5ecfb","system_id":"levelo_inurba_marseille","lat":43.32117,"lon":5.36784,"is_reserved":false,"is_disabled":false,"rental_uris":{"android":"levelo://app?vid=63616c72-9029-44e6-98de-a040d6b5ecfb","ios":"levelo://app?vid=63616c72-9029-44e6-98de-a040d6b5ecfb"},"vehicle_type_id":"4","last_reported":1748455978,"current_range_meters":12800,"station_id":"ce4bhrh2rcd13ifvqhug","pricing_plan_id":"cebpf4jnsgd1na2vs0mg"},{"bike_id":"8d14a9d9-a525-4f79-979a-d934ec59def2","system_id":"levelo_inurba_marseille","lat":43.2971,"lon":5.36597,"is_reserved":false,"is_disabled":false,"rental_uris":{"android":"levelo://app?vid=8d14a9d9-a525-4f79-979a-d934ec59def2","ios":"levelo://app?vid=8d14a9d9-a525-4f79-979a-d934ec59def2"},"vehicle_type_id":"4","last_reported":1748455978,"current_range_meters":13600,"station_id":"ce4bgn12rcd13ifvqbt0","pricing_plan_id":"cebpf4jnsgd1na2vs0mg"},{"bike_id":"82f8fdc9-3f76-4d7d-8f22-1a8ec02d34a5","system_id":"levelo_inurba_marseille","lat":43.30137,"lon":5.39849,"is_reserved":false,"is_disabled":false,"rental_uris":{"android":"levelo://app?vid=82f8fdc9-3f76-4d7d-8f22-1a8ec02d34a5","ios":"levelo://app?vid=82f8fdc9-3f76-4d7d-8f22-1a8ec02d34a5"},"vehicle_type_id":"4","last_reported":1748455978,"current_range_meters":13600,"station_id":"ce4bh0h2rcd13ifvqd40","pricing_plan_id":"cebpf4jnsgd1na2vs0mg"},{"bike_id":"3cae914b-9277-4477-9e14-5cd06a82de1e","system_id":"levelo_inurba_marseille","lat":43.280374,"lon":5.369463,"is_reserved":false,"is_disabled":false,"rental_uris":{"android":"levelo://app?vid=3cae914b-9277-4477-9e14-5cd06a82de1e","ios":"levelo://app?vid=3cae914b-9277-4477-9e14-5cd06a82de1e"},"vehicle_type_id":"4","last_reported":1748455978,"current_range_meters":13600,"station_id":"ce4bha12rcd13ifvqef0","pricing_plan_id":"cebpf4jnsgd1na2vs0mg"},{"bike_id":"0b3c6073-412c-4928-932e-c191cc6778a6","system_id":"levelo_inurba_marseille","lat":43.24814,"lon":5.37461,"is_reserved":false,"is_disabled":false,"rental_uris":{"android":"levelo://app?vid=0b3c6073-412c-4928-932e-c191cc6778a6","ios":"levelo://app?vid=0b3c6073-412c-4928-932e-c191cc6778a6"},"vehicle_type_id":"4","last_reported":1748455978,"current_range_meters":13600,"station_id":"ce4bhgh2rcd13ifvqfb0","pricing_plan_id":"cebpf4jnsgd1na2vs0mg"},{"bike_id":"4d2a6cc2-7c6e-421c-b161-c6905bd64946","system_id":"levelo_inurba_marseille","lat":43.29875,"lon":5.38912,"is_reserved":false,"is_disabled":false,"rental_uris":{"android":"levelo://app?vid=4d2a6cc2-7c6e-421c-b161-c6905bd64946","ios":"levelo://app?vid=4d2a6cc2-7c6e-421c-b161-c6905bd64946"},"vehicle_type_id":"4","last_reported":1748455978,"current_range_meters":14000,"station_id":"ce4bh392rcd13ifvqdl0","pricing_plan_id":"cebpf4jnsgd1na2vs0mg"},{"bike_id":"b461e6f5-b06c-4095-aa71-7c143aacaad3","system_id":"levelo_inurba_marseille","lat":43.2862,"lon":5.351,"is_reserved":false,"is_disabled":false,"rental_uris":{"android":"levelo://app?vid=b461e6f5-b06c-4095-aa71-7c143aacaad3","ios":"levelo://app?vid=b461e6f5-b06c-4095-aa71-7c143aacaad3"},"vehicle_type_id":"4","last_reported":1748455978,"current_range_meters":14000,"station_id":"ce4bhch2rcd13ifvqeug","pricing_plan_id":"cebpf4jnsgd1na2vs0mg"},{"bike_id":"7ba71d8c-7b98-4332-ad88-155fc4984d6a","system_id":"levelo_inurba_marseille","lat":43.26191,"lon":5.37453,"is_reserved":false,"is_disabled":false,"rental_uris":{"android":"levelo://app?vid=7ba71d8c-7b98-4332-ad88-155fc4984d6a","ios":"levelo://app?vid=7ba71d8c-7b98-4332-ad88-155fc4984d6a"},"vehicle_type_id":"4","last_reported":1748455978,"current_range_meters":14000,"station_id":"ce4bhgp2rcd13ifvqfc0","pricing_plan_id":"cebpf4jnsgd1na2vs0mg"},{"bike_id":"60815888-7c98-4769-b7d4-8cf1272505d8","system_id":"levelo_inurba_marseille","lat":43.2318,"lon":5.40008,"is_reserved":false,"is_disabled":false,"rental_uris":{"android":"levelo://app?vid=60815888-7c98-4769-b7d4-8cf1272505d8","ios":"levelo://app?vid=60815888-7c98-4769-b7d4-8cf1272505d8"},"vehicle_type_id":"4","last_reported":1748455978,"current_range_meters":14000,"station_id":"ce4bhn12rcd13ifvqgqg","pricing_plan_id":"cebpf4jnsgd1na2vs0mg"},{"bike_id":"8d3c0a06-701e-4285-95fa-9dad6f595be7","system_id":"levelo_inurba_marseille","lat":43.28155,"lon":5.42641,"is_reserved":false,"is_disabled":false,"rental_uris":{"android":"levelo://app?vid=8d3c0a06-701e-4285-95fa-9dad6f595be7","ios":"levelo://app?vid=8d3c0a06-701e-4285-95fa-9dad6f595be7"},"vehicle_type_id":"4","last_reported":1748455978,"current_range_meters":14000,"station_id":"ce4bhnh2rcd13ifvqgug","pricing_plan_id":"cebpf4jnsgd1na2vs0mg"},{"bike_id":"2b8cf201-3f6a-4001-9ca8-0b486ebce4e1","system_id":"levelo_inurba_marseille","lat":43.28154,"lon":5.4266,"is_reserved":false,"is_disabled":false,"rental_uris":{"android":"levelo://app?vid=2b8cf201-3f6a-4001-9ca8-0b486ebce4e1","ios":"levelo://app?vid=2b8cf201-3f6a-4001-9ca8-0b486ebce4e1"},"vehicle_type_id":"4","last_reported":1748455978,"current_range_meters":14000,"station_id":"ce4bhnh2rcd13ifvqgug","pricing_plan_id":"cebpf4jnsgd1na2vs0mg"},{"bike_id":"d644fae6-8086-412d-bf03-167de6ee276f","system_id":"levelo_inurba_marseille","lat":43.29262,"lon":5.3844,"is_reserved":false,"is_disabled":false,"rental_uris":{"android":"levelo://app?vid=d644fae6-8086-412d-bf03-167de6ee276f","ios":"levelo://app?vid=d644fae6-8086-412d-bf03-167de6ee276f"},"vehicle_type_id":"4","last_reported":1748455978,"current_range_meters":14400,"station_id":"ce4bh692rcd13ifvqea0","pricing_plan_id":"cebpf4jnsgd1na2vs0mg"},{"bike_id":"49457836-28e0-4521-bd17-3e993e098294","system_id":"levelo_inurba_marseille","lat":43.27824,"lon":5.40714,"is_reserved":false,"is_disabled":false,"rental_uris":{"android":"levelo://app?vid=49457836-28e0-4521-bd17-3e993e098294","ios":"levelo://app?vid=49457836-28e0-4521-bd17-3e993e098294"},"vehicle_type_id":"4","last_reported":1748455978,"current_range_meters":14400,"station_id":"ce4bhnh2rcd13ifvqgtg","pricing_plan_id":"cebpf4jnsgd1na2vs0mg"},{"bike_id":"d2d2a2e6-41f7-4237-ac88-56e261efe23e","system_id":"levelo_inurba_marseille","lat":43.304317,"lon":5.388813,"is_reserved":false,"is_disabled":false,"rental_uris":{"android":"levelo://app?vid=d2d2a2e6-41f7-4237-ac88-56e261efe23e","ios":"levelo://app?vid=d2d2a2e6-41f7-4237-ac88-56e261efe23e"},"vehicle_type_id":"4","last_reported":1748455978,"current_range_meters":14800,"station_id":"ce4bgk12rcd13ifvqbi0","pricing_plan_id":"cebpf4jnsgd1na2vs0mg"},{"bike_id":"9a59efe1-e31a-4722-b9c6-1bab362e714b","system_id":"levelo_inurba_marseille","lat":43.31224,"lon":5.36865,"is_reserved":false,"is_disabled":false,"rental_uris":{"android":"levelo://app?vid=9a59efe1-e31a-4722-b9c6-1bab362e714b","ios":"levelo://app?vid=9a59efe1-e31a-4722-b9c6-1bab362e714b"},"vehicle_type_id":"4","last_reported":1748455978,"current_range_meters":14800,"station_id":"ce4bgl92rcd13ifvqbq0","pricing_plan_id":"cebpf4jnsgd1na2vs0mg"},{"bike_id":"a8c03c4f-6dac-40eb-80be-067908d429ab","system_id":"levelo_inurba_marseille","lat":43.303297,"lon":5.404327,"is_reserved":false,"is_disabled":false,"rental_uris":{"android":"levelo://app?vid=a8c03c4f-6dac-40eb-80be-067908d429ab","ios":"levelo://app?vid=a8c03c4f-6dac-40eb-80be-067908d429ab"},"vehicle_type_id":"4","last_reported":1748455978,"current_range_meters":14800,"station_id":"ce4bh012rcd13ifvqd10","pricing_plan_id":"cebpf4jnsgd1na2vs0mg"},{"bike_id":"510bff36-a6f0-4534-ab9f-825b55583754","system_id":"levelo_inurba_marseille","lat":43.29256,"lon":5.3845,"is_reserved":false,"is_disabled":false,"rental_uris":{"android":"levelo://app?vid=510bff36-a6f0-4534-ab9f-825b55583754","ios":"levelo://app?vid=510bff36-a6f0-4534-ab9f-825b55583754"},"vehicle_type_id":"4","last_reported":1748455978,"current_range_meters":14800,"station_id":"ce4bh692rcd13ifvqea0","pricing_plan_id":"cebpf4jnsgd1na2vs0mg"},{"bike_id":"1f05bd7f-ae64-477a-93f0-fb944bc9c8b7","system_id":"levelo_inurba_marseille","lat":43.28692,"lon":5.37942,"is_reserved":false,"is_disabled":false,"rental_uris":{"android":"levelo://app?vid=1f05bd7f-ae64-477a-93f0-fb944bc9c8b7","ios":"levelo://app?vid=1f05bd7f-ae64-477a-93f0-fb944bc9c8b7"},"vehicle_type_id":"4","last_reported":1748455978,"current_range_meters":14800,"station_id":"ce4bh9p2rcd13ifvqec0","pricing_plan_id":"cebpf4jnsgd1na2vs0mg"},{"bike_id":"9f5a343c-09e8-494d-ad8a-c3d8bc6dcd94","system_id":"levelo_inurba_marseille","lat":43.29168,"lon":5.37155,"is_reserved":false,"is_disabled":false,"rental_uris":{"android":"levelo://app?vid=9f5a343c-09e8-494d-ad8a-c3d8bc6dcd94","ios":"levelo://app?vid=9f5a343c-09e8-494d-ad8a-c3d8bc6dcd94"},"vehicle_type_id":"4","last_reported":1748455978,"current_range_meters":14800,"station_id":"ce4bha92rcd13ifvqeh0","pricing_plan_id":"cebpf4jnsgd1na2vs0mg"},{"bike_id":"31702f58-c483-43ae-8b62-1fa2fa5f29f7","system_id":"levelo_inurba_marseille","lat":43.29281,"lon":5.36843,"is_reserved":false,"is_disabled":false,"rental_uris":{"android":"levelo://app?vid=31702f58-c483-43ae-8b62-1fa2fa5f29f7","ios":"levelo://app?vid=31702f58-c483-43ae-8b62-1fa2fa5f29f7"},"vehicle_type_id":"4","last_reported":1748455978,"current_range_meters":14800,"station_id":"ce4bhbp2rcd13ifvqesg","pricing_plan_id":"cebpf4jnsgd1na2vs0mg"},{"bike_id":"db46cd93-68ce-4316-819a-93bc3d72015d","system_id":"levelo_inurba_marseille","lat":43.248068,"lon":5.37452,"is_reserved":false,"is_disabled":false,"rental_uris":{"android":"levelo://app?vid=db46cd93-68ce-4316-819a-93bc3d72015d","ios":"levelo://app?vid=db46cd93-68ce-4316-819a-93bc3d72015d"},"vehicle_type_id":"4","last_reported":1748455978,"current_range_meters":14800,"station_id":"ce4bhgh2rcd13ifvqfb0","pricing_plan_id":"cebpf4jnsgd1na2vs0mg"},