{"last_updated":1731766073,"ttl":60,"version":"2.2","data":{"bikes":[{"bike_id":"7b5f5cd2-481d-4df2-95d9-c5e257ded25f","system_id":"levelo_inurba_marseille","lat":43.298092,"lon":5.363882,"is_reserved":false,"is_disabled":false,"rental_uris":{"android":"levelo://app?vid=7b5f5cd2-481d-4df2-95d9-c5e257ded25f","ios":"levelo://app?vid=7b5f5cd2-481d-4df2-95d9-c5e257ded25f"},"vehicle_type_id":"4","last_reported":1731766073,"current_range_meters":26800,"station_id":"ce4bgpp2rcd13ifvqc3g","pricing_plan_id":"cebpf4jnsgd1na2vs0mg"},{"bike_id":"2bf162c0-376d-4c73-a686-d7d06a867888","system_id":"levelo_inurba_marseille","lat":43.29712,"lon":5.37694,"is_reserved":false,"is_disabled":false,"rental_uris":{"android":"levelo://app?vid=2bf162c0-376d-4c73-a686-d7d06a867888","ios":"levelo://app?vid=2bf162c0-376d-4c73-a686-d7d06a867888"},"vehicle_type_id":"4","last_reported":1731766073,"current_range_meters":35600,"station_id":"ce4bgkh2rcd13ifvqbl0","pricing_plan_id":"cebpf4jnsgd1na2vs0mg"},{"bike_id":"a668b72b-69d8-4b09-b6de-d87ab752cc3d","system_id":"levelo_inurba_marseille","lat":43.27897,"lon":5.38018,"is_reserved":false,"is_disabled":false,"rental_uris":{"android":"levelo://app?vid=a668b72b-69d8-4b09-b6de-d87ab752cc3d","ios":"levelo://app?vid=a668b72b-69d8-4b09-b6de-d87ab752cc3d"},"vehicle_type_id":"4","last_reported":1731766073,"current_range_meters":30400,"station_id":"ce4bhf92rcd13ifvqf50","pricing_plan_id":"cebpf4jnsgd1na2vs0mg"},{"bike_id":"75e58bc8-ed69-4a86-a30b-9e5abcadd741","system_id":"levelo_inurba_marseille","lat":43.25728,"lon":5.41107,"is_reserved":false,"is_disabled":false,"rental_uris":{"android":"levelo://app?vid=75e58bc8-ed69-4a86-a30b-9e5abcadd741","ios":"levelo://app?vid=75e58bc8-ed69-4a86-a30b-9e5abcadd741"},"vehicle_type_id":"4","last_reported":1731766073,"current_range_meters":38400,"station_id":"ce4bhkp2rcd13ifvqgd0","pricing_plan_id":"cebpf4jnsgd1na2vs0mg"},{"bike_id":"ce701b47-8010-4b06-b3cb-c17d080e8695","system_id":"levelo_inurba_marseille","lat":43.309485,"lon":5.401107,"is_reserved":false,"is_disabled":false,"rental_uris":{"android":"levelo://app?vid=ce701b47-8010-4b06-b3cb-c17d080e8695","ios":"levelo://app?vid=ce701b47-8010-4b06-b3cb-c17d080e8695"},"vehicle_type_id":"4","last_reported":1731766073,"current_range_meters":38000,"station_id":"ce4bgvp2rcd13ifvqct0","pricing_plan_id":"cebpf4jnsgd1na2vs0mg"},{"bike_id":"8ff61c3c-4ed0-497d-994a-d4ee4c9f4125","system_id":"levelo_inurba_marseille","lat":43.27205,"lon":5.39178,"is_reserved":false,"is_disabled":false,"rental_uris":{"android":"levelo://app?vid=8ff61c3c-4ed0-497d-994a-d4ee4c9f4125","ios":"levelo://app?vid=8ff61c3c-4ed0-497d-994a-d4ee4c9f4125"},"vehicle_type_id":"4","last_reported":1731766073,"current_range_meters":36400,"station_id":"ce4bhhp2rcd13ifvqfm0","pricing_plan_id":"cebpf4jnsgd1na2vs0mg"},{"bike_id":"b19e3b82-3ef7-4ef9-92d1-ebdc8fc23327","system_id":"levelo_inurba_marseille","lat":43.284576,"lon":5.358916,"is_reserved":false,"is_disabled":false,"rental_uris":{"android":"levelo://app?vid=b19e3b82-3ef7-4ef9-92d1-ebdc8fc23327","ios":"levelo://app?vid=b19e3b82-3ef7-4ef9-92d1-ebdc8fc23327"},"vehicle_type_id":"4","last_reported":1731766073,"current_range_meters":26000,"station_id":"ce4bhah2rcd13ifvqei0","pricing_plan_id":"cebpf4jnsgd1na2vs0mg"},{"bike_id":"13ecd984-3bbf-449a-b4e0-2d024829111b","system_id":"levelo_inurba_marseille","lat":43.25935,"lon":5.40911,"is_reserved":false,"is_disabled":false,"rental_uris":{"android":"levelo://app?vid=13ecd984-3bbf-449a-b4e0-2d024829111b","ios":"levelo://app?vid=13ecd984-3bbf-449a-b4e0-2d024829111b"},"vehicle_type_id":"4","last_reported":1731766073,"current_range_meters":30800,"station_id":"ce4bhm92rcd13ifvqglg","pricing_plan_id":"cebpf4jnsgd1na2vs0mg"},{"bike_id":"ab6dc4ee-6007-4de0-8391-e0c3a471920a","system_id":"levelo_inurba_marseille","lat":43.29612,"lon":5.37713,"is_reserved":false,"is_disabled":false,"rental_uris":{"android":"levelo://app?vid=ab6dc4ee-6007-4de0-8391-e0c3a471920a","ios":"levelo://app?vid=ab6dc4ee-6007-4de0-8391-e0c3a471920a"},"vehicle_type_id":"4","last_reported":1731766073,"current_range_meters":26000,"station_id":"ce4bgi92rcd13ifvqb90","pricing_plan_id":"cebpf4jnsgd1na2vs0mg"},{"bike_id":"d9d8a7d9-cde4-4fab-ab69-fcee8fe6a6da","system_id":"levelo_inurba_marseille","lat":43.25006,"lon":5.3891,"is_reserved":false,"is_disabled":false,"rental_uris":{"android":"levelo://app?vid=d9d8a7d9-cde4-4fab-ab69-fcee8fe6a6da","ios":"levelo://app?vid=d9d8a7d9-cde4-4fab-ab69-fcee8fe6a6da"},"vehicle_type_id":"4","last_reported":1731766073,"current_range_meters":12800,"station_id":"ce4bhgp2rcd13ifvqfd0","pricing_plan_id":"cebpf4jnsgd1na2vs0mg"},{"bike_id":"10c18cda-6b2e-45ed-86f3-56eaefc25439","system_id":"levelo_inurba_marseille","lat":43.2893,"lon":5.38397,"is_reserved":false,"is_disabled":false,"rental_uris":{"android":"levelo://app?vid=10c18cda-6b2e-45ed-86f3-56eaefc25439","ios":"levelo://app?vid=10c18cda-6b2e-45ed-86f3-56eaefc25439"},"vehicle_type_id":"4","last_reported":1731766073,"current_range_meters":4400,"station_id":"ce4bh612rcd13ifvqe6g","pricing_plan_id":"cebpf4jnsgd1na2vs0mg"},{"bike_id":"df6ac28b-42fe-42de-92af-df1e117841f5","system_id":"levelo_inurba_marseille","lat":43.28705,"lon":5.37396,"is_reserved":false,"is_disabled":false,"rental_uris":{"android":"levelo://app?vid=df6ac28b-42fe-42de-92af-df1e117841f5","ios":"levelo://app?vid=df6ac28b-42fe-42de-92af-df1e117841f5"},"vehicle_type_id":"4","last_reported":1731766073,"current_range_meters":38800,"station_id":"ce4bh3p2rcd13ifvqdq0","pricing_plan_id":"cebpf4jnsgd1na2vs0mg"},{"bike_id":"38a37675-38da-4b91-87df-fb891f488796","system_id":"levelo_inurba_marseille","lat":43.25815,"lon":5.39435,"is_reserved":false,"is_disabled":false,"rental_uris":{"android":"levelo://app?vid=38a37675-38da-4b91-87df-fb891f488796","ios":"levelo://app?vid=38a37675-38da-4b91-87df-fb891f488796"},"vehicle_type_id":"4","last_reported":1731766073,"current_range_meters":36800,"station_id":"ce4bhip2rcd13ifvqft0","pricing_plan_id":"cebpf4jnsgd1na2vs0mg"},{"bike_id":"2675e0fb-3a5b-4c54-876e-c296aec1a2f0","system_id":"levelo_inurba_marseille","lat":43.29067,"lon":5.37162,"is_reserved":false,"is_disabled":false,"rental_uris":{"android":"levelo://app?vid=2675e0fb-3a5b-4c54-876e-c296aec1a2f0","ios":"levelo://app?vid=2675e0fb-3a5b-4c54-876e-c296aec1a2f0"},"vehicle_type_id":"4","last_reported":1731766073,"current_range_meters":22800,"station_id":"ce4bh5p2rcd13ifvqe4g","pricing_plan_id":"cebpf4jnsgd1na2vs0mg"},{"bike_id":"83899036-f032-4df5-bff0-e065e4fbfa75","system_id":"levelo_inurba_marseille","lat":43.298615,"lon":5.385303,"is_reserved":false,"is_disabled":false,"rental_uris":{"android":"levelo://app?vid=83899036-f032-4df5-bff0-e065e4fbfa75","ios":"levelo://app?vid=83899036-f032-4df5-bff0-e065e4fbfa75"},"vehicle_type_id":"4","last_reported":1731766073,"current_range_meters":27200,"station_id":"ce4bh692rcd13ifvqea0","pricing_plan_id":"cebpf4jnsgd1na2vs0mg"},{"bike_id":"7d42bd36-bb94-4f6c-8ec4-7a78529bd4d7","system_id":"levelo_inurba_marseille","lat":43.29524,"lon":5.38531,"is_reserved":false,"is_disabled":false,"rental_uris":{"android":"levelo://app?vid=7d42bd36-bb94-4f6c-8ec4-7a78529bd4d7","ios":"levelo://app?vid=7d42bd36-bb94-4f6c-8ec4-7a78529bd4d7"},"vehicle_type_id":"4","last_reported":1731766073,"current_range_meters":36000,"station_id":"ce4bgih2rcd13ifvqba0","pricing_plan_id":"cebpf4jnsgd1na2vs0mg"},{"bike_id":"906347f7-b857-4677-b3f3-7720e8dfadfc","system_id":"levelo_inurba_marseille","lat":43.26964,"lon":5.40259,"is_reserved":false,"is_disabled":false,"rental_uris":{"android":"levelo://app?vid=906347f7-b857-4677-b3f3-7720e8dfadfc","ios":"levelo://app?vid=906347f7-b857-4677-b3f3-7720e8dfadfc"},"vehicle_type_id":"4","last_reported":1731766073,"current_range_meters":39200,"station_id":"cjm6bp8fraef2m0cb0m0","pricing_plan_id":"cebpf4jnsgd1na2vs0mg"},{"bike_id":"2b9c8386-fb3a-4d26-aa06-c1bfe47c12b9","system_id":"levelo_inurba_marseille","lat":43.2707,"lon":5.4228,"is_reserved":false,"is_disabled":false,"rental_uris":{"android":"levelo://app?vid=2b9c8386-fb3a-4d26-aa06-c1bfe47c12b9","ios":"levelo://app?vid=2b9c8386-fb3a-4d26-aa06-c1bfe47c12b9"},"vehicle_type_id":"4","last_reported":1731766073,"current_range_meters":38800,"station_id":"ce4bhk92rcd13ifvqgb0","pricing_plan_id":"cebpf4jnsgd1na2vs0mg"},{"bike_id":"6b0ea79e-cb12-4a50-9845-e4686b3cacc8","system_id":"levelo_inurba_marseille","lat":43.295751,"lon":5.399791,"is_reserved":false,"is_disabled":false,"rental_uris":{"android":"levelo://app?vid=6b0ea79e-cb12-4a50-9845-e4686b3cacc8","ios":"levelo://app?vid=6b0ea79e-cb12-4a50-9845-e4686b3cacc8"},"vehicle_type_id":"4","last_reported":1731766073,"current_range_meters":14000,"station_id":"","pricing_plan_id":"cebpf4jnsgd1na2vs0mg"},{"bike_id":"9f9d95a6-27ae-4a7a-8aca-f2a000c1cf44","system_id":"levelo_inurba_marseille","lat":43.30787,"lon":5.3816,"is_reserved":false,"is_disabled":false,"rental_uris":{"android":"levelo://app?vid=9f9d95a6-27ae-4a7a-8aca-f2a000c1cf44","ios":"levelo://app?vid=9f9d95a6-27ae-4a7a-8aca-f2a000c1cf44"},"vehicle_type_id":"4","last_reported":1731766073,"current_range_meters":24400,"station_id":"ce4bgt12rcd13ifvqce0","pricing_plan_id":"cebpf4jnsgd1na2vs0mg"},{"bike_id":"95d3c8f0-3e3f-4a64-bcc4-8f1258640641","system_id":"levelo_inurba_marseille","lat":43.243835,"lon":5.370533,"is_reserved":false,"is_disabled":false,"rental_uris":{"android":"levelo://app?vid=95d3c8f0-3e3f-4a64-bcc4-8f1258640641","ios":"levelo://app?vid=95d3c8f0-3e3f-4a64-bcc4-8f1258640641"},"vehicle_type_id":"4","last_reported":1731766073,"current_range_meters":38400,"station_id":"ce4bhhh2rcd13ifvqfk0","pricing_plan_id":"cebpf4jnsgd1na2vs0mg"},{"bike_id":"c67b9808-c557-406c-9e1e-e9063f801f54","system_id":"levelo_inurba_marseille","lat":43.27171,"lon":5.40993,"is_reserved":false,"is_disabled":false,"rental_uris":{"android":"levelo://app?vid=c67b9808-c557-406c-9e1e-e9063f801f54","ios":"levelo://app?vid=c67b9808-c557-406c-9e1e-e9063f801f54"},"vehicle_type_id":"4","last_reported":1731766073,"current_range_meters":8000,"station_id":"ce4bhl12rcd13ifvqgf0","pricing_plan_id":"cebpf4jnsgd1na2vs0mg"},{"bike_id":"ccd863fe-ac7f-4240-a34a-232086931013","system_id":"levelo_inurba_marseille","lat":43.32364,"lon":5.38883,"is_reserved":false,"is_disabled":false,"rental_uris":{"android":"levelo://app?vid=ccd863fe-ac7f-4240-a34a-232086931013","ios":"levelo://app?vid=ccd863fe-ac7f-4240-a34a-232086931013"},"vehicle_type_id":"4","last_reported":1731766073,"current_range_meters":16400,"station_id":"ce4bhqp2rcd13ifvqhog","pricing_plan_id":"cebpf4jnsgd1na2vs0mg"},{"bike_id":"0e1d2e7a-8318-45fe-af1b-31857eb1aac8","system_id":"levelo_inurba_marseille","lat":43.23965,"lon":5.36631,"is_reserved":false,"is_disabled":false,"rental_uris":{"android":"levelo://app?vid=0e1d2e7a-8318-45fe-af1b-31857eb1aac8","ios":"levelo://app?vid=0e1d2e7a-8318-45fe-af1b-31857eb1aac8"},"vehicle_type_id":"4","last_reported":1731766073,"current_range_meters":28800,"station_id":"ce4bhi12rcd13ifvqfp0","pricing_plan_id":"cebpf4jnsgd1na2vs0mg"},{"bike_id":"82ddf420-ee80-4c5c-b3b5-802dfa48e8b9","system_id":"levelo_inurba_marseille","lat":43.272949,"lon":5.390427,"is_reserved":false,"is_disabled":false,"rental_uris":{"android":"levelo://app?vid=82ddf420-ee80-4c5c-b3b5-802dfa48e8b9","ios":"levelo://app?vid=82ddf420-ee80-4c5c-b3b5-802dfa48e8b9"},"vehicle_type_id":"4","last_reported":1731766073,"current_range_meters":27600,"station_id":"ce4bhip2rcd13ifvqft0","pricing_plan_id":"cebpf4jnsgd1na2vs0mg"},{"bike_id":"423b7f73-74a0-4073-aabd-0a347daafc47","system_id":"levelo_inurba_marseille","lat":43.292849,"lon":5.401146,"is_reserved":false,"is_disabled":false,"rental_uris":{"android":"levelo://app?vid=423b7f73-74a0-4073-aabd-0a347daafc47","ios":"levelo://app?vid=423b7f73-74a0-4073-aabd-0a347daafc47"},"vehicle_type_id":"4","last_reported":1731766073,"current_range_meters":4000,"station_id":"ce4bh312rcd13ifvqdk0","pricing_plan_id":"cebpf4jnsgd1na2vs0mg"},{"bike_id":"04309976-a6f6-46ae-ae0f-647e90983e9c","system_id":"levelo_inurba_marseille","lat":43.3229,"lon":5.38273,"is_reserved":false,"is_disabled":false,"rental_uris":{"android":"levelo://app?vid=04309976-a6f6-46ae-ae0f-647e90983e9c","ios":"levelo://app?vid=04309976-a6f6-46ae-ae0f-647e90983e9c"},"vehicle_type_id":"4","last_reported":1731766073,"current_range_meters":38400,"station_id":"ce4bhr12rcd13ifvqhqg","pricing_plan_id":"cebpf4jnsgd1na2vs0mg"},{"bike_id":"a4811daf-4fd9-4ea6-926a-07392e185a07","system_id":"levelo_inurba_marseille","lat":43.23968,"lon":5.3663,"is_reserved":false,"is_disabled":false,"rental_uris":{"android":"levelo://app?vid=a4811daf-4fd9-4ea6-926a-07392e185a07","ios":"levelo://app?vid=a4811daf-4fd9-4ea6-926a-07392e185a07"},"vehicle_type_id":"4","last_reported":1731766073,"current_range_meters":8400,"station_id":"ce4bhi12rcd13ifvqfp0","pricing_plan_id":"cebpf4jnsgd1na2vs0mg"},{"bike_id":"5f78780d-f5a3-4544-abda-1d408d8f4927","system_id":"levelo_inurba_marseille","lat":43.23151,"lon":5.43719,"is_reserved":false,"is_disabled":false,"rental_uris":{"android":"levelo://app?vid=5f78780d-f5a3-4544-abda-1d408d8f4927","ios":"levelo://app?vid=5f78780d-f5a3-4544-abda-1d408d8f4927"},"vehicle_type_id":"4","last_reported":1731766073,"current_range_meters":27600,"station_id":"ce4bhmp2rcd13ifvqgog","pricing_plan_id":"cebpf4jnsgd1na2vs0mg"},{"bike_id":"ed7c3eda-2721-4b73-9eec-d8f4b50f0a52","system_id":"levelo_inurba_marseille","lat":43.29844,"lon":5.36267,"is_reserved":false,"is_disabled":false,"rental_uris":{"android":"levelo://app?vid=ed7c3eda-2721-4b73-9eec-d8f4b50f0a52","ios":"levelo://app?vid=ed7c3eda-2721-4b73-9eec-d8f4b50f0a52"},"vehicle_type_id":"4","last_reported":1731766073,"current_range_meters":38800,"station_id":"ce4bgpp2rcd13ifvqc3g","pricing_plan_id":"cebpf4jnsgd1na2vs0mg"},{"bike_id":"90f94d33-97a7-4187-9c60-45700a3d4949","system_id":"levelo_inurba_marseille","lat":43.24808,"lon":5.37465,"is_reserved":false,"is_disabled":false,"rental_uris":{"android":"levelo://app?vid=90f94d33-97a7-4187-9c60-45700a3d4949","ios":"levelo://app?vid=90f94d33-97a7-4187-9c60-45700a3d4949"},"vehicle_type_id":"4","last_reported":1731766073,"current_range_meters":34800,"station_id":"ce4bhgh2rcd13ifvqfb0","pricing_plan_id":"cebpf4jnsgd1na2vs0mg"},{"bike_id":"321e6aad-65ac-4aba-a3fa-32f2f9ff7149","system_id":"levelo_inurba_marseille","lat":43.23969,"lon":5.36633,"is_reserved":false,"is_disabled":false,"rental_uris":{"android":"levelo://app?vid=321e6aad-65ac-4aba-a3fa-32f2f9ff7149","ios":"levelo://app?vid=321e6aad-65ac-4aba-a3fa-32f2f9ff7149"},"vehicle_type_id":"4","last_reported":1731766073,"current_range_meters":22800,"station_id":"ce4bhi12rcd13ifvqfp0","pricing_plan_id":"cebpf4jnsgd1na2vs0mg"},{"bike_id":"6875c373-3a3e-464e-8826-15cf173d3295","system_id":"levelo_inurba_marseille","lat":43.24163,"lon":5.36398,"is_reserved":false,"is_disabled":false,"rental_uris":{"android":"levelo://app?vid=6875c373-3a3e-464e-8826-15cf173d3295","ios":"levelo://app?vid=6875c373-3a3e-464e-8826-15cf173d3295"},"vehicle_type_id":"4","last_reported":1731766073,"current_range_meters":37600,"station_id":"cpo36qri1sfpv3e86is0","pricing_plan_id":"cebpf4jnsgd1na2vs0mg"},{"bike_id":"8b5f82c8-5d0f-4f01-8818-25860759f9b9","system_id":"levelo_inurba_marseille","lat":43.2319,"lon":5.35558,"is_reserved":false,"is_disabled":false,"rental_uris":{"android":"levelo://app?vid=8b5f82c8-5d0f-4f01-8818-25860759f9b9","ios":"levelo://app?vid=8b5f82c8-5d0f-4f01-8818-25860759f9b9"},"vehicle_type_id":"4","last_reported":1731766073,"current_range_meters":22400,"station_id":"ce4bhu92rcd13ifvqi70","pricing_plan_id":"cebpf4jnsgd1na2vs0mg"},{"bike_id":"27085de3-a81c-4a9c-8915-4b4ac3fed02e","system_id":"levelo_inurba_marseille","lat":43.27054,"lon":5.40267,"is_reserved":false,"is_disabled":false,"rental_uris":{"android":"levelo://app?vid=27085de3-a81c-4a9c-8915-4b4ac3fed02e","ios":"levelo://app?vid=27085de3-a81c-4a9c-8915-4b4ac3fed02e"},"vehicle_type_id":"4","last_reported":1731766073,"current_range_meters":10800,"station_id":"ce4bhk92rcd13ifvqgc0","pricing_plan_id":"cebpf4jnsgd1na2vs0mg"},{"bike_id":"24210425-c533-4193-8405-f2acbe2afb05","system_id":"levelo_inurba_marseille","lat":43.26211,"lon":5.3744,"is_reserved":false,"is_disabled":false,"rental_uris":{"android":"levelo://app?vid=24210425-c533-4193-8405-f2acbe2afb05","ios":"levelo://app?vid=24210425-c533-4193-8405-f2acbe2afb05"},"vehicle_type_id":"4","last_reported":1731766073,"current_range_meters":28000,"station_id":"ce4bhgp2rcd13ifvqfc0","pricing_plan_id":"cebpf4jnsgd1na2vs0mg"},{"bike_id":"b4a11eee-4cdb-41b7-803e-439054ccaa2e","system_id":"levelo_inurba_marseille","lat":43.24665,"lon":5.38156,"is_reserved":false,"is_disabled":false,"rental_uris":{"android":"levelo://app?vid=b4a11eee-4cdb-41b7-803e-439054ccaa2e","ios":"levelo://app?vid=b4a11eee-4cdb-41b7-803e-439054ccaa2e"},"vehicle_type_id":"4","last_reported":1731766073,"current_range_meters":20000,"station_id":"ce4bhih2rcd13ifvqfr0","pricing_plan_id":"cebpf4jnsgd1na2vs0mg"},{"bike_id":"0d56f85d-902f-401c-b317-a3a31c331d92","system_id":"levelo_inurba_marseille","lat":43.301007,"lon":5.380531,"is_reserved":false,"is_disabled":false,"rental_uris":{"android":"levelo://app?vid=0d56f85d-902f-401c-b317-a3a31c331d92","ios":"levelo://app?vid=0d56f85d-902f-401c-b317-a3a31c331d92"},"vehicle_type_id":"4","last_reported":1731766073,"current_range_meters":11200,"station_id":"ce4bgjp2rcd13ifvqbh0","pricing_plan_id":"cebpf4jnsgd1na2vs0mg"},{"bike_id":"5ea63087-7b47-47fb-9c22-a97b7f7df436","system_id":"levelo_inurba_marseille","lat":43.29277,"lon":5.40122,"is_reserved":false,"is_disabled":false,"rental_uris":{"android":"levelo://app?vid=5ea63087-7b47-47fb-9c22-a97b7f7df436","ios":"levelo://app?vid=5ea63087-7b47-47fb-9c22-a97b7f7df436"},"vehicle_type_id":"4","last_reported":1731766073,"current_range_meters":36800,"station_id":"ce4bh312rcd13ifvqdk0","pricing_plan_id":"cebpf4jnsgd1na2vs0mg"},{"bike_id":"93d2c10d-2e1b-442f-8e24-c26cca547612","system_id":"levelo_inurba_marseille","lat":43.337444,"lon":5.374475,"is_reserved":false,"is_disabled":false,"rental_uris":{"android":"levelo://app?vid=93d2c10d-2e1b-442f-8e24-c26cca547612","ios":"levelo://app?vid=93d2c10d-2e1b-442f-8e24-c26cca547612"},"vehicle_type_id":"4","last_reported":1731766073,"current_range_meters":36800,"station_id":"","pricing_plan_id":"cebpf4jnsgd1na2vs0mg"},{"bike_id":"6d6a0dde-c067-4493-bad2-5ee0d9b9474d","system_id":"levelo_inurba_marseille","lat":43.29298,"lon":5.37468,"is_reserved":false,"is_disabled":false,"rental_uris":{"android":"levelo://app?vid=6d6a0dde-c067-4493-bad2-5ee0d9b9474d","ios":"levelo://app?vid=6d6a0dde-c067-4493-bad2-5ee0d9b9474d"},"vehicle_type_id":"4","last_reported":1731766073,"current_range_meters":36000,"station_id":"ce4bgi12rcd13ifvqb70","pricing_plan_id":"cebpf4jnsgd1na2vs0mg"},{"bike_id":"2357bdb2-fff7-4564-bd54-19b5a27fb55d","system_id":"levelo_inurba_marseille","lat":43.26062,"lon":5.375055,"is_reserved":false,"is_disabled":false,"rental_uris":{"android":"levelo://app?vid=2357bdb2-fff7-4564-bd54-19b5a27fb55d","ios":"levelo://app?vid=2357bdb2-fff7-4564-bd54-19b5a27fb55d"},"vehicle_type_id":"4","last_reported":1731766073,"current_range_meters":36400,"station_id":"ce4bhc92rcd13ifvqetg","pricing_plan_id":"cebpf4jnsgd1na2vs0mg"},{"bike_id":"5b3e2e75-6bd0-4823-a7f5-42cfb666d4eb","system_id":"levelo_inurba_marseille","lat":43.273349,"lon":5.390605,"is_reserved":false,"is_disabled":false,"rental_uris":{"android":"levelo://app?vid=5b3e2e75-6bd0-4823-a7f5-42cfb666d4eb","ios":"levelo://app?vid=5b3e2e75-6bd0-4823-a7f5-42cfb666d4eb"},"vehicle_type_id":"4","last_reported":1731766073,"current_range_meters":20800,"station_id":"cki0cbj6b192h4jlfktg","pricing_plan_id":"cebpf4jnsgd1na2vs0mg"},{"bike_id":"31b75d55-7b11-49e2-9427-1fbf54457b83","system_id":"levelo_inurba_marseille","lat":43.2826,"lon":5.35077,"is_reserved":false,"is_disabled":false,"rental_uris":{"android":"levelo://app?vid=31b75d55-7b11-49e2-9427-1fbf54457b83","ios":"levelo://app?vid=31b75d55-7b11-49e2-9427-1fbf54457b83"},"vehicle_type_id":"4","last_reported":1731766073,"current_range_meters":38800,"station_id":"ce4bhbp2rcd13ifvqerg","pricing_plan_id":"cebpf4jnsgd1na2vs0mg"},{"bike_id":"6ccc785b-d717-4925-b10c-118c0b927572","system_id":"levelo_inurba_marseille","lat":43.30595,"lon":5.39363,"is_reserved":false,"is_disabled":false,"rental_uris":{"android":"levelo://app?vid=6ccc785b-d717-4925-b10c-118c0b927572","ios":"levelo://app?vid=6ccc785b-d717-4925-b10c-118c0b927572"},"vehicle_type_id":"4","last_reported":1731766073,"current_range_meters":19200,"station_id":"ce4bh0p2rcd13ifvqd80","pricing_plan_id":"cebpf4jnsgd1na2vs0mg"},{"bike_id":"513216b5-f4b4-4201-a4ae-d85ea58b5b2f","system_id":"levelo_inurba_marseille","lat":43.29624,"lon":5.37705,"is_reserved":false,"is_disabled":false,"rental_uris":{"android":"levelo://app?vid=513216b5-f4b4-4201-a4ae-d85ea58b5b2f","ios":"levelo://app?vid=513216b5-f4b4-4201-a4ae-d85ea58b5b2f"},"vehicle_type_id":"4","last_reported":1731766073,"current_range_meters":9200,"station_id":"ce4bgi92rcd13ifvqb90","pricing_plan_id":"cebpf4jnsgd1na2vs0mg"},{"bike_id":"9abd54d1-7da6-4ec2-90f9-8a3e190b5e37","system_id":"levelo_inurba_marseille","lat":43.25826,"lon":5.3943,"is_reserved":false,"is_disabled":false,"rental_uris":{"android":"levelo://app?vid=9abd54d1-7da6-4ec2-90f9-8a3e190b5e37","ios":"levelo://app?vid=9abd54d1-7da6-4ec2-90f9-8a3e190b5e37"},"vehicle_type_id":"4","last_reported":1731766073,"current_range_meters":20400,"station_id":"ce4bhip2rcd13ifvqft0","pricing_plan_id":"cebpf4jnsgd1na2vs0mg"},{"bike_id":"b9e1c9d2-11ba-49d2-ba29-a2b0d1427944","system_id":"levelo_inurba_marseille","lat":43.323357,"lon":5.406261,"is_reserved":false,"is_disabled":false,"rental_uris":{"android":"levelo://app?vid=b9e1c9d2-11ba-49d2-ba29-a2b0d1427944","ios":"levelo://app?vid=b9e1c9d2-11ba-49d2-ba29-a2b0d1427944"},"vehicle_type_id":"4","last_reported":1731766073,"current_range_meters":38800,"station_id":"ce4bhq92rcd13ifvqhjg","pricing_plan_id":"cebpf4jnsgd1na2vs0mg"},{"bike_id":"42d4c0af-680a-4dbd-8451-bfbe5fd822d8","system_id":"levelo_inurba_marseille","lat":43.30145,"lon":5.37418,"is_reserved":false,"is_disabled":false,"rental_uris":{"android":"levelo://app?vid=42d4c0af-680a-4dbd-8451-bfbe5fd822d8","ios":"levelo://app?vid=42d4c0af-680a-4dbd-8451-bfbe5fd822d8"},"vehicle_type_id":"4","last_reported":1731766073,"current_range_meters":24000,"station_id":"ce4bgs92rcd13ifvqcc0","pricing_plan_id":"cebpf4jnsgd1na2vs0mg"},{"bike_id":"fbf7c11a-9bf8-4f81-a281-188cb9228c62","system_id":"levelo_inurba_marseille","lat":43.337444,"lon":5.374475,"is_reserved":false,"is_disabled":false,"rental_uris":{"android":"levelo://app?vid=fbf7c11a-9bf8-4f81-a281-188cb9228c62","ios":"levelo://app?vid=fbf7c11a-9bf8-4f81-a281-188cb9228c62"},"vehicle_type_id":"4","last_reported":1731766073,"current_range_meters":11600,"station_id":"","pricing_plan_id":"cebpf4jnsgd1na2vs0mg"},{"bike_id":"4249fd31-a661-4d29-b770-dadab1fb77ef","system_id":"levelo_inurba_marseille","lat":43.30462,"lon":5.37901,"is_reserved":false,"is_disabled":false,"rental_uris":{"android":"levelo://app?vid=4249fd31-a661-4d29-b770-dadab1fb77ef","ios":"levelo://app?vid=4249fd31-a661-4d29-b770-dadab1fb77ef"},"vehicle_type_id":"4","last_reported":1731766073,"current_range_meters":24800,"station_id":"ce4bgup2rcd13ifvqcn0","pricing_plan_id":"cebpf4jnsgd1na2vs0mg"},{"bike_id":"79a89f12-d547-4972-9ccd-a12d8c6efd25","system_id":"levelo_inurba_marseille","lat":43.33606,"lon":5.41035,"is_reserved":false,"is_disabled":false,"rental_uris":{"android":"levelo://app?vid=79a89f12-d547-4972-9ccd-a12d8c6efd25","ios":"levelo://app?vid=79a89f12-d547-4972-9ccd-a12d8c6efd25"},"vehicle_type_id":"4","last_reported":1731766073,"current_range_meters":6000,"station_id":"ce4bhqh2rcd13ifvqhmg","pricing_plan_id":"cebpf4jnsgd1na2vs0mg"},{"bike_id":"e274446e-f32a-4464-837f-90a7639c55e2","system_id":"levelo_inurba_marseille","lat":43.24663,"lon":5.38172,"is_reserved":false,"is_disabled":false,"rental_uris":{"android":"levelo://app?vid=e274446e-f32a-4464-837f-90a7639c55e2","ios":"levelo://app?vid=e274446e-f32a-4464-837f-90a7639c55e2"},"vehicle_type_id":"4","last_reported":1731766073,"current_range_meters":17200,"station_id":"ce4bhih2rcd13ifvqfr0","pricing_plan_id":"cebpf4jnsgd1na2vs0mg"},{"bike_id":"b02cad58-3de4-410a-a29d-78e174a9d94a","system_id":"levelo_inurba_marseille","lat":43.23199,"lon":5.35557,"is_reserved":false,"is_disabled":false,"rental_uris":{"android":"levelo://app?vid=b02cad58-3de4-410a-a29d-78e174a9d94a","ios":"levelo://app?vid=b02cad58-3de4-410a-a29d-78e174a9d94a"},"vehicle_type_id":"4","last_reported":1731766073,"current_range_meters":37600,"station_id":"ce4bhu92rcd13ifvqi70","pricing_plan_id":"cebpf4jnsgd1na2vs0mg"},{"bike_id":"7389b691-ebff-47a4-999d-591fee600d73","system_id":"levelo_inurba_marseille","lat":43.31713,"lon":5.43709,"is_reserved":false,"is_disabled":false,"rental_uris":{"android":"levelo://app?vid=7389b691-ebff-47a4-999d-591fee600d73","ios":"levelo://app?vid=7389b691-ebff-47a4-999d-591fee600d73"},"vehicle_type_id":"4","last_reported":1731766073,"current_range_meters":8400,"station_id":"ce4bhp92rcd13ifvqhcg","pricing_plan_id":"cebpf4jnsgd1na2vs0mg"},{"bike_id":"980c2b64-5ae6-4e8e-ac4f-88eb697394b6","system_id":"levelo_inurba_marseille","lat":43.25933,"lon":5.40911,"is_reserved":false,"is_disabled":false,"rental_uris":{"android":"levelo://app?vid=980c2b64-5ae6-4e8e-ac4f-88eb697394b6","ios":"levelo://app?vid=980c2b64-5ae6-4e8e-ac4f-88eb697394b6"},"vehicle_type_id":"4","last_reported":1731766073,"current_range_meters":19200,"station_id":"ce4bhm92rcd13ifvqglg","pricing_plan_id":"cebpf4jnsgd1na2vs0mg"},{"bike_id":"f82da10c-cf42-4d1e-8b05-fcaa6def071f","system_id":"levelo_inurba_marseille","lat":43.29622,"lon":5.37153,"is_reserved":false,"is_disabled":false,"rental_uris":{"android":"levelo://app?vid=f82da10c-cf42-4d1e-8b05-fcaa6def071f","ios":"levelo://app?vid=f82da10c-cf42-4d1e-8b05-fcaa6def071f"},"vehicle_type_id":"4","last_reported":1731766073,"current_range_meters":35200,"station_id":"ce4bgnh2rcd13ifvqc0g","pricing_plan_id":"cebpf4jnsgd1na2vs0mg"},{"bike_id":"9e80fa8f-f0eb-4404-9b0d-a93074af700f","system_id":"levelo_inurba_marseille","lat":43.24172,"lon":5.36397,"is_reserved":false,"is_disabled":false,"rental_uris":{"android":"levelo://app?vid=9e80fa8f-f0eb-4404-9b0d-a93074af700f","ios":"levelo://app?vid=9e80fa8f-f0eb-4404-9b0d-a93074af700f"},"vehicle_type_id":"4","last_reported":1731766073,"current_range_meters":30000,"station_id":"cpo36qri1sfpv3e86is0","pricing_plan_id":"cebpf4jnsgd1na2vs0mg"},{"bike_id":"c8595e46-c1e8-49cb-9c88-857534e48fbf","system_id":"levelo_inurba_marseille","lat":43.29731,"lon":5.37678,"is_reserved":false,"is_disabled":false,"rental_uris":{"android":"levelo://app?vid=c8595e46-c1e8-49cb-9c88-857534e48fbf","ios":"levelo://app?vid=c8595e46-c1e8-49cb-9c88-857534e48fbf"},"vehicle_type_id":"4","last_reported":1731766073,"current_range_meters":9600,"station_id":"ce4bgkh2rcd13ifvqbl0","pricing_plan_id":"cebpf4jnsgd1na2vs0mg"},{"bike_id":"9614104b-89c9-47e9-a2a1-c2fc3750493b","system_id":"levelo_inurba_marseille","lat":43.31538,"lon":5.38031,"is_reserved":false,"is_disabled":false,"rental_uris":{"android":"levelo://app?vid=9614104b-89c9-47e9-a2a1-c2fc3750493b","ios":"levelo://app?vid=9614104b-89c9-47e9-a2a1-c2fc3750493b"},"vehicle_type_id":"4","last_reported":1731766073,"current_range_meters":38800,"station_id":"ce4bhsp2rcd13ifvqi50","pricing_plan_id":"cebpf4jnsgd1na2vs0mg"},{"bike_id":"db6f11e9-b411-4727-af20-d4e48adefb8f","system_id":"levelo_inurba_marseille","lat":43.281158,"lon":5.405845,"is_reserved":false,"is_disabled":false,"rental_uris":{"android":"levelo://app?vid=db6f11e9-b411-4727-af20-d4e48adefb8f","ios":"levelo://app?vid=db6f11e9-b411-4727-af20-d4e48adefb8f"},"vehicle_type_id":"4","last_reported":1731766073,"current_range_meters":14000,"station_id":"ce4bhih2rcd13ifvqfs0","pricing_plan_id":"cebpf4jnsgd1na2vs0mg"},{"bike_id":"64318967-c121-4991-8ff4-ed9255587bf8","system_id":"levelo_inurba_marseille","lat":43.26936,"lon":5.40264,"is_reserved":false,"is_disabled":false,"rental_uris":{"android":"levelo://app?vid=64318967-c121-4991-8ff4-ed9255587bf8","ios":"levelo://app?vid=64318967-c121-4991-8ff4-ed9255587bf8"},"vehicle_type_id":"4","last_reported":1731766073,"current_range_meters":36000,"station_id":"cjm6bp8fraef2m0cb0m0","pricing_plan_id":"cebpf4jnsgd1na2vs0mg"},{"bike_id":"46632805-d598-46ca-8978-4f5e71b702c6","system_id":"levelo_inurba_marseille","lat":43.28156,"lon":5.42636,"is_reserved":false,"is_disabled":false,"rental_uris":{"android":"levelo://app?vid=46632805-d598-46ca-8978-4f5e71b702c6","ios":"levelo://app?vid=46632805-d598-46ca-8978-4f5e71b702c6"},"vehicle_type_id":"4","last_reported":1731766073,"current_range_meters":37600,"station_id":"ce4bhnh2rcd13ifvqgug","pricing_plan_id":"cebpf4jnsgd1na2vs0mg"},{"bike_id":"0a38b229-8e48-4934-ae20-45dac0ba2be7","system_id":"levelo_inurba_marseille","lat":43.29265,"lon":5.38447,"is_reserved":false,"is_disabled":false,"rental_uris":{"android":"levelo://app?vid=0a38b229-8e48-4934-ae20-45dac0ba2be7","ios":"levelo://app?vid=0a38b229-8e48-4934-ae20-45dac0ba2be7"},"vehicle_type_id":"4","last_reported":1731766073,"current_range_meters":36400,"station_id":"ce4bh692rcd13ifvqea0","pricing_plan_id":"cebpf4jnsgd1na2vs0mg"},{"bike_id":"d9906bd0-44a4-461f-ad8c-6931dca74a9e","system_id":"levelo_inurba_marseille","lat":43.232,"lon":5.35554,"is_reserved":false,"is_disabled":false,"rental_uris":{"android":"levelo://app?vid=d9906bd0-44a4-461f-ad8c-6931dca74a9e","ios":"levelo://app?vid=d9906bd0-44a4-461f-ad8c-6931dca74a9e"},"vehicle_type_id":"4","last_reported":1731766073,"current_range_meters":38800,"station_id":"ce4bhu92rcd13ifvqi70","pricing_plan_id":"cebpf4jnsgd1na2vs0mg"},{"bike_id":"fc16bf03-7260-44c6-8797-1f8062744bbe","system_id":"levelo_inurba_marseille","lat":43.30805,"lon":5.3817,"is_reserved":false,"is_disabled":false,"rental_uris":{"android":"levelo://app?vid=fc16bf03-7260-44c6-8797-1f8062744bbe","ios":"levelo://app?vid=fc16bf03-7260-44c6-8797-1f8062744bbe"},"vehicle_type_id":"4","last_reported":1731766073,"current_range_meters":6400,"station_id":"ce4bgt12rcd13ifvqce0","pricing_plan_id":"cebpf4jnsgd1na2vs0mg"},{"bike_id":"2c7da520-bf3f-4579-bbaf-d8bed38515fb","system_id":"levelo_inurba_marseille","lat":43.24656,"lon":5.38898,"is_reserved":false,"is_disabled":false,"rental_uris":{"android":"levelo://app?vid=2c7da520-bf3f-4579-bbaf-d8bed38515fb","ios":"levelo://app?vid=2c7da520-bf3f-4579-bbaf-d8bed38515fb"},"vehicle_type_id":"4","last_reported":1731766073,"current_range_meters":40000,"station_id":"ce4bhg12rcd13ifvqf60","pricing_plan_id":"cebpf4jnsgd1na2vs0mg"},{"bike_id":"cf6f47be-8f34-4b97-b371-f274f7b7a70e","system_id":"levelo_inurba_marseille","lat":43.239624,"lon":5.366285,"is_reserved":false,"is_disabled":false,"rental_uris":{"android":"levelo://app?vid=cf6f47be-8f34-4b97-b371-f274f7b7a70e","ios":"levelo://app?vid=cf6f47be-8f34-4b97-b371-f274f7b7a70e"},"vehicle_type_id":"4","last_reported":1731766073,"current_range_meters":13600,"station_id":"ce4bhi12rcd13ifvqfp0","pricing_plan_id":"cebpf4jnsgd1na2vs0mg"},{"bike_id":"09cb9798-9ffd-4b95-9c1a-c7da8c3efec9","system_id":"levelo_inurba_marseille","lat":43.27066,"lon":5.42282,"is_reserved":false,"is_disabled":false,"rental_uris":{"android":"levelo://app?vid=09cb9798-9ffd-4b95-9c1a-c7da8c3efec9","ios":"levelo://app?vid=09cb9798-9ffd-4b95-9c1a-c7da8c3efec9"},"vehicle_type_id":"4","last_reported":1731766073,"current_range_meters":38800,"station_id":"ce4bhk92rcd13ifvqgb0","pricing_plan_id":"cebpf4jnsgd1na2vs0mg"},{"bike_id":"d7c17772-7044-4eb6-9f10-218c34625bf9","system_id":"levelo_inurba_marseille","lat":43.27998,"lon":5.40011,"is_reserved":false,"is_disabled":false,"rental_uris":{"android":"levelo://app?vid=d7c17772-7044-4eb6-9f10-218c34625bf9","ios":"levelo://app?vid=d7c17772-7044-4eb6-9f10-218c34625bf9"},"vehicle_type_id":"4","last_reported":1731766073,"current_range_meters":12000,"station_id":"ce4bho92rcd13ifvqh4g","pricing_plan_id":"cebpf4jnsgd1na2vs0mg"},{"bike_id":"12867844-fa2a-41b2-8d74-706d4ef15909","system_id":"levelo_inurba_marseille","lat":43.337444,"lon":5.374475,"is_reserved":false,"is_disabled":false,"rental_uris":{"android":"levelo://app?vid=12867844-fa2a-41b2-8d74-706d4ef15909","ios":"levelo://app?vid=12867844-fa2a-41b2-8d74-706d4ef15909"},"vehicle_type_id":"4","last_reported":1731766073,"current_range_meters":24400,"station_id":"","pricing_plan_id":"cebpf4jnsgd1na2vs0mg"},{"bike_id":"069db03c-4a8a-4285-b130-bded008b94ae","system_id":"levelo_inurba_marseille","lat":43.31711,"lon":5.37742,"is_reserved":false,"is_disabled":false,"rental_uris":{"android":"levelo://app?vid=069db03c-4a8a-4285-b130-bded008b94ae","ios":"levelo://app?vid=069db03c-4a8a-4285-b130-bded008b94ae"},"vehicle_type_id":"4","last_reported":1731766073,"current_range_meters":38800,"station_id":"ce4bgth2rcd13ifvqch0","pricing_plan_id":"cebpf4jnsgd1na2vs0mg"},{"bike_id":"c7df644c-1bb2-4c76-a135-c3504f376860","system_id":"levelo_inurba_marseille","lat":43.23201,"lon":5.35549,"is_reserved":false,"is_disabled":false,"rental_uris":{"android":"levelo://app?vid=c7df644c-1bb2-4c76-a135-c3504f376860","ios":"levelo://app?vid=c7df644c-1bb2-4c76-a135-c3504f376860"},"vehicle_type_id":"4","last_reported":1731766073,"current_range_meters":19200,"station_id":"ce4bhu92rcd13ifvqi70","pricing_plan_id":"cebpf4jnsgd1na2vs0mg"},{"bike_id":"7983df8d-929f-4735-bd72-a258df4f8063","system_id":"levelo_inurba_marseille","lat":43.27954,"lon":5.41048,"is_reserved":false,"is_disabled":false,"rental_uris":{"android":"levelo://app?vid=7983df8d-929f-4735-bd72-a258df4f8063","ios":"levelo://app?vid=7983df8d-929f-4735-bd72-a258df4f8063"},"vehicle_type_id":"4","last_reported":1731766073,"current_range_meters":38800,"station_id":"ce4bhnp2rcd13ifvqh0g","pricing_plan_id":"cebpf4jnsgd1na2vs0mg"},{"bike_id":"d206d41a-8ea1-48b7-8dea-76f005b54e28","system_id":"levelo_inurba_marseille","lat":43.33764,"lon":5.37435,"is_reserved":false,"is_disabled":false,"rental_uris":{"android":"levelo://app?vid=d206d41a-8ea1-48b7-8dea-76f005b54e28","ios":"levelo://app?vid=d206d41a-8ea1-48b7-8dea-76f005b54e28"},"vehicle_type_id":"4","last_reported":1731766073,"current_range_meters":26000,"station_id":"","pricing_plan_id":"cebpf4jnsgd1na2vs0mg"},{"bike_id":"69f0e83e-d63d-4e86-88f2-a3dc1ad8d91b","system_id":"levelo_inurba_marseille","lat":43.28407,"lon":5.3751,"is_reserved":false,"is_disabled":false,"rental_uris":{"android":"levelo://app?vid=69f0e83e-d63d-4e86-88f2-a3dc1ad8d91b","ios":"levelo://app?vid=69f0e83e-d63d-4e86-88f2-a3dc1ad8d91b"},"vehicle_type_id":"4","last_reported":1731766073,"current_range_meters":28000,"station_id":"ce4bgqh2rcd13ifvqc5g","pricing_plan_id":"cebpf4jnsgd1na2vs0mg"},{"bike_id":"15b16653-eacd-4473-93cb-a923ae177915","system_id":"levelo_inurba_marseille","lat":43.28572,"lon":5.39498,"is_reserved":false,"is_disabled":false,"rental_uris":{"android":"levelo://app?vid=15b16653-eacd-4473-93cb-a923ae177915","ios":"levelo://app?vid=15b16653-eacd-4473-93cb-a923ae177915"},"vehicle_type_id":"4","last_reported":1731766073,"current_range_meters":26800,"station_id":"ce4bh292rcd13ifvqdg0","pricing_plan_id":"cebpf4jnsgd1na2vs0mg"},{"bike_id":"52d33032-d14a-47b0-8acf-d856fe2faefc","system_id":"levelo_inurba_marseille","lat":43.27377,"lon":5.36254,"is_reserved":false,"is_disabled":false,"rental_uris":{"android":"levelo://app?vid=52d33032-d14a-47b0-8acf-d856fe2faefc","ios":"levelo://app?vid=52d33032-d14a-47b0-8acf-d856fe2faefc"},"vehicle_type_id":"4","last_reported":1731766073,"current_range_meters":25600,"station_id":"ce4bhbh2rcd13ifvqeo0","pricing_plan_id":"cebpf4jnsgd1na2vs0mg"},{"bike_id":"41304585-ea3f-478b-8a8e-543e3801108b","system_id":"levelo_inurba_marseille","lat":43.30535,"lon":5.36556,"is_reserved":false,"is_disabled":false,"rental_uris":{"android":"levelo://app?vid=41304585-ea3f-478b-8a8e-543e3801108b","ios":"levelo://app?vid=41304585-ea3f-478b-8a8e-543e3801108b"},"vehicle_type_id":"4","last_reported":1731766073,"current_range_meters":33200,"station_id":"ce4bgs12rcd13ifvqcag","pricing_plan_id":"cebpf4jnsgd1na2vs0mg"},{"bike_id":"7407ba55-0e69-463f-b9ed-ec68973f1e99","system_id":"levelo_inurba_marseille","lat":43.27912,"lon":5.38022,"is_reserved":false,"is_disabled":false,"rental_uris":{"android":"levelo://app?vid=7407ba55-0e69-463f-b9ed-ec68973f1e99","ios":"levelo://app?vid=7407ba55-0e69-463f-b9ed-ec68973f1e99"},"vehicle_type_id":"4","last_reported":1731766073,"current_range_meters":26000,"station_id":"ce4bhf92rcd13ifvqf50","pricing_plan_id":"cebpf4jnsgd1na2vs0mg"},{"bike_id":"bcaf3b0b-4cde-42c7-9dfb-dab164d31efc","system_id":"levelo_inurba_marseille","lat":43.26061,"lon":5.39396,"is_reserved":false,"is_disabled":false,"rental_uris":{"android":"levelo://app?vid=bcaf3b0b-4cde-42c7-9dfb-dab164d31efc","ios":"levelo://app?vid=bcaf3b0b-4cde-42c7-9dfb-dab164d31efc"},"vehicle_type_id":"4","last_reported":1731766073,"current_range_meters":24000,"station_id":"","pricing_plan_id":"cebpf4jnsgd1na2vs0mg"},{"bike_id":"52005f48-05ea-4014-a2a4-b453ddf6003c","system_id":"levelo_inurba_marseille","lat":43.29867,"lon":5.39734,"is_reserved":false,"is_disabled":false,"rental_uris":{"android":"levelo://app?vid=52005f48-05ea-4014-a2a4-b453ddf6003c","ios":"levelo://app?vid=52005f48-05ea-4014-a2a4-b453ddf6003c"},"vehicle_type_id":"4","last_reported":1731766073,"current_range_meters":24400,"station_id":"ce4bh0h2rcd13ifvqd50","pricing_plan_id":"cebpf4jnsgd1na2vs0mg"},{"bike_id":"505a295f-ff1f-48dd-aaa7-c188569d323b","system_id":"levelo_inurba_marseille","lat":43.22227,"lon":5.34581,"is_reserved":false,"is_disabled":false,"rental_uris":{"android":"levelo://app?vid=505a295f-ff1f-48dd-aaa7-c188569d323b","ios":"levelo://app?vid=505a295f-ff1f-48dd-aaa7-c188569d323b"},"vehicle_type_id":"4","last_reported":1731766073,"current_range_meters":30000,"station_id":"cpo3532slgdg3j2ikp40","pricing_plan_id":"cebpf4jnsgd1na2vs0mg"},{"bike_id":"d012c549-f157-4e38-930f-a301d7835c27","system_id":"levelo_inurba_marseille","lat":43.2306,"lon":5.3549,"is_reserved":false,"is_disabled":false,"rental_uris":{"android":"levelo://app?vid=d012c549-f157-4e38-930f-a301d7835c27","ios":"levelo://app?vid=d012c549-f157-4e38-930f-a301d7835c27"},"vehicle_type_id":"4","last_reported":1731766073,"current_range_meters":19600,"station_id":"cpo3342slgdg3j2ifvpg","pricing_plan_id":"cebpf4jnsgd1na2vs0mg"},{"bike_id":"316a0bd7-e97c-4340-948e-33d2630a32d1","system_id":"levelo_inurba_marseille","lat":43.30147,"lon":5.38082,"is_reserved":false,"is_disabled":false,"rental_uris":{"android":"levelo://app?vid=316a0bd7-e97c-4340-948e-33d2630a32d1","ios":"levelo://app?vid=316a0bd7-e97c-4340-948e-33d2630a32d1"},"vehicle_type_id":"4","last_reported":1731766073,"current_range_meters":31200,"station_id":"ce4bgjp2rcd13ifvqbh0","pricing_plan_id":"cebpf4jnsgd1na2vs0mg"},{"bike_id":"0df066de-ecc0-4474-a621-256ef8b34eb3","system_id":"levelo_inurba_marseille","lat":43.29576,"lon":5.37523,"is_reserved":false,"is_disabled":false,"rental_uris":{"android":"levelo://app?vid=0df066de-ecc0-4474-a621-256ef8b34eb3","ios":"levelo://app?vid=0df066de-ecc0-4474-a621-256ef8b34eb3"},"vehicle_type_id":"4","last_reported":1731766073,"current_range_meters":9200,"station_id":"ce4bgh92rcd13ifvqb50","pricing_plan_id":"cebpf4jnsgd1na2vs0mg"},{"bike_id":"f58b6de5-48ac-4788-b101-b3ffab74ef33","system_id":"levelo_inurba_marseille","lat":43.29036,"lon":5.37562,"is_reserved":false,"is_disabled":false,"rental_uris":{"android":"levelo://app?vid=f58b6de5-48ac-4788-b101-b3ffab74ef33","ios":"levelo://app?vid=f58b6de5-48ac-4788-b101-b3ffab74ef33"},"vehicle_type_id":"4","last_reported":1731766073,"current_range_meters":24000,"station_id":"ce4bh692rcd13ifvqe90","pricing_plan_id":"cebpf4jnsgd1na2vs0mg"},{"bike_id":"36431332-30c9-4c92-a4d2-20d5845ab51d","system_id":"levelo_inurba_marseille","lat":43.275,"lon":5.42454,"is_reserved":false,"is_disabled":false,"rental_uris":{"android":"levelo://app?vid=36431332-30c9-4c92-a4d2-20d5845ab51d","ios":"levelo://app?vid=36431332-30c9-4c92-a4d2-20d5845ab51d"},"vehicle_type_id":"4","last_reported":1731766073,"current_range_meters":24800,"station_id":"ce4bhn92rcd13ifvqgrg","pricing_plan_id":"cebpf4jnsgd1na2vs0mg"},{"bike_id":"e118ac8d-9168-42ee-a9c1-966189a35f29","system_id":"levelo_inurba_marseille","lat":43.2732,"lon":5.3908,"is_reserved":false,"is_disabled":false,"rental_uris":{"android":"levelo://app?vid=e118ac8d-9168-42ee-a9c1-966189a35f29","ios":"levelo://app?vid=e118ac8d-9168-42ee-a9c1-966189a35f29"},"vehicle_type_id":"4","last_reported":1731766073,"current_range_meters":16400,"station_id":"ce4bhgp2rcd13ifvqfe0","pricing_plan_id":"cebpf4jnsgd1na2vs0mg"},{"bike_id":"d7cad7ba-a3cf-4113-8f4d-63bd503bb522","system_id":"levelo_inurba_marseille","lat":43.27612,"lon":5.36104,"is_reserved":false,"is_disabled":false,"rental_uris":{"android":"levelo://app?vid=d7cad7ba-a3cf-4113-8f4d-63bd503bb522","ios":"levelo://app?vid=d7cad7ba-a3cf-4113-8f4d-63bd503bb522"},"vehicle_type_id":"4","last_reported":1731766073,"current_range_meters":19200,"station_id":"ce4bgj92rcd13ifvqbe0","pricing_plan_id":"cebpf4jnsgd1na2vs0mg"},{"bike_id":"2bfa8245-0f38-4639-83fc-bf034a79f456","system_id":"levelo_inurba_marseille","lat":43.27063,"lon":5.40255,"is_reserved":false,"is_disabled":false,"rental_uris":{"android":"levelo://app?vid=2bfa8245-0f38-4639-83fc-bf034a79f456","ios":"levelo://app?vid=2bfa8245-0f38-4639-83fc-bf034a79f456"},"vehicle_type_id":"4","last_reported":1731766073,"current_range_meters":11600,"station_id":"ce4bhk92rcd13ifvqgc0","pricing_plan_id":"cebpf4jnsgd1na2vs0mg"},{"bike_id":"2b9adc98-3f29-499a-bcb7-6febda33d356","system_id":"levelo_inurba_marseille","lat":43.26954,"lon":5.38629,"is_reserved":false,"is_disabled":false,"rental_uris":{"android":"levelo://app?vid=2b9adc98-3f29-499a-bcb7-6febda33d356","ios":"levelo://app?vid=2b9adc98-3f29-499a-bcb7-6febda33d356"},"vehicle_type_id":"4","last_reported":1731766073,"current_range_meters":38800,"station_id":"ce4bhh92rcd13ifvqfh0","pricing_plan_id":"cebpf4jnsgd1na2vs0mg"},{"bike_id":"df9436a1-f1ff-49b6-8830-51c049b5af32","system_id":"levelo_inurba_marseille","lat":43.28155,"lon":5.4264,"is_reserved":false,"is_disabled":false,"rental_uris":{"android":"levelo://app?vid=df9436a1-f1ff-49b6-8830-51c049b5af32","ios":"levelo://app?vid=df9436a1-f1ff-49b6-8830-51c049b5af32"},"vehicle_type_id":"4","last_reported":1731766073,"current_range_meters":14400,"station_id":"ce4bhnh2rcd13ifvqgug","pricing_plan_id":"cebpf4jnsgd1na2vs0mg"},{"bike_id":"9d256885-f74a-4bdd-9fc1-fad5baf98559","system_id":"levelo_inurba_marseille","lat":43.27491,"lon":5.42459,"is_reserved":false,"is_disabled":false,"rental_uris":{"android":"levelo://app?vid=9d256885-f74a-4bdd-9fc1-fad5baf98559","ios":"levelo://app?vid=9d256885-f74a-4bdd-9fc1-fad5baf98559"},"vehicle_type_id":"4","last_reported":1731766073,"current_range_meters":18000,"station_id":"ce4bhn92rcd13ifvqgrg","pricing_plan_id":"cebpf4jnsgd1na2vs0mg"},{"bike_id":"ad308fcd-0cec-4f11-bd6c-1bbeea5bdddf","system_id":"levelo_inurba_marseille","lat":43.266829,"lon":5.382773,"is_reserved":false,"is_disabled":false,"rental_uris":{"android":"levelo://app?vid=ad308fcd-0cec-4f11-bd6c-1bbeea5bdddf","ios":"levelo://app?vid=ad308fcd-0cec-4f11-bd6c-1bbeea5bdddf"},"vehicle_type_id":"4","last_reported":1731766073,"current_range_meters":32400,"station_id":"ce4bhdp2rcd13ifvqf20","pricing_plan_id":"cebpf4jnsgd1na2vs0mg"},{"bike_id":"3f37f7d7-cfd0-46ff-ad64-e239f9c03c2e","system_id":"levelo_inurba_marseille","lat":43.33023,"lon":5.39041,"is_reserved":false,"is_disabled":false,"rental_uris":{"android":"levelo://app?vid=3f37f7d7-cfd0-46ff-ad64-e239f9c03c2e","ios":"levelo://app?vid=3f37f7d7-cfd0-46ff-ad64-e239f9c03c2e"},"vehicle_type_id":"4","last_reported":1731766073,"current_range_meters":38800,"station_id":"ce4bhr92rcd13ifvqhrg","pricing_plan_id":"cebpf4jnsgd1na2vs0mg"},{"bike_id":"821c2061-f405-47c3-901c-cab0541d9771","system_id":"levelo_inurba_marseille","lat":43.315346,"lon":5.380308,"is_reserved":false,"is_disabled":false,"rental_uris":{"android":"levelo://app?vid=821c2061-f405-47c3-901c-cab0541d9771","ios":"levelo://app?vid=821c2061-f405-47c3-901c-cab0541d9771"},"vehicle_type_id":"4","last_reported":1731766073,"current_range_meters":36400,"station_id":"ce4bhsp2rcd13ifvqi50","pricing_plan_id":"cebpf4jnsgd1na2vs0mg"},{"bike_id":"d6029a07-4312-42af-9590-5c6b5c606e61","system_id":"levelo_inurba_marseille","lat":43.25578,"lon":5.3824,"is_reserved":false,"is_disabled":false,"rental_uris":{"android":"levelo://app?vid=d6029a07-4312-42af-9590-5c6b5c606e61","ios":"levelo://app?vid=d6029a07-4312-42af-9590-5c6b5c606e61"},"vehicle_type_id":"4","last_reported":1731766073,"current_range_meters":37600,"station_id":"ce4bhih2rcd13ifvqfs0","pricing_plan_id":"cebpf4jnsgd1na2vs0mg"},{"bike_id":"bdabe6f8-f56d-48f4-9f5a-27e713427171","system_id":"levelo_inurba_marseille","lat":43.28704,"lon":5.37366,"is_reserved":false,"is_disabled":false,"rental_uris":{"android":"levelo://app?vid=bdabe6f8-f56d-48f4-9f5a-27e713427171","ios":"levelo://app?vid=bdabe6f8-f56d-48f4-9f5a-27e713427171"},"vehicle_type_id":"4","last_reported":1731766073,"current_range_meters":25600,"station_id":"ce4bh3p2rcd13ifvqdq0","pricing_plan_id":"cebpf4jnsgd1na2vs0mg"},{"bike_id":"132e56c0-8d55-436d-b62c-2c61c1c62053","system_id":"levelo_inurba_marseille","lat":43.29192,"lon":5.35809,"is_reserved":false,"is_disabled":false,"rental_uris":{"android":"levelo://app?vid=132e56c0-8d55-436d-b62c-2c61c1c62053","ios":"levelo://app?vid=132e56c0-8d55-436d-b62c-2c61c1c62053"},"vehicle_type_id":"4","last_reported":1731766073,"current_range_meters":10000,"station_id":"ce4bhb12rcd13ifvqel0","pricing_plan_id":"cebpf4jnsgd1na2vs0mg"},{"bike_id":"9fd7a1f3-a23b-430f-a46e-07797ec16f5d","system_id":"levelo_inurba_marseille","lat":43.33723,"lon":5.37453,"is_reserved":false,"is_disabled":false,"rental_uris":{"android":"levelo://app?vid=9fd7a1f3-a23b-430f-a46e-07797ec16f5d","ios":"levelo://app?vid=9fd7a1f3-a23b-430f-a46e-07797ec16f5d"},"vehicle_type_id":"4","last_reported":1731766073,"current_range_meters":37600,"station_id":"","pricing_plan_id":"cebpf4jnsgd1na2vs0mg"},{"bike_id":"59c31e59-ad45-4236-b9a5-e1cc0321b9ff","system_id":"levelo_inurba_marseille","lat":43.22931,"lon":5.35373,"is_reserved":false,"is_disabled":false,"rental_uris":{"android":"levelo://app?vid=59c31e59-ad45-4236-b9a5-e1cc0321b9ff","ios":"levelo://app?vid=59c31e59-ad45-4236-b9a5-e1cc0321b9ff"},"vehicle_type_id":"4","last_reported":1731766073,"current_range_meters":24800,"station_id":"cpo3532slgdg3j2ikp40","pricing_plan_id":"cebpf4jnsgd1na2vs0mg"},{"bike_id":"d3d464b5-8a54-4055-b11a-612c7e2c2ba0","system_id":"levelo_inurba_marseille","lat":43.30797,"lon":5.38158,"is_reserved":false,"is_disabled":false,"rental_uris":{"android":"levelo://app?vid=d3d464b5-8a54-4055-b11a-612c7e2c2ba0","ios":"levelo://app?vid=d3d464b5-8a54-4055-b11a-612c7e2c2ba0"},"vehicle_type_id":"4","last_reported":1731766073,"current_range_meters":28000,"station_id":"ce4bgt12rcd13ifvqce0","pricing_plan_id":"cebpf4jnsgd1na2vs0mg"},{"bike_id":"911a706d-c30e-4a39-9d34-42e795497fc6","system_id":"levelo_inurba_marseille","lat":43.3266,"lon":5.40992,"is_reserved":false,"is_disabled":false,"rental_uris":{"android":"levelo://app?vid=911a706d-c30e-4a39-9d34-42e795497fc6","ios":"levelo://app?vid=911a706d-c30e-4a39-9d34-42e795497fc6"},"vehicle_type_id":"4","last_reported":1731766073,"current_range_meters":37600,"station_id":"ce4bhpp2rcd13ifvqhgg","pricing_plan_id":"cebpf4jnsgd1na2vs0mg"},{"bike_id":"420ac8e3-d580-4bcb-8ba4-48738772d9f0","system_id":"levelo_inurba_marseille","lat":43.23061,"lon":5.35491,"is_reserved":false,"is_disabled":false,"rental_uris":{"android":"levelo://app?vid=420ac8e3-d580-4bcb-8ba4-48738772d9f0","ios":"levelo://app?vid=420ac8e3-d580-4bcb-8ba4-48738772d9f0"},"vehicle_type_id":"4","last_reported":1731766073,"current_range_meters":4000,"station_id":"cpo3342slgdg3j2ifvpg","pricing_plan_id":"cebpf4jnsgd1na2vs0mg"},{"bike_id":"88d078f5-fad2-48fc-a02b-9b261e02cde7","system_id":"levelo_inurba_marseille","lat":43.29007,"lon":5.35613,"is_reserved":false,"is_disabled":false,"rental_uris":{"android":"levelo://app?vid=88d078f5-fad2-48fc-a02b-9b261e02cde7","ios":"levelo://app?vid=88d078f5-fad2-48fc-a02b-9b261e02cde7"},"vehicle_type_id":"4","last_reported":1731766073,"current_range_meters":39200,"station_id":"ce4bhb92rcd13ifvqen0","pricing_plan_id":"cebpf4jnsgd1na2vs0mg"},{"bike_id":"86e7c710-dfae-42b1-b617-d580c238bd5b","system_id":"levelo_inurba_marseille","lat":43.30546,"lon":5.36559,"is_reserved":false,"is_disabled":false,"rental_uris":{"android":"levelo://app?vid=86e7c710-dfae-42b1-b617-d580c238bd5b","ios":"levelo://app?vid=86e7c710-dfae-42b1-b617-d580c238bd5b"},"vehicle_type_id":"4","last_reported":1731766073,"current_range_meters":20800,"station_id":"ce4bgs12rcd13ifvqcag","pricing_plan_id":"cebpf4jnsgd1na2vs0mg"},{"bike_id":"1116a7e0-dd34-437c-bf2b-80fd720125b8","system_id":"levelo_inurba_marseille","lat":43.28158,"lon":5.42642,"is_reserved":false,"is_disabled":false,"rental_uris":{"android":"levelo://app?vid=1116a7e0-dd34-437c-bf2b-80fd720125b8","ios":"levelo://app?vid=1116a7e0-dd34-437c-bf2b-80fd720125b8"},"vehicle_type_id":"4","last_reported":1731766073,"current_range_meters":8400,"station_id":"ce4bhnh2rcd13ifvqgug","pricing_plan_id":"cebpf4jnsgd1na2vs0mg"},{"bike_id":"f7389805-f642-40ef-845e-473ee76f6184","system_id":"levelo_inurba_marseille","lat":43.26032,"lon":5.37549,"is_reserved":false,"is_disabled":false,"rental_uris":{"android":"levelo://app?vid=f7389805-f642-40ef-845e-473ee76f6184","ios":"levelo://app?vid=f7389805-f642-40ef-845e-473ee76f6184"},"vehicle_type_id":"4","last_reported":1731766073,"current_range_meters":17200,"station_id":"ce4bhgh2rcd13ifvqfa0","pricing_plan_id":"cebpf4jnsgd1na2vs0mg"},{"bike_id":"c1be2fed-b545-477a-a4d2-727636f4e4a3","system_id":"levelo_inurba_marseille","lat":43.30155,"lon":5.38078,"is_reserved":false,"is_disabled":false,"rental_uris":{"android":"levelo://app?vid=c1be2fed-b545-477a-a4d2-727636f4e4a3","ios":"levelo://app?vid=c1be2fed-b545-477a-a4d2-727636f4e4a3"},"vehicle_type_id":"4","last_reported":1731766073,"current_range_meters":8400,"station_id":"ce4bgjp2rcd13ifvqbh0","pricing_plan_id":"cebpf4jnsgd1na2vs0mg"},{"bike_id":"1f9654f4-6433-4c49-81ab-1e0456b68e0d","system_id":"levelo_inurba_marseille","lat":43.27617,"lon":5.36107,"is_reserved":false,"is_disabled":false,"rental_uris":{"android":"levelo://app?vid=1f9654f4-6433-4c49-81ab-1e0456b68e0d","ios":"levelo://app?vid=1f9654f4-6433-4c49-81ab-1e0456b68e0d"},"vehicle_type_id":"4","last_reported":1731766073,"current_range_meters":10800,"station_id":"ce4bgj92rcd13ifvqbe0","pricing_plan_id":"cebpf4jnsgd1na2vs0mg"},{"bike_id":"d54f2dfa-2ad2-469a-8720-163ef98eb87d","system_id":"levelo_inurba_marseille","lat":43.25083,"lon":5.39515,"is_reserved":false,"is_disabled":false,"rental_uris":{"android":"levelo://app?vid=d54f2dfa-2ad2-469a-8720-163ef98eb87d","ios":"levelo://app?vid=d54f2dfa-2ad2-469a-8720-163ef98eb87d"},"vehicle_type_id":"4","last_reported":1731766073,"current_range_meters":23200,"station_id":"ce4bhm12rcd13ifvqgkg","pricing_plan_id":"cebpf4jnsgd1na2vs0mg"},{"bike_id":"40ef8929-036f-4b33-96b9-b96ff3a2cfe8","system_id":"levelo_inurba_marseille","lat":43.28666,"lon":5.36361,"is_reserved":false,"is_disabled":false,"rental_uris":{"android":"levelo://app?vid=40ef8929-036f-4b33-96b9-b96ff3a2cfe8","ios":"levelo://app?vid=40ef8929-036f-4b33-96b9-b96ff3a2cfe8"},"vehicle_type_id":"4","last_reported":1731766073,"current_range_meters":38800,"station_id":"ce4bhah2rcd13ifvqej0","pricing_plan_id":"cebpf4jnsgd1na2vs0mg"},{"bike_id":"07b98025-0696-41f3-84f7-e8d65f2f289f","system_id":"levelo_inurba_marseille","lat":43.29037,"lon":5.39966,"is_reserved":false,"is_disabled":false,"rental_uris":{"android":"levelo://app?vid=07b98025-0696-41f3-84f7-e8d65f2f289f","ios":"levelo://app?vid=07b98025-0696-41f3-84f7-e8d65f2f289f"},"vehicle_type_id":"4","last_reported":1731766073,"current_range_meters":19600,"station_id":"ce4bh392rcd13ifvqdm0","pricing_plan_id":"cebpf4jnsgd1na2vs0mg"},{"bike_id":"29a90765-585c-4227-9ddc-31b6ddca1503","system_id":"levelo_inurba_marseille","lat":43.23197,"lon":5.35546,"is_reserved":false,"is_disabled":false,"rental_uris":{"android":"levelo://app?vid=29a90765-585c-4227-9ddc-31b6ddca1503","ios":"levelo://app?vid=29a90765-585c-4227-9ddc-31b6ddca1503"},"vehicle_type_id":"4","last_reported":1731766073,"current_range_meters":30000,"station_id":"ce4bhu92rcd13ifvqi70","pricing_plan_id":"cebpf4jnsgd1na2vs0mg"},{"bike_id":"6d757fef-4f26-43f9-ac2c-ffab39bf7dae","system_id":"levelo_inurba_marseille","lat":43.32249,"lon":5.36901,"is_reserved":false,"is_disabled":false,"rental_uris":{"android":"levelo://app?vid=6d757fef-4f26-43f9-ac2c-ffab39bf7dae","ios":"levelo://app?vid=6d757fef-4f26-43f9-ac2c-ffab39bf7dae"},"vehicle_type_id":"4","last_reported":1731766073,"current_range_meters":19600,"station_id":"","pricing_plan_id":"cebpf4jnsgd1na2vs0mg"},{"bike_id":"3dcbf25c-b03d-45cf-add9-f30e93c68092","system_id":"levelo_inurba_marseille","lat":43.29556,"lon":5.42288,"is_reserved":false,"is_disabled":false,"rental_uris":{"android":"levelo://app?vid=3dcbf25c-b03d-45cf-add9-f30e93c68092","ios":"levelo://app?vid=3dcbf25c-b03d-45cf-add9-f30e93c68092"},"vehicle_type_id":"4","last_reported":1731766073,"current_range_meters":38000,"station_id":"ce4bhph2rcd13ifvqhdg","pricing_plan_id":"cebpf4jnsgd1na2vs0mg"},{"bike_id":"85d6e933-076c-4be2-b466-0826a986282c","system_id":"levelo_inurba_marseille","lat":43.27204,"lon":5.39182,"is_reserved":false,"is_disabled":false,"rental_uris":{"android":"levelo://app?vid=85d6e933-076c-4be2-b466-0826a986282c","ios":"levelo://app?vid=85d6e933-076c-4be2-b466-0826a986282c"},"vehicle_type_id":"4","last_reported":1731766073,"current_range_meters":38800,"station_id":"ce4bhhp2rcd13ifvqfm0","pricing_plan_id":"cebpf4jnsgd1na2vs0mg"},{"bike_id":"32798793-1df6-4dab-a429-8df7301911a6","system_id":"levelo_inurba_marseille","lat":43.29567,"lon":5.3753,"is_reserved":false,"is_disabled":false,"rental_uris":{"android":"levelo://app?vid=32798793-1df6-4dab-a429-8df7301911a6","ios":"levelo://app?vid=32798793-1df6-4dab-a429-8df7301911a6"},"vehicle_type_id":"4","last_reported":1731766073,"current_range_meters":31200,"station_id":"ce4bgh92rcd13ifvqb50","pricing_plan_id":"cebpf4jnsgd1na2vs0mg"},{"bike_id":"0ff88d0a-2e3e-428d-8c80-aae6151d2fc8","system_id":"levelo_inurba_marseille","lat":43.2928,"lon":5.368483,"is_reserved":false,"is_disabled":false,"rental_uris":{"android":"levelo://app?vid=0ff88d0a-2e3e-428d-8c80-aae6151d2fc8","ios":"levelo://app?vid=0ff88d0a-2e3e-428d-8c80-aae6151d2fc8"},"vehicle_type_id":"4","last_reported":1731766073,"current_range_meters":17200,"station_id":"ce4bhbp2rcd13ifvqesg","pricing_plan_id":"cebpf4jnsgd1na2vs0mg"},{"bike_id":"3519c1ae-a02b-41fb-9e15-ac1aa7c33ac9","system_id":"levelo_inurba_marseille","lat":43.2971,"lon":5.37692,"is_reserved":false,"is_disabled":false,"rental_uris":{"android":"levelo://app?vid=3519c1ae-a02b-41fb-9e15-ac1aa7c33ac9","ios":"levelo://app?vid=3519c1ae-a02b-41fb-9e15-ac1aa7c33ac9"},"vehicle_type_id":"4","last_reported":1731766073,"current_range_meters":19200,"station_id":"ce4bgkh2rcd13ifvqbl0","pricing_plan_id":"cebpf4jnsgd1na2vs0mg"},{"bike_id":"1c197efe-5f58-4ca0-94c8-1998db62d2b4","system_id":"levelo_inurba_marseille","lat":43.28155,"lon":5.42646,"is_reserved":false,"is_disabled":false,"rental_uris":{"android":"levelo://app?vid=1c197efe-5f58-4ca0-94c8-1998db62d2b4","ios":"levelo://app?vid=1c197efe-5f58-4ca0-94c8-1998db62d2b4"},"vehicle_type_id":"4","last_reported":1731766073,"current_range_meters":19600,"station_id":"ce4bhnh2rcd13ifvqgug","pricing_plan_id":"cebpf4jnsgd1na2vs0mg"},{"bike_id":"aad4669a-3cee-431b-b28a-1ae7cd9f6df0","system_id":"levelo_inurba_marseille","lat":43.24997,"lon":5.38939,"is_reserved":false,"is_disabled":false,"rental_uris":{"android":"levelo://app?vid=aad4669a-3cee-431b-b28a-1ae7cd9f6df0","ios":"levelo://app?vid=aad4669a-3cee-431b-b28a-1ae7cd9f6df0"},"vehicle_type_id":"4","last_reported":1731766073,"current_range_meters":24400,"station_id":"ce4bhgp2rcd13ifvqfd0","pricing_plan_id":"cebpf4jnsgd1na2vs0mg"},{"bike_id":"6703dc54-4e4b-4dcd-9f56-f100c3662f31","system_id":"levelo_inurba_marseille","lat":43.281,"lon":5.37834,"is_reserved":false,"is_disabled":false,"rental_uris":{"android":"levelo://app?vid=6703dc54-4e4b-4dcd-9f56-f100c3662f31","ios":"levelo://app?vid=6703dc54-4e4b-4dcd-9f56-f100c3662f31"},"vehicle_type_id":"4","last_reported":1731766073,"current_range_meters":26800,"station_id":"ce4bha12rcd13ifvqee0","pricing_plan_id":"cebpf4jnsgd1na2vs0mg"},{"bike_id":"6c00da88-f9cd-4e41-9965-df819382bec1","system_id":"levelo_inurba_marseille","lat":43.23154,"lon":5.43703,"is_reserved":false,"is_disabled":false,"rental_uris":{"android":"levelo://app?vid=6c00da88-f9cd-4e41-9965-df819382bec1","ios":"levelo://app?vid=6c00da88-f9cd-4e41-9965-df819382bec1"},"vehicle_type_id":"4","last_reported":1731766073,"current_range_meters":18800,"station_id":"ce4bhmp2rcd13ifvqgog","pricing_plan_id":"cebpf4jnsgd1na2vs0mg"},{"bike_id":"4d26771e-f283-4441-b8fc-61c358a1a1e7","system_id":"levelo_inurba_marseille","lat":43.3248,"lon":5.36574,"is_reserved":false,"is_disabled":false,"rental_uris":{"android":"levelo://app?vid=4d26771e-f283-4441-b8fc-61c358a1a1e7","ios":"levelo://app?vid=4d26771e-f283-4441-b8fc-61c358a1a1e7"},"vehicle_type_id":"4","last_reported":1731766073,"current_range_meters":38800,"station_id":"ce4bhs12rcd13ifvqhvg","pricing_plan_id":"cebpf4jnsgd1na2vs0mg"},{"bike_id":"1cfc2675-9c57-4756-8168-4b8bdeac6c8b","system_id":"levelo_inurba_marseille","lat":43.29934,"lon":5.36542,"is_reserved":false,"is_disabled":false,"rental_uris":{"android":"levelo://app?vid=1cfc2675-9c57-4756-8168-4b8bdeac6c8b","ios":"levelo://app?vid=1cfc2675-9c57-4756-8168-4b8bdeac6c8b"},"vehicle_type_id":"4","last_reported":1731766073,"current_range_meters":30000,"station_id":"ce4bgm92rcd13ifvqbr0","pricing_plan_id":"cebpf4jnsgd1na2vs0mg"},{"bike_id":"7febe010-6cea-4473-a26f-dbcd437683d9","system_id":"levelo_inurba_marseille","lat":43.24662,"lon":5.38163,"is_reserved":false,"is_disabled":false,"rental_uris":{"android":"levelo://app?vid=7febe010-6cea-4473-a26f-dbcd437683d9","ios":"levelo://app?vid=7febe010-6cea-4473-a26f-dbcd437683d9"},"vehicle_type_id":"4","last_reported":1731766073,"current_range_meters":28000,"station_id":"ce4bhih2rcd13ifvqfr0","pricing_plan_id":"cebpf4jnsgd1na2vs0mg"},{"bike_id":"59c83a73-aab2-4819-89a2-d3697497a7c9","system_id":"levelo_inurba_marseille","lat":43.24176,"lon":5.39734,"is_reserved":false,"is_disabled":false,"rental_uris":{"android":"levelo://app?vid=59c83a73-aab2-4819-89a2-d3697497a7c9","ios":"levelo://app?vid=59c83a73-aab2-4819-89a2-d3697497a7c9"},"vehicle_type_id":"4","last_reported":1731766073,"current_range_meters":24000,"station_id":"ce4bhn12rcd13ifvqgpg","pricing_plan_id":"cebpf4jnsgd1na2vs0mg"},{"bike_id":"a1c4c40b-b04a-4042-ab87-18fdf0d29883","system_id":"levelo_inurba_marseille","lat":43.2937,"lon":5.37839,"is_reserved":false,"is_disabled":false,"rental_uris":{"android":"levelo://app?vid=a1c4c40b-b04a-4042-ab87-18fdf0d29883","ios":"levelo://app?vid=a1c4c40b-b04a-4042-ab87-18fdf0d29883"},"vehicle_type_id":"4","last_reported":1731766073,"current_range_meters":18000,"station_id":"ce4bgjh2rcd13ifvqbf0","pricing_plan_id":"cebpf4jnsgd1na2vs0mg"},{"bike_id":"e30e25e3-13b5-4a39-b587-a0d22117188e","system_id":"levelo_inurba_marseille","lat":43.29574,"lon":5.37504,"is_reserved":false,"is_disabled":false,"rental_uris":{"android":"levelo://app?vid=e30e25e3-13b5-4a39-b587-a0d22117188e","ios":"levelo://app?vid=e30e25e3-13b5-4a39-b587-a0d22117188e"},"vehicle_type_id":"4","last_reported":1731766073,"current_range_meters":38000,"station_id":"ce4bgh92rcd13ifvqb50","pricing_plan_id":"cebpf4jnsgd1na2vs0mg"},{"bike_id":"c84f51da-cb1e-4d95-8c43-2fdf2493bdc0","system_id":"levelo_inurba_marseille","lat":43.29588,"lon":5.36725,"is_reserved":false,"is_disabled":false,"rental_uris":{"android":"levelo://app?vid=c84f51da-cb1e-4d95-8c43-2fdf2493bdc0","ios":"levelo://app?vid=c84f51da-cb1e-4d95-8c43-2fdf2493bdc0"},"vehicle_type_id":"4","last_reported":1731766073,"current_range_meters":32800,"station_id":"ce4bgph2rcd13ifvqc2g","pricing_plan_id":"cebpf4jnsgd1na2vs0mg"},{"bike_id":"a4e8e96c-867e-4521-9861-087b3f6c78bd","system_id":"levelo_inurba_marseille","lat":43.24999,"lon":5.3893,"is_reserved":false,"is_disabled":false,"rental_uris":{"android":"levelo://app?vid=a4e8e96c-867e-4521-9861-087b3f6c78bd","ios":"levelo://app?vid=a4e8e96c-867e-4521-9861-087b3f6c78bd"},"vehicle_type_id":"4","last_reported":1731766073,"current_range_meters":39200,"station_id":"ce4bhgp2rcd13ifvqfd0","pricing_plan_id":"cebpf4jnsgd1na2vs0mg"},{"bike_id":"85c6faf1-caca-4be7-8bdf-3f18846bd5df","system_id":"levelo_inurba_marseille","lat":43.26804,"lon":5.40262,"is_reserved":false,"is_disabled":false,"rental_uris":{"android":"levelo://app?vid=85c6faf1-caca-4be7-8bdf-3f18846bd5df","ios":"levelo://app?vid=85c6faf1-caca-4be7-8bdf-3f18846bd5df"},"vehicle_type_id":"4","last_reported":1731766073,"current_range_meters":38000,"station_id":"ce501612rcd8frsf0b60","pricing_plan_id":"cebpf4jnsgd1na2vs0mg"},{"bike_id":"095f9103-ae91-4aa5-9eee-4a320ea2d9b7","system_id":"levelo_inurba_marseille","lat":43.2783,"lon":5.39204,"is_reserved":false,"is_disabled":false,"rental_uris":{"android":"levelo://app?vid=095f9103-ae91-4aa5-9eee-4a320ea2d9b7","ios":"levelo://app?vid=095f9103-ae91-4aa5-9eee-4a320ea2d9b7"},"vehicle_type_id":"4","last_reported":1731766073,"current_range_meters":8400,"station_id":"ce4bhjp2rcd13ifvqga0","pricing_plan_id":"cebpf4jnsgd1na2vs0mg"},{"bike_id":"6ebceddf-1033-471c-86d9-cfa2c7529ad9","system_id":"levelo_inurba_marseille","lat":43.25581,"lon":5.38227,"is_reserved":false,"is_disabled":false,"rental_uris":{"android":"levelo://app?vid=6ebceddf-1033-471c-86d9-cfa2c7529ad9","ios":"levelo://app?vid=6ebceddf-1033-471c-86d9-cfa2c7529ad9"},"vehicle_type_id":"4","last_reported":1731766073,"current_range_meters":22400,"station_id":"ce4bhih2rcd13ifvqfs0","pricing_plan_id":"cebpf4jnsgd1na2vs0mg"},{"bike_id":"31e29d18-2f37-41a6-9923-0daa2e737b56","system_id":"levelo_inurba_marseille","lat":43.29071,"lon":5.371599,"is_reserved":false,"is_disabled":false,"rental_uris":{"android":"levelo://app?vid=31e29d18-2f37-41a6-9923-0daa2e737b56","ios":"levelo://app?vid=31e29d18-2f37-41a6-9923-0daa2e737b56"},"vehicle_type_id":"4","last_reported":1731766073,"current_range_meters":10000,"station_id":"ce4bh5p2rcd13ifvqe4g","pricing_plan_id":"cebpf4jnsgd1na2vs0mg"},{"bike_id":"d7f79274-e640-43c4-b7dd-f4e3dad6011c","system_id":"levelo_inurba_marseille","lat":43.27996,"lon":5.4166,"is_reserved":false,"is_disabled":false,"rental_uris":{"android":"levelo://app?vid=d7f79274-e640-43c4-b7dd-f4e3dad6011c","ios":"levelo://app?vid=d7f79274-e640-43c4-b7dd-f4e3dad6011c"},"vehicle_type_id":"4","last_reported":1731766073,"current_range_meters":38800,"station_id":"ce4bho12rcd13ifvqh1g","pricing_plan_id":"cebpf4jnsgd1na2vs0mg"},{"bike_id":"e72de7df-27e4-47a9-9f1b-3ca9518033db","system_id":"levelo_inurba_marseille","lat":43.29373,"lon":5.37853,"is_reserved":false,"is_disabled":false,"rental_uris":{"android":"levelo://app?vid=e72de7df-27e4-47a9-9f1b-3ca9518033db","ios":"levelo://app?vid=e72de7df-27e4-47a9-9f1b-3ca9518033db"},"vehicle_type_id":"4","last_reported":1731766073,"current_range_meters":16800,"station_id":"ce4bgjh2rcd13ifvqbf0","pricing_plan_id":"cebpf4jnsgd1na2vs0mg"},{"bike_id":"b86642f9-2f2d-48ec-b95c-b8d810fd43dc","system_id":"levelo_inurba_marseille","lat":43.239615,"lon":5.36637,"is_reserved":false,"is_disabled":false,"rental_uris":{"android":"levelo://app?vid=b86642f9-2f2d-48ec-b95c-b8d810fd43dc","ios":"levelo://app?vid=b86642f9-2f2d-48ec-b95c-b8d810fd43dc"},"vehicle_type_id":"4","last_reported":1731766073,"current_range_meters":16000,"station_id":"ce4bhi12rcd13ifvqfp0","pricing_plan_id":"cebpf4jnsgd1na2vs0mg"},{"bike_id":"ea7992b1-b9b1-4db6-b30e-f8a949143da5","system_id":"levelo_inurba_marseille","lat":43.29915,"lon":5.37468,"is_reserved":false,"is_disabled":false,"rental_uris":{"android":"levelo://app?vid=ea7992b1-b9b1-4db6-b30e-f8a949143da5","ios":"levelo://app?vid=ea7992b1-b9b1-4db6-b30e-f8a949143da5"},"vehicle_type_id":"4","last_reported":1731766073,"current_range_meters":14400,"station_id":"ce4bgjh2rcd13ifvqbg0","pricing_plan_id":"cebpf4jnsgd1na2vs0mg"},{"bike_id":"759859b2-a463-4911-a3d7-bee890d7af85","system_id":"levelo_inurba_marseille","lat":43.30151,"lon":5.37429,"is_reserved":false,"is_disabled":false,"rental_uris":{"android":"levelo://app?vid=759859b2-a463-4911-a3d7-bee890d7af85","ios":"levelo://app?vid=759859b2-a463-4911-a3d7-bee890d7af85"},"vehicle_type_id":"4","last_reported":1731766073,"current_range_meters":31200,"station_id":"ce4bgs92rcd13ifvqcc0","pricing_plan_id":"cebpf4jnsgd1na2vs0mg"},{"bike_id":"abe727e0-e4aa-4ca2-aecb-423aab99ca1e","system_id":"levelo_inurba_marseille","lat":43.28936,"lon":5.36642,"is_reserved":false,"is_disabled":false,"rental_uris":{"android":"levelo://app?vid=abe727e0-e4aa-4ca2-aecb-423aab99ca1e","ios":"levelo://app?vid=abe727e0-e4aa-4ca2-aecb-423aab99ca1e"},"vehicle_type_id":"4","last_reported":1731766073,"current_range_meters":20400,"station_id":"ce4bhap2rcd13ifvqek0","pricing_plan_id":"cebpf4jnsgd1na2vs0mg"},{"bike_id":"eb9a84f5-6092-4dc4-a3c0-a07efb437c77","system_id":"levelo_inurba_marseille","lat":43.33776,"lon":5.37434,"is_reserved":false,"is_disabled":false,"rental_uris":{"android":"levelo://app?vid=eb9a84f5-6092-4dc4-a3c0-a07efb437c77","ios":"levelo://app?vid=eb9a84f5-6092-4dc4-a3c0-a07efb437c77"},"vehicle_type_id":"4","last_reported":1731766073,"current_range_meters":38800,"station_id":"","pricing_plan_id":"cebpf4jnsgd1na2vs0mg"},{"bike_id":"a57fb143-973c-47ab-ad9f-272f194992ef","system_id":"levelo_inurba_marseille","lat":43.23153,"lon":5.43706,"is_reserved":false,"is_disabled":false,"rental_uris":{"android":"levelo://app?vid=a57fb143-973c-47ab-ad9f-272f194992ef","ios":"levelo://app?vid=a57fb143-973c-47ab-ad9f-272f194992ef"},"vehicle_type_id":"4","last_reported":1731766073,"current_range_meters":12400,"station_id":"ce4bhmp2rcd13ifvqgog","pricing_plan_id":"cebpf4jnsgd1na2vs0mg"},{"bike_id":"57ab2634-cebb-4511-9ec6-293246055226","system_id":"levelo_inurba_marseille","lat":43.30944,"lon":5.39037,"is_reserved":false,"is_disabled":false,"rental_uris":{"android":"levelo://app?vid=57ab2634-cebb-4511-9ec6-293246055226","ios":"levelo://app?vid=57ab2634-cebb-4511-9ec6-293246055226"},"vehicle_type_id":"4","last_reported":1731766073,"current_range_meters":18000,"station_id":"ce4bgup2rcd13ifvqco0","pricing_plan_id":"cebpf4jnsgd1na2vs0mg"},{"bike_id":"417133a1-2200-4403-9da9-4790bc5cc00a","system_id":"levelo_inurba_marseille","lat":43.24181,"lon":5.39727,"is_reserved":false,"is_disabled":false,"rental_uris":{"android":"levelo://app?vid=417133a1-2200-4403-9da9-4790bc5cc00a","ios":"levelo://app?vid=417133a1-2200-4403-9da9-4790bc5cc00a"},"vehicle_type_id":"4","last_reported":1731766073,"current_range_meters":24000,"station_id":"ce4bhn12rcd13ifvqgpg","pricing_plan_id":"cebpf4jnsgd1na2vs0mg"},{"bike_id":"03fff82a-e494-4645-9dd5-4a513db56fbd","system_id":"levelo_inurba_marseille","lat":43.337444,"lon":5.374475,"is_reserved":false,"is_disabled":false,"rental_uris":{"android":"levelo://app?vid=03fff82a-e494-4645-9dd5-4a513db56fbd","ios":"levelo://app?vid=03fff82a-e494-4645-9dd5-4a513db56fbd"},"vehicle_type_id":"4","last_reported":1731766073,"current_range_meters":35600,"station_id":"","pricing_plan_id":"cebpf4jnsgd1na2vs0mg"},{"bike_id":"22ea48db-755d-43c3-a7d2-0beff01815d8","system_id":"levelo_inurba_marseille","lat":43.33765,"lon":5.37451,"is_reserved":false,"is_disabled":false,"rental_uris":{"android":"levelo://app?vid=22ea48db-755d-43c3-a7d2-0beff01815d8","ios":"levelo://app?vid=22ea48db-755d-43c3-a7d2-0beff01815d8"},"vehicle_type_id":"4","last_reported":1731766073,"current_range_meters":24800,"station_id":"","pricing_plan_id":"cebpf4jnsgd1na2vs0mg"},{"bike_id":"22f5a156-de14-44de-a01c-a534633e0d8c","system_id":"levelo_inurba_marseille","lat":43.30333,"lon":5.40439,"is_reserved":false,"is_disabled":false,"rental_uris":{"android":"levelo://app?vid=22f5a156-de14-44de-a01c-a534633e0d8c","ios":"levelo://app?vid=22f5a156-de14-44de-a01c-a534633e0d8c"},"vehicle_type_id":"4","last_reported":1731766073,"current_range_meters":11600,"station_id":"ce4bh012rcd13ifvqd10","pricing_plan_id":"cebpf4jnsgd1na2vs0mg"},{"bike_id":"fcef6eeb-4dde-4e40-83d9-cfc202782f23","system_id":"levelo_inurba_marseille","lat":43.239643,"lon":5.36629,"is_reserved":false,"is_disabled":false,"rental_uris":{"android":"levelo://app?vid=fcef6eeb-4dde-4e40-83d9-cfc202782f23","ios":"levelo://app?vid=fcef6eeb-4dde-4e40-83d9-cfc202782f23"},"vehicle_type_id":"4","last_reported":1731766073,"current_range_meters":34000,"station_id":"ce4bhi12rcd13ifvqfp0","pricing_plan_id":"cebpf4jnsgd1na2vs0mg"},{"bike_id":"ef094887-f471-495f-9178-827cc8194c7f","system_id":"levelo_inurba_marseille","lat":43.328555,"lon":5.365461,"is_reserved":false,"is_disabled":false,"rental_uris":{"android":"levelo://app?vid=ef094887-f471-495f-9178-827cc8194c7f","ios":"levelo://app?vid=ef094887-f471-495f-9178-827cc8194c7f"},"vehicle_type_id":"4","last_reported":1731766073,"current_range_meters":18800,"station_id":"ce4bhs12rcd13ifvqhvg","pricing_plan_id":"cebpf4jnsgd1na2vs0mg"},{"bike_id":"be719b89-06e6-43f0-adc8-e075cf3dcab3","system_id":"levelo_inurba_marseille","lat":43.27321,"lon":5.39092,"is_reserved":false,"is_disabled":false,"rental_uris":{"android":"levelo://app?vid=be719b89-06e6-43f0-adc8-e075cf3dcab3","ios":"levelo://app?vid=be719b89-06e6-43f0-adc8-e075cf3dcab3"},"vehicle_type_id":"4","last_reported":1731766073,"current_range_meters":22800,"station_id":"ce4bhgp2rcd13ifvqfe0","pricing_plan_id":"cebpf4jnsgd1na2vs0mg"},{"bike_id":"45156642-b4c8-42eb-82f7-126129e68141","system_id":"levelo_inurba_marseille","lat":43.25937,"lon":5.40905,"is_reserved":false,"is_disabled":false,"rental_uris":{"android":"levelo://app?vid=45156642-b4c8-42eb-82f7-126129e68141","ios":"levelo://app?vid=45156642-b4c8-42eb-82f7-126129e68141"},"vehicle_type_id":"4","last_reported":1731766073,"current_range_meters":24000,"station_id":"ce4bhm92rcd13ifvqglg","pricing_plan_id":"cebpf4jnsgd1na2vs0mg"},{"bike_id":"eb0b6258-25b5-4174-825d-16bccd206154","system_id":"levelo_inurba_marseille","lat":43.33027,"lon":5.39039,"is_reserved":false,"is_disabled":false,"rental_uris":{"android":"levelo://app?vid=eb0b6258-25b5-4174-825d-16bccd206154","ios":"levelo://app?vid=eb0b6258-25b5-4174-825d-16bccd206154"},"vehicle_type_id":"4","last_reported":1731766073,"current_range_meters":9200,"station_id":"ce4bhr92rcd13ifvqhrg","pricing_plan_id":"cebpf4jnsgd1na2vs0mg"},{"bike_id":"ca655f3b-8380-4045-b3f8-8acaa0e83ede","system_id":"levelo_inurba_marseille","lat":43.33739,"lon":5.37423,"is_reserved":false,"is_disabled":false,"rental_uris":{"android":"levelo://app?vid=ca655f3b-8380-4045-b3f8-8acaa0e83ede","ios":"levelo://app?vid=ca655f3b-8380-4045-b3f8-8acaa0e83ede"},"vehicle_type_id":"4","last_reported":1731766073,"current_range_meters":37600,"station_id":"","pricing_plan_id":"cebpf4jnsgd1na2vs0mg"},{"bike_id":"5014fbfa-bad7-4021-9ce1-84cdb1dd00c0","system_id":"levelo_inurba_marseille","lat":43.26555,"lon":5.37288,"is_reserved":false,"is_disabled":false,"rental_uris":{"android":"levelo://app?vid=5014fbfa-bad7-4021-9ce1-84cdb1dd00c0","ios":"levelo://app?vid=5014fbfa-bad7-4021-9ce1-84cdb1dd00c0"},"vehicle_type_id":"4","last_reported":1731766073,"current_range_meters":17600,"station_id":"ce4bhg12rcd13ifvqf70","pricing_plan_id":"cebpf4jnsgd1na2vs0mg"},{"bike_id":"2e298671-80fc-4060-bd3b-6941ddfa052f","system_id":"levelo_inurba_marseille","lat":43.32484,"lon":5.36563,"is_reserved":false,"is_disabled":false,"rental_uris":{"android":"levelo://app?vid=2e298671-80fc-4060-bd3b-6941ddfa052f","ios":"levelo://app?vid=2e298671-80fc-4060-bd3b-6941ddfa052f"},"vehicle_type_id":"4","last_reported":1731766073,"current_range_meters":38800,"station_id":"ce4bhs12rcd13ifvqhvg","pricing_plan_id":"cebpf4jnsgd1na2vs0mg"},{"bike_id":"a6b8c285-acc9-4039-9531-1aae39136a33","system_id":"levelo_inurba_marseille","lat":43.312042,"lon":5.367348,"is_reserved":false,"is_disabled":false,"rental_uris":{"android":"levelo://app?vid=a6b8c285-acc9-4039-9531-1aae39136a33","ios":"levelo://app?vid=a6b8c285-acc9-4039-9531-1aae39136a33"},"vehicle_type_id":"4","last_reported":1731766073,"current_range_meters":14800,"station_id":"","pricing_plan_id":"cebpf4jnsgd1na2vs0mg"},{"bike_id":"10149536-9b7f-48bb-bf23-246dad3c9a95","system_id":"levelo_inurba_marseille","lat":43.24072,"lon":5.37765,"is_reserved":false,"is_disabled":false,"rental_uris":{"android":"levelo://app?vid=10149536-9b7f-48bb-bf23-246dad3c9a95","ios":"levelo://app?vid=10149536-9b7f-48bb-bf23-246dad3c9a95"},"vehicle_type_id":"4","last_reported":1731766073,"current_range_meters":38800,"station_id":"ce4bhnp2rcd13ifvqgvg","pricing_plan_id":"cebpf4jnsgd1na2vs0mg"},{"bike_id":"5c254126-8805-4ed8-9520-9f63561143b3","system_id":"levelo_inurba_marseille","lat":43.241664,"lon":5.364004,"is_reserved":false,"is_disabled":false,"rental_uris":{"android":"levelo://app?vid=5c254126-8805-4ed8-9520-9f63561143b3","ios":"levelo://app?vid=5c254126-8805-4ed8-9520-9f63561143b3"},"vehicle_type_id":"4","last_reported":1731766073,"current_range_meters":20800,"station_id":"cpo36qri1sfpv3e86is0","pricing_plan_id":"cebpf4jnsgd1na2vs0mg"},{"bike_id":"95189523-b163-438d-9cb1-f7dc4435500d","system_id":"levelo_inurba_marseille","lat":43.32339,"lon":5.40618,"is_reserved":false,"is_disabled":false,"rental_uris":{"android":"levelo://app?vid=95189523-b163-438d-9cb1-f7dc4435500d","ios":"levelo://app?vid=95189523-b163-438d-9cb1-f7dc4435500d"},"vehicle_type_id":"4","last_reported":1731766073,"current_range_meters":39200,"station_id":"ce4bhq92rcd13ifvqhjg","pricing_plan_id":"cebpf4jnsgd1na2vs0mg"},{"bike_id":"b271597d-5ece-410e-8c8a-ffbcbd25c7b4","system_id":"levelo_inurba_marseille","lat":43.27179,"lon":5.40993,"is_reserved":false,"is_disabled":false,"rental_uris":{"android":"levelo://app?vid=b271597d-5ece-410e-8c8a-ffbcbd25c7b4","ios":"levelo://app?vid=b271597d-5ece-410e-8c8a-ffbcbd25c7b4"},"vehicle_type_id":"4","last_reported":1731766073,"current_range_meters":38800,"station_id":"ce4bhl12rcd13ifvqgf0","pricing_plan_id":"cebpf4jnsgd1na2vs0mg"},{"bike_id":"87bf5346-39f2-4ca4-9d60-63459e91e7f3","system_id":"levelo_inurba_marseille","lat":43.29692,"lon":5.37306,"is_reserved":false,"is_disabled":false,"rental_uris":{"android":"levelo://app?vid=87bf5346-39f2-4ca4-9d60-63459e91e7f3","ios":"levelo://app?vid=87bf5346-39f2-4ca4-9d60-63459e91e7f3"},"vehicle_type_id":"4","last_reported":1731766073,"current_range_meters":37600,"station_id":"ce4bgk12rcd13ifvqbj0","pricing_plan_id":"cebpf4jnsgd1na2vs0mg"},{"bike_id":"8c7da8f2-cd66-489f-8440-50adf3901eba","system_id":"levelo_inurba_marseille","lat":43.28148,"lon":5.42644,"is_reserved":false,"is_disabled":false,"rental_uris":{"android":"levelo://app?vid=8c7da8f2-cd66-489f-8440-50adf3901eba","ios":"levelo://app?vid=8c7da8f2-cd66-489f-8440-50adf3901eba"},"vehicle_type_id":"4","last_reported":1731766073,"current_range_meters":38800,"station_id":"ce4bhnh2rcd13ifvqgug","pricing_plan_id":"cebpf4jnsgd1na2vs0mg"},{"bike_id":"f2edb5e5-07bb-4a2f-b458-46f08afdaac7","system_id":"levelo_inurba_marseille","lat":43.308,"lon":5.38153,"is_reserved":false,"is_disabled":false,"rental_uris":{"android":"levelo://app?vid=f2edb5e5-07bb-4a2f-b458-46f08afdaac7","ios":"levelo://app?vid=f2edb5e5-07bb-4a2f-b458-46f08afdaac7"},"vehicle_type_id":"4","last_reported":1731766073,"current_range_meters":32400,"station_id":"ce4bgt12rcd13ifvqce0","pricing_plan_id":"cebpf4jnsgd1na2vs0mg"},{"bike_id":"2444e142-9846-4628-93c4-3f1e852bd532","system_id":"levelo_inurba_marseille","lat":43.29868,"lon":5.3973,"is_reserved":false,"is_disabled":false,"rental_uris":{"android":"levelo://app?vid=2444e142-9846-4628-93c4-3f1e852bd532","ios":"levelo://app?vid=2444e142-9846-4628-93c4-3f1e852bd532"},"vehicle_type_id":"4","last_reported":1731766073,"current_range_meters":30800,"station_id":"ce4bh0h2rcd13ifvqd50","pricing_plan_id":"cebpf4jnsgd1na2vs0mg"},{"bike_id":"1ae8fe75-00ad-479b-a755-74d45d76bfbe","system_id":"levelo_inurba_marseille","lat":43.24167,"lon":5.36401,"is_reserved":false,"is_disabled":false,"rental_uris":{"android":"levelo://app?vid=1ae8fe75-00ad-479b-a755-74d45d76bfbe","ios":"levelo://app?vid=1ae8fe75-00ad-479b-a755-74d45d76bfbe"},"vehicle_type_id":"4","last_reported":1731766073,"current_range_meters":6000,"station_id":"cpo36qri1sfpv3e86is0","pricing_plan_id":"cebpf4jnsgd1na2vs0mg"},{"bike_id":"b497c4c1-47c5-46df-89b4-3a0f01d4aeca","system_id":"levelo_inurba_marseille","lat":43.32112,"lon":5.36781,"is_reserved":false,"is_disabled":false,"rental_uris":{"android":"levelo://app?vid=b497c4c1-47c5-46df-89b4-3a0f01d4aeca","ios":"levelo://app?vid=b497c4c1-47c5-46df-89b4-3a0f01d4aeca"},"vehicle_type_id":"4","last_reported":1731766073,"current_range_meters":28400,"station_id":"ce4bhrh2rcd13ifvqhug","pricing_plan_id":"cebpf4jnsgd1na2vs0mg"},{"bike_id":"92ac4858-87d6-4ceb-8f6e-004635a816a8","system_id":"levelo_inurba_marseille","lat":43.27792,"lon":5.40724,"is_reserved":false,"is_disabled":false,"rental_uris":{"android":"levelo://app?vid=92ac4858-87d6-4ceb-8f6e-004635a816a8","ios":"levelo://app?vid=92ac4858-87d6-4ceb-8f6e-004635a816a8"},"vehicle_type_id":"4","last_reported":1731766073,"current_range_meters":31200,"station_id":"ce4bhnh2rcd13ifvqgtg","pricing_plan_id":"cebpf4jnsgd1na2vs0mg"},{"bike_id":"41b56539-4f7d-46d8-9fa9-3498d0d1f67f","system_id":"levelo_inurba_marseille","lat":43.24171,"lon":5.36402,"is_reserved":false,"is_disabled":false,"rental_uris":{"android":"levelo://app?vid=41b56539-4f7d-46d8-9fa9-3498d0d1f67f","ios":"levelo://app?vid=41b56539-4f7d-46d8-9fa9-3498d0d1f67f"},"vehicle_type_id":"4","last_reported":1731766073,"current_range_meters":19600,"station_id":"cpo36qri1sfpv3e86is0","pricing_plan_id":"cebpf4jnsgd1na2vs0mg"},{"bike_id":"4f072872-5e38-4a4b-9811-1d9e60a837c4","system_id":"levelo_inurba_marseille","lat":43.23063,"lon":5.35484,"is_reserved":false,"is_disabled":false,"rental_uris":{"android":"levelo://app?vid=4f072872-5e38-4a4b-9811-1d9e60a837c4","ios":"levelo://app?vid=4f072872-5e38-4a4b-9811-1d9e60a837c4"},"vehicle_type_id":"4","last_reported":1731766073,"current_range_meters":10800,"station_id":"cpo3342slgdg3j2ifvpg","pricing_plan_id":"cebpf4jnsgd1na2vs0mg"},{"bike_id":"53751755-9a86-4873-ad03-3aba22a44df1","system_id":"levelo_inurba_marseille","lat":43.30143,"lon":5.37412,"is_reserved":false,"is_disabled":false,"rental_uris":{"android":"levelo://app?vid=53751755-9a86-4873-ad03-3aba22a44df1","ios":"levelo://app?vid=53751755-9a86-4873-ad03-3aba22a44df1"},"vehicle_type_id":"4","last_reported":1731766073,"current_range_meters":38800,"station_id":"ce4bgs92rcd13ifvqcc0","pricing_plan_id":"cebpf4jnsgd1na2vs0mg"},{"bike_id":"476a3d4e-5382-4a7e-8179-c50853ff7f2b","system_id":"levelo_inurba_marseille","lat":43.30322,"lon":5.40433,"is_reserved":false,"is_disabled":false,"rental_uris":{"android":"levelo://app?vid=476a3d4e-5382-4a7e-8179-c50853ff7f2b","ios":"levelo://app?vid=476a3d4e-5382-4a7e-8179-c50853ff7f2b"},"vehicle_type_id":"4","last_reported":1731766073,"current_range_meters":16400,"station_id":"ce4bh012rcd13ifvqd10","pricing_plan_id":"cebpf4jnsgd1na2vs0mg"},{"bike_id":"e79c1d71-1ce6-4d60-8fff-1fc1acef8ee4","system_id":"levelo_inurba_marseille","lat":43.23959,"lon":5.3663,"is_reserved":false,"is_disabled":false,"rental_uris":{"android":"levelo://app?vid=e79c1d71-1ce6-4d60-8fff-1fc1acef8ee4","ios":"levelo://app?vid=e79c1d71-1ce6-4d60-8fff-1fc1acef8ee4"},"vehicle_type_id":"4","last_reported":1731766073,"current_range_meters":24000,"station_id":"ce4bhi12rcd13ifvqfp0","pricing_plan_id":"cebpf4jnsgd1na2vs0mg"},{"bike_id":"892adb6d-c134-4f63-a947-4eee2b92b71d","system_id":"levelo_inurba_marseille","lat":43.23065,"lon":5.35493,"is_reserved":false,"is_disabled":false,"rental_uris":{"android":"levelo://app?vid=892adb6d-c134-4f63-a947-4eee2b92b71d","ios":"levelo://app?vid=892adb6d-c134-4f63-a947-4eee2b92b71d"},"vehicle_type_id":"4","last_reported":1731766073,"current_range_meters":22800,"station_id":"cpo3342slgdg3j2ifvpg","pricing_plan_id":"cebpf4jnsgd1na2vs0mg"},{"bike_id":"a84f5389-258d-4508-9c0f-32ee5d326b43","system_id":"levelo_inurba_marseille","lat":43.33767,"lon":5.37475,"is_reserved":false,"is_disabled":false,"rental_uris":{"android":"levelo://app?vid=a84f5389-258d-4508-9c0f-32ee5d326b43","ios":"levelo://app?vid=a84f5389-258d-4508-9c0f-32ee5d326b43"},"vehicle_type_id":"4","last_reported":1731766073,"current_range_meters":34000,"station_id":"","pricing_plan_id":"cebpf4jnsgd1na2vs0mg"},{"bike_id":"abd30864-2475-4360-bc40-d981a00e2d64","system_id":"levelo_inurba_marseille","lat":43.33754,"lon":5.37434,"is_reserved":false,"is_disabled":false,"rental_uris":{"android":"levelo://app?vid=abd30864-2475-4360-bc40-d981a00e2d64","ios":"levelo://app?vid=abd30864-2475-4360-bc40-d981a00e2d64"},"vehicle_type_id":"4","last_reported":1731766073,"current_range_meters":4800,"station_id":"","pricing_plan_id":"cebpf4jnsgd1na2vs0mg"},{"bike_id":"24420a27-91b5-4a69-bca6-e715ce78c1dc","system_id":"levelo_inurba_marseille","lat":43.24673,"lon":5.38163,"is_reserved":false,"is_disabled":false,"rental_uris":{"android":"levelo://app?vid=24420a27-91b5-4a69-bca6-e715ce78c1dc","ios":"levelo://app?vid=24420a27-91b5-4a69-bca6-e715ce78c1dc"},"vehicle_type_id":"4","last_reported":1731766073,"current_range_meters":27200,"station_id":"ce4bhih2rcd13ifvqfr0","pricing_plan_id":"cebpf4jnsgd1na2vs0mg"},{"bike_id":"94c6d5f5-7330-4885-a65d-9982b2ce0416","system_id":"levelo_inurba_marseille","lat":43.30274,"lon":5.37699,"is_reserved":false,"is_disabled":false,"rental_uris":{"android":"levelo://app?vid=94c6d5f5-7330-4885-a65d-9982b2ce0416","ios":"levelo://app?vid=94c6d5f5-7330-4885-a65d-9982b2ce0416"},"vehicle_type_id":"4","last_reported":1731766073,"current_range_meters":30800,"station_id":"ce4bguh2rcd13ifvqcj0","pricing_plan_id":"cebpf4jnsgd1na2vs0mg"},{"bike_id":"381f16d3-ee59-4129-b037-21fe0f7ff042","system_id":"levelo_inurba_marseille","lat":43.27321,"lon":5.3909,"is_reserved":false,"is_disabled":false,"rental_uris":{"android":"levelo://app?vid=381f16d3-ee59-4129-b037-21fe0f7ff042","ios":"levelo://app?vid=381f16d3-ee59-4129-b037-21fe0f7ff042"},"vehicle_type_id":"4","last_reported":1731766073,"current_range_meters":22000,"station_id":"ce4bhgp2rcd13ifvqfe0","pricing_plan_id":"cebpf4jnsgd1na2vs0mg"},{"bike_id":"b5ce9235-4ffb-4d40-a9ab-7ab7ce5a79f6","system_id":"levelo_inurba_marseille","lat":43.24813,"lon":5.37465,"is_reserved":false,"is_disabled":false,"rental_uris":{"android":"levelo://app?vid=b5ce9235-4ffb-4d40-a9ab-7ab7ce5a79f6","ios":"levelo://app?vid=b5ce9235-4ffb-4d40-a9ab-7ab7ce5a79f6"},"vehicle_type_id":"4","last_reported":1731766073,"current_range_meters":38800,"station_id":"ce4bhgh2rcd13ifvqfb0","pricing_plan_id":"cebpf4jnsgd1na2vs0mg"},{"bike_id":"1905e423-9623-404a-bf2e-53fad8283f76","system_id":"levelo_inurba_marseille","lat":43.28422,"lon":5.34985,"is_reserved":false,"is_disabled":false,"rental_uris":{"android":"levelo://app?vid=1905e423-9623-404a-bf2e-53fad8283f76","ios":"levelo://app?vid=1905e423-9623-404a-bf2e-53fad8283f76"},"vehicle_type_id":"4","last_reported":1731766073,"current_range_meters":38800,"station_id":"ce4bhbh2rcd13ifvqepg","pricing_plan_id":"cebpf4jnsgd1na2vs0mg"},{"bike_id":"6d6992bf-ade3-4a22-a168-306dafdc4544","system_id":"levelo_inurba_marseille","lat":43.2417,"lon":5.36406,"is_reserved":false,"is_disabled":false,"rental_uris":{"android":"levelo://app?vid=6d6992bf-ade3-4a22-a168-306dafdc4544","ios":"levelo://app?vid=6d6992bf-ade3-4a22-a168-306dafdc4544"},"vehicle_type_id":"4","last_reported":1731766073,"current_range_meters":33600,"station_id":"cpo36qri1sfpv3e86is0","pricing_plan_id":"cebpf4jnsgd1na2vs0mg"},{"bike_id":"4fbc023c-2d87-4b86-af62-95acaf1bfc89","system_id":"levelo_inurba_marseille","lat":43.337444,"lon":5.374475,"is_reserved":false,"is_disabled":false,"rental_uris":{"android":"levelo://app?vid=4fbc023c-2d87-4b86-af62-95acaf1bfc89","ios":"levelo://app?vid=4fbc023c-2d87-4b86-af62-95acaf1bfc89"},"vehicle_type_id":"4","last_reported":1731766073,"current_range_meters":37600,"station_id":"","pricing_plan_id":"cebpf4jnsgd1na2vs0mg"},{"bike_id":"074c6971-4ae7-4906-8673-1607af29a7e1","system_id":"levelo_inurba_marseille","lat":43.25092,"lon":5.39516,"is_reserved":false,"is_disabled":false,"rental_uris":{"android":"levelo://app?vid=074c6971-4ae7-4906-8673-1607af29a7e1","ios":"levelo://app?vid=074c6971-4ae7-4906-8673-1607af29a7e1"},"vehicle_type_id":"4","last_reported":1731766073,"current_range_meters":32800,"station_id":"ce4bhm12rcd13ifvqgkg","pricing_plan_id":"cebpf4jnsgd1na2vs0mg"},{"bike_id":"82e06f43-23f3-48c0-a76e-31b1190f8399","system_id":"levelo_inurba_marseille","lat":43.29793,"lon":5.38088,"is_reserved":false,"is_disabled":false,"rental_uris":{"android":"levelo://app?vid=82e06f43-23f3-48c0-a76e-31b1190f8399","ios":"levelo://app?vid=82e06f43-23f3-48c0-a76e-31b1190f8399"},"vehicle_type_id":"4","last_reported":1731766073,"current_range_meters":19200,"station_id":"ce4bgip2rcd13ifvqbb0","pricing_plan_id":"cebpf4jnsgd1na2vs0mg"},{"bike_id":"9c296a6a-3537-476e-bef1-f588dbe0c1b0","system_id":"levelo_inurba_marseille","lat":43.33021,"lon":5.39042,"is_reserved":false,"is_disabled":false,"rental_uris":{"android":"levelo://app?vid=9c296a6a-3537-476e-bef1-f588dbe0c1b0","ios":"levelo://app?vid=9c296a6a-3537-476e-bef1-f588dbe0c1b0"},"vehicle_type_id":"4","last_reported":1731766073,"current_range_meters":36800,"station_id":"ce4bhr92rcd13ifvqhrg","pricing_plan_id":"cebpf4jnsgd1na2vs0mg"},{"bike_id":"d2d470e9-4048-41a6-b022-9edf4f9199dc","system_id":"levelo_inurba_marseille","lat":43.29931,"lon":5.36555,"is_reserved":false,"is_disabled":false,"rental_uris":{"android":"levelo://app?vid=d2d470e9-4048-41a6-b022-9edf4f9199dc","ios":"levelo://app?vid=d2d470e9-4048-41a6-b022-9edf4f9199dc"},"vehicle_type_id":"4","last_reported":1731766073,"current_range_meters":28000,"station_id":"ce4bgm92rcd13ifvqbr0","pricing_plan_id":"cebpf4jnsgd1na2vs0mg"},{"bike_id":"ce99c29d-25d3-43f4-80cb-ec44086b7861","system_id":"levelo_inurba_marseille","lat":43.23964,"lon":5.36632,"is_reserved":false,"is_disabled":false,"rental_uris":{"android":"levelo://app?vid=ce99c29d-25d3-43f4-80cb-ec44086b7861","ios":"levelo://app?vid=ce99c29d-25d3-43f4-80cb-ec44086b7861"},"vehicle_type_id":"4","last_reported":1731766073,"current_range_meters":39200,"station_id":"ce4bhi12rcd13ifvqfp0","pricing_plan_id":"cebpf4jnsgd1na2vs0mg"},{"bike_id":"59cfb2d8-1d07-42b7-ac1c-581526c1969d","system_id":"levelo_inurba_marseille","lat":43.28268,"lon":5.3507,"is_reserved":false,"is_disabled":false,"rental_uris":{"android":"levelo://app?vid=59cfb2d8-1d07-42b7-ac1c-581526c1969d","ios":"levelo://app?vid=59cfb2d8-1d07-42b7-ac1c-581526c1969d"},"vehicle_type_id":"4","last_reported":1731766073,"current_range_meters":34000,"station_id":"ce4bhbp2rcd13ifvqerg","pricing_plan_id":"cebpf4jnsgd1na2vs0mg"},{"bike_id":"70e089d0-d0b0-4a36-ba28-4f51863a6eb9","system_id":"levelo_inurba_marseille","lat":43.23195,"lon":5.35553,"is_reserved":false,"is_disabled":false,"rental_uris":{"android":"levelo://app?vid=70e089d0-d0b0-4a36-ba28-4f51863a6eb9","ios":"levelo://app?vid=70e089d0-d0b0-4a36-ba28-4f51863a6eb9"},"vehicle_type_id":"4","last_reported":1731766073,"current_range_meters":31200,"station_id":"ce4bhu92rcd13ifvqi70","pricing_plan_id":"cebpf4jnsgd1na2vs0mg"},{"bike_id":"131b8274-e09c-4887-b209-57f6e657a225","system_id":"levelo_inurba_marseille","lat":43.29922,"lon":5.36543,"is_reserved":false,"is_disabled":false,"rental_uris":{"android":"levelo://app?vid=131b8274-e09c-4887-b209-57f6e657a225","ios":"levelo://app?vid=131b8274-e09c-4887-b209-57f6e657a225"},"vehicle_type_id":"4","last_reported":1731766073,"current_range_meters":19200,"station_id":"ce4bgm92rcd13ifvqbr0","pricing_plan_id":"cebpf4jnsgd1na2vs0mg"},{"bike_id":"4ee4605c-22f2-4532-b44d-f5fb03fd5142","system_id":"levelo_inurba_marseille","lat":43.30806,"lon":5.4352,"is_reserved":false,"is_disabled":false,"rental_uris":{"android":"levelo://app?vid=4ee4605c-22f2-4532-b44d-f5fb03fd5142","ios":"levelo://app?vid=4ee4605c-22f2-4532-b44d-f5fb03fd5142"},"vehicle_type_id":"4","last_reported":1731766073,"current_range_meters":15200,"station_id":"ce4bhph2rcd13ifvqheg","pricing_plan_id":"cebpf4jnsgd1na2vs0mg"},{"bike_id":"9e8ca279-4a67-4f3e-b6c4-ee54ea49d165","system_id":"levelo_inurba_marseille","lat":43.284302,"lon":5.380754,"is_reserved":false,"is_disabled":false,"rental_uris":{"android":"levelo://app?vid=9e8ca279-4a67-4f3e-b6c4-ee54ea49d165","ios":"levelo://app?vid=9e8ca279-4a67-4f3e-b6c4-ee54ea49d165"},"vehicle_type_id":"4","last_reported":1731766073,"current_range_meters":25600,"station_id":"ce4bh412rcd13ifvqdr0","pricing_plan_id":"cebpf4jnsgd1na2vs0mg"},{"bike_id":"fbe79682-82e1-46f0-94a0-15e5a23a59bb","system_id":"levelo_inurba_marseille","lat":43.28805,"lon":5.35289,"is_reserved":false,"is_disabled":false,"rental_uris":{"android":"levelo://app?vid=fbe79682-82e1-46f0-94a0-15e5a23a59bb","ios":"levelo://app?vid=fbe79682-82e1-46f0-94a0-15e5a23a59bb"},"vehicle_type_id":"4","last_reported":1731766073,"current_range_meters":19600,"station_id":"","pricing_plan_id":"cebpf4jnsgd1na2vs0mg"},{"bike_id":"085e9a7e-02bb-4b08-91db-6d7aab402f51","system_id":"levelo_inurba_marseille","lat":43.27369,"lon":5.36259,"is_reserved":false,"is_disabled":false,"rental_uris":{"android":"levelo://app?vid=085e9a7e-02bb-4b08-91db-6d7aab402f51","ios":"levelo://app?vid=085e9a7e-02bb-4b08-91db-6d7aab402f51"},"vehicle_type_id":"4","last_reported":1731766073,"current_range_meters":38800,"station_id":"ce4bhbh2rcd13ifvqeo0","pricing_plan_id":"cebpf4jnsgd1na2vs0mg"},{"bike_id":"d4d0dfed-2412-4b99-b5b3-53ef9335c158","system_id":"levelo_inurba_marseille","lat":43.26562,"lon":5.3901,"is_reserved":false,"is_disabled":false,"rental_uris":{"android":"levelo://app?vid=d4d0dfed-2412-4b99-b5b3-53ef9335c158","ios":"levelo://app?vid=d4d0dfed-2412-4b99-b5b3-53ef9335c158"},"vehicle_type_id":"4","last_reported":1731766073,"current_range_meters":36000,"station_id":"ce4bhe12rcd13ifvqf30","pricing_plan_id":"cebpf4jnsgd1na2vs0mg"},{"bike_id":"f56c400e-b0a6-4813-a634-ca04a0049203","system_id":"levelo_inurba_marseille","lat":43.28001,"lon":5.4002,"is_reserved":false,"is_disabled":false,"rental_uris":{"android":"levelo://app?vid=f56c400e-b0a6-4813-a634-ca04a0049203","ios":"levelo://app?vid=f56c400e-b0a6-4813-a634-ca04a0049203"},"vehicle_type_id":"4","last_reported":1731766073,"current_range_meters":28000,"station_id":"ce4bho92rcd13ifvqh4g","pricing_plan_id":"cebpf4jnsgd1na2vs0mg"},{"bike_id":"022f478e-da93-4eda-9d1b-2d0e36905c07","system_id":"levelo_inurba_marseille","lat":43.33759,"lon":5.37434,"is_reserved":false,"is_disabled":false,"rental_uris":{"android":"levelo://app?vid=022f478e-da93-4eda-9d1b-2d0e36905c07","ios":"levelo://app?vid=022f478e-da93-4eda-9d1b-2d0e36905c07"},"vehicle_type_id":"4","last_reported":1731766073,"current_range_meters":18000,"station_id":"","pricing_plan_id":"cebpf4jnsgd1na2vs0mg"},{"bike_id":"0851a1e8-2394-42db-9423-1357760d5cf0","system_id":"levelo_inurba_marseille","lat":43.24543,"lon":5.39526,"is_reserved":false,"is_disabled":false,"rental_uris":{"android":"levelo://app?vid=0851a1e8-2394-42db-9423-1357760d5cf0","ios":"levelo://app?vid=0851a1e8-2394-42db-9423-1357760d5cf0"},"vehicle_type_id":"4","last_reported":1731766073,"current_range_meters":17200,"station_id":"ce4bhlp2rcd13ifvqgjg","pricing_plan_id":"cebpf4jnsgd1na2vs0mg"},{"bike_id":"3c7108fb-85fe-43b6-95ce-e6a5e6d34b1a","system_id":"levelo_inurba_marseille","lat":43.33747,"lon":5.39195,"is_reserved":false,"is_disabled":false,"rental_uris":{"android":"levelo://app?vid=3c7108fb-85fe-43b6-95ce-e6a5e6d34b1a","ios":"levelo://app?vid=3c7108fb-85fe-43b6-95ce-e6a5e6d34b1a"},"vehicle_type_id":"4","last_reported":1731766073,"current_range_meters":36000,"station_id":"ce4bhr92rcd13ifvqhsg","pricing_plan_id":"cebpf4jnsgd1na2vs0mg"},{"bike_id":"75bb8f8c-942f-486d-b1ff-c173cba5aef3","system_id":"levelo_inurba_marseille","lat":43.29002,"lon":5.35606,"is_reserved":false,"is_disabled":false,"rental_uris":{"android":"levelo://app?vid=75bb8f8c-942f-486d-b1ff-c173cba5aef3","ios":"levelo://app?vid=75bb8f8c-942f-486d-b1ff-c173cba5aef3"},"vehicle_type_id":"4","last_reported":1731766073,"current_range_meters":16400,"station_id":"ce4bhb92rcd13ifvqen0","pricing_plan_id":"cebpf4jnsgd1na2vs0mg"},{"bike_id":"a1039530-f458-4685-9b7a-6d06efe9f880","system_id":"levelo_inurba_marseille","lat":43.3148,"lon":5.37309,"is_reserved":false,"is_disabled":false,"rental_uris":{"android":"levelo://app?vid=a1039530-f458-4685-9b7a-6d06efe9f880","ios":"levelo://app?vid=a1039530-f458-4685-9b7a-6d06efe9f880"},"vehicle_type_id":"4","last_reported":1731766073,"current_range_meters":33600,"station_id":"ce4bgt12rcd13ifvqcd0","pricing_plan_id":"cebpf4jnsgd1na2vs0mg"},{"bike_id":"251d8918-1250-4853-9293-89ee39d3be92","system_id":"levelo_inurba_marseille","lat":43.33022,"lon":5.39038,"is_reserved":false,"is_disabled":false,"rental_uris":{"android":"levelo://app?vid=251d8918-1250-4853-9293-89ee39d3be92","ios":"levelo://app?vid=251d8918-1250-4853-9293-89ee39d3be92"},"vehicle_type_id":"4","last_reported":1731766073,"current_range_meters":36400,"station_id":"ce4bhr92rcd13ifvqhrg","pricing_plan_id":"cebpf4jnsgd1na2vs0mg"},{"bike_id":"4358c330-e918-4498-b53c-dc1ce95a7581","system_id":"levelo_inurba_marseille","lat":43.31995,"lon":5.38166,"is_reserved":false,"is_disabled":false,"rental_uris":{"android":"levelo://app?vid=4358c330-e918-4498-b53c-dc1ce95a7581","ios":"levelo://app?vid=4358c330-e918-4498-b53c-dc1ce95a7581"},"vehicle_type_id":"4","last_reported":1731766073,"current_range_meters":16000,"station_id":"ce4bhr12rcd13ifvqhpg","pricing_plan_id":"cebpf4jnsgd1na2vs0mg"},{"bike_id":"809471e3-ec39-4f2b-b271-49c8263623d6","system_id":"levelo_inurba_marseille","lat":43.24986,"lon":5.38934,"is_reserved":false,"is_disabled":false,"rental_uris":{"android":"levelo://app?vid=809471e3-ec39-4f2b-b271-49c8263623d6","ios":"levelo://app?vid=809471e3-ec39-4f2b-b271-49c8263623d6"},"vehicle_type_id":"4","last_reported":1731766073,"current_range_meters":39200,"station_id":"ce4bhgp2rcd13ifvqfd0","pricing_plan_id":"cebpf4jnsgd1na2vs0mg"},{"bike_id":"8831f528-9faa-44dd-ac10-3088567bd1bb","system_id":"levelo_inurba_marseille","lat":43.27051,"lon":5.40266,"is_reserved":false,"is_disabled":false,"rental_uris":{"android":"levelo://app?vid=8831f528-9faa-44dd-ac10-3088567bd1bb","ios":"levelo://app?vid=8831f528-9faa-44dd-ac10-3088567bd1bb"},"vehicle_type_id":"4","last_reported":1731766073,"current_range_meters":26000,"station_id":"ce4bhk92rcd13ifvqgc0","pricing_plan_id":"cebpf4jnsgd1na2vs0mg"},{"bike_id":"781bfc50-c624-4482-a039-7dd1d193248a","system_id":"levelo_inurba_marseille","lat":43.27313,"lon":5.3908,"is_reserved":false,"is_disabled":false,"rental_uris":{"android":"levelo://app?vid=781bfc50-c624-4482-a039-7dd1d193248a","ios":"levelo://app?vid=781bfc50-c624-4482-a039-7dd1d193248a"},"vehicle_type_id":"4","last_reported":1731766073,"current_range_meters":36800,"station_id":"ce4bhgp2rcd13ifvqfe0","pricing_plan_id":"cebpf4jnsgd1na2vs0mg"},{"bike_id":"e9f00305-d013-4bf7-a275-1c2350f8b797","system_id":"levelo_inurba_marseille","lat":43.24672,"lon":5.38166,"is_reserved":false,"is_disabled":false,"rental_uris":{"android":"levelo://app?vid=e9f00305-d013-4bf7-a275-1c2350f8b797","ios":"levelo://app?vid=e9f00305-d013-4bf7-a275-1c2350f8b797"},"vehicle_type_id":"4","last_reported":1731766073,"current_range_meters":5600,"station_id":"ce4bhih2rcd13ifvqfr0","pricing_plan_id":"cebpf4jnsgd1na2vs0mg"},{"bike_id":"768d18dd-7fb4-4068-8b77-20bfccb8e4da","system_id":"levelo_inurba_marseille","lat":43.30149,"lon":5.38089,"is_reserved":false,"is_disabled":false,"rental_uris":{"android":"levelo://app?vid=768d18dd-7fb4-4068-8b77-20bfccb8e4da","ios":"levelo://app?vid=768d18dd-7fb4-4068-8b77-20bfccb8e4da"},"vehicle_type_id":"4","last_reported":1731766073,"current_range_meters":30800,"station_id":"ce4bgjp2rcd13ifvqbh0","pricing_plan_id":"cebpf4jnsgd1na2vs0mg"},{"bike_id":"e05ed463-3534-4fec-bf69-3626d174144e","system_id":"levelo_inurba_marseille","lat":43.29899,"lon":5.43664,"is_reserved":false,"is_disabled":false,"rental_uris":{"android":"levelo://app?vid=e05ed463-3534-4fec-bf69-3626d174144e","ios":"levelo://app?vid=e05ed463-3534-4fec-bf69-3626d174144e"},"vehicle_type_id":"4","last_reported":1731766073,"current_range_meters":6800,"station_id":"ce4bhpp2rcd13ifvqhfg","pricing_plan_id":"cebpf4jnsgd1na2vs0mg"},{"bike_id":"1068dd57-4562-4705-8a73-e5798b9ebefe","system_id":"levelo_inurba_marseille","lat":43.32668,"lon":5.40996,"is_reserved":false,"is_disabled":false,"rental_uris":{"android":"levelo://app?vid=1068dd57-4562-4705-8a73-e5798b9ebefe","ios":"levelo://app?vid=1068dd57-4562-4705-8a73-e5798b9ebefe"},"vehicle_type_id":"4","last_reported":1731766073,"current_range_meters":38800,"station_id":"ce4bhpp2rcd13ifvqhgg","pricing_plan_id":"cebpf4jnsgd1na2vs0mg"},{"bike_id":"ec284a24-8fc9-495f-bedb-5554b3e5a319","system_id":"levelo_inurba_marseille","lat":43.29531,"lon":5.38547,"is_reserved":false,"is_disabled":false,"rental_uris":{"android":"levelo://app?vid=ec284a24-8fc9-495f-bedb-5554b3e5a319","ios":"levelo://app?vid=ec284a24-8fc9-495f-bedb-5554b3e5a319"},"vehicle_type_id":"4","last_reported":1731766073,"current_range_meters":38400,"station_id":"ce4bgih2rcd13ifvqba0","pricing_plan_id":"cebpf4jnsgd1na2vs0mg"},{"bike_id":"6f776ef1-2b17-481c-93f8-a7bacce09291","system_id":"levelo_inurba_marseille","lat":43.29005,"lon":5.35615,"is_reserved":false,"is_disabled":false,"rental_uris":{"android":"levelo://app?vid=6f776ef1-2b17-481c-93f8-a7bacce09291","ios":"levelo://app?vid=6f776ef1-2b17-481c-93f8-a7bacce09291"},"vehicle_type_id":"4","last_reported":1731766073,"current_range_meters":38000,"station_id":"ce4bhb92rcd13ifvqen0","pricing_plan_id":"cebpf4jnsgd1na2vs0mg"},{"bike_id":"52019929-e5c6-4e5f-9236-d9bfed5636d7","system_id":"levelo_inurba_marseille","lat":43.28703,"lon":5.39996,"is_reserved":false,"is_disabled":false,"rental_uris":{"android":"levelo://app?vid=52019929-e5c6-4e5f-9236-d9bfed5636d7","ios":"levelo://app?vid=52019929-e5c6-4e5f-9236-d9bfed5636d7"},"vehicle_type_id":"4","last_reported":1731766073,"current_range_meters":3200,"station_id":"ce4bho92rcd13ifvqh3g","pricing_plan_id":"cebpf4jnsgd1na2vs0mg"},{"bike_id":"5cf61122-4769-467d-9f80-d9094f3518b0","system_id":"levelo_inurba_marseille","lat":43.28152,"lon":5.42645,"is_reserved":false,"is_disabled":false,"rental_uris":{"android":"levelo://app?vid=5cf61122-4769-467d-9f80-d9094f3518b0","ios":"levelo://app?vid=5cf61122-4769-467d-9f80-d9094f3518b0"},"vehicle_type_id":"4","last_reported":1731766073,"current_range_meters":24000,"station_id":"ce4bhnh2rcd13ifvqgug","pricing_plan_id":"cebpf4jnsgd1na2vs0mg"},{"bike_id":"319cea05-1f81-41ec-906a-c2d164a240c3","system_id":"levelo_inurba_marseille","lat":43.26783,"lon":5.39413,"is_reserved":false,"is_disabled":false,"rental_uris":{"android":"levelo://app?vid=319cea05-1f81-41ec-906a-c2d164a240c3","ios":"levelo://app?vid=319cea05-1f81-41ec-906a-c2d164a240c3"},"vehicle_type_id":"4","last_reported":1731766073,"current_range_meters":19600,"station_id":"ce4bhh12rcd13ifvqfg0","pricing_plan_id":"cebpf4jnsgd1na2vs0mg"},{"bike_id":"c5757bbb-9fe7-4618-9c40-b7e74dbdb6ca","system_id":"levelo_inurba_marseille","lat":43.32364,"lon":5.38883,"is_reserved":false,"is_disabled":false,"rental_uris":{"android":"levelo://app?vid=c5757bbb-9fe7-4618-9c40-b7e74dbdb6ca","ios":"levelo://app?vid=c5757bbb-9fe7-4618-9c40-b7e74dbdb6ca"},"vehicle_type_id":"4","last_reported":1731766073,"current_range_meters":26800,"station_id":"ce4bhqp2rcd13ifvqhog","pricing_plan_id":"cebpf4jnsgd1na2vs0mg"},