{"last_updated":1718993470,"ttl":30,"version":"2.2","data":{"bikes":[{"bike_id":"ed14ec74-1f1c-4cfd-8d26-59aa92fdca8a","system_id":"levelo_inurba_marseille","lat":43.31366,"lon":5.36787,"is_reserved":false,"is_disabled":false,"rental_uris":{"android":"levelo://app?vid=ed14ec74-1f1c-4cfd-8d26-59aa92fdca8a","ios":"levelo://app?vid=ed14ec74-1f1c-4cfd-8d26-59aa92fdca8a"},"vehicle_type_id":"4","last_reported":1718993470,"current_range_meters":27600,"station_id":"","pricing_plan_id":"cebpf4jnsgd1na2vs0mg"},{"bike_id":"fae8df50-01e7-40ba-bbb0-5edda9024a7a","system_id":"levelo_inurba_marseille","lat":43.314811,"lon":5.373104,"is_reserved":false,"is_disabled":false,"rental_uris":{"android":"levelo://app?vid=fae8df50-01e7-40ba-bbb0-5edda9024a7a","ios":"levelo://app?vid=fae8df50-01e7-40ba-bbb0-5edda9024a7a"},"vehicle_type_id":"4","last_reported":1718993470,"current_range_meters":4800,"station_id":"ce4bgt12rcd13ifvqcd0","pricing_plan_id":"cebpf4jnsgd1na2vs0mg"},{"bike_id":"b53f4aa5-a7e9-40aa-9d0c-cc626f41fa7a","system_id":"levelo_inurba_marseille","lat":43.314811,"lon":5.373103,"is_reserved":false,"is_disabled":false,"rental_uris":{"android":"levelo://app?vid=b53f4aa5-a7e9-40aa-9d0c-cc626f41fa7a","ios":"levelo://app?vid=b53f4aa5-a7e9-40aa-9d0c-cc626f41fa7a"},"vehicle_type_id":"4","last_reported":1718993470,"current_range_meters":0,"station_id":"ce4bgt12rcd13ifvqcd0","pricing_plan_id":"cebpf4jnsgd1na2vs0mg"},{"bike_id":"20f31c62-307b-4c16-93b6-6fcc5accd677","system_id":"levelo_inurba_marseille","lat":43.314601,"lon":5.373697,"is_reserved":false,"is_disabled":false,"rental_uris":{"android":"levelo://app?vid=20f31c62-307b-4c16-93b6-6fcc5accd677","ios":"levelo://app?vid=20f31c62-307b-4c16-93b6-6fcc5accd677"},"vehicle_type_id":"4","last_reported":1718993470,"current_range_meters":16400,"station_id":"","pricing_plan_id":"cebpf4jnsgd1na2vs0mg"},{"bike_id":"1376b510-cfa3-43bd-a87b-80de2d99a14d","system_id":"levelo_inurba_marseille","lat":43.305368,"lon":5.367343,"is_reserved":false,"is_disabled":false,"rental_uris":{"android":"levelo://app?vid=1376b510-cfa3-43bd-a87b-80de2d99a14d","ios":"levelo://app?vid=1376b510-cfa3-43bd-a87b-80de2d99a14d"},"vehicle_type_id":"4","last_reported":1718993470,"current_range_meters":18000,"station_id":"ce4bgrp2rcd13ifvqc9g","pricing_plan_id":"cebpf4jnsgd1na2vs0mg"},{"bike_id":"034dd26c-1f54-4d63-81a2-402e5c2edb39","system_id":"levelo_inurba_marseille","lat":43.305706,"lon":5.365654,"is_reserved":false,"is_disabled":false,"rental_uris":{"android":"levelo://app?vid=034dd26c-1f54-4d63-81a2-402e5c2edb39","ios":"levelo://app?vid=034dd26c-1f54-4d63-81a2-402e5c2edb39"},"vehicle_type_id":"4","last_reported":1718993470,"current_range_meters":25600,"station_id":"ce4bgs12rcd13ifvqcag","pricing_plan_id":"cebpf4jnsgd1na2vs0mg"},{"bike_id":"3f089c3b-3bc7-4c83-b280-0952dba7d860","system_id":"levelo_inurba_marseille","lat":43.311125,"lon":5.377624,"is_reserved":false,"is_disabled":false,"rental_uris":{"android":"levelo://app?vid=3f089c3b-3bc7-4c83-b280-0952dba7d860","ios":"levelo://app?vid=3f089c3b-3bc7-4c83-b280-0952dba7d860"},"vehicle_type_id":"4","last_reported":1718993470,"current_range_meters":400,"station_id":"ce4bgt92rcd13ifvqcg0","pricing_plan_id":"cebpf4jnsgd1na2vs0mg"},{"bike_id":"788ba7cf-d035-4674-b237-56a477298d01","system_id":"levelo_inurba_marseille","lat":43.30472,"lon":5.36917,"is_reserved":false,"is_disabled":false,"rental_uris":{"android":"levelo://app?vid=788ba7cf-d035-4674-b237-56a477298d01","ios":"levelo://app?vid=788ba7cf-d035-4674-b237-56a477298d01"},"vehicle_type_id":"4","last_reported":1718993470,"current_range_meters":10400,"station_id":"","pricing_plan_id":"cebpf4jnsgd1na2vs0mg"},{"bike_id":"99fde18e-8f1d-4ee9-80d7-9f38702dab9d","system_id":"levelo_inurba_marseille","lat":43.317075,"lon":5.377367,"is_reserved":false,"is_disabled":false,"rental_uris":{"android":"levelo://app?vid=99fde18e-8f1d-4ee9-80d7-9f38702dab9d","ios":"levelo://app?vid=99fde18e-8f1d-4ee9-80d7-9f38702dab9d"},"vehicle_type_id":"4","last_reported":1718993470,"current_range_meters":18400,"station_id":"ce4bgth2rcd13ifvqch0","pricing_plan_id":"cebpf4jnsgd1na2vs0mg"},{"bike_id":"355cf518-9154-45dd-860d-8b6810d7dcd3","system_id":"levelo_inurba_marseille","lat":43.317075,"lon":5.377367,"is_reserved":false,"is_disabled":false,"rental_uris":{"android":"levelo://app?vid=355cf518-9154-45dd-860d-8b6810d7dcd3","ios":"levelo://app?vid=355cf518-9154-45dd-860d-8b6810d7dcd3"},"vehicle_type_id":"4","last_reported":1718993470,"current_range_meters":22000,"station_id":"ce4bgth2rcd13ifvqch0","pricing_plan_id":"cebpf4jnsgd1na2vs0mg"},{"bike_id":"3eb42490-9bc3-4621-af64-daf05a0a7ac2","system_id":"levelo_inurba_marseille","lat":43.286039,"lon":5.370679,"is_reserved":false,"is_disabled":false,"rental_uris":{"android":"levelo://app?vid=3eb42490-9bc3-4621-af64-daf05a0a7ac2","ios":"levelo://app?vid=3eb42490-9bc3-4621-af64-daf05a0a7ac2"},"vehicle_type_id":"4","last_reported":1718993470,"current_range_meters":2000,"station_id":"ce4bht12rcd13ifvqi60","pricing_plan_id":"cebpf4jnsgd1na2vs0mg"},{"bike_id":"7ea2cd47-ca2c-4f27-a77d-40fbb1807cf4","system_id":"levelo_inurba_marseille","lat":43.30304,"lon":5.368987,"is_reserved":false,"is_disabled":false,"rental_uris":{"android":"levelo://app?vid=7ea2cd47-ca2c-4f27-a77d-40fbb1807cf4","ios":"levelo://app?vid=7ea2cd47-ca2c-4f27-a77d-40fbb1807cf4"},"vehicle_type_id":"4","last_reported":1718993470,"current_range_meters":22400,"station_id":"ce4bgqh2rcd13ifvqc5g","pricing_plan_id":"cebpf4jnsgd1na2vs0mg"},{"bike_id":"1aa9382d-bd55-4aff-8971-b23615fccdae","system_id":"levelo_inurba_marseille","lat":43.31076,"lon":5.38131,"is_reserved":false,"is_disabled":false,"rental_uris":{"android":"levelo://app?vid=1aa9382d-bd55-4aff-8971-b23615fccdae","ios":"levelo://app?vid=1aa9382d-bd55-4aff-8971-b23615fccdae"},"vehicle_type_id":"4","last_reported":1718993470,"current_range_meters":4400,"station_id":"","pricing_plan_id":"cebpf4jnsgd1na2vs0mg"},{"bike_id":"ee2e7a65-db29-4546-8e8e-2c5a9a534917","system_id":"levelo_inurba_marseille","lat":43.308012,"lon":5.381511,"is_reserved":false,"is_disabled":false,"rental_uris":{"android":"levelo://app?vid=ee2e7a65-db29-4546-8e8e-2c5a9a534917","ios":"levelo://app?vid=ee2e7a65-db29-4546-8e8e-2c5a9a534917"},"vehicle_type_id":"4","last_reported":1718993470,"current_range_meters":0,"station_id":"ce4bgt12rcd13ifvqce0","pricing_plan_id":"cebpf4jnsgd1na2vs0mg"},{"bike_id":"39ea8e28-3de3-4d52-8c74-6616a9f37906","system_id":"levelo_inurba_marseille","lat":43.308012,"lon":5.381511,"is_reserved":false,"is_disabled":false,"rental_uris":{"android":"levelo://app?vid=39ea8e28-3de3-4d52-8c74-6616a9f37906","ios":"levelo://app?vid=39ea8e28-3de3-4d52-8c74-6616a9f37906"},"vehicle_type_id":"4","last_reported":1718993470,"current_range_meters":0,"station_id":"ce4bgt12rcd13ifvqce0","pricing_plan_id":"cebpf4jnsgd1na2vs0mg"},{"bike_id":"a3351bc9-57e5-40a8-a632-fb07b59c3abd","system_id":"levelo_inurba_marseille","lat":43.300903,"lon":5.365452,"is_reserved":false,"is_disabled":false,"rental_uris":{"android":"levelo://app?vid=a3351bc9-57e5-40a8-a632-fb07b59c3abd","ios":"levelo://app?vid=a3351bc9-57e5-40a8-a632-fb07b59c3abd"},"vehicle_type_id":"4","last_reported":1718993470,"current_range_meters":0,"station_id":"","pricing_plan_id":"cebpf4jnsgd1na2vs0mg"},{"bike_id":"0cf4f2e2-150e-4567-bd04-06c956a4df89","system_id":"levelo_inurba_marseille","lat":43.324912,"lon":5.365555,"is_reserved":false,"is_disabled":false,"rental_uris":{"android":"levelo://app?vid=0cf4f2e2-150e-4567-bd04-06c956a4df89","ios":"levelo://app?vid=0cf4f2e2-150e-4567-bd04-06c956a4df89"},"vehicle_type_id":"4","last_reported":1718993470,"current_range_meters":0,"station_id":"ce4bhs12rcd13ifvqhvg","pricing_plan_id":"cebpf4jnsgd1na2vs0mg"},{"bike_id":"8941455c-e145-4650-bede-72c3ee70e200","system_id":"levelo_inurba_marseille","lat":43.301429,"lon":5.37413,"is_reserved":false,"is_disabled":false,"rental_uris":{"android":"levelo://app?vid=8941455c-e145-4650-bede-72c3ee70e200","ios":"levelo://app?vid=8941455c-e145-4650-bede-72c3ee70e200"},"vehicle_type_id":"4","last_reported":1718993470,"current_range_meters":7200,"station_id":"ce4bgs92rcd13ifvqcc0","pricing_plan_id":"cebpf4jnsgd1na2vs0mg"},{"bike_id":"acdb1770-c70a-4d3b-92c8-37ce609968df","system_id":"levelo_inurba_marseille","lat":43.302784,"lon":5.377158,"is_reserved":false,"is_disabled":false,"rental_uris":{"android":"levelo://app?vid=acdb1770-c70a-4d3b-92c8-37ce609968df","ios":"levelo://app?vid=acdb1770-c70a-4d3b-92c8-37ce609968df"},"vehicle_type_id":"4","last_reported":1718993470,"current_range_meters":0,"station_id":"ce4bguh2rcd13ifvqcj0","pricing_plan_id":"cebpf4jnsgd1na2vs0mg"},{"bike_id":"c8d74784-cfa3-4dc0-a55e-c53d6b6b7590","system_id":"levelo_inurba_marseille","lat":43.325262,"lon":5.366216,"is_reserved":false,"is_disabled":false,"rental_uris":{"android":"levelo://app?vid=c8d74784-cfa3-4dc0-a55e-c53d6b6b7590","ios":"levelo://app?vid=c8d74784-cfa3-4dc0-a55e-c53d6b6b7590"},"vehicle_type_id":"4","last_reported":1718993470,"current_range_meters":18000,"station_id":"","pricing_plan_id":"cebpf4jnsgd1na2vs0mg"},{"bike_id":"4f17b089-79cb-4f2e-a7e1-b736df93b457","system_id":"levelo_inurba_marseille","lat":43.31991,"lon":5.3815,"is_reserved":false,"is_disabled":false,"rental_uris":{"android":"levelo://app?vid=4f17b089-79cb-4f2e-a7e1-b736df93b457","ios":"levelo://app?vid=4f17b089-79cb-4f2e-a7e1-b736df93b457"},"vehicle_type_id":"4","last_reported":1718993470,"current_range_meters":0,"station_id":"ce4bhr12rcd13ifvqhpg","pricing_plan_id":"cebpf4jnsgd1na2vs0mg"},{"bike_id":"0909d642-3769-4280-a67d-cfffb46e66f8","system_id":"levelo_inurba_marseille","lat":43.319935,"lon":5.381699,"is_reserved":false,"is_disabled":false,"rental_uris":{"android":"levelo://app?vid=0909d642-3769-4280-a67d-cfffb46e66f8","ios":"levelo://app?vid=0909d642-3769-4280-a67d-cfffb46e66f8"},"vehicle_type_id":"4","last_reported":1718993470,"current_range_meters":0,"station_id":"ce4bhr12rcd13ifvqhpg","pricing_plan_id":"cebpf4jnsgd1na2vs0mg"},{"bike_id":"9e9f31b7-f24d-4c0f-930e-5ca6b12c8923","system_id":"levelo_inurba_marseille","lat":43.319935,"lon":5.381699,"is_reserved":false,"is_disabled":false,"rental_uris":{"android":"levelo://app?vid=9e9f31b7-f24d-4c0f-930e-5ca6b12c8923","ios":"levelo://app?vid=9e9f31b7-f24d-4c0f-930e-5ca6b12c8923"},"vehicle_type_id":"4","last_reported":1718993470,"current_range_meters":6400,"station_id":"ce4bhr12rcd13ifvqhpg","pricing_plan_id":"cebpf4jnsgd1na2vs0mg"},{"bike_id":"6edac2ba-eca9-4052-beda-346b13d39db0","system_id":"levelo_inurba_marseille","lat":43.319935,"lon":5.381699,"is_reserved":false,"is_disabled":false,"rental_uris":{"android":"levelo://app?vid=6edac2ba-eca9-4052-beda-346b13d39db0","ios":"levelo://app?vid=6edac2ba-eca9-4052-beda-346b13d39db0"},"vehicle_type_id":"4","last_reported":1718993470,"current_range_meters":8400,"station_id":"ce4bhr12rcd13ifvqhpg","pricing_plan_id":"cebpf4jnsgd1na2vs0mg"},{"bike_id":"c07aff00-4eae-4c47-9b68-664428730875","system_id":"levelo_inurba_marseille","lat":43.299949,"lon":5.369373,"is_reserved":false,"is_disabled":false,"rental_uris":{"android":"levelo://app?vid=c07aff00-4eae-4c47-9b68-664428730875","ios":"levelo://app?vid=c07aff00-4eae-4c47-9b68-664428730875"},"vehicle_type_id":"4","last_reported":1718993470,"current_range_meters":14000,"station_id":"","pricing_plan_id":"cebpf4jnsgd1na2vs0mg"},{"bike_id":"272118ff-d96f-4880-95f5-89120a46e381","system_id":"levelo_inurba_marseille","lat":43.313571,"lon":5.384829,"is_reserved":false,"is_disabled":false,"rental_uris":{"android":"levelo://app?vid=272118ff-d96f-4880-95f5-89120a46e381","ios":"levelo://app?vid=272118ff-d96f-4880-95f5-89120a46e381"},"vehicle_type_id":"4","last_reported":1718993470,"current_range_meters":2400,"station_id":"ce4bgt92rcd13ifvqcf0","pricing_plan_id":"cebpf4jnsgd1na2vs0mg"},{"bike_id":"b4cb5dd6-050c-4f6d-aae4-b3fe72214632","system_id":"levelo_inurba_marseille","lat":43.29987,"lon":5.37173,"is_reserved":false,"is_disabled":false,"rental_uris":{"android":"levelo://app?vid=b4cb5dd6-050c-4f6d-aae4-b3fe72214632","ios":"levelo://app?vid=b4cb5dd6-050c-4f6d-aae4-b3fe72214632"},"vehicle_type_id":"4","last_reported":1718993470,"current_range_meters":0,"station_id":"ce4bgr92rcd13ifvqc7g","pricing_plan_id":"cebpf4jnsgd1na2vs0mg"},{"bike_id":"d132ad52-8a52-4ca5-a2c0-b4ac53eb5ca2","system_id":"levelo_inurba_marseille","lat":43.299724,"lon":5.371829,"is_reserved":false,"is_disabled":false,"rental_uris":{"android":"levelo://app?vid=d132ad52-8a52-4ca5-a2c0-b4ac53eb5ca2","ios":"levelo://app?vid=d132ad52-8a52-4ca5-a2c0-b4ac53eb5ca2"},"vehicle_type_id":"4","last_reported":1718993470,"current_range_meters":4800,"station_id":"ce4bgr92rcd13ifvqc7g","pricing_plan_id":"cebpf4jnsgd1na2vs0mg"},{"bike_id":"4ed43936-618b-4c1a-9d2d-158cd1f36119","system_id":"levelo_inurba_marseille","lat":43.299724,"lon":5.371829,"is_reserved":false,"is_disabled":false,"rental_uris":{"android":"levelo://app?vid=4ed43936-618b-4c1a-9d2d-158cd1f36119","ios":"levelo://app?vid=4ed43936-618b-4c1a-9d2d-158cd1f36119"},"vehicle_type_id":"4","last_reported":1718993470,"current_range_meters":9200,"station_id":"ce4bgr92rcd13ifvqc7g","pricing_plan_id":"cebpf4jnsgd1na2vs0mg"},{"bike_id":"a7ce4af3-b9a3-4154-b2c6-fe94ff06d9e4","system_id":"levelo_inurba_marseille","lat":43.29936,"lon":5.365468,"is_reserved":false,"is_disabled":false,"rental_uris":{"android":"levelo://app?vid=a7ce4af3-b9a3-4154-b2c6-fe94ff06d9e4","ios":"levelo://app?vid=a7ce4af3-b9a3-4154-b2c6-fe94ff06d9e4"},"vehicle_type_id":"4","last_reported":1718993470,"current_range_meters":14400,"station_id":"","pricing_plan_id":"cebpf4jnsgd1na2vs0mg"},{"bike_id":"317d8bcd-c507-44c7-90d4-18e64ada4394","system_id":"levelo_inurba_marseille","lat":43.305364,"lon":5.384119,"is_reserved":false,"is_disabled":false,"rental_uris":{"android":"levelo://app?vid=317d8bcd-c507-44c7-90d4-18e64ada4394","ios":"levelo://app?vid=317d8bcd-c507-44c7-90d4-18e64ada4394"},"vehicle_type_id":"4","last_reported":1718993470,"current_range_meters":0,"station_id":"ce4bgg92rcd13ifvqb30","pricing_plan_id":"cebpf4jnsgd1na2vs0mg"},{"bike_id":"ed568f5d-125d-41b9-941f-0594938104e1","system_id":"levelo_inurba_marseille","lat":43.298433,"lon":5.362774,"is_reserved":false,"is_disabled":false,"rental_uris":{"android":"levelo://app?vid=ed568f5d-125d-41b9-941f-0594938104e1","ios":"levelo://app?vid=ed568f5d-125d-41b9-941f-0594938104e1"},"vehicle_type_id":"4","last_reported":1718993470,"current_range_meters":16800,"station_id":"ce4bgpp2rcd13ifvqc3g","pricing_plan_id":"cebpf4jnsgd1na2vs0mg"},{"bike_id":"aef17a22-fb9c-4869-bb1c-d743e690aff7","system_id":"levelo_inurba_marseille","lat":43.311722,"lon":5.387247,"is_reserved":false,"is_disabled":false,"rental_uris":{"android":"levelo://app?vid=aef17a22-fb9c-4869-bb1c-d743e690aff7","ios":"levelo://app?vid=aef17a22-fb9c-4869-bb1c-d743e690aff7"},"vehicle_type_id":"4","last_reported":1718993470,"current_range_meters":2800,"station_id":"ce4bgv12rcd13ifvqcp0","pricing_plan_id":"cebpf4jnsgd1na2vs0mg"},{"bike_id":"3ae12918-7860-47be-aac5-d54ae234676a","system_id":"levelo_inurba_marseille","lat":43.322872,"lon":5.382756,"is_reserved":false,"is_disabled":false,"rental_uris":{"android":"levelo://app?vid=3ae12918-7860-47be-aac5-d54ae234676a","ios":"levelo://app?vid=3ae12918-7860-47be-aac5-d54ae234676a"},"vehicle_type_id":"4","last_reported":1718993470,"current_range_meters":31600,"station_id":"ce4bhr12rcd13ifvqhqg","pricing_plan_id":"cebpf4jnsgd1na2vs0mg"},{"bike_id":"c8c99ccb-e750-48c2-a212-83efb5c67582","system_id":"levelo_inurba_marseille","lat":43.297163,"lon":5.365866,"is_reserved":false,"is_disabled":false,"rental_uris":{"android":"levelo://app?vid=c8c99ccb-e750-48c2-a212-83efb5c67582","ios":"levelo://app?vid=c8c99ccb-e750-48c2-a212-83efb5c67582"},"vehicle_type_id":"4","last_reported":1718993470,"current_range_meters":10800,"station_id":"ce4bgn12rcd13ifvqbt0","pricing_plan_id":"cebpf4jnsgd1na2vs0mg"},{"bike_id":"cf6e0ffe-98d5-4e63-8188-ad991595044e","system_id":"levelo_inurba_marseille","lat":43.297163,"lon":5.365866,"is_reserved":false,"is_disabled":false,"rental_uris":{"android":"levelo://app?vid=cf6e0ffe-98d5-4e63-8188-ad991595044e","ios":"levelo://app?vid=cf6e0ffe-98d5-4e63-8188-ad991595044e"},"vehicle_type_id":"4","last_reported":1718993470,"current_range_meters":16000,"station_id":"ce4bgn12rcd13ifvqbt0","pricing_plan_id":"cebpf4jnsgd1na2vs0mg"},{"bike_id":"2106b2d2-c495-44fd-8bc0-80766168ad24","system_id":"levelo_inurba_marseille","lat":43.31592,"lon":5.38948,"is_reserved":false,"is_disabled":false,"rental_uris":{"android":"levelo://app?vid=2106b2d2-c495-44fd-8bc0-80766168ad24","ios":"levelo://app?vid=2106b2d2-c495-44fd-8bc0-80766168ad24"},"vehicle_type_id":"4","last_reported":1718993470,"current_range_meters":20400,"station_id":"","pricing_plan_id":"cebpf4jnsgd1na2vs0mg"},{"bike_id":"1696778b-a63b-48f8-885e-b0beec61df54","system_id":"levelo_inurba_marseille","lat":43.32367,"lon":5.388836,"is_reserved":false,"is_disabled":false,"rental_uris":{"android":"levelo://app?vid=1696778b-a63b-48f8-885e-b0beec61df54","ios":"levelo://app?vid=1696778b-a63b-48f8-885e-b0beec61df54"},"vehicle_type_id":"4","last_reported":1718993470,"current_range_meters":5600,"station_id":"ce4bhqp2rcd13ifvqhog","pricing_plan_id":"cebpf4jnsgd1na2vs0mg"},{"bike_id":"eb6efbae-08eb-4bea-bbf9-7a0bbade8fdf","system_id":"levelo_inurba_marseille","lat":43.29573,"lon":5.367355,"is_reserved":false,"is_disabled":false,"rental_uris":{"android":"levelo://app?vid=eb6efbae-08eb-4bea-bbf9-7a0bbade8fdf","ios":"levelo://app?vid=eb6efbae-08eb-4bea-bbf9-7a0bbade8fdf"},"vehicle_type_id":"4","last_reported":1718993470,"current_range_meters":2800,"station_id":"ce4bgph2rcd13ifvqc2g","pricing_plan_id":"cebpf4jnsgd1na2vs0mg"},{"bike_id":"7e3b6314-17e3-4450-956f-9fac4287ab3d","system_id":"levelo_inurba_marseille","lat":43.29573,"lon":5.367355,"is_reserved":false,"is_disabled":false,"rental_uris":{"android":"levelo://app?vid=7e3b6314-17e3-4450-956f-9fac4287ab3d","ios":"levelo://app?vid=7e3b6314-17e3-4450-956f-9fac4287ab3d"},"vehicle_type_id":"4","last_reported":1718993470,"current_range_meters":20000,"station_id":"ce4bgph2rcd13ifvqc2g","pricing_plan_id":"cebpf4jnsgd1na2vs0mg"},{"bike_id":"acb7bd1f-5049-4b5f-a1af-0016d0478a44","system_id":"levelo_inurba_marseille","lat":43.29573,"lon":5.367355,"is_reserved":false,"is_disabled":false,"rental_uris":{"android":"levelo://app?vid=acb7bd1f-5049-4b5f-a1af-0016d0478a44","ios":"levelo://app?vid=acb7bd1f-5049-4b5f-a1af-0016d0478a44"},"vehicle_type_id":"4","last_reported":1718993470,"current_range_meters":22400,"station_id":"ce4bgph2rcd13ifvqc2g","pricing_plan_id":"cebpf4jnsgd1na2vs0mg"},{"bike_id":"8aef9e7a-bb94-4a06-b5b2-7b07cea637b7","system_id":"levelo_inurba_marseille","lat":43.29675,"lon":5.3777,"is_reserved":false,"is_disabled":false,"rental_uris":{"android":"levelo://app?vid=8aef9e7a-bb94-4a06-b5b2-7b07cea637b7","ios":"levelo://app?vid=8aef9e7a-bb94-4a06-b5b2-7b07cea637b7"},"vehicle_type_id":"4","last_reported":1718993470,"current_range_meters":28000,"station_id":"","pricing_plan_id":"cebpf4jnsgd1na2vs0mg"},{"bike_id":"6a1bcd5e-e8d1-424e-9678-3571b32798e6","system_id":"levelo_inurba_marseille","lat":43.304274,"lon":5.388873,"is_reserved":false,"is_disabled":false,"rental_uris":{"android":"levelo://app?vid=6a1bcd5e-e8d1-424e-9678-3571b32798e6","ios":"levelo://app?vid=6a1bcd5e-e8d1-424e-9678-3571b32798e6"},"vehicle_type_id":"4","last_reported":1718993470,"current_range_meters":400,"station_id":"ce4bgk12rcd13ifvqbi0","pricing_plan_id":"cebpf4jnsgd1na2vs0mg"},{"bike_id":"4e95b0c6-db7a-4255-812a-c9376970296d","system_id":"levelo_inurba_marseille","lat":43.29788,"lon":5.38093,"is_reserved":false,"is_disabled":false,"rental_uris":{"android":"levelo://app?vid=4e95b0c6-db7a-4255-812a-c9376970296d","ios":"levelo://app?vid=4e95b0c6-db7a-4255-812a-c9376970296d"},"vehicle_type_id":"4","last_reported":1718993470,"current_range_meters":20000,"station_id":"ce4bgip2rcd13ifvqbb0","pricing_plan_id":"cebpf4jnsgd1na2vs0mg"},{"bike_id":"4163d659-da0c-410b-a8f6-915cebefcc96","system_id":"levelo_inurba_marseille","lat":43.304274,"lon":5.388873,"is_reserved":false,"is_disabled":false,"rental_uris":{"android":"levelo://app?vid=4163d659-da0c-410b-a8f6-915cebefcc96","ios":"levelo://app?vid=4163d659-da0c-410b-a8f6-915cebefcc96"},"vehicle_type_id":"4","last_reported":1718993470,"current_range_meters":0,"station_id":"ce4bgk12rcd13ifvqbi0","pricing_plan_id":"cebpf4jnsgd1na2vs0mg"},{"bike_id":"34c6d272-7714-406a-bb35-43c8664e1eb8","system_id":"levelo_inurba_marseille","lat":43.295748,"lon":5.37522,"is_reserved":false,"is_disabled":false,"rental_uris":{"android":"levelo://app?vid=34c6d272-7714-406a-bb35-43c8664e1eb8","ios":"levelo://app?vid=34c6d272-7714-406a-bb35-43c8664e1eb8"},"vehicle_type_id":"4","last_reported":1718993470,"current_range_meters":29600,"station_id":"ce4bgh92rcd13ifvqb50","pricing_plan_id":"cebpf4jnsgd1na2vs0mg"},{"bike_id":"7209189b-337d-49bf-ba74-3dc2c2df1ffe","system_id":"levelo_inurba_marseille","lat":43.296277,"lon":5.377108,"is_reserved":false,"is_disabled":false,"rental_uris":{"android":"levelo://app?vid=7209189b-337d-49bf-ba74-3dc2c2df1ffe","ios":"levelo://app?vid=7209189b-337d-49bf-ba74-3dc2c2df1ffe"},"vehicle_type_id":"4","last_reported":1718993470,"current_range_meters":10400,"station_id":"ce4bgi92rcd13ifvqb90","pricing_plan_id":"cebpf4jnsgd1na2vs0mg"},{"bike_id":"beb3ffc8-8675-4a31-8336-4dedc9a860e1","system_id":"levelo_inurba_marseille","lat":43.296277,"lon":5.377108,"is_reserved":false,"is_disabled":false,"rental_uris":{"android":"levelo://app?vid=beb3ffc8-8675-4a31-8336-4dedc9a860e1","ios":"levelo://app?vid=beb3ffc8-8675-4a31-8336-4dedc9a860e1"},"vehicle_type_id":"4","last_reported":1718993470,"current_range_meters":27200,"station_id":"ce4bgi92rcd13ifvqb90","pricing_plan_id":"cebpf4jnsgd1na2vs0mg"},{"bike_id":"b308046e-b83f-4519-98d3-7007466a6dfc","system_id":"levelo_inurba_marseille","lat":43.29621,"lon":5.3772,"is_reserved":false,"is_disabled":false,"rental_uris":{"android":"levelo://app?vid=b308046e-b83f-4519-98d3-7007466a6dfc","ios":"levelo://app?vid=b308046e-b83f-4519-98d3-7007466a6dfc"},"vehicle_type_id":"4","last_reported":1718993470,"current_range_meters":0,"station_id":"ce4bgi92rcd13ifvqb90","pricing_plan_id":"cebpf4jnsgd1na2vs0mg"},{"bike_id":"b9b1ce4e-e540-4733-b64e-d4c2431ed3a1","system_id":"levelo_inurba_marseille","lat":43.296277,"lon":5.377108,"is_reserved":false,"is_disabled":false,"rental_uris":{"android":"levelo://app?vid=b9b1ce4e-e540-4733-b64e-d4c2431ed3a1","ios":"levelo://app?vid=b9b1ce4e-e540-4733-b64e-d4c2431ed3a1"},"vehicle_type_id":"4","last_reported":1718993470,"current_range_meters":27600,"station_id":"ce4bgi92rcd13ifvqb90","pricing_plan_id":"cebpf4jnsgd1na2vs0mg"},{"bike_id":"9b4138ee-0f4b-4906-ad0e-7d0e0f8b1724","system_id":"levelo_inurba_marseille","lat":43.29614,"lon":5.3771,"is_reserved":false,"is_disabled":false,"rental_uris":{"android":"levelo://app?vid=9b4138ee-0f4b-4906-ad0e-7d0e0f8b1724","ios":"levelo://app?vid=9b4138ee-0f4b-4906-ad0e-7d0e0f8b1724"},"vehicle_type_id":"4","last_reported":1718993470,"current_range_meters":0,"station_id":"ce4bgi92rcd13ifvqb90","pricing_plan_id":"cebpf4jnsgd1na2vs0mg"},{"bike_id":"07fc44e3-3b91-45af-aa6c-ae3e2ac899cb","system_id":"levelo_inurba_marseille","lat":43.296263,"lon":5.377094,"is_reserved":false,"is_disabled":false,"rental_uris":{"android":"levelo://app?vid=07fc44e3-3b91-45af-aa6c-ae3e2ac899cb","ios":"levelo://app?vid=07fc44e3-3b91-45af-aa6c-ae3e2ac899cb"},"vehicle_type_id":"4","last_reported":1718993470,"current_range_meters":2800,"station_id":"ce4bgi92rcd13ifvqb90","pricing_plan_id":"cebpf4jnsgd1na2vs0mg"},{"bike_id":"36b3446f-8be6-48d6-b6d4-ba769397db06","system_id":"levelo_inurba_marseille","lat":43.295279,"lon":5.375048,"is_reserved":false,"is_disabled":false,"rental_uris":{"android":"levelo://app?vid=36b3446f-8be6-48d6-b6d4-ba769397db06","ios":"levelo://app?vid=36b3446f-8be6-48d6-b6d4-ba769397db06"},"vehicle_type_id":"4","last_reported":1718993470,"current_range_meters":800,"station_id":"ce4bgkp2rcd13ifvqbmg","pricing_plan_id":"cebpf4jnsgd1na2vs0mg"},{"bike_id":"e34a4c34-d0b8-4297-9388-912b0ef339e8","system_id":"levelo_inurba_marseille","lat":43.304363,"lon":5.389266,"is_reserved":false,"is_disabled":false,"rental_uris":{"android":"levelo://app?vid=e34a4c34-d0b8-4297-9388-912b0ef339e8","ios":"levelo://app?vid=e34a4c34-d0b8-4297-9388-912b0ef339e8"},"vehicle_type_id":"4","last_reported":1718993470,"current_range_meters":14000,"station_id":"","pricing_plan_id":"cebpf4jnsgd1na2vs0mg"},{"bike_id":"58d66370-417a-4cd6-bd93-a641510f8b71","system_id":"levelo_inurba_marseille","lat":43.299724,"lon":5.384848,"is_reserved":false,"is_disabled":false,"rental_uris":{"android":"levelo://app?vid=58d66370-417a-4cd6-bd93-a641510f8b71","ios":"levelo://app?vid=58d66370-417a-4cd6-bd93-a641510f8b71"},"vehicle_type_id":"4","last_reported":1718993470,"current_range_meters":0,"station_id":"ce4bgj92rcd13ifvqbd0","pricing_plan_id":"cebpf4jnsgd1na2vs0mg"},{"bike_id":"76c2f823-e70e-4ce6-a72a-f27b44b66dd6","system_id":"levelo_inurba_marseille","lat":43.32367,"lon":5.388836,"is_reserved":false,"is_disabled":false,"rental_uris":{"android":"levelo://app?vid=76c2f823-e70e-4ce6-a72a-f27b44b66dd6","ios":"levelo://app?vid=76c2f823-e70e-4ce6-a72a-f27b44b66dd6"},"vehicle_type_id":"4","last_reported":1718993470,"current_range_meters":10000,"station_id":"ce4bhqp2rcd13ifvqhog","pricing_plan_id":"cebpf4jnsgd1na2vs0mg"},{"bike_id":"4558b884-9019-49b8-af4d-b6a0294a224c","system_id":"levelo_inurba_marseille","lat":43.29602,"lon":5.381084,"is_reserved":false,"is_disabled":false,"rental_uris":{"android":"levelo://app?vid=4558b884-9019-49b8-af4d-b6a0294a224c","ios":"levelo://app?vid=4558b884-9019-49b8-af4d-b6a0294a224c"},"vehicle_type_id":"4","last_reported":1718993470,"current_range_meters":0,"station_id":"ce4bgl12rcd13ifvqbo0","pricing_plan_id":"cebpf4jnsgd1na2vs0mg"},{"bike_id":"f9d84d2e-be1f-4b06-b4d2-14e4d07d0d60","system_id":"levelo_inurba_marseille","lat":43.29601,"lon":5.381084,"is_reserved":false,"is_disabled":false,"rental_uris":{"android":"levelo://app?vid=f9d84d2e-be1f-4b06-b4d2-14e4d07d0d60","ios":"levelo://app?vid=f9d84d2e-be1f-4b06-b4d2-14e4d07d0d60"},"vehicle_type_id":"4","last_reported":1718993470,"current_range_meters":0,"station_id":"ce4bgl12rcd13ifvqbo0","pricing_plan_id":"cebpf4jnsgd1na2vs0mg"},{"bike_id":"02c9cee3-134e-497e-9708-237b95561488","system_id":"levelo_inurba_marseille","lat":43.29307,"lon":5.37169,"is_reserved":false,"is_disabled":false,"rental_uris":{"android":"levelo://app?vid=02c9cee3-134e-497e-9708-237b95561488","ios":"levelo://app?vid=02c9cee3-134e-497e-9708-237b95561488"},"vehicle_type_id":"4","last_reported":1718993470,"current_range_meters":0,"station_id":"ce4bgh92rcd13ifvqb40","pricing_plan_id":"cebpf4jnsgd1na2vs0mg"},{"bike_id":"6384a140-2fad-4a33-b0b1-b470849ee46f","system_id":"levelo_inurba_marseille","lat":43.292749,"lon":5.368402,"is_reserved":false,"is_disabled":false,"rental_uris":{"android":"levelo://app?vid=6384a140-2fad-4a33-b0b1-b470849ee46f","ios":"levelo://app?vid=6384a140-2fad-4a33-b0b1-b470849ee46f"},"vehicle_type_id":"4","last_reported":1718993470,"current_range_meters":5600,"station_id":"ce4bhbp2rcd13ifvqesg","pricing_plan_id":"cebpf4jnsgd1na2vs0mg"},{"bike_id":"c9443ceb-e8c0-496b-b949-84ebd05e2555","system_id":"levelo_inurba_marseille","lat":43.29747,"lon":5.385398,"is_reserved":false,"is_disabled":false,"rental_uris":{"android":"levelo://app?vid=c9443ceb-e8c0-496b-b949-84ebd05e2555","ios":"levelo://app?vid=c9443ceb-e8c0-496b-b949-84ebd05e2555"},"vehicle_type_id":"4","last_reported":1718993470,"current_range_meters":0,"station_id":"","pricing_plan_id":"cebpf4jnsgd1na2vs0mg"},{"bike_id":"41aec1c8-f278-42e6-a429-e325c61a0664","system_id":"levelo_inurba_marseille","lat":43.29294,"lon":5.37453,"is_reserved":false,"is_disabled":false,"rental_uris":{"android":"levelo://app?vid=41aec1c8-f278-42e6-a429-e325c61a0664","ios":"levelo://app?vid=41aec1c8-f278-42e6-a429-e325c61a0664"},"vehicle_type_id":"4","last_reported":1718993470,"current_range_meters":0,"station_id":"ce4bgi12rcd13ifvqb70","pricing_plan_id":"cebpf4jnsgd1na2vs0mg"},{"bike_id":"c9a9a5c1-add8-48a2-82e7-6111f4e8bd1a","system_id":"levelo_inurba_marseille","lat":43.29292,"lon":5.3745,"is_reserved":false,"is_disabled":false,"rental_uris":{"android":"levelo://app?vid=c9a9a5c1-add8-48a2-82e7-6111f4e8bd1a","ios":"levelo://app?vid=c9a9a5c1-add8-48a2-82e7-6111f4e8bd1a"},"vehicle_type_id":"4","last_reported":1718993470,"current_range_meters":0,"station_id":"ce4bgi12rcd13ifvqb70","pricing_plan_id":"cebpf4jnsgd1na2vs0mg"},{"bike_id":"8da8a2bd-5c18-408e-80f7-b48d6ca3737d","system_id":"levelo_inurba_marseille","lat":43.2936,"lon":5.37835,"is_reserved":false,"is_disabled":false,"rental_uris":{"android":"levelo://app?vid=8da8a2bd-5c18-408e-80f7-b48d6ca3737d","ios":"levelo://app?vid=8da8a2bd-5c18-408e-80f7-b48d6ca3737d"},"vehicle_type_id":"4","last_reported":1718993470,"current_range_meters":0,"station_id":"ce4bgjh2rcd13ifvqbf0","pricing_plan_id":"cebpf4jnsgd1na2vs0mg"},{"bike_id":"155b4498-5c67-465b-b39e-d19647d29d4b","system_id":"levelo_inurba_marseille","lat":43.290319,"lon":5.375732,"is_reserved":false,"is_disabled":false,"rental_uris":{"android":"levelo://app?vid=155b4498-5c67-465b-b39e-d19647d29d4b","ios":"levelo://app?vid=155b4498-5c67-465b-b39e-d19647d29d4b"},"vehicle_type_id":"4","last_reported":1718993470,"current_range_meters":0,"station_id":"ce4bh692rcd13ifvqe90","pricing_plan_id":"cebpf4jnsgd1na2vs0mg"},{"bike_id":"aa976675-ca5a-4abf-b475-c0868e12e469","system_id":"levelo_inurba_marseille","lat":43.292005,"lon":5.357875,"is_reserved":false,"is_disabled":false,"rental_uris":{"android":"levelo://app?vid=aa976675-ca5a-4abf-b475-c0868e12e469","ios":"levelo://app?vid=aa976675-ca5a-4abf-b475-c0868e12e469"},"vehicle_type_id":"4","last_reported":1718993470,"current_range_meters":0,"station_id":"ce4bhb12rcd13ifvqel0","pricing_plan_id":"cebpf4jnsgd1na2vs0mg"},{"bike_id":"df6310bb-dabe-472f-834b-db746f73dbd4","system_id":"levelo_inurba_marseille","lat":43.291994,"lon":5.357886,"is_reserved":false,"is_disabled":false,"rental_uris":{"android":"levelo://app?vid=df6310bb-dabe-472f-834b-db746f73dbd4","ios":"levelo://app?vid=df6310bb-dabe-472f-834b-db746f73dbd4"},"vehicle_type_id":"4","last_reported":1718993470,"current_range_meters":0,"station_id":"ce4bhb12rcd13ifvqel0","pricing_plan_id":"cebpf4jnsgd1na2vs0mg"},{"bike_id":"086670a8-ee52-4d1c-bd02-1934c70a4387","system_id":"levelo_inurba_marseille","lat":43.313291,"lon":5.396838,"is_reserved":false,"is_disabled":false,"rental_uris":{"android":"levelo://app?vid=086670a8-ee52-4d1c-bd02-1934c70a4387","ios":"levelo://app?vid=086670a8-ee52-4d1c-bd02-1934c70a4387"},"vehicle_type_id":"4","last_reported":1718993470,"current_range_meters":9600,"station_id":"ce4bgvp2rcd13ifvqcu0","pricing_plan_id":"cebpf4jnsgd1na2vs0mg"},{"bike_id":"4d5a6442-641a-4195-9600-12e0f4d8c494","system_id":"levelo_inurba_marseille","lat":43.309047,"lon":5.396551,"is_reserved":false,"is_disabled":false,"rental_uris":{"android":"levelo://app?vid=4d5a6442-641a-4195-9600-12e0f4d8c494","ios":"levelo://app?vid=4d5a6442-641a-4195-9600-12e0f4d8c494"},"vehicle_type_id":"4","last_reported":1718993470,"current_range_meters":2000,"station_id":"ce4bh012rcd13ifvqcv0","pricing_plan_id":"cebpf4jnsgd1na2vs0mg"},{"bike_id":"2feab749-c1b3-46b6-be32-bd3a4489764e","system_id":"levelo_inurba_marseille","lat":43.2954,"lon":5.38538,"is_reserved":false,"is_disabled":false,"rental_uris":{"android":"levelo://app?vid=2feab749-c1b3-46b6-be32-bd3a4489764e","ios":"levelo://app?vid=2feab749-c1b3-46b6-be32-bd3a4489764e"},"vehicle_type_id":"4","last_reported":1718993470,"current_range_meters":22400,"station_id":"ce4bgih2rcd13ifvqba0","pricing_plan_id":"cebpf4jnsgd1na2vs0mg"},{"bike_id":"031c2f31-90b2-427d-84fa-fd658fb0dab5","system_id":"levelo_inurba_marseille","lat":43.29529,"lon":5.385581,"is_reserved":false,"is_disabled":false,"rental_uris":{"android":"levelo://app?vid=031c2f31-90b2-427d-84fa-fd658fb0dab5","ios":"levelo://app?vid=031c2f31-90b2-427d-84fa-fd658fb0dab5"},"vehicle_type_id":"4","last_reported":1718993470,"current_range_meters":27600,"station_id":"ce4bgih2rcd13ifvqba0","pricing_plan_id":"cebpf4jnsgd1na2vs0mg"},{"bike_id":"4ad37af8-316f-4868-8bae-a9b2e59d991e","system_id":"levelo_inurba_marseille","lat":43.29529,"lon":5.385581,"is_reserved":false,"is_disabled":false,"rental_uris":{"android":"levelo://app?vid=4ad37af8-316f-4868-8bae-a9b2e59d991e","ios":"levelo://app?vid=4ad37af8-316f-4868-8bae-a9b2e59d991e"},"vehicle_type_id":"4","last_reported":1718993470,"current_range_meters":8000,"station_id":"ce4bgih2rcd13ifvqba0","pricing_plan_id":"cebpf4jnsgd1na2vs0mg"},{"bike_id":"5ded1b48-6be7-4cd2-b0ee-a5a9c6ece931","system_id":"levelo_inurba_marseille","lat":43.29534,"lon":5.38535,"is_reserved":false,"is_disabled":false,"rental_uris":{"android":"levelo://app?vid=5ded1b48-6be7-4cd2-b0ee-a5a9c6ece931","ios":"levelo://app?vid=5ded1b48-6be7-4cd2-b0ee-a5a9c6ece931"},"vehicle_type_id":"4","last_reported":1718993470,"current_range_meters":31200,"station_id":"ce4bgih2rcd13ifvqba0","pricing_plan_id":"cebpf4jnsgd1na2vs0mg"},{"bike_id":"da5357ac-3d78-4e37-8f98-693614392ab9","system_id":"levelo_inurba_marseille","lat":43.29529,"lon":5.385581,"is_reserved":false,"is_disabled":false,"rental_uris":{"android":"levelo://app?vid=da5357ac-3d78-4e37-8f98-693614392ab9","ios":"levelo://app?vid=da5357ac-3d78-4e37-8f98-693614392ab9"},"vehicle_type_id":"4","last_reported":1718993470,"current_range_meters":28800,"station_id":"ce4bgih2rcd13ifvqba0","pricing_plan_id":"cebpf4jnsgd1na2vs0mg"},{"bike_id":"cf09fb06-1470-46c2-b9fc-226e4271063c","system_id":"levelo_inurba_marseille","lat":43.29529,"lon":5.385581,"is_reserved":false,"is_disabled":false,"rental_uris":{"android":"levelo://app?vid=cf09fb06-1470-46c2-b9fc-226e4271063c","ios":"levelo://app?vid=cf09fb06-1470-46c2-b9fc-226e4271063c"},"vehicle_type_id":"4","last_reported":1718993470,"current_range_meters":19600,"station_id":"ce4bgih2rcd13ifvqba0","pricing_plan_id":"cebpf4jnsgd1na2vs0mg"},{"bike_id":"9cb16436-92da-4c72-abb8-24ac0add9fc5","system_id":"levelo_inurba_marseille","lat":43.29529,"lon":5.385581,"is_reserved":false,"is_disabled":false,"rental_uris":{"android":"levelo://app?vid=9cb16436-92da-4c72-abb8-24ac0add9fc5","ios":"levelo://app?vid=9cb16436-92da-4c72-abb8-24ac0add9fc5"},"vehicle_type_id":"4","last_reported":1718993470,"current_range_meters":26800,"station_id":"ce4bgih2rcd13ifvqba0","pricing_plan_id":"cebpf4jnsgd1na2vs0mg"},{"bike_id":"50a14c2c-b75a-4084-aa6f-b4c8f60d0a0e","system_id":"levelo_inurba_marseille","lat":43.29529,"lon":5.385581,"is_reserved":false,"is_disabled":false,"rental_uris":{"android":"levelo://app?vid=50a14c2c-b75a-4084-aa6f-b4c8f60d0a0e","ios":"levelo://app?vid=50a14c2c-b75a-4084-aa6f-b4c8f60d0a0e"},"vehicle_type_id":"4","last_reported":1718993470,"current_range_meters":27200,"station_id":"ce4bgih2rcd13ifvqba0","pricing_plan_id":"cebpf4jnsgd1na2vs0mg"},{"bike_id":"86312eec-9d99-4482-ab74-4a3e94a068a4","system_id":"levelo_inurba_marseille","lat":43.29533,"lon":5.3854,"is_reserved":false,"is_disabled":false,"rental_uris":{"android":"levelo://app?vid=86312eec-9d99-4482-ab74-4a3e94a068a4","ios":"levelo://app?vid=86312eec-9d99-4482-ab74-4a3e94a068a4"},"vehicle_type_id":"4","last_reported":1718993470,"current_range_meters":24000,"station_id":"ce4bgih2rcd13ifvqba0","pricing_plan_id":"cebpf4jnsgd1na2vs0mg"},{"bike_id":"223e3244-b6f2-470e-a8e4-0deee2c3817e","system_id":"levelo_inurba_marseille","lat":43.29529,"lon":5.385581,"is_reserved":false,"is_disabled":false,"rental_uris":{"android":"levelo://app?vid=223e3244-b6f2-470e-a8e4-0deee2c3817e","ios":"levelo://app?vid=223e3244-b6f2-470e-a8e4-0deee2c3817e"},"vehicle_type_id":"4","last_reported":1718993470,"current_range_meters":28000,"station_id":"ce4bgih2rcd13ifvqba0","pricing_plan_id":"cebpf4jnsgd1na2vs0mg"},{"bike_id":"b633bb77-0e13-4f2a-86f4-b2a60dcc6116","system_id":"levelo_inurba_marseille","lat":43.29529,"lon":5.385581,"is_reserved":false,"is_disabled":false,"rental_uris":{"android":"levelo://app?vid=b633bb77-0e13-4f2a-86f4-b2a60dcc6116","ios":"levelo://app?vid=b633bb77-0e13-4f2a-86f4-b2a60dcc6116"},"vehicle_type_id":"4","last_reported":1718993470,"current_range_meters":15600,"station_id":"ce4bgih2rcd13ifvqba0","pricing_plan_id":"cebpf4jnsgd1na2vs0mg"},{"bike_id":"6e7ccf66-365c-46ef-aff6-fd7f76725fcc","system_id":"levelo_inurba_marseille","lat":43.29529,"lon":5.385581,"is_reserved":false,"is_disabled":false,"rental_uris":{"android":"levelo://app?vid=6e7ccf66-365c-46ef-aff6-fd7f76725fcc","ios":"levelo://app?vid=6e7ccf66-365c-46ef-aff6-fd7f76725fcc"},"vehicle_type_id":"4","last_reported":1718993470,"current_range_meters":12400,"station_id":"ce4bgih2rcd13ifvqba0","pricing_plan_id":"cebpf4jnsgd1na2vs0mg"},{"bike_id":"1475602b-9f76-4517-9ca1-59d703bae1c0","system_id":"levelo_inurba_marseille","lat":43.29529,"lon":5.385581,"is_reserved":false,"is_disabled":false,"rental_uris":{"android":"levelo://app?vid=1475602b-9f76-4517-9ca1-59d703bae1c0","ios":"levelo://app?vid=1475602b-9f76-4517-9ca1-59d703bae1c0"},"vehicle_type_id":"4","last_reported":1718993470,"current_range_meters":14000,"station_id":"ce4bgih2rcd13ifvqba0","pricing_plan_id":"cebpf4jnsgd1na2vs0mg"},{"bike_id":"7877f677-e815-48b9-8b06-b7be09cc408b","system_id":"levelo_inurba_marseille","lat":43.29529,"lon":5.385581,"is_reserved":false,"is_disabled":false,"rental_uris":{"android":"levelo://app?vid=7877f677-e815-48b9-8b06-b7be09cc408b","ios":"levelo://app?vid=7877f677-e815-48b9-8b06-b7be09cc408b"},"vehicle_type_id":"4","last_reported":1718993470,"current_range_meters":14800,"station_id":"ce4bgih2rcd13ifvqba0","pricing_plan_id":"cebpf4jnsgd1na2vs0mg"},{"bike_id":"2625e97f-feb0-41da-8142-ec1386b5a47c","system_id":"levelo_inurba_marseille","lat":43.29529,"lon":5.385581,"is_reserved":false,"is_disabled":false,"rental_uris":{"android":"levelo://app?vid=2625e97f-feb0-41da-8142-ec1386b5a47c","ios":"levelo://app?vid=2625e97f-feb0-41da-8142-ec1386b5a47c"},"vehicle_type_id":"4","last_reported":1718993470,"current_range_meters":6000,"station_id":"ce4bgih2rcd13ifvqba0","pricing_plan_id":"cebpf4jnsgd1na2vs0mg"},{"bike_id":"e6fdbd44-6891-40ca-86d1-b4c7e00e8925","system_id":"levelo_inurba_marseille","lat":43.29529,"lon":5.385581,"is_reserved":false,"is_disabled":false,"rental_uris":{"android":"levelo://app?vid=e6fdbd44-6891-40ca-86d1-b4c7e00e8925","ios":"levelo://app?vid=e6fdbd44-6891-40ca-86d1-b4c7e00e8925"},"vehicle_type_id":"4","last_reported":1718993470,"current_range_meters":20400,"station_id":"ce4bgih2rcd13ifvqba0","pricing_plan_id":"cebpf4jnsgd1na2vs0mg"},{"bike_id":"f6b2c9fd-bc0e-4285-9bb7-ce1e04d28f3e","system_id":"levelo_inurba_marseille","lat":43.29529,"lon":5.385581,"is_reserved":false,"is_disabled":false,"rental_uris":{"android":"levelo://app?vid=f6b2c9fd-bc0e-4285-9bb7-ce1e04d28f3e","ios":"levelo://app?vid=f6b2c9fd-bc0e-4285-9bb7-ce1e04d28f3e"},"vehicle_type_id":"4","last_reported":1718993470,"current_range_meters":31600,"station_id":"ce4bgih2rcd13ifvqba0","pricing_plan_id":"cebpf4jnsgd1na2vs0mg"},{"bike_id":"f276b033-aa42-4ef7-a3d4-2b782a24cfaf","system_id":"levelo_inurba_marseille","lat":43.29529,"lon":5.385581,"is_reserved":false,"is_disabled":false,"rental_uris":{"android":"levelo://app?vid=f276b033-aa42-4ef7-a3d4-2b782a24cfaf","ios":"levelo://app?vid=f276b033-aa42-4ef7-a3d4-2b782a24cfaf"},"vehicle_type_id":"4","last_reported":1718993470,"current_range_meters":31600,"station_id":"ce4bgih2rcd13ifvqba0","pricing_plan_id":"cebpf4jnsgd1na2vs0mg"},{"bike_id":"fc11e692-dea3-47b1-b738-8178c163ce89","system_id":"levelo_inurba_marseille","lat":43.29529,"lon":5.385581,"is_reserved":false,"is_disabled":false,"rental_uris":{"android":"levelo://app?vid=fc11e692-dea3-47b1-b738-8178c163ce89","ios":"levelo://app?vid=fc11e692-dea3-47b1-b738-8178c163ce89"},"vehicle_type_id":"4","last_reported":1718993470,"current_range_meters":12000,"station_id":"ce4bgih2rcd13ifvqba0","pricing_plan_id":"cebpf4jnsgd1na2vs0mg"},{"bike_id":"b394ba8c-7c01-40a9-a93f-86ac4637b143","system_id":"levelo_inurba_marseille","lat":43.29529,"lon":5.385581,"is_reserved":false,"is_disabled":false,"rental_uris":{"android":"levelo://app?vid=b394ba8c-7c01-40a9-a93f-86ac4637b143","ios":"levelo://app?vid=b394ba8c-7c01-40a9-a93f-86ac4637b143"},"vehicle_type_id":"4","last_reported":1718993470,"current_range_meters":31600,"station_id":"ce4bgih2rcd13ifvqba0","pricing_plan_id":"cebpf4jnsgd1na2vs0mg"},{"bike_id":"0bdf9a76-042c-4267-a55c-30a158a64225","system_id":"levelo_inurba_marseille","lat":43.29529,"lon":5.385581,"is_reserved":false,"is_disabled":false,"rental_uris":{"android":"levelo://app?vid=0bdf9a76-042c-4267-a55c-30a158a64225","ios":"levelo://app?vid=0bdf9a76-042c-4267-a55c-30a158a64225"},"vehicle_type_id":"4","last_reported":1718993470,"current_range_meters":30400,"station_id":"ce4bgih2rcd13ifvqba0","pricing_plan_id":"cebpf4jnsgd1na2vs0mg"},{"bike_id":"a09d4367-7904-4885-b94e-175d9b091b4f","system_id":"levelo_inurba_marseille","lat":43.290779,"lon":5.371482,"is_reserved":false,"is_disabled":false,"rental_uris":{"android":"levelo://app?vid=a09d4367-7904-4885-b94e-175d9b091b4f","ios":"levelo://app?vid=a09d4367-7904-4885-b94e-175d9b091b4f"},"vehicle_type_id":"4","last_reported":1718993470,"current_range_meters":0,"station_id":"ce4bh5p2rcd13ifvqe4g","pricing_plan_id":"cebpf4jnsgd1na2vs0mg"},{"bike_id":"1a57f4af-d582-4753-b89a-6d6836a93326","system_id":"levelo_inurba_marseille","lat":43.290624,"lon":5.359245,"is_reserved":false,"is_disabled":false,"rental_uris":{"android":"levelo://app?vid=1a57f4af-d582-4753-b89a-6d6836a93326","ios":"levelo://app?vid=1a57f4af-d582-4753-b89a-6d6836a93326"},"vehicle_type_id":"4","last_reported":1718993470,"current_range_meters":27200,"station_id":"ce4bha92rcd13ifvqeg0","pricing_plan_id":"cebpf4jnsgd1na2vs0mg"},{"bike_id":"6f29f8d9-0d48-4f4a-a242-3e8cb0c5bd48","system_id":"levelo_inurba_marseille","lat":43.294162,"lon":5.386292,"is_reserved":false,"is_disabled":false,"rental_uris":{"android":"levelo://app?vid=6f29f8d9-0d48-4f4a-a242-3e8cb0c5bd48","ios":"levelo://app?vid=6f29f8d9-0d48-4f4a-a242-3e8cb0c5bd48"},"vehicle_type_id":"4","last_reported":1718993470,"current_range_meters":6800,"station_id":"ce4bh2h2rcd13ifvqdh0","pricing_plan_id":"cebpf4jnsgd1na2vs0mg"},{"bike_id":"480f6b23-42ff-4c1c-be0d-4454466b743a","system_id":"levelo_inurba_marseille","lat":43.294153,"lon":5.386305,"is_reserved":false,"is_disabled":false,"rental_uris":{"android":"levelo://app?vid=480f6b23-42ff-4c1c-be0d-4454466b743a","ios":"levelo://app?vid=480f6b23-42ff-4c1c-be0d-4454466b743a"},"vehicle_type_id":"4","last_reported":1718993470,"current_range_meters":3600,"station_id":"ce4bh2h2rcd13ifvqdh0","pricing_plan_id":"cebpf4jnsgd1na2vs0mg"},{"bike_id":"225ba511-6139-4fdc-8710-119cc897b5ef","system_id":"levelo_inurba_marseille","lat":43.294153,"lon":5.386305,"is_reserved":false,"is_disabled":false,"rental_uris":{"android":"levelo://app?vid=225ba511-6139-4fdc-8710-119cc897b5ef","ios":"levelo://app?vid=225ba511-6139-4fdc-8710-119cc897b5ef"},"vehicle_type_id":"4","last_reported":1718993470,"current_range_meters":31200,"station_id":"ce4bh2h2rcd13ifvqdh0","pricing_plan_id":"cebpf4jnsgd1na2vs0mg"},{"bike_id":"8a4ee6c8-19af-4cd1-9073-731a0f2984d5","system_id":"levelo_inurba_marseille","lat":43.2942,"lon":5.3862,"is_reserved":false,"is_disabled":false,"rental_uris":{"android":"levelo://app?vid=8a4ee6c8-19af-4cd1-9073-731a0f2984d5","ios":"levelo://app?vid=8a4ee6c8-19af-4cd1-9073-731a0f2984d5"},"vehicle_type_id":"4","last_reported":1718993470,"current_range_meters":5200,"station_id":"ce4bh2h2rcd13ifvqdh0","pricing_plan_id":"cebpf4jnsgd1na2vs0mg"},{"bike_id":"f358d95d-c97e-46bc-8633-dc6a25235fe7","system_id":"levelo_inurba_marseille","lat":43.294153,"lon":5.386305,"is_reserved":false,"is_disabled":false,"rental_uris":{"android":"levelo://app?vid=f358d95d-c97e-46bc-8633-dc6a25235fe7","ios":"levelo://app?vid=f358d95d-c97e-46bc-8633-dc6a25235fe7"},"vehicle_type_id":"4","last_reported":1718993470,"current_range_meters":8400,"station_id":"ce4bh2h2rcd13ifvqdh0","pricing_plan_id":"cebpf4jnsgd1na2vs0mg"},{"bike_id":"32b4c9fa-eeaf-423b-8045-2666c2976b80","system_id":"levelo_inurba_marseille","lat":43.294162,"lon":5.386292,"is_reserved":false,"is_disabled":false,"rental_uris":{"android":"levelo://app?vid=32b4c9fa-eeaf-423b-8045-2666c2976b80","ios":"levelo://app?vid=32b4c9fa-eeaf-423b-8045-2666c2976b80"},"vehicle_type_id":"4","last_reported":1718993470,"current_range_meters":0,"station_id":"ce4bh2h2rcd13ifvqdh0","pricing_plan_id":"cebpf4jnsgd1na2vs0mg"},{"bike_id":"d341a7c4-7ad9-4d36-ab5d-f359be40e236","system_id":"levelo_inurba_marseille","lat":43.294162,"lon":5.386292,"is_reserved":false,"is_disabled":false,"rental_uris":{"android":"levelo://app?vid=d341a7c4-7ad9-4d36-ab5d-f359be40e236","ios":"levelo://app?vid=d341a7c4-7ad9-4d36-ab5d-f359be40e236"},"vehicle_type_id":"4","last_reported":1718993470,"current_range_meters":2400,"station_id":"ce4bh2h2rcd13ifvqdh0","pricing_plan_id":"cebpf4jnsgd1na2vs0mg"},{"bike_id":"c198984b-5d39-41dc-87eb-2fd5a750de1d","system_id":"levelo_inurba_marseille","lat":43.29419,"lon":5.38624,"is_reserved":false,"is_disabled":false,"rental_uris":{"android":"levelo://app?vid=c198984b-5d39-41dc-87eb-2fd5a750de1d","ios":"levelo://app?vid=c198984b-5d39-41dc-87eb-2fd5a750de1d"},"vehicle_type_id":"4","last_reported":1718993470,"current_range_meters":30800,"station_id":"ce4bh2h2rcd13ifvqdh0","pricing_plan_id":"cebpf4jnsgd1na2vs0mg"},{"bike_id":"5746a5fb-a385-4ee3-974e-20726c57606d","system_id":"levelo_inurba_marseille","lat":43.29419,"lon":5.38625,"is_reserved":false,"is_disabled":false,"rental_uris":{"android":"levelo://app?vid=5746a5fb-a385-4ee3-974e-20726c57606d","ios":"levelo://app?vid=5746a5fb-a385-4ee3-974e-20726c57606d"},"vehicle_type_id":"4","last_reported":1718993470,"current_range_meters":2400,"station_id":"ce4bh2h2rcd13ifvqdh0","pricing_plan_id":"cebpf4jnsgd1na2vs0mg"},{"bike_id":"8181c522-c3b8-4deb-839a-9fb237493737","system_id":"levelo_inurba_marseille","lat":43.29417,"lon":5.38623,"is_reserved":false,"is_disabled":false,"rental_uris":{"android":"levelo://app?vid=8181c522-c3b8-4deb-839a-9fb237493737","ios":"levelo://app?vid=8181c522-c3b8-4deb-839a-9fb237493737"},"vehicle_type_id":"4","last_reported":1718993470,"current_range_meters":10400,"station_id":"ce4bh2h2rcd13ifvqdh0","pricing_plan_id":"cebpf4jnsgd1na2vs0mg"},{"bike_id":"2df616d2-a6d3-40bb-90a6-a9c63d2b51a3","system_id":"levelo_inurba_marseille","lat":43.294163,"lon":5.386227,"is_reserved":false,"is_disabled":false,"rental_uris":{"android":"levelo://app?vid=2df616d2-a6d3-40bb-90a6-a9c63d2b51a3","ios":"levelo://app?vid=2df616d2-a6d3-40bb-90a6-a9c63d2b51a3"},"vehicle_type_id":"4","last_reported":1718993470,"current_range_meters":31200,"station_id":"ce4bh2h2rcd13ifvqdh0","pricing_plan_id":"cebpf4jnsgd1na2vs0mg"},{"bike_id":"a7e061e0-2419-494a-a435-dab9772ee7d0","system_id":"levelo_inurba_marseille","lat":43.294162,"lon":5.386292,"is_reserved":false,"is_disabled":false,"rental_uris":{"android":"levelo://app?vid=a7e061e0-2419-494a-a435-dab9772ee7d0","ios":"levelo://app?vid=a7e061e0-2419-494a-a435-dab9772ee7d0"},"vehicle_type_id":"4","last_reported":1718993470,"current_range_meters":4800,"station_id":"ce4bh2h2rcd13ifvqdh0","pricing_plan_id":"cebpf4jnsgd1na2vs0mg"},{"bike_id":"81dddc43-1a1e-463e-b5e3-bdae30449428","system_id":"levelo_inurba_marseille","lat":43.294153,"lon":5.386305,"is_reserved":false,"is_disabled":false,"rental_uris":{"android":"levelo://app?vid=81dddc43-1a1e-463e-b5e3-bdae30449428","ios":"levelo://app?vid=81dddc43-1a1e-463e-b5e3-bdae30449428"},"vehicle_type_id":"4","last_reported":1718993470,"current_range_meters":9200,"station_id":"ce4bh2h2rcd13ifvqdh0","pricing_plan_id":"cebpf4jnsgd1na2vs0mg"},{"bike_id":"6ce6c5e0-3166-4bf8-b903-08bdf649a722","system_id":"levelo_inurba_marseille","lat":43.29417,"lon":5.38626,"is_reserved":false,"is_disabled":false,"rental_uris":{"android":"levelo://app?vid=6ce6c5e0-3166-4bf8-b903-08bdf649a722","ios":"levelo://app?vid=6ce6c5e0-3166-4bf8-b903-08bdf649a722"},"vehicle_type_id":"4","last_reported":1718993470,"current_range_meters":31200,"station_id":"ce4bh2h2rcd13ifvqdh0","pricing_plan_id":"cebpf4jnsgd1na2vs0mg"},{"bike_id":"c0e72eb5-220d-47bf-8f31-e0ca8fde9184","system_id":"levelo_inurba_marseille","lat":43.294162,"lon":5.386292,"is_reserved":false,"is_disabled":false,"rental_uris":{"android":"levelo://app?vid=c0e72eb5-220d-47bf-8f31-e0ca8fde9184","ios":"levelo://app?vid=c0e72eb5-220d-47bf-8f31-e0ca8fde9184"},"vehicle_type_id":"4","last_reported":1718993470,"current_range_meters":24000,"station_id":"ce4bh2h2rcd13ifvqdh0","pricing_plan_id":"cebpf4jnsgd1na2vs0mg"},{"bike_id":"1c048c9f-9eb0-42c2-a5ac-bde34891858b","system_id":"levelo_inurba_marseille","lat":43.29413,"lon":5.38627,"is_reserved":false,"is_disabled":false,"rental_uris":{"android":"levelo://app?vid=1c048c9f-9eb0-42c2-a5ac-bde34891858b","ios":"levelo://app?vid=1c048c9f-9eb0-42c2-a5ac-bde34891858b"},"vehicle_type_id":"4","last_reported":1718993470,"current_range_meters":31600,"station_id":"ce4bh2h2rcd13ifvqdh0","pricing_plan_id":"cebpf4jnsgd1na2vs0mg"},{"bike_id":"3a4115f8-9e7f-4479-9fb5-348b94ffba53","system_id":"levelo_inurba_marseille","lat":43.289184,"lon":5.366408,"is_reserved":false,"is_disabled":false,"rental_uris":{"android":"levelo://app?vid=3a4115f8-9e7f-4479-9fb5-348b94ffba53","ios":"levelo://app?vid=3a4115f8-9e7f-4479-9fb5-348b94ffba53"},"vehicle_type_id":"4","last_reported":1718993470,"current_range_meters":22400,"station_id":"ce4bhap2rcd13ifvqek0","pricing_plan_id":"cebpf4jnsgd1na2vs0mg"},{"bike_id":"c1720127-909e-4c66-b290-18f3497586d7","system_id":"levelo_inurba_marseille","lat":43.289468,"lon":5.363719,"is_reserved":false,"is_disabled":false,"rental_uris":{"android":"levelo://app?vid=c1720127-909e-4c66-b290-18f3497586d7","ios":"levelo://app?vid=c1720127-909e-4c66-b290-18f3497586d7"},"vehicle_type_id":"4","last_reported":1718993470,"current_range_meters":0,"station_id":"ce4bhc92rcd13ifvqetg","pricing_plan_id":"cebpf4jnsgd1na2vs0mg"},{"bike_id":"127cc1f4-b1db-48e8-8916-73867da16185","system_id":"levelo_inurba_marseille","lat":43.292642,"lon":5.384254,"is_reserved":false,"is_disabled":false,"rental_uris":{"android":"levelo://app?vid=127cc1f4-b1db-48e8-8916-73867da16185","ios":"levelo://app?vid=127cc1f4-b1db-48e8-8916-73867da16185"},"vehicle_type_id":"4","last_reported":1718993470,"current_range_meters":6800,"station_id":"ce4bh692rcd13ifvqea0","pricing_plan_id":"cebpf4jnsgd1na2vs0mg"},{"bike_id":"dbec2fb8-35b2-44db-857d-c9888742a9bc","system_id":"levelo_inurba_marseille","lat":43.29282,"lon":5.3844,"is_reserved":false,"is_disabled":false,"rental_uris":{"android":"levelo://app?vid=dbec2fb8-35b2-44db-857d-c9888742a9bc","ios":"levelo://app?vid=dbec2fb8-35b2-44db-857d-c9888742a9bc"},"vehicle_type_id":"4","last_reported":1718993470,"current_range_meters":2800,"station_id":"ce4bh692rcd13ifvqea0","pricing_plan_id":"cebpf4jnsgd1na2vs0mg"},{"bike_id":"9e392434-fe71-467a-a14b-f908e44efbbc","system_id":"levelo_inurba_marseille","lat":43.292642,"lon":5.384254,"is_reserved":false,"is_disabled":false,"rental_uris":{"android":"levelo://app?vid=9e392434-fe71-467a-a14b-f908e44efbbc","ios":"levelo://app?vid=9e392434-fe71-467a-a14b-f908e44efbbc"},"vehicle_type_id":"4","last_reported":1718993470,"current_range_meters":6800,"station_id":"ce4bh692rcd13ifvqea0","pricing_plan_id":"cebpf4jnsgd1na2vs0mg"},{"bike_id":"5999690b-a48e-4d39-ba05-fa864a692dd2","system_id":"levelo_inurba_marseille","lat":43.292642,"lon":5.384254,"is_reserved":false,"is_disabled":false,"rental_uris":{"android":"levelo://app?vid=5999690b-a48e-4d39-ba05-fa864a692dd2","ios":"levelo://app?vid=5999690b-a48e-4d39-ba05-fa864a692dd2"},"vehicle_type_id":"4","last_reported":1718993470,"current_range_meters":31200,"station_id":"ce4bh692rcd13ifvqea0","pricing_plan_id":"cebpf4jnsgd1na2vs0mg"},{"bike_id":"b89b3d64-0e12-429b-9f99-df2c10154357","system_id":"levelo_inurba_marseille","lat":43.292642,"lon":5.384254,"is_reserved":false,"is_disabled":false,"rental_uris":{"android":"levelo://app?vid=b89b3d64-0e12-429b-9f99-df2c10154357","ios":"levelo://app?vid=b89b3d64-0e12-429b-9f99-df2c10154357"},"vehicle_type_id":"4","last_reported":1718993470,"current_range_meters":12400,"station_id":"ce4bh692rcd13ifvqea0","pricing_plan_id":"cebpf4jnsgd1na2vs0mg"},{"bike_id":"3406ab01-04b2-447f-ac6d-4745c74ce1d8","system_id":"levelo_inurba_marseille","lat":43.2927,"lon":5.38438,"is_reserved":false,"is_disabled":false,"rental_uris":{"android":"levelo://app?vid=3406ab01-04b2-447f-ac6d-4745c74ce1d8","ios":"levelo://app?vid=3406ab01-04b2-447f-ac6d-4745c74ce1d8"},"vehicle_type_id":"4","last_reported":1718993470,"current_range_meters":6400,"station_id":"ce4bh692rcd13ifvqea0","pricing_plan_id":"cebpf4jnsgd1na2vs0mg"},{"bike_id":"1c31688a-2dda-452b-b567-a244ca85bb86","system_id":"levelo_inurba_marseille","lat":43.29265,"lon":5.38436,"is_reserved":false,"is_disabled":false,"rental_uris":{"android":"levelo://app?vid=1c31688a-2dda-452b-b567-a244ca85bb86","ios":"levelo://app?vid=1c31688a-2dda-452b-b567-a244ca85bb86"},"vehicle_type_id":"4","last_reported":1718993470,"current_range_meters":14000,"station_id":"ce4bh692rcd13ifvqea0","pricing_plan_id":"cebpf4jnsgd1na2vs0mg"},{"bike_id":"2c022803-2504-4049-9995-a8272c9c4e26","system_id":"levelo_inurba_marseille","lat":43.29268,"lon":5.38446,"is_reserved":false,"is_disabled":false,"rental_uris":{"android":"levelo://app?vid=2c022803-2504-4049-9995-a8272c9c4e26","ios":"levelo://app?vid=2c022803-2504-4049-9995-a8272c9c4e26"},"vehicle_type_id":"4","last_reported":1718993470,"current_range_meters":5200,"station_id":"ce4bh692rcd13ifvqea0","pricing_plan_id":"cebpf4jnsgd1na2vs0mg"},{"bike_id":"aa3edfd2-e8ab-4fe8-9709-4be997737a25","system_id":"levelo_inurba_marseille","lat":43.29267,"lon":5.38445,"is_reserved":false,"is_disabled":false,"rental_uris":{"android":"levelo://app?vid=aa3edfd2-e8ab-4fe8-9709-4be997737a25","ios":"levelo://app?vid=aa3edfd2-e8ab-4fe8-9709-4be997737a25"},"vehicle_type_id":"4","last_reported":1718993470,"current_range_meters":17600,"station_id":"ce4bh692rcd13ifvqea0","pricing_plan_id":"cebpf4jnsgd1na2vs0mg"},{"bike_id":"b4f1eee5-507d-453e-bdb3-9c99315d54df","system_id":"levelo_inurba_marseille","lat":43.292642,"lon":5.384254,"is_reserved":false,"is_disabled":false,"rental_uris":{"android":"levelo://app?vid=b4f1eee5-507d-453e-bdb3-9c99315d54df","ios":"levelo://app?vid=b4f1eee5-507d-453e-bdb3-9c99315d54df"},"vehicle_type_id":"4","last_reported":1718993470,"current_range_meters":3600,"station_id":"ce4bh692rcd13ifvqea0","pricing_plan_id":"cebpf4jnsgd1na2vs0mg"},{"bike_id":"b40252e2-7b55-48dd-b0c6-04119fdfc9a3","system_id":"levelo_inurba_marseille","lat":43.292642,"lon":5.384254,"is_reserved":false,"is_disabled":false,"rental_uris":{"android":"levelo://app?vid=b40252e2-7b55-48dd-b0c6-04119fdfc9a3","ios":"levelo://app?vid=b40252e2-7b55-48dd-b0c6-04119fdfc9a3"},"vehicle_type_id":"4","last_reported":1718993470,"current_range_meters":31600,"station_id":"ce4bh692rcd13ifvqea0","pricing_plan_id":"cebpf4jnsgd1na2vs0mg"},{"bike_id":"844ec1d8-d39f-47ae-b7d8-35e739596a4f","system_id":"levelo_inurba_marseille","lat":43.29265,"lon":5.38443,"is_reserved":false,"is_disabled":false,"rental_uris":{"android":"levelo://app?vid=844ec1d8-d39f-47ae-b7d8-35e739596a4f","ios":"levelo://app?vid=844ec1d8-d39f-47ae-b7d8-35e739596a4f"},"vehicle_type_id":"4","last_reported":1718993470,"current_range_meters":20000,"station_id":"ce4bh692rcd13ifvqea0","pricing_plan_id":"cebpf4jnsgd1na2vs0mg"},{"bike_id":"30ef4ab5-8f01-4d4c-9a9f-367d6a2a8da7","system_id":"levelo_inurba_marseille","lat":43.292642,"lon":5.384254,"is_reserved":false,"is_disabled":false,"rental_uris":{"android":"levelo://app?vid=30ef4ab5-8f01-4d4c-9a9f-367d6a2a8da7","ios":"levelo://app?vid=30ef4ab5-8f01-4d4c-9a9f-367d6a2a8da7"},"vehicle_type_id":"4","last_reported":1718993470,"current_range_meters":31600,"station_id":"ce4bh692rcd13ifvqea0","pricing_plan_id":"cebpf4jnsgd1na2vs0mg"},{"bike_id":"27939dac-b662-4216-ac94-ccce39ba97af","system_id":"levelo_inurba_marseille","lat":43.29265,"lon":5.38445,"is_reserved":false,"is_disabled":false,"rental_uris":{"android":"levelo://app?vid=27939dac-b662-4216-ac94-ccce39ba97af","ios":"levelo://app?vid=27939dac-b662-4216-ac94-ccce39ba97af"},"vehicle_type_id":"4","last_reported":1718993470,"current_range_meters":0,"station_id":"ce4bh692rcd13ifvqea0","pricing_plan_id":"cebpf4jnsgd1na2vs0mg"},{"bike_id":"63d4680b-ca57-481e-84b9-cc1cc6eaaea0","system_id":"levelo_inurba_marseille","lat":43.29263,"lon":5.38442,"is_reserved":false,"is_disabled":false,"rental_uris":{"android":"levelo://app?vid=63d4680b-ca57-481e-84b9-cc1cc6eaaea0","ios":"levelo://app?vid=63d4680b-ca57-481e-84b9-cc1cc6eaaea0"},"vehicle_type_id":"4","last_reported":1718993470,"current_range_meters":31200,"station_id":"ce4bh692rcd13ifvqea0","pricing_plan_id":"cebpf4jnsgd1na2vs0mg"},{"bike_id":"93e218ed-a987-42ac-b53b-e5d73fe9df5f","system_id":"levelo_inurba_marseille","lat":43.29262,"lon":5.38444,"is_reserved":false,"is_disabled":false,"rental_uris":{"android":"levelo://app?vid=93e218ed-a987-42ac-b53b-e5d73fe9df5f","ios":"levelo://app?vid=93e218ed-a987-42ac-b53b-e5d73fe9df5f"},"vehicle_type_id":"4","last_reported":1718993470,"current_range_meters":6000,"station_id":"ce4bh692rcd13ifvqea0","pricing_plan_id":"cebpf4jnsgd1na2vs0mg"},{"bike_id":"37bfb117-0666-4281-a19d-c3100f0f05bc","system_id":"levelo_inurba_marseille","lat":43.292642,"lon":5.384254,"is_reserved":false,"is_disabled":false,"rental_uris":{"android":"levelo://app?vid=37bfb117-0666-4281-a19d-c3100f0f05bc","ios":"levelo://app?vid=37bfb117-0666-4281-a19d-c3100f0f05bc"},"vehicle_type_id":"4","last_reported":1718993470,"current_range_meters":7200,"station_id":"ce4bh692rcd13ifvqea0","pricing_plan_id":"cebpf4jnsgd1na2vs0mg"},{"bike_id":"9a0e23b8-8e85-4409-be31-34497de02484","system_id":"levelo_inurba_marseille","lat":43.292642,"lon":5.384254,"is_reserved":false,"is_disabled":false,"rental_uris":{"android":"levelo://app?vid=9a0e23b8-8e85-4409-be31-34497de02484","ios":"levelo://app?vid=9a0e23b8-8e85-4409-be31-34497de02484"},"vehicle_type_id":"4","last_reported":1718993470,"current_range_meters":9600,"station_id":"ce4bh692rcd13ifvqea0","pricing_plan_id":"cebpf4jnsgd1na2vs0mg"},{"bike_id":"be14d2c7-9d7b-494b-b704-607c988b2a45","system_id":"levelo_inurba_marseille","lat":43.29258,"lon":5.38443,"is_reserved":false,"is_disabled":false,"rental_uris":{"android":"levelo://app?vid=be14d2c7-9d7b-494b-b704-607c988b2a45","ios":"levelo://app?vid=be14d2c7-9d7b-494b-b704-607c988b2a45"},"vehicle_type_id":"4","last_reported":1718993470,"current_range_meters":8000,"station_id":"ce4bh692rcd13ifvqea0","pricing_plan_id":"cebpf4jnsgd1na2vs0mg"},{"bike_id":"f0f6dd8a-5281-4176-b900-c9c4055aa9d7","system_id":"levelo_inurba_marseille","lat":43.29254,"lon":5.38437,"is_reserved":false,"is_disabled":false,"rental_uris":{"android":"levelo://app?vid=f0f6dd8a-5281-4176-b900-c9c4055aa9d7","ios":"levelo://app?vid=f0f6dd8a-5281-4176-b900-c9c4055aa9d7"},"vehicle_type_id":"4","last_reported":1718993470,"current_range_meters":31200,"station_id":"ce4bh692rcd13ifvqea0","pricing_plan_id":"cebpf4jnsgd1na2vs0mg"},{"bike_id":"0ae7750b-8c9a-44fb-a037-1c457438f7a7","system_id":"levelo_inurba_marseille","lat":43.29258,"lon":5.38446,"is_reserved":false,"is_disabled":false,"rental_uris":{"android":"levelo://app?vid=0ae7750b-8c9a-44fb-a037-1c457438f7a7","ios":"levelo://app?vid=0ae7750b-8c9a-44fb-a037-1c457438f7a7"},"vehicle_type_id":"4","last_reported":1718993470,"current_range_meters":3200,"station_id":"ce4bh692rcd13ifvqea0","pricing_plan_id":"cebpf4jnsgd1na2vs0mg"},{"bike_id":"3e816b22-5af5-405f-a86f-0e00594b695d","system_id":"levelo_inurba_marseille","lat":43.29254,"lon":5.38443,"is_reserved":false,"is_disabled":false,"rental_uris":{"android":"levelo://app?vid=3e816b22-5af5-405f-a86f-0e00594b695d","ios":"levelo://app?vid=3e816b22-5af5-405f-a86f-0e00594b695d"},"vehicle_type_id":"4","last_reported":1718993470,"current_range_meters":30000,"station_id":"ce4bh692rcd13ifvqea0","pricing_plan_id":"cebpf4jnsgd1na2vs0mg"},{"bike_id":"04409db5-add4-4187-bbb8-4d4091bc6d3e","system_id":"levelo_inurba_marseille","lat":43.29254,"lon":5.38452,"is_reserved":false,"is_disabled":false,"rental_uris":{"android":"levelo://app?vid=04409db5-add4-4187-bbb8-4d4091bc6d3e","ios":"levelo://app?vid=04409db5-add4-4187-bbb8-4d4091bc6d3e"},"vehicle_type_id":"4","last_reported":1718993470,"current_range_meters":14000,"station_id":"ce4bh692rcd13ifvqea0","pricing_plan_id":"cebpf4jnsgd1na2vs0mg"},{"bike_id":"3f4dba2a-9019-4574-a042-54fb9131eef9","system_id":"levelo_inurba_marseille","lat":43.289468,"lon":5.363719,"is_reserved":false,"is_disabled":false,"rental_uris":{"android":"levelo://app?vid=3f4dba2a-9019-4574-a042-54fb9131eef9","ios":"levelo://app?vid=3f4dba2a-9019-4574-a042-54fb9131eef9"},"vehicle_type_id":"4","last_reported":1718993470,"current_range_meters":5600,"station_id":"ce4bhc92rcd13ifvqetg","pricing_plan_id":"cebpf4jnsgd1na2vs0mg"},{"bike_id":"a8b01aeb-cc98-4fd5-b603-5195e11aabec","system_id":"levelo_inurba_marseille","lat":43.290103,"lon":5.356114,"is_reserved":false,"is_disabled":false,"rental_uris":{"android":"levelo://app?vid=a8b01aeb-cc98-4fd5-b603-5195e11aabec","ios":"levelo://app?vid=a8b01aeb-cc98-4fd5-b603-5195e11aabec"},"vehicle_type_id":"4","last_reported":1718993470,"current_range_meters":0,"station_id":"ce4bhb92rcd13ifvqen0","pricing_plan_id":"cebpf4jnsgd1na2vs0mg"},{"bike_id":"b200b10f-7a85-4d9d-923d-3936ab116147","system_id":"levelo_inurba_marseille","lat":43.290104,"lon":5.356111,"is_reserved":false,"is_disabled":false,"rental_uris":{"android":"levelo://app?vid=b200b10f-7a85-4d9d-923d-3936ab116147","ios":"levelo://app?vid=b200b10f-7a85-4d9d-923d-3936ab116147"},"vehicle_type_id":"4","last_reported":1718993470,"current_range_meters":8000,"station_id":"ce4bhb92rcd13ifvqen0","pricing_plan_id":"cebpf4jnsgd1na2vs0mg"},{"bike_id":"316ad7e4-c25b-4444-a986-3152ff33380a","system_id":"levelo_inurba_marseille","lat":43.28863,"lon":5.36637,"is_reserved":false,"is_disabled":false,"rental_uris":{"android":"levelo://app?vid=316ad7e4-c25b-4444-a986-3152ff33380a","ios":"levelo://app?vid=316ad7e4-c25b-4444-a986-3152ff33380a"},"vehicle_type_id":"4","last_reported":1718993470,"current_range_meters":0,"station_id":"ce4bh612rcd13ifvqe6g","pricing_plan_id":"cebpf4jnsgd1na2vs0mg"},{"bike_id":"0f117851-0adc-4b84-a7e7-cb5ff77d8b8c","system_id":"levelo_inurba_marseille","lat":43.290995,"lon":5.381361,"is_reserved":false,"is_disabled":false,"rental_uris":{"android":"levelo://app?vid=0f117851-0adc-4b84-a7e7-cb5ff77d8b8c","ios":"levelo://app?vid=0f117851-0adc-4b84-a7e7-cb5ff77d8b8c"},"vehicle_type_id":"4","last_reported":1718993470,"current_range_meters":0,"station_id":"ce4bh512rcd13ifvqe2g","pricing_plan_id":"cebpf4jnsgd1na2vs0mg"},{"bike_id":"653d695c-aa77-488d-994c-42eec32ccdea","system_id":"levelo_inurba_marseille","lat":43.290995,"lon":5.381361,"is_reserved":false,"is_disabled":false,"rental_uris":{"android":"levelo://app?vid=653d695c-aa77-488d-994c-42eec32ccdea","ios":"levelo://app?vid=653d695c-aa77-488d-994c-42eec32ccdea"},"vehicle_type_id":"4","last_reported":1718993470,"current_range_meters":30800,"station_id":"ce4bh512rcd13ifvqe2g","pricing_plan_id":"cebpf4jnsgd1na2vs0mg"},{"bike_id":"cfa93795-cc18-4ed9-a9ff-6f461a21970c","system_id":"levelo_inurba_marseille","lat":43.29786,"lon":5.39343,"is_reserved":false,"is_disabled":false,"rental_uris":{"android":"levelo://app?vid=cfa93795-cc18-4ed9-a9ff-6f461a21970c","ios":"levelo://app?vid=cfa93795-cc18-4ed9-a9ff-6f461a21970c"},"vehicle_type_id":"4","last_reported":1718993470,"current_range_meters":0,"station_id":"chh1huq6cuj3fo74tm60","pricing_plan_id":"cebpf4jnsgd1na2vs0mg"},{"bike_id":"2acbe572-eaec-479e-bb8b-6fcebaa2bcaf","system_id":"levelo_inurba_marseille","lat":43.295169,"lon":5.390426,"is_reserved":false,"is_disabled":false,"rental_uris":{"android":"levelo://app?vid=2acbe572-eaec-479e-bb8b-6fcebaa2bcaf","ios":"levelo://app?vid=2acbe572-eaec-479e-bb8b-6fcebaa2bcaf"},"vehicle_type_id":"4","last_reported":1718993470,"current_range_meters":5200,"station_id":"ce4bh3p2rcd13ifvqdp0","pricing_plan_id":"cebpf4jnsgd1na2vs0mg"},{"bike_id":"5ec3c6c6-6138-441b-a8e7-9a2c83fd9eef","system_id":"levelo_inurba_marseille","lat":43.29517,"lon":5.39036,"is_reserved":false,"is_disabled":false,"rental_uris":{"android":"levelo://app?vid=5ec3c6c6-6138-441b-a8e7-9a2c83fd9eef","ios":"levelo://app?vid=5ec3c6c6-6138-441b-a8e7-9a2c83fd9eef"},"vehicle_type_id":"4","last_reported":1718993470,"current_range_meters":0,"station_id":"ce4bh3p2rcd13ifvqdp0","pricing_plan_id":"cebpf4jnsgd1na2vs0mg"},{"bike_id":"a981dbf6-901c-47a2-9419-ccfc580fa494","system_id":"levelo_inurba_marseille","lat":43.2901,"lon":5.381269,"is_reserved":false,"is_disabled":false,"rental_uris":{"android":"levelo://app?vid=a981dbf6-901c-47a2-9419-ccfc580fa494","ios":"levelo://app?vid=a981dbf6-901c-47a2-9419-ccfc580fa494"},"vehicle_type_id":"4","last_reported":1718993470,"current_range_meters":0,"station_id":"ce4bh4p2rcd13ifvqe1g","pricing_plan_id":"cebpf4jnsgd1na2vs0mg"},{"bike_id":"ee69e007-b6fd-4371-943b-05d7cc240fe9","system_id":"levelo_inurba_marseille","lat":43.31273,"lon":5.40166,"is_reserved":false,"is_disabled":false,"rental_uris":{"android":"levelo://app?vid=ee69e007-b6fd-4371-943b-05d7cc240fe9","ios":"levelo://app?vid=ee69e007-b6fd-4371-943b-05d7cc240fe9"},"vehicle_type_id":"4","last_reported":1718993470,"current_range_meters":0,"station_id":"ce4bh092rcd13ifvqd30","pricing_plan_id":"cebpf4jnsgd1na2vs0mg"},{"bike_id":"05092e03-5cef-41c3-9575-df5db7507ebd","system_id":"levelo_inurba_marseille","lat":43.33739,"lon":5.37464,"is_reserved":false,"is_disabled":false,"rental_uris":{"android":"levelo://app?vid=05092e03-5cef-41c3-9575-df5db7507ebd","ios":"levelo://app?vid=05092e03-5cef-41c3-9575-df5db7507ebd"},"vehicle_type_id":"4","last_reported":1718993470,"current_range_meters":22800,"station_id":"","pricing_plan_id":"cebpf4jnsgd1na2vs0mg"},{"bike_id":"d689a06a-4369-4cef-9754-43dddd10e797","system_id":"levelo_inurba_marseille","lat":43.312609,"lon":5.401662,"is_reserved":false,"is_disabled":false,"rental_uris":{"android":"levelo://app?vid=d689a06a-4369-4cef-9754-43dddd10e797","ios":"levelo://app?vid=d689a06a-4369-4cef-9754-43dddd10e797"},"vehicle_type_id":"4","last_reported":1718993470,"current_range_meters":0,"station_id":"ce4bh092rcd13ifvqd30","pricing_plan_id":"cebpf4jnsgd1na2vs0mg"},{"bike_id":"db534928-e6a2-47cc-a852-558fe66ed50c","system_id":"levelo_inurba_marseille","lat":43.337434,"lon":5.374688,"is_reserved":false,"is_disabled":false,"rental_uris":{"android":"levelo://app?vid=db534928-e6a2-47cc-a852-558fe66ed50c","ios":"levelo://app?vid=db534928-e6a2-47cc-a852-558fe66ed50c"},"vehicle_type_id":"4","last_reported":1718993470,"current_range_meters":22400,"station_id":"","pricing_plan_id":"cebpf4jnsgd1na2vs0mg"},{"bike_id":"df7d5fcd-6750-4e54-acaa-7b1750230e2e","system_id":"levelo_inurba_marseille","lat":43.301634,"lon":5.398262,"is_reserved":false,"is_disabled":false,"rental_uris":{"android":"levelo://app?vid=df7d5fcd-6750-4e54-acaa-7b1750230e2e","ios":"levelo://app?vid=df7d5fcd-6750-4e54-acaa-7b1750230e2e"},"vehicle_type_id":"4","last_reported":1718993470,"current_range_meters":0,"station_id":"","pricing_plan_id":"cebpf4jnsgd1na2vs0mg"},{"bike_id":"6e445f2c-ca64-4b5f-91f7-41d553691ea5","system_id":"levelo_inurba_marseille","lat":43.33756,"lon":5.37423,"is_reserved":false,"is_disabled":false,"rental_uris":{"android":"levelo://app?vid=6e445f2c-ca64-4b5f-91f7-41d553691ea5","ios":"levelo://app?vid=6e445f2c-ca64-4b5f-91f7-41d553691ea5"},"vehicle_type_id":"4","last_reported":1718993470,"current_range_meters":30400,"station_id":"","pricing_plan_id":"cebpf4jnsgd1na2vs0mg"},{"bike_id":"a00c218c-138a-4388-aca4-2952a6961815","system_id":"levelo_inurba_marseille","lat":43.337463,"lon":5.374846,"is_reserved":false,"is_disabled":false,"rental_uris":{"android":"levelo://app?vid=a00c218c-138a-4388-aca4-2952a6961815","ios":"levelo://app?vid=a00c218c-138a-4388-aca4-2952a6961815"},"vehicle_type_id":"4","last_reported":1718993470,"current_range_meters":30000,"station_id":"","pricing_plan_id":"cebpf4jnsgd1na2vs0mg"},{"bike_id":"5e04a2af-2ab1-46f3-9609-2d78231cea8d","system_id":"levelo_inurba_marseille","lat":43.33022,"lon":5.3923,"is_reserved":false,"is_disabled":false,"rental_uris":{"android":"levelo://app?vid=5e04a2af-2ab1-46f3-9609-2d78231cea8d","ios":"levelo://app?vid=5e04a2af-2ab1-46f3-9609-2d78231cea8d"},"vehicle_type_id":"4","last_reported":1718993470,"current_range_meters":1600,"station_id":"","pricing_plan_id":"cebpf4jnsgd1na2vs0mg"},{"bike_id":"5f11e4d7-ca6e-4afa-9466-632b95b239d5","system_id":"levelo_inurba_marseille","lat":43.33027,"lon":5.39225,"is_reserved":false,"is_disabled":false,"rental_uris":{"android":"levelo://app?vid=5f11e4d7-ca6e-4afa-9466-632b95b239d5","ios":"levelo://app?vid=5f11e4d7-ca6e-4afa-9466-632b95b239d5"},"vehicle_type_id":"4","last_reported":1718993470,"current_range_meters":2000,"station_id":"","pricing_plan_id":"cebpf4jnsgd1na2vs0mg"},{"bike_id":"0e11bbab-a5d9-4098-a6f1-624d89f27c59","system_id":"levelo_inurba_marseille","lat":43.337572,"lon":5.374546,"is_reserved":false,"is_disabled":false,"rental_uris":{"android":"levelo://app?vid=0e11bbab-a5d9-4098-a6f1-624d89f27c59","ios":"levelo://app?vid=0e11bbab-a5d9-4098-a6f1-624d89f27c59"},"vehicle_type_id":"4","last_reported":1718993470,"current_range_meters":27200,"station_id":"","pricing_plan_id":"cebpf4jnsgd1na2vs0mg"},{"bike_id":"c9b66a2b-0639-4d7a-b560-2bf673d8bd00","system_id":"levelo_inurba_marseille","lat":43.33033,"lon":5.39233,"is_reserved":false,"is_disabled":false,"rental_uris":{"android":"levelo://app?vid=c9b66a2b-0639-4d7a-b560-2bf673d8bd00","ios":"levelo://app?vid=c9b66a2b-0639-4d7a-b560-2bf673d8bd00"},"vehicle_type_id":"4","last_reported":1718993470,"current_range_meters":0,"station_id":"","pricing_plan_id":"cebpf4jnsgd1na2vs0mg"},{"bike_id":"c2330fee-8a15-408f-9b20-55afc88440c5","system_id":"levelo_inurba_marseille","lat":43.33032,"lon":5.39238,"is_reserved":false,"is_disabled":false,"rental_uris":{"android":"levelo://app?vid=c2330fee-8a15-408f-9b20-55afc88440c5","ios":"levelo://app?vid=c2330fee-8a15-408f-9b20-55afc88440c5"},"vehicle_type_id":"4","last_reported":1718993470,"current_range_meters":0,"station_id":"","pricing_plan_id":"cebpf4jnsgd1na2vs0mg"},{"bike_id":"e7be790b-07e4-40f3-b60f-da683b157943","system_id":"levelo_inurba_marseille","lat":43.33033,"lon":5.39238,"is_reserved":false,"is_disabled":false,"rental_uris":{"android":"levelo://app?vid=e7be790b-07e4-40f3-b60f-da683b157943","ios":"levelo://app?vid=e7be790b-07e4-40f3-b60f-da683b157943"},"vehicle_type_id":"4","last_reported":1718993470,"current_range_meters":22000,"station_id":"","pricing_plan_id":"cebpf4jnsgd1na2vs0mg"},{"bike_id":"a77bf3f1-dc55-4e35-8fe0-6292cee970ef","system_id":"levelo_inurba_marseille","lat":43.33035,"lon":5.39239,"is_reserved":false,"is_disabled":false,"rental_uris":{"android":"levelo://app?vid=a77bf3f1-dc55-4e35-8fe0-6292cee970ef","ios":"levelo://app?vid=a77bf3f1-dc55-4e35-8fe0-6292cee970ef"},"vehicle_type_id":"4","last_reported":1718993470,"current_range_meters":24800,"station_id":"","pricing_plan_id":"cebpf4jnsgd1na2vs0mg"},{"bike_id":"457259f4-2778-42f8-8372-c6c895d3a51d","system_id":"levelo_inurba_marseille","lat":43.33036,"lon":5.392397,"is_reserved":false,"is_disabled":false,"rental_uris":{"android":"levelo://app?vid=457259f4-2778-42f8-8372-c6c895d3a51d","ios":"levelo://app?vid=457259f4-2778-42f8-8372-c6c895d3a51d"},"vehicle_type_id":"4","last_reported":1718993470,"current_range_meters":12800,"station_id":"","pricing_plan_id":"cebpf4jnsgd1na2vs0mg"},{"bike_id":"2543dd63-b151-4c36-b360-cfe6247ae3b3","system_id":"levelo_inurba_marseille","lat":43.2885,"lon":5.378867,"is_reserved":false,"is_disabled":false,"rental_uris":{"android":"levelo://app?vid=2543dd63-b151-4c36-b360-cfe6247ae3b3","ios":"levelo://app?vid=2543dd63-b151-4c36-b360-cfe6247ae3b3"},"vehicle_type_id":"4","last_reported":1718993470,"current_range_meters":0,"station_id":"","pricing_plan_id":"cebpf4jnsgd1na2vs0mg"},{"bike_id":"1529575d-3c24-4053-9dc4-3fc753c20a3e","system_id":"levelo_inurba_marseille","lat":43.3304,"lon":5.39281,"is_reserved":false,"is_disabled":false,"rental_uris":{"android":"levelo://app?vid=1529575d-3c24-4053-9dc4-3fc753c20a3e","ios":"levelo://app?vid=1529575d-3c24-4053-9dc4-3fc753c20a3e"},"vehicle_type_id":"4","last_reported":1718993470,"current_range_meters":4800,"station_id":"","pricing_plan_id":"cebpf4jnsgd1na2vs0mg"},{"bike_id":"d7f61796-ca4b-4f98-841e-c061517291ec","system_id":"levelo_inurba_marseille","lat":43.286961,"lon":5.373785,"is_reserved":false,"is_disabled":false,"rental_uris":{"android":"levelo://app?vid=d7f61796-ca4b-4f98-841e-c061517291ec","ios":"levelo://app?vid=d7f61796-ca4b-4f98-841e-c061517291ec"},"vehicle_type_id":"4","last_reported":1718993470,"current_range_meters":28800,"station_id":"ce4bh3p2rcd13ifvqdq0","pricing_plan_id":"cebpf4jnsgd1na2vs0mg"},{"bike_id":"5be12bc2-761d-4bae-9ec8-a802d5fc2258","system_id":"levelo_inurba_marseille","lat":43.286593,"lon":5.363346,"is_reserved":false,"is_disabled":false,"rental_uris":{"android":"levelo://app?vid=5be12bc2-761d-4bae-9ec8-a802d5fc2258","ios":"levelo://app?vid=5be12bc2-761d-4bae-9ec8-a802d5fc2258"},"vehicle_type_id":"4","last_reported":1718993470,"current_range_meters":0,"station_id":"ce4bhah2rcd13ifvqej0","pricing_plan_id":"cebpf4jnsgd1na2vs0mg"},{"bike_id":"5f95bddd-8ad1-4ef5-ba36-0728245cb251","system_id":"levelo_inurba_marseille","lat":43.29861,"lon":5.3974,"is_reserved":false,"is_disabled":false,"rental_uris":{"android":"levelo://app?vid=5f95bddd-8ad1-4ef5-ba36-0728245cb251","ios":"levelo://app?vid=5f95bddd-8ad1-4ef5-ba36-0728245cb251"},"vehicle_type_id":"4","last_reported":1718993470,"current_range_meters":0,"station_id":"ce4bh0h2rcd13ifvqd50","pricing_plan_id":"cebpf4jnsgd1na2vs0mg"},{"bike_id":"3a9f9167-cd54-4da5-9ad9-9192d81c6685","system_id":"levelo_inurba_marseille","lat":43.29852,"lon":5.39742,"is_reserved":false,"is_disabled":false,"rental_uris":{"android":"levelo://app?vid=3a9f9167-cd54-4da5-9ad9-9192d81c6685","ios":"levelo://app?vid=3a9f9167-cd54-4da5-9ad9-9192d81c6685"},"vehicle_type_id":"4","last_reported":1718993470,"current_range_meters":0,"station_id":"ce4bh0h2rcd13ifvqd50","pricing_plan_id":"cebpf4jnsgd1na2vs0mg"},{"bike_id":"32cd5108-1c92-4a1d-92d2-b7c90408ab0c","system_id":"levelo_inurba_marseille","lat":43.2952,"lon":5.39397,"is_reserved":false,"is_disabled":false,"rental_uris":{"android":"levelo://app?vid=32cd5108-1c92-4a1d-92d2-b7c90408ab0c","ios":"levelo://app?vid=32cd5108-1c92-4a1d-92d2-b7c90408ab0c"},"vehicle_type_id":"4","last_reported":1718993470,"current_range_meters":0,"station_id":"ce4bh292rcd13ifvqdf0","pricing_plan_id":"cebpf4jnsgd1na2vs0mg"},{"bike_id":"5c980368-d7a3-4d7e-83a2-1548dc4cf2d7","system_id":"levelo_inurba_marseille","lat":43.302759,"lon":5.400793,"is_reserved":false,"is_disabled":false,"rental_uris":{"android":"levelo://app?vid=5c980368-d7a3-4d7e-83a2-1548dc4cf2d7","ios":"levelo://app?vid=5c980368-d7a3-4d7e-83a2-1548dc4cf2d7"},"vehicle_type_id":"4","last_reported":1718993470,"current_range_meters":0,"station_id":"ce4bgvh2rcd13ifvqcs0","pricing_plan_id":"cebpf4jnsgd1na2vs0mg"},{"bike_id":"6ac7c400-851b-4481-abb1-c0e2fb80fa35","system_id":"levelo_inurba_marseille","lat":43.302759,"lon":5.400793,"is_reserved":false,"is_disabled":false,"rental_uris":{"android":"levelo://app?vid=6ac7c400-851b-4481-abb1-c0e2fb80fa35","ios":"levelo://app?vid=6ac7c400-851b-4481-abb1-c0e2fb80fa35"},"vehicle_type_id":"4","last_reported":1718993470,"current_range_meters":0,"station_id":"ce4bgvh2rcd13ifvqcs0","pricing_plan_id":"cebpf4jnsgd1na2vs0mg"},{"bike_id":"e7d34b20-5b37-4465-a8b3-a89feb845462","system_id":"levelo_inurba_marseille","lat":43.290345,"lon":5.38646,"is_reserved":false,"is_disabled":false,"rental_uris":{"android":"levelo://app?vid=e7d34b20-5b37-4465-a8b3-a89feb845462","ios":"levelo://app?vid=e7d34b20-5b37-4465-a8b3-a89feb845462"},"vehicle_type_id":"4","last_reported":1718993470,"current_range_meters":31200,"station_id":"ce4bh4p2rcd13ifvqe0g","pricing_plan_id":"cebpf4jnsgd1na2vs0mg"},{"bike_id":"e1c32da4-6a43-4e9d-902b-ab529b5127fd","system_id":"levelo_inurba_marseille","lat":43.290345,"lon":5.38646,"is_reserved":false,"is_disabled":false,"rental_uris":{"android":"levelo://app?vid=e1c32da4-6a43-4e9d-902b-ab529b5127fd","ios":"levelo://app?vid=e1c32da4-6a43-4e9d-902b-ab529b5127fd"},"vehicle_type_id":"4","last_reported":1718993470,"current_range_meters":31600,"station_id":"ce4bh4p2rcd13ifvqe0g","pricing_plan_id":"cebpf4jnsgd1na2vs0mg"},{"bike_id":"9886c304-21b2-4d1e-996c-78518a5f90e2","system_id":"levelo_inurba_marseille","lat":43.290336,"lon":5.386425,"is_reserved":false,"is_disabled":false,"rental_uris":{"android":"levelo://app?vid=9886c304-21b2-4d1e-996c-78518a5f90e2","ios":"levelo://app?vid=9886c304-21b2-4d1e-996c-78518a5f90e2"},"vehicle_type_id":"4","last_reported":1718993470,"current_range_meters":1200,"station_id":"ce4bh4p2rcd13ifvqe0g","pricing_plan_id":"cebpf4jnsgd1na2vs0mg"},{"bike_id":"e313f13f-bb64-4871-8382-fe2732c893e7","system_id":"levelo_inurba_marseille","lat":43.302759,"lon":5.400793,"is_reserved":false,"is_disabled":false,"rental_uris":{"android":"levelo://app?vid=e313f13f-bb64-4871-8382-fe2732c893e7","ios":"levelo://app?vid=e313f13f-bb64-4871-8382-fe2732c893e7"},"vehicle_type_id":"4","last_reported":1718993470,"current_range_meters":0,"station_id":"ce4bgvh2rcd13ifvqcs0","pricing_plan_id":"cebpf4jnsgd1na2vs0mg"},{"bike_id":"f433d72e-4fee-4aa2-b978-68d0f090a00a","system_id":"levelo_inurba_marseille","lat":43.29029,"lon":5.38645,"is_reserved":false,"is_disabled":false,"rental_uris":{"android":"levelo://app?vid=f433d72e-4fee-4aa2-b978-68d0f090a00a","ios":"levelo://app?vid=f433d72e-4fee-4aa2-b978-68d0f090a00a"},"vehicle_type_id":"4","last_reported":1718993470,"current_range_meters":25600,"station_id":"ce4bh4p2rcd13ifvqe0g","pricing_plan_id":"cebpf4jnsgd1na2vs0mg"},{"bike_id":"0f648260-ef8b-4d65-bd28-6840f9b9981d","system_id":"levelo_inurba_marseille","lat":43.290336,"lon":5.386425,"is_reserved":false,"is_disabled":false,"rental_uris":{"android":"levelo://app?vid=0f648260-ef8b-4d65-bd28-6840f9b9981d","ios":"levelo://app?vid=0f648260-ef8b-4d65-bd28-6840f9b9981d"},"vehicle_type_id":"4","last_reported":1718993470,"current_range_meters":9200,"station_id":"ce4bh4p2rcd13ifvqe0g","pricing_plan_id":"cebpf4jnsgd1na2vs0mg"},{"bike_id":"9761c311-5a47-4732-bbb3-d2a6039c5847","system_id":"levelo_inurba_marseille","lat":43.290345,"lon":5.38646,"is_reserved":false,"is_disabled":false,"rental_uris":{"android":"levelo://app?vid=9761c311-5a47-4732-bbb3-d2a6039c5847","ios":"levelo://app?vid=9761c311-5a47-4732-bbb3-d2a6039c5847"},"vehicle_type_id":"4","last_reported":1718993470,"current_range_meters":22000,"station_id":"ce4bh4p2rcd13ifvqe0g","pricing_plan_id":"cebpf4jnsgd1na2vs0mg"},{"bike_id":"f6ba76c6-f070-44ca-8b3c-c88941323225","system_id":"levelo_inurba_marseille","lat":43.290336,"lon":5.386425,"is_reserved":false,"is_disabled":false,"rental_uris":{"android":"levelo://app?vid=f6ba76c6-f070-44ca-8b3c-c88941323225","ios":"levelo://app?vid=f6ba76c6-f070-44ca-8b3c-c88941323225"},"vehicle_type_id":"4","last_reported":1718993470,"current_range_meters":13600,"station_id":"ce4bh4p2rcd13ifvqe0g","pricing_plan_id":"cebpf4jnsgd1na2vs0mg"},{"bike_id":"4a7300e5-6955-4431-881e-84a113cf786e","system_id":"levelo_inurba_marseille","lat":43.289307,"lon":5.38406,"is_reserved":false,"is_disabled":false,"rental_uris":{"android":"levelo://app?vid=4a7300e5-6955-4431-881e-84a113cf786e","ios":"levelo://app?vid=4a7300e5-6955-4431-881e-84a113cf786e"},"vehicle_type_id":"4","last_reported":1718993470,"current_range_meters":400,"station_id":"ce4bh612rcd13ifvqe6g","pricing_plan_id":"cebpf4jnsgd1na2vs0mg"},{"bike_id":"bc17386f-0ea8-404b-b2ea-62c9ab8c17d5","system_id":"levelo_inurba_marseille","lat":43.290336,"lon":5.386425,"is_reserved":false,"is_disabled":false,"rental_uris":{"android":"levelo://app?vid=bc17386f-0ea8-404b-b2ea-62c9ab8c17d5","ios":"levelo://app?vid=bc17386f-0ea8-404b-b2ea-62c9ab8c17d5"},"vehicle_type_id":"4","last_reported":1718993470,"current_range_meters":13200,"station_id":"ce4bh4p2rcd13ifvqe0g","pricing_plan_id":"cebpf4jnsgd1na2vs0mg"},{"bike_id":"2a83b2d3-c1ce-4c20-90b5-cb0febd449b0","system_id":"levelo_inurba_marseille","lat":43.290336,"lon":5.386425,"is_reserved":false,"is_disabled":false,"rental_uris":{"android":"levelo://app?vid=2a83b2d3-c1ce-4c20-90b5-cb0febd449b0","ios":"levelo://app?vid=2a83b2d3-c1ce-4c20-90b5-cb0febd449b0"},"vehicle_type_id":"4","last_reported":1718993470,"current_range_meters":31200,"station_id":"ce4bh4p2rcd13ifvqe0g","pricing_plan_id":"cebpf4jnsgd1na2vs0mg"},{"bike_id":"5839619a-d57f-4e35-b514-37e74a1631c6","system_id":"levelo_inurba_marseille","lat":43.289307,"lon":5.38406,"is_reserved":false,"is_disabled":false,"rental_uris":{"android":"levelo://app?vid=5839619a-d57f-4e35-b514-37e74a1631c6","ios":"levelo://app?vid=5839619a-d57f-4e35-b514-37e74a1631c6"},"vehicle_type_id":"4","last_reported":1718993470,"current_range_meters":0,"station_id":"ce4bh612rcd13ifvqe6g","pricing_plan_id":"cebpf4jnsgd1na2vs0mg"},{"bike_id":"fef8b7d2-d17e-40e7-a449-f56a83246bb8","system_id":"levelo_inurba_marseille","lat":43.31261,"lon":5.40492,"is_reserved":false,"is_disabled":false,"rental_uris":{"android":"levelo://app?vid=fef8b7d2-d17e-40e7-a449-f56a83246bb8","ios":"levelo://app?vid=fef8b7d2-d17e-40e7-a449-f56a83246bb8"},"vehicle_type_id":"4","last_reported":1718993470,"current_range_meters":2800,"station_id":"","pricing_plan_id":"cebpf4jnsgd1na2vs0mg"},{"bike_id":"f4a6fccf-6457-4706-8b9a-ed6eb67df10f","system_id":"levelo_inurba_marseille","lat":43.316828,"lon":5.404723,"is_reserved":false,"is_disabled":false,"rental_uris":{"android":"levelo://app?vid=f4a6fccf-6457-4706-8b9a-ed6eb67df10f","ios":"levelo://app?vid=f4a6fccf-6457-4706-8b9a-ed6eb67df10f"},"vehicle_type_id":"4","last_reported":1718993470,"current_range_meters":0,"station_id":"ce4bh012rcd13ifvqd00","pricing_plan_id":"cebpf4jnsgd1na2vs0mg"},{"bike_id":"d1b09e0a-5d6f-4098-abaa-f976d0b8543e","system_id":"levelo_inurba_marseille","lat":43.291994,"lon":5.392907,"is_reserved":false,"is_disabled":false,"rental_uris":{"android":"levelo://app?vid=d1b09e0a-5d6f-4098-abaa-f976d0b8543e","ios":"levelo://app?vid=d1b09e0a-5d6f-4098-abaa-f976d0b8543e"},"vehicle_type_id":"4","last_reported":1718993470,"current_range_meters":11600,"station_id":"ce4bh192rcd13ifvqdd0","pricing_plan_id":"cebpf4jnsgd1na2vs0mg"},{"bike_id":"0a081350-4546-4fd6-a905-bcec885e3887","system_id":"levelo_inurba_marseille","lat":43.291994,"lon":5.392907,"is_reserved":false,"is_disabled":false,"rental_uris":{"android":"levelo://app?vid=0a081350-4546-4fd6-a905-bcec885e3887","ios":"levelo://app?vid=0a081350-4546-4fd6-a905-bcec885e3887"},"vehicle_type_id":"4","last_reported":1718993470,"current_range_meters":3600,"station_id":"ce4bh192rcd13ifvqdd0","pricing_plan_id":"cebpf4jnsgd1na2vs0mg"},{"bike_id":"08a204a9-53e4-4a4c-8d40-ba16992aa2b4","system_id":"levelo_inurba_marseille","lat":43.291994,"lon":5.392907,"is_reserved":false,"is_disabled":false,"rental_uris":{"android":"levelo://app?vid=08a204a9-53e4-4a4c-8d40-ba16992aa2b4","ios":"levelo://app?vid=08a204a9-53e4-4a4c-8d40-ba16992aa2b4"},"vehicle_type_id":"4","last_reported":1718993470,"current_range_meters":0,"station_id":"ce4bh192rcd13ifvqdd0","pricing_plan_id":"cebpf4jnsgd1na2vs0mg"},{"bike_id":"c32af4b2-bb77-423b-97bf-bcef02fec79e","system_id":"levelo_inurba_marseille","lat":43.291994,"lon":5.392907,"is_reserved":false,"is_disabled":false,"rental_uris":{"android":"levelo://app?vid=c32af4b2-bb77-423b-97bf-bcef02fec79e","ios":"levelo://app?vid=c32af4b2-bb77-423b-97bf-bcef02fec79e"},"vehicle_type_id":"4","last_reported":1718993470,"current_range_meters":17200,"station_id":"ce4bh192rcd13ifvqdd0","pricing_plan_id":"cebpf4jnsgd1na2vs0mg"},{"bike_id":"bc956cb7-a470-4b84-9039-0022e6c8e1fc","system_id":"levelo_inurba_marseille","lat":43.28672,"lon":5.38318,"is_reserved":false,"is_disabled":false,"rental_uris":{"android":"levelo://app?vid=bc956cb7-a470-4b84-9039-0022e6c8e1fc","ios":"levelo://app?vid=bc956cb7-a470-4b84-9039-0022e6c8e1fc"},"vehicle_type_id":"4","last_reported":1718993470,"current_range_meters":28000,"station_id":"","pricing_plan_id":"cebpf4jnsgd1na2vs0mg"},{"bike_id":"a9c0b233-1bc8-4e92-bb0d-ec00e286d98e","system_id":"levelo_inurba_marseille","lat":43.28461,"lon":5.35894,"is_reserved":false,"is_disabled":false,"rental_uris":{"android":"levelo://app?vid=a9c0b233-1bc8-4e92-bb0d-ec00e286d98e","ios":"levelo://app?vid=a9c0b233-1bc8-4e92-bb0d-ec00e286d98e"},"vehicle_type_id":"4","last_reported":1718993470,"current_range_meters":0,"station_id":"ce4bhah2rcd13ifvqei0","pricing_plan_id":"cebpf4jnsgd1na2vs0mg"},{"bike_id":"070819b0-cd0b-4a14-b5a3-4f3ad3441064","system_id":"levelo_inurba_marseille","lat":43.294385,"lon":5.397668,"is_reserved":false,"is_disabled":false,"rental_uris":{"android":"levelo://app?vid=070819b0-cd0b-4a14-b5a3-4f3ad3441064","ios":"levelo://app?vid=070819b0-cd0b-4a14-b5a3-4f3ad3441064"},"vehicle_type_id":"4","last_reported":1718993470,"current_range_meters":0,"station_id":"ce4bh3h2rcd13ifvqdo0","pricing_plan_id":"cebpf4jnsgd1na2vs0mg"},{"bike_id":"f4d6c5ba-28f0-4c5f-be66-76c3668f57f3","system_id":"levelo_inurba_marseille","lat":43.28618,"lon":5.35104,"is_reserved":false,"is_disabled":false,"rental_uris":{"android":"levelo://app?vid=f4d6c5ba-28f0-4c5f-be66-76c3668f57f3","ios":"levelo://app?vid=f4d6c5ba-28f0-4c5f-be66-76c3668f57f3"},"vehicle_type_id":"4","last_reported":1718993470,"current_range_meters":0,"station_id":"ce4bhch2rcd13ifvqeug","pricing_plan_id":"cebpf4jnsgd1na2vs0mg"},{"bike_id":"a5e41701-8457-4537-afc3-f9931b06d611","system_id":"levelo_inurba_marseille","lat":43.28617,"lon":5.35104,"is_reserved":false,"is_disabled":false,"rental_uris":{"android":"levelo://app?vid=a5e41701-8457-4537-afc3-f9931b06d611","ios":"levelo://app?vid=a5e41701-8457-4537-afc3-f9931b06d611"},"vehicle_type_id":"4","last_reported":1718993470,"current_range_meters":12000,"station_id":"ce4bhch2rcd13ifvqeug","pricing_plan_id":"cebpf4jnsgd1na2vs0mg"},{"bike_id":"7fc9eae2-e166-4062-bd6e-9a41c43b0258","system_id":"levelo_inurba_marseille","lat":43.285856,"lon":5.350771,"is_reserved":false,"is_disabled":false,"rental_uris":{"android":"levelo://app?vid=7fc9eae2-e166-4062-bd6e-9a41c43b0258","ios":"levelo://app?vid=7fc9eae2-e166-4062-bd6e-9a41c43b0258"},"vehicle_type_id":"4","last_reported":1718993470,"current_range_meters":0,"station_id":"ce4bhch2rcd13ifvqeug","pricing_plan_id":"cebpf4jnsgd1na2vs0mg"},{"bike_id":"89142576-7a65-480c-9275-ccc24bdaea73","system_id":"levelo_inurba_marseille","lat":43.286147,"lon":5.350967,"is_reserved":false,"is_disabled":false,"rental_uris":{"android":"levelo://app?vid=89142576-7a65-480c-9275-ccc24bdaea73","ios":"levelo://app?vid=89142576-7a65-480c-9275-ccc24bdaea73"},"vehicle_type_id":"4","last_reported":1718993470,"current_range_meters":0,"station_id":"ce4bhch2rcd13ifvqeug","pricing_plan_id":"cebpf4jnsgd1na2vs0mg"},{"bike_id":"ba347d5f-bb1f-4d4f-a821-8c83b4dfcf5d","system_id":"levelo_inurba_marseille","lat":43.28614,"lon":5.35098,"is_reserved":false,"is_disabled":false,"rental_uris":{"android":"levelo://app?vid=ba347d5f-bb1f-4d4f-a821-8c83b4dfcf5d","ios":"levelo://app?vid=ba347d5f-bb1f-4d4f-a821-8c83b4dfcf5d"},"vehicle_type_id":"4","last_reported":1718993470,"current_range_meters":0,"station_id":"ce4bhch2rcd13ifvqeug","pricing_plan_id":"cebpf4jnsgd1na2vs0mg"},{"bike_id":"79d75958-de16-4166-9092-184f9507e781","system_id":"levelo_inurba_marseille","lat":43.29742,"lon":5.40131,"is_reserved":false,"is_disabled":false,"rental_uris":{"android":"levelo://app?vid=79d75958-de16-4166-9092-184f9507e781","ios":"levelo://app?vid=79d75958-de16-4166-9092-184f9507e781"},"vehicle_type_id":"4","last_reported":1718993470,"current_range_meters":1200,"station_id":"","pricing_plan_id":"cebpf4jnsgd1na2vs0mg"},{"bike_id":"87cc4607-b9d0-42ac-bfb2-8d1086f39b0f","system_id":"levelo_inurba_marseille","lat":43.283998,"lon":5.375062,"is_reserved":false,"is_disabled":false,"rental_uris":{"android":"levelo://app?vid=87cc4607-b9d0-42ac-bfb2-8d1086f39b0f","ios":"levelo://app?vid=87cc4607-b9d0-42ac-bfb2-8d1086f39b0f"},"vehicle_type_id":"4","last_reported":1718993470,"current_range_meters":13600,"station_id":"ce4bh412rcd13ifvqds0","pricing_plan_id":"cebpf4jnsgd1na2vs0mg"},{"bike_id":"8b19b793-8e5a-41fa-ac3a-8c80c1cdceed","system_id":"levelo_inurba_marseille","lat":43.299589,"lon":5.403065,"is_reserved":false,"is_disabled":false,"rental_uris":{"android":"levelo://app?vid=8b19b793-8e5a-41fa-ac3a-8c80c1cdceed","ios":"levelo://app?vid=8b19b793-8e5a-41fa-ac3a-8c80c1cdceed"},"vehicle_type_id":"4","last_reported":1718993470,"current_range_meters":20000,"station_id":"","pricing_plan_id":"cebpf4jnsgd1na2vs0mg"},{"bike_id":"e41a6098-0dcb-452e-bb30-76fdf9de6c46","system_id":"levelo_inurba_marseille","lat":43.283998,"lon":5.375062,"is_reserved":false,"is_disabled":false,"rental_uris":{"android":"levelo://app?vid=e41a6098-0dcb-452e-bb30-76fdf9de6c46","ios":"levelo://app?vid=e41a6098-0dcb-452e-bb30-76fdf9de6c46"},"vehicle_type_id":"4","last_reported":1718993470,"current_range_meters":8800,"station_id":"ce4bh412rcd13ifvqds0","pricing_plan_id":"cebpf4jnsgd1na2vs0mg"},{"bike_id":"7bbf6844-e938-4f97-86fe-462c7204ba78","system_id":"levelo_inurba_marseille","lat":43.286595,"lon":5.386795,"is_reserved":false,"is_disabled":false,"rental_uris":{"android":"levelo://app?vid=7bbf6844-e938-4f97-86fe-462c7204ba78","ios":"levelo://app?vid=7bbf6844-e938-4f97-86fe-462c7204ba78"},"vehicle_type_id":"4","last_reported":1718993470,"current_range_meters":1200,"station_id":"ce4bh492rcd13ifvqdug","pricing_plan_id":"cebpf4jnsgd1na2vs0mg"},{"bike_id":"202744f3-ea1e-4cc2-997d-4e528a2a7d7f","system_id":"levelo_inurba_marseille","lat":43.286595,"lon":5.386795,"is_reserved":false,"is_disabled":false,"rental_uris":{"android":"levelo://app?vid=202744f3-ea1e-4cc2-997d-4e528a2a7d7f","ios":"levelo://app?vid=202744f3-ea1e-4cc2-997d-4e528a2a7d7f"},"vehicle_type_id":"4","last_reported":1718993470,"current_range_meters":4400,"station_id":"ce4bh492rcd13ifvqdug","pricing_plan_id":"cebpf4jnsgd1na2vs0mg"},{"bike_id":"1f4be38a-3b98-428c-863a-5b9a1ddaf907","system_id":"levelo_inurba_marseille","lat":43.286595,"lon":5.386795,"is_reserved":false,"is_disabled":false,"rental_uris":{"android":"levelo://app?vid=1f4be38a-3b98-428c-863a-5b9a1ddaf907","ios":"levelo://app?vid=1f4be38a-3b98-428c-863a-5b9a1ddaf907"},"vehicle_type_id":"4","last_reported":1718993470,"current_range_meters":8400,"station_id":"ce4bh492rcd13ifvqdug","pricing_plan_id":"cebpf4jnsgd1na2vs0mg"},{"bike_id":"bcb15c73-3172-40c4-afc7-af80fe10ed59","system_id":"levelo_inurba_marseille","lat":43.319179,"lon":5.407725,"is_reserved":false,"is_disabled":false,"rental_uris":{"android":"levelo://app?vid=bcb15c73-3172-40c4-afc7-af80fe10ed59","ios":"levelo://app?vid=bcb15c73-3172-40c4-afc7-af80fe10ed59"},"vehicle_type_id":"4","last_reported":1718993470,"current_range_meters":30400,"station_id":"ce4bhq12rcd13ifvqhig","pricing_plan_id":"cebpf4jnsgd1na2vs0mg"},{"bike_id":"9458f78c-ddb6-4803-8cbf-e53fedf3d2e1","system_id":"levelo_inurba_marseille","lat":43.319179,"lon":5.407725,"is_reserved":false,"is_disabled":false,"rental_uris":{"android":"levelo://app?vid=9458f78c-ddb6-4803-8cbf-e53fedf3d2e1","ios":"levelo://app?vid=9458f78c-ddb6-4803-8cbf-e53fedf3d2e1"},"vehicle_type_id":"4","last_reported":1718993470,"current_range_meters":0,"station_id":"ce4bhq12rcd13ifvqhig","pricing_plan_id":"cebpf4jnsgd1na2vs0mg"},{"bike_id":"d115e95a-e059-49fe-9175-432de25339ae","system_id":"levelo_inurba_marseille","lat":43.284793,"lon":5.384119,"is_reserved":false,"is_disabled":false,"rental_uris":{"android":"levelo://app?vid=d115e95a-e059-49fe-9175-432de25339ae","ios":"levelo://app?vid=d115e95a-e059-49fe-9175-432de25339ae"},"vehicle_type_id":"4","last_reported":1718993470,"current_range_meters":0,"station_id":"ce4bh512rcd13ifvqe3g","pricing_plan_id":"cebpf4jnsgd1na2vs0mg"},{"bike_id":"b592e716-bbbf-4f7b-a398-a37d904f5cd0","system_id":"levelo_inurba_marseille","lat":43.28455,"lon":5.34948,"is_reserved":false,"is_disabled":false,"rental_uris":{"android":"levelo://app?vid=b592e716-bbbf-4f7b-a398-a37d904f5cd0","ios":"levelo://app?vid=b592e716-bbbf-4f7b-a398-a37d904f5cd0"},"vehicle_type_id":"4","last_reported":1718993470,"current_range_meters":0,"station_id":"ce4bhbh2rcd13ifvqepg","pricing_plan_id":"cebpf4jnsgd1na2vs0mg"},{"bike_id":"e5860d33-2b70-473b-b6b5-4752f882ffa2","system_id":"levelo_inurba_marseille","lat":43.284776,"lon":5.385603,"is_reserved":false,"is_disabled":false,"rental_uris":{"android":"levelo://app?vid=e5860d33-2b70-473b-b6b5-4752f882ffa2","ios":"levelo://app?vid=e5860d33-2b70-473b-b6b5-4752f882ffa2"},"vehicle_type_id":"4","last_reported":1718993470,"current_range_meters":0,"station_id":"ce4bh8p2rcd13ifvqeb0","pricing_plan_id":"cebpf4jnsgd1na2vs0mg"},{"bike_id":"862b744d-3e07-47dd-a83b-ea21db75533e","system_id":"levelo_inurba_marseille","lat":43.284219,"lon":5.3497,"is_reserved":false,"is_disabled":false,"rental_uris":{"android":"levelo://app?vid=862b744d-3e07-47dd-a83b-ea21db75533e","ios":"levelo://app?vid=862b744d-3e07-47dd-a83b-ea21db75533e"},"vehicle_type_id":"4","last_reported":1718993470,"current_range_meters":400,"station_id":"ce4bhbh2rcd13ifvqepg","pricing_plan_id":"cebpf4jnsgd1na2vs0mg"},{"bike_id":"4d58bca4-c1af-4787-903c-f171fe6a6b40","system_id":"levelo_inurba_marseille","lat":43.292724,"lon":5.401131,"is_reserved":false,"is_disabled":false,"rental_uris":{"android":"levelo://app?vid=4d58bca4-c1af-4787-903c-f171fe6a6b40","ios":"levelo://app?vid=4d58bca4-c1af-4787-903c-f171fe6a6b40"},"vehicle_type_id":"4","last_reported":1718993470,"current_range_meters":0,"station_id":"ce4bh312rcd13ifvqdk0","pricing_plan_id":"cebpf4jnsgd1na2vs0mg"},{"bike_id":"f98845bb-1df5-4e13-af7f-a115735df159","system_id":"levelo_inurba_marseille","lat":43.282754,"lon":5.350519,"is_reserved":false,"is_disabled":false,"rental_uris":{"android":"levelo://app?vid=f98845bb-1df5-4e13-af7f-a115735df159","ios":"levelo://app?vid=f98845bb-1df5-4e13-af7f-a115735df159"},"vehicle_type_id":"4","last_reported":1718993470,"current_range_meters":3200,"station_id":"ce4bhbp2rcd13ifvqerg","pricing_plan_id":"cebpf4jnsgd1na2vs0mg"},{"bike_id":"ed2e72ea-f534-4bf4-89c4-c0c3d30d78f7","system_id":"levelo_inurba_marseille","lat":43.28269,"lon":5.35054,"is_reserved":false,"is_disabled":false,"rental_uris":{"android":"levelo://app?vid=ed2e72ea-f534-4bf4-89c4-c0c3d30d78f7","ios":"levelo://app?vid=ed2e72ea-f534-4bf4-89c4-c0c3d30d78f7"},"vehicle_type_id":"4","last_reported":1718993470,"current_range_meters":0,"station_id":"ce4bhbp2rcd13ifvqerg","pricing_plan_id":"cebpf4jnsgd1na2vs0mg"},{"bike_id":"9255eb29-0250-471f-982b-ed9f39790a17","system_id":"levelo_inurba_marseille","lat":43.28042,"lon":5.36939,"is_reserved":false,"is_disabled":false,"rental_uris":{"android":"levelo://app?vid=9255eb29-0250-471f-982b-ed9f39790a17","ios":"levelo://app?vid=9255eb29-0250-471f-982b-ed9f39790a17"},"vehicle_type_id":"4","last_reported":1718993470,"current_range_meters":0,"station_id":"ce4bha12rcd13ifvqef0","pricing_plan_id":"cebpf4jnsgd1na2vs0mg"},{"bike_id":"ea942eb6-dfd0-4019-865e-2ee070744d34","system_id":"levelo_inurba_marseille","lat":43.2804,"lon":5.36942,"is_reserved":false,"is_disabled":false,"rental_uris":{"android":"levelo://app?vid=ea942eb6-dfd0-4019-865e-2ee070744d34","ios":"levelo://app?vid=ea942eb6-dfd0-4019-865e-2ee070744d34"},"vehicle_type_id":"4","last_reported":1718993470,"current_range_meters":10400,"station_id":"ce4bha12rcd13ifvqef0","pricing_plan_id":"cebpf4jnsgd1na2vs0mg"},{"bike_id":"9103ef15-b427-4691-a240-2a028aec6085","system_id":"levelo_inurba_marseille","lat":43.282744,"lon":5.350533,"is_reserved":false,"is_disabled":false,"rental_uris":{"android":"levelo://app?vid=9103ef15-b427-4691-a240-2a028aec6085","ios":"levelo://app?vid=9103ef15-b427-4691-a240-2a028aec6085"},"vehicle_type_id":"4","last_reported":1718993470,"current_range_meters":0,"station_id":"ce4bhbp2rcd13ifvqerg","pricing_plan_id":"cebpf4jnsgd1na2vs0mg"},{"bike_id":"a7aac065-ad35-4aa5-9eac-0d21958400cf","system_id":"levelo_inurba_marseille","lat":43.28033,"lon":5.36928,"is_reserved":false,"is_disabled":false,"rental_uris":{"android":"levelo://app?vid=a7aac065-ad35-4aa5-9eac-0d21958400cf","ios":"levelo://app?vid=a7aac065-ad35-4aa5-9eac-0d21958400cf"},"vehicle_type_id":"4","last_reported":1718993470,"current_range_meters":0,"station_id":"ce4bha12rcd13ifvqef0","pricing_plan_id":"cebpf4jnsgd1na2vs0mg"},{"bike_id":"23b32089-2dff-46ab-844e-732aca7266d9","system_id":"levelo_inurba_marseille","lat":43.28027,"lon":5.36939,"is_reserved":false,"is_disabled":false,"rental_uris":{"android":"levelo://app?vid=23b32089-2dff-46ab-844e-732aca7266d9","ios":"levelo://app?vid=23b32089-2dff-46ab-844e-732aca7266d9"},"vehicle_type_id":"4","last_reported":1718993470,"current_range_meters":9600,"station_id":"ce4bha12rcd13ifvqef0","pricing_plan_id":"cebpf4jnsgd1na2vs0mg"},{"bike_id":"0a385ca2-0da8-448c-8e06-56f88163f6dc","system_id":"levelo_inurba_marseille","lat":43.281044,"lon":5.378308,"is_reserved":false,"is_disabled":false,"rental_uris":{"android":"levelo://app?vid=0a385ca2-0da8-448c-8e06-56f88163f6dc","ios":"levelo://app?vid=0a385ca2-0da8-448c-8e06-56f88163f6dc"},"vehicle_type_id":"4","last_reported":1718993470,"current_range_meters":0,"station_id":"ce4bha12rcd13ifvqee0","pricing_plan_id":"cebpf4jnsgd1na2vs0mg"},{"bike_id":"d8f8b410-f8aa-40c5-8b37-b09cba18f34e","system_id":"levelo_inurba_marseille","lat":43.281044,"lon":5.378308,"is_reserved":false,"is_disabled":false,"rental_uris":{"android":"levelo://app?vid=d8f8b410-f8aa-40c5-8b37-b09cba18f34e","ios":"levelo://app?vid=d8f8b410-f8aa-40c5-8b37-b09cba18f34e"},"vehicle_type_id":"4","last_reported":1718993470,"current_range_meters":16000,"station_id":"ce4bha12rcd13ifvqee0","pricing_plan_id":"cebpf4jnsgd1na2vs0mg"},{"bike_id":"794e62f3-411d-43d4-aa74-32f1cb78af6b","system_id":"levelo_inurba_marseille","lat":43.284462,"lon":5.392121,"is_reserved":false,"is_disabled":false,"rental_uris":{"android":"levelo://app?vid=794e62f3-411d-43d4-aa74-32f1cb78af6b","ios":"levelo://app?vid=794e62f3-411d-43d4-aa74-32f1cb78af6b"},"vehicle_type_id":"4","last_reported":1718993470,"current_range_meters":8000,"station_id":"ce4bhoh2rcd13ifvqh5g","pricing_plan_id":"cebpf4jnsgd1na2vs0mg"},{"bike_id":"a8f56f87-dd9e-4dfd-9271-8c1b73cdc72c","system_id":"levelo_inurba_marseille","lat":43.285742,"lon":5.395004,"is_reserved":false,"is_disabled":false,"rental_uris":{"android":"levelo://app?vid=a8f56f87-dd9e-4dfd-9271-8c1b73cdc72c","ios":"levelo://app?vid=a8f56f87-dd9e-4dfd-9271-8c1b73cdc72c"},"vehicle_type_id":"4","last_reported":1718993470,"current_range_meters":7600,"station_id":"ce4bh292rcd13ifvqdg0","pricing_plan_id":"cebpf4jnsgd1na2vs0mg"},{"bike_id":"c8885bec-20bc-453d-a81b-dacd8b0436b5","system_id":"levelo_inurba_marseille","lat":43.2857,"lon":5.3949,"is_reserved":false,"is_disabled":false,"rental_uris":{"android":"levelo://app?vid=c8885bec-20bc-453d-a81b-dacd8b0436b5","ios":"levelo://app?vid=c8885bec-20bc-453d-a81b-dacd8b0436b5"},"vehicle_type_id":"4","last_reported":1718993470,"current_range_meters":0,"station_id":"ce4bh292rcd13ifvqdg0","pricing_plan_id":"cebpf4jnsgd1na2vs0mg"},{"bike_id":"4ef6c2aa-4127-461a-b617-68b5d1020270","system_id":"levelo_inurba_marseille","lat":43.28573,"lon":5.394992,"is_reserved":false,"is_disabled":false,"rental_uris":{"android":"levelo://app?vid=4ef6c2aa-4127-461a-b617-68b5d1020270","ios":"levelo://app?vid=4ef6c2aa-4127-461a-b617-68b5d1020270"},"vehicle_type_id":"4","last_reported":1718993470,"current_range_meters":8400,"station_id":"ce4bh292rcd13ifvqdg0","pricing_plan_id":"cebpf4jnsgd1na2vs0mg"},