{"last_updated":1725181752,"ttl":30,"version":"2.2","data":{"bikes":[{"bike_id":"60ab3337-483b-4230-89ed-7a3cccab053c","system_id":"levelo_inurba_marseille","lat":43.31341,"lon":5.367098,"is_reserved":false,"is_disabled":false,"rental_uris":{"android":"levelo://app?vid=60ab3337-483b-4230-89ed-7a3cccab053c","ios":"levelo://app?vid=60ab3337-483b-4230-89ed-7a3cccab053c"},"vehicle_type_id":"4","last_reported":1725181752,"current_range_meters":18000,"station_id":"ce4bgr92rcd13ifvqc6g","pricing_plan_id":"cebpf4jnsgd1na2vs0mg"},{"bike_id":"df084a1e-8d8d-42df-a32c-147f111c8c32","system_id":"levelo_inurba_marseille","lat":43.313391,"lon":5.36706,"is_reserved":false,"is_disabled":false,"rental_uris":{"android":"levelo://app?vid=df084a1e-8d8d-42df-a32c-147f111c8c32","ios":"levelo://app?vid=df084a1e-8d8d-42df-a32c-147f111c8c32"},"vehicle_type_id":"4","last_reported":1725181752,"current_range_meters":31600,"station_id":"ce4bgr92rcd13ifvqc6g","pricing_plan_id":"cebpf4jnsgd1na2vs0mg"},{"bike_id":"a9747fd2-8cb7-4027-a49b-ca53ef2f97cf","system_id":"levelo_inurba_marseille","lat":43.313391,"lon":5.36706,"is_reserved":false,"is_disabled":false,"rental_uris":{"android":"levelo://app?vid=a9747fd2-8cb7-4027-a49b-ca53ef2f97cf","ios":"levelo://app?vid=a9747fd2-8cb7-4027-a49b-ca53ef2f97cf"},"vehicle_type_id":"4","last_reported":1725181752,"current_range_meters":23200,"station_id":"ce4bgr92rcd13ifvqc6g","pricing_plan_id":"cebpf4jnsgd1na2vs0mg"},{"bike_id":"ebbd227e-46d3-4e34-b3fc-114cb1f2aa71","system_id":"levelo_inurba_marseille","lat":43.31233,"lon":5.36856,"is_reserved":false,"is_disabled":false,"rental_uris":{"android":"levelo://app?vid=ebbd227e-46d3-4e34-b3fc-114cb1f2aa71","ios":"levelo://app?vid=ebbd227e-46d3-4e34-b3fc-114cb1f2aa71"},"vehicle_type_id":"4","last_reported":1725181752,"current_range_meters":7200,"station_id":"ce4bgl92rcd13ifvqbq0","pricing_plan_id":"cebpf4jnsgd1na2vs0mg"},{"bike_id":"76233af6-e182-44b3-b92a-2919a0d517da","system_id":"levelo_inurba_marseille","lat":43.31413,"lon":5.36907,"is_reserved":false,"is_disabled":false,"rental_uris":{"android":"levelo://app?vid=76233af6-e182-44b3-b92a-2919a0d517da","ios":"levelo://app?vid=76233af6-e182-44b3-b92a-2919a0d517da"},"vehicle_type_id":"4","last_reported":1725181752,"current_range_meters":12400,"station_id":"","pricing_plan_id":"cebpf4jnsgd1na2vs0mg"},{"bike_id":"bbae4bba-c920-4523-87af-02639dd0e4ba","system_id":"levelo_inurba_marseille","lat":43.309076,"lon":5.368465,"is_reserved":false,"is_disabled":false,"rental_uris":{"android":"levelo://app?vid=bbae4bba-c920-4523-87af-02639dd0e4ba","ios":"levelo://app?vid=bbae4bba-c920-4523-87af-02639dd0e4ba"},"vehicle_type_id":"4","last_reported":1725181752,"current_range_meters":29200,"station_id":"ce4bgn92rcd13ifvqbvg","pricing_plan_id":"cebpf4jnsgd1na2vs0mg"},{"bike_id":"d20277e4-d279-484a-8435-8df9d9c98e0b","system_id":"levelo_inurba_marseille","lat":43.314811,"lon":5.373103,"is_reserved":false,"is_disabled":false,"rental_uris":{"android":"levelo://app?vid=d20277e4-d279-484a-8435-8df9d9c98e0b","ios":"levelo://app?vid=d20277e4-d279-484a-8435-8df9d9c98e0b"},"vehicle_type_id":"4","last_reported":1725181752,"current_range_meters":22800,"station_id":"ce4bgt12rcd13ifvqcd0","pricing_plan_id":"cebpf4jnsgd1na2vs0mg"},{"bike_id":"4b656638-5b67-47d3-aada-0da0f8eb54f0","system_id":"levelo_inurba_marseille","lat":43.314811,"lon":5.373103,"is_reserved":false,"is_disabled":false,"rental_uris":{"android":"levelo://app?vid=4b656638-5b67-47d3-aada-0da0f8eb54f0","ios":"levelo://app?vid=4b656638-5b67-47d3-aada-0da0f8eb54f0"},"vehicle_type_id":"4","last_reported":1725181752,"current_range_meters":31600,"station_id":"ce4bgt12rcd13ifvqcd0","pricing_plan_id":"cebpf4jnsgd1na2vs0mg"},{"bike_id":"8e99cd4e-d236-4c54-97bd-98b1a92af315","system_id":"levelo_inurba_marseille","lat":43.314811,"lon":5.373103,"is_reserved":false,"is_disabled":false,"rental_uris":{"android":"levelo://app?vid=8e99cd4e-d236-4c54-97bd-98b1a92af315","ios":"levelo://app?vid=8e99cd4e-d236-4c54-97bd-98b1a92af315"},"vehicle_type_id":"4","last_reported":1725181752,"current_range_meters":24800,"station_id":"ce4bgt12rcd13ifvqcd0","pricing_plan_id":"cebpf4jnsgd1na2vs0mg"},{"bike_id":"2a2b42fd-3426-4a99-a320-f9f63f1b56c0","system_id":"levelo_inurba_marseille","lat":43.309039,"lon":5.371797,"is_reserved":false,"is_disabled":false,"rental_uris":{"android":"levelo://app?vid=2a2b42fd-3426-4a99-a320-f9f63f1b56c0","ios":"levelo://app?vid=2a2b42fd-3426-4a99-a320-f9f63f1b56c0"},"vehicle_type_id":"4","last_reported":1725181752,"current_range_meters":23200,"station_id":"ce4bguh2rcd13ifvqckg","pricing_plan_id":"cebpf4jnsgd1na2vs0mg"},{"bike_id":"2a010987-bc7d-4778-bbe6-00acb656e9b7","system_id":"levelo_inurba_marseille","lat":43.30895,"lon":5.37185,"is_reserved":false,"is_disabled":false,"rental_uris":{"android":"levelo://app?vid=2a010987-bc7d-4778-bbe6-00acb656e9b7","ios":"levelo://app?vid=2a010987-bc7d-4778-bbe6-00acb656e9b7"},"vehicle_type_id":"4","last_reported":1725181752,"current_range_meters":20400,"station_id":"ce4bguh2rcd13ifvqckg","pricing_plan_id":"cebpf4jnsgd1na2vs0mg"},{"bike_id":"25020d43-0a57-4d17-8bee-86bb4693607c","system_id":"levelo_inurba_marseille","lat":43.309039,"lon":5.371797,"is_reserved":false,"is_disabled":false,"rental_uris":{"android":"levelo://app?vid=25020d43-0a57-4d17-8bee-86bb4693607c","ios":"levelo://app?vid=25020d43-0a57-4d17-8bee-86bb4693607c"},"vehicle_type_id":"4","last_reported":1725181752,"current_range_meters":30800,"station_id":"ce4bguh2rcd13ifvqckg","pricing_plan_id":"cebpf4jnsgd1na2vs0mg"},{"bike_id":"de691033-ff55-4c76-a5ba-e10b98578bcf","system_id":"levelo_inurba_marseille","lat":43.305712,"lon":5.365641,"is_reserved":false,"is_disabled":false,"rental_uris":{"android":"levelo://app?vid=de691033-ff55-4c76-a5ba-e10b98578bcf","ios":"levelo://app?vid=de691033-ff55-4c76-a5ba-e10b98578bcf"},"vehicle_type_id":"4","last_reported":1725181752,"current_range_meters":31200,"station_id":"ce4bgs12rcd13ifvqcag","pricing_plan_id":"cebpf4jnsgd1na2vs0mg"},{"bike_id":"b32e02ad-4039-4724-9331-1819c8165829","system_id":"levelo_inurba_marseille","lat":43.305714,"lon":5.365633,"is_reserved":false,"is_disabled":false,"rental_uris":{"android":"levelo://app?vid=b32e02ad-4039-4724-9331-1819c8165829","ios":"levelo://app?vid=b32e02ad-4039-4724-9331-1819c8165829"},"vehicle_type_id":"4","last_reported":1725181752,"current_range_meters":22800,"station_id":"ce4bgs12rcd13ifvqcag","pricing_plan_id":"cebpf4jnsgd1na2vs0mg"},{"bike_id":"1789a3a0-5ed7-4560-a565-4764d01202d9","system_id":"levelo_inurba_marseille","lat":43.305714,"lon":5.365633,"is_reserved":false,"is_disabled":false,"rental_uris":{"android":"levelo://app?vid=1789a3a0-5ed7-4560-a565-4764d01202d9","ios":"levelo://app?vid=1789a3a0-5ed7-4560-a565-4764d01202d9"},"vehicle_type_id":"4","last_reported":1725181752,"current_range_meters":4400,"station_id":"ce4bgs12rcd13ifvqcag","pricing_plan_id":"cebpf4jnsgd1na2vs0mg"},{"bike_id":"ba41e8de-d4e4-404d-a083-9c3f84628c32","system_id":"levelo_inurba_marseille","lat":43.305706,"lon":5.365654,"is_reserved":false,"is_disabled":false,"rental_uris":{"android":"levelo://app?vid=ba41e8de-d4e4-404d-a083-9c3f84628c32","ios":"levelo://app?vid=ba41e8de-d4e4-404d-a083-9c3f84628c32"},"vehicle_type_id":"4","last_reported":1725181752,"current_range_meters":26800,"station_id":"ce4bgs12rcd13ifvqcag","pricing_plan_id":"cebpf4jnsgd1na2vs0mg"},{"bike_id":"97be3718-9f1c-4c91-ab7c-2aabd5b85ef1","system_id":"levelo_inurba_marseille","lat":43.305706,"lon":5.365654,"is_reserved":false,"is_disabled":false,"rental_uris":{"android":"levelo://app?vid=97be3718-9f1c-4c91-ab7c-2aabd5b85ef1","ios":"levelo://app?vid=97be3718-9f1c-4c91-ab7c-2aabd5b85ef1"},"vehicle_type_id":"4","last_reported":1725181752,"current_range_meters":13200,"station_id":"ce4bgs12rcd13ifvqcag","pricing_plan_id":"cebpf4jnsgd1na2vs0mg"},{"bike_id":"5e6597bc-8d1e-4961-a67e-164bf3d70802","system_id":"levelo_inurba_marseille","lat":43.305714,"lon":5.365633,"is_reserved":false,"is_disabled":false,"rental_uris":{"android":"levelo://app?vid=5e6597bc-8d1e-4961-a67e-164bf3d70802","ios":"levelo://app?vid=5e6597bc-8d1e-4961-a67e-164bf3d70802"},"vehicle_type_id":"4","last_reported":1725181752,"current_range_meters":5600,"station_id":"ce4bgs12rcd13ifvqcag","pricing_plan_id":"cebpf4jnsgd1na2vs0mg"},{"bike_id":"2b6bf9e3-4369-414a-8cef-baccbf9b4272","system_id":"levelo_inurba_marseille","lat":43.305393,"lon":5.36552,"is_reserved":false,"is_disabled":false,"rental_uris":{"android":"levelo://app?vid=2b6bf9e3-4369-414a-8cef-baccbf9b4272","ios":"levelo://app?vid=2b6bf9e3-4369-414a-8cef-baccbf9b4272"},"vehicle_type_id":"4","last_reported":1725181752,"current_range_meters":0,"station_id":"ce4bgs12rcd13ifvqcag","pricing_plan_id":"cebpf4jnsgd1na2vs0mg"},{"bike_id":"cc5ebad6-e19d-4097-b7d4-32025d66d74d","system_id":"levelo_inurba_marseille","lat":43.305706,"lon":5.365654,"is_reserved":false,"is_disabled":false,"rental_uris":{"android":"levelo://app?vid=cc5ebad6-e19d-4097-b7d4-32025d66d74d","ios":"levelo://app?vid=cc5ebad6-e19d-4097-b7d4-32025d66d74d"},"vehicle_type_id":"4","last_reported":1725181752,"current_range_meters":29600,"station_id":"ce4bgs12rcd13ifvqcag","pricing_plan_id":"cebpf4jnsgd1na2vs0mg"},{"bike_id":"aa038c47-f36e-4e1c-9dcb-cd3e2085bfe1","system_id":"levelo_inurba_marseille","lat":43.31182,"lon":5.37718,"is_reserved":false,"is_disabled":false,"rental_uris":{"android":"levelo://app?vid=aa038c47-f36e-4e1c-9dcb-cd3e2085bfe1","ios":"levelo://app?vid=aa038c47-f36e-4e1c-9dcb-cd3e2085bfe1"},"vehicle_type_id":"4","last_reported":1725181752,"current_range_meters":27600,"station_id":"","pricing_plan_id":"cebpf4jnsgd1na2vs0mg"},{"bike_id":"caaa83b6-b6d5-4b41-b386-d7cb2c915779","system_id":"levelo_inurba_marseille","lat":43.307077,"lon":5.3738,"is_reserved":false,"is_disabled":false,"rental_uris":{"android":"levelo://app?vid=caaa83b6-b6d5-4b41-b386-d7cb2c915779","ios":"levelo://app?vid=caaa83b6-b6d5-4b41-b386-d7cb2c915779"},"vehicle_type_id":"4","last_reported":1725181752,"current_range_meters":19200,"station_id":"","pricing_plan_id":"cebpf4jnsgd1na2vs0mg"},{"bike_id":"588d9c63-201e-4d25-b48d-65d5e4a7b6a4","system_id":"levelo_inurba_marseille","lat":43.311131,"lon":5.377651,"is_reserved":false,"is_disabled":false,"rental_uris":{"android":"levelo://app?vid=588d9c63-201e-4d25-b48d-65d5e4a7b6a4","ios":"levelo://app?vid=588d9c63-201e-4d25-b48d-65d5e4a7b6a4"},"vehicle_type_id":"4","last_reported":1725181752,"current_range_meters":29600,"station_id":"ce4bgt92rcd13ifvqcg0","pricing_plan_id":"cebpf4jnsgd1na2vs0mg"},{"bike_id":"51a93659-067e-4a58-bd84-37c59a50eedd","system_id":"levelo_inurba_marseille","lat":43.311131,"lon":5.377651,"is_reserved":false,"is_disabled":false,"rental_uris":{"android":"levelo://app?vid=51a93659-067e-4a58-bd84-37c59a50eedd","ios":"levelo://app?vid=51a93659-067e-4a58-bd84-37c59a50eedd"},"vehicle_type_id":"4","last_reported":1725181752,"current_range_meters":11600,"station_id":"ce4bgt92rcd13ifvqcg0","pricing_plan_id":"cebpf4jnsgd1na2vs0mg"},{"bike_id":"9aecf13b-123b-4e78-8274-b2ab0b51c3f0","system_id":"levelo_inurba_marseille","lat":43.317075,"lon":5.377367,"is_reserved":false,"is_disabled":false,"rental_uris":{"android":"levelo://app?vid=9aecf13b-123b-4e78-8274-b2ab0b51c3f0","ios":"levelo://app?vid=9aecf13b-123b-4e78-8274-b2ab0b51c3f0"},"vehicle_type_id":"4","last_reported":1725181752,"current_range_meters":15200,"station_id":"ce4bgth2rcd13ifvqch0","pricing_plan_id":"cebpf4jnsgd1na2vs0mg"},{"bike_id":"8828b23d-1541-4ec7-8882-12c255062aa6","system_id":"levelo_inurba_marseille","lat":43.317075,"lon":5.377367,"is_reserved":false,"is_disabled":false,"rental_uris":{"android":"levelo://app?vid=8828b23d-1541-4ec7-8882-12c255062aa6","ios":"levelo://app?vid=8828b23d-1541-4ec7-8882-12c255062aa6"},"vehicle_type_id":"4","last_reported":1725181752,"current_range_meters":31200,"station_id":"ce4bgth2rcd13ifvqch0","pricing_plan_id":"cebpf4jnsgd1na2vs0mg"},{"bike_id":"71e7a819-cb20-46aa-89bf-31daa1d9a918","system_id":"levelo_inurba_marseille","lat":43.317075,"lon":5.377367,"is_reserved":false,"is_disabled":false,"rental_uris":{"android":"levelo://app?vid=71e7a819-cb20-46aa-89bf-31daa1d9a918","ios":"levelo://app?vid=71e7a819-cb20-46aa-89bf-31daa1d9a918"},"vehicle_type_id":"4","last_reported":1725181752,"current_range_meters":31600,"station_id":"ce4bgth2rcd13ifvqch0","pricing_plan_id":"cebpf4jnsgd1na2vs0mg"},{"bike_id":"33b11c2b-a9cb-406a-9399-9649c3adf759","system_id":"levelo_inurba_marseille","lat":43.312972,"lon":5.379713,"is_reserved":false,"is_disabled":false,"rental_uris":{"android":"levelo://app?vid=33b11c2b-a9cb-406a-9399-9649c3adf759","ios":"levelo://app?vid=33b11c2b-a9cb-406a-9399-9649c3adf759"},"vehicle_type_id":"4","last_reported":1725181752,"current_range_meters":2800,"station_id":"","pricing_plan_id":"cebpf4jnsgd1na2vs0mg"},{"bike_id":"cbd77c08-469d-467e-8b80-228f61c09a1f","system_id":"levelo_inurba_marseille","lat":43.303046,"lon":5.368981,"is_reserved":false,"is_disabled":false,"rental_uris":{"android":"levelo://app?vid=cbd77c08-469d-467e-8b80-228f61c09a1f","ios":"levelo://app?vid=cbd77c08-469d-467e-8b80-228f61c09a1f"},"vehicle_type_id":"4","last_reported":1725181752,"current_range_meters":21200,"station_id":"ce4bgqh2rcd13ifvqc5g","pricing_plan_id":"cebpf4jnsgd1na2vs0mg"},{"bike_id":"e3e90eb1-7a7e-482c-b8b2-b1abff9f2038","system_id":"levelo_inurba_marseille","lat":43.303046,"lon":5.368981,"is_reserved":false,"is_disabled":false,"rental_uris":{"android":"levelo://app?vid=e3e90eb1-7a7e-482c-b8b2-b1abff9f2038","ios":"levelo://app?vid=e3e90eb1-7a7e-482c-b8b2-b1abff9f2038"},"vehicle_type_id":"4","last_reported":1725181752,"current_range_meters":3600,"station_id":"ce4bgqh2rcd13ifvqc5g","pricing_plan_id":"cebpf4jnsgd1na2vs0mg"},{"bike_id":"d7067e4c-db75-43a5-a823-b22ae18f0ea8","system_id":"levelo_inurba_marseille","lat":43.31402,"lon":5.38074,"is_reserved":false,"is_disabled":false,"rental_uris":{"android":"levelo://app?vid=d7067e4c-db75-43a5-a823-b22ae18f0ea8","ios":"levelo://app?vid=d7067e4c-db75-43a5-a823-b22ae18f0ea8"},"vehicle_type_id":"4","last_reported":1725181752,"current_range_meters":3600,"station_id":"","pricing_plan_id":"cebpf4jnsgd1na2vs0mg"},{"bike_id":"5a28c313-e015-408c-bee8-436cd994cb8e","system_id":"levelo_inurba_marseille","lat":43.31538,"lon":5.3804,"is_reserved":false,"is_disabled":false,"rental_uris":{"android":"levelo://app?vid=5a28c313-e015-408c-bee8-436cd994cb8e","ios":"levelo://app?vid=5a28c313-e015-408c-bee8-436cd994cb8e"},"vehicle_type_id":"4","last_reported":1725181752,"current_range_meters":800,"station_id":"ce4bhsp2rcd13ifvqi50","pricing_plan_id":"cebpf4jnsgd1na2vs0mg"},{"bike_id":"aaa4d625-1bbf-4b3c-9e16-f9b9d23dc7ad","system_id":"levelo_inurba_marseille","lat":43.31031,"lon":5.380803,"is_reserved":false,"is_disabled":false,"rental_uris":{"android":"levelo://app?vid=aaa4d625-1bbf-4b3c-9e16-f9b9d23dc7ad","ios":"levelo://app?vid=aaa4d625-1bbf-4b3c-9e16-f9b9d23dc7ad"},"vehicle_type_id":"4","last_reported":1725181752,"current_range_meters":6000,"station_id":"","pricing_plan_id":"cebpf4jnsgd1na2vs0mg"},{"bike_id":"2abd5800-fbfe-4cf9-bfbf-dfb87da535ef","system_id":"levelo_inurba_marseille","lat":43.301939,"lon":5.366286,"is_reserved":false,"is_disabled":false,"rental_uris":{"android":"levelo://app?vid=2abd5800-fbfe-4cf9-bfbf-dfb87da535ef","ios":"levelo://app?vid=2abd5800-fbfe-4cf9-bfbf-dfb87da535ef"},"vehicle_type_id":"4","last_reported":1725181752,"current_range_meters":17600,"station_id":"ce4bgrh2rcd13ifvqc8g","pricing_plan_id":"cebpf4jnsgd1na2vs0mg"},{"bike_id":"f345a9c6-341e-421f-8721-816071e7a2ea","system_id":"levelo_inurba_marseille","lat":43.301939,"lon":5.366286,"is_reserved":false,"is_disabled":false,"rental_uris":{"android":"levelo://app?vid=f345a9c6-341e-421f-8721-816071e7a2ea","ios":"levelo://app?vid=f345a9c6-341e-421f-8721-816071e7a2ea"},"vehicle_type_id":"4","last_reported":1725181752,"current_range_meters":30000,"station_id":"ce4bgrh2rcd13ifvqc8g","pricing_plan_id":"cebpf4jnsgd1na2vs0mg"},{"bike_id":"171578e4-23a7-49ff-be08-4bdafd514373","system_id":"levelo_inurba_marseille","lat":43.308012,"lon":5.381511,"is_reserved":false,"is_disabled":false,"rental_uris":{"android":"levelo://app?vid=171578e4-23a7-49ff-be08-4bdafd514373","ios":"levelo://app?vid=171578e4-23a7-49ff-be08-4bdafd514373"},"vehicle_type_id":"4","last_reported":1725181752,"current_range_meters":30000,"station_id":"ce4bgt12rcd13ifvqce0","pricing_plan_id":"cebpf4jnsgd1na2vs0mg"},{"bike_id":"65355af7-0c97-4199-9592-972444b8cf24","system_id":"levelo_inurba_marseille","lat":43.308012,"lon":5.381511,"is_reserved":false,"is_disabled":false,"rental_uris":{"android":"levelo://app?vid=65355af7-0c97-4199-9592-972444b8cf24","ios":"levelo://app?vid=65355af7-0c97-4199-9592-972444b8cf24"},"vehicle_type_id":"4","last_reported":1725181752,"current_range_meters":25600,"station_id":"ce4bgt12rcd13ifvqce0","pricing_plan_id":"cebpf4jnsgd1na2vs0mg"},{"bike_id":"723ffd81-c4d0-4bd3-b94c-769f37e72de0","system_id":"levelo_inurba_marseille","lat":43.308012,"lon":5.381511,"is_reserved":false,"is_disabled":false,"rental_uris":{"android":"levelo://app?vid=723ffd81-c4d0-4bd3-b94c-769f37e72de0","ios":"levelo://app?vid=723ffd81-c4d0-4bd3-b94c-769f37e72de0"},"vehicle_type_id":"4","last_reported":1725181752,"current_range_meters":27200,"station_id":"ce4bgt12rcd13ifvqce0","pricing_plan_id":"cebpf4jnsgd1na2vs0mg"},{"bike_id":"29be6bc2-5c76-4362-91f1-e957210626c8","system_id":"levelo_inurba_marseille","lat":43.308012,"lon":5.381511,"is_reserved":false,"is_disabled":false,"rental_uris":{"android":"levelo://app?vid=29be6bc2-5c76-4362-91f1-e957210626c8","ios":"levelo://app?vid=29be6bc2-5c76-4362-91f1-e957210626c8"},"vehicle_type_id":"4","last_reported":1725181752,"current_range_meters":31200,"station_id":"ce4bgt12rcd13ifvqce0","pricing_plan_id":"cebpf4jnsgd1na2vs0mg"},{"bike_id":"b55a45c6-593d-47fe-afbc-49f0b482bff8","system_id":"levelo_inurba_marseille","lat":43.308012,"lon":5.381511,"is_reserved":false,"is_disabled":false,"rental_uris":{"android":"levelo://app?vid=b55a45c6-593d-47fe-afbc-49f0b482bff8","ios":"levelo://app?vid=b55a45c6-593d-47fe-afbc-49f0b482bff8"},"vehicle_type_id":"4","last_reported":1725181752,"current_range_meters":16000,"station_id":"ce4bgt12rcd13ifvqce0","pricing_plan_id":"cebpf4jnsgd1na2vs0mg"},{"bike_id":"be714da6-1ae9-40fb-8d04-a5c449720781","system_id":"levelo_inurba_marseille","lat":43.308012,"lon":5.381511,"is_reserved":false,"is_disabled":false,"rental_uris":{"android":"levelo://app?vid=be714da6-1ae9-40fb-8d04-a5c449720781","ios":"levelo://app?vid=be714da6-1ae9-40fb-8d04-a5c449720781"},"vehicle_type_id":"4","last_reported":1725181752,"current_range_meters":31200,"station_id":"ce4bgt12rcd13ifvqce0","pricing_plan_id":"cebpf4jnsgd1na2vs0mg"},{"bike_id":"e557e02c-84ef-4d0d-8fc1-b4705756c092","system_id":"levelo_inurba_marseille","lat":43.308012,"lon":5.381511,"is_reserved":false,"is_disabled":false,"rental_uris":{"android":"levelo://app?vid=e557e02c-84ef-4d0d-8fc1-b4705756c092","ios":"levelo://app?vid=e557e02c-84ef-4d0d-8fc1-b4705756c092"},"vehicle_type_id":"4","last_reported":1725181752,"current_range_meters":17600,"station_id":"ce4bgt12rcd13ifvqce0","pricing_plan_id":"cebpf4jnsgd1na2vs0mg"},{"bike_id":"770d482b-6e99-40f1-af3d-4a0d996830ee","system_id":"levelo_inurba_marseille","lat":43.302784,"lon":5.377158,"is_reserved":false,"is_disabled":false,"rental_uris":{"android":"levelo://app?vid=770d482b-6e99-40f1-af3d-4a0d996830ee","ios":"levelo://app?vid=770d482b-6e99-40f1-af3d-4a0d996830ee"},"vehicle_type_id":"4","last_reported":1725181752,"current_range_meters":23600,"station_id":"ce4bguh2rcd13ifvqcj0","pricing_plan_id":"cebpf4jnsgd1na2vs0mg"},{"bike_id":"bd894ad4-f46d-4bd7-a0b7-28b1c1f4dd54","system_id":"levelo_inurba_marseille","lat":43.308012,"lon":5.381511,"is_reserved":false,"is_disabled":false,"rental_uris":{"android":"levelo://app?vid=bd894ad4-f46d-4bd7-a0b7-28b1c1f4dd54","ios":"levelo://app?vid=bd894ad4-f46d-4bd7-a0b7-28b1c1f4dd54"},"vehicle_type_id":"4","last_reported":1725181752,"current_range_meters":16800,"station_id":"ce4bgt12rcd13ifvqce0","pricing_plan_id":"cebpf4jnsgd1na2vs0mg"},{"bike_id":"61182805-4709-416c-866f-f6da371a9a51","system_id":"levelo_inurba_marseille","lat":43.304606,"lon":5.379026,"is_reserved":false,"is_disabled":false,"rental_uris":{"android":"levelo://app?vid=61182805-4709-416c-866f-f6da371a9a51","ios":"levelo://app?vid=61182805-4709-416c-866f-f6da371a9a51"},"vehicle_type_id":"4","last_reported":1725181752,"current_range_meters":0,"station_id":"ce4bgup2rcd13ifvqcn0","pricing_plan_id":"cebpf4jnsgd1na2vs0mg"},{"bike_id":"bd1a4f92-8370-484e-89b4-232e4804db05","system_id":"levelo_inurba_marseille","lat":43.324771,"lon":5.36557,"is_reserved":false,"is_disabled":false,"rental_uris":{"android":"levelo://app?vid=bd1a4f92-8370-484e-89b4-232e4804db05","ios":"levelo://app?vid=bd1a4f92-8370-484e-89b4-232e4804db05"},"vehicle_type_id":"4","last_reported":1725181752,"current_range_meters":2800,"station_id":"ce4bhs12rcd13ifvqhvg","pricing_plan_id":"cebpf4jnsgd1na2vs0mg"},{"bike_id":"0480a5f6-bb5a-4956-9b5d-9f74f7fcf669","system_id":"levelo_inurba_marseille","lat":43.324771,"lon":5.36557,"is_reserved":false,"is_disabled":false,"rental_uris":{"android":"levelo://app?vid=0480a5f6-bb5a-4956-9b5d-9f74f7fcf669","ios":"levelo://app?vid=0480a5f6-bb5a-4956-9b5d-9f74f7fcf669"},"vehicle_type_id":"4","last_reported":1725181752,"current_range_meters":31600,"station_id":"ce4bhs12rcd13ifvqhvg","pricing_plan_id":"cebpf4jnsgd1na2vs0mg"},{"bike_id":"6143079b-afea-4d43-aafe-e1ab1f1f90b6","system_id":"levelo_inurba_marseille","lat":43.324771,"lon":5.36557,"is_reserved":false,"is_disabled":false,"rental_uris":{"android":"levelo://app?vid=6143079b-afea-4d43-aafe-e1ab1f1f90b6","ios":"levelo://app?vid=6143079b-afea-4d43-aafe-e1ab1f1f90b6"},"vehicle_type_id":"4","last_reported":1725181752,"current_range_meters":31600,"station_id":"ce4bhs12rcd13ifvqhvg","pricing_plan_id":"cebpf4jnsgd1na2vs0mg"},{"bike_id":"2b673554-7a0b-4079-a76f-341b000cbbf7","system_id":"levelo_inurba_marseille","lat":43.324771,"lon":5.36557,"is_reserved":false,"is_disabled":false,"rental_uris":{"android":"levelo://app?vid=2b673554-7a0b-4079-a76f-341b000cbbf7","ios":"levelo://app?vid=2b673554-7a0b-4079-a76f-341b000cbbf7"},"vehicle_type_id":"4","last_reported":1725181752,"current_range_meters":12800,"station_id":"ce4bhs12rcd13ifvqhvg","pricing_plan_id":"cebpf4jnsgd1na2vs0mg"},{"bike_id":"b2a5e681-d0a1-439d-acd2-52538d9d7746","system_id":"levelo_inurba_marseille","lat":43.324771,"lon":5.36557,"is_reserved":false,"is_disabled":false,"rental_uris":{"android":"levelo://app?vid=b2a5e681-d0a1-439d-acd2-52538d9d7746","ios":"levelo://app?vid=b2a5e681-d0a1-439d-acd2-52538d9d7746"},"vehicle_type_id":"4","last_reported":1725181752,"current_range_meters":400,"station_id":"ce4bhs12rcd13ifvqhvg","pricing_plan_id":"cebpf4jnsgd1na2vs0mg"},{"bike_id":"8cea9de4-bb78-4538-aa86-d4b05c33d747","system_id":"levelo_inurba_marseille","lat":43.324771,"lon":5.36557,"is_reserved":false,"is_disabled":false,"rental_uris":{"android":"levelo://app?vid=8cea9de4-bb78-4538-aa86-d4b05c33d747","ios":"levelo://app?vid=8cea9de4-bb78-4538-aa86-d4b05c33d747"},"vehicle_type_id":"4","last_reported":1725181752,"current_range_meters":31600,"station_id":"ce4bhs12rcd13ifvqhvg","pricing_plan_id":"cebpf4jnsgd1na2vs0mg"},{"bike_id":"a147bc9c-c27e-4783-8ca2-e32ae3b4e901","system_id":"levelo_inurba_marseille","lat":43.324771,"lon":5.36557,"is_reserved":false,"is_disabled":false,"rental_uris":{"android":"levelo://app?vid=a147bc9c-c27e-4783-8ca2-e32ae3b4e901","ios":"levelo://app?vid=a147bc9c-c27e-4783-8ca2-e32ae3b4e901"},"vehicle_type_id":"4","last_reported":1725181752,"current_range_meters":1600,"station_id":"ce4bhs12rcd13ifvqhvg","pricing_plan_id":"cebpf4jnsgd1na2vs0mg"},{"bike_id":"78a49b4e-6a90-4719-a2a8-5d7200793c90","system_id":"levelo_inurba_marseille","lat":43.324771,"lon":5.36557,"is_reserved":false,"is_disabled":false,"rental_uris":{"android":"levelo://app?vid=78a49b4e-6a90-4719-a2a8-5d7200793c90","ios":"levelo://app?vid=78a49b4e-6a90-4719-a2a8-5d7200793c90"},"vehicle_type_id":"4","last_reported":1725181752,"current_range_meters":7600,"station_id":"ce4bhs12rcd13ifvqhvg","pricing_plan_id":"cebpf4jnsgd1na2vs0mg"},{"bike_id":"3c66f332-10d1-418a-b976-08e12b0df05f","system_id":"levelo_inurba_marseille","lat":43.324771,"lon":5.36557,"is_reserved":false,"is_disabled":false,"rental_uris":{"android":"levelo://app?vid=3c66f332-10d1-418a-b976-08e12b0df05f","ios":"levelo://app?vid=3c66f332-10d1-418a-b976-08e12b0df05f"},"vehicle_type_id":"4","last_reported":1725181752,"current_range_meters":22800,"station_id":"ce4bhs12rcd13ifvqhvg","pricing_plan_id":"cebpf4jnsgd1na2vs0mg"},{"bike_id":"141a7d6d-bac1-4595-a9ff-34652c1cd915","system_id":"levelo_inurba_marseille","lat":43.324771,"lon":5.36557,"is_reserved":false,"is_disabled":false,"rental_uris":{"android":"levelo://app?vid=141a7d6d-bac1-4595-a9ff-34652c1cd915","ios":"levelo://app?vid=141a7d6d-bac1-4595-a9ff-34652c1cd915"},"vehicle_type_id":"4","last_reported":1725181752,"current_range_meters":6000,"station_id":"ce4bhs12rcd13ifvqhvg","pricing_plan_id":"cebpf4jnsgd1na2vs0mg"},{"bike_id":"ef16df85-db64-4676-9e98-bd047fd7279b","system_id":"levelo_inurba_marseille","lat":43.324771,"lon":5.36557,"is_reserved":false,"is_disabled":false,"rental_uris":{"android":"levelo://app?vid=ef16df85-db64-4676-9e98-bd047fd7279b","ios":"levelo://app?vid=ef16df85-db64-4676-9e98-bd047fd7279b"},"vehicle_type_id":"4","last_reported":1725181752,"current_range_meters":30000,"station_id":"ce4bhs12rcd13ifvqhvg","pricing_plan_id":"cebpf4jnsgd1na2vs0mg"},{"bike_id":"ff1733cb-bceb-4279-9e09-4e90878a04cf","system_id":"levelo_inurba_marseille","lat":43.32484,"lon":5.36563,"is_reserved":false,"is_disabled":false,"rental_uris":{"android":"levelo://app?vid=ff1733cb-bceb-4279-9e09-4e90878a04cf","ios":"levelo://app?vid=ff1733cb-bceb-4279-9e09-4e90878a04cf"},"vehicle_type_id":"4","last_reported":1725181752,"current_range_meters":2000,"station_id":"ce4bhs12rcd13ifvqhvg","pricing_plan_id":"cebpf4jnsgd1na2vs0mg"},{"bike_id":"bf77f555-b83c-48c5-86f8-2c3adf8dc952","system_id":"levelo_inurba_marseille","lat":43.324771,"lon":5.36557,"is_reserved":false,"is_disabled":false,"rental_uris":{"android":"levelo://app?vid=bf77f555-b83c-48c5-86f8-2c3adf8dc952","ios":"levelo://app?vid=bf77f555-b83c-48c5-86f8-2c3adf8dc952"},"vehicle_type_id":"4","last_reported":1725181752,"current_range_meters":14800,"station_id":"ce4bhs12rcd13ifvqhvg","pricing_plan_id":"cebpf4jnsgd1na2vs0mg"},{"bike_id":"9edd8359-dcb5-4c5e-9185-30e2ea5eed40","system_id":"levelo_inurba_marseille","lat":43.324771,"lon":5.36557,"is_reserved":false,"is_disabled":false,"rental_uris":{"android":"levelo://app?vid=9edd8359-dcb5-4c5e-9185-30e2ea5eed40","ios":"levelo://app?vid=9edd8359-dcb5-4c5e-9185-30e2ea5eed40"},"vehicle_type_id":"4","last_reported":1725181752,"current_range_meters":31600,"station_id":"ce4bhs12rcd13ifvqhvg","pricing_plan_id":"cebpf4jnsgd1na2vs0mg"},{"bike_id":"9b211532-74f8-401b-9c3c-7b0cfd366855","system_id":"levelo_inurba_marseille","lat":43.32488,"lon":5.36555,"is_reserved":false,"is_disabled":false,"rental_uris":{"android":"levelo://app?vid=9b211532-74f8-401b-9c3c-7b0cfd366855","ios":"levelo://app?vid=9b211532-74f8-401b-9c3c-7b0cfd366855"},"vehicle_type_id":"4","last_reported":1725181752,"current_range_meters":26000,"station_id":"ce4bhs12rcd13ifvqhvg","pricing_plan_id":"cebpf4jnsgd1na2vs0mg"},{"bike_id":"6af7f3ef-8723-4ee2-84e1-3701cb7da3d6","system_id":"levelo_inurba_marseille","lat":43.324771,"lon":5.36557,"is_reserved":false,"is_disabled":false,"rental_uris":{"android":"levelo://app?vid=6af7f3ef-8723-4ee2-84e1-3701cb7da3d6","ios":"levelo://app?vid=6af7f3ef-8723-4ee2-84e1-3701cb7da3d6"},"vehicle_type_id":"4","last_reported":1725181752,"current_range_meters":6400,"station_id":"ce4bhs12rcd13ifvqhvg","pricing_plan_id":"cebpf4jnsgd1na2vs0mg"},{"bike_id":"2fcb8801-1fff-45e2-9adf-76919583bf95","system_id":"levelo_inurba_marseille","lat":43.310804,"lon":5.38359,"is_reserved":false,"is_disabled":false,"rental_uris":{"android":"levelo://app?vid=2fcb8801-1fff-45e2-9adf-76919583bf95","ios":"levelo://app?vid=2fcb8801-1fff-45e2-9adf-76919583bf95"},"vehicle_type_id":"4","last_reported":1725181752,"current_range_meters":18400,"station_id":"ce4bgv92rcd13ifvqcr0","pricing_plan_id":"cebpf4jnsgd1na2vs0mg"},{"bike_id":"1f9964bf-362a-476c-a682-1d7a38ad5ad9","system_id":"levelo_inurba_marseille","lat":43.310804,"lon":5.38359,"is_reserved":false,"is_disabled":false,"rental_uris":{"android":"levelo://app?vid=1f9964bf-362a-476c-a682-1d7a38ad5ad9","ios":"levelo://app?vid=1f9964bf-362a-476c-a682-1d7a38ad5ad9"},"vehicle_type_id":"4","last_reported":1725181752,"current_range_meters":29200,"station_id":"ce4bgv92rcd13ifvqcr0","pricing_plan_id":"cebpf4jnsgd1na2vs0mg"},{"bike_id":"b34c0ac5-d7a0-4a85-985b-538f32a96f5f","system_id":"levelo_inurba_marseille","lat":43.310804,"lon":5.38359,"is_reserved":false,"is_disabled":false,"rental_uris":{"android":"levelo://app?vid=b34c0ac5-d7a0-4a85-985b-538f32a96f5f","ios":"levelo://app?vid=b34c0ac5-d7a0-4a85-985b-538f32a96f5f"},"vehicle_type_id":"4","last_reported":1725181752,"current_range_meters":24000,"station_id":"ce4bgv92rcd13ifvqcr0","pricing_plan_id":"cebpf4jnsgd1na2vs0mg"},{"bike_id":"b1215516-0de0-47bc-bda3-e7bacbff6736","system_id":"levelo_inurba_marseille","lat":43.32043,"lon":5.38054,"is_reserved":false,"is_disabled":false,"rental_uris":{"android":"levelo://app?vid=b1215516-0de0-47bc-bda3-e7bacbff6736","ios":"levelo://app?vid=b1215516-0de0-47bc-bda3-e7bacbff6736"},"vehicle_type_id":"4","last_reported":1725181752,"current_range_meters":8800,"station_id":"","pricing_plan_id":"cebpf4jnsgd1na2vs0mg"},{"bike_id":"6aab184f-46eb-486f-9c58-65373e7311db","system_id":"levelo_inurba_marseille","lat":43.31995,"lon":5.381478,"is_reserved":false,"is_disabled":false,"rental_uris":{"android":"levelo://app?vid=6aab184f-46eb-486f-9c58-65373e7311db","ios":"levelo://app?vid=6aab184f-46eb-486f-9c58-65373e7311db"},"vehicle_type_id":"4","last_reported":1725181752,"current_range_meters":9600,"station_id":"ce4bhr12rcd13ifvqhpg","pricing_plan_id":"cebpf4jnsgd1na2vs0mg"},{"bike_id":"be374775-6e5a-421e-8540-f39048d0ff21","system_id":"levelo_inurba_marseille","lat":43.319935,"lon":5.381699,"is_reserved":false,"is_disabled":false,"rental_uris":{"android":"levelo://app?vid=be374775-6e5a-421e-8540-f39048d0ff21","ios":"levelo://app?vid=be374775-6e5a-421e-8540-f39048d0ff21"},"vehicle_type_id":"4","last_reported":1725181752,"current_range_meters":23600,"station_id":"ce4bhr12rcd13ifvqhpg","pricing_plan_id":"cebpf4jnsgd1na2vs0mg"},{"bike_id":"77ab87d8-a14f-4ab4-84ac-48932ad99145","system_id":"levelo_inurba_marseille","lat":43.319935,"lon":5.381699,"is_reserved":false,"is_disabled":false,"rental_uris":{"android":"levelo://app?vid=77ab87d8-a14f-4ab4-84ac-48932ad99145","ios":"levelo://app?vid=77ab87d8-a14f-4ab4-84ac-48932ad99145"},"vehicle_type_id":"4","last_reported":1725181752,"current_range_meters":30800,"station_id":"ce4bhr12rcd13ifvqhpg","pricing_plan_id":"cebpf4jnsgd1na2vs0mg"},{"bike_id":"bf69abc0-cc82-4eb1-8a76-d8ab1cec1500","system_id":"levelo_inurba_marseille","lat":43.31996,"lon":5.38151,"is_reserved":false,"is_disabled":false,"rental_uris":{"android":"levelo://app?vid=bf69abc0-cc82-4eb1-8a76-d8ab1cec1500","ios":"levelo://app?vid=bf69abc0-cc82-4eb1-8a76-d8ab1cec1500"},"vehicle_type_id":"4","last_reported":1725181752,"current_range_meters":29600,"station_id":"ce4bhr12rcd13ifvqhpg","pricing_plan_id":"cebpf4jnsgd1na2vs0mg"},{"bike_id":"0a95165f-8691-4c1d-8489-4ab88de34baf","system_id":"levelo_inurba_marseille","lat":43.319935,"lon":5.381699,"is_reserved":false,"is_disabled":false,"rental_uris":{"android":"levelo://app?vid=0a95165f-8691-4c1d-8489-4ab88de34baf","ios":"levelo://app?vid=0a95165f-8691-4c1d-8489-4ab88de34baf"},"vehicle_type_id":"4","last_reported":1725181752,"current_range_meters":31600,"station_id":"ce4bhr12rcd13ifvqhpg","pricing_plan_id":"cebpf4jnsgd1na2vs0mg"},{"bike_id":"4258d75b-f7e4-4456-acc4-541316166037","system_id":"levelo_inurba_marseille","lat":43.31996,"lon":5.38154,"is_reserved":false,"is_disabled":false,"rental_uris":{"android":"levelo://app?vid=4258d75b-f7e4-4456-acc4-541316166037","ios":"levelo://app?vid=4258d75b-f7e4-4456-acc4-541316166037"},"vehicle_type_id":"4","last_reported":1725181752,"current_range_meters":30800,"station_id":"ce4bhr12rcd13ifvqhpg","pricing_plan_id":"cebpf4jnsgd1na2vs0mg"},{"bike_id":"126f18e3-5a7f-47e8-93a8-993d8a464faf","system_id":"levelo_inurba_marseille","lat":43.319935,"lon":5.381699,"is_reserved":false,"is_disabled":false,"rental_uris":{"android":"levelo://app?vid=126f18e3-5a7f-47e8-93a8-993d8a464faf","ios":"levelo://app?vid=126f18e3-5a7f-47e8-93a8-993d8a464faf"},"vehicle_type_id":"4","last_reported":1725181752,"current_range_meters":31600,"station_id":"ce4bhr12rcd13ifvqhpg","pricing_plan_id":"cebpf4jnsgd1na2vs0mg"},{"bike_id":"c657a269-270a-45e0-86e2-5cca234f57a0","system_id":"levelo_inurba_marseille","lat":43.31995,"lon":5.38158,"is_reserved":false,"is_disabled":false,"rental_uris":{"android":"levelo://app?vid=c657a269-270a-45e0-86e2-5cca234f57a0","ios":"levelo://app?vid=c657a269-270a-45e0-86e2-5cca234f57a0"},"vehicle_type_id":"4","last_reported":1725181752,"current_range_meters":27600,"station_id":"ce4bhr12rcd13ifvqhpg","pricing_plan_id":"cebpf4jnsgd1na2vs0mg"},{"bike_id":"f1bd3355-613e-492f-bb10-fae54623d372","system_id":"levelo_inurba_marseille","lat":43.319935,"lon":5.381699,"is_reserved":false,"is_disabled":false,"rental_uris":{"android":"levelo://app?vid=f1bd3355-613e-492f-bb10-fae54623d372","ios":"levelo://app?vid=f1bd3355-613e-492f-bb10-fae54623d372"},"vehicle_type_id":"4","last_reported":1725181752,"current_range_meters":18800,"station_id":"ce4bhr12rcd13ifvqhpg","pricing_plan_id":"cebpf4jnsgd1na2vs0mg"},{"bike_id":"0dc44199-85ea-41c4-ab4c-427a71eb7190","system_id":"levelo_inurba_marseille","lat":43.32002,"lon":5.3816,"is_reserved":false,"is_disabled":false,"rental_uris":{"android":"levelo://app?vid=0dc44199-85ea-41c4-ab4c-427a71eb7190","ios":"levelo://app?vid=0dc44199-85ea-41c4-ab4c-427a71eb7190"},"vehicle_type_id":"4","last_reported":1725181752,"current_range_meters":20000,"station_id":"ce4bhr12rcd13ifvqhpg","pricing_plan_id":"cebpf4jnsgd1na2vs0mg"},{"bike_id":"7e1e3ae4-528f-4bf4-9521-5a5a3bafa16a","system_id":"levelo_inurba_marseille","lat":43.313571,"lon":5.384829,"is_reserved":false,"is_disabled":false,"rental_uris":{"android":"levelo://app?vid=7e1e3ae4-528f-4bf4-9521-5a5a3bafa16a","ios":"levelo://app?vid=7e1e3ae4-528f-4bf4-9521-5a5a3bafa16a"},"vehicle_type_id":"4","last_reported":1725181752,"current_range_meters":22000,"station_id":"ce4bgt92rcd13ifvqcf0","pricing_plan_id":"cebpf4jnsgd1na2vs0mg"},{"bike_id":"64991cd5-965e-4b88-93a5-798ff44c18a6","system_id":"levelo_inurba_marseille","lat":43.299477,"lon":5.367833,"is_reserved":false,"is_disabled":false,"rental_uris":{"android":"levelo://app?vid=64991cd5-965e-4b88-93a5-798ff44c18a6","ios":"levelo://app?vid=64991cd5-965e-4b88-93a5-798ff44c18a6"},"vehicle_type_id":"4","last_reported":1725181752,"current_range_meters":15200,"station_id":"","pricing_plan_id":"cebpf4jnsgd1na2vs0mg"},{"bike_id":"e6f038f1-65d4-4eaf-bded-d50857452ca2","system_id":"levelo_inurba_marseille","lat":43.299222,"lon":5.365554,"is_reserved":false,"is_disabled":false,"rental_uris":{"android":"levelo://app?vid=e6f038f1-65d4-4eaf-bded-d50857452ca2","ios":"levelo://app?vid=e6f038f1-65d4-4eaf-bded-d50857452ca2"},"vehicle_type_id":"4","last_reported":1725181752,"current_range_meters":14000,"station_id":"ce4bgm92rcd13ifvqbr0","pricing_plan_id":"cebpf4jnsgd1na2vs0mg"},{"bike_id":"2f3c13c8-996f-4fb6-ab41-9442465fd736","system_id":"levelo_inurba_marseille","lat":43.299222,"lon":5.365554,"is_reserved":false,"is_disabled":false,"rental_uris":{"android":"levelo://app?vid=2f3c13c8-996f-4fb6-ab41-9442465fd736","ios":"levelo://app?vid=2f3c13c8-996f-4fb6-ab41-9442465fd736"},"vehicle_type_id":"4","last_reported":1725181752,"current_range_meters":8800,"station_id":"ce4bgm92rcd13ifvqbr0","pricing_plan_id":"cebpf4jnsgd1na2vs0mg"},{"bike_id":"d8269226-1645-49a1-978a-e75083913d61","system_id":"levelo_inurba_marseille","lat":43.305364,"lon":5.384119,"is_reserved":false,"is_disabled":false,"rental_uris":{"android":"levelo://app?vid=d8269226-1645-49a1-978a-e75083913d61","ios":"levelo://app?vid=d8269226-1645-49a1-978a-e75083913d61"},"vehicle_type_id":"4","last_reported":1725181752,"current_range_meters":4400,"station_id":"ce4bgg92rcd13ifvqb30","pricing_plan_id":"cebpf4jnsgd1na2vs0mg"},{"bike_id":"3be5f768-8dc4-4c3f-9fef-2da290ad56fb","system_id":"levelo_inurba_marseille","lat":43.298433,"lon":5.362774,"is_reserved":false,"is_disabled":false,"rental_uris":{"android":"levelo://app?vid=3be5f768-8dc4-4c3f-9fef-2da290ad56fb","ios":"levelo://app?vid=3be5f768-8dc4-4c3f-9fef-2da290ad56fb"},"vehicle_type_id":"4","last_reported":1725181752,"current_range_meters":26000,"station_id":"ce4bgpp2rcd13ifvqc3g","pricing_plan_id":"cebpf4jnsgd1na2vs0mg"},{"bike_id":"a51e71ca-ea63-4743-9ccc-4943e188307c","system_id":"levelo_inurba_marseille","lat":43.298433,"lon":5.362774,"is_reserved":false,"is_disabled":false,"rental_uris":{"android":"levelo://app?vid=a51e71ca-ea63-4743-9ccc-4943e188307c","ios":"levelo://app?vid=a51e71ca-ea63-4743-9ccc-4943e188307c"},"vehicle_type_id":"4","last_reported":1725181752,"current_range_meters":10400,"station_id":"ce4bgpp2rcd13ifvqc3g","pricing_plan_id":"cebpf4jnsgd1na2vs0mg"},{"bike_id":"914d40c3-f5d2-4a80-a556-de9be5e81624","system_id":"levelo_inurba_marseille","lat":43.298433,"lon":5.362774,"is_reserved":false,"is_disabled":false,"rental_uris":{"android":"levelo://app?vid=914d40c3-f5d2-4a80-a556-de9be5e81624","ios":"levelo://app?vid=914d40c3-f5d2-4a80-a556-de9be5e81624"},"vehicle_type_id":"4","last_reported":1725181752,"current_range_meters":6400,"station_id":"ce4bgpp2rcd13ifvqc3g","pricing_plan_id":"cebpf4jnsgd1na2vs0mg"},{"bike_id":"35a1d28b-cd99-469c-9038-1f96fd35ef8b","system_id":"levelo_inurba_marseille","lat":43.305364,"lon":5.384119,"is_reserved":false,"is_disabled":false,"rental_uris":{"android":"levelo://app?vid=35a1d28b-cd99-469c-9038-1f96fd35ef8b","ios":"levelo://app?vid=35a1d28b-cd99-469c-9038-1f96fd35ef8b"},"vehicle_type_id":"4","last_reported":1725181752,"current_range_meters":26400,"station_id":"ce4bgg92rcd13ifvqb30","pricing_plan_id":"cebpf4jnsgd1na2vs0mg"},{"bike_id":"52a75452-1480-4213-88df-33f692a79a20","system_id":"levelo_inurba_marseille","lat":43.298433,"lon":5.362774,"is_reserved":false,"is_disabled":false,"rental_uris":{"android":"levelo://app?vid=52a75452-1480-4213-88df-33f692a79a20","ios":"levelo://app?vid=52a75452-1480-4213-88df-33f692a79a20"},"vehicle_type_id":"4","last_reported":1725181752,"current_range_meters":7600,"station_id":"ce4bgpp2rcd13ifvqc3g","pricing_plan_id":"cebpf4jnsgd1na2vs0mg"},{"bike_id":"0b32f512-6992-4516-b094-308e7f147d1a","system_id":"levelo_inurba_marseille","lat":43.305364,"lon":5.384119,"is_reserved":false,"is_disabled":false,"rental_uris":{"android":"levelo://app?vid=0b32f512-6992-4516-b094-308e7f147d1a","ios":"levelo://app?vid=0b32f512-6992-4516-b094-308e7f147d1a"},"vehicle_type_id":"4","last_reported":1725181752,"current_range_meters":9600,"station_id":"ce4bgg92rcd13ifvqb30","pricing_plan_id":"cebpf4jnsgd1na2vs0mg"},{"bike_id":"20252937-0d69-4ba4-8818-8b4e96c191f5","system_id":"levelo_inurba_marseille","lat":43.298433,"lon":5.362774,"is_reserved":false,"is_disabled":false,"rental_uris":{"android":"levelo://app?vid=20252937-0d69-4ba4-8818-8b4e96c191f5","ios":"levelo://app?vid=20252937-0d69-4ba4-8818-8b4e96c191f5"},"vehicle_type_id":"4","last_reported":1725181752,"current_range_meters":4000,"station_id":"ce4bgpp2rcd13ifvqc3g","pricing_plan_id":"cebpf4jnsgd1na2vs0mg"},{"bike_id":"99cb3ccb-d9c2-4624-9ba3-eb5233f83079","system_id":"levelo_inurba_marseille","lat":43.298433,"lon":5.362774,"is_reserved":false,"is_disabled":false,"rental_uris":{"android":"levelo://app?vid=99cb3ccb-d9c2-4624-9ba3-eb5233f83079","ios":"levelo://app?vid=99cb3ccb-d9c2-4624-9ba3-eb5233f83079"},"vehicle_type_id":"4","last_reported":1725181752,"current_range_meters":23600,"station_id":"ce4bgpp2rcd13ifvqc3g","pricing_plan_id":"cebpf4jnsgd1na2vs0mg"},{"bike_id":"7d5a9685-39d4-4d74-a131-653d44738297","system_id":"levelo_inurba_marseille","lat":43.298433,"lon":5.362774,"is_reserved":false,"is_disabled":false,"rental_uris":{"android":"levelo://app?vid=7d5a9685-39d4-4d74-a131-653d44738297","ios":"levelo://app?vid=7d5a9685-39d4-4d74-a131-653d44738297"},"vehicle_type_id":"4","last_reported":1725181752,"current_range_meters":10400,"station_id":"ce4bgpp2rcd13ifvqc3g","pricing_plan_id":"cebpf4jnsgd1na2vs0mg"},{"bike_id":"c20d2e37-11e1-47d7-87bf-69a66789c824","system_id":"levelo_inurba_marseille","lat":43.298433,"lon":5.362774,"is_reserved":false,"is_disabled":false,"rental_uris":{"android":"levelo://app?vid=c20d2e37-11e1-47d7-87bf-69a66789c824","ios":"levelo://app?vid=c20d2e37-11e1-47d7-87bf-69a66789c824"},"vehicle_type_id":"4","last_reported":1725181752,"current_range_meters":30400,"station_id":"ce4bgpp2rcd13ifvqc3g","pricing_plan_id":"cebpf4jnsgd1na2vs0mg"},{"bike_id":"5a0ddd07-4d10-46b3-8fca-3101eb692ae1","system_id":"levelo_inurba_marseille","lat":43.30238,"lon":5.38122,"is_reserved":false,"is_disabled":false,"rental_uris":{"android":"levelo://app?vid=5a0ddd07-4d10-46b3-8fca-3101eb692ae1","ios":"levelo://app?vid=5a0ddd07-4d10-46b3-8fca-3101eb692ae1"},"vehicle_type_id":"4","last_reported":1725181752,"current_range_meters":10000,"station_id":"","pricing_plan_id":"cebpf4jnsgd1na2vs0mg"},{"bike_id":"98778a70-9d3e-487d-8e89-ea1fd335e552","system_id":"levelo_inurba_marseille","lat":43.311722,"lon":5.387247,"is_reserved":false,"is_disabled":false,"rental_uris":{"android":"levelo://app?vid=98778a70-9d3e-487d-8e89-ea1fd335e552","ios":"levelo://app?vid=98778a70-9d3e-487d-8e89-ea1fd335e552"},"vehicle_type_id":"4","last_reported":1725181752,"current_range_meters":12800,"station_id":"ce4bgv12rcd13ifvqcp0","pricing_plan_id":"cebpf4jnsgd1na2vs0mg"},{"bike_id":"7566e91c-6fb9-4a50-81c1-d2f895966f18","system_id":"levelo_inurba_marseille","lat":43.30194,"lon":5.38114,"is_reserved":false,"is_disabled":false,"rental_uris":{"android":"levelo://app?vid=7566e91c-6fb9-4a50-81c1-d2f895966f18","ios":"levelo://app?vid=7566e91c-6fb9-4a50-81c1-d2f895966f18"},"vehicle_type_id":"4","last_reported":1725181752,"current_range_meters":24400,"station_id":"","pricing_plan_id":"cebpf4jnsgd1na2vs0mg"},{"bike_id":"5370fba2-47c9-48fc-829a-c9630f6eda13","system_id":"levelo_inurba_marseille","lat":43.301417,"lon":5.3809,"is_reserved":false,"is_disabled":false,"rental_uris":{"android":"levelo://app?vid=5370fba2-47c9-48fc-829a-c9630f6eda13","ios":"levelo://app?vid=5370fba2-47c9-48fc-829a-c9630f6eda13"},"vehicle_type_id":"4","last_reported":1725181752,"current_range_meters":26400,"station_id":"ce4bgjp2rcd13ifvqbh0","pricing_plan_id":"cebpf4jnsgd1na2vs0mg"},{"bike_id":"eabcf2cd-df9e-44e0-bfa8-54085dcd564c","system_id":"levelo_inurba_marseille","lat":43.29792,"lon":5.37108,"is_reserved":false,"is_disabled":false,"rental_uris":{"android":"levelo://app?vid=eabcf2cd-df9e-44e0-bfa8-54085dcd564c","ios":"levelo://app?vid=eabcf2cd-df9e-44e0-bfa8-54085dcd564c"},"vehicle_type_id":"4","last_reported":1725181752,"current_range_meters":2000,"station_id":"ce4bgop2rcd13ifvqc1g","pricing_plan_id":"cebpf4jnsgd1na2vs0mg"},{"bike_id":"e6ce757c-4405-4afd-bfb7-0646d8d7f6a3","system_id":"levelo_inurba_marseille","lat":43.30154,"lon":5.380998,"is_reserved":false,"is_disabled":false,"rental_uris":{"android":"levelo://app?vid=e6ce757c-4405-4afd-bfb7-0646d8d7f6a3","ios":"levelo://app?vid=e6ce757c-4405-4afd-bfb7-0646d8d7f6a3"},"vehicle_type_id":"4","last_reported":1725181752,"current_range_meters":16000,"station_id":"ce4bgjp2rcd13ifvqbh0","pricing_plan_id":"cebpf4jnsgd1na2vs0mg"},{"bike_id":"60ff3900-1cd1-4527-ae10-64555afa6b11","system_id":"levelo_inurba_marseille","lat":43.32293,"lon":5.38258,"is_reserved":false,"is_disabled":false,"rental_uris":{"android":"levelo://app?vid=60ff3900-1cd1-4527-ae10-64555afa6b11","ios":"levelo://app?vid=60ff3900-1cd1-4527-ae10-64555afa6b11"},"vehicle_type_id":"4","last_reported":1725181752,"current_range_meters":16400,"station_id":"ce4bhr12rcd13ifvqhqg","pricing_plan_id":"cebpf4jnsgd1na2vs0mg"},{"bike_id":"c312ddc4-0cfd-47fa-8460-8260a3ea856a","system_id":"levelo_inurba_marseille","lat":43.322872,"lon":5.382756,"is_reserved":false,"is_disabled":false,"rental_uris":{"android":"levelo://app?vid=c312ddc4-0cfd-47fa-8460-8260a3ea856a","ios":"levelo://app?vid=c312ddc4-0cfd-47fa-8460-8260a3ea856a"},"vehicle_type_id":"4","last_reported":1725181752,"current_range_meters":25600,"station_id":"ce4bhr12rcd13ifvqhqg","pricing_plan_id":"cebpf4jnsgd1na2vs0mg"},{"bike_id":"463d7cfb-7ddb-4a66-8f4a-8a3859a7f8f7","system_id":"levelo_inurba_marseille","lat":43.322872,"lon":5.382756,"is_reserved":false,"is_disabled":false,"rental_uris":{"android":"levelo://app?vid=463d7cfb-7ddb-4a66-8f4a-8a3859a7f8f7","ios":"levelo://app?vid=463d7cfb-7ddb-4a66-8f4a-8a3859a7f8f7"},"vehicle_type_id":"4","last_reported":1725181752,"current_range_meters":20000,"station_id":"ce4bhr12rcd13ifvqhqg","pricing_plan_id":"cebpf4jnsgd1na2vs0mg"},{"bike_id":"82c01b15-b0a3-4c63-83ef-145aed4020a3","system_id":"levelo_inurba_marseille","lat":43.322872,"lon":5.382756,"is_reserved":false,"is_disabled":false,"rental_uris":{"android":"levelo://app?vid=82c01b15-b0a3-4c63-83ef-145aed4020a3","ios":"levelo://app?vid=82c01b15-b0a3-4c63-83ef-145aed4020a3"},"vehicle_type_id":"4","last_reported":1725181752,"current_range_meters":31200,"station_id":"ce4bhr12rcd13ifvqhqg","pricing_plan_id":"cebpf4jnsgd1na2vs0mg"},{"bike_id":"32190657-d0f7-49e5-8191-b2db080b7008","system_id":"levelo_inurba_marseille","lat":43.322872,"lon":5.382756,"is_reserved":false,"is_disabled":false,"rental_uris":{"android":"levelo://app?vid=32190657-d0f7-49e5-8191-b2db080b7008","ios":"levelo://app?vid=32190657-d0f7-49e5-8191-b2db080b7008"},"vehicle_type_id":"4","last_reported":1725181752,"current_range_meters":31600,"station_id":"ce4bhr12rcd13ifvqhqg","pricing_plan_id":"cebpf4jnsgd1na2vs0mg"},{"bike_id":"2463e7d4-72d6-4761-b747-38cd10164e72","system_id":"levelo_inurba_marseille","lat":43.322872,"lon":5.382756,"is_reserved":false,"is_disabled":false,"rental_uris":{"android":"levelo://app?vid=2463e7d4-72d6-4761-b747-38cd10164e72","ios":"levelo://app?vid=2463e7d4-72d6-4761-b747-38cd10164e72"},"vehicle_type_id":"4","last_reported":1725181752,"current_range_meters":30400,"station_id":"ce4bhr12rcd13ifvqhqg","pricing_plan_id":"cebpf4jnsgd1na2vs0mg"},{"bike_id":"f091bcb5-620a-498b-9ee3-7f22712fcfcc","system_id":"levelo_inurba_marseille","lat":43.322872,"lon":5.382756,"is_reserved":false,"is_disabled":false,"rental_uris":{"android":"levelo://app?vid=f091bcb5-620a-498b-9ee3-7f22712fcfcc","ios":"levelo://app?vid=f091bcb5-620a-498b-9ee3-7f22712fcfcc"},"vehicle_type_id":"4","last_reported":1725181752,"current_range_meters":18400,"station_id":"ce4bhr12rcd13ifvqhqg","pricing_plan_id":"cebpf4jnsgd1na2vs0mg"},{"bike_id":"a850c3a5-e5aa-42f8-85ca-49f00abae5a2","system_id":"levelo_inurba_marseille","lat":43.297163,"lon":5.365866,"is_reserved":false,"is_disabled":false,"rental_uris":{"android":"levelo://app?vid=a850c3a5-e5aa-42f8-85ca-49f00abae5a2","ios":"levelo://app?vid=a850c3a5-e5aa-42f8-85ca-49f00abae5a2"},"vehicle_type_id":"4","last_reported":1725181752,"current_range_meters":24000,"station_id":"ce4bgn12rcd13ifvqbt0","pricing_plan_id":"cebpf4jnsgd1na2vs0mg"},{"bike_id":"639916db-f1f0-46e1-9e23-ba90c02c27e5","system_id":"levelo_inurba_marseille","lat":43.297163,"lon":5.365866,"is_reserved":false,"is_disabled":false,"rental_uris":{"android":"levelo://app?vid=639916db-f1f0-46e1-9e23-ba90c02c27e5","ios":"levelo://app?vid=639916db-f1f0-46e1-9e23-ba90c02c27e5"},"vehicle_type_id":"4","last_reported":1725181752,"current_range_meters":18800,"station_id":"ce4bgn12rcd13ifvqbt0","pricing_plan_id":"cebpf4jnsgd1na2vs0mg"},{"bike_id":"664309b0-836b-4925-9065-d678dac11778","system_id":"levelo_inurba_marseille","lat":43.29846,"lon":5.37664,"is_reserved":false,"is_disabled":false,"rental_uris":{"android":"levelo://app?vid=664309b0-836b-4925-9065-d678dac11778","ios":"levelo://app?vid=664309b0-836b-4925-9065-d678dac11778"},"vehicle_type_id":"4","last_reported":1725181752,"current_range_meters":20800,"station_id":"","pricing_plan_id":"cebpf4jnsgd1na2vs0mg"},{"bike_id":"fd924edb-efda-41df-9ea7-d64bf9e8e650","system_id":"levelo_inurba_marseille","lat":43.2968,"lon":5.37291,"is_reserved":false,"is_disabled":false,"rental_uris":{"android":"levelo://app?vid=fd924edb-efda-41df-9ea7-d64bf9e8e650","ios":"levelo://app?vid=fd924edb-efda-41df-9ea7-d64bf9e8e650"},"vehicle_type_id":"4","last_reported":1725181752,"current_range_meters":31200,"station_id":"ce4bgk12rcd13ifvqbj0","pricing_plan_id":"cebpf4jnsgd1na2vs0mg"},{"bike_id":"37ca5ba5-87f1-4d6b-84fa-20a0b9f9fd1a","system_id":"levelo_inurba_marseille","lat":43.2968,"lon":5.37291,"is_reserved":false,"is_disabled":false,"rental_uris":{"android":"levelo://app?vid=37ca5ba5-87f1-4d6b-84fa-20a0b9f9fd1a","ios":"levelo://app?vid=37ca5ba5-87f1-4d6b-84fa-20a0b9f9fd1a"},"vehicle_type_id":"4","last_reported":1725181752,"current_range_meters":29600,"station_id":"ce4bgk12rcd13ifvqbj0","pricing_plan_id":"cebpf4jnsgd1na2vs0mg"},{"bike_id":"8a8887de-5c7d-4b1c-91b2-78e9c920b48d","system_id":"levelo_inurba_marseille","lat":43.2968,"lon":5.37291,"is_reserved":false,"is_disabled":false,"rental_uris":{"android":"levelo://app?vid=8a8887de-5c7d-4b1c-91b2-78e9c920b48d","ios":"levelo://app?vid=8a8887de-5c7d-4b1c-91b2-78e9c920b48d"},"vehicle_type_id":"4","last_reported":1725181752,"current_range_meters":31200,"station_id":"ce4bgk12rcd13ifvqbj0","pricing_plan_id":"cebpf4jnsgd1na2vs0mg"},{"bike_id":"5429afa5-82fe-4154-b342-e91dfc67a16e","system_id":"levelo_inurba_marseille","lat":43.29573,"lon":5.367355,"is_reserved":false,"is_disabled":false,"rental_uris":{"android":"levelo://app?vid=5429afa5-82fe-4154-b342-e91dfc67a16e","ios":"levelo://app?vid=5429afa5-82fe-4154-b342-e91dfc67a16e"},"vehicle_type_id":"4","last_reported":1725181752,"current_range_meters":17200,"station_id":"ce4bgph2rcd13ifvqc2g","pricing_plan_id":"cebpf4jnsgd1na2vs0mg"},{"bike_id":"e09ad45b-dcc8-4b42-9daf-28df4ed2f638","system_id":"levelo_inurba_marseille","lat":43.296131,"lon":5.370791,"is_reserved":false,"is_disabled":false,"rental_uris":{"android":"levelo://app?vid=e09ad45b-dcc8-4b42-9daf-28df4ed2f638","ios":"levelo://app?vid=e09ad45b-dcc8-4b42-9daf-28df4ed2f638"},"vehicle_type_id":"4","last_reported":1725181752,"current_range_meters":31600,"station_id":"ce4bgnh2rcd13ifvqc0g","pricing_plan_id":"cebpf4jnsgd1na2vs0mg"},{"bike_id":"eceeae99-c86e-492a-bb44-c64e3d2ff123","system_id":"levelo_inurba_marseille","lat":43.29573,"lon":5.367355,"is_reserved":false,"is_disabled":false,"rental_uris":{"android":"levelo://app?vid=eceeae99-c86e-492a-bb44-c64e3d2ff123","ios":"levelo://app?vid=eceeae99-c86e-492a-bb44-c64e3d2ff123"},"vehicle_type_id":"4","last_reported":1725181752,"current_range_meters":31200,"station_id":"ce4bgph2rcd13ifvqc2g","pricing_plan_id":"cebpf4jnsgd1na2vs0mg"},{"bike_id":"4e5df774-f3a0-4577-a782-57cb8a3ae30a","system_id":"levelo_inurba_marseille","lat":43.296131,"lon":5.370773,"is_reserved":false,"is_disabled":false,"rental_uris":{"android":"levelo://app?vid=4e5df774-f3a0-4577-a782-57cb8a3ae30a","ios":"levelo://app?vid=4e5df774-f3a0-4577-a782-57cb8a3ae30a"},"vehicle_type_id":"4","last_reported":1725181752,"current_range_meters":6800,"station_id":"ce4bgnh2rcd13ifvqc0g","pricing_plan_id":"cebpf4jnsgd1na2vs0mg"},{"bike_id":"bb164c66-da2a-4e53-ab4f-3c933699926e","system_id":"levelo_inurba_marseille","lat":43.296131,"lon":5.370791,"is_reserved":false,"is_disabled":false,"rental_uris":{"android":"levelo://app?vid=bb164c66-da2a-4e53-ab4f-3c933699926e","ios":"levelo://app?vid=bb164c66-da2a-4e53-ab4f-3c933699926e"},"vehicle_type_id":"4","last_reported":1725181752,"current_range_meters":28000,"station_id":"ce4bgnh2rcd13ifvqc0g","pricing_plan_id":"cebpf4jnsgd1na2vs0mg"},{"bike_id":"b893211f-352f-4283-bdf6-17c58c3de024","system_id":"levelo_inurba_marseille","lat":43.296131,"lon":5.370773,"is_reserved":false,"is_disabled":false,"rental_uris":{"android":"levelo://app?vid=b893211f-352f-4283-bdf6-17c58c3de024","ios":"levelo://app?vid=b893211f-352f-4283-bdf6-17c58c3de024"},"vehicle_type_id":"4","last_reported":1725181752,"current_range_meters":9200,"station_id":"ce4bgnh2rcd13ifvqc0g","pricing_plan_id":"cebpf4jnsgd1na2vs0mg"},{"bike_id":"19d18e79-bc60-4c1c-a64d-6aca7ca53a97","system_id":"levelo_inurba_marseille","lat":43.29573,"lon":5.367355,"is_reserved":false,"is_disabled":false,"rental_uris":{"android":"levelo://app?vid=19d18e79-bc60-4c1c-a64d-6aca7ca53a97","ios":"levelo://app?vid=19d18e79-bc60-4c1c-a64d-6aca7ca53a97"},"vehicle_type_id":"4","last_reported":1725181752,"current_range_meters":20000,"station_id":"ce4bgph2rcd13ifvqc2g","pricing_plan_id":"cebpf4jnsgd1na2vs0mg"},{"bike_id":"08d3ec9a-cd14-43a1-aaac-b09e8cc62a6b","system_id":"levelo_inurba_marseille","lat":43.29573,"lon":5.367355,"is_reserved":false,"is_disabled":false,"rental_uris":{"android":"levelo://app?vid=08d3ec9a-cd14-43a1-aaac-b09e8cc62a6b","ios":"levelo://app?vid=08d3ec9a-cd14-43a1-aaac-b09e8cc62a6b"},"vehicle_type_id":"4","last_reported":1725181752,"current_range_meters":24800,"station_id":"ce4bgph2rcd13ifvqc2g","pricing_plan_id":"cebpf4jnsgd1na2vs0mg"},{"bike_id":"b2b50ee9-570d-41a8-b2b3-6e23b2165d6e","system_id":"levelo_inurba_marseille","lat":43.296131,"lon":5.370791,"is_reserved":false,"is_disabled":false,"rental_uris":{"android":"levelo://app?vid=b2b50ee9-570d-41a8-b2b3-6e23b2165d6e","ios":"levelo://app?vid=b2b50ee9-570d-41a8-b2b3-6e23b2165d6e"},"vehicle_type_id":"4","last_reported":1725181752,"current_range_meters":13200,"station_id":"ce4bgnh2rcd13ifvqc0g","pricing_plan_id":"cebpf4jnsgd1na2vs0mg"},{"bike_id":"d50ba1c3-00a7-4324-a160-4719f9b24432","system_id":"levelo_inurba_marseille","lat":43.29573,"lon":5.367355,"is_reserved":false,"is_disabled":false,"rental_uris":{"android":"levelo://app?vid=d50ba1c3-00a7-4324-a160-4719f9b24432","ios":"levelo://app?vid=d50ba1c3-00a7-4324-a160-4719f9b24432"},"vehicle_type_id":"4","last_reported":1725181752,"current_range_meters":30000,"station_id":"ce4bgph2rcd13ifvqc2g","pricing_plan_id":"cebpf4jnsgd1na2vs0mg"},{"bike_id":"9e306396-baef-4da7-b240-680f6c033ed3","system_id":"levelo_inurba_marseille","lat":43.296921,"lon":5.376579,"is_reserved":false,"is_disabled":false,"rental_uris":{"android":"levelo://app?vid=9e306396-baef-4da7-b240-680f6c033ed3","ios":"levelo://app?vid=9e306396-baef-4da7-b240-680f6c033ed3"},"vehicle_type_id":"4","last_reported":1725181752,"current_range_meters":7200,"station_id":"ce4bgkh2rcd13ifvqbl0","pricing_plan_id":"cebpf4jnsgd1na2vs0mg"},{"bike_id":"f7fd12df-8391-4edf-a6a1-e38eb991b77a","system_id":"levelo_inurba_marseille","lat":43.299028,"lon":5.381509,"is_reserved":false,"is_disabled":false,"rental_uris":{"android":"levelo://app?vid=f7fd12df-8391-4edf-a6a1-e38eb991b77a","ios":"levelo://app?vid=f7fd12df-8391-4edf-a6a1-e38eb991b77a"},"vehicle_type_id":"4","last_reported":1725181752,"current_range_meters":1600,"station_id":"ce4bgj12rcd13ifvqbc0","pricing_plan_id":"cebpf4jnsgd1na2vs0mg"},{"bike_id":"28dc90fc-ae69-4895-9068-c8b131dc0d8c","system_id":"levelo_inurba_marseille","lat":43.299028,"lon":5.381509,"is_reserved":false,"is_disabled":false,"rental_uris":{"android":"levelo://app?vid=28dc90fc-ae69-4895-9068-c8b131dc0d8c","ios":"levelo://app?vid=28dc90fc-ae69-4895-9068-c8b131dc0d8c"},"vehicle_type_id":"4","last_reported":1725181752,"current_range_meters":7600,"station_id":"ce4bgj12rcd13ifvqbc0","pricing_plan_id":"cebpf4jnsgd1na2vs0mg"},{"bike_id":"606d22c6-bfbe-4701-adc3-970a761185ad","system_id":"levelo_inurba_marseille","lat":43.317557,"lon":5.390173,"is_reserved":false,"is_disabled":false,"rental_uris":{"android":"levelo://app?vid=606d22c6-bfbe-4701-adc3-970a761185ad","ios":"levelo://app?vid=606d22c6-bfbe-4701-adc3-970a761185ad"},"vehicle_type_id":"4","last_reported":1725181752,"current_range_meters":31200,"station_id":"ce4bhqp2rcd13ifvqhng","pricing_plan_id":"cebpf4jnsgd1na2vs0mg"},{"bike_id":"8d2d024a-ad6e-41b7-a9e4-614a501f6624","system_id":"levelo_inurba_marseille","lat":43.317557,"lon":5.390173,"is_reserved":false,"is_disabled":false,"rental_uris":{"android":"levelo://app?vid=8d2d024a-ad6e-41b7-a9e4-614a501f6624","ios":"levelo://app?vid=8d2d024a-ad6e-41b7-a9e4-614a501f6624"},"vehicle_type_id":"4","last_reported":1725181752,"current_range_meters":31600,"station_id":"ce4bhqp2rcd13ifvqhng","pricing_plan_id":"cebpf4jnsgd1na2vs0mg"},{"bike_id":"51fba089-4b6a-4597-be2b-c14e4161ea9a","system_id":"levelo_inurba_marseille","lat":43.31759,"lon":5.39016,"is_reserved":false,"is_disabled":false,"rental_uris":{"android":"levelo://app?vid=51fba089-4b6a-4597-be2b-c14e4161ea9a","ios":"levelo://app?vid=51fba089-4b6a-4597-be2b-c14e4161ea9a"},"vehicle_type_id":"4","last_reported":1725181752,"current_range_meters":28800,"station_id":"ce4bhqp2rcd13ifvqhng","pricing_plan_id":"cebpf4jnsgd1na2vs0mg"},{"bike_id":"7481151c-6a12-4ba8-a367-71c130cfcc22","system_id":"levelo_inurba_marseille","lat":43.317557,"lon":5.390173,"is_reserved":false,"is_disabled":false,"rental_uris":{"android":"levelo://app?vid=7481151c-6a12-4ba8-a367-71c130cfcc22","ios":"levelo://app?vid=7481151c-6a12-4ba8-a367-71c130cfcc22"},"vehicle_type_id":"4","last_reported":1725181752,"current_range_meters":13200,"station_id":"ce4bhqp2rcd13ifvqhng","pricing_plan_id":"cebpf4jnsgd1na2vs0mg"},{"bike_id":"b4b9570a-6498-4831-a1a5-417568656312","system_id":"levelo_inurba_marseille","lat":43.317557,"lon":5.390173,"is_reserved":false,"is_disabled":false,"rental_uris":{"android":"levelo://app?vid=b4b9570a-6498-4831-a1a5-417568656312","ios":"levelo://app?vid=b4b9570a-6498-4831-a1a5-417568656312"},"vehicle_type_id":"4","last_reported":1725181752,"current_range_meters":28400,"station_id":"ce4bhqp2rcd13ifvqhng","pricing_plan_id":"cebpf4jnsgd1na2vs0mg"},{"bike_id":"0ae3af92-5b83-4002-a675-2e1110d6b007","system_id":"levelo_inurba_marseille","lat":43.295748,"lon":5.37522,"is_reserved":false,"is_disabled":false,"rental_uris":{"android":"levelo://app?vid=0ae3af92-5b83-4002-a675-2e1110d6b007","ios":"levelo://app?vid=0ae3af92-5b83-4002-a675-2e1110d6b007"},"vehicle_type_id":"4","last_reported":1725181752,"current_range_meters":29200,"station_id":"ce4bgh92rcd13ifvqb50","pricing_plan_id":"cebpf4jnsgd1na2vs0mg"},{"bike_id":"4beb967e-9409-48bb-92aa-502e5608ba2d","system_id":"levelo_inurba_marseille","lat":43.295748,"lon":5.37522,"is_reserved":false,"is_disabled":false,"rental_uris":{"android":"levelo://app?vid=4beb967e-9409-48bb-92aa-502e5608ba2d","ios":"levelo://app?vid=4beb967e-9409-48bb-92aa-502e5608ba2d"},"vehicle_type_id":"4","last_reported":1725181752,"current_range_meters":0,"station_id":"ce4bgh92rcd13ifvqb50","pricing_plan_id":"cebpf4jnsgd1na2vs0mg"},{"bike_id":"b8edfc0e-3c7e-4aab-8416-f5ffb820a6fc","system_id":"levelo_inurba_marseille","lat":43.295748,"lon":5.37522,"is_reserved":false,"is_disabled":false,"rental_uris":{"android":"levelo://app?vid=b8edfc0e-3c7e-4aab-8416-f5ffb820a6fc","ios":"levelo://app?vid=b8edfc0e-3c7e-4aab-8416-f5ffb820a6fc"},"vehicle_type_id":"4","last_reported":1725181752,"current_range_meters":20000,"station_id":"ce4bgh92rcd13ifvqb50","pricing_plan_id":"cebpf4jnsgd1na2vs0mg"},{"bike_id":"d9b965c2-405d-4cb4-aa6f-581f8495b1a9","system_id":"levelo_inurba_marseille","lat":43.296263,"lon":5.377094,"is_reserved":false,"is_disabled":false,"rental_uris":{"android":"levelo://app?vid=d9b965c2-405d-4cb4-aa6f-581f8495b1a9","ios":"levelo://app?vid=d9b965c2-405d-4cb4-aa6f-581f8495b1a9"},"vehicle_type_id":"4","last_reported":1725181752,"current_range_meters":27200,"station_id":"ce4bgi92rcd13ifvqb90","pricing_plan_id":"cebpf4jnsgd1na2vs0mg"},{"bike_id":"6993e56b-8161-43bc-a807-46a41a3d69ed","system_id":"levelo_inurba_marseille","lat":43.295748,"lon":5.37522,"is_reserved":false,"is_disabled":false,"rental_uris":{"android":"levelo://app?vid=6993e56b-8161-43bc-a807-46a41a3d69ed","ios":"levelo://app?vid=6993e56b-8161-43bc-a807-46a41a3d69ed"},"vehicle_type_id":"4","last_reported":1725181752,"current_range_meters":31200,"station_id":"ce4bgh92rcd13ifvqb50","pricing_plan_id":"cebpf4jnsgd1na2vs0mg"},{"bike_id":"06663fbe-21c1-4b2b-9b94-505a227cf500","system_id":"levelo_inurba_marseille","lat":43.296277,"lon":5.377108,"is_reserved":false,"is_disabled":false,"rental_uris":{"android":"levelo://app?vid=06663fbe-21c1-4b2b-9b94-505a227cf500","ios":"levelo://app?vid=06663fbe-21c1-4b2b-9b94-505a227cf500"},"vehicle_type_id":"4","last_reported":1725181752,"current_range_meters":13200,"station_id":"ce4bgi92rcd13ifvqb90","pricing_plan_id":"cebpf4jnsgd1na2vs0mg"},{"bike_id":"7c38cacb-00b1-4a92-bf8e-85c455f77b04","system_id":"levelo_inurba_marseille","lat":43.29626,"lon":5.37736,"is_reserved":false,"is_disabled":false,"rental_uris":{"android":"levelo://app?vid=7c38cacb-00b1-4a92-bf8e-85c455f77b04","ios":"levelo://app?vid=7c38cacb-00b1-4a92-bf8e-85c455f77b04"},"vehicle_type_id":"4","last_reported":1725181752,"current_range_meters":11200,"station_id":"ce4bgi92rcd13ifvqb90","pricing_plan_id":"cebpf4jnsgd1na2vs0mg"},{"bike_id":"d9309c93-a135-44ae-9722-12268b564e93","system_id":"levelo_inurba_marseille","lat":43.296263,"lon":5.377094,"is_reserved":false,"is_disabled":false,"rental_uris":{"android":"levelo://app?vid=d9309c93-a135-44ae-9722-12268b564e93","ios":"levelo://app?vid=d9309c93-a135-44ae-9722-12268b564e93"},"vehicle_type_id":"4","last_reported":1725181752,"current_range_meters":0,"station_id":"ce4bgi92rcd13ifvqb90","pricing_plan_id":"cebpf4jnsgd1na2vs0mg"},{"bike_id":"d8a0ae9f-876a-4546-8219-42904d63578f","system_id":"levelo_inurba_marseille","lat":43.296263,"lon":5.377094,"is_reserved":false,"is_disabled":false,"rental_uris":{"android":"levelo://app?vid=d8a0ae9f-876a-4546-8219-42904d63578f","ios":"levelo://app?vid=d8a0ae9f-876a-4546-8219-42904d63578f"},"vehicle_type_id":"4","last_reported":1725181752,"current_range_meters":31600,"station_id":"ce4bgi92rcd13ifvqb90","pricing_plan_id":"cebpf4jnsgd1na2vs0mg"},{"bike_id":"16822c1c-8e50-4902-a0b4-3c3658086864","system_id":"levelo_inurba_marseille","lat":43.296277,"lon":5.377108,"is_reserved":false,"is_disabled":false,"rental_uris":{"android":"levelo://app?vid=16822c1c-8e50-4902-a0b4-3c3658086864","ios":"levelo://app?vid=16822c1c-8e50-4902-a0b4-3c3658086864"},"vehicle_type_id":"4","last_reported":1725181752,"current_range_meters":400,"station_id":"ce4bgi92rcd13ifvqb90","pricing_plan_id":"cebpf4jnsgd1na2vs0mg"},{"bike_id":"da8c1bbd-018b-456e-a9cd-76d23141eb75","system_id":"levelo_inurba_marseille","lat":43.295279,"lon":5.375048,"is_reserved":false,"is_disabled":false,"rental_uris":{"android":"levelo://app?vid=da8c1bbd-018b-456e-a9cd-76d23141eb75","ios":"levelo://app?vid=da8c1bbd-018b-456e-a9cd-76d23141eb75"},"vehicle_type_id":"4","last_reported":1725181752,"current_range_meters":17600,"station_id":"ce4bgkp2rcd13ifvqbmg","pricing_plan_id":"cebpf4jnsgd1na2vs0mg"},{"bike_id":"bfeceffa-15da-4711-9b0f-9d184bf15882","system_id":"levelo_inurba_marseille","lat":43.295279,"lon":5.375048,"is_reserved":false,"is_disabled":false,"rental_uris":{"android":"levelo://app?vid=bfeceffa-15da-4711-9b0f-9d184bf15882","ios":"levelo://app?vid=bfeceffa-15da-4711-9b0f-9d184bf15882"},"vehicle_type_id":"4","last_reported":1725181752,"current_range_meters":30400,"station_id":"ce4bgkp2rcd13ifvqbmg","pricing_plan_id":"cebpf4jnsgd1na2vs0mg"},{"bike_id":"a2cf253e-4da0-47da-85dc-02cf66d6731b","system_id":"levelo_inurba_marseille","lat":43.295279,"lon":5.375048,"is_reserved":false,"is_disabled":false,"rental_uris":{"android":"levelo://app?vid=a2cf253e-4da0-47da-85dc-02cf66d6731b","ios":"levelo://app?vid=a2cf253e-4da0-47da-85dc-02cf66d6731b"},"vehicle_type_id":"4","last_reported":1725181752,"current_range_meters":29200,"station_id":"ce4bgkp2rcd13ifvqbmg","pricing_plan_id":"cebpf4jnsgd1na2vs0mg"},{"bike_id":"112bcaf4-a4e2-47cf-84c6-3e087a85e27c","system_id":"levelo_inurba_marseille","lat":43.299707,"lon":5.384859,"is_reserved":false,"is_disabled":false,"rental_uris":{"android":"levelo://app?vid=112bcaf4-a4e2-47cf-84c6-3e087a85e27c","ios":"levelo://app?vid=112bcaf4-a4e2-47cf-84c6-3e087a85e27c"},"vehicle_type_id":"4","last_reported":1725181752,"current_range_meters":18800,"station_id":"ce4bgj92rcd13ifvqbd0","pricing_plan_id":"cebpf4jnsgd1na2vs0mg"},{"bike_id":"873aeb96-3267-4183-abb0-f478dfd930de","system_id":"levelo_inurba_marseille","lat":43.309589,"lon":5.390258,"is_reserved":false,"is_disabled":false,"rental_uris":{"android":"levelo://app?vid=873aeb96-3267-4183-abb0-f478dfd930de","ios":"levelo://app?vid=873aeb96-3267-4183-abb0-f478dfd930de"},"vehicle_type_id":"4","last_reported":1725181752,"current_range_meters":6400,"station_id":"ce4bgup2rcd13ifvqco0","pricing_plan_id":"cebpf4jnsgd1na2vs0mg"},{"bike_id":"fcca5846-99e6-41f1-8998-8c384df7e987","system_id":"levelo_inurba_marseille","lat":43.29646,"lon":5.380005,"is_reserved":false,"is_disabled":false,"rental_uris":{"android":"levelo://app?vid=fcca5846-99e6-41f1-8998-8c384df7e987","ios":"levelo://app?vid=fcca5846-99e6-41f1-8998-8c384df7e987"},"vehicle_type_id":"4","last_reported":1725181752,"current_range_meters":8800,"station_id":"","pricing_plan_id":"cebpf4jnsgd1na2vs0mg"},{"bike_id":"27daa3b0-bf3f-4379-ad17-9df742bbe791","system_id":"levelo_inurba_marseille","lat":43.32362,"lon":5.38882,"is_reserved":false,"is_disabled":false,"rental_uris":{"android":"levelo://app?vid=27daa3b0-bf3f-4379-ad17-9df742bbe791","ios":"levelo://app?vid=27daa3b0-bf3f-4379-ad17-9df742bbe791"},"vehicle_type_id":"4","last_reported":1725181752,"current_range_meters":4400,"station_id":"ce4bhqp2rcd13ifvqhog","pricing_plan_id":"cebpf4jnsgd1na2vs0mg"},{"bike_id":"49649619-d8f8-4bfe-bde0-9dee1751c89c","system_id":"levelo_inurba_marseille","lat":43.32367,"lon":5.38886,"is_reserved":false,"is_disabled":false,"rental_uris":{"android":"levelo://app?vid=49649619-d8f8-4bfe-bde0-9dee1751c89c","ios":"levelo://app?vid=49649619-d8f8-4bfe-bde0-9dee1751c89c"},"vehicle_type_id":"4","last_reported":1725181752,"current_range_meters":3600,"station_id":"ce4bhqp2rcd13ifvqhog","pricing_plan_id":"cebpf4jnsgd1na2vs0mg"},{"bike_id":"894c7fa0-82f6-494e-92b8-0e23ad88f954","system_id":"levelo_inurba_marseille","lat":43.32367,"lon":5.388836,"is_reserved":false,"is_disabled":false,"rental_uris":{"android":"levelo://app?vid=894c7fa0-82f6-494e-92b8-0e23ad88f954","ios":"levelo://app?vid=894c7fa0-82f6-494e-92b8-0e23ad88f954"},"vehicle_type_id":"4","last_reported":1725181752,"current_range_meters":27600,"station_id":"ce4bhqp2rcd13ifvqhog","pricing_plan_id":"cebpf4jnsgd1na2vs0mg"},{"bike_id":"c4838099-f81d-435a-962c-2f05c6f50726","system_id":"levelo_inurba_marseille","lat":43.293009,"lon":5.374584,"is_reserved":false,"is_disabled":false,"rental_uris":{"android":"levelo://app?vid=c4838099-f81d-435a-962c-2f05c6f50726","ios":"levelo://app?vid=c4838099-f81d-435a-962c-2f05c6f50726"},"vehicle_type_id":"4","last_reported":1725181752,"current_range_meters":27600,"station_id":"ce4bgi12rcd13ifvqb70","pricing_plan_id":"cebpf4jnsgd1na2vs0mg"},{"bike_id":"dddc405a-d0f6-4313-8a12-b17c4d9421fb","system_id":"levelo_inurba_marseille","lat":43.32368,"lon":5.38897,"is_reserved":false,"is_disabled":false,"rental_uris":{"android":"levelo://app?vid=dddc405a-d0f6-4313-8a12-b17c4d9421fb","ios":"levelo://app?vid=dddc405a-d0f6-4313-8a12-b17c4d9421fb"},"vehicle_type_id":"4","last_reported":1725181752,"current_range_meters":20000,"station_id":"ce4bhqp2rcd13ifvqhog","pricing_plan_id":"cebpf4jnsgd1na2vs0mg"},{"bike_id":"c6f0935b-430d-49df-92ca-d242d8ca5ba0","system_id":"levelo_inurba_marseille","lat":43.32375,"lon":5.38924,"is_reserved":false,"is_disabled":false,"rental_uris":{"android":"levelo://app?vid=c6f0935b-430d-49df-92ca-d242d8ca5ba0","ios":"levelo://app?vid=c6f0935b-430d-49df-92ca-d242d8ca5ba0"},"vehicle_type_id":"4","last_reported":1725181752,"current_range_meters":21200,"station_id":"ce4bhqp2rcd13ifvqhog","pricing_plan_id":"cebpf4jnsgd1na2vs0mg"},{"bike_id":"81878b43-2b9f-4e66-b61a-55f886f98e7e","system_id":"levelo_inurba_marseille","lat":43.293259,"lon":5.371586,"is_reserved":false,"is_disabled":false,"rental_uris":{"android":"levelo://app?vid=81878b43-2b9f-4e66-b61a-55f886f98e7e","ios":"levelo://app?vid=81878b43-2b9f-4e66-b61a-55f886f98e7e"},"vehicle_type_id":"4","last_reported":1725181752,"current_range_meters":31600,"station_id":"ce4bgh92rcd13ifvqb40","pricing_plan_id":"cebpf4jnsgd1na2vs0mg"},{"bike_id":"183a655d-523f-4430-a34e-9780a90bbf7f","system_id":"levelo_inurba_marseille","lat":43.292749,"lon":5.368402,"is_reserved":false,"is_disabled":false,"rental_uris":{"android":"levelo://app?vid=183a655d-523f-4430-a34e-9780a90bbf7f","ios":"levelo://app?vid=183a655d-523f-4430-a34e-9780a90bbf7f"},"vehicle_type_id":"4","last_reported":1725181752,"current_range_meters":18800,"station_id":"ce4bhbp2rcd13ifvqesg","pricing_plan_id":"cebpf4jnsgd1na2vs0mg"},{"bike_id":"455d3d62-8a2f-4dfc-9313-753709fef974","system_id":"levelo_inurba_marseille","lat":43.29278,"lon":5.36842,"is_reserved":false,"is_disabled":false,"rental_uris":{"android":"levelo://app?vid=455d3d62-8a2f-4dfc-9313-753709fef974","ios":"levelo://app?vid=455d3d62-8a2f-4dfc-9313-753709fef974"},"vehicle_type_id":"4","last_reported":1725181752,"current_range_meters":11600,"station_id":"ce4bhbp2rcd13ifvqesg","pricing_plan_id":"cebpf4jnsgd1na2vs0mg"},{"bike_id":"5ead5534-0c17-4fa3-85a8-8226a2c17167","system_id":"levelo_inurba_marseille","lat":43.292749,"lon":5.368402,"is_reserved":false,"is_disabled":false,"rental_uris":{"android":"levelo://app?vid=5ead5534-0c17-4fa3-85a8-8226a2c17167","ios":"levelo://app?vid=5ead5534-0c17-4fa3-85a8-8226a2c17167"},"vehicle_type_id":"4","last_reported":1725181752,"current_range_meters":26800,"station_id":"ce4bhbp2rcd13ifvqesg","pricing_plan_id":"cebpf4jnsgd1na2vs0mg"},{"bike_id":"0bf40078-592b-471c-bd23-4cff37ab239d","system_id":"levelo_inurba_marseille","lat":43.292749,"lon":5.368402,"is_reserved":false,"is_disabled":false,"rental_uris":{"android":"levelo://app?vid=0bf40078-592b-471c-bd23-4cff37ab239d","ios":"levelo://app?vid=0bf40078-592b-471c-bd23-4cff37ab239d"},"vehicle_type_id":"4","last_reported":1725181752,"current_range_meters":13200,"station_id":"ce4bhbp2rcd13ifvqesg","pricing_plan_id":"cebpf4jnsgd1na2vs0mg"},{"bike_id":"3bd28c66-100c-4c87-921a-e83ba8bb5d01","system_id":"levelo_inurba_marseille","lat":43.292749,"lon":5.368402,"is_reserved":false,"is_disabled":false,"rental_uris":{"android":"levelo://app?vid=3bd28c66-100c-4c87-921a-e83ba8bb5d01","ios":"levelo://app?vid=3bd28c66-100c-4c87-921a-e83ba8bb5d01"},"vehicle_type_id":"4","last_reported":1725181752,"current_range_meters":31200,"station_id":"ce4bhbp2rcd13ifvqesg","pricing_plan_id":"cebpf4jnsgd1na2vs0mg"},{"bike_id":"5b3a7a0c-145b-4d07-8758-142209b3a740","system_id":"levelo_inurba_marseille","lat":43.292749,"lon":5.368402,"is_reserved":false,"is_disabled":false,"rental_uris":{"android":"levelo://app?vid=5b3a7a0c-145b-4d07-8758-142209b3a740","ios":"levelo://app?vid=5b3a7a0c-145b-4d07-8758-142209b3a740"},"vehicle_type_id":"4","last_reported":1725181752,"current_range_meters":28000,"station_id":"ce4bhbp2rcd13ifvqesg","pricing_plan_id":"cebpf4jnsgd1na2vs0mg"},{"bike_id":"1c00eaa9-7392-49c9-9c32-c7002c9e93f6","system_id":"levelo_inurba_marseille","lat":43.29273,"lon":5.3684,"is_reserved":false,"is_disabled":false,"rental_uris":{"android":"levelo://app?vid=1c00eaa9-7392-49c9-9c32-c7002c9e93f6","ios":"levelo://app?vid=1c00eaa9-7392-49c9-9c32-c7002c9e93f6"},"vehicle_type_id":"4","last_reported":1725181752,"current_range_meters":30800,"station_id":"ce4bhbp2rcd13ifvqesg","pricing_plan_id":"cebpf4jnsgd1na2vs0mg"},{"bike_id":"f1e5b44c-cd78-4547-abc7-b24efc28bacc","system_id":"levelo_inurba_marseille","lat":43.292749,"lon":5.368402,"is_reserved":false,"is_disabled":false,"rental_uris":{"android":"levelo://app?vid=f1e5b44c-cd78-4547-abc7-b24efc28bacc","ios":"levelo://app?vid=f1e5b44c-cd78-4547-abc7-b24efc28bacc"},"vehicle_type_id":"4","last_reported":1725181752,"current_range_meters":8000,"station_id":"ce4bhbp2rcd13ifvqesg","pricing_plan_id":"cebpf4jnsgd1na2vs0mg"},{"bike_id":"78d2035d-fca9-477f-bbd3-d46fbaa1baf4","system_id":"levelo_inurba_marseille","lat":43.292749,"lon":5.368402,"is_reserved":false,"is_disabled":false,"rental_uris":{"android":"levelo://app?vid=78d2035d-fca9-477f-bbd3-d46fbaa1baf4","ios":"levelo://app?vid=78d2035d-fca9-477f-bbd3-d46fbaa1baf4"},"vehicle_type_id":"4","last_reported":1725181752,"current_range_meters":31200,"station_id":"ce4bhbp2rcd13ifvqesg","pricing_plan_id":"cebpf4jnsgd1na2vs0mg"},{"bike_id":"e7e24355-3ca3-4989-a936-914507f07bb5","system_id":"levelo_inurba_marseille","lat":43.29272,"lon":5.36839,"is_reserved":false,"is_disabled":false,"rental_uris":{"android":"levelo://app?vid=e7e24355-3ca3-4989-a936-914507f07bb5","ios":"levelo://app?vid=e7e24355-3ca3-4989-a936-914507f07bb5"},"vehicle_type_id":"4","last_reported":1725181752,"current_range_meters":26000,"station_id":"ce4bhbp2rcd13ifvqesg","pricing_plan_id":"cebpf4jnsgd1na2vs0mg"},{"bike_id":"0a1acd2b-5e13-445a-b505-2dc6cc864f4b","system_id":"levelo_inurba_marseille","lat":43.293009,"lon":5.374584,"is_reserved":false,"is_disabled":false,"rental_uris":{"android":"levelo://app?vid=0a1acd2b-5e13-445a-b505-2dc6cc864f4b","ios":"levelo://app?vid=0a1acd2b-5e13-445a-b505-2dc6cc864f4b"},"vehicle_type_id":"4","last_reported":1725181752,"current_range_meters":20400,"station_id":"ce4bgi12rcd13ifvqb70","pricing_plan_id":"cebpf4jnsgd1na2vs0mg"},{"bike_id":"a6738624-627a-446c-b11d-24137cf9f19b","system_id":"levelo_inurba_marseille","lat":43.293009,"lon":5.374584,"is_reserved":false,"is_disabled":false,"rental_uris":{"android":"levelo://app?vid=a6738624-627a-446c-b11d-24137cf9f19b","ios":"levelo://app?vid=a6738624-627a-446c-b11d-24137cf9f19b"},"vehicle_type_id":"4","last_reported":1725181752,"current_range_meters":21600,"station_id":"ce4bgi12rcd13ifvqb70","pricing_plan_id":"cebpf4jnsgd1na2vs0mg"},{"bike_id":"c35bd314-4aac-400a-aa07-f1fcb6c5712b","system_id":"levelo_inurba_marseille","lat":43.293017,"lon":5.374615,"is_reserved":false,"is_disabled":false,"rental_uris":{"android":"levelo://app?vid=c35bd314-4aac-400a-aa07-f1fcb6c5712b","ios":"levelo://app?vid=c35bd314-4aac-400a-aa07-f1fcb6c5712b"},"vehicle_type_id":"4","last_reported":1725181752,"current_range_meters":20400,"station_id":"ce4bgi12rcd13ifvqb70","pricing_plan_id":"cebpf4jnsgd1na2vs0mg"},{"bike_id":"b6979f80-97f4-45da-ae74-33c2324fec21","system_id":"levelo_inurba_marseille","lat":43.293009,"lon":5.374584,"is_reserved":false,"is_disabled":false,"rental_uris":{"android":"levelo://app?vid=b6979f80-97f4-45da-ae74-33c2324fec21","ios":"levelo://app?vid=b6979f80-97f4-45da-ae74-33c2324fec21"},"vehicle_type_id":"4","last_reported":1725181752,"current_range_meters":31200,"station_id":"ce4bgi12rcd13ifvqb70","pricing_plan_id":"cebpf4jnsgd1na2vs0mg"},{"bike_id":"adbc5d3d-4124-48ec-9686-a0bf9956c3ac","system_id":"levelo_inurba_marseille","lat":43.29293,"lon":5.37438,"is_reserved":false,"is_disabled":false,"rental_uris":{"android":"levelo://app?vid=adbc5d3d-4124-48ec-9686-a0bf9956c3ac","ios":"levelo://app?vid=adbc5d3d-4124-48ec-9686-a0bf9956c3ac"},"vehicle_type_id":"4","last_reported":1725181752,"current_range_meters":31200,"station_id":"ce4bgi12rcd13ifvqb70","pricing_plan_id":"cebpf4jnsgd1na2vs0mg"},{"bike_id":"78ca432e-7d78-48a4-9846-a8f11879c66d","system_id":"levelo_inurba_marseille","lat":43.305994,"lon":5.393687,"is_reserved":false,"is_disabled":false,"rental_uris":{"android":"levelo://app?vid=78ca432e-7d78-48a4-9846-a8f11879c66d","ios":"levelo://app?vid=78ca432e-7d78-48a4-9846-a8f11879c66d"},"vehicle_type_id":"4","last_reported":1725181752,"current_range_meters":23600,"station_id":"ce4bh0p2rcd13ifvqd80","pricing_plan_id":"cebpf4jnsgd1na2vs0mg"},{"bike_id":"ea20daaa-2f45-4200-9de0-8355f5b13e1f","system_id":"levelo_inurba_marseille","lat":43.293009,"lon":5.374584,"is_reserved":false,"is_disabled":false,"rental_uris":{"android":"levelo://app?vid=ea20daaa-2f45-4200-9de0-8355f5b13e1f","ios":"levelo://app?vid=ea20daaa-2f45-4200-9de0-8355f5b13e1f"},"vehicle_type_id":"4","last_reported":1725181752,"current_range_meters":30400,"station_id":"ce4bgi12rcd13ifvqb70","pricing_plan_id":"cebpf4jnsgd1na2vs0mg"},{"bike_id":"3fbcced2-dfdf-45b4-a9b4-16d2b47b479c","system_id":"levelo_inurba_marseille","lat":43.293009,"lon":5.374584,"is_reserved":false,"is_disabled":false,"rental_uris":{"android":"levelo://app?vid=3fbcced2-dfdf-45b4-a9b4-16d2b47b479c","ios":"levelo://app?vid=3fbcced2-dfdf-45b4-a9b4-16d2b47b479c"},"vehicle_type_id":"4","last_reported":1725181752,"current_range_meters":9200,"station_id":"ce4bgi12rcd13ifvqb70","pricing_plan_id":"cebpf4jnsgd1na2vs0mg"},{"bike_id":"db5605b4-1261-45a3-8cfd-313ed0377ea8","system_id":"levelo_inurba_marseille","lat":43.2936,"lon":5.37835,"is_reserved":false,"is_disabled":false,"rental_uris":{"android":"levelo://app?vid=db5605b4-1261-45a3-8cfd-313ed0377ea8","ios":"levelo://app?vid=db5605b4-1261-45a3-8cfd-313ed0377ea8"},"vehicle_type_id":"4","last_reported":1725181752,"current_range_meters":5600,"station_id":"ce4bgjh2rcd13ifvqbf0","pricing_plan_id":"cebpf4jnsgd1na2vs0mg"},{"bike_id":"c073ca15-8ad8-4889-9813-8a3ba6af7b6f","system_id":"levelo_inurba_marseille","lat":43.2936,"lon":5.37835,"is_reserved":false,"is_disabled":false,"rental_uris":{"android":"levelo://app?vid=c073ca15-8ad8-4889-9813-8a3ba6af7b6f","ios":"levelo://app?vid=c073ca15-8ad8-4889-9813-8a3ba6af7b6f"},"vehicle_type_id":"4","last_reported":1725181752,"current_range_meters":20800,"station_id":"ce4bgjh2rcd13ifvqbf0","pricing_plan_id":"cebpf4jnsgd1na2vs0mg"},{"bike_id":"62636f43-5f6c-42f3-be14-941234b41393","system_id":"levelo_inurba_marseille","lat":43.292311,"lon":5.360731,"is_reserved":false,"is_disabled":false,"rental_uris":{"android":"levelo://app?vid=62636f43-5f6c-42f3-be14-941234b41393","ios":"levelo://app?vid=62636f43-5f6c-42f3-be14-941234b41393"},"vehicle_type_id":"4","last_reported":1725181752,"current_range_meters":22800,"station_id":"ce4bhbh2rcd13ifvqeqg","pricing_plan_id":"cebpf4jnsgd1na2vs0mg"},{"bike_id":"1785260a-6817-4388-a7cb-4273552a92e3","system_id":"levelo_inurba_marseille","lat":43.292311,"lon":5.360731,"is_reserved":false,"is_disabled":false,"rental_uris":{"android":"levelo://app?vid=1785260a-6817-4388-a7cb-4273552a92e3","ios":"levelo://app?vid=1785260a-6817-4388-a7cb-4273552a92e3"},"vehicle_type_id":"4","last_reported":1725181752,"current_range_meters":27600,"station_id":"ce4bhbh2rcd13ifvqeqg","pricing_plan_id":"cebpf4jnsgd1na2vs0mg"},{"bike_id":"35b29121-e0ab-40ca-b643-e671be40833b","system_id":"levelo_inurba_marseille","lat":43.292311,"lon":5.360731,"is_reserved":false,"is_disabled":false,"rental_uris":{"android":"levelo://app?vid=35b29121-e0ab-40ca-b643-e671be40833b","ios":"levelo://app?vid=35b29121-e0ab-40ca-b643-e671be40833b"},"vehicle_type_id":"4","last_reported":1725181752,"current_range_meters":27600,"station_id":"ce4bhbh2rcd13ifvqeqg","pricing_plan_id":"cebpf4jnsgd1na2vs0mg"},{"bike_id":"df60d9b9-4700-498b-acc0-8202bb608ed5","system_id":"levelo_inurba_marseille","lat":43.292311,"lon":5.360731,"is_reserved":false,"is_disabled":false,"rental_uris":{"android":"levelo://app?vid=df60d9b9-4700-498b-acc0-8202bb608ed5","ios":"levelo://app?vid=df60d9b9-4700-498b-acc0-8202bb608ed5"},"vehicle_type_id":"4","last_reported":1725181752,"current_range_meters":8000,"station_id":"ce4bhbh2rcd13ifvqeqg","pricing_plan_id":"cebpf4jnsgd1na2vs0mg"},{"bike_id":"025a054e-3b30-4606-9c5d-7d69e3d7ccd5","system_id":"levelo_inurba_marseille","lat":43.292311,"lon":5.360731,"is_reserved":false,"is_disabled":false,"rental_uris":{"android":"levelo://app?vid=025a054e-3b30-4606-9c5d-7d69e3d7ccd5","ios":"levelo://app?vid=025a054e-3b30-4606-9c5d-7d69e3d7ccd5"},"vehicle_type_id":"4","last_reported":1725181752,"current_range_meters":15200,"station_id":"ce4bhbh2rcd13ifvqeqg","pricing_plan_id":"cebpf4jnsgd1na2vs0mg"},{"bike_id":"8ddefb88-d538-4de0-843c-850739d921fc","system_id":"levelo_inurba_marseille","lat":43.292311,"lon":5.360731,"is_reserved":false,"is_disabled":false,"rental_uris":{"android":"levelo://app?vid=8ddefb88-d538-4de0-843c-850739d921fc","ios":"levelo://app?vid=8ddefb88-d538-4de0-843c-850739d921fc"},"vehicle_type_id":"4","last_reported":1725181752,"current_range_meters":16000,"station_id":"ce4bhbh2rcd13ifvqeqg","pricing_plan_id":"cebpf4jnsgd1na2vs0mg"},{"bike_id":"5069851b-1e11-4d50-a5f1-86dc555b572e","system_id":"levelo_inurba_marseille","lat":43.29228,"lon":5.36064,"is_reserved":false,"is_disabled":false,"rental_uris":{"android":"levelo://app?vid=5069851b-1e11-4d50-a5f1-86dc555b572e","ios":"levelo://app?vid=5069851b-1e11-4d50-a5f1-86dc555b572e"},"vehicle_type_id":"4","last_reported":1725181752,"current_range_meters":20000,"station_id":"ce4bhbh2rcd13ifvqeqg","pricing_plan_id":"cebpf4jnsgd1na2vs0mg"},{"bike_id":"4dce3e03-17f9-44a7-bc76-2f7ccad6a27c","system_id":"levelo_inurba_marseille","lat":43.29227,"lon":5.36065,"is_reserved":false,"is_disabled":false,"rental_uris":{"android":"levelo://app?vid=4dce3e03-17f9-44a7-bc76-2f7ccad6a27c","ios":"levelo://app?vid=4dce3e03-17f9-44a7-bc76-2f7ccad6a27c"},"vehicle_type_id":"4","last_reported":1725181752,"current_range_meters":16000,"station_id":"ce4bhbh2rcd13ifvqeqg","pricing_plan_id":"cebpf4jnsgd1na2vs0mg"},{"bike_id":"f83cbe12-7da0-4d34-b693-f253fb8fe74f","system_id":"levelo_inurba_marseille","lat":43.29227,"lon":5.36062,"is_reserved":false,"is_disabled":false,"rental_uris":{"android":"levelo://app?vid=f83cbe12-7da0-4d34-b693-f253fb8fe74f","ios":"levelo://app?vid=f83cbe12-7da0-4d34-b693-f253fb8fe74f"},"vehicle_type_id":"4","last_reported":1725181752,"current_range_meters":23200,"station_id":"ce4bhbh2rcd13ifvqeqg","pricing_plan_id":"cebpf4jnsgd1na2vs0mg"},{"bike_id":"bb1cf3b0-38ab-4fff-8ece-0211a57584af","system_id":"levelo_inurba_marseille","lat":43.292311,"lon":5.360731,"is_reserved":false,"is_disabled":false,"rental_uris":{"android":"levelo://app?vid=bb1cf3b0-38ab-4fff-8ece-0211a57584af","ios":"levelo://app?vid=bb1cf3b0-38ab-4fff-8ece-0211a57584af"},"vehicle_type_id":"4","last_reported":1725181752,"current_range_meters":23200,"station_id":"ce4bhbh2rcd13ifvqeqg","pricing_plan_id":"cebpf4jnsgd1na2vs0mg"},{"bike_id":"52af2be7-89bc-44f8-8030-947ba4219b13","system_id":"levelo_inurba_marseille","lat":43.292311,"lon":5.360731,"is_reserved":false,"is_disabled":false,"rental_uris":{"android":"levelo://app?vid=52af2be7-89bc-44f8-8030-947ba4219b13","ios":"levelo://app?vid=52af2be7-89bc-44f8-8030-947ba4219b13"},"vehicle_type_id":"4","last_reported":1725181752,"current_range_meters":31200,"station_id":"ce4bhbh2rcd13ifvqeqg","pricing_plan_id":"cebpf4jnsgd1na2vs0mg"},{"bike_id":"53c5b308-1647-4efc-ad3e-bae27cf0a5c1","system_id":"levelo_inurba_marseille","lat":43.29225,"lon":5.3606,"is_reserved":false,"is_disabled":false,"rental_uris":{"android":"levelo://app?vid=53c5b308-1647-4efc-ad3e-bae27cf0a5c1","ios":"levelo://app?vid=53c5b308-1647-4efc-ad3e-bae27cf0a5c1"},"vehicle_type_id":"4","last_reported":1725181752,"current_range_meters":12800,"station_id":"ce4bhbh2rcd13ifvqeqg","pricing_plan_id":"cebpf4jnsgd1na2vs0mg"},{"bike_id":"991f76b4-c4c0-414c-83c8-911c1622abf4","system_id":"levelo_inurba_marseille","lat":43.29221,"lon":5.36067,"is_reserved":false,"is_disabled":false,"rental_uris":{"android":"levelo://app?vid=991f76b4-c4c0-414c-83c8-911c1622abf4","ios":"levelo://app?vid=991f76b4-c4c0-414c-83c8-911c1622abf4"},"vehicle_type_id":"4","last_reported":1725181752,"current_range_meters":31200,"station_id":"ce4bhbh2rcd13ifvqeqg","pricing_plan_id":"cebpf4jnsgd1na2vs0mg"},{"bike_id":"60ca416a-e89a-4c27-9ae1-00f43e52d4bc","system_id":"levelo_inurba_marseille","lat":43.30888,"lon":5.39633,"is_reserved":false,"is_disabled":false,"rental_uris":{"android":"levelo://app?vid=60ca416a-e89a-4c27-9ae1-00f43e52d4bc","ios":"levelo://app?vid=60ca416a-e89a-4c27-9ae1-00f43e52d4bc"},"vehicle_type_id":"4","last_reported":1725181752,"current_range_meters":0,"station_id":"ce4bh012rcd13ifvqcv0","pricing_plan_id":"cebpf4jnsgd1na2vs0mg"},{"bike_id":"40379729-3f5a-4c05-be84-113807f28b87","system_id":"levelo_inurba_marseille","lat":43.292005,"lon":5.357875,"is_reserved":false,"is_disabled":false,"rental_uris":{"android":"levelo://app?vid=40379729-3f5a-4c05-be84-113807f28b87","ios":"levelo://app?vid=40379729-3f5a-4c05-be84-113807f28b87"},"vehicle_type_id":"4","last_reported":1725181752,"current_range_meters":29200,"station_id":"ce4bhb12rcd13ifvqel0","pricing_plan_id":"cebpf4jnsgd1na2vs0mg"},{"bike_id":"be204459-54f2-4beb-900c-29c974bbf119","system_id":"levelo_inurba_marseille","lat":43.292005,"lon":5.357875,"is_reserved":false,"is_disabled":false,"rental_uris":{"android":"levelo://app?vid=be204459-54f2-4beb-900c-29c974bbf119","ios":"levelo://app?vid=be204459-54f2-4beb-900c-29c974bbf119"},"vehicle_type_id":"4","last_reported":1725181752,"current_range_meters":31200,"station_id":"ce4bhb12rcd13ifvqel0","pricing_plan_id":"cebpf4jnsgd1na2vs0mg"},{"bike_id":"5fbc87b0-d2e6-4383-bfab-9ffcc1498e2b","system_id":"levelo_inurba_marseille","lat":43.29194,"lon":5.35802,"is_reserved":false,"is_disabled":false,"rental_uris":{"android":"levelo://app?vid=5fbc87b0-d2e6-4383-bfab-9ffcc1498e2b","ios":"levelo://app?vid=5fbc87b0-d2e6-4383-bfab-9ffcc1498e2b"},"vehicle_type_id":"4","last_reported":1725181752,"current_range_meters":14400,"station_id":"ce4bhb12rcd13ifvqel0","pricing_plan_id":"cebpf4jnsgd1na2vs0mg"},{"bike_id":"61368051-95aa-441c-b3c5-bec2f21cadbb","system_id":"levelo_inurba_marseille","lat":43.313291,"lon":5.396838,"is_reserved":false,"is_disabled":false,"rental_uris":{"android":"levelo://app?vid=61368051-95aa-441c-b3c5-bec2f21cadbb","ios":"levelo://app?vid=61368051-95aa-441c-b3c5-bec2f21cadbb"},"vehicle_type_id":"4","last_reported":1725181752,"current_range_meters":3600,"station_id":"ce4bgvp2rcd13ifvqcu0","pricing_plan_id":"cebpf4jnsgd1na2vs0mg"},{"bike_id":"b6530863-dde6-49a0-9a46-9bf3124d22ce","system_id":"levelo_inurba_marseille","lat":43.292005,"lon":5.357875,"is_reserved":false,"is_disabled":false,"rental_uris":{"android":"levelo://app?vid=b6530863-dde6-49a0-9a46-9bf3124d22ce","ios":"levelo://app?vid=b6530863-dde6-49a0-9a46-9bf3124d22ce"},"vehicle_type_id":"4","last_reported":1725181752,"current_range_meters":31200,"station_id":"ce4bhb12rcd13ifvqel0","pricing_plan_id":"cebpf4jnsgd1na2vs0mg"},{"bike_id":"10fc9718-9932-4fb8-9a66-e0d80fd93116","system_id":"levelo_inurba_marseille","lat":43.29185,"lon":5.35803,"is_reserved":false,"is_disabled":false,"rental_uris":{"android":"levelo://app?vid=10fc9718-9932-4fb8-9a66-e0d80fd93116","ios":"levelo://app?vid=10fc9718-9932-4fb8-9a66-e0d80fd93116"},"vehicle_type_id":"4","last_reported":1725181752,"current_range_meters":31200,"station_id":"ce4bhb12rcd13ifvqel0","pricing_plan_id":"cebpf4jnsgd1na2vs0mg"},{"bike_id":"4bbd8bc5-00b4-4469-bb55-1d60a8d2e108","system_id":"levelo_inurba_marseille","lat":43.31327,"lon":5.39698,"is_reserved":false,"is_disabled":false,"rental_uris":{"android":"levelo://app?vid=4bbd8bc5-00b4-4469-bb55-1d60a8d2e108","ios":"levelo://app?vid=4bbd8bc5-00b4-4469-bb55-1d60a8d2e108"},"vehicle_type_id":"4","last_reported":1725181752,"current_range_meters":7600,"station_id":"ce4bgvp2rcd13ifvqcu0","pricing_plan_id":"cebpf4jnsgd1na2vs0mg"},{"bike_id":"f047d7d2-cec2-4668-9afb-f69f7240dd76","system_id":"levelo_inurba_marseille","lat":43.313291,"lon":5.396838,"is_reserved":false,"is_disabled":false,"rental_uris":{"android":"levelo://app?vid=f047d7d2-cec2-4668-9afb-f69f7240dd76","ios":"levelo://app?vid=f047d7d2-cec2-4668-9afb-f69f7240dd76"},"vehicle_type_id":"4","last_reported":1725181752,"current_range_meters":28800,"station_id":"ce4bgvp2rcd13ifvqcu0","pricing_plan_id":"cebpf4jnsgd1na2vs0mg"},{"bike_id":"06e97b6d-600f-487b-ae45-0a80d6664a6e","system_id":"levelo_inurba_marseille","lat":43.313291,"lon":5.396838,"is_reserved":false,"is_disabled":false,"rental_uris":{"android":"levelo://app?vid=06e97b6d-600f-487b-ae45-0a80d6664a6e","ios":"levelo://app?vid=06e97b6d-600f-487b-ae45-0a80d6664a6e"},"vehicle_type_id":"4","last_reported":1725181752,"current_range_meters":19200,"station_id":"ce4bgvp2rcd13ifvqcu0","pricing_plan_id":"cebpf4jnsgd1na2vs0mg"},{"bike_id":"637090ae-b685-401b-96a3-7432890d219c","system_id":"levelo_inurba_marseille","lat":43.309038,"lon":5.396546,"is_reserved":false,"is_disabled":false,"rental_uris":{"android":"levelo://app?vid=637090ae-b685-401b-96a3-7432890d219c","ios":"levelo://app?vid=637090ae-b685-401b-96a3-7432890d219c"},"vehicle_type_id":"4","last_reported":1725181752,"current_range_meters":16800,"station_id":"ce4bh012rcd13ifvqcv0","pricing_plan_id":"cebpf4jnsgd1na2vs0mg"},{"bike_id":"84967633-5ef9-4e2f-a032-9db9075e38a5","system_id":"levelo_inurba_marseille","lat":43.309038,"lon":5.396546,"is_reserved":false,"is_disabled":false,"rental_uris":{"android":"levelo://app?vid=84967633-5ef9-4e2f-a032-9db9075e38a5","ios":"levelo://app?vid=84967633-5ef9-4e2f-a032-9db9075e38a5"},"vehicle_type_id":"4","last_reported":1725181752,"current_range_meters":23600,"station_id":"ce4bh012rcd13ifvqcv0","pricing_plan_id":"cebpf4jnsgd1na2vs0mg"},{"bike_id":"96ac35e8-577a-4ada-9fea-bbfac583b03d","system_id":"levelo_inurba_marseille","lat":43.29529,"lon":5.385581,"is_reserved":false,"is_disabled":false,"rental_uris":{"android":"levelo://app?vid=96ac35e8-577a-4ada-9fea-bbfac583b03d","ios":"levelo://app?vid=96ac35e8-577a-4ada-9fea-bbfac583b03d"},"vehicle_type_id":"4","last_reported":1725181752,"current_range_meters":26400,"station_id":"ce4bgih2rcd13ifvqba0","pricing_plan_id":"cebpf4jnsgd1na2vs0mg"},{"bike_id":"110fe933-bc19-4ebf-a500-2bf8e040d146","system_id":"levelo_inurba_marseille","lat":43.290779,"lon":5.371482,"is_reserved":false,"is_disabled":false,"rental_uris":{"android":"levelo://app?vid=110fe933-bc19-4ebf-a500-2bf8e040d146","ios":"levelo://app?vid=110fe933-bc19-4ebf-a500-2bf8e040d146"},"vehicle_type_id":"4","last_reported":1725181752,"current_range_meters":31200,"station_id":"ce4bh5p2rcd13ifvqe4g","pricing_plan_id":"cebpf4jnsgd1na2vs0mg"},{"bike_id":"6a666fa9-f214-49d2-99e4-daf58bd23016","system_id":"levelo_inurba_marseille","lat":43.290631,"lon":5.359244,"is_reserved":false,"is_disabled":false,"rental_uris":{"android":"levelo://app?vid=6a666fa9-f214-49d2-99e4-daf58bd23016","ios":"levelo://app?vid=6a666fa9-f214-49d2-99e4-daf58bd23016"},"vehicle_type_id":"4","last_reported":1725181752,"current_range_meters":30000,"station_id":"ce4bha92rcd13ifvqeg0","pricing_plan_id":"cebpf4jnsgd1na2vs0mg"},{"bike_id":"9b84dd7f-3369-483f-8719-6c78fca916ed","system_id":"levelo_inurba_marseille","lat":43.289468,"lon":5.363719,"is_reserved":false,"is_disabled":false,"rental_uris":{"android":"levelo://app?vid=9b84dd7f-3369-483f-8719-6c78fca916ed","ios":"levelo://app?vid=9b84dd7f-3369-483f-8719-6c78fca916ed"},"vehicle_type_id":"4","last_reported":1725181752,"current_range_meters":3200,"station_id":"ce4bhc92rcd13ifvqetg","pricing_plan_id":"cebpf4jnsgd1na2vs0mg"},{"bike_id":"43ff8d36-1e20-4659-b21d-77d3f1c2b6b2","system_id":"levelo_inurba_marseille","lat":43.289184,"lon":5.366408,"is_reserved":false,"is_disabled":false,"rental_uris":{"android":"levelo://app?vid=43ff8d36-1e20-4659-b21d-77d3f1c2b6b2","ios":"levelo://app?vid=43ff8d36-1e20-4659-b21d-77d3f1c2b6b2"},"vehicle_type_id":"4","last_reported":1725181752,"current_range_meters":23200,"station_id":"ce4bhap2rcd13ifvqek0","pricing_plan_id":"cebpf4jnsgd1na2vs0mg"},{"bike_id":"790cfc65-328c-49a9-8eaa-519562f852ec","system_id":"levelo_inurba_marseille","lat":43.289468,"lon":5.363719,"is_reserved":false,"is_disabled":false,"rental_uris":{"android":"levelo://app?vid=790cfc65-328c-49a9-8eaa-519562f852ec","ios":"levelo://app?vid=790cfc65-328c-49a9-8eaa-519562f852ec"},"vehicle_type_id":"4","last_reported":1725181752,"current_range_meters":8800,"station_id":"ce4bhc92rcd13ifvqetg","pricing_plan_id":"cebpf4jnsgd1na2vs0mg"},{"bike_id":"c6411a64-56ac-4fdf-b217-43c5cc46c9fc","system_id":"levelo_inurba_marseille","lat":43.325932,"lon":5.394267,"is_reserved":false,"is_disabled":false,"rental_uris":{"android":"levelo://app?vid=c6411a64-56ac-4fdf-b217-43c5cc46c9fc","ios":"levelo://app?vid=c6411a64-56ac-4fdf-b217-43c5cc46c9fc"},"vehicle_type_id":"4","last_reported":1725181752,"current_range_meters":7200,"station_id":"","pricing_plan_id":"cebpf4jnsgd1na2vs0mg"},{"bike_id":"bdc069ea-a413-47f5-9f1e-d40325af6340","system_id":"levelo_inurba_marseille","lat":43.32949,"lon":5.39038,"is_reserved":false,"is_disabled":false,"rental_uris":{"android":"levelo://app?vid=bdc069ea-a413-47f5-9f1e-d40325af6340","ios":"levelo://app?vid=bdc069ea-a413-47f5-9f1e-d40325af6340"},"vehicle_type_id":"4","last_reported":1725181752,"current_range_meters":19600,"station_id":"","pricing_plan_id":"cebpf4jnsgd1na2vs0mg"},{"bike_id":"4db69055-aa59-4f42-aedb-32f41b628a05","system_id":"levelo_inurba_marseille","lat":43.29011,"lon":5.35613,"is_reserved":false,"is_disabled":false,"rental_uris":{"android":"levelo://app?vid=4db69055-aa59-4f42-aedb-32f41b628a05","ios":"levelo://app?vid=4db69055-aa59-4f42-aedb-32f41b628a05"},"vehicle_type_id":"4","last_reported":1725181752,"current_range_meters":30000,"station_id":"ce4bhb92rcd13ifvqen0","pricing_plan_id":"cebpf4jnsgd1na2vs0mg"},{"bike_id":"8b0e62a5-a3c6-4662-9d5d-cfa0bba784cc","system_id":"levelo_inurba_marseille","lat":43.29009,"lon":5.35615,"is_reserved":false,"is_disabled":false,"rental_uris":{"android":"levelo://app?vid=8b0e62a5-a3c6-4662-9d5d-cfa0bba784cc","ios":"levelo://app?vid=8b0e62a5-a3c6-4662-9d5d-cfa0bba784cc"},"vehicle_type_id":"4","last_reported":1725181752,"current_range_meters":31200,"station_id":"ce4bhb92rcd13ifvqen0","pricing_plan_id":"cebpf4jnsgd1na2vs0mg"},{"bike_id":"b3812778-f287-4d2b-991b-6641d2b63df4","system_id":"levelo_inurba_marseille","lat":43.29005,"lon":5.35615,"is_reserved":false,"is_disabled":false,"rental_uris":{"android":"levelo://app?vid=b3812778-f287-4d2b-991b-6641d2b63df4","ios":"levelo://app?vid=b3812778-f287-4d2b-991b-6641d2b63df4"},"vehicle_type_id":"4","last_reported":1725181752,"current_range_meters":31200,"station_id":"ce4bhb92rcd13ifvqen0","pricing_plan_id":"cebpf4jnsgd1na2vs0mg"},{"bike_id":"4a9a1e51-7219-4a31-a70b-e012f561a7f8","system_id":"levelo_inurba_marseille","lat":43.330442,"lon":5.389148,"is_reserved":false,"is_disabled":false,"rental_uris":{"android":"levelo://app?vid=4a9a1e51-7219-4a31-a70b-e012f561a7f8","ios":"levelo://app?vid=4a9a1e51-7219-4a31-a70b-e012f561a7f8"},"vehicle_type_id":"4","last_reported":1725181752,"current_range_meters":31600,"station_id":"ce4bhr92rcd13ifvqhrg","pricing_plan_id":"cebpf4jnsgd1na2vs0mg"},{"bike_id":"e39a5289-b49c-46dc-aa69-d383f7f9ac32","system_id":"levelo_inurba_marseille","lat":43.330442,"lon":5.389148,"is_reserved":false,"is_disabled":false,"rental_uris":{"android":"levelo://app?vid=e39a5289-b49c-46dc-aa69-d383f7f9ac32","ios":"levelo://app?vid=e39a5289-b49c-46dc-aa69-d383f7f9ac32"},"vehicle_type_id":"4","last_reported":1725181752,"current_range_meters":2400,"station_id":"ce4bhr92rcd13ifvqhrg","pricing_plan_id":"cebpf4jnsgd1na2vs0mg"},{"bike_id":"84d24b23-7680-4036-9944-8e944a55be0d","system_id":"levelo_inurba_marseille","lat":43.330442,"lon":5.389148,"is_reserved":false,"is_disabled":false,"rental_uris":{"android":"levelo://app?vid=84d24b23-7680-4036-9944-8e944a55be0d","ios":"levelo://app?vid=84d24b23-7680-4036-9944-8e944a55be0d"},"vehicle_type_id":"4","last_reported":1725181752,"current_range_meters":29200,"station_id":"ce4bhr92rcd13ifvqhrg","pricing_plan_id":"cebpf4jnsgd1na2vs0mg"},{"bike_id":"a3441031-033a-419a-8695-f2f10fe38ba9","system_id":"levelo_inurba_marseille","lat":43.330442,"lon":5.389148,"is_reserved":false,"is_disabled":false,"rental_uris":{"android":"levelo://app?vid=a3441031-033a-419a-8695-f2f10fe38ba9","ios":"levelo://app?vid=a3441031-033a-419a-8695-f2f10fe38ba9"},"vehicle_type_id":"4","last_reported":1725181752,"current_range_meters":28000,"station_id":"ce4bhr92rcd13ifvqhrg","pricing_plan_id":"cebpf4jnsgd1na2vs0mg"},{"bike_id":"8309b535-efc8-47f5-8520-c061544de8a1","system_id":"levelo_inurba_marseille","lat":43.330442,"lon":5.389148,"is_reserved":false,"is_disabled":false,"rental_uris":{"android":"levelo://app?vid=8309b535-efc8-47f5-8520-c061544de8a1","ios":"levelo://app?vid=8309b535-efc8-47f5-8520-c061544de8a1"},"vehicle_type_id":"4","last_reported":1725181752,"current_range_meters":25200,"station_id":"ce4bhr92rcd13ifvqhrg","pricing_plan_id":"cebpf4jnsgd1na2vs0mg"},{"bike_id":"b4ff35c1-e882-4501-a867-f8e97e4c808c","system_id":"levelo_inurba_marseille","lat":43.33024,"lon":5.39039,"is_reserved":false,"is_disabled":false,"rental_uris":{"android":"levelo://app?vid=b4ff35c1-e882-4501-a867-f8e97e4c808c","ios":"levelo://app?vid=b4ff35c1-e882-4501-a867-f8e97e4c808c"},"vehicle_type_id":"4","last_reported":1725181752,"current_range_meters":0,"station_id":"ce4bhr92rcd13ifvqhrg","pricing_plan_id":"cebpf4jnsgd1na2vs0mg"},{"bike_id":"b0f09e72-6f5d-4097-a98a-691223255649","system_id":"levelo_inurba_marseille","lat":43.33022,"lon":5.39042,"is_reserved":false,"is_disabled":false,"rental_uris":{"android":"levelo://app?vid=b0f09e72-6f5d-4097-a98a-691223255649","ios":"levelo://app?vid=b0f09e72-6f5d-4097-a98a-691223255649"},"vehicle_type_id":"4","last_reported":1725181752,"current_range_meters":6800,"station_id":"ce4bhr92rcd13ifvqhrg","pricing_plan_id":"cebpf4jnsgd1na2vs0mg"},{"bike_id":"b996ebc4-f241-471c-a642-b1ffa2c5964b","system_id":"levelo_inurba_marseille","lat":43.330442,"lon":5.389148,"is_reserved":false,"is_disabled":false,"rental_uris":{"android":"levelo://app?vid=b996ebc4-f241-471c-a642-b1ffa2c5964b","ios":"levelo://app?vid=b996ebc4-f241-471c-a642-b1ffa2c5964b"},"vehicle_type_id":"4","last_reported":1725181752,"current_range_meters":30000,"station_id":"ce4bhr92rcd13ifvqhrg","pricing_plan_id":"cebpf4jnsgd1na2vs0mg"},{"bike_id":"e74ecfe6-eb2e-4c31-b8da-544da791e5bd","system_id":"levelo_inurba_marseille","lat":43.330442,"lon":5.389148,"is_reserved":false,"is_disabled":false,"rental_uris":{"android":"levelo://app?vid=e74ecfe6-eb2e-4c31-b8da-544da791e5bd","ios":"levelo://app?vid=e74ecfe6-eb2e-4c31-b8da-544da791e5bd"},"vehicle_type_id":"4","last_reported":1725181752,"current_range_meters":29600,"station_id":"ce4bhr92rcd13ifvqhrg","pricing_plan_id":"cebpf4jnsgd1na2vs0mg"},{"bike_id":"412f6830-ef0d-4421-a421-c52edee2f9ff","system_id":"levelo_inurba_marseille","lat":43.330442,"lon":5.389148,"is_reserved":false,"is_disabled":false,"rental_uris":{"android":"levelo://app?vid=412f6830-ef0d-4421-a421-c52edee2f9ff","ios":"levelo://app?vid=412f6830-ef0d-4421-a421-c52edee2f9ff"},"vehicle_type_id":"4","last_reported":1725181752,"current_range_meters":16400,"station_id":"ce4bhr92rcd13ifvqhrg","pricing_plan_id":"cebpf4jnsgd1na2vs0mg"},{"bike_id":"4d0c7f7e-4a39-46d1-aa2f-2d5da49de3ad","system_id":"levelo_inurba_marseille","lat":43.330442,"lon":5.389148,"is_reserved":false,"is_disabled":false,"rental_uris":{"android":"levelo://app?vid=4d0c7f7e-4a39-46d1-aa2f-2d5da49de3ad","ios":"levelo://app?vid=4d0c7f7e-4a39-46d1-aa2f-2d5da49de3ad"},"vehicle_type_id":"4","last_reported":1725181752,"current_range_meters":31600,"station_id":"ce4bhr92rcd13ifvqhrg","pricing_plan_id":"cebpf4jnsgd1na2vs0mg"},{"bike_id":"61c5905a-edad-473d-a95a-75c104da3308","system_id":"levelo_inurba_marseille","lat":43.330442,"lon":5.389148,"is_reserved":false,"is_disabled":false,"rental_uris":{"android":"levelo://app?vid=61c5905a-edad-473d-a95a-75c104da3308","ios":"levelo://app?vid=61c5905a-edad-473d-a95a-75c104da3308"},"vehicle_type_id":"4","last_reported":1725181752,"current_range_meters":25600,"station_id":"ce4bhr92rcd13ifvqhrg","pricing_plan_id":"cebpf4jnsgd1na2vs0mg"},{"bike_id":"589453fd-025c-4398-a195-f24bcecb3f1c","system_id":"levelo_inurba_marseille","lat":43.330442,"lon":5.389148,"is_reserved":false,"is_disabled":false,"rental_uris":{"android":"levelo://app?vid=589453fd-025c-4398-a195-f24bcecb3f1c","ios":"levelo://app?vid=589453fd-025c-4398-a195-f24bcecb3f1c"},