{"last_updated":1700928495,"ttl":30,"version":"2.2","data":{"bikes":[{"bike_id":"5b7f3d13-9d24-43e4-8cf8-1f873a160296","system_id":"levelo_inurba_marseille","lat":43.312239,"lon":5.368562,"is_reserved":false,"is_disabled":false,"rental_uris":{"android":"levelo://app?vid=5b7f3d13-9d24-43e4-8cf8-1f873a160296","ios":"levelo://app?vid=5b7f3d13-9d24-43e4-8cf8-1f873a160296"},"vehicle_type_id":"4","last_reported":1700928495,"current_range_meters":26400,"station_id":"ce4bgl92rcd13ifvqbq0","pricing_plan_id":"free"},{"bike_id":"77a1034f-89b9-441b-ba8f-5798a0906a8d","system_id":"levelo_inurba_marseille","lat":43.312239,"lon":5.368562,"is_reserved":false,"is_disabled":false,"rental_uris":{"android":"levelo://app?vid=77a1034f-89b9-441b-ba8f-5798a0906a8d","ios":"levelo://app?vid=77a1034f-89b9-441b-ba8f-5798a0906a8d"},"vehicle_type_id":"4","last_reported":1700928495,"current_range_meters":4400,"station_id":"ce4bgl92rcd13ifvqbq0","pricing_plan_id":"free"},{"bike_id":"1a3a08aa-b934-4648-8a56-b12160a15960","system_id":"levelo_inurba_marseille","lat":43.309039,"lon":5.371797,"is_reserved":false,"is_disabled":false,"rental_uris":{"android":"levelo://app?vid=1a3a08aa-b934-4648-8a56-b12160a15960","ios":"levelo://app?vid=1a3a08aa-b934-4648-8a56-b12160a15960"},"vehicle_type_id":"4","last_reported":1700928495,"current_range_meters":4800,"station_id":"ce4bguh2rcd13ifvqckg","pricing_plan_id":"free"},{"bike_id":"c4f118cd-5b60-444e-b040-cadfaf520f24","system_id":"levelo_inurba_marseille","lat":43.309039,"lon":5.371797,"is_reserved":false,"is_disabled":false,"rental_uris":{"android":"levelo://app?vid=c4f118cd-5b60-444e-b040-cadfaf520f24","ios":"levelo://app?vid=c4f118cd-5b60-444e-b040-cadfaf520f24"},"vehicle_type_id":"4","last_reported":1700928495,"current_range_meters":14800,"station_id":"ce4bguh2rcd13ifvqckg","pricing_plan_id":"free"},{"bike_id":"c28cfb57-bc9a-4d06-bcd4-1da03ab86f76","system_id":"levelo_inurba_marseille","lat":43.309034,"lon":5.371783,"is_reserved":false,"is_disabled":false,"rental_uris":{"android":"levelo://app?vid=c28cfb57-bc9a-4d06-bcd4-1da03ab86f76","ios":"levelo://app?vid=c28cfb57-bc9a-4d06-bcd4-1da03ab86f76"},"vehicle_type_id":"4","last_reported":1700928495,"current_range_meters":29200,"station_id":"ce4bguh2rcd13ifvqckg","pricing_plan_id":"free"},{"bike_id":"2c4e2ab4-2bc9-4e71-8e28-b7f9c78b7444","system_id":"levelo_inurba_marseille","lat":43.305714,"lon":5.365633,"is_reserved":false,"is_disabled":false,"rental_uris":{"android":"levelo://app?vid=2c4e2ab4-2bc9-4e71-8e28-b7f9c78b7444","ios":"levelo://app?vid=2c4e2ab4-2bc9-4e71-8e28-b7f9c78b7444"},"vehicle_type_id":"4","last_reported":1700928495,"current_range_meters":3200,"station_id":"ce4bgs12rcd13ifvqcag","pricing_plan_id":"free"},{"bike_id":"40b2e9dc-ce5f-425e-8c0d-8f8d1805e666","system_id":"levelo_inurba_marseille","lat":43.30574,"lon":5.365575,"is_reserved":false,"is_disabled":false,"rental_uris":{"android":"levelo://app?vid=40b2e9dc-ce5f-425e-8c0d-8f8d1805e666","ios":"levelo://app?vid=40b2e9dc-ce5f-425e-8c0d-8f8d1805e666"},"vehicle_type_id":"4","last_reported":1700928495,"current_range_meters":18000,"station_id":"ce4bgs12rcd13ifvqcag","pricing_plan_id":"free"},{"bike_id":"ecf3876e-7eb6-48bf-b2e8-ab27d8c15b5b","system_id":"levelo_inurba_marseille","lat":43.30548,"lon":5.36712,"is_reserved":false,"is_disabled":false,"rental_uris":{"android":"levelo://app?vid=ecf3876e-7eb6-48bf-b2e8-ab27d8c15b5b","ios":"levelo://app?vid=ecf3876e-7eb6-48bf-b2e8-ab27d8c15b5b"},"vehicle_type_id":"4","last_reported":1700928495,"current_range_meters":29200,"station_id":"ce4bgrp2rcd13ifvqc9g","pricing_plan_id":"free"},{"bike_id":"4c3695f2-2542-41a0-82d8-d7b4ca415e01","system_id":"levelo_inurba_marseille","lat":43.3055,"lon":5.36531,"is_reserved":false,"is_disabled":false,"rental_uris":{"android":"levelo://app?vid=4c3695f2-2542-41a0-82d8-d7b4ca415e01","ios":"levelo://app?vid=4c3695f2-2542-41a0-82d8-d7b4ca415e01"},"vehicle_type_id":"4","last_reported":1700928495,"current_range_meters":31200,"station_id":"ce4bgs12rcd13ifvqcag","pricing_plan_id":"free"},{"bike_id":"0e236e12-cc2e-47bb-ab03-4a616e92033e","system_id":"levelo_inurba_marseille","lat":43.305373,"lon":5.36707,"is_reserved":false,"is_disabled":false,"rental_uris":{"android":"levelo://app?vid=0e236e12-cc2e-47bb-ab03-4a616e92033e","ios":"levelo://app?vid=0e236e12-cc2e-47bb-ab03-4a616e92033e"},"vehicle_type_id":"4","last_reported":1700928495,"current_range_meters":31200,"station_id":"ce4bgrp2rcd13ifvqc9g","pricing_plan_id":"free"},{"bike_id":"4d339c57-75fe-40c6-9c1e-deeba4d054e9","system_id":"levelo_inurba_marseille","lat":43.311131,"lon":5.377651,"is_reserved":false,"is_disabled":false,"rental_uris":{"android":"levelo://app?vid=4d339c57-75fe-40c6-9c1e-deeba4d054e9","ios":"levelo://app?vid=4d339c57-75fe-40c6-9c1e-deeba4d054e9"},"vehicle_type_id":"4","last_reported":1700928495,"current_range_meters":27600,"station_id":"ce4bgt92rcd13ifvqcg0","pricing_plan_id":"free"},{"bike_id":"573a870a-b6c4-429d-8587-8103772b84bc","system_id":"levelo_inurba_marseille","lat":43.308169,"lon":5.376561,"is_reserved":false,"is_disabled":false,"rental_uris":{"android":"levelo://app?vid=573a870a-b6c4-429d-8587-8103772b84bc","ios":"levelo://app?vid=573a870a-b6c4-429d-8587-8103772b84bc"},"vehicle_type_id":"4","last_reported":1700928495,"current_range_meters":4800,"station_id":"ce4bgv92rcd13ifvqcq0","pricing_plan_id":"free"},{"bike_id":"f427a2c3-6e4a-446b-ae2f-9be8aa7f4122","system_id":"levelo_inurba_marseille","lat":43.31719,"lon":5.376813,"is_reserved":false,"is_disabled":false,"rental_uris":{"android":"levelo://app?vid=f427a2c3-6e4a-446b-ae2f-9be8aa7f4122","ios":"levelo://app?vid=f427a2c3-6e4a-446b-ae2f-9be8aa7f4122"},"vehicle_type_id":"4","last_reported":1700928495,"current_range_meters":24400,"station_id":"ce4bgth2rcd13ifvqch0","pricing_plan_id":"free"},{"bike_id":"1544642e-29dd-482d-864f-6898977a2d3f","system_id":"levelo_inurba_marseille","lat":43.307945,"lon":5.376487,"is_reserved":false,"is_disabled":false,"rental_uris":{"android":"levelo://app?vid=1544642e-29dd-482d-864f-6898977a2d3f","ios":"levelo://app?vid=1544642e-29dd-482d-864f-6898977a2d3f"},"vehicle_type_id":"4","last_reported":1700928495,"current_range_meters":22800,"station_id":"ce4bgv92rcd13ifvqcq0","pricing_plan_id":"free"},{"bike_id":"b898b018-f57d-4901-bab2-fdd15d391de9","system_id":"levelo_inurba_marseille","lat":43.317168,"lon":5.376883,"is_reserved":false,"is_disabled":false,"rental_uris":{"android":"levelo://app?vid=b898b018-f57d-4901-bab2-fdd15d391de9","ios":"levelo://app?vid=b898b018-f57d-4901-bab2-fdd15d391de9"},"vehicle_type_id":"4","last_reported":1700928495,"current_range_meters":26800,"station_id":"ce4bgth2rcd13ifvqch0","pricing_plan_id":"free"},{"bike_id":"1ce4395e-ba61-49e1-a477-83ebcd10f737","system_id":"levelo_inurba_marseille","lat":43.317075,"lon":5.377367,"is_reserved":false,"is_disabled":false,"rental_uris":{"android":"levelo://app?vid=1ce4395e-ba61-49e1-a477-83ebcd10f737","ios":"levelo://app?vid=1ce4395e-ba61-49e1-a477-83ebcd10f737"},"vehicle_type_id":"4","last_reported":1700928495,"current_range_meters":1600,"station_id":"ce4bgth2rcd13ifvqch0","pricing_plan_id":"free"},{"bike_id":"a756a4ea-62cb-4db7-a3f7-7f8fbcea9b6c","system_id":"levelo_inurba_marseille","lat":43.303083,"lon":5.368957,"is_reserved":false,"is_disabled":false,"rental_uris":{"android":"levelo://app?vid=a756a4ea-62cb-4db7-a3f7-7f8fbcea9b6c","ios":"levelo://app?vid=a756a4ea-62cb-4db7-a3f7-7f8fbcea9b6c"},"vehicle_type_id":"4","last_reported":1700928495,"current_range_meters":29600,"station_id":"ce4bgqh2rcd13ifvqc5g","pricing_plan_id":"free"},{"bike_id":"6500b5ed-2581-41c0-8d4b-f3ed76d1aaf9","system_id":"levelo_inurba_marseille","lat":43.303046,"lon":5.368981,"is_reserved":false,"is_disabled":false,"rental_uris":{"android":"levelo://app?vid=6500b5ed-2581-41c0-8d4b-f3ed76d1aaf9","ios":"levelo://app?vid=6500b5ed-2581-41c0-8d4b-f3ed76d1aaf9"},"vehicle_type_id":"4","last_reported":1700928495,"current_range_meters":20000,"station_id":"ce4bgqh2rcd13ifvqc5g","pricing_plan_id":"free"},{"bike_id":"b86480bc-a7e6-425e-956b-6b7383af47e5","system_id":"levelo_inurba_marseille","lat":43.31532,"lon":5.38029,"is_reserved":false,"is_disabled":false,"rental_uris":{"android":"levelo://app?vid=b86480bc-a7e6-425e-956b-6b7383af47e5","ios":"levelo://app?vid=b86480bc-a7e6-425e-956b-6b7383af47e5"},"vehicle_type_id":"4","last_reported":1700928495,"current_range_meters":25600,"station_id":"ce4bhsp2rcd13ifvqi50","pricing_plan_id":"free"},{"bike_id":"9efdf5ac-6ace-44bc-8d78-0465b5818fe8","system_id":"levelo_inurba_marseille","lat":43.315293,"lon":5.380349,"is_reserved":false,"is_disabled":false,"rental_uris":{"android":"levelo://app?vid=9efdf5ac-6ace-44bc-8d78-0465b5818fe8","ios":"levelo://app?vid=9efdf5ac-6ace-44bc-8d78-0465b5818fe8"},"vehicle_type_id":"4","last_reported":1700928495,"current_range_meters":25200,"station_id":"ce4bhsp2rcd13ifvqi50","pricing_plan_id":"free"},{"bike_id":"c209c19f-bf8d-426a-81ba-b0f6a69b4c0f","system_id":"levelo_inurba_marseille","lat":43.301939,"lon":5.366286,"is_reserved":false,"is_disabled":false,"rental_uris":{"android":"levelo://app?vid=c209c19f-bf8d-426a-81ba-b0f6a69b4c0f","ios":"levelo://app?vid=c209c19f-bf8d-426a-81ba-b0f6a69b4c0f"},"vehicle_type_id":"4","last_reported":1700928495,"current_range_meters":10400,"station_id":"ce4bgrh2rcd13ifvqc8g","pricing_plan_id":"free"},{"bike_id":"910c6cef-54b2-4153-92eb-7ab869189ad0","system_id":"levelo_inurba_marseille","lat":43.301939,"lon":5.366286,"is_reserved":false,"is_disabled":false,"rental_uris":{"android":"levelo://app?vid=910c6cef-54b2-4153-92eb-7ab869189ad0","ios":"levelo://app?vid=910c6cef-54b2-4153-92eb-7ab869189ad0"},"vehicle_type_id":"4","last_reported":1700928495,"current_range_meters":31200,"station_id":"ce4bgrh2rcd13ifvqc8g","pricing_plan_id":"free"},{"bike_id":"dc729085-f9bd-43b0-a4ab-83dfc336aae2","system_id":"levelo_inurba_marseille","lat":43.301939,"lon":5.366286,"is_reserved":false,"is_disabled":false,"rental_uris":{"android":"levelo://app?vid=dc729085-f9bd-43b0-a4ab-83dfc336aae2","ios":"levelo://app?vid=dc729085-f9bd-43b0-a4ab-83dfc336aae2"},"vehicle_type_id":"4","last_reported":1700928495,"current_range_meters":30400,"station_id":"ce4bgrh2rcd13ifvqc8g","pricing_plan_id":"free"},{"bike_id":"9d467413-c88e-4fa8-81cd-2cfa750c3a4a","system_id":"levelo_inurba_marseille","lat":43.30456,"lon":5.37899,"is_reserved":false,"is_disabled":false,"rental_uris":{"android":"levelo://app?vid=9d467413-c88e-4fa8-81cd-2cfa750c3a4a","ios":"levelo://app?vid=9d467413-c88e-4fa8-81cd-2cfa750c3a4a"},"vehicle_type_id":"4","last_reported":1700928495,"current_range_meters":14800,"station_id":"ce4bgup2rcd13ifvqcn0","pricing_plan_id":"free"},{"bike_id":"839f3965-f0e7-46d7-b412-8bb0ed7501ea","system_id":"levelo_inurba_marseille","lat":43.30457,"lon":5.37904,"is_reserved":false,"is_disabled":false,"rental_uris":{"android":"levelo://app?vid=839f3965-f0e7-46d7-b412-8bb0ed7501ea","ios":"levelo://app?vid=839f3965-f0e7-46d7-b412-8bb0ed7501ea"},"vehicle_type_id":"4","last_reported":1700928495,"current_range_meters":4000,"station_id":"ce4bgup2rcd13ifvqcn0","pricing_plan_id":"free"},{"bike_id":"1a71a5f2-f05a-453c-b5a4-2d0f43b2183f","system_id":"levelo_inurba_marseille","lat":43.304606,"lon":5.379026,"is_reserved":false,"is_disabled":false,"rental_uris":{"android":"levelo://app?vid=1a71a5f2-f05a-453c-b5a4-2d0f43b2183f","ios":"levelo://app?vid=1a71a5f2-f05a-453c-b5a4-2d0f43b2183f"},"vehicle_type_id":"4","last_reported":1700928495,"current_range_meters":18400,"station_id":"ce4bgup2rcd13ifvqcn0","pricing_plan_id":"free"},{"bike_id":"a7958689-79ad-4f21-a3a8-969bb7ff00b8","system_id":"levelo_inurba_marseille","lat":43.299222,"lon":5.365554,"is_reserved":false,"is_disabled":false,"rental_uris":{"android":"levelo://app?vid=a7958689-79ad-4f21-a3a8-969bb7ff00b8","ios":"levelo://app?vid=a7958689-79ad-4f21-a3a8-969bb7ff00b8"},"vehicle_type_id":"4","last_reported":1700928495,"current_range_meters":19200,"station_id":"ce4bgm92rcd13ifvqbr0","pricing_plan_id":"free"},{"bike_id":"3532deaf-20d1-4d3a-ba36-ed08c39571a0","system_id":"levelo_inurba_marseille","lat":43.298433,"lon":5.362774,"is_reserved":false,"is_disabled":false,"rental_uris":{"android":"levelo://app?vid=3532deaf-20d1-4d3a-ba36-ed08c39571a0","ios":"levelo://app?vid=3532deaf-20d1-4d3a-ba36-ed08c39571a0"},"vehicle_type_id":"4","last_reported":1700928495,"current_range_meters":12400,"station_id":"ce4bgpp2rcd13ifvqc3g","pricing_plan_id":"free"},{"bike_id":"8ae4e920-1933-4fbd-a241-a5e610163a62","system_id":"levelo_inurba_marseille","lat":43.30549,"lon":5.38425,"is_reserved":false,"is_disabled":false,"rental_uris":{"android":"levelo://app?vid=8ae4e920-1933-4fbd-a241-a5e610163a62","ios":"levelo://app?vid=8ae4e920-1933-4fbd-a241-a5e610163a62"},"vehicle_type_id":"4","last_reported":1700928495,"current_range_meters":14800,"station_id":"ce4bgg92rcd13ifvqb30","pricing_plan_id":"free"},{"bike_id":"ec2d4434-e595-4f29-aac6-7194699e5be7","system_id":"levelo_inurba_marseille","lat":43.311722,"lon":5.387247,"is_reserved":false,"is_disabled":false,"rental_uris":{"android":"levelo://app?vid=ec2d4434-e595-4f29-aac6-7194699e5be7","ios":"levelo://app?vid=ec2d4434-e595-4f29-aac6-7194699e5be7"},"vehicle_type_id":"4","last_reported":1700928495,"current_range_meters":19600,"station_id":"ce4bgv12rcd13ifvqcp0","pricing_plan_id":"free"},{"bike_id":"94f9c1a8-205d-4410-81fd-547f146eebb6","system_id":"levelo_inurba_marseille","lat":43.297774,"lon":5.370875,"is_reserved":false,"is_disabled":false,"rental_uris":{"android":"levelo://app?vid=94f9c1a8-205d-4410-81fd-547f146eebb6","ios":"levelo://app?vid=94f9c1a8-205d-4410-81fd-547f146eebb6"},"vehicle_type_id":"4","last_reported":1700928495,"current_range_meters":20000,"station_id":"ce4bgop2rcd13ifvqc1g","pricing_plan_id":"free"},{"bike_id":"5a1baf68-f9af-496c-ab26-e428d44bc382","system_id":"levelo_inurba_marseille","lat":43.322872,"lon":5.382756,"is_reserved":false,"is_disabled":false,"rental_uris":{"android":"levelo://app?vid=5a1baf68-f9af-496c-ab26-e428d44bc382","ios":"levelo://app?vid=5a1baf68-f9af-496c-ab26-e428d44bc382"},"vehicle_type_id":"4","last_reported":1700928495,"current_range_meters":26800,"station_id":"ce4bhr12rcd13ifvqhqg","pricing_plan_id":"free"},{"bike_id":"95825c38-6c59-4753-b43e-2f944bdb26b9","system_id":"levelo_inurba_marseille","lat":43.32822,"lon":5.36689,"is_reserved":false,"is_disabled":false,"rental_uris":{"android":"levelo://app?vid=95825c38-6c59-4753-b43e-2f944bdb26b9","ios":"levelo://app?vid=95825c38-6c59-4753-b43e-2f944bdb26b9"},"vehicle_type_id":"4","last_reported":1700928495,"current_range_meters":15600,"station_id":"ce4bhs92rcd13ifvqi0g","pricing_plan_id":"free"},{"bike_id":"a7156c28-1946-468b-9e64-3365962b5f30","system_id":"levelo_inurba_marseille","lat":43.328274,"lon":5.366799,"is_reserved":false,"is_disabled":false,"rental_uris":{"android":"levelo://app?vid=a7156c28-1946-468b-9e64-3365962b5f30","ios":"levelo://app?vid=a7156c28-1946-468b-9e64-3365962b5f30"},"vehicle_type_id":"4","last_reported":1700928495,"current_range_meters":12800,"station_id":"ce4bhs92rcd13ifvqi0g","pricing_plan_id":"free"},{"bike_id":"8791a58e-e3a0-43a8-b083-b15b0d3679b4","system_id":"levelo_inurba_marseille","lat":43.328371,"lon":5.366909,"is_reserved":false,"is_disabled":false,"rental_uris":{"android":"levelo://app?vid=8791a58e-e3a0-43a8-b083-b15b0d3679b4","ios":"levelo://app?vid=8791a58e-e3a0-43a8-b083-b15b0d3679b4"},"vehicle_type_id":"4","last_reported":1700928495,"current_range_meters":8000,"station_id":"ce4bhs92rcd13ifvqi0g","pricing_plan_id":"free"},{"bike_id":"07a03e0e-e12b-474e-a940-8baf07c98432","system_id":"levelo_inurba_marseille","lat":43.328296,"lon":5.366794,"is_reserved":false,"is_disabled":false,"rental_uris":{"android":"levelo://app?vid=07a03e0e-e12b-474e-a940-8baf07c98432","ios":"levelo://app?vid=07a03e0e-e12b-474e-a940-8baf07c98432"},"vehicle_type_id":"4","last_reported":1700928495,"current_range_meters":14800,"station_id":"ce4bhs92rcd13ifvqi0g","pricing_plan_id":"free"},{"bike_id":"f67ed7f6-6b2d-4c05-8943-cbd16257ad7d","system_id":"levelo_inurba_marseille","lat":43.3283,"lon":5.36678,"is_reserved":false,"is_disabled":false,"rental_uris":{"android":"levelo://app?vid=f67ed7f6-6b2d-4c05-8943-cbd16257ad7d","ios":"levelo://app?vid=f67ed7f6-6b2d-4c05-8943-cbd16257ad7d"},"vehicle_type_id":"4","last_reported":1700928495,"current_range_meters":12400,"station_id":"ce4bhs92rcd13ifvqi0g","pricing_plan_id":"free"},{"bike_id":"571ffd94-233a-4164-9eda-410018e668cf","system_id":"levelo_inurba_marseille","lat":43.297163,"lon":5.365866,"is_reserved":false,"is_disabled":false,"rental_uris":{"android":"levelo://app?vid=571ffd94-233a-4164-9eda-410018e668cf","ios":"levelo://app?vid=571ffd94-233a-4164-9eda-410018e668cf"},"vehicle_type_id":"4","last_reported":1700928495,"current_range_meters":16400,"station_id":"ce4bgn12rcd13ifvqbt0","pricing_plan_id":"free"},{"bike_id":"2c4d9035-1d18-4064-96cf-67bfc3fbcd8b","system_id":"levelo_inurba_marseille","lat":43.29573,"lon":5.367355,"is_reserved":false,"is_disabled":false,"rental_uris":{"android":"levelo://app?vid=2c4d9035-1d18-4064-96cf-67bfc3fbcd8b","ios":"levelo://app?vid=2c4d9035-1d18-4064-96cf-67bfc3fbcd8b"},"vehicle_type_id":"4","last_reported":1700928495,"current_range_meters":2800,"station_id":"ce4bgph2rcd13ifvqc2g","pricing_plan_id":"free"},{"bike_id":"a9cf51bd-b5c9-47c9-ba92-4408512cd560","system_id":"levelo_inurba_marseille","lat":43.296131,"lon":5.370791,"is_reserved":false,"is_disabled":false,"rental_uris":{"android":"levelo://app?vid=a9cf51bd-b5c9-47c9-ba92-4408512cd560","ios":"levelo://app?vid=a9cf51bd-b5c9-47c9-ba92-4408512cd560"},"vehicle_type_id":"4","last_reported":1700928495,"current_range_meters":4000,"station_id":"ce4bgnh2rcd13ifvqc0g","pricing_plan_id":"free"},{"bike_id":"bdfe931a-32ad-4a98-ad22-bf4cab63d174","system_id":"levelo_inurba_marseille","lat":43.29573,"lon":5.367355,"is_reserved":false,"is_disabled":false,"rental_uris":{"android":"levelo://app?vid=bdfe931a-32ad-4a98-ad22-bf4cab63d174","ios":"levelo://app?vid=bdfe931a-32ad-4a98-ad22-bf4cab63d174"},"vehicle_type_id":"4","last_reported":1700928495,"current_range_meters":20000,"station_id":"ce4bgph2rcd13ifvqc2g","pricing_plan_id":"free"},{"bike_id":"382b816b-c77b-40b1-910f-fedfd18c052e","system_id":"levelo_inurba_marseille","lat":43.29903,"lon":5.38149,"is_reserved":false,"is_disabled":false,"rental_uris":{"android":"levelo://app?vid=382b816b-c77b-40b1-910f-fedfd18c052e","ios":"levelo://app?vid=382b816b-c77b-40b1-910f-fedfd18c052e"},"vehicle_type_id":"4","last_reported":1700928495,"current_range_meters":8000,"station_id":"ce4bgj12rcd13ifvqbc0","pricing_plan_id":"free"},{"bike_id":"f9ef1127-67c8-49ee-8d0f-fae145e5cb9b","system_id":"levelo_inurba_marseille","lat":43.296263,"lon":5.377094,"is_reserved":false,"is_disabled":false,"rental_uris":{"android":"levelo://app?vid=f9ef1127-67c8-49ee-8d0f-fae145e5cb9b","ios":"levelo://app?vid=f9ef1127-67c8-49ee-8d0f-fae145e5cb9b"},"vehicle_type_id":"4","last_reported":1700928495,"current_range_meters":9200,"station_id":"ce4bgi92rcd13ifvqb90","pricing_plan_id":"free"},{"bike_id":"8cb31116-da6a-4fbd-b65e-6c05c5392455","system_id":"levelo_inurba_marseille","lat":43.295748,"lon":5.37522,"is_reserved":false,"is_disabled":false,"rental_uris":{"android":"levelo://app?vid=8cb31116-da6a-4fbd-b65e-6c05c5392455","ios":"levelo://app?vid=8cb31116-da6a-4fbd-b65e-6c05c5392455"},"vehicle_type_id":"4","last_reported":1700928495,"current_range_meters":16000,"station_id":"ce4bgh92rcd13ifvqb50","pricing_plan_id":"free"},{"bike_id":"b8ec8b64-35ac-4a1b-a38e-a4cce153f3b9","system_id":"levelo_inurba_marseille","lat":43.29521,"lon":5.375093,"is_reserved":false,"is_disabled":false,"rental_uris":{"android":"levelo://app?vid=b8ec8b64-35ac-4a1b-a38e-a4cce153f3b9","ios":"levelo://app?vid=b8ec8b64-35ac-4a1b-a38e-a4cce153f3b9"},"vehicle_type_id":"4","last_reported":1700928495,"current_range_meters":24800,"station_id":"ce4bgkp2rcd13ifvqbmg","pricing_plan_id":"free"},{"bike_id":"6b621983-5e9e-42f7-990d-ad5a093820d2","system_id":"levelo_inurba_marseille","lat":43.293801,"lon":5.363066,"is_reserved":false,"is_disabled":false,"rental_uris":{"android":"levelo://app?vid=6b621983-5e9e-42f7-990d-ad5a093820d2","ios":"levelo://app?vid=6b621983-5e9e-42f7-990d-ad5a093820d2"},"vehicle_type_id":"4","last_reported":1700928495,"current_range_meters":0,"station_id":"","pricing_plan_id":"free"},{"bike_id":"73556ea6-9575-43b9-896e-bed26648f0e4","system_id":"levelo_inurba_marseille","lat":43.32367,"lon":5.388836,"is_reserved":false,"is_disabled":false,"rental_uris":{"android":"levelo://app?vid=73556ea6-9575-43b9-896e-bed26648f0e4","ios":"levelo://app?vid=73556ea6-9575-43b9-896e-bed26648f0e4"},"vehicle_type_id":"4","last_reported":1700928495,"current_range_meters":26800,"station_id":"ce4bhqp2rcd13ifvqhog","pricing_plan_id":"free"},{"bike_id":"571ef01a-3e97-405f-822f-df24911959e9","system_id":"levelo_inurba_marseille","lat":43.29602,"lon":5.381084,"is_reserved":false,"is_disabled":false,"rental_uris":{"android":"levelo://app?vid=571ef01a-3e97-405f-822f-df24911959e9","ios":"levelo://app?vid=571ef01a-3e97-405f-822f-df24911959e9"},"vehicle_type_id":"4","last_reported":1700928495,"current_range_meters":14800,"station_id":"ce4bgl12rcd13ifvqbo0","pricing_plan_id":"free"},{"bike_id":"6d75d82c-088e-40e3-9b0e-d79ee28db2a9","system_id":"levelo_inurba_marseille","lat":43.29602,"lon":5.381084,"is_reserved":false,"is_disabled":false,"rental_uris":{"android":"levelo://app?vid=6d75d82c-088e-40e3-9b0e-d79ee28db2a9","ios":"levelo://app?vid=6d75d82c-088e-40e3-9b0e-d79ee28db2a9"},"vehicle_type_id":"4","last_reported":1700928495,"current_range_meters":18000,"station_id":"ce4bgl12rcd13ifvqbo0","pricing_plan_id":"free"},{"bike_id":"c08692de-893b-4842-ac6a-624a77fd78ec","system_id":"levelo_inurba_marseille","lat":43.32379,"lon":5.3897,"is_reserved":false,"is_disabled":false,"rental_uris":{"android":"levelo://app?vid=c08692de-893b-4842-ac6a-624a77fd78ec","ios":"levelo://app?vid=c08692de-893b-4842-ac6a-624a77fd78ec"},"vehicle_type_id":"4","last_reported":1700928495,"current_range_meters":3200,"station_id":"","pricing_plan_id":"free"},{"bike_id":"7da0be45-77c1-4428-b2e1-f275b829398c","system_id":"levelo_inurba_marseille","lat":43.292749,"lon":5.368402,"is_reserved":false,"is_disabled":false,"rental_uris":{"android":"levelo://app?vid=7da0be45-77c1-4428-b2e1-f275b829398c","ios":"levelo://app?vid=7da0be45-77c1-4428-b2e1-f275b829398c"},"vehicle_type_id":"4","last_reported":1700928495,"current_range_meters":4000,"station_id":"ce4bhbp2rcd13ifvqesg","pricing_plan_id":"free"},{"bike_id":"7a632744-63de-4963-b1a0-1f23d3067c3f","system_id":"levelo_inurba_marseille","lat":43.293259,"lon":5.371586,"is_reserved":false,"is_disabled":false,"rental_uris":{"android":"levelo://app?vid=7a632744-63de-4963-b1a0-1f23d3067c3f","ios":"levelo://app?vid=7a632744-63de-4963-b1a0-1f23d3067c3f"},"vehicle_type_id":"4","last_reported":1700928495,"current_range_meters":11600,"station_id":"ce4bgh92rcd13ifvqb40","pricing_plan_id":"free"},{"bike_id":"e00b5742-77dd-4af6-9bdf-364bc2b80621","system_id":"levelo_inurba_marseille","lat":43.29308,"lon":5.37446,"is_reserved":false,"is_disabled":false,"rental_uris":{"android":"levelo://app?vid=e00b5742-77dd-4af6-9bdf-364bc2b80621","ios":"levelo://app?vid=e00b5742-77dd-4af6-9bdf-364bc2b80621"},"vehicle_type_id":"4","last_reported":1700928495,"current_range_meters":0,"station_id":"ce4bgi12rcd13ifvqb70","pricing_plan_id":"free"},{"bike_id":"5e9a4948-533b-4a8d-a9bc-3a43324f417d","system_id":"levelo_inurba_marseille","lat":43.30526,"lon":5.39344,"is_reserved":false,"is_disabled":false,"rental_uris":{"android":"levelo://app?vid=5e9a4948-533b-4a8d-a9bc-3a43324f417d","ios":"levelo://app?vid=5e9a4948-533b-4a8d-a9bc-3a43324f417d"},"vehicle_type_id":"4","last_reported":1700928495,"current_range_meters":13200,"station_id":"","pricing_plan_id":"free"},{"bike_id":"1b5c3c4d-cea1-42ec-bdf3-fe3cd34c2cb3","system_id":"levelo_inurba_marseille","lat":43.2936,"lon":5.37835,"is_reserved":false,"is_disabled":false,"rental_uris":{"android":"levelo://app?vid=1b5c3c4d-cea1-42ec-bdf3-fe3cd34c2cb3","ios":"levelo://app?vid=1b5c3c4d-cea1-42ec-bdf3-fe3cd34c2cb3"},"vehicle_type_id":"4","last_reported":1700928495,"current_range_meters":0,"station_id":"ce4bgjh2rcd13ifvqbf0","pricing_plan_id":"free"},{"bike_id":"d538c02f-ed72-4c0d-b976-85225460a6b0","system_id":"levelo_inurba_marseille","lat":43.29221,"lon":5.36065,"is_reserved":false,"is_disabled":false,"rental_uris":{"android":"levelo://app?vid=d538c02f-ed72-4c0d-b976-85225460a6b0","ios":"levelo://app?vid=d538c02f-ed72-4c0d-b976-85225460a6b0"},"vehicle_type_id":"4","last_reported":1700928495,"current_range_meters":14000,"station_id":"ce4bhbh2rcd13ifvqeqg","pricing_plan_id":"free"},{"bike_id":"b9f57ccd-1140-4806-96de-1d696770b8a8","system_id":"levelo_inurba_marseille","lat":43.292663,"lon":5.376394,"is_reserved":false,"is_disabled":false,"rental_uris":{"android":"levelo://app?vid=b9f57ccd-1140-4806-96de-1d696770b8a8","ios":"levelo://app?vid=b9f57ccd-1140-4806-96de-1d696770b8a8"},"vehicle_type_id":"4","last_reported":1700928495,"current_range_meters":20400,"station_id":"ce4bgi12rcd13ifvqb80","pricing_plan_id":"free"},{"bike_id":"e9789152-5fb8-48ef-b6f2-9ce36c027021","system_id":"levelo_inurba_marseille","lat":43.292311,"lon":5.360731,"is_reserved":false,"is_disabled":false,"rental_uris":{"android":"levelo://app?vid=e9789152-5fb8-48ef-b6f2-9ce36c027021","ios":"levelo://app?vid=e9789152-5fb8-48ef-b6f2-9ce36c027021"},"vehicle_type_id":"4","last_reported":1700928495,"current_range_meters":20800,"station_id":"ce4bhbh2rcd13ifvqeqg","pricing_plan_id":"free"},{"bike_id":"e9b8f13d-756b-40e7-9c09-e84202fdb5a0","system_id":"levelo_inurba_marseille","lat":43.298764,"lon":5.388973,"is_reserved":false,"is_disabled":false,"rental_uris":{"android":"levelo://app?vid=e9b8f13d-756b-40e7-9c09-e84202fdb5a0","ios":"levelo://app?vid=e9b8f13d-756b-40e7-9c09-e84202fdb5a0"},"vehicle_type_id":"4","last_reported":1700928495,"current_range_meters":18800,"station_id":"ce4bh392rcd13ifvqdl0","pricing_plan_id":"free"},{"bike_id":"bedaba56-c40b-440d-9a0a-1b18f3cdb658","system_id":"levelo_inurba_marseille","lat":43.29201,"lon":5.35805,"is_reserved":false,"is_disabled":false,"rental_uris":{"android":"levelo://app?vid=bedaba56-c40b-440d-9a0a-1b18f3cdb658","ios":"levelo://app?vid=bedaba56-c40b-440d-9a0a-1b18f3cdb658"},"vehicle_type_id":"4","last_reported":1700928495,"current_range_meters":22800,"station_id":"ce4bhb12rcd13ifvqel0","pricing_plan_id":"free"},{"bike_id":"34861c77-dc9a-4d06-b521-01e1f7664b37","system_id":"levelo_inurba_marseille","lat":43.29197,"lon":5.35803,"is_reserved":false,"is_disabled":false,"rental_uris":{"android":"levelo://app?vid=34861c77-dc9a-4d06-b521-01e1f7664b37","ios":"levelo://app?vid=34861c77-dc9a-4d06-b521-01e1f7664b37"},"vehicle_type_id":"4","last_reported":1700928495,"current_range_meters":14800,"station_id":"ce4bhb12rcd13ifvqel0","pricing_plan_id":"free"},{"bike_id":"682aa436-6d8c-419c-9574-4fdb25c73d32","system_id":"levelo_inurba_marseille","lat":43.29529,"lon":5.385581,"is_reserved":false,"is_disabled":false,"rental_uris":{"android":"levelo://app?vid=682aa436-6d8c-419c-9574-4fdb25c73d32","ios":"levelo://app?vid=682aa436-6d8c-419c-9574-4fdb25c73d32"},"vehicle_type_id":"4","last_reported":1700928495,"current_range_meters":16000,"station_id":"ce4bgih2rcd13ifvqba0","pricing_plan_id":"free"},{"bike_id":"9ee53c5f-ec7a-4eaf-abb2-3e6eb85f1a04","system_id":"levelo_inurba_marseille","lat":43.302008,"lon":5.394694,"is_reserved":false,"is_disabled":false,"rental_uris":{"android":"levelo://app?vid=9ee53c5f-ec7a-4eaf-abb2-3e6eb85f1a04","ios":"levelo://app?vid=9ee53c5f-ec7a-4eaf-abb2-3e6eb85f1a04"},"vehicle_type_id":"4","last_reported":1700928495,"current_range_meters":16000,"station_id":"ce4bh0p2rcd13ifvqd70","pricing_plan_id":"free"},{"bike_id":"b0f29148-dfc4-4079-9492-f120d87ff294","system_id":"levelo_inurba_marseille","lat":43.294162,"lon":5.386292,"is_reserved":false,"is_disabled":false,"rental_uris":{"android":"levelo://app?vid=b0f29148-dfc4-4079-9492-f120d87ff294","ios":"levelo://app?vid=b0f29148-dfc4-4079-9492-f120d87ff294"},"vehicle_type_id":"4","last_reported":1700928495,"current_range_meters":12800,"station_id":"ce4bh2h2rcd13ifvqdh0","pricing_plan_id":"free"},{"bike_id":"892c658c-04dc-4eed-be5b-e779eee5cb6a","system_id":"levelo_inurba_marseille","lat":43.290327,"lon":5.375711,"is_reserved":false,"is_disabled":false,"rental_uris":{"android":"levelo://app?vid=892c658c-04dc-4eed-be5b-e779eee5cb6a","ios":"levelo://app?vid=892c658c-04dc-4eed-be5b-e779eee5cb6a"},"vehicle_type_id":"4","last_reported":1700928495,"current_range_meters":5200,"station_id":"ce4bh692rcd13ifvqe90","pricing_plan_id":"free"},{"bike_id":"6f09a966-6571-483a-b832-72b25770f81f","system_id":"levelo_inurba_marseille","lat":43.28938,"lon":5.36416,"is_reserved":false,"is_disabled":false,"rental_uris":{"android":"levelo://app?vid=6f09a966-6571-483a-b832-72b25770f81f","ios":"levelo://app?vid=6f09a966-6571-483a-b832-72b25770f81f"},"vehicle_type_id":"4","last_reported":1700928495,"current_range_meters":7600,"station_id":"ce4bhc92rcd13ifvqetg","pricing_plan_id":"free"},{"bike_id":"9c9bd7db-a71c-419c-ba42-83618cc977b4","system_id":"levelo_inurba_marseille","lat":43.30828,"lon":5.39936,"is_reserved":false,"is_disabled":false,"rental_uris":{"android":"levelo://app?vid=9c9bd7db-a71c-419c-ba42-83618cc977b4","ios":"levelo://app?vid=9c9bd7db-a71c-419c-ba42-83618cc977b4"},"vehicle_type_id":"4","last_reported":1700928495,"current_range_meters":1600,"station_id":"","pricing_plan_id":"free"},{"bike_id":"e3d422d4-0fbb-4d98-9663-6a92b21143af","system_id":"levelo_inurba_marseille","lat":43.295169,"lon":5.390426,"is_reserved":false,"is_disabled":false,"rental_uris":{"android":"levelo://app?vid=e3d422d4-0fbb-4d98-9663-6a92b21143af","ios":"levelo://app?vid=e3d422d4-0fbb-4d98-9663-6a92b21143af"},"vehicle_type_id":"4","last_reported":1700928495,"current_range_meters":6800,"station_id":"ce4bh3p2rcd13ifvqdp0","pricing_plan_id":"free"},{"bike_id":"9dbb6c54-401d-4b8a-b299-1d3bf6d47327","system_id":"levelo_inurba_marseille","lat":43.28856,"lon":5.358371,"is_reserved":false,"is_disabled":false,"rental_uris":{"android":"levelo://app?vid=9dbb6c54-401d-4b8a-b299-1d3bf6d47327","ios":"levelo://app?vid=9dbb6c54-401d-4b8a-b299-1d3bf6d47327"},"vehicle_type_id":"4","last_reported":1700928495,"current_range_meters":20400,"station_id":"ce4bhb12rcd13ifvqem0","pricing_plan_id":"free"},{"bike_id":"2b23f38a-1831-49fe-a943-86c9ec15f136","system_id":"levelo_inurba_marseille","lat":43.33742,"lon":5.37456,"is_reserved":false,"is_disabled":false,"rental_uris":{"android":"levelo://app?vid=2b23f38a-1831-49fe-a943-86c9ec15f136","ios":"levelo://app?vid=2b23f38a-1831-49fe-a943-86c9ec15f136"},"vehicle_type_id":"4","last_reported":1700928495,"current_range_meters":1200,"station_id":"","pricing_plan_id":"free"},{"bike_id":"ac285e26-46ab-4b23-8672-d078d8fed511","system_id":"levelo_inurba_marseille","lat":43.33752,"lon":5.37444,"is_reserved":false,"is_disabled":false,"rental_uris":{"android":"levelo://app?vid=ac285e26-46ab-4b23-8672-d078d8fed511","ios":"levelo://app?vid=ac285e26-46ab-4b23-8672-d078d8fed511"},"vehicle_type_id":"4","last_reported":1700928495,"current_range_meters":27600,"station_id":"","pricing_plan_id":"free"},{"bike_id":"6ed0dee7-19c0-402b-a4fa-68e844587fc6","system_id":"levelo_inurba_marseille","lat":43.30642,"lon":5.401031,"is_reserved":false,"is_disabled":false,"rental_uris":{"android":"levelo://app?vid=6ed0dee7-19c0-402b-a4fa-68e844587fc6","ios":"levelo://app?vid=6ed0dee7-19c0-402b-a4fa-68e844587fc6"},"vehicle_type_id":"4","last_reported":1700928495,"current_range_meters":16400,"station_id":"ce4bh112rcd13ifvqda0","pricing_plan_id":"free"},{"bike_id":"2e2f4470-4d6d-4af7-88b1-6055cb5a5f2a","system_id":"levelo_inurba_marseille","lat":43.2875,"lon":5.373725,"is_reserved":false,"is_disabled":false,"rental_uris":{"android":"levelo://app?vid=2e2f4470-4d6d-4af7-88b1-6055cb5a5f2a","ios":"levelo://app?vid=2e2f4470-4d6d-4af7-88b1-6055cb5a5f2a"},"vehicle_type_id":"4","last_reported":1700928495,"current_range_meters":0,"station_id":"","pricing_plan_id":"free"},{"bike_id":"cb670189-c215-4449-b61d-1df1ff0a6020","system_id":"levelo_inurba_marseille","lat":43.28727,"lon":5.36078,"is_reserved":false,"is_disabled":false,"rental_uris":{"android":"levelo://app?vid=cb670189-c215-4449-b61d-1df1ff0a6020","ios":"levelo://app?vid=cb670189-c215-4449-b61d-1df1ff0a6020"},"vehicle_type_id":"4","last_reported":1700928495,"current_range_meters":24400,"station_id":"cki0cbj6b192h4jlfktg","pricing_plan_id":"free"},{"bike_id":"02cb73e1-376a-4613-bc93-70443c9f1c8b","system_id":"levelo_inurba_marseille","lat":43.30128,"lon":5.39886,"is_reserved":false,"is_disabled":false,"rental_uris":{"android":"levelo://app?vid=02cb73e1-376a-4613-bc93-70443c9f1c8b","ios":"levelo://app?vid=02cb73e1-376a-4613-bc93-70443c9f1c8b"},"vehicle_type_id":"4","last_reported":1700928495,"current_range_meters":18400,"station_id":"ce4bh0h2rcd13ifvqd40","pricing_plan_id":"free"},{"bike_id":"e435b1ea-cc4d-4f48-af16-53a7e3458ecd","system_id":"levelo_inurba_marseille","lat":43.286591,"lon":5.363346,"is_reserved":false,"is_disabled":false,"rental_uris":{"android":"levelo://app?vid=e435b1ea-cc4d-4f48-af16-53a7e3458ecd","ios":"levelo://app?vid=e435b1ea-cc4d-4f48-af16-53a7e3458ecd"},"vehicle_type_id":"4","last_reported":1700928495,"current_range_meters":25600,"station_id":"ce4bhah2rcd13ifvqej0","pricing_plan_id":"free"},{"bike_id":"4fefdf16-7656-4c1a-b065-472cfdb57451","system_id":"levelo_inurba_marseille","lat":43.302759,"lon":5.400793,"is_reserved":false,"is_disabled":false,"rental_uris":{"android":"levelo://app?vid=4fefdf16-7656-4c1a-b065-472cfdb57451","ios":"levelo://app?vid=4fefdf16-7656-4c1a-b065-472cfdb57451"},"vehicle_type_id":"4","last_reported":1700928495,"current_range_meters":16000,"station_id":"ce4bgvh2rcd13ifvqcs0","pricing_plan_id":"free"},{"bike_id":"0f56fa0f-1117-4140-8fde-612592dc4d4f","system_id":"levelo_inurba_marseille","lat":43.286039,"lon":5.370679,"is_reserved":false,"is_disabled":false,"rental_uris":{"android":"levelo://app?vid=0f56fa0f-1117-4140-8fde-612592dc4d4f","ios":"levelo://app?vid=0f56fa0f-1117-4140-8fde-612592dc4d4f"},"vehicle_type_id":"4","last_reported":1700928495,"current_range_meters":21200,"station_id":"ce4bht12rcd13ifvqi60","pricing_plan_id":"free"},{"bike_id":"a114aae6-8ceb-4886-b20a-6780de28c969","system_id":"levelo_inurba_marseille","lat":43.286039,"lon":5.370679,"is_reserved":false,"is_disabled":false,"rental_uris":{"android":"levelo://app?vid=a114aae6-8ceb-4886-b20a-6780de28c969","ios":"levelo://app?vid=a114aae6-8ceb-4886-b20a-6780de28c969"},"vehicle_type_id":"4","last_reported":1700928495,"current_range_meters":31600,"station_id":"ce4bht12rcd13ifvqi60","pricing_plan_id":"free"},{"bike_id":"0bdba9d9-d0bb-4fca-8f63-9a9cf684d57c","system_id":"levelo_inurba_marseille","lat":43.286039,"lon":5.370679,"is_reserved":false,"is_disabled":false,"rental_uris":{"android":"levelo://app?vid=0bdba9d9-d0bb-4fca-8f63-9a9cf684d57c","ios":"levelo://app?vid=0bdba9d9-d0bb-4fca-8f63-9a9cf684d57c"},"vehicle_type_id":"4","last_reported":1700928495,"current_range_meters":23600,"station_id":"ce4bht12rcd13ifvqi60","pricing_plan_id":"free"},{"bike_id":"83728ead-9329-44d6-a30d-c4e57117d816","system_id":"levelo_inurba_marseille","lat":43.28465,"lon":5.3588,"is_reserved":false,"is_disabled":false,"rental_uris":{"android":"levelo://app?vid=83728ead-9329-44d6-a30d-c4e57117d816","ios":"levelo://app?vid=83728ead-9329-44d6-a30d-c4e57117d816"},"vehicle_type_id":"4","last_reported":1700928495,"current_range_meters":0,"station_id":"ce4bhah2rcd13ifvqei0","pricing_plan_id":"free"},{"bike_id":"5a50e3ed-6d21-4b9f-b117-f3247bf441a4","system_id":"levelo_inurba_marseille","lat":43.2862,"lon":5.35105,"is_reserved":false,"is_disabled":false,"rental_uris":{"android":"levelo://app?vid=5a50e3ed-6d21-4b9f-b117-f3247bf441a4","ios":"levelo://app?vid=5a50e3ed-6d21-4b9f-b117-f3247bf441a4"},"vehicle_type_id":"4","last_reported":1700928495,"current_range_meters":3600,"station_id":"ce4bhch2rcd13ifvqeug","pricing_plan_id":"free"},{"bike_id":"a06fd5d9-1e6c-4d16-ad0f-436c429bc8b5","system_id":"levelo_inurba_marseille","lat":43.285856,"lon":5.350771,"is_reserved":false,"is_disabled":false,"rental_uris":{"android":"levelo://app?vid=a06fd5d9-1e6c-4d16-ad0f-436c429bc8b5","ios":"levelo://app?vid=a06fd5d9-1e6c-4d16-ad0f-436c429bc8b5"},"vehicle_type_id":"4","last_reported":1700928495,"current_range_meters":0,"station_id":"ce4bhch2rcd13ifvqeug","pricing_plan_id":"free"},{"bike_id":"00226c1f-f9c7-4717-bef1-123d14105322","system_id":"levelo_inurba_marseille","lat":43.283998,"lon":5.375062,"is_reserved":false,"is_disabled":false,"rental_uris":{"android":"levelo://app?vid=00226c1f-f9c7-4717-bef1-123d14105322","ios":"levelo://app?vid=00226c1f-f9c7-4717-bef1-123d14105322"},"vehicle_type_id":"4","last_reported":1700928495,"current_range_meters":0,"station_id":"ce4bh412rcd13ifvqds0","pricing_plan_id":"free"},{"bike_id":"7a95565a-9911-419a-92ed-6871929f1c8a","system_id":"levelo_inurba_marseille","lat":43.323464,"lon":5.406297,"is_reserved":false,"is_disabled":false,"rental_uris":{"android":"levelo://app?vid=7a95565a-9911-419a-92ed-6871929f1c8a","ios":"levelo://app?vid=7a95565a-9911-419a-92ed-6871929f1c8a"},"vehicle_type_id":"4","last_reported":1700928495,"current_range_meters":18000,"station_id":"ce4bhq92rcd13ifvqhjg","pricing_plan_id":"free"},{"bike_id":"75c7939c-6a45-4071-a9b8-cd8ade471986","system_id":"levelo_inurba_marseille","lat":43.28481,"lon":5.38407,"is_reserved":false,"is_disabled":false,"rental_uris":{"android":"levelo://app?vid=75c7939c-6a45-4071-a9b8-cd8ade471986","ios":"levelo://app?vid=75c7939c-6a45-4071-a9b8-cd8ade471986"},"vehicle_type_id":"4","last_reported":1700928495,"current_range_meters":0,"station_id":"ce4bh512rcd13ifvqe3g","pricing_plan_id":"free"},{"bike_id":"890e04e8-29e1-4570-9c3b-60859545ec93","system_id":"levelo_inurba_marseille","lat":43.283494,"lon":5.380945,"is_reserved":false,"is_disabled":false,"rental_uris":{"android":"levelo://app?vid=890e04e8-29e1-4570-9c3b-60859545ec93","ios":"levelo://app?vid=890e04e8-29e1-4570-9c3b-60859545ec93"},"vehicle_type_id":"4","last_reported":1700928495,"current_range_meters":12800,"station_id":"ce4bh412rcd13ifvqdr0","pricing_plan_id":"free"},{"bike_id":"bc7cba10-3781-45de-8781-30ec383d6e42","system_id":"levelo_inurba_marseille","lat":43.284219,"lon":5.3497,"is_reserved":false,"is_disabled":false,"rental_uris":{"android":"levelo://app?vid=bc7cba10-3781-45de-8781-30ec383d6e42","ios":"levelo://app?vid=bc7cba10-3781-45de-8781-30ec383d6e42"},"vehicle_type_id":"4","last_reported":1700928495,"current_range_meters":15600,"station_id":"ce4bhbh2rcd13ifvqepg","pricing_plan_id":"free"},{"bike_id":"b4071418-b248-4705-aaf5-d81439feae5f","system_id":"levelo_inurba_marseille","lat":43.284217,"lon":5.349697,"is_reserved":false,"is_disabled":false,"rental_uris":{"android":"levelo://app?vid=b4071418-b248-4705-aaf5-d81439feae5f","ios":"levelo://app?vid=b4071418-b248-4705-aaf5-d81439feae5f"},"vehicle_type_id":"4","last_reported":1700928495,"current_range_meters":21200,"station_id":"ce4bhbh2rcd13ifvqepg","pricing_plan_id":"free"},{"bike_id":"e2284003-4e46-4e0a-93e7-73d05c3666d9","system_id":"levelo_inurba_marseille","lat":43.33508,"lon":5.397755,"is_reserved":false,"is_disabled":false,"rental_uris":{"android":"levelo://app?vid=e2284003-4e46-4e0a-93e7-73d05c3666d9","ios":"levelo://app?vid=e2284003-4e46-4e0a-93e7-73d05c3666d9"},"vehicle_type_id":"4","last_reported":1700928495,"current_range_meters":22000,"station_id":"","pricing_plan_id":"free"},{"bike_id":"15dd61f6-aeae-4555-8f09-b1ec56d1973e","system_id":"levelo_inurba_marseille","lat":43.292724,"lon":5.401131,"is_reserved":false,"is_disabled":false,"rental_uris":{"android":"levelo://app?vid=15dd61f6-aeae-4555-8f09-b1ec56d1973e","ios":"levelo://app?vid=15dd61f6-aeae-4555-8f09-b1ec56d1973e"},"vehicle_type_id":"4","last_reported":1700928495,"current_range_meters":29200,"station_id":"ce4bh312rcd13ifvqdk0","pricing_plan_id":"free"},{"bike_id":"66c88f4c-3a7d-4e9b-a4ed-d7f5bcc6d67e","system_id":"levelo_inurba_marseille","lat":43.282744,"lon":5.350533,"is_reserved":false,"is_disabled":false,"rental_uris":{"android":"levelo://app?vid=66c88f4c-3a7d-4e9b-a4ed-d7f5bcc6d67e","ios":"levelo://app?vid=66c88f4c-3a7d-4e9b-a4ed-d7f5bcc6d67e"},"vehicle_type_id":"4","last_reported":1700928495,"current_range_meters":23600,"station_id":"ce4bhbp2rcd13ifvqerg","pricing_plan_id":"free"},{"bike_id":"ada59f27-8102-4221-9a95-e0a4c6936a38","system_id":"levelo_inurba_marseille","lat":43.282744,"lon":5.350533,"is_reserved":false,"is_disabled":false,"rental_uris":{"android":"levelo://app?vid=ada59f27-8102-4221-9a95-e0a4c6936a38","ios":"levelo://app?vid=ada59f27-8102-4221-9a95-e0a4c6936a38"},"vehicle_type_id":"4","last_reported":1700928495,"current_range_meters":14800,"station_id":"ce4bhbp2rcd13ifvqerg","pricing_plan_id":"free"},{"bike_id":"7b4dade0-f866-45fd-a5cd-18e58da8814d","system_id":"levelo_inurba_marseille","lat":43.2804,"lon":5.36936,"is_reserved":false,"is_disabled":false,"rental_uris":{"android":"levelo://app?vid=7b4dade0-f866-45fd-a5cd-18e58da8814d","ios":"levelo://app?vid=7b4dade0-f866-45fd-a5cd-18e58da8814d"},"vehicle_type_id":"4","last_reported":1700928495,"current_range_meters":13200,"station_id":"ce4bha12rcd13ifvqef0","pricing_plan_id":"free"},{"bike_id":"9b5c094e-5cb7-40f2-9192-81839deaf755","system_id":"levelo_inurba_marseille","lat":43.28036,"lon":5.36944,"is_reserved":false,"is_disabled":false,"rental_uris":{"android":"levelo://app?vid=9b5c094e-5cb7-40f2-9192-81839deaf755","ios":"levelo://app?vid=9b5c094e-5cb7-40f2-9192-81839deaf755"},"vehicle_type_id":"4","last_reported":1700928495,"current_range_meters":1600,"station_id":"ce4bha12rcd13ifvqef0","pricing_plan_id":"free"},{"bike_id":"6ff38644-e50c-4071-a362-0826c282d246","system_id":"levelo_inurba_marseille","lat":43.28111,"lon":5.37838,"is_reserved":false,"is_disabled":false,"rental_uris":{"android":"levelo://app?vid=6ff38644-e50c-4071-a362-0826c282d246","ios":"levelo://app?vid=6ff38644-e50c-4071-a362-0826c282d246"},"vehicle_type_id":"4","last_reported":1700928495,"current_range_meters":14800,"station_id":"ce4bha12rcd13ifvqee0","pricing_plan_id":"free"},{"bike_id":"37fc542b-8204-4b00-ac29-05e7a1d4925f","system_id":"levelo_inurba_marseille","lat":43.280995,"lon":5.378332,"is_reserved":false,"is_disabled":false,"rental_uris":{"android":"levelo://app?vid=37fc542b-8204-4b00-ac29-05e7a1d4925f","ios":"levelo://app?vid=37fc542b-8204-4b00-ac29-05e7a1d4925f"},"vehicle_type_id":"4","last_reported":1700928495,"current_range_meters":20400,"station_id":"","pricing_plan_id":"free"},{"bike_id":"0616da87-3bbd-4800-9878-6d5c45ace960","system_id":"levelo_inurba_marseille","lat":43.279087,"lon":5.380114,"is_reserved":false,"is_disabled":false,"rental_uris":{"android":"levelo://app?vid=0616da87-3bbd-4800-9878-6d5c45ace960","ios":"levelo://app?vid=0616da87-3bbd-4800-9878-6d5c45ace960"},"vehicle_type_id":"4","last_reported":1700928495,"current_range_meters":26800,"station_id":"ce4bhf92rcd13ifvqf50","pricing_plan_id":"free"},{"bike_id":"9fedd3dd-4e80-4824-ac2c-7d42bc0d2622","system_id":"levelo_inurba_marseille","lat":43.279087,"lon":5.380114,"is_reserved":false,"is_disabled":false,"rental_uris":{"android":"levelo://app?vid=9fedd3dd-4e80-4824-ac2c-7d42bc0d2622","ios":"levelo://app?vid=9fedd3dd-4e80-4824-ac2c-7d42bc0d2622"},"vehicle_type_id":"4","last_reported":1700928495,"current_range_meters":30800,"station_id":"ce4bhf92rcd13ifvqf50","pricing_plan_id":"free"},{"bike_id":"93d18ebe-de9c-49e2-949c-ebbce1464f38","system_id":"levelo_inurba_marseille","lat":43.299579,"lon":5.413255,"is_reserved":false,"is_disabled":false,"rental_uris":{"android":"levelo://app?vid=93d18ebe-de9c-49e2-949c-ebbce1464f38","ios":"levelo://app?vid=93d18ebe-de9c-49e2-949c-ebbce1464f38"},"vehicle_type_id":"4","last_reported":1700928495,"current_range_meters":27600,"station_id":"ce4bhp12rcd13ifvqh9g","pricing_plan_id":"free"},{"bike_id":"0a00d757-9674-4c0b-b307-dbfbe9e7a2b2","system_id":"levelo_inurba_marseille","lat":43.320045,"lon":5.415046,"is_reserved":false,"is_disabled":false,"rental_uris":{"android":"levelo://app?vid=0a00d757-9674-4c0b-b307-dbfbe9e7a2b2","ios":"levelo://app?vid=0a00d757-9674-4c0b-b307-dbfbe9e7a2b2"},"vehicle_type_id":"4","last_reported":1700928495,"current_range_meters":30400,"station_id":"ce4bhq92rcd13ifvqhkg","pricing_plan_id":"free"},{"bike_id":"a3c6def1-5296-4c7a-9eea-c8d4b330c208","system_id":"levelo_inurba_marseille","lat":43.283998,"lon":5.375062,"is_reserved":false,"is_disabled":false,"rental_uris":{"android":"levelo://app?vid=a3c6def1-5296-4c7a-9eea-c8d4b330c208","ios":"levelo://app?vid=a3c6def1-5296-4c7a-9eea-c8d4b330c208"},"vehicle_type_id":"4","last_reported":1700928495,"current_range_meters":2800,"station_id":"ce4bh412rcd13ifvqds0","pricing_plan_id":"free"},{"bike_id":"e9333e17-ea63-4942-a642-cb0a1ba22a55","system_id":"levelo_inurba_marseille","lat":43.325243,"lon":5.414326,"is_reserved":false,"is_disabled":false,"rental_uris":{"android":"levelo://app?vid=e9333e17-ea63-4942-a642-cb0a1ba22a55","ios":"levelo://app?vid=e9333e17-ea63-4942-a642-cb0a1ba22a55"},"vehicle_type_id":"4","last_reported":1700928495,"current_range_meters":10400,"station_id":"ce4bhq12rcd13ifvqhhg","pricing_plan_id":"free"},{"bike_id":"1239042e-69f0-4305-b7ed-e482ed229840","system_id":"levelo_inurba_marseille","lat":43.325243,"lon":5.414326,"is_reserved":false,"is_disabled":false,"rental_uris":{"android":"levelo://app?vid=1239042e-69f0-4305-b7ed-e482ed229840","ios":"levelo://app?vid=1239042e-69f0-4305-b7ed-e482ed229840"},"vehicle_type_id":"4","last_reported":1700928495,"current_range_meters":12800,"station_id":"ce4bhq12rcd13ifvqhhg","pricing_plan_id":"free"},{"bike_id":"6508e4f7-6eb7-4970-ab91-3710449e731f","system_id":"levelo_inurba_marseille","lat":43.29248,"lon":5.40911,"is_reserved":false,"is_disabled":false,"rental_uris":{"android":"levelo://app?vid=6508e4f7-6eb7-4970-ab91-3710449e731f","ios":"levelo://app?vid=6508e4f7-6eb7-4970-ab91-3710449e731f"},"vehicle_type_id":"4","last_reported":1700928495,"current_range_meters":12400,"station_id":"ce4bh192rcd13ifvqdc0","pricing_plan_id":"free"},{"bike_id":"b6bd24e6-943a-4566-9f51-569035dc9592","system_id":"levelo_inurba_marseille","lat":43.325243,"lon":5.414326,"is_reserved":false,"is_disabled":false,"rental_uris":{"android":"levelo://app?vid=b6bd24e6-943a-4566-9f51-569035dc9592","ios":"levelo://app?vid=b6bd24e6-943a-4566-9f51-569035dc9592"},"vehicle_type_id":"4","last_reported":1700928495,"current_range_meters":4800,"station_id":"ce4bhq12rcd13ifvqhhg","pricing_plan_id":"free"},{"bike_id":"c25ea147-e804-4786-9d25-91f61a8ed59a","system_id":"levelo_inurba_marseille","lat":43.293651,"lon":5.41268,"is_reserved":false,"is_disabled":false,"rental_uris":{"android":"levelo://app?vid=c25ea147-e804-4786-9d25-91f61a8ed59a","ios":"levelo://app?vid=c25ea147-e804-4786-9d25-91f61a8ed59a"},"vehicle_type_id":"4","last_reported":1700928495,"current_range_meters":0,"station_id":"","pricing_plan_id":"free"},{"bike_id":"c6d3e8e5-2b1d-4cd8-9846-dfa506afa25e","system_id":"levelo_inurba_marseille","lat":43.275625,"lon":5.384392,"is_reserved":false,"is_disabled":false,"rental_uris":{"android":"levelo://app?vid=c6d3e8e5-2b1d-4cd8-9846-dfa506afa25e","ios":"levelo://app?vid=c6d3e8e5-2b1d-4cd8-9846-dfa506afa25e"},"vehicle_type_id":"4","last_reported":1700928495,"current_range_meters":16400,"station_id":"ce4bhh92rcd13ifvqfi0","pricing_plan_id":"free"},{"bike_id":"aeac0ddd-2ce2-4da0-9592-786f3cd5f7f4","system_id":"levelo_inurba_marseille","lat":43.278401,"lon":5.392152,"is_reserved":false,"is_disabled":false,"rental_uris":{"android":"levelo://app?vid=aeac0ddd-2ce2-4da0-9592-786f3cd5f7f4","ios":"levelo://app?vid=aeac0ddd-2ce2-4da0-9592-786f3cd5f7f4"},"vehicle_type_id":"4","last_reported":1700928495,"current_range_meters":2000,"station_id":"ce4bhjp2rcd13ifvqga0","pricing_plan_id":"free"},{"bike_id":"187ad07c-ed6e-4a83-afdc-2d34d7e6865a","system_id":"levelo_inurba_marseille","lat":43.273613,"lon":5.362705,"is_reserved":false,"is_disabled":false,"rental_uris":{"android":"levelo://app?vid=187ad07c-ed6e-4a83-afdc-2d34d7e6865a","ios":"levelo://app?vid=187ad07c-ed6e-4a83-afdc-2d34d7e6865a"},"vehicle_type_id":"4","last_reported":1700928495,"current_range_meters":28800,"station_id":"ce4bhbh2rcd13ifvqeo0","pricing_plan_id":"free"},{"bike_id":"b98b488b-55ca-4805-850e-7b847428de61","system_id":"levelo_inurba_marseille","lat":43.273613,"lon":5.362705,"is_reserved":false,"is_disabled":false,"rental_uris":{"android":"levelo://app?vid=b98b488b-55ca-4805-850e-7b847428de61","ios":"levelo://app?vid=b98b488b-55ca-4805-850e-7b847428de61"},"vehicle_type_id":"4","last_reported":1700928495,"current_range_meters":12000,"station_id":"ce4bhbh2rcd13ifvqeo0","pricing_plan_id":"free"},{"bike_id":"d200c2ec-508f-4e01-8a2d-92394bc0beb0","system_id":"levelo_inurba_marseille","lat":43.275625,"lon":5.384392,"is_reserved":false,"is_disabled":false,"rental_uris":{"android":"levelo://app?vid=d200c2ec-508f-4e01-8a2d-92394bc0beb0","ios":"levelo://app?vid=d200c2ec-508f-4e01-8a2d-92394bc0beb0"},"vehicle_type_id":"4","last_reported":1700928495,"current_range_meters":28400,"station_id":"ce4bhh92rcd13ifvqfi0","pricing_plan_id":"free"},{"bike_id":"b3e9d657-07d2-4b35-8cab-1cf77eafec1d","system_id":"levelo_inurba_marseille","lat":43.336148,"lon":5.410349,"is_reserved":false,"is_disabled":false,"rental_uris":{"android":"levelo://app?vid=b3e9d657-07d2-4b35-8cab-1cf77eafec1d","ios":"levelo://app?vid=b3e9d657-07d2-4b35-8cab-1cf77eafec1d"},"vehicle_type_id":"4","last_reported":1700928495,"current_range_meters":26400,"station_id":"ce4bhqh2rcd13ifvqhmg","pricing_plan_id":"free"},{"bike_id":"0fbf5b58-7ce4-4115-b285-fee12726188f","system_id":"levelo_inurba_marseille","lat":43.3361,"lon":5.41037,"is_reserved":false,"is_disabled":false,"rental_uris":{"android":"levelo://app?vid=0fbf5b58-7ce4-4115-b285-fee12726188f","ios":"levelo://app?vid=0fbf5b58-7ce4-4115-b285-fee12726188f"},"vehicle_type_id":"4","last_reported":1700928495,"current_range_meters":12800,"station_id":"ce4bhqh2rcd13ifvqhmg","pricing_plan_id":"free"},{"bike_id":"833541ea-9b6d-49a4-ad4c-bdb650c1f159","system_id":"levelo_inurba_marseille","lat":43.275625,"lon":5.384392,"is_reserved":false,"is_disabled":false,"rental_uris":{"android":"levelo://app?vid=833541ea-9b6d-49a4-ad4c-bdb650c1f159","ios":"levelo://app?vid=833541ea-9b6d-49a4-ad4c-bdb650c1f159"},"vehicle_type_id":"4","last_reported":1700928495,"current_range_meters":15200,"station_id":"ce4bhh92rcd13ifvqfi0","pricing_plan_id":"free"},{"bike_id":"97187d51-317e-44e4-8b51-b556a89bae1f","system_id":"levelo_inurba_marseille","lat":43.279952,"lon":5.400085,"is_reserved":false,"is_disabled":false,"rental_uris":{"android":"levelo://app?vid=97187d51-317e-44e4-8b51-b556a89bae1f","ios":"levelo://app?vid=97187d51-317e-44e4-8b51-b556a89bae1f"},"vehicle_type_id":"4","last_reported":1700928495,"current_range_meters":17200,"station_id":"ce4bho92rcd13ifvqh4g","pricing_plan_id":"free"},{"bike_id":"0bdd442b-4f16-4277-88cc-be64a671c3ce","system_id":"levelo_inurba_marseille","lat":43.27999,"lon":5.40006,"is_reserved":false,"is_disabled":false,"rental_uris":{"android":"levelo://app?vid=0bdd442b-4f16-4277-88cc-be64a671c3ce","ios":"levelo://app?vid=0bdd442b-4f16-4277-88cc-be64a671c3ce"},"vehicle_type_id":"4","last_reported":1700928495,"current_range_meters":31200,"station_id":"ce4bho92rcd13ifvqh4g","pricing_plan_id":"free"},{"bike_id":"36184f19-e18f-4bfb-a8a4-4927b5054255","system_id":"levelo_inurba_marseille","lat":43.28,"lon":5.4001,"is_reserved":false,"is_disabled":false,"rental_uris":{"android":"levelo://app?vid=36184f19-e18f-4bfb-a8a4-4927b5054255","ios":"levelo://app?vid=36184f19-e18f-4bfb-a8a4-4927b5054255"},"vehicle_type_id":"4","last_reported":1700928495,"current_range_meters":31200,"station_id":"ce4bho92rcd13ifvqh4g","pricing_plan_id":"free"},{"bike_id":"de929e7e-c3f5-4b7a-9a3b-0c3037651d43","system_id":"levelo_inurba_marseille","lat":43.279952,"lon":5.400085,"is_reserved":false,"is_disabled":false,"rental_uris":{"android":"levelo://app?vid=de929e7e-c3f5-4b7a-9a3b-0c3037651d43","ios":"levelo://app?vid=de929e7e-c3f5-4b7a-9a3b-0c3037651d43"},"vehicle_type_id":"4","last_reported":1700928495,"current_range_meters":31200,"station_id":"ce4bho92rcd13ifvqh4g","pricing_plan_id":"free"},{"bike_id":"e43adb03-57c4-45ac-a3da-a125f59bf6b4","system_id":"levelo_inurba_marseille","lat":43.27997,"lon":5.40009,"is_reserved":false,"is_disabled":false,"rental_uris":{"android":"levelo://app?vid=e43adb03-57c4-45ac-a3da-a125f59bf6b4","ios":"levelo://app?vid=e43adb03-57c4-45ac-a3da-a125f59bf6b4"},"vehicle_type_id":"4","last_reported":1700928495,"current_range_meters":26400,"station_id":"ce4bho92rcd13ifvqh4g","pricing_plan_id":"free"},{"bike_id":"91215161-5014-45f6-a237-9df70268cba5","system_id":"levelo_inurba_marseille","lat":43.279969,"lon":5.400196,"is_reserved":false,"is_disabled":false,"rental_uris":{"android":"levelo://app?vid=91215161-5014-45f6-a237-9df70268cba5","ios":"levelo://app?vid=91215161-5014-45f6-a237-9df70268cba5"},"vehicle_type_id":"4","last_reported":1700928495,"current_range_meters":31200,"station_id":"ce4bho92rcd13ifvqh4g","pricing_plan_id":"free"},{"bike_id":"31a4ddc9-6a18-4dfe-b7dd-50c30c5d963b","system_id":"levelo_inurba_marseille","lat":43.27993,"lon":5.4002,"is_reserved":false,"is_disabled":false,"rental_uris":{"android":"levelo://app?vid=31a4ddc9-6a18-4dfe-b7dd-50c30c5d963b","ios":"levelo://app?vid=31a4ddc9-6a18-4dfe-b7dd-50c30c5d963b"},"vehicle_type_id":"4","last_reported":1700928495,"current_range_meters":31200,"station_id":"ce4bho92rcd13ifvqh4g","pricing_plan_id":"free"},{"bike_id":"561d56c0-616a-4955-bd15-b0e0ddd3d6ba","system_id":"levelo_inurba_marseille","lat":43.279952,"lon":5.400085,"is_reserved":false,"is_disabled":false,"rental_uris":{"android":"levelo://app?vid=561d56c0-616a-4955-bd15-b0e0ddd3d6ba","ios":"levelo://app?vid=561d56c0-616a-4955-bd15-b0e0ddd3d6ba"},"vehicle_type_id":"4","last_reported":1700928495,"current_range_meters":30800,"station_id":"ce4bho92rcd13ifvqh4g","pricing_plan_id":"free"},{"bike_id":"0d2fdf3b-3e3c-4c40-a998-3277124b880b","system_id":"levelo_inurba_marseille","lat":43.31082,"lon":5.42432,"is_reserved":false,"is_disabled":false,"rental_uris":{"android":"levelo://app?vid=0d2fdf3b-3e3c-4c40-a998-3277124b880b","ios":"levelo://app?vid=0d2fdf3b-3e3c-4c40-a998-3277124b880b"},"vehicle_type_id":"4","last_reported":1700928495,"current_range_meters":9600,"station_id":"ce4bhp92rcd13ifvqhag","pricing_plan_id":"free"},{"bike_id":"5129acc1-7977-4d29-8689-fece97171c5b","system_id":"levelo_inurba_marseille","lat":43.31082,"lon":5.42434,"is_reserved":false,"is_disabled":false,"rental_uris":{"android":"levelo://app?vid=5129acc1-7977-4d29-8689-fece97171c5b","ios":"levelo://app?vid=5129acc1-7977-4d29-8689-fece97171c5b"},"vehicle_type_id":"4","last_reported":1700928495,"current_range_meters":25600,"station_id":"ce4bhp92rcd13ifvqhag","pricing_plan_id":"free"},{"bike_id":"60395232-e532-4f5a-ae3e-52a22da3b50f","system_id":"levelo_inurba_marseille","lat":43.31082,"lon":5.42436,"is_reserved":false,"is_disabled":false,"rental_uris":{"android":"levelo://app?vid=60395232-e532-4f5a-ae3e-52a22da3b50f","ios":"levelo://app?vid=60395232-e532-4f5a-ae3e-52a22da3b50f"},"vehicle_type_id":"4","last_reported":1700928495,"current_range_meters":7200,"station_id":"ce4bhp92rcd13ifvqhag","pricing_plan_id":"free"},{"bike_id":"fe3705a1-b3a7-4cee-82ef-32e630024d8b","system_id":"levelo_inurba_marseille","lat":43.273125,"lon":5.390731,"is_reserved":false,"is_disabled":false,"rental_uris":{"android":"levelo://app?vid=fe3705a1-b3a7-4cee-82ef-32e630024d8b","ios":"levelo://app?vid=fe3705a1-b3a7-4cee-82ef-32e630024d8b"},"vehicle_type_id":"4","last_reported":1700928495,"current_range_meters":18800,"station_id":"ce4bhgp2rcd13ifvqfe0","pricing_plan_id":"free"},{"bike_id":"d90314e0-de0a-46f5-8478-3462e722d286","system_id":"levelo_inurba_marseille","lat":43.273257,"lon":5.391147,"is_reserved":false,"is_disabled":false,"rental_uris":{"android":"levelo://app?vid=d90314e0-de0a-46f5-8478-3462e722d286","ios":"levelo://app?vid=d90314e0-de0a-46f5-8478-3462e722d286"},"vehicle_type_id":"4","last_reported":1700928495,"current_range_meters":0,"station_id":"ce4bhgp2rcd13ifvqfe0","pricing_plan_id":"free"},{"bike_id":"1052d100-bfed-4f3e-a202-ed9b2825b805","system_id":"levelo_inurba_marseille","lat":43.295523,"lon":5.422926,"is_reserved":false,"is_disabled":false,"rental_uris":{"android":"levelo://app?vid=1052d100-bfed-4f3e-a202-ed9b2825b805","ios":"levelo://app?vid=1052d100-bfed-4f3e-a202-ed9b2825b805"},"vehicle_type_id":"4","last_reported":1700928495,"current_range_meters":21600,"station_id":"ce4bhph2rcd13ifvqhdg","pricing_plan_id":"free"},{"bike_id":"d032f6fd-2fad-4d4b-840c-c4b36059bfc3","system_id":"levelo_inurba_marseille","lat":43.295523,"lon":5.422926,"is_reserved":false,"is_disabled":false,"rental_uris":{"android":"levelo://app?vid=d032f6fd-2fad-4d4b-840c-c4b36059bfc3","ios":"levelo://app?vid=d032f6fd-2fad-4d4b-840c-c4b36059bfc3"},"vehicle_type_id":"4","last_reported":1700928495,"current_range_meters":29600,"station_id":"ce4bhph2rcd13ifvqhdg","pricing_plan_id":"free"},{"bike_id":"58a74f2c-3205-4aed-bf2c-a4151057b68d","system_id":"levelo_inurba_marseille","lat":43.295523,"lon":5.422926,"is_reserved":false,"is_disabled":false,"rental_uris":{"android":"levelo://app?vid=58a74f2c-3205-4aed-bf2c-a4151057b68d","ios":"levelo://app?vid=58a74f2c-3205-4aed-bf2c-a4151057b68d"},"vehicle_type_id":"4","last_reported":1700928495,"current_range_meters":11600,"station_id":"ce4bhph2rcd13ifvqhdg","pricing_plan_id":"free"},{"bike_id":"0c5fe61a-15d7-4bdf-8560-e838ed8fc746","system_id":"levelo_inurba_marseille","lat":43.29549,"lon":5.42294,"is_reserved":false,"is_disabled":false,"rental_uris":{"android":"levelo://app?vid=0c5fe61a-15d7-4bdf-8560-e838ed8fc746","ios":"levelo://app?vid=0c5fe61a-15d7-4bdf-8560-e838ed8fc746"},"vehicle_type_id":"4","last_reported":1700928495,"current_range_meters":10800,"station_id":"ce4bhph2rcd13ifvqhdg","pricing_plan_id":"free"},{"bike_id":"d251e49d-bc8b-4018-9c22-73d286bbc91f","system_id":"levelo_inurba_marseille","lat":43.272118,"lon":5.391758,"is_reserved":false,"is_disabled":false,"rental_uris":{"android":"levelo://app?vid=d251e49d-bc8b-4018-9c22-73d286bbc91f","ios":"levelo://app?vid=d251e49d-bc8b-4018-9c22-73d286bbc91f"},"vehicle_type_id":"4","last_reported":1700928495,"current_range_meters":7200,"station_id":"ce4bhhp2rcd13ifvqfm0","pricing_plan_id":"free"},{"bike_id":"4de0236b-3eba-456e-a730-01e948dcb78e","system_id":"levelo_inurba_marseille","lat":43.27814,"lon":5.4072,"is_reserved":false,"is_disabled":false,"rental_uris":{"android":"levelo://app?vid=4de0236b-3eba-456e-a730-01e948dcb78e","ios":"levelo://app?vid=4de0236b-3eba-456e-a730-01e948dcb78e"},"vehicle_type_id":"4","last_reported":1700928495,"current_range_meters":0,"station_id":"ce4bhnh2rcd13ifvqgtg","pricing_plan_id":"free"},{"bike_id":"1c50547f-9f03-43d2-b5c1-647a46738790","system_id":"levelo_inurba_marseille","lat":43.27811,"lon":5.40718,"is_reserved":false,"is_disabled":false,"rental_uris":{"android":"levelo://app?vid=1c50547f-9f03-43d2-b5c1-647a46738790","ios":"levelo://app?vid=1c50547f-9f03-43d2-b5c1-647a46738790"},"vehicle_type_id":"4","last_reported":1700928495,"current_range_meters":12800,"station_id":"ce4bhnh2rcd13ifvqgtg","pricing_plan_id":"free"},{"bike_id":"339f617c-0dc0-4c17-95c9-07c4f1854a0a","system_id":"levelo_inurba_marseille","lat":43.269319,"lon":5.389397,"is_reserved":false,"is_disabled":false,"rental_uris":{"android":"levelo://app?vid=339f617c-0dc0-4c17-95c9-07c4f1854a0a","ios":"levelo://app?vid=339f617c-0dc0-4c17-95c9-07c4f1854a0a"},"vehicle_type_id":"4","last_reported":1700928495,"current_range_meters":11600,"station_id":"ce4bhhh2rcd13ifvqfl0","pricing_plan_id":"free"},{"bike_id":"f23d8119-b478-4639-98c5-6883279f9f84","system_id":"levelo_inurba_marseille","lat":43.32592,"lon":5.43067,"is_reserved":false,"is_disabled":false,"rental_uris":{"android":"levelo://app?vid=f23d8119-b478-4639-98c5-6883279f9f84","ios":"levelo://app?vid=f23d8119-b478-4639-98c5-6883279f9f84"},"vehicle_type_id":"4","last_reported":1700928495,"current_range_meters":26400,"station_id":"","pricing_plan_id":"free"},{"bike_id":"e7b368e8-9edf-4ac8-acef-7e9558d427aa","system_id":"levelo_inurba_marseille","lat":43.32591,"lon":5.430713,"is_reserved":false,"is_disabled":false,"rental_uris":{"android":"levelo://app?vid=e7b368e8-9edf-4ac8-acef-7e9558d427aa","ios":"levelo://app?vid=e7b368e8-9edf-4ac8-acef-7e9558d427aa"},"vehicle_type_id":"4","last_reported":1700928495,"current_range_meters":0,"station_id":"","pricing_plan_id":"free"},{"bike_id":"ed30d6a1-b23a-49e5-9c83-5546be72a734","system_id":"levelo_inurba_marseille","lat":43.3259,"lon":5.43075,"is_reserved":false,"is_disabled":false,"rental_uris":{"android":"levelo://app?vid=ed30d6a1-b23a-49e5-9c83-5546be72a734","ios":"levelo://app?vid=ed30d6a1-b23a-49e5-9c83-5546be72a734"},"vehicle_type_id":"4","last_reported":1700928495,"current_range_meters":21200,"station_id":"","pricing_plan_id":"free"},{"bike_id":"d67469ee-5362-4610-a163-fe05ae3cf4f7","system_id":"levelo_inurba_marseille","lat":43.32604,"lon":5.430817,"is_reserved":false,"is_disabled":false,"rental_uris":{"android":"levelo://app?vid=d67469ee-5362-4610-a163-fe05ae3cf4f7","ios":"levelo://app?vid=d67469ee-5362-4610-a163-fe05ae3cf4f7"},"vehicle_type_id":"4","last_reported":1700928495,"current_range_meters":9600,"station_id":"","pricing_plan_id":"free"},{"bike_id":"9bccec41-df91-4123-8055-af24767e1fb8","system_id":"levelo_inurba_marseille","lat":43.27996,"lon":5.416624,"is_reserved":false,"is_disabled":false,"rental_uris":{"android":"levelo://app?vid=9bccec41-df91-4123-8055-af24767e1fb8","ios":"levelo://app?vid=9bccec41-df91-4123-8055-af24767e1fb8"},"vehicle_type_id":"4","last_reported":1700928495,"current_range_meters":0,"station_id":"ce4bho12rcd13ifvqh1g","pricing_plan_id":"free"},{"bike_id":"9cff4178-6f33-4954-b0e0-02a44735550f","system_id":"levelo_inurba_marseille","lat":43.265714,"lon":5.372891,"is_reserved":false,"is_disabled":false,"rental_uris":{"android":"levelo://app?vid=9cff4178-6f33-4954-b0e0-02a44735550f","ios":"levelo://app?vid=9cff4178-6f33-4954-b0e0-02a44735550f"},"vehicle_type_id":"4","last_reported":1700928495,"current_range_meters":20400,"station_id":"ce4bhg12rcd13ifvqf70","pricing_plan_id":"free"},{"bike_id":"6ecdd874-9944-4f0d-bbfd-be0fe6539c53","system_id":"levelo_inurba_marseille","lat":43.265714,"lon":5.372891,"is_reserved":false,"is_disabled":false,"rental_uris":{"android":"levelo://app?vid=6ecdd874-9944-4f0d-bbfd-be0fe6539c53","ios":"levelo://app?vid=6ecdd874-9944-4f0d-bbfd-be0fe6539c53"},"vehicle_type_id":"4","last_reported":1700928495,"current_range_meters":6000,"station_id":"ce4bhg12rcd13ifvqf70","pricing_plan_id":"free"},{"bike_id":"756fd165-6673-4c06-9bed-90e79ef37563","system_id":"levelo_inurba_marseille","lat":43.265714,"lon":5.372891,"is_reserved":false,"is_disabled":false,"rental_uris":{"android":"levelo://app?vid=756fd165-6673-4c06-9bed-90e79ef37563","ios":"levelo://app?vid=756fd165-6673-4c06-9bed-90e79ef37563"},"vehicle_type_id":"4","last_reported":1700928495,"current_range_meters":10400,"station_id":"ce4bhg12rcd13ifvqf70","pricing_plan_id":"free"},{"bike_id":"2b5f0b27-ae58-4e9e-bd76-c585f78e8a73","system_id":"levelo_inurba_marseille","lat":43.26386,"lon":5.37454,"is_reserved":false,"is_disabled":false,"rental_uris":{"android":"levelo://app?vid=2b5f0b27-ae58-4e9e-bd76-c585f78e8a73","ios":"levelo://app?vid=2b5f0b27-ae58-4e9e-bd76-c585f78e8a73"},"vehicle_type_id":"4","last_reported":1700928495,"current_range_meters":10400,"station_id":"","pricing_plan_id":"free"},{"bike_id":"8c63946c-593a-4aa7-86e5-966802763a80","system_id":"levelo_inurba_marseille","lat":43.26944,"lon":5.40251,"is_reserved":false,"is_disabled":false,"rental_uris":{"android":"levelo://app?vid=8c63946c-593a-4aa7-86e5-966802763a80","ios":"levelo://app?vid=8c63946c-593a-4aa7-86e5-966802763a80"},"vehicle_type_id":"4","last_reported":1700928495,"current_range_meters":400,"station_id":"","pricing_plan_id":"free"},{"bike_id":"e5af422b-c103-41e9-a3ef-42da12a244e1","system_id":"levelo_inurba_marseille","lat":43.261782,"lon":5.374515,"is_reserved":false,"is_disabled":false,"rental_uris":{"android":"levelo://app?vid=e5af422b-c103-41e9-a3ef-42da12a244e1","ios":"levelo://app?vid=e5af422b-c103-41e9-a3ef-42da12a244e1"},"vehicle_type_id":"4","last_reported":1700928495,"current_range_meters":30000,"station_id":"ce4bhgp2rcd13ifvqfc0","pricing_plan_id":"free"},{"bike_id":"e8b4bffd-b915-44b0-ac47-ae5b323e21c6","system_id":"levelo_inurba_marseille","lat":43.261782,"lon":5.374515,"is_reserved":false,"is_disabled":false,"rental_uris":{"android":"levelo://app?vid=e8b4bffd-b915-44b0-ac47-ae5b323e21c6","ios":"levelo://app?vid=e8b4bffd-b915-44b0-ac47-ae5b323e21c6"},"vehicle_type_id":"4","last_reported":1700928495,"current_range_meters":25600,"station_id":"ce4bhgp2rcd13ifvqfc0","pricing_plan_id":"free"},{"bike_id":"1b98b7d3-c287-45d9-80ab-ed0171f3329e","system_id":"levelo_inurba_marseille","lat":43.317104,"lon":5.436818,"is_reserved":false,"is_disabled":false,"rental_uris":{"android":"levelo://app?vid=1b98b7d3-c287-45d9-80ab-ed0171f3329e","ios":"levelo://app?vid=1b98b7d3-c287-45d9-80ab-ed0171f3329e"},"vehicle_type_id":"4","last_reported":1700928495,"current_range_meters":30400,"station_id":"ce4bhp92rcd13ifvqhcg","pricing_plan_id":"free"},{"bike_id":"140cea39-f33f-4f62-8d10-af6207f95d2a","system_id":"levelo_inurba_marseille","lat":43.261782,"lon":5.374515,"is_reserved":false,"is_disabled":false,"rental_uris":{"android":"levelo://app?vid=140cea39-f33f-4f62-8d10-af6207f95d2a","ios":"levelo://app?vid=140cea39-f33f-4f62-8d10-af6207f95d2a"},"vehicle_type_id":"4","last_reported":1700928495,"current_range_meters":20800,"station_id":"ce4bhgp2rcd13ifvqfc0","pricing_plan_id":"free"},{"bike_id":"b0184763-49f1-4ca3-83d2-cb75e573458e","system_id":"levelo_inurba_marseille","lat":43.271368,"lon":5.40928,"is_reserved":false,"is_disabled":false,"rental_uris":{"android":"levelo://app?vid=b0184763-49f1-4ca3-83d2-cb75e573458e","ios":"levelo://app?vid=b0184763-49f1-4ca3-83d2-cb75e573458e"},"vehicle_type_id":"4","last_reported":1700928495,"current_range_meters":8000,"station_id":"ce4bhl12rcd13ifvqgf0","pricing_plan_id":"free"},{"bike_id":"dbf62bfb-d43b-46dc-b301-0e9e00d707fe","system_id":"levelo_inurba_marseille","lat":43.26174,"lon":5.37903,"is_reserved":false,"is_disabled":false,"rental_uris":{"android":"levelo://app?vid=dbf62bfb-d43b-46dc-b301-0e9e00d707fe","ios":"levelo://app?vid=dbf62bfb-d43b-46dc-b301-0e9e00d707fe"},"vehicle_type_id":"4","last_reported":1700928495,"current_range_meters":28000,"station_id":"ce4bhjp2rcd13ifvqg90","pricing_plan_id":"free"},{"bike_id":"d24921c1-8c61-4b91-941a-2e11a6ed2b73","system_id":"levelo_inurba_marseille","lat":43.298768,"lon":5.43643,"is_reserved":false,"is_disabled":false,"rental_uris":{"android":"levelo://app?vid=d24921c1-8c61-4b91-941a-2e11a6ed2b73","ios":"levelo://app?vid=d24921c1-8c61-4b91-941a-2e11a6ed2b73"},"vehicle_type_id":"4","last_reported":1700928495,"current_range_meters":11200,"station_id":"ce4bhpp2rcd13ifvqhfg","pricing_plan_id":"free"},{"bike_id":"7c5a83ac-336c-4b91-a5ea-82b3c6d6127d","system_id":"levelo_inurba_marseille","lat":43.298768,"lon":5.43643,"is_reserved":false,"is_disabled":false,"rental_uris":{"android":"levelo://app?vid=7c5a83ac-336c-4b91-a5ea-82b3c6d6127d","ios":"levelo://app?vid=7c5a83ac-336c-4b91-a5ea-82b3c6d6127d"},"vehicle_type_id":"4","last_reported":1700928495,"current_range_meters":31600,"station_id":"ce4bhpp2rcd13ifvqhfg","pricing_plan_id":"free"},{"bike_id":"f0185995-5ea5-4188-8b2e-cb34dfece5eb","system_id":"levelo_inurba_marseille","lat":43.298768,"lon":5.43643,"is_reserved":false,"is_disabled":false,"rental_uris":{"android":"levelo://app?vid=f0185995-5ea5-4188-8b2e-cb34dfece5eb","ios":"levelo://app?vid=f0185995-5ea5-4188-8b2e-cb34dfece5eb"},"vehicle_type_id":"4","last_reported":1700928495,"current_range_meters":31600,"station_id":"ce4bhpp2rcd13ifvqhfg","pricing_plan_id":"free"},{"bike_id":"8af0d2ed-93d1-485d-9803-40c71e52d0d9","system_id":"levelo_inurba_marseille","lat":43.29901,"lon":5.43672,"is_reserved":false,"is_disabled":false,"rental_uris":{"android":"levelo://app?vid=8af0d2ed-93d1-485d-9803-40c71e52d0d9","ios":"levelo://app?vid=8af0d2ed-93d1-485d-9803-40c71e52d0d9"},"vehicle_type_id":"4","last_reported":1700928495,"current_range_meters":13200,"station_id":"ce4bhpp2rcd13ifvqhfg","pricing_plan_id":"free"},{"bike_id":"9766722c-3e9d-46e0-af74-79605b4d1c01","system_id":"levelo_inurba_marseille","lat":43.26029,"lon":5.37551,"is_reserved":false,"is_disabled":false,"rental_uris":{"android":"levelo://app?vid=9766722c-3e9d-46e0-af74-79605b4d1c01","ios":"levelo://app?vid=9766722c-3e9d-46e0-af74-79605b4d1c01"},"vehicle_type_id":"4","last_reported":1700928495,"current_range_meters":30000,"station_id":"ce4bhgh2rcd13ifvqfa0","pricing_plan_id":"free"},{"bike_id":"5ac38179-4d98-4b89-80f2-dc6cd474e479","system_id":"levelo_inurba_marseille","lat":43.28153,"lon":5.42638,"is_reserved":false,"is_disabled":false,"rental_uris":{"android":"levelo://app?vid=5ac38179-4d98-4b89-80f2-dc6cd474e479","ios":"levelo://app?vid=5ac38179-4d98-4b89-80f2-dc6cd474e479"},"vehicle_type_id":"4","last_reported":1700928495,"current_range_meters":16000,"station_id":"ce4bhnh2rcd13ifvqgug","pricing_plan_id":"free"},{"bike_id":"5cc76595-4035-4213-b74e-41dabe622aaf","system_id":"levelo_inurba_marseille","lat":43.281485,"lon":5.426368,"is_reserved":false,"is_disabled":false,"rental_uris":{"android":"levelo://app?vid=5cc76595-4035-4213-b74e-41dabe622aaf","ios":"levelo://app?vid=5cc76595-4035-4213-b74e-41dabe622aaf"},"vehicle_type_id":"4","last_reported":1700928495,"current_range_meters":3600,"station_id":"ce4bhnh2rcd13ifvqgug","pricing_plan_id":"free"},{"bike_id":"432be4e7-4f12-4c91-9228-cd27aa653801","system_id":"levelo_inurba_marseille","lat":43.28154,"lon":5.42646,"is_reserved":false,"is_disabled":false,"rental_uris":{"android":"levelo://app?vid=432be4e7-4f12-4c91-9228-cd27aa653801","ios":"levelo://app?vid=432be4e7-4f12-4c91-9228-cd27aa653801"},"vehicle_type_id":"4","last_reported":1700928495,"current_range_meters":24800,"station_id":"ce4bhnh2rcd13ifvqgug","pricing_plan_id":"free"},{"bike_id":"c85f7616-3a9e-47a4-ae16-28a03e51ab4f","system_id":"levelo_inurba_marseille","lat":43.28929,"lon":5.43879,"is_reserved":false,"is_disabled":false,"rental_uris":{"android":"levelo://app?vid=c85f7616-3a9e-47a4-ae16-28a03e51ab4f","ios":"levelo://app?vid=c85f7616-3a9e-47a4-ae16-28a03e51ab4f"},"vehicle_type_id":"4","last_reported":1700928495,"current_range_meters":7200,"station_id":"","pricing_plan_id":"free"},{"bike_id":"d198d12f-0abc-4bfd-a8f9-847f2216d2e0","system_id":"levelo_inurba_marseille","lat":43.255839,"lon":5.382254,"is_reserved":false,"is_disabled":false,"rental_uris":{"android":"levelo://app?vid=d198d12f-0abc-4bfd-a8f9-847f2216d2e0","ios":"levelo://app?vid=d198d12f-0abc-4bfd-a8f9-847f2216d2e0"},"vehicle_type_id":"4","last_reported":1700928495,"current_range_meters":0,"station_id":"ce4bhih2rcd13ifvqfs0","pricing_plan_id":"free"},{"bike_id":"821dbf6f-d1a2-444e-93f1-e0d18374f436","system_id":"levelo_inurba_marseille","lat":43.254947,"lon":5.376454,"is_reserved":false,"is_disabled":false,"rental_uris":{"android":"levelo://app?vid=821dbf6f-d1a2-444e-93f1-e0d18374f436","ios":"levelo://app?vid=821dbf6f-d1a2-444e-93f1-e0d18374f436"},"vehicle_type_id":"4","last_reported":1700928495,"current_range_meters":6400,"station_id":"ce4bhh12rcd13ifvqff0","pricing_plan_id":"free"},{"bike_id":"58013ce8-48b7-45d1-9e14-746536035553","system_id":"levelo_inurba_marseille","lat":43.254947,"lon":5.376454,"is_reserved":false,"is_disabled":false,"rental_uris":{"android":"levelo://app?vid=58013ce8-48b7-45d1-9e14-746536035553","ios":"levelo://app?vid=58013ce8-48b7-45d1-9e14-746536035553"},"vehicle_type_id":"4","last_reported":1700928495,"current_range_meters":14400,"station_id":"ce4bhh12rcd13ifvqff0","pricing_plan_id":"free"},{"bike_id":"d8474369-1a04-4104-9fc4-5457ce1a56ee","system_id":"levelo_inurba_marseille","lat":43.254945,"lon":5.376454,"is_reserved":false,"is_disabled":false,"rental_uris":{"android":"levelo://app?vid=d8474369-1a04-4104-9fc4-5457ce1a56ee","ios":"levelo://app?vid=d8474369-1a04-4104-9fc4-5457ce1a56ee"},"vehicle_type_id":"4","last_reported":1700928495,"current_range_meters":12800,"station_id":"ce4bhh12rcd13ifvqff0","pricing_plan_id":"free"},{"bike_id":"e06a8c78-4d48-491c-8072-84514714cbe8","system_id":"levelo_inurba_marseille","lat":43.270721,"lon":5.422764,"is_reserved":false,"is_disabled":false,"rental_uris":{"android":"levelo://app?vid=e06a8c78-4d48-491c-8072-84514714cbe8","ios":"levelo://app?vid=e06a8c78-4d48-491c-8072-84514714cbe8"},"vehicle_type_id":"4","last_reported":1700928495,"current_range_meters":20000,"station_id":"ce4bhk92rcd13ifvqgb0","pricing_plan_id":"free"},{"bike_id":"b71dc349-f270-4daf-b44a-f8ceede7b030","system_id":"levelo_inurba_marseille","lat":43.258658,"lon":5.398935,"is_reserved":false,"is_disabled":false,"rental_uris":{"android":"levelo://app?vid=b71dc349-f270-4daf-b44a-f8ceede7b030","ios":"levelo://app?vid=b71dc349-f270-4daf-b44a-f8ceede7b030"},"vehicle_type_id":"4","last_reported":1700928495,"current_range_meters":4400,"station_id":"ce4bhl92rcd13ifvqghg","pricing_plan_id":"free"},{"bike_id":"5bfa5702-a56e-4ddf-bcfa-28e9f1b5811e","system_id":"levelo_inurba_marseille","lat":43.24806,"lon":5.37459,"is_reserved":false,"is_disabled":false,"rental_uris":{"android":"levelo://app?vid=5bfa5702-a56e-4ddf-bcfa-28e9f1b5811e","ios":"levelo://app?vid=5bfa5702-a56e-4ddf-bcfa-28e9f1b5811e"},"vehicle_type_id":"4","last_reported":1700928495,"current_range_meters":13200,"station_id":"ce4bhgh2rcd13ifvqfb0","pricing_plan_id":"free"},{"bike_id":"3b7e7d1f-285d-4f99-adbd-962853e9dec0","system_id":"levelo_inurba_marseille","lat":43.248039,"lon":5.374508,"is_reserved":false,"is_disabled":false,"rental_uris":{"android":"levelo://app?vid=3b7e7d1f-285d-4f99-adbd-962853e9dec0","ios":"levelo://app?vid=3b7e7d1f-285d-4f99-adbd-962853e9dec0"},"vehicle_type_id":"4","last_reported":1700928495,"current_range_meters":26000,"station_id":"ce4bhgh2rcd13ifvqfb0","pricing_plan_id":"free"},{"bike_id":"10c62fae-8a47-463b-8792-10f3343efd0c","system_id":"levelo_inurba_marseille","lat":43.2479,"lon":5.374457,"is_reserved":false,"is_disabled":false,"rental_uris":{"android":"levelo://app?vid=10c62fae-8a47-463b-8792-10f3343efd0c","ios":"levelo://app?vid=10c62fae-8a47-463b-8792-10f3343efd0c"},"vehicle_type_id":"4","last_reported":1700928495,"current_range_meters":26800,"station_id":"ce4bhgh2rcd13ifvqfb0","pricing_plan_id":"free"},{"bike_id":"02d75adc-1043-49bf-8a92-cc2e66fe63fc","system_id":"levelo_inurba_marseille","lat":43.248029,"lon":5.374608,"is_reserved":false,"is_disabled":false,"rental_uris":{"android":"levelo://app?vid=02d75adc-1043-49bf-8a92-cc2e66fe63fc","ios":"levelo://app?vid=02d75adc-1043-49bf-8a92-cc2e66fe63fc"},"vehicle_type_id":"4","last_reported":1700928495,"current_range_meters":13200,"station_id":"ce4bhgh2rcd13ifvqfb0","pricing_plan_id":"free"},{"bike_id":"9f25f169-67f2-47e3-af1e-d9938ed07875","system_id":"levelo_inurba_marseille","lat":43.2479,"lon":5.374457,"is_reserved":false,"is_disabled":false,"rental_uris":{"android":"levelo://app?vid=9f25f169-67f2-47e3-af1e-d9938ed07875","ios":"levelo://app?vid=9f25f169-67f2-47e3-af1e-d9938ed07875"},"vehicle_type_id":"4","last_reported":1700928495,"current_range_meters":31200,"station_id":"ce4bhgh2rcd13ifvqfb0","pricing_plan_id":"free"},{"bike_id":"dfaf72fd-f8c0-4ad8-86ca-649b7b5390a7","system_id":"levelo_inurba_marseille","lat":43.250966,"lon":5.395186,"is_reserved":false,"is_disabled":false,"rental_uris":{"android":"levelo://app?vid=dfaf72fd-f8c0-4ad8-86ca-649b7b5390a7","ios":"levelo://app?vid=dfaf72fd-f8c0-4ad8-86ca-649b7b5390a7"},"vehicle_type_id":"4","last_reported":1700928495,"current_range_meters":18800,"station_id":"ce4bhm12rcd13ifvqgkg","pricing_plan_id":"free"},{"bike_id":"4e22f755-9fb8-454a-aed8-0ce31691dc80","system_id":"levelo_inurba_marseille","lat":43.2473,"lon":5.37395,"is_reserved":false,"is_disabled":false,"rental_uris":{"android":"levelo://app?vid=4e22f755-9fb8-454a-aed8-0ce31691dc80","ios":"levelo://app?vid=4e22f755-9fb8-454a-aed8-0ce31691dc80"},"vehicle_type_id":"4","last_reported":1700928495,"current_range_meters":18800,"station_id":"","pricing_plan_id":"free"},{"bike_id":"a8123fe9-ac5d-4188-9592-822f8f09d18c","system_id":"levelo_inurba_marseille","lat":43.24693,"lon":5.382096,"is_reserved":false,"is_disabled":false,"rental_uris":{"android":"levelo://app?vid=a8123fe9-ac5d-4188-9592-822f8f09d18c","ios":"levelo://app?vid=a8123fe9-ac5d-4188-9592-822f8f09d18c"},"vehicle_type_id":"4","last_reported":1700928495,"current_range_meters":30800,"station_id":"ce4bhih2rcd13ifvqfr0","pricing_plan_id":"free"},{"bike_id":"2b3837b8-8f70-41a7-9ab3-f0345e53423e","system_id":"levelo_inurba_marseille","lat":43.24693,"lon":5.382096,"is_reserved":false,"is_disabled":false,"rental_uris":{"android":"levelo://app?vid=2b3837b8-8f70-41a7-9ab3-f0345e53423e","ios":"levelo://app?vid=2b3837b8-8f70-41a7-9ab3-f0345e53423e"},"vehicle_type_id":"4","last_reported":1700928495,"current_range_meters":25200,"station_id":"ce4bhih2rcd13ifvqfr0","pricing_plan_id":"free"},{"bike_id":"60a5031d-5930-4e56-ba57-bd5972c1e3a1","system_id":"levelo_inurba_marseille","lat":43.246467,"lon":5.388984,"is_reserved":false,"is_disabled":false,"rental_uris":{"android":"levelo://app?vid=60a5031d-5930-4e56-ba57-bd5972c1e3a1","ios":"levelo://app?vid=60a5031d-5930-4e56-ba57-bd5972c1e3a1"},"vehicle_type_id":"4","last_reported":1700928495,"current_range_meters":8000,"station_id":"ce4bhg12rcd13ifvqf60","pricing_plan_id":"free"},{"bike_id":"16cbc471-e842-49b7-be91-1309994883e2","system_id":"levelo_inurba_marseille","lat":43.246425,"lon":5.38896,"is_reserved":false,"is_disabled":false,"rental_uris":{"android":"levelo://app?vid=16cbc471-e842-49b7-be91-1309994883e2","ios":"levelo://app?vid=16cbc471-e842-49b7-be91-1309994883e2"},"vehicle_type_id":"4","last_reported":1700928495,"current_range_meters":25200,"station_id":"ce4bhg12rcd13ifvqf60","pricing_plan_id":"free"},{"bike_id":"90604205-3676-4845-9812-e9f9728828ed","system_id":"levelo_inurba_marseille","lat":43.243884,"lon":5.370737,"is_reserved":false,"is_disabled":false,"rental_uris":{"android":"levelo://app?vid=90604205-3676-4845-9812-e9f9728828ed","ios":"levelo://app?vid=90604205-3676-4845-9812-e9f9728828ed"},"vehicle_type_id":"4","last_reported":1700928495,"current_range_meters":30400,"station_id":"ce4bhhh2rcd13ifvqfk0","pricing_plan_id":"free"},{"bike_id":"768424e9-ddf3-4733-903b-2d0e006982a0","system_id":"levelo_inurba_marseille","lat":43.243884,"lon":5.370736,"is_reserved":false,"is_disabled":false,"rental_uris":{"android":"levelo://app?vid=768424e9-ddf3-4733-903b-2d0e006982a0","ios":"levelo://app?vid=768424e9-ddf3-4733-903b-2d0e006982a0"},"vehicle_type_id":"4","last_reported":1700928495,"current_range_meters":29200,"station_id":"ce4bhhh2rcd13ifvqfk0","pricing_plan_id":"free"},{"bike_id":"f208a7fe-6a06-4894-b966-a0fabce96d98","system_id":"levelo_inurba_marseille","lat":43.245581,"lon":5.395069,"is_reserved":false,"is_disabled":false,"rental_uris":{"android":"levelo://app?vid=f208a7fe-6a06-4894-b966-a0fabce96d98","ios":"levelo://app?vid=f208a7fe-6a06-4894-b966-a0fabce96d98"},"vehicle_type_id":"4","last_reported":1700928495,"current_range_meters":31200,"station_id":"ce4bhlp2rcd13ifvqgjg","pricing_plan_id":"free"},{"bike_id":"f7cc8406-3293-4d5b-aced-f6e97219fe55","system_id":"levelo_inurba_marseille","lat":43.245581,"lon":5.395069,"is_reserved":false,"is_disabled":false,"rental_uris":{"android":"levelo://app?vid=f7cc8406-3293-4d5b-aced-f6e97219fe55","ios":"levelo://app?vid=f7cc8406-3293-4d5b-aced-f6e97219fe55"},"vehicle_type_id":"4","last_reported":1700928495,"current_range_meters":9600,"station_id":"ce4bhlp2rcd13ifvqgjg","pricing_plan_id":"free"},{"bike_id":"7f996a89-3195-4520-a8ed-8972c31a4170","system_id":"levelo_inurba_marseille","lat":43.245581,"lon":5.395069,"is_reserved":false,"is_disabled":false,"rental_uris":{"android":"levelo://app?vid=7f996a89-3195-4520-a8ed-8972c31a4170","ios":"levelo://app?vid=7f996a89-3195-4520-a8ed-8972c31a4170"},"vehicle_type_id":"4","last_reported":1700928495,"current_range_meters":25600,"station_id":"ce4bhlp2rcd13ifvqgjg","pricing_plan_id":"free"},{"bike_id":"a7a1f803-9cf3-455f-b57c-af2a4ef89796","system_id":"levelo_inurba_marseille","lat":43.245581,"lon":5.395069,"is_reserved":false,"is_disabled":false,"rental_uris":{"android":"levelo://app?vid=a7a1f803-9cf3-455f-b57c-af2a4ef89796","ios":"levelo://app?vid=a7a1f803-9cf3-455f-b57c-af2a4ef89796"},"vehicle_type_id":"4","last_reported":1700928495,"current_range_meters":8400,"station_id":"ce4bhlp2rcd13ifvqgjg","pricing_plan_id":"free"},{"bike_id":"aacee138-95eb-4dc4-8c3b-28f2bee62089","system_id":"levelo_inurba_marseille","lat":43.24074,"lon":5.37758,"is_reserved":false,"is_disabled":false,"rental_uris":{"android":"levelo://app?vid=aacee138-95eb-4dc4-8c3b-28f2bee62089","ios":"levelo://app?vid=aacee138-95eb-4dc4-8c3b-28f2bee62089"},"vehicle_type_id":"4","last_reported":1700928495,"current_range_meters":16800,"station_id":"ce4bhnp2rcd13ifvqgvg","pricing_plan_id":"free"},{"bike_id":"1cb96f04-f422-460b-925f-998463caffcc","system_id":"levelo_inurba_marseille","lat":43.240688,"lon":5.377517,"is_reserved":false,"is_disabled":false,"rental_uris":{"android":"levelo://app?vid=1cb96f04-f422-460b-925f-998463caffcc","ios":"levelo://app?vid=1cb96f04-f422-460b-925f-998463caffcc"},"vehicle_type_id":"4","last_reported":1700928495,"current_range_meters":31200,"station_id":"ce4bhnp2rcd13ifvqgvg","pricing_plan_id":"free"},{"bike_id":"ff01dbe1-223f-43a9-b0c6-51a5a8d2ed05","system_id":"levelo_inurba_marseille","lat":43.239588,"lon":5.366238,"is_reserved":false,"is_disabled":false,"rental_uris":{"android":"levelo://app?vid=ff01dbe1-223f-43a9-b0c6-51a5a8d2ed05","ios":"levelo://app?vid=ff01dbe1-223f-43a9-b0c6-51a5a8d2ed05"},"vehicle_type_id":"4","last_reported":1700928495,"current_range_meters":31600,"station_id":"ce4bhi12rcd13ifvqfp0","pricing_plan_id":"free"},{"bike_id":"2928aec4-a092-4b20-8697-2fcf599c9821","system_id":"levelo_inurba_marseille","lat":43.239588,"lon":5.366238,"is_reserved":false,"is_disabled":false,"rental_uris":{"android":"levelo://app?vid=2928aec4-a092-4b20-8697-2fcf599c9821","ios":"levelo://app?vid=2928aec4-a092-4b20-8697-2fcf599c9821"},"vehicle_type_id":"4","last_reported":1700928495,"current_range_meters":26000,"station_id":"ce4bhi12rcd13ifvqfp0","pricing_plan_id":"free"},{"bike_id":"340ba89e-beb6-4edd-9f37-a6ad2b2c6a9c","system_id":"levelo_inurba_marseille","lat":43.239588,"lon":5.366238,"is_reserved":false,"is_disabled":false,"rental_uris":{"android":"levelo://app?vid=340ba89e-beb6-4edd-9f37-a6ad2b2c6a9c","ios":"levelo://app?vid=340ba89e-beb6-4edd-9f37-a6ad2b2c6a9c"},"vehicle_type_id":"4","last_reported":1700928495,"current_range_meters":14800,"station_id":"ce4bhi12rcd13ifvqfp0","pricing_plan_id":"free"},{"bike_id":"c8b0fc92-e06b-450c-b7d7-d6ab9ca59443","system_id":"levelo_inurba_marseille","lat":43.239588,"lon":5.366238,"is_reserved":false,"is_disabled":false,"rental_uris":{"android":"levelo://app?vid=c8b0fc92-e06b-450c-b7d7-d6ab9ca59443","ios":"levelo://app?vid=c8b0fc92-e06b-450c-b7d7-d6ab9ca59443"},"vehicle_type_id":"4","last_reported":1700928495,"current_range_meters":31200,"station_id":"ce4bhi12rcd13ifvqfp0","pricing_plan_id":"free"},{"bike_id":"4da7c850-c01b-49e2-97e3-0a093981264d","system_id":"levelo_inurba_marseille","lat":43.239588,"lon":5.366238,"is_reserved":false,"is_disabled":false,"rental_uris":{"android":"levelo://app?vid=4da7c850-c01b-49e2-97e3-0a093981264d","ios":"levelo://app?vid=4da7c850-c01b-49e2-97e3-0a093981264d"},"vehicle_type_id":"4","last_reported":1700928495,"current_range_meters":30800,"station_id":"ce4bhi12rcd13ifvqfp0","pricing_plan_id":"free"},{"bike_id":"8ddc8e40-82e4-4cc6-90af-c119357648f0","system_id":"levelo_inurba_marseille","lat":43.239588,"lon":5.366238,"is_reserved":false,"is_disabled":false,"rental_uris":{"android":"levelo://app?vid=8ddc8e40-82e4-4cc6-90af-c119357648f0","ios":"levelo://app?vid=8ddc8e40-82e4-4cc6-90af-c119357648f0"},"vehicle_type_id":"4","last_reported":1700928495,"current_range_meters":26000,"station_id":"ce4bhi12rcd13ifvqfp0","pricing_plan_id":"free"},{"bike_id":"47e43998-06a7-44f6-a336-05874a757f9d","system_id":"levelo_inurba_marseille","lat":43.239588,"lon":5.366238,"is_reserved":false,"is_disabled":false,"rental_uris":{"android":"levelo://app?vid=47e43998-06a7-44f6-a336-05874a757f9d","ios":"levelo://app?vid=47e43998-06a7-44f6-a336-05874a757f9d"},"vehicle_type_id":"4","last_reported":1700928495,"current_range_meters":16400,"station_id":"ce4bhi12rcd13ifvqfp0","pricing_plan_id":"free"},{"bike_id":"a59a9f52-9d06-4b12-9392-cdd5f569c2ca","system_id":"levelo_inurba_marseille","lat":43.239588,"lon":5.366238,"is_reserved":false,"is_disabled":false,"rental_uris":{"android":"levelo://app?vid=a59a9f52-9d06-4b12-9392-cdd5f569c2ca","ios":"levelo://app?vid=a59a9f52-9d06-4b12-9392-cdd5f569c2ca"},"vehicle_type_id":"4","last_reported":1700928495,"current_range_meters":30400,"station_id":"ce4bhi12rcd13ifvqfp0","pricing_plan_id":"free"},{"bike_id":"fc6ccc5a-bc4d-4544-a669-27960c9fde66","system_id":"levelo_inurba_marseille","lat":43.239588,"lon":5.366238,"is_reserved":false,"is_disabled":false,"rental_uris":{"android":"levelo://app?vid=fc6ccc5a-bc4d-4544-a669-27960c9fde66","ios":"levelo://app?vid=fc6ccc5a-bc4d-4544-a669-27960c9fde66"},"vehicle_type_id":"4","last_reported":1700928495,"current_range_meters":19600,"station_id":"ce4bhi12rcd13ifvqfp0","pricing_plan_id":"free"},{"bike_id":"b3ffab4a-cf52-4b4f-9f0f-fcb873d0f038","system_id":"levelo_inurba_marseille","lat":43.239588,"lon":5.366285,"is_reserved":false,"is_disabled":false,"rental_uris":{"android":"levelo://app?vid=b3ffab4a-cf52-4b4f-9f0f-fcb873d0f038","ios":"levelo://app?vid=b3ffab4a-cf52-4b4f-9f0f-fcb873d0f038"},"vehicle_type_id":"4","last_reported":1700928495,"current_range_meters":30800,"station_id":"ce4bhi12rcd13ifvqfp0","pricing_plan_id":"free"},{"bike_id":"5463f889-e9a8-41c6-b150-294b88a9f82e","system_id":"levelo_inurba_marseille","lat":43.239588,"lon":5.366238,"is_reserved":false,"is_disabled":false,"rental_uris":{"android":"levelo://app?vid=5463f889-e9a8-41c6-b150-294b88a9f82e","ios":"levelo://app?vid=5463f889-e9a8-41c6-b150-294b88a9f82e"},"vehicle_type_id":"4","last_reported":1700928495,"current_range_meters":31200,"station_id":"ce4bhi12rcd13ifvqfp0","pricing_plan_id":"free"},{"bike_id":"fb7be5a0-e980-436b-ac60-879a3e279215","system_id":"levelo_inurba_marseille","lat":43.239588,"lon":5.366238,"is_reserved":false,"is_disabled":false,"rental_uris":{"android":"levelo://app?vid=fb7be5a0-e980-436b-ac60-879a3e279215","ios":"levelo://app?vid=fb7be5a0-e980-436b-ac60-879a3e279215"},"vehicle_type_id":"4","last_reported":1700928495,"current_range_meters":23600,"station_id":"ce4bhi12rcd13ifvqfp0","pricing_plan_id":"free"},{"bike_id":"9b6ea2bc-c07b-4fb3-9842-e31e8e6afe2e","system_id":"levelo_inurba_marseille","lat":43.241782,"lon":5.397264,"is_reserved":false,"is_disabled":false,"rental_uris":{"android":"levelo://app?vid=9b6ea2bc-c07b-4fb3-9842-e31e8e6afe2e","ios":"levelo://app?vid=9b6ea2bc-c07b-4fb3-9842-e31e8e6afe2e"},"vehicle_type_id":"4","last_reported":1700928495,"current_range_meters":4000,"station_id":"ce4bhn12rcd13ifvqgpg","pricing_plan_id":"free"},{"bike_id":"7136fe83-e669-4cf1-a166-53531a5f3b53","system_id":"levelo_inurba_marseille","lat":43.241782,"lon":5.397261,"is_reserved":false,"is_disabled":false,"rental_uris":{"android":"levelo://app?vid=7136fe83-e669-4cf1-a166-53531a5f3b53","ios":"levelo://app?vid=7136fe83-e669-4cf1-a166-53531a5f3b53"},"vehicle_type_id":"4","last_reported":1700928495,"current_range_meters":19600,"station_id":"ce4bhn12rcd13ifvqgpg","pricing_plan_id":"free"},{"bike_id":"c38c5c18-9f2e-4694-b97d-1563bb63a789","system_id":"levelo_inurba_marseille","lat":43.265714,"lon":5.372891,"is_reserved":false,"is_disabled":false,"rental_uris":{"android":"levelo://app?vid=c38c5c18-9f2e-4694-b97d-1563bb63a789","ios":"levelo://app?vid=c38c5c18-9f2e-4694-b97d-1563bb63a789"},"vehicle_type_id":"4","last_reported":1700928495,"current_range_meters":0,"station_id":"ce4bhg12rcd13ifvqf70","pricing_plan_id":"free"},{"bike_id":"0a349838-8936-442e-8a55-c173dbb54834","system_id":"levelo_inurba_marseille","lat":43.23195,"lon":5.35562,"is_reserved":false,"is_disabled":false,"rental_uris":{"android":"levelo://app?vid=0a349838-8936-442e-8a55-c173dbb54834","ios":"levelo://app?vid=0a349838-8936-442e-8a55-c173dbb54834"},"vehicle_type_id":"4","last_reported":1700928495,"current_range_meters":25200,"station_id":"ce4bhu92rcd13ifvqi70","pricing_plan_id":"free"},{"bike_id":"76da77ba-a8a2-45d9-bea0-75d9631bba15","system_id":"levelo_inurba_marseille","lat":43.231923,"lon":5.355545,"is_reserved":false,"is_disabled":false,"rental_uris":{"android":"levelo://app?vid=76da77ba-a8a2-45d9-bea0-75d9631bba15","ios":"levelo://app?vid=76da77ba-a8a2-45d9-bea0-75d9631bba15"},"vehicle_type_id":"4","last_reported":1700928495,"current_range_meters":29600,"station_id":"ce4bhu92rcd13ifvqi70","pricing_plan_id":"free"},{"bike_id":"dcc8f0d2-659c-44cb-9a1d-9d57ae623781","system_id":"levelo_inurba_marseille","lat":43.23194,"lon":5.35561,"is_reserved":false,"is_disabled":false,"rental_uris":{"android":"levelo://app?vid=dcc8f0d2-659c-44cb-9a1d-9d57ae623781","ios":"levelo://app?vid=dcc8f0d2-659c-44cb-9a1d-9d57ae623781"},"vehicle_type_id":"4","last_reported":1700928495,"current_range_meters":20400,"station_id":"ce4bhu92rcd13ifvqi70","pricing_plan_id":"free"},{"bike_id":"48217564-eee6-47a9-ae01-f8f1659e40db","system_id":"levelo_inurba_marseille","lat":43.231923,"lon":5.355545,"is_reserved":false,"is_disabled":false,"rental_uris":{"android":"levelo://app?vid=48217564-eee6-47a9-ae01-f8f1659e40db","ios":"levelo://app?vid=48217564-eee6-47a9-ae01-f8f1659e40db"},"vehicle_type_id":"4","last_reported":1700928495,"current_range_meters":31200,"station_id":"ce4bhu92rcd13ifvqi70","pricing_plan_id":"free"},{"bike_id":"b6ad3896-d180-4d39-a4d6-8a7be3e8c6bd","system_id":"levelo_inurba_marseille","lat":43.231923,"lon":5.355545,"is_reserved":false,"is_disabled":false,"rental_uris":{"android":"levelo://app?vid=b6ad3896-d180-4d39-a4d6-8a7be3e8c6bd","ios":"levelo://app?vid=b6ad3896-d180-4d39-a4d6-8a7be3e8c6bd"},"vehicle_type_id":"4","last_reported":1700928495,"current_range_meters":30000,"station_id":"ce4bhu92rcd13ifvqi70","pricing_plan_id":"free"},{"bike_id":"2c965575-bc91-4e3f-b6d2-1df5b195e3bf","system_id":"levelo_inurba_marseille","lat":43.2319,"lon":5.35559,"is_reserved":false,"is_disabled":false,"rental_uris":{"android":"levelo://app?vid=2c965575-bc91-4e3f-b6d2-1df5b195e3bf","ios":"levelo://app?vid=2c965575-bc91-4e3f-b6d2-1df5b195e3bf"},"vehicle_type_id":"4","last_reported":1700928495,"current_range_meters":20800,"station_id":"ce4bhu92rcd13ifvqi70","pricing_plan_id":"free"},{"bike_id":"7c452091-db19-49ff-981f-9f7b98bf281e","system_id":"levelo_inurba_marseille","lat":43.231808,"lon":5.399781,"is_reserved":false,"is_disabled":false,"rental_uris":{"android":"levelo://app?vid=7c452091-db19-49ff-981f-9f7b98bf281e","ios":"levelo://app?vid=7c452091-db19-49ff-981f-9f7b98bf281e"},"vehicle_type_id":"4","last_reported":1700928495,"current_range_meters":0,"station_id":"","pricing_plan_id":"free"},{"bike_id":"23a1829f-9a6c-49bf-9a74-ced5b141be40","system_id":"levelo_inurba_marseille","lat":43.23787,"lon":5.43222,"is_reserved":false,"is_disabled":false,"rental_uris":{"android":"levelo://app?vid=23a1829f-9a6c-49bf-9a74-ced5b141be40","ios":"levelo://app?vid=23a1829f-9a6c-49bf-9a74-ced5b141be40"},"vehicle_type_id":"4","last_reported":1700928495,"current_range_meters":2800,"station_id":"","pricing_plan_id":"free"},{"bike_id":"0508bfaa-dc89-4d6c-bd00-5fdfebdcd3d7","system_id":"levelo_inurba_marseille","lat":43.231562,"lon":5.436933,"is_reserved":false,"is_disabled":false,"rental_uris":{"android":"levelo://app?vid=0508bfaa-dc89-4d6c-bd00-5fdfebdcd3d7","ios":"levelo://app?vid=0508bfaa-dc89-4d6c-bd00-5fdfebdcd3d7"},"vehicle_type_id":"4","last_reported":1700928495,"current_range_meters":30000,"station_id":"ce4bhmp2rcd13ifvqgog","pricing_plan_id":"free"},{"bike_id":"9f5a8eea-995a-45d5-8a53-0f7fe9b11cc0","system_id":"levelo_inurba_marseille","lat":43.231562,"lon":5.436933,"is_reserved":false,"is_disabled":false,"rental_uris":{"android":"levelo://app?vid=9f5a8eea-995a-45d5-8a53-0f7fe9b11cc0","ios":"levelo://app?vid=9f5a8eea-995a-45d5-8a53-0f7fe9b11cc0"},"vehicle_type_id":"4","last_reported":1700928495,"current_range_meters":15200,"station_id":"ce4bhmp2rcd13ifvqgog","pricing_plan_id":"free"},{"bike_id":"fa6e6170-c6e0-4eea-ae59-68e940aa4abf","system_id":"levelo_inurba_marseille","lat":43.231562,"lon":5.436933,"is_reserved":false,"is_disabled":false,"rental_uris":{"android":"levelo://app?vid=fa6e6170-c6e0-4eea-ae59-68e940aa4abf","ios":"levelo://app?vid=fa6e6170-c6e0-4eea-ae59-68e940aa4abf"},"vehicle_type_id":"4","last_reported":1700928495,"current_range_meters":28400,"station_id":"ce4bhmp2rcd13ifvqgog","pricing_plan_id":"free"},{"bike_id":"cc2a9f89-2b4a-422c-9aac-e0b99b845eba","system_id":"levelo_inurba_marseille","lat":43.231562,"lon":5.436933,"is_reserved":false,"is_disabled":false,"rental_uris":{"android":"levelo://app?vid=cc2a9f89-2b4a-422c-9aac-e0b99b845eba","ios":"levelo://app?vid=cc2a9f89-2b4a-422c-9aac-e0b99b845eba"},"vehicle_type_id":"4","last_reported":1700928495,"current_range_meters":31200,"station_id":"ce4bhmp2rcd13ifvqgog","pricing_plan_id":"free"}]}}