{"last_updated":1758661680,"ttl":60,"version":"2.2","data":{"bikes":[{"bike_id":"1b790372-5d34-489f-a29a-5f2319ad70e0","system_id":"levelo_inurba_marseille","lat":43.28261,"lon":5.35048,"is_reserved":false,"is_disabled":true,"rental_uris":{"android":"levelo://app?vid=1b790372-5d34-489f-a29a-5f2319ad70e0","ios":"levelo://app?vid=1b790372-5d34-489f-a29a-5f2319ad70e0"},"vehicle_type_id":"4","last_reported":1758661680,"current_range_meters":2800,"station_id":"ce4bhbp2rcd13ifvqerg","pricing_plan_id":"cebpf4jnsgd1na2vs0mg"},{"bike_id":"6ab4a66e-7a65-4f29-b789-936dd211b77a","system_id":"levelo_inurba_marseille","lat":43.30897,"lon":5.37879,"is_reserved":false,"is_disabled":false,"rental_uris":{"android":"levelo://app?vid=6ab4a66e-7a65-4f29-b789-936dd211b77a","ios":"levelo://app?vid=6ab4a66e-7a65-4f29-b789-936dd211b77a"},"vehicle_type_id":"4","last_reported":1758661680,"current_range_meters":3600,"station_id":"","pricing_plan_id":"cebpf4jnsgd1na2vs0mg"},{"bike_id":"38a3ff42-31d7-4390-859c-dff1ac97b692","system_id":"levelo_inurba_marseille","lat":43.3059,"lon":5.39353,"is_reserved":false,"is_disabled":false,"rental_uris":{"android":"levelo://app?vid=38a3ff42-31d7-4390-859c-dff1ac97b692","ios":"levelo://app?vid=38a3ff42-31d7-4390-859c-dff1ac97b692"},"vehicle_type_id":"4","last_reported":1758661680,"current_range_meters":3600,"station_id":"ce4bh0p2rcd13ifvqd80","pricing_plan_id":"cebpf4jnsgd1na2vs0mg"},{"bike_id":"9176512c-2cc1-4df2-a8e0-6be514fbcdbf","system_id":"levelo_inurba_marseille","lat":43.33748,"lon":5.37465,"is_reserved":false,"is_disabled":false,"rental_uris":{"android":"levelo://app?vid=9176512c-2cc1-4df2-a8e0-6be514fbcdbf","ios":"levelo://app?vid=9176512c-2cc1-4df2-a8e0-6be514fbcdbf"},"vehicle_type_id":"4","last_reported":1758661680,"current_range_meters":4000,"station_id":"","pricing_plan_id":"cebpf4jnsgd1na2vs0mg"},{"bike_id":"34282301-2be3-44ef-b148-e0598e45c081","system_id":"levelo_inurba_marseille","lat":43.283566,"lon":5.386318,"is_reserved":false,"is_disabled":false,"rental_uris":{"android":"levelo://app?vid=34282301-2be3-44ef-b148-e0598e45c081","ios":"levelo://app?vid=34282301-2be3-44ef-b148-e0598e45c081"},"vehicle_type_id":"4","last_reported":1758661680,"current_range_meters":4400,"station_id":"ce4bh492rcd13ifvqdvg","pricing_plan_id":"cebpf4jnsgd1na2vs0mg"},{"bike_id":"e631c140-47b3-481f-ac38-a5c66ec4c45b","system_id":"levelo_inurba_marseille","lat":43.28614,"lon":5.35112,"is_reserved":false,"is_disabled":false,"rental_uris":{"android":"levelo://app?vid=e631c140-47b3-481f-ac38-a5c66ec4c45b","ios":"levelo://app?vid=e631c140-47b3-481f-ac38-a5c66ec4c45b"},"vehicle_type_id":"4","last_reported":1758661680,"current_range_meters":4800,"station_id":"ce4bhch2rcd13ifvqeug","pricing_plan_id":"cebpf4jnsgd1na2vs0mg"},{"bike_id":"1efddf8d-578f-4e4c-8c3f-e3a8bd592ba4","system_id":"levelo_inurba_marseille","lat":43.29968,"lon":5.37416,"is_reserved":false,"is_disabled":false,"rental_uris":{"android":"levelo://app?vid=1efddf8d-578f-4e4c-8c3f-e3a8bd592ba4","ios":"levelo://app?vid=1efddf8d-578f-4e4c-8c3f-e3a8bd592ba4"},"vehicle_type_id":"4","last_reported":1758661680,"current_range_meters":5600,"station_id":"","pricing_plan_id":"cebpf4jnsgd1na2vs0mg"},{"bike_id":"5ddca04a-c070-432c-b33b-b04adf717b6d","system_id":"levelo_inurba_marseille","lat":43.299747,"lon":5.384802,"is_reserved":false,"is_disabled":false,"rental_uris":{"android":"levelo://app?vid=5ddca04a-c070-432c-b33b-b04adf717b6d","ios":"levelo://app?vid=5ddca04a-c070-432c-b33b-b04adf717b6d"},"vehicle_type_id":"4","last_reported":1758661680,"current_range_meters":5600,"station_id":"","pricing_plan_id":"cebpf4jnsgd1na2vs0mg"},{"bike_id":"75d87321-ee00-48cb-8be8-ec4548a3f5c5","system_id":"levelo_inurba_marseille","lat":43.29794,"lon":5.39345,"is_reserved":false,"is_disabled":false,"rental_uris":{"android":"levelo://app?vid=75d87321-ee00-48cb-8be8-ec4548a3f5c5","ios":"levelo://app?vid=75d87321-ee00-48cb-8be8-ec4548a3f5c5"},"vehicle_type_id":"4","last_reported":1758661680,"current_range_meters":5600,"station_id":"chh1huq6cuj3fo74tm60","pricing_plan_id":"cebpf4jnsgd1na2vs0mg"},{"bike_id":"3d3616ae-55ab-4319-9346-2104e95c171f","system_id":"levelo_inurba_marseille","lat":43.30978,"lon":5.37958,"is_reserved":false,"is_disabled":false,"rental_uris":{"android":"levelo://app?vid=3d3616ae-55ab-4319-9346-2104e95c171f","ios":"levelo://app?vid=3d3616ae-55ab-4319-9346-2104e95c171f"},"vehicle_type_id":"4","last_reported":1758661680,"current_range_meters":6000,"station_id":"","pricing_plan_id":"cebpf4jnsgd1na2vs0mg"},{"bike_id":"698a1659-1be4-4464-8e40-0054e6845364","system_id":"levelo_inurba_marseille","lat":43.294001,"lon":5.403793,"is_reserved":false,"is_disabled":false,"rental_uris":{"android":"levelo://app?vid=698a1659-1be4-4464-8e40-0054e6845364","ios":"levelo://app?vid=698a1659-1be4-4464-8e40-0054e6845364"},"vehicle_type_id":"4","last_reported":1758661680,"current_range_meters":6400,"station_id":"","pricing_plan_id":"cebpf4jnsgd1na2vs0mg"},{"bike_id":"af29bd4a-51c0-47f1-bce0-b9ca138339ea","system_id":"levelo_inurba_marseille","lat":43.31733,"lon":5.43702,"is_reserved":false,"is_disabled":false,"rental_uris":{"android":"levelo://app?vid=af29bd4a-51c0-47f1-bce0-b9ca138339ea","ios":"levelo://app?vid=af29bd4a-51c0-47f1-bce0-b9ca138339ea"},"vehicle_type_id":"4","last_reported":1758661680,"current_range_meters":6400,"station_id":"ce4bhp92rcd13ifvqhcg","pricing_plan_id":"cebpf4jnsgd1na2vs0mg"},{"bike_id":"7fd14ad2-a454-423d-bbfa-04d2678cc6ac","system_id":"levelo_inurba_marseille","lat":43.29756,"lon":5.38122,"is_reserved":false,"is_disabled":false,"rental_uris":{"android":"levelo://app?vid=7fd14ad2-a454-423d-bbfa-04d2678cc6ac","ios":"levelo://app?vid=7fd14ad2-a454-423d-bbfa-04d2678cc6ac"},"vehicle_type_id":"4","last_reported":1758661680,"current_range_meters":6400,"station_id":"","pricing_plan_id":"cebpf4jnsgd1na2vs0mg"},{"bike_id":"3048c076-451e-41d1-9532-619468fd3388","system_id":"levelo_inurba_marseille","lat":43.299591,"lon":5.384985,"is_reserved":false,"is_disabled":false,"rental_uris":{"android":"levelo://app?vid=3048c076-451e-41d1-9532-619468fd3388","ios":"levelo://app?vid=3048c076-451e-41d1-9532-619468fd3388"},"vehicle_type_id":"4","last_reported":1758661680,"current_range_meters":2800,"station_id":"ce4bgj92rcd13ifvqbd0","pricing_plan_id":"cebpf4jnsgd1na2vs0mg"},{"bike_id":"2289a0ff-9c3e-4f79-ad38-4b41158d6057","system_id":"levelo_inurba_marseille","lat":43.29882,"lon":5.37911,"is_reserved":false,"is_disabled":false,"rental_uris":{"android":"levelo://app?vid=2289a0ff-9c3e-4f79-ad38-4b41158d6057","ios":"levelo://app?vid=2289a0ff-9c3e-4f79-ad38-4b41158d6057"},"vehicle_type_id":"4","last_reported":1758661680,"current_range_meters":6400,"station_id":"","pricing_plan_id":"cebpf4jnsgd1na2vs0mg"},{"bike_id":"213937f4-0cd9-48b8-9d64-0b73c37bc721","system_id":"levelo_inurba_marseille","lat":43.29558,"lon":5.38174,"is_reserved":false,"is_disabled":false,"rental_uris":{"android":"levelo://app?vid=213937f4-0cd9-48b8-9d64-0b73c37bc721","ios":"levelo://app?vid=213937f4-0cd9-48b8-9d64-0b73c37bc721"},"vehicle_type_id":"4","last_reported":1758661680,"current_range_meters":6400,"station_id":"","pricing_plan_id":"cebpf4jnsgd1na2vs0mg"},{"bike_id":"5f96afc0-d662-4c3a-9b69-c100a3a6e485","system_id":"levelo_inurba_marseille","lat":43.29368,"lon":5.37844,"is_reserved":false,"is_disabled":false,"rental_uris":{"android":"levelo://app?vid=5f96afc0-d662-4c3a-9b69-c100a3a6e485","ios":"levelo://app?vid=5f96afc0-d662-4c3a-9b69-c100a3a6e485"},"vehicle_type_id":"4","last_reported":1758661680,"current_range_meters":6400,"station_id":"ce4bgjh2rcd13ifvqbf0","pricing_plan_id":"cebpf4jnsgd1na2vs0mg"},{"bike_id":"6c8cc3ce-fb12-4a9c-89df-26b8a040160e","system_id":"levelo_inurba_marseille","lat":43.323933,"lon":5.40666,"is_reserved":false,"is_disabled":false,"rental_uris":{"android":"levelo://app?vid=6c8cc3ce-fb12-4a9c-89df-26b8a040160e","ios":"levelo://app?vid=6c8cc3ce-fb12-4a9c-89df-26b8a040160e"},"vehicle_type_id":"4","last_reported":1758661680,"current_range_meters":6800,"station_id":"ce4bhq92rcd13ifvqhjg","pricing_plan_id":"cebpf4jnsgd1na2vs0mg"},{"bike_id":"437ac4f5-290d-416a-a98a-4488c6ff3899","system_id":"levelo_inurba_marseille","lat":43.31888,"lon":5.40762,"is_reserved":false,"is_disabled":true,"rental_uris":{"android":"levelo://app?vid=437ac4f5-290d-416a-a98a-4488c6ff3899","ios":"levelo://app?vid=437ac4f5-290d-416a-a98a-4488c6ff3899"},"vehicle_type_id":"4","last_reported":1758661680,"current_range_meters":7200,"station_id":"ce4bhq12rcd13ifvqhig","pricing_plan_id":"cebpf4jnsgd1na2vs0mg"},{"bike_id":"0a01135f-eede-42bc-aee3-bf3588f52249","system_id":"levelo_inurba_marseille","lat":43.31063,"lon":5.38351,"is_reserved":false,"is_disabled":false,"rental_uris":{"android":"levelo://app?vid=0a01135f-eede-42bc-aee3-bf3588f52249","ios":"levelo://app?vid=0a01135f-eede-42bc-aee3-bf3588f52249"},"vehicle_type_id":"4","last_reported":1758661680,"current_range_meters":8000,"station_id":"ce4bgv92rcd13ifvqcr0","pricing_plan_id":"cebpf4jnsgd1na2vs0mg"},{"bike_id":"1bff3ddd-cb47-4505-945d-5f18820dd971","system_id":"levelo_inurba_marseille","lat":43.31322,"lon":5.3969,"is_reserved":false,"is_disabled":false,"rental_uris":{"android":"levelo://app?vid=1bff3ddd-cb47-4505-945d-5f18820dd971","ios":"levelo://app?vid=1bff3ddd-cb47-4505-945d-5f18820dd971"},"vehicle_type_id":"4","last_reported":1758661680,"current_range_meters":8000,"station_id":"ce4bgvp2rcd13ifvqcu0","pricing_plan_id":"cebpf4jnsgd1na2vs0mg"},{"bike_id":"eed2cf9a-36d5-4639-8402-2398b6fbd4cf","system_id":"levelo_inurba_marseille","lat":43.21779,"lon":5.34597,"is_reserved":false,"is_disabled":false,"rental_uris":{"android":"levelo://app?vid=eed2cf9a-36d5-4639-8402-2398b6fbd4cf","ios":"levelo://app?vid=eed2cf9a-36d5-4639-8402-2398b6fbd4cf"},"vehicle_type_id":"4","last_reported":1758661680,"current_range_meters":8000,"station_id":"st_cvj6r9ubvosntc0bgbag","pricing_plan_id":"cebpf4jnsgd1na2vs0mg"},{"bike_id":"1c33786c-7cc5-4fdb-8622-b889bc0f1c9c","system_id":"levelo_inurba_marseille","lat":43.30929,"lon":5.40143,"is_reserved":false,"is_disabled":false,"rental_uris":{"android":"levelo://app?vid=1c33786c-7cc5-4fdb-8622-b889bc0f1c9c","ios":"levelo://app?vid=1c33786c-7cc5-4fdb-8622-b889bc0f1c9c"},"vehicle_type_id":"4","last_reported":1758661680,"current_range_meters":8000,"station_id":"ce4bgvp2rcd13ifvqct0","pricing_plan_id":"cebpf4jnsgd1na2vs0mg"},{"bike_id":"82304ba4-71d4-444b-a52b-5e234edb762c","system_id":"levelo_inurba_marseille","lat":43.22945,"lon":5.35374,"is_reserved":false,"is_disabled":false,"rental_uris":{"android":"levelo://app?vid=82304ba4-71d4-444b-a52b-5e234edb762c","ios":"levelo://app?vid=82304ba4-71d4-444b-a52b-5e234edb762c"},"vehicle_type_id":"4","last_reported":1758661680,"current_range_meters":8000,"station_id":"","pricing_plan_id":"cebpf4jnsgd1na2vs0mg"},{"bike_id":"d6a62b3c-f468-4e3c-993f-9f5010808096","system_id":"levelo_inurba_marseille","lat":43.28451,"lon":5.35896,"is_reserved":false,"is_disabled":false,"rental_uris":{"android":"levelo://app?vid=d6a62b3c-f468-4e3c-993f-9f5010808096","ios":"levelo://app?vid=d6a62b3c-f468-4e3c-993f-9f5010808096"},"vehicle_type_id":"4","last_reported":1758661680,"current_range_meters":8000,"station_id":"ce4bhah2rcd13ifvqei0","pricing_plan_id":"cebpf4jnsgd1na2vs0mg"},{"bike_id":"b47259fe-784d-4036-9951-03fa6726a2b2","system_id":"levelo_inurba_marseille","lat":43.30541,"lon":5.36705,"is_reserved":false,"is_disabled":false,"rental_uris":{"android":"levelo://app?vid=b47259fe-784d-4036-9951-03fa6726a2b2","ios":"levelo://app?vid=b47259fe-784d-4036-9951-03fa6726a2b2"},"vehicle_type_id":"4","last_reported":1758661680,"current_range_meters":7200,"station_id":"ce4bgrp2rcd13ifvqc9g","pricing_plan_id":"cebpf4jnsgd1na2vs0mg"},{"bike_id":"5096dd44-bb08-49f1-8f58-9d9dfb1faf50","system_id":"levelo_inurba_marseille","lat":43.3342,"lon":5.4007,"is_reserved":false,"is_disabled":false,"rental_uris":{"android":"levelo://app?vid=5096dd44-bb08-49f1-8f58-9d9dfb1faf50","ios":"levelo://app?vid=5096dd44-bb08-49f1-8f58-9d9dfb1faf50"},"vehicle_type_id":"4","last_reported":1758661680,"current_range_meters":8000,"station_id":"","pricing_plan_id":"cebpf4jnsgd1na2vs0mg"},{"bike_id":"44afd36e-7779-4346-af8c-b12b6fbcb0e3","system_id":"levelo_inurba_marseille","lat":43.30431,"lon":5.3889,"is_reserved":false,"is_disabled":false,"rental_uris":{"android":"levelo://app?vid=44afd36e-7779-4346-af8c-b12b6fbcb0e3","ios":"levelo://app?vid=44afd36e-7779-4346-af8c-b12b6fbcb0e3"},"vehicle_type_id":"4","last_reported":1758661680,"current_range_meters":8000,"station_id":"ce4bgk12rcd13ifvqbi0","pricing_plan_id":"cebpf4jnsgd1na2vs0mg"},{"bike_id":"57557469-09c9-4a5d-a1a9-8de5f5bc5bb9","system_id":"levelo_inurba_marseille","lat":43.29519,"lon":5.39029,"is_reserved":false,"is_disabled":true,"rental_uris":{"android":"levelo://app?vid=57557469-09c9-4a5d-a1a9-8de5f5bc5bb9","ios":"levelo://app?vid=57557469-09c9-4a5d-a1a9-8de5f5bc5bb9"},"vehicle_type_id":"4","last_reported":1758661680,"current_range_meters":8400,"station_id":"ce4bh3p2rcd13ifvqdp0","pricing_plan_id":"cebpf4jnsgd1na2vs0mg"},{"bike_id":"763415da-5097-419f-a256-c7d2e32d8525","system_id":"levelo_inurba_marseille","lat":43.308985,"lon":5.396223,"is_reserved":false,"is_disabled":false,"rental_uris":{"android":"levelo://app?vid=763415da-5097-419f-a256-c7d2e32d8525","ios":"levelo://app?vid=763415da-5097-419f-a256-c7d2e32d8525"},"vehicle_type_id":"4","last_reported":1758661680,"current_range_meters":8400,"station_id":"ce4bh012rcd13ifvqcv0","pricing_plan_id":"cebpf4jnsgd1na2vs0mg"},{"bike_id":"cb6bf7d2-2ed1-47c4-b0a7-9c935f0ebf1a","system_id":"levelo_inurba_marseille","lat":43.26844,"lon":5.40674,"is_reserved":false,"is_disabled":false,"rental_uris":{"android":"levelo://app?vid=cb6bf7d2-2ed1-47c4-b0a7-9c935f0ebf1a","ios":"levelo://app?vid=cb6bf7d2-2ed1-47c4-b0a7-9c935f0ebf1a"},"vehicle_type_id":"4","last_reported":1758661680,"current_range_meters":8400,"station_id":"","pricing_plan_id":"cebpf4jnsgd1na2vs0mg"},{"bike_id":"515a383b-17c7-4ad6-88cc-1a1c622b739d","system_id":"levelo_inurba_marseille","lat":43.2623,"lon":5.40451,"is_reserved":false,"is_disabled":false,"rental_uris":{"android":"levelo://app?vid=515a383b-17c7-4ad6-88cc-1a1c622b739d","ios":"levelo://app?vid=515a383b-17c7-4ad6-88cc-1a1c622b739d"},"vehicle_type_id":"4","last_reported":1758661680,"current_range_meters":8400,"station_id":"ce4bhmh2rcd13ifvqgmg","pricing_plan_id":"cebpf4jnsgd1na2vs0mg"},{"bike_id":"3b2ead98-0240-4644-bd0f-8d8db5b34e10","system_id":"levelo_inurba_marseille","lat":43.27177,"lon":5.40998,"is_reserved":false,"is_disabled":false,"rental_uris":{"android":"levelo://app?vid=3b2ead98-0240-4644-bd0f-8d8db5b34e10","ios":"levelo://app?vid=3b2ead98-0240-4644-bd0f-8d8db5b34e10"},"vehicle_type_id":"4","last_reported":1758661680,"current_range_meters":8400,"station_id":"ce4bhl12rcd13ifvqgf0","pricing_plan_id":"cebpf4jnsgd1na2vs0mg"},{"bike_id":"92f1726c-aca5-42c6-9f7f-108848e8df5b","system_id":"levelo_inurba_marseille","lat":43.298856,"lon":5.388991,"is_reserved":false,"is_disabled":false,"rental_uris":{"android":"levelo://app?vid=92f1726c-aca5-42c6-9f7f-108848e8df5b","ios":"levelo://app?vid=92f1726c-aca5-42c6-9f7f-108848e8df5b"},"vehicle_type_id":"4","last_reported":1758661680,"current_range_meters":8400,"station_id":"ce4bh392rcd13ifvqdl0","pricing_plan_id":"cebpf4jnsgd1na2vs0mg"},{"bike_id":"5d50a235-5d8f-4881-9b4f-7975372a54f6","system_id":"levelo_inurba_marseille","lat":43.253382,"lon":5.421741,"is_reserved":false,"is_disabled":false,"rental_uris":{"android":"levelo://app?vid=5d50a235-5d8f-4881-9b4f-7975372a54f6","ios":"levelo://app?vid=5d50a235-5d8f-4881-9b4f-7975372a54f6"},"vehicle_type_id":"4","last_reported":1758661680,"current_range_meters":8800,"station_id":"st_d2m65c5bi1j21697t3ng","pricing_plan_id":"cebpf4jnsgd1na2vs0mg"},{"bike_id":"187aed61-bcc5-409d-88b3-f2d2ee2de17a","system_id":"levelo_inurba_marseille","lat":43.299438,"lon":5.385164,"is_reserved":false,"is_disabled":false,"rental_uris":{"android":"levelo://app?vid=187aed61-bcc5-409d-88b3-f2d2ee2de17a","ios":"levelo://app?vid=187aed61-bcc5-409d-88b3-f2d2ee2de17a"},"vehicle_type_id":"4","last_reported":1758661680,"current_range_meters":8800,"station_id":"","pricing_plan_id":"cebpf4jnsgd1na2vs0mg"},{"bike_id":"513eadeb-6d5b-40e2-a199-9086420fc966","system_id":"levelo_inurba_marseille","lat":43.29247,"lon":5.40923,"is_reserved":false,"is_disabled":false,"rental_uris":{"android":"levelo://app?vid=513eadeb-6d5b-40e2-a199-9086420fc966","ios":"levelo://app?vid=513eadeb-6d5b-40e2-a199-9086420fc966"},"vehicle_type_id":"4","last_reported":1758661680,"current_range_meters":8800,"station_id":"ce4bh192rcd13ifvqdc0","pricing_plan_id":"cebpf4jnsgd1na2vs0mg"},{"bike_id":"8fab9d31-a535-4f59-ae8d-c48990fbca57","system_id":"levelo_inurba_marseille","lat":43.24627,"lon":5.43156,"is_reserved":false,"is_disabled":false,"rental_uris":{"android":"levelo://app?vid=8fab9d31-a535-4f59-ae8d-c48990fbca57","ios":"levelo://app?vid=8fab9d31-a535-4f59-ae8d-c48990fbca57"},"vehicle_type_id":"4","last_reported":1758661680,"current_range_meters":8800,"station_id":"st_d2m6c4gdas8pm72e190g","pricing_plan_id":"cebpf4jnsgd1na2vs0mg"},{"bike_id":"8d9c3207-cca6-4c37-9d55-6976307b3c86","system_id":"levelo_inurba_marseille","lat":43.28414,"lon":5.37499,"is_reserved":false,"is_disabled":false,"rental_uris":{"android":"levelo://app?vid=8d9c3207-cca6-4c37-9d55-6976307b3c86","ios":"levelo://app?vid=8d9c3207-cca6-4c37-9d55-6976307b3c86"},"vehicle_type_id":"4","last_reported":1758661680,"current_range_meters":9200,"station_id":"ce4bh412rcd13ifvqds0","pricing_plan_id":"cebpf4jnsgd1na2vs0mg"},{"bike_id":"b96237bc-d6d9-4e5c-971b-d8783987d614","system_id":"levelo_inurba_marseille","lat":43.30633,"lon":5.40067,"is_reserved":false,"is_disabled":false,"rental_uris":{"android":"levelo://app?vid=b96237bc-d6d9-4e5c-971b-d8783987d614","ios":"levelo://app?vid=b96237bc-d6d9-4e5c-971b-d8783987d614"},"vehicle_type_id":"4","last_reported":1758661680,"current_range_meters":9200,"station_id":"ce4bh112rcd13ifvqda0","pricing_plan_id":"cebpf4jnsgd1na2vs0mg"},{"bike_id":"f333a70a-a915-4844-9c11-de15e19500e2","system_id":"levelo_inurba_marseille","lat":43.253424,"lon":5.421771,"is_reserved":false,"is_disabled":false,"rental_uris":{"android":"levelo://app?vid=f333a70a-a915-4844-9c11-de15e19500e2","ios":"levelo://app?vid=f333a70a-a915-4844-9c11-de15e19500e2"},"vehicle_type_id":"4","last_reported":1758661680,"current_range_meters":9200,"station_id":"st_d2m65c5bi1j21697t3ng","pricing_plan_id":"cebpf4jnsgd1na2vs0mg"},{"bike_id":"bd9cfac1-ec33-4904-a50f-e82ac6094530","system_id":"levelo_inurba_marseille","lat":43.28987,"lon":5.37122,"is_reserved":false,"is_disabled":false,"rental_uris":{"android":"levelo://app?vid=bd9cfac1-ec33-4904-a50f-e82ac6094530","ios":"levelo://app?vid=bd9cfac1-ec33-4904-a50f-e82ac6094530"},"vehicle_type_id":"4","last_reported":1758661680,"current_range_meters":9600,"station_id":"","pricing_plan_id":"cebpf4jnsgd1na2vs0mg"},{"bike_id":"5cb342aa-b6d2-4f4a-91e4-b46f0b0b4d76","system_id":"levelo_inurba_marseille","lat":43.31989,"lon":5.38156,"is_reserved":false,"is_disabled":false,"rental_uris":{"android":"levelo://app?vid=5cb342aa-b6d2-4f4a-91e4-b46f0b0b4d76","ios":"levelo://app?vid=5cb342aa-b6d2-4f4a-91e4-b46f0b0b4d76"},"vehicle_type_id":"4","last_reported":1758661680,"current_range_meters":9600,"station_id":"ce4bhr12rcd13ifvqhpg","pricing_plan_id":"cebpf4jnsgd1na2vs0mg"},{"bike_id":"df9ecab4-6056-44cc-a720-250479e09d7c","system_id":"levelo_inurba_marseille","lat":43.292509,"lon":5.40907,"is_reserved":false,"is_disabled":false,"rental_uris":{"android":"levelo://app?vid=df9ecab4-6056-44cc-a720-250479e09d7c","ios":"levelo://app?vid=df9ecab4-6056-44cc-a720-250479e09d7c"},"vehicle_type_id":"4","last_reported":1758661680,"current_range_meters":9600,"station_id":"ce4bh192rcd13ifvqdc0","pricing_plan_id":"cebpf4jnsgd1na2vs0mg"},{"bike_id":"8d243e83-cc74-44d3-bf18-f20421549672","system_id":"levelo_inurba_marseille","lat":43.289352,"lon":5.359363,"is_reserved":false,"is_disabled":false,"rental_uris":{"android":"levelo://app?vid=8d243e83-cc74-44d3-bf18-f20421549672","ios":"levelo://app?vid=8d243e83-cc74-44d3-bf18-f20421549672"},"vehicle_type_id":"4","last_reported":1758661680,"current_range_meters":9600,"station_id":"","pricing_plan_id":"cebpf4jnsgd1na2vs0mg"},{"bike_id":"ca4e0812-3d12-4a82-bc13-bf97739a4e53","system_id":"levelo_inurba_marseille","lat":43.30397,"lon":5.41311,"is_reserved":false,"is_disabled":false,"rental_uris":{"android":"levelo://app?vid=ca4e0812-3d12-4a82-bc13-bf97739a4e53","ios":"levelo://app?vid=ca4e0812-3d12-4a82-bc13-bf97739a4e53"},"vehicle_type_id":"4","last_reported":1758661680,"current_range_meters":10000,"station_id":"ce4bhop2rcd13ifvqh8g","pricing_plan_id":"cebpf4jnsgd1na2vs0mg"},{"bike_id":"c5f17a80-1b5e-4fd3-9269-90666e8dd8a4","system_id":"levelo_inurba_marseille","lat":43.24388,"lon":5.37065,"is_reserved":false,"is_disabled":false,"rental_uris":{"android":"levelo://app?vid=c5f17a80-1b5e-4fd3-9269-90666e8dd8a4","ios":"levelo://app?vid=c5f17a80-1b5e-4fd3-9269-90666e8dd8a4"},"vehicle_type_id":"4","last_reported":1758661680,"current_range_meters":10000,"station_id":"ce4bhhh2rcd13ifvqfk0","pricing_plan_id":"cebpf4jnsgd1na2vs0mg"},{"bike_id":"7d7a0abe-83b8-4067-92d1-8adad0b45209","system_id":"levelo_inurba_marseille","lat":43.27069,"lon":5.42274,"is_reserved":false,"is_disabled":true,"rental_uris":{"android":"levelo://app?vid=7d7a0abe-83b8-4067-92d1-8adad0b45209","ios":"levelo://app?vid=7d7a0abe-83b8-4067-92d1-8adad0b45209"},"vehicle_type_id":"4","last_reported":1758661680,"current_range_meters":10800,"station_id":"ce4bhk92rcd13ifvqgb0","pricing_plan_id":"cebpf4jnsgd1na2vs0mg"},{"bike_id":"df91d475-c114-4c5c-9fd5-177722646447","system_id":"levelo_inurba_marseille","lat":43.28107,"lon":5.37849,"is_reserved":false,"is_disabled":false,"rental_uris":{"android":"levelo://app?vid=df91d475-c114-4c5c-9fd5-177722646447","ios":"levelo://app?vid=df91d475-c114-4c5c-9fd5-177722646447"},"vehicle_type_id":"4","last_reported":1758661680,"current_range_meters":10800,"station_id":"ce4bha12rcd13ifvqee0","pricing_plan_id":"cebpf4jnsgd1na2vs0mg"},{"bike_id":"1d035e2c-34f4-4967-a65b-4cacf360ff80","system_id":"levelo_inurba_marseille","lat":43.2902,"lon":5.38114,"is_reserved":false,"is_disabled":false,"rental_uris":{"android":"levelo://app?vid=1d035e2c-34f4-4967-a65b-4cacf360ff80","ios":"levelo://app?vid=1d035e2c-34f4-4967-a65b-4cacf360ff80"},"vehicle_type_id":"4","last_reported":1758661680,"current_range_meters":10800,"station_id":"ce4bh4p2rcd13ifvqe1g","pricing_plan_id":"cebpf4jnsgd1na2vs0mg"},{"bike_id":"0a87b815-50b1-4848-a936-51f71815fbd6","system_id":"levelo_inurba_marseille","lat":43.302796,"lon":5.377113,"is_reserved":false,"is_disabled":false,"rental_uris":{"android":"levelo://app?vid=0a87b815-50b1-4848-a936-51f71815fbd6","ios":"levelo://app?vid=0a87b815-50b1-4848-a936-51f71815fbd6"},"vehicle_type_id":"4","last_reported":1758661680,"current_range_meters":10800,"station_id":"ce4bguh2rcd13ifvqcj0","pricing_plan_id":"cebpf4jnsgd1na2vs0mg"},{"bike_id":"14762721-a80b-4d13-9d22-2d357982a155","system_id":"levelo_inurba_marseille","lat":43.30787,"lon":5.37636,"is_reserved":false,"is_disabled":false,"rental_uris":{"android":"levelo://app?vid=14762721-a80b-4d13-9d22-2d357982a155","ios":"levelo://app?vid=14762721-a80b-4d13-9d22-2d357982a155"},"vehicle_type_id":"4","last_reported":1758661680,"current_range_meters":10800,"station_id":"ce4bgv92rcd13ifvqcq0","pricing_plan_id":"cebpf4jnsgd1na2vs0mg"},{"bike_id":"ee324131-7f1e-4c44-8cd4-8facf81a76e2","system_id":"levelo_inurba_marseille","lat":43.27965,"lon":5.40006,"is_reserved":false,"is_disabled":true,"rental_uris":{"android":"levelo://app?vid=ee324131-7f1e-4c44-8cd4-8facf81a76e2","ios":"levelo://app?vid=ee324131-7f1e-4c44-8cd4-8facf81a76e2"},"vehicle_type_id":"4","last_reported":1758661680,"current_range_meters":10800,"station_id":"ce4bho92rcd13ifvqh4g","pricing_plan_id":"cebpf4jnsgd1na2vs0mg"},{"bike_id":"5c6070a0-0fa7-40a1-bae4-90214c4809f1","system_id":"levelo_inurba_marseille","lat":43.286122,"lon":5.351035,"is_reserved":false,"is_disabled":false,"rental_uris":{"android":"levelo://app?vid=5c6070a0-0fa7-40a1-bae4-90214c4809f1","ios":"levelo://app?vid=5c6070a0-0fa7-40a1-bae4-90214c4809f1"},"vehicle_type_id":"4","last_reported":1758661680,"current_range_meters":11200,"station_id":"ce4bhch2rcd13ifvqeug","pricing_plan_id":"cebpf4jnsgd1na2vs0mg"},{"bike_id":"f59fc553-718d-48b4-9af5-4ea10434eab5","system_id":"levelo_inurba_marseille","lat":43.28473,"lon":5.38419,"is_reserved":false,"is_disabled":false,"rental_uris":{"android":"levelo://app?vid=f59fc553-718d-48b4-9af5-4ea10434eab5","ios":"levelo://app?vid=f59fc553-718d-48b4-9af5-4ea10434eab5"},"vehicle_type_id":"4","last_reported":1758661680,"current_range_meters":11200,"station_id":"ce4bh512rcd13ifvqe3g","pricing_plan_id":"cebpf4jnsgd1na2vs0mg"},{"bike_id":"7010561f-f29b-42cd-847b-771a05edffa2","system_id":"levelo_inurba_marseille","lat":43.30353,"lon":5.41884,"is_reserved":false,"is_disabled":false,"rental_uris":{"android":"levelo://app?vid=7010561f-f29b-42cd-847b-771a05edffa2","ios":"levelo://app?vid=7010561f-f29b-42cd-847b-771a05edffa2"},"vehicle_type_id":"4","last_reported":1758661680,"current_range_meters":11200,"station_id":"ce4bhop2rcd13ifvqh7g","pricing_plan_id":"cebpf4jnsgd1na2vs0mg"},{"bike_id":"33699cb6-4932-422a-a33c-d38fde2c76f6","system_id":"levelo_inurba_marseille","lat":43.25831,"lon":5.39433,"is_reserved":false,"is_disabled":false,"rental_uris":{"android":"levelo://app?vid=33699cb6-4932-422a-a33c-d38fde2c76f6","ios":"levelo://app?vid=33699cb6-4932-422a-a33c-d38fde2c76f6"},"vehicle_type_id":"4","last_reported":1758661680,"current_range_meters":11600,"station_id":"ce4bhip2rcd13ifvqft0","pricing_plan_id":"cebpf4jnsgd1na2vs0mg"},{"bike_id":"8d8bd525-ee45-4b49-85f8-4ca8845b91b1","system_id":"levelo_inurba_marseille","lat":43.27982,"lon":5.41679,"is_reserved":false,"is_disabled":false,"rental_uris":{"android":"levelo://app?vid=8d8bd525-ee45-4b49-85f8-4ca8845b91b1","ios":"levelo://app?vid=8d8bd525-ee45-4b49-85f8-4ca8845b91b1"},"vehicle_type_id":"4","last_reported":1758661680,"current_range_meters":11600,"station_id":"ce4bho12rcd13ifvqh1g","pricing_plan_id":"cebpf4jnsgd1na2vs0mg"},{"bike_id":"8190065d-15e8-406e-a402-257fe6740eef","system_id":"levelo_inurba_marseille","lat":43.283403,"lon":5.381124,"is_reserved":false,"is_disabled":false,"rental_uris":{"android":"levelo://app?vid=8190065d-15e8-406e-a402-257fe6740eef","ios":"levelo://app?vid=8190065d-15e8-406e-a402-257fe6740eef"},"vehicle_type_id":"4","last_reported":1758661680,"current_range_meters":11600,"station_id":"ce4bh412rcd13ifvqdr0","pricing_plan_id":"cebpf4jnsgd1na2vs0mg"},{"bike_id":"67b97e29-7ecb-4018-a464-041bbd85ed0b","system_id":"levelo_inurba_marseille","lat":43.28418,"lon":5.34985,"is_reserved":false,"is_disabled":false,"rental_uris":{"android":"levelo://app?vid=67b97e29-7ecb-4018-a464-041bbd85ed0b","ios":"levelo://app?vid=67b97e29-7ecb-4018-a464-041bbd85ed0b"},"vehicle_type_id":"4","last_reported":1758661680,"current_range_meters":11600,"station_id":"ce4bhbh2rcd13ifvqepg","pricing_plan_id":"cebpf4jnsgd1na2vs0mg"},{"bike_id":"8a36147f-971f-4bf9-a3b3-6c83949ca6a6","system_id":"levelo_inurba_marseille","lat":43.32095,"lon":5.36798,"is_reserved":false,"is_disabled":false,"rental_uris":{"android":"levelo://app?vid=8a36147f-971f-4bf9-a3b3-6c83949ca6a6","ios":"levelo://app?vid=8a36147f-971f-4bf9-a3b3-6c83949ca6a6"},"vehicle_type_id":"4","last_reported":1758661680,"current_range_meters":12000,"station_id":"ce4bhrh2rcd13ifvqhug","pricing_plan_id":"cebpf4jnsgd1na2vs0mg"},{"bike_id":"c268d436-1932-4abf-82cc-285627e0a479","system_id":"levelo_inurba_marseille","lat":43.28841,"lon":5.39301,"is_reserved":false,"is_disabled":false,"rental_uris":{"android":"levelo://app?vid=c268d436-1932-4abf-82cc-285627e0a479","ios":"levelo://app?vid=c268d436-1932-4abf-82cc-285627e0a479"},"vehicle_type_id":"4","last_reported":1758661680,"current_range_meters":12000,"station_id":"ce4bh2p2rcd13ifvqdi0","pricing_plan_id":"cebpf4jnsgd1na2vs0mg"},{"bike_id":"109b1194-fc7c-4db6-b2eb-6c93d4cd22fc","system_id":"levelo_inurba_marseille","lat":43.25339,"lon":5.42164,"is_reserved":false,"is_disabled":false,"rental_uris":{"android":"levelo://app?vid=109b1194-fc7c-4db6-b2eb-6c93d4cd22fc","ios":"levelo://app?vid=109b1194-fc7c-4db6-b2eb-6c93d4cd22fc"},"vehicle_type_id":"4","last_reported":1758661680,"current_range_meters":12000,"station_id":"st_d2m65c5bi1j21697t3ng","pricing_plan_id":"cebpf4jnsgd1na2vs0mg"},{"bike_id":"062882c0-6810-4134-94b1-d58221c157d0","system_id":"levelo_inurba_marseille","lat":43.25342,"lon":5.42166,"is_reserved":false,"is_disabled":false,"rental_uris":{"android":"levelo://app?vid=062882c0-6810-4134-94b1-d58221c157d0","ios":"levelo://app?vid=062882c0-6810-4134-94b1-d58221c157d0"},"vehicle_type_id":"4","last_reported":1758661680,"current_range_meters":12000,"station_id":"st_d2m65c5bi1j21697t3ng","pricing_plan_id":"cebpf4jnsgd1na2vs0mg"},{"bike_id":"8a929650-31c9-47d5-a8c3-44575c7f975b","system_id":"levelo_inurba_marseille","lat":43.32004,"lon":5.38131,"is_reserved":false,"is_disabled":false,"rental_uris":{"android":"levelo://app?vid=8a929650-31c9-47d5-a8c3-44575c7f975b","ios":"levelo://app?vid=8a929650-31c9-47d5-a8c3-44575c7f975b"},"vehicle_type_id":"4","last_reported":1758661680,"current_range_meters":12000,"station_id":"ce4bhr12rcd13ifvqhpg","pricing_plan_id":"cebpf4jnsgd1na2vs0mg"},{"bike_id":"9c7a180f-bee6-48c2-9ad2-181dea55ce36","system_id":"levelo_inurba_marseille","lat":43.3172,"lon":5.43699,"is_reserved":false,"is_disabled":false,"rental_uris":{"android":"levelo://app?vid=9c7a180f-bee6-48c2-9ad2-181dea55ce36","ios":"levelo://app?vid=9c7a180f-bee6-48c2-9ad2-181dea55ce36"},"vehicle_type_id":"4","last_reported":1758661680,"current_range_meters":12400,"station_id":"ce4bhp92rcd13ifvqhcg","pricing_plan_id":"cebpf4jnsgd1na2vs0mg"},{"bike_id":"7645fca4-f741-4eef-b1fe-a688078e1d09","system_id":"levelo_inurba_marseille","lat":43.24631,"lon":5.43148,"is_reserved":false,"is_disabled":false,"rental_uris":{"android":"levelo://app?vid=7645fca4-f741-4eef-b1fe-a688078e1d09","ios":"levelo://app?vid=7645fca4-f741-4eef-b1fe-a688078e1d09"},"vehicle_type_id":"4","last_reported":1758661680,"current_range_meters":12400,"station_id":"st_d2m6c4gdas8pm72e190g","pricing_plan_id":"cebpf4jnsgd1na2vs0mg"},{"bike_id":"0275e00f-ba43-4a3f-8cc2-0beb1f3aea8c","system_id":"levelo_inurba_marseille","lat":43.31335,"lon":5.39687,"is_reserved":false,"is_disabled":false,"rental_uris":{"android":"levelo://app?vid=0275e00f-ba43-4a3f-8cc2-0beb1f3aea8c","ios":"levelo://app?vid=0275e00f-ba43-4a3f-8cc2-0beb1f3aea8c"},"vehicle_type_id":"4","last_reported":1758661680,"current_range_meters":12400,"station_id":"ce4bgvp2rcd13ifvqcu0","pricing_plan_id":"cebpf4jnsgd1na2vs0mg"},{"bike_id":"5b396e16-77d2-4d91-9726-e9579982442a","system_id":"levelo_inurba_marseille","lat":43.29866,"lon":5.39717,"is_reserved":false,"is_disabled":false,"rental_uris":{"android":"levelo://app?vid=5b396e16-77d2-4d91-9726-e9579982442a","ios":"levelo://app?vid=5b396e16-77d2-4d91-9726-e9579982442a"},"vehicle_type_id":"4","last_reported":1758661680,"current_range_meters":12400,"station_id":"ce4bh0h2rcd13ifvqd50","pricing_plan_id":"cebpf4jnsgd1na2vs0mg"},{"bike_id":"53903b80-ba20-4f39-96ea-44404cc38851","system_id":"levelo_inurba_marseille","lat":43.2622,"lon":5.37428,"is_reserved":false,"is_disabled":false,"rental_uris":{"android":"levelo://app?vid=53903b80-ba20-4f39-96ea-44404cc38851","ios":"levelo://app?vid=53903b80-ba20-4f39-96ea-44404cc38851"},"vehicle_type_id":"4","last_reported":1758661680,"current_range_meters":12400,"station_id":"ce4bhgp2rcd13ifvqfc0","pricing_plan_id":"cebpf4jnsgd1na2vs0mg"},{"bike_id":"0a93b7fa-898f-46ce-bd76-143a1182be97","system_id":"levelo_inurba_marseille","lat":43.27438,"lon":5.39413,"is_reserved":false,"is_disabled":true,"rental_uris":{"android":"levelo://app?vid=0a93b7fa-898f-46ce-bd76-143a1182be97","ios":"levelo://app?vid=0a93b7fa-898f-46ce-bd76-143a1182be97"},"vehicle_type_id":"4","last_reported":1758661680,"current_range_meters":12800,"station_id":"ce4bhdp2rcd13ifvqf20","pricing_plan_id":"cebpf4jnsgd1na2vs0mg"},{"bike_id":"7c0482c3-9253-4d1b-b4f3-be55cdb7721d","system_id":"levelo_inurba_marseille","lat":43.33757,"lon":5.37466,"is_reserved":false,"is_disabled":false,"rental_uris":{"android":"levelo://app?vid=7c0482c3-9253-4d1b-b4f3-be55cdb7721d","ios":"levelo://app?vid=7c0482c3-9253-4d1b-b4f3-be55cdb7721d"},"vehicle_type_id":"4","last_reported":1758661680,"current_range_meters":12800,"station_id":"","pricing_plan_id":"cebpf4jnsgd1na2vs0mg"},{"bike_id":"074ac146-43ea-4653-9014-537f6817e4e8","system_id":"levelo_inurba_marseille","lat":43.28355,"lon":5.381,"is_reserved":false,"is_disabled":false,"rental_uris":{"android":"levelo://app?vid=074ac146-43ea-4653-9014-537f6817e4e8","ios":"levelo://app?vid=074ac146-43ea-4653-9014-537f6817e4e8"},"vehicle_type_id":"4","last_reported":1758661680,"current_range_meters":12800,"station_id":"ce4bh412rcd13ifvqdr0","pricing_plan_id":"cebpf4jnsgd1na2vs0mg"},{"bike_id":"43d57fd4-047e-4ac8-97e5-ec9b96239472","system_id":"levelo_inurba_marseille","lat":43.33231,"lon":5.39821,"is_reserved":false,"is_disabled":false,"rental_uris":{"android":"levelo://app?vid=43d57fd4-047e-4ac8-97e5-ec9b96239472","ios":"levelo://app?vid=43d57fd4-047e-4ac8-97e5-ec9b96239472"},"vehicle_type_id":"4","last_reported":1758661680,"current_range_meters":12800,"station_id":"","pricing_plan_id":"cebpf4jnsgd1na2vs0mg"},{"bike_id":"2e586592-f08d-43dc-b657-a1ca511d1d1a","system_id":"levelo_inurba_marseille","lat":43.279363,"lon":5.410488,"is_reserved":false,"is_disabled":false,"rental_uris":{"android":"levelo://app?vid=2e586592-f08d-43dc-b657-a1ca511d1d1a","ios":"levelo://app?vid=2e586592-f08d-43dc-b657-a1ca511d1d1a"},"vehicle_type_id":"4","last_reported":1758661680,"current_range_meters":13600,"station_id":"ce4bhnp2rcd13ifvqh0g","pricing_plan_id":"cebpf4jnsgd1na2vs0mg"},{"bike_id":"ac50af5d-8e1b-4ad3-a026-c8fdbc872e49","system_id":"levelo_inurba_marseille","lat":43.31362,"lon":5.38486,"is_reserved":false,"is_disabled":false,"rental_uris":{"android":"levelo://app?vid=ac50af5d-8e1b-4ad3-a026-c8fdbc872e49","ios":"levelo://app?vid=ac50af5d-8e1b-4ad3-a026-c8fdbc872e49"},"vehicle_type_id":"4","last_reported":1758661680,"current_range_meters":12800,"station_id":"ce4bgt92rcd13ifvqcf0","pricing_plan_id":"cebpf4jnsgd1na2vs0mg"},{"bike_id":"34938a84-8c69-427d-ac76-3d11532bf34a","system_id":"levelo_inurba_marseille","lat":43.29195,"lon":5.35815,"is_reserved":false,"is_disabled":false,"rental_uris":{"android":"levelo://app?vid=34938a84-8c69-427d-ac76-3d11532bf34a","ios":"levelo://app?vid=34938a84-8c69-427d-ac76-3d11532bf34a"},"vehicle_type_id":"4","last_reported":1758661680,"current_range_meters":13600,"station_id":"ce4bhb12rcd13ifvqel0","pricing_plan_id":"cebpf4jnsgd1na2vs0mg"},{"bike_id":"06a24bce-028d-4b4a-b4a3-d45296145db5","system_id":"levelo_inurba_marseille","lat":43.28425,"lon":5.34991,"is_reserved":false,"is_disabled":true,"rental_uris":{"android":"levelo://app?vid=06a24bce-028d-4b4a-b4a3-d45296145db5","ios":"levelo://app?vid=06a24bce-028d-4b4a-b4a3-d45296145db5"},"vehicle_type_id":"4","last_reported":1758661680,"current_range_meters":13600,"station_id":"ce4bhch2rcd13ifvqeug","pricing_plan_id":"cebpf4jnsgd1na2vs0mg"},{"bike_id":"d1d823d0-f26c-4640-98b9-8e5eba62ca5c","system_id":"levelo_inurba_marseille","lat":43.30292,"lon":5.39203,"is_reserved":false,"is_disabled":false,"rental_uris":{"android":"levelo://app?vid=d1d823d0-f26c-4640-98b9-8e5eba62ca5c","ios":"levelo://app?vid=d1d823d0-f26c-4640-98b9-8e5eba62ca5c"},"vehicle_type_id":"4","last_reported":1758661680,"current_range_meters":14000,"station_id":"ce4bgkh2rcd13ifvqbk0","pricing_plan_id":"cebpf4jnsgd1na2vs0mg"},{"bike_id":"60d35cd6-80ea-40dd-a4df-d5f9e9d4fa59","system_id":"levelo_inurba_marseille","lat":43.27808,"lon":5.40711,"is_reserved":false,"is_disabled":false,"rental_uris":{"android":"levelo://app?vid=60d35cd6-80ea-40dd-a4df-d5f9e9d4fa59","ios":"levelo://app?vid=60d35cd6-80ea-40dd-a4df-d5f9e9d4fa59"},"vehicle_type_id":"4","last_reported":1758661680,"current_range_meters":14000,"station_id":"ce4bhnh2rcd13ifvqgtg","pricing_plan_id":"cebpf4jnsgd1na2vs0mg"},{"bike_id":"b1ce93cc-c50a-4c33-91d4-e327b44da2b1","system_id":"levelo_inurba_marseille","lat":43.29876,"lon":5.38888,"is_reserved":false,"is_disabled":true,"rental_uris":{"android":"levelo://app?vid=b1ce93cc-c50a-4c33-91d4-e327b44da2b1","ios":"levelo://app?vid=b1ce93cc-c50a-4c33-91d4-e327b44da2b1"},"vehicle_type_id":"4","last_reported":1758661680,"current_range_meters":14000,"station_id":"ce4bh392rcd13ifvqdl0","pricing_plan_id":"cebpf4jnsgd1na2vs0mg"},{"bike_id":"e35dc3d8-0dfe-4bd4-87f7-5d3ca8bee4e5","system_id":"levelo_inurba_marseille","lat":43.25,"lon":5.4267,"is_reserved":false,"is_disabled":false,"rental_uris":{"android":"levelo://app?vid=e35dc3d8-0dfe-4bd4-87f7-5d3ca8bee4e5","ios":"levelo://app?vid=e35dc3d8-0dfe-4bd4-87f7-5d3ca8bee4e5"},"vehicle_type_id":"4","last_reported":1758661680,"current_range_meters":14000,"station_id":"","pricing_plan_id":"cebpf4jnsgd1na2vs0mg"},{"bike_id":"2884e01e-e8e5-4f64-839a-a54c238e1ae3","system_id":"levelo_inurba_marseille","lat":43.22528,"lon":5.34822,"is_reserved":false,"is_disabled":false,"rental_uris":{"android":"levelo://app?vid=2884e01e-e8e5-4f64-839a-a54c238e1ae3","ios":"levelo://app?vid=2884e01e-e8e5-4f64-839a-a54c238e1ae3"},"vehicle_type_id":"4","last_reported":1758661680,"current_range_meters":14400,"station_id":"","pricing_plan_id":"cebpf4jnsgd1na2vs0mg"},{"bike_id":"5cbe298a-bbb4-4b51-b3c0-c4c0a0ee5eb8","system_id":"levelo_inurba_marseille","lat":43.25091,"lon":5.39524,"is_reserved":false,"is_disabled":false,"rental_uris":{"android":"levelo://app?vid=5cbe298a-bbb4-4b51-b3c0-c4c0a0ee5eb8","ios":"levelo://app?vid=5cbe298a-bbb4-4b51-b3c0-c4c0a0ee5eb8"},"vehicle_type_id":"4","last_reported":1758661680,"current_range_meters":14400,"station_id":"ce4bhm12rcd13ifvqgkg","pricing_plan_id":"cebpf4jnsgd1na2vs0mg"},{"bike_id":"4c0b651b-953c-4759-a0f7-0074f59a45eb","system_id":"levelo_inurba_marseille","lat":43.25801,"lon":5.3927,"is_reserved":false,"is_disabled":false,"rental_uris":{"android":"levelo://app?vid=4c0b651b-953c-4759-a0f7-0074f59a45eb","ios":"levelo://app?vid=4c0b651b-953c-4759-a0f7-0074f59a45eb"},"vehicle_type_id":"4","last_reported":1758661680,"current_range_meters":14400,"station_id":"","pricing_plan_id":"cebpf4jnsgd1na2vs0mg"},{"bike_id":"4e5dd176-295d-4987-8b76-13e1409b819b","system_id":"levelo_inurba_marseille","lat":43.28478,"lon":5.38411,"is_reserved":false,"is_disabled":false,"rental_uris":{"android":"levelo://app?vid=4e5dd176-295d-4987-8b76-13e1409b819b","ios":"levelo://app?vid=4e5dd176-295d-4987-8b76-13e1409b819b"},"vehicle_type_id":"4","last_reported":1758661680,"current_range_meters":14000,"station_id":"ce4bh512rcd13ifvqe3g","pricing_plan_id":"cebpf4jnsgd1na2vs0mg"},{"bike_id":"07c61e7a-41ee-4a8f-9786-19b1486e888f","system_id":"levelo_inurba_marseille","lat":43.31278,"lon":5.40158,"is_reserved":false,"is_disabled":false,"rental_uris":{"android":"levelo://app?vid=07c61e7a-41ee-4a8f-9786-19b1486e888f","ios":"levelo://app?vid=07c61e7a-41ee-4a8f-9786-19b1486e888f"},"vehicle_type_id":"4","last_reported":1758661680,"current_range_meters":14400,"station_id":"ce4bh092rcd13ifvqd30","pricing_plan_id":"cebpf4jnsgd1na2vs0mg"},{"bike_id":"0ede7616-1d90-43d4-a37a-60c9664e7016","system_id":"levelo_inurba_marseille","lat":43.23187,"lon":5.39983,"is_reserved":false,"is_disabled":false,"rental_uris":{"android":"levelo://app?vid=0ede7616-1d90-43d4-a37a-60c9664e7016","ios":"levelo://app?vid=0ede7616-1d90-43d4-a37a-60c9664e7016"},"vehicle_type_id":"4","last_reported":1758661680,"current_range_meters":14800,"station_id":"ce4bhn12rcd13ifvqgqg","pricing_plan_id":"cebpf4jnsgd1na2vs0mg"},{"bike_id":"e36b8523-28d4-4650-bb1a-56482550ea8b","system_id":"levelo_inurba_marseille","lat":43.29762,"lon":5.38087,"is_reserved":false,"is_disabled":true,"rental_uris":{"android":"levelo://app?vid=e36b8523-28d4-4650-bb1a-56482550ea8b","ios":"levelo://app?vid=e36b8523-28d4-4650-bb1a-56482550ea8b"},"vehicle_type_id":"4","last_reported":1758661680,"current_range_meters":14800,"station_id":"ce4bgip2rcd13ifvqbb0","pricing_plan_id":"cebpf4jnsgd1na2vs0mg"},{"bike_id":"db804963-bc94-42c9-9f3b-0f510919d7bc","system_id":"levelo_inurba_marseille","lat":43.29033,"lon":5.38633,"is_reserved":false,"is_disabled":false,"rental_uris":{"android":"levelo://app?vid=db804963-bc94-42c9-9f3b-0f510919d7bc","ios":"levelo://app?vid=db804963-bc94-42c9-9f3b-0f510919d7bc"},"vehicle_type_id":"4","last_reported":1758661680,"current_range_meters":14400,"station_id":"ce4bh4p2rcd13ifvqe0g","pricing_plan_id":"cebpf4jnsgd1na2vs0mg"},{"bike_id":"42b3bef7-f2bd-4fd4-a03d-1a4e51c46a55","system_id":"levelo_inurba_marseille","lat":43.30961,"lon":5.40146,"is_reserved":false,"is_disabled":false,"rental_uris":{"android":"levelo://app?vid=42b3bef7-f2bd-4fd4-a03d-1a4e51c46a55","ios":"levelo://app?vid=42b3bef7-f2bd-4fd4-a03d-1a4e51c46a55"},"vehicle_type_id":"4","last_reported":1758661680,"current_range_meters":14800,"station_id":"ce4bgvp2rcd13ifvqct0","pricing_plan_id":"cebpf4jnsgd1na2vs0mg"},{"bike_id":"dddca5ef-4a33-499b-936a-6d8e6136a417","system_id":"levelo_inurba_marseille","lat":43.22923,"lon":5.354,"is_reserved":false,"is_disabled":false,"rental_uris":{"android":"levelo://app?vid=dddca5ef-4a33-499b-936a-6d8e6136a417","ios":"levelo://app?vid=dddca5ef-4a33-499b-936a-6d8e6136a417"},"vehicle_type_id":"4","last_reported":1758661680,"current_range_meters":14800,"station_id":"cpo3532slgdg3j2ikp40","pricing_plan_id":"cebpf4jnsgd1na2vs0mg"},{"bike_id":"6b5fbc25-ce71-4716-ab33-6cc0ec25d61a","system_id":"levelo_inurba_marseille","lat":43.295951,"lon":5.381019,"is_reserved":false,"is_disabled":false,"rental_uris":{"android":"levelo://app?vid=6b5fbc25-ce71-4716-ab33-6cc0ec25d61a","ios":"levelo://app?vid=6b5fbc25-ce71-4716-ab33-6cc0ec25d61a"},"vehicle_type_id":"4","last_reported":1758661680,"current_range_meters":15200,"station_id":"ce4bgl12rcd13ifvqbo0","pricing_plan_id":"cebpf4jnsgd1na2vs0mg"},{"bike_id":"63d62359-e325-4708-84d4-577232638322","system_id":"levelo_inurba_marseille","lat":43.3021,"lon":5.39457,"is_reserved":false,"is_disabled":false,"rental_uris":{"android":"levelo://app?vid=63d62359-e325-4708-84d4-577232638322","ios":"levelo://app?vid=63d62359-e325-4708-84d4-577232638322"},"vehicle_type_id":"4","last_reported":1758661680,"current_range_meters":14800,"station_id":"ce4bh0p2rcd13ifvqd70","pricing_plan_id":"cebpf4jnsgd1na2vs0mg"},{"bike_id":"9feb0e0f-24fa-4463-b0f3-30472830c043","system_id":"levelo_inurba_marseille","lat":43.31757,"lon":5.39002,"is_reserved":false,"is_disabled":false,"rental_uris":{"android":"levelo://app?vid=9feb0e0f-24fa-4463-b0f3-30472830c043","ios":"levelo://app?vid=9feb0e0f-24fa-4463-b0f3-30472830c043"},"vehicle_type_id":"4","last_reported":1758661680,"current_range_meters":16000,"station_id":"ce4bhqp2rcd13ifvqhng","pricing_plan_id":"cebpf4jnsgd1na2vs0mg"},{"bike_id":"a60abba9-f9b8-477b-8786-175fc2b6218b","system_id":"levelo_inurba_marseille","lat":43.30888,"lon":5.37166,"is_reserved":false,"is_disabled":false,"rental_uris":{"android":"levelo://app?vid=a60abba9-f9b8-477b-8786-175fc2b6218b","ios":"levelo://app?vid=a60abba9-f9b8-477b-8786-175fc2b6218b"},"vehicle_type_id":"4","last_reported":1758661680,"current_range_meters":16000,"station_id":"ce4bguh2rcd13ifvqckg","pricing_plan_id":"cebpf4jnsgd1na2vs0mg"},{"bike_id":"092efec8-8f2e-4241-abd1-64c5461d578f","system_id":"levelo_inurba_marseille","lat":43.30814,"lon":5.38158,"is_reserved":false,"is_disabled":false,"rental_uris":{"android":"levelo://app?vid=092efec8-8f2e-4241-abd1-64c5461d578f","ios":"levelo://app?vid=092efec8-8f2e-4241-abd1-64c5461d578f"},"vehicle_type_id":"4","last_reported":1758661680,"current_range_meters":16000,"station_id":"ce4bgt12rcd13ifvqce0","pricing_plan_id":"cebpf4jnsgd1na2vs0mg"},{"bike_id":"9e28a774-d336-4995-921f-c826bee8dc91","system_id":"levelo_inurba_marseille","lat":43.30142,"lon":5.38772,"is_reserved":false,"is_disabled":true,"rental_uris":{"android":"levelo://app?vid=9e28a774-d336-4995-921f-c826bee8dc91","ios":"levelo://app?vid=9e28a774-d336-4995-921f-c826bee8dc91"},"vehicle_type_id":"4","last_reported":1758661680,"current_range_meters":16000,"station_id":"ce4bghh2rcd13ifvqb60","pricing_plan_id":"cebpf4jnsgd1na2vs0mg"},{"bike_id":"ae140a32-5f79-427f-90a7-d410e17b7823","system_id":"levelo_inurba_marseille","lat":43.26692,"lon":5.38233,"is_reserved":false,"is_disabled":true,"rental_uris":{"android":"levelo://app?vid=ae140a32-5f79-427f-90a7-d410e17b7823","ios":"levelo://app?vid=ae140a32-5f79-427f-90a7-d410e17b7823"},"vehicle_type_id":"4","last_reported":1758661680,"current_range_meters":16000,"station_id":"ce4bhg92rcd13ifvqf90","pricing_plan_id":"cebpf4jnsgd1na2vs0mg"},{"bike_id":"878212e1-9f3a-4147-b86c-65eaf928a45d","system_id":"levelo_inurba_marseille","lat":43.21786,"lon":5.34593,"is_reserved":false,"is_disabled":false,"rental_uris":{"android":"levelo://app?vid=878212e1-9f3a-4147-b86c-65eaf928a45d","ios":"levelo://app?vid=878212e1-9f3a-4147-b86c-65eaf928a45d"},"vehicle_type_id":"4","last_reported":1758661680,"current_range_meters":16000,"station_id":"","pricing_plan_id":"cebpf4jnsgd1na2vs0mg"},{"bike_id":"bc5e5951-8efa-474d-bb4f-c79e92883e92","system_id":"levelo_inurba_marseille","lat":43.28148,"lon":5.42489,"is_reserved":false,"is_disabled":false,"rental_uris":{"android":"levelo://app?vid=bc5e5951-8efa-474d-bb4f-c79e92883e92","ios":"levelo://app?vid=bc5e5951-8efa-474d-bb4f-c79e92883e92"},"vehicle_type_id":"4","last_reported":1758661680,"current_range_meters":16000,"station_id":"","pricing_plan_id":"cebpf4jnsgd1na2vs0mg"},{"bike_id":"7778dc69-44e8-4176-906c-572acbfe5776","system_id":"levelo_inurba_marseille","lat":43.24955,"lon":5.40476,"is_reserved":false,"is_disabled":false,"rental_uris":{"android":"levelo://app?vid=7778dc69-44e8-4176-906c-572acbfe5776","ios":"levelo://app?vid=7778dc69-44e8-4176-906c-572acbfe5776"},"vehicle_type_id":"4","last_reported":1758661680,"current_range_meters":16000,"station_id":"st_d2ngiaodas8pm72gd1h0","pricing_plan_id":"cebpf4jnsgd1na2vs0mg"},{"bike_id":"503e9fe5-3f4f-4661-a209-e71c434a7680","system_id":"levelo_inurba_marseille","lat":43.27978,"lon":5.38723,"is_reserved":false,"is_disabled":true,"rental_uris":{"android":"levelo://app?vid=503e9fe5-3f4f-4661-a209-e71c434a7680","ios":"levelo://app?vid=503e9fe5-3f4f-4661-a209-e71c434a7680"},"vehicle_type_id":"4","last_reported":1758661680,"current_range_meters":16000,"station_id":"ce4bhg12rcd13ifvqf80","pricing_plan_id":"cebpf4jnsgd1na2vs0mg"},{"bike_id":"438ead59-de14-4fa0-a61d-03a70a4122ae","system_id":"levelo_inurba_marseille","lat":43.97269,"lon":4.89111,"is_reserved":false,"is_disabled":true,"rental_uris":{"android":"levelo://app?vid=438ead59-de14-4fa0-a61d-03a70a4122ae","ios":"levelo://app?vid=438ead59-de14-4fa0-a61d-03a70a4122ae"},"vehicle_type_id":"4","last_reported":1758661680,"current_range_meters":16000,"station_id":"","pricing_plan_id":"cebpf4jnsgd1na2vs0mg"},{"bike_id":"7ee54a5a-c571-463d-baff-80a1a8ed87ce","system_id":"levelo_inurba_marseille","lat":43.25343,"lon":5.42173,"is_reserved":false,"is_disabled":false,"rental_uris":{"android":"levelo://app?vid=7ee54a5a-c571-463d-baff-80a1a8ed87ce","ios":"levelo://app?vid=7ee54a5a-c571-463d-baff-80a1a8ed87ce"},"vehicle_type_id":"4","last_reported":1758661680,"current_range_meters":16000,"station_id":"st_d2m65c5bi1j21697t3ng","pricing_plan_id":"cebpf4jnsgd1na2vs0mg"},{"bike_id":"de6299be-e523-4541-9b9d-fb8911da79fc","system_id":"levelo_inurba_marseille","lat":43.28707,"lon":5.37389,"is_reserved":false,"is_disabled":false,"rental_uris":{"android":"levelo://app?vid=de6299be-e523-4541-9b9d-fb8911da79fc","ios":"levelo://app?vid=de6299be-e523-4541-9b9d-fb8911da79fc"},"vehicle_type_id":"4","last_reported":1758661680,"current_range_meters":16400,"station_id":"ce4bh3p2rcd13ifvqdq0","pricing_plan_id":"cebpf4jnsgd1na2vs0mg"},{"bike_id":"5922d7c6-776f-4c1e-b157-641941f3b3c9","system_id":"levelo_inurba_marseille","lat":43.30144,"lon":5.39874,"is_reserved":false,"is_disabled":false,"rental_uris":{"android":"levelo://app?vid=5922d7c6-776f-4c1e-b157-641941f3b3c9","ios":"levelo://app?vid=5922d7c6-776f-4c1e-b157-641941f3b3c9"},"vehicle_type_id":"4","last_reported":1758661680,"current_range_meters":16400,"station_id":"ce4bh0h2rcd13ifvqd40","pricing_plan_id":"cebpf4jnsgd1na2vs0mg"},{"bike_id":"b7952a4e-4f67-4643-bba5-249ca4c63383","system_id":"levelo_inurba_marseille","lat":43.25007,"lon":5.38924,"is_reserved":false,"is_disabled":false,"rental_uris":{"android":"levelo://app?vid=b7952a4e-4f67-4643-bba5-249ca4c63383","ios":"levelo://app?vid=b7952a4e-4f67-4643-bba5-249ca4c63383"},"vehicle_type_id":"4","last_reported":1758661680,"current_range_meters":16400,"station_id":"ce4bhgp2rcd13ifvqfd0","pricing_plan_id":"cebpf4jnsgd1na2vs0mg"},{"bike_id":"b5097eea-9912-4be2-9cf9-14c224c5fab6","system_id":"levelo_inurba_marseille","lat":43.23197,"lon":5.35545,"is_reserved":false,"is_disabled":false,"rental_uris":{"android":"levelo://app?vid=b5097eea-9912-4be2-9cf9-14c224c5fab6","ios":"levelo://app?vid=b5097eea-9912-4be2-9cf9-14c224c5fab6"},"vehicle_type_id":"4","last_reported":1758661680,"current_range_meters":16400,"station_id":"ce4bhu92rcd13ifvqi70","pricing_plan_id":"cebpf4jnsgd1na2vs0mg"},{"bike_id":"24f1c4f0-9fd4-4fe7-808c-93dd959e3a6e","system_id":"levelo_inurba_marseille","lat":43.32996,"lon":5.39032,"is_reserved":false,"is_disabled":false,"rental_uris":{"android":"levelo://app?vid=24f1c4f0-9fd4-4fe7-808c-93dd959e3a6e","ios":"levelo://app?vid=24f1c4f0-9fd4-4fe7-808c-93dd959e3a6e"},"vehicle_type_id":"4","last_reported":1758661680,"current_range_meters":16400,"station_id":"ce4bhr92rcd13ifvqhrg","pricing_plan_id":"cebpf4jnsgd1na2vs0mg"},{"bike_id":"986b9cd9-8427-481d-80a2-063b18f9f5cc","system_id":"levelo_inurba_marseille","lat":43.2809,"lon":5.39666,"is_reserved":false,"is_disabled":false,"rental_uris":{"android":"levelo://app?vid=986b9cd9-8427-481d-80a2-063b18f9f5cc","ios":"levelo://app?vid=986b9cd9-8427-481d-80a2-063b18f9f5cc"},"vehicle_type_id":"4","last_reported":1758661680,"current_range_meters":16400,"station_id":"ce4bho12rcd13ifvqh2g","pricing_plan_id":"cebpf4jnsgd1na2vs0mg"},{"bike_id":"c7f6a08b-c655-4213-b2ba-7d02e7f382fe","system_id":"levelo_inurba_marseille","lat":43.27984,"lon":5.39445,"is_reserved":false,"is_disabled":false,"rental_uris":{"android":"levelo://app?vid=c7f6a08b-c655-4213-b2ba-7d02e7f382fe","ios":"levelo://app?vid=c7f6a08b-c655-4213-b2ba-7d02e7f382fe"},"vehicle_type_id":"4","last_reported":1758661680,"current_range_meters":16400,"station_id":"","pricing_plan_id":"cebpf4jnsgd1na2vs0mg"},{"bike_id":"f51c1abc-0c02-4215-b3ba-2a93ae8d5cfd","system_id":"levelo_inurba_marseille","lat":43.32366,"lon":5.3889,"is_reserved":false,"is_disabled":false,"rental_uris":{"android":"levelo://app?vid=f51c1abc-0c02-4215-b3ba-2a93ae8d5cfd","ios":"levelo://app?vid=f51c1abc-0c02-4215-b3ba-2a93ae8d5cfd"},"vehicle_type_id":"4","last_reported":1758661680,"current_range_meters":16400,"station_id":"ce4bhqp2rcd13ifvqhog","pricing_plan_id":"cebpf4jnsgd1na2vs0mg"},{"bike_id":"e65f73d7-da5a-4016-9db2-a209ce44d327","system_id":"levelo_inurba_marseille","lat":43.28611,"lon":5.35107,"is_reserved":false,"is_disabled":false,"rental_uris":{"android":"levelo://app?vid=e65f73d7-da5a-4016-9db2-a209ce44d327","ios":"levelo://app?vid=e65f73d7-da5a-4016-9db2-a209ce44d327"},"vehicle_type_id":"4","last_reported":1758661680,"current_range_meters":16400,"station_id":"ce4bhch2rcd13ifvqeug","pricing_plan_id":"cebpf4jnsgd1na2vs0mg"},{"bike_id":"50bb7e23-4a6e-4d94-8961-29e9a9bd4ce4","system_id":"levelo_inurba_marseille","lat":43.258261,"lon":5.394385,"is_reserved":false,"is_disabled":false,"rental_uris":{"android":"levelo://app?vid=50bb7e23-4a6e-4d94-8961-29e9a9bd4ce4","ios":"levelo://app?vid=50bb7e23-4a6e-4d94-8961-29e9a9bd4ce4"},"vehicle_type_id":"4","last_reported":1758661680,"current_range_meters":16800,"station_id":"ce4bhip2rcd13ifvqft0","pricing_plan_id":"cebpf4jnsgd1na2vs0mg"},{"bike_id":"787fb8c7-9cda-4d69-b8c5-42fcd262adf0","system_id":"levelo_inurba_marseille","lat":43.28372,"lon":5.38637,"is_reserved":false,"is_disabled":true,"rental_uris":{"android":"levelo://app?vid=787fb8c7-9cda-4d69-b8c5-42fcd262adf0","ios":"levelo://app?vid=787fb8c7-9cda-4d69-b8c5-42fcd262adf0"},"vehicle_type_id":"4","last_reported":1758661680,"current_range_meters":16800,"station_id":"ce4bh492rcd13ifvqdvg","pricing_plan_id":"cebpf4jnsgd1na2vs0mg"},{"bike_id":"93f8abc5-7bf2-42ae-a85e-b4a1a5de88d5","system_id":"levelo_inurba_marseille","lat":43.337444,"lon":5.374475,"is_reserved":false,"is_disabled":false,"rental_uris":{"android":"levelo://app?vid=93f8abc5-7bf2-42ae-a85e-b4a1a5de88d5","ios":"levelo://app?vid=93f8abc5-7bf2-42ae-a85e-b4a1a5de88d5"},"vehicle_type_id":"4","last_reported":1758661680,"current_range_meters":16800,"station_id":"ce4bh412rcd13ifvqds0","pricing_plan_id":"cebpf4jnsgd1na2vs0mg"},{"bike_id":"5cf06fef-b1f9-49e2-a693-8534db516638","system_id":"levelo_inurba_marseille","lat":43.27446,"lon":5.39405,"is_reserved":false,"is_disabled":false,"rental_uris":{"android":"levelo://app?vid=5cf06fef-b1f9-49e2-a693-8534db516638","ios":"levelo://app?vid=5cf06fef-b1f9-49e2-a693-8534db516638"},"vehicle_type_id":"4","last_reported":1758661680,"current_range_meters":16800,"station_id":"ce4bhdp2rcd13ifvqf20","pricing_plan_id":"cebpf4jnsgd1na2vs0mg"},{"bike_id":"d5e7f1db-a250-433c-8992-01d3a8d6d17c","system_id":"levelo_inurba_marseille","lat":43.318205,"lon":5.42275,"is_reserved":false,"is_disabled":false,"rental_uris":{"android":"levelo://app?vid=d5e7f1db-a250-433c-8992-01d3a8d6d17c","ios":"levelo://app?vid=d5e7f1db-a250-433c-8992-01d3a8d6d17c"},"vehicle_type_id":"4","last_reported":1758661680,"current_range_meters":16800,"station_id":"ce4bhp92rcd13ifvqhbg","pricing_plan_id":"cebpf4jnsgd1na2vs0mg"},{"bike_id":"e986687d-6f73-4f11-a1fb-90d6d6e4a54e","system_id":"levelo_inurba_marseille","lat":43.296,"lon":5.38091,"is_reserved":false,"is_disabled":false,"rental_uris":{"android":"levelo://app?vid=e986687d-6f73-4f11-a1fb-90d6d6e4a54e","ios":"levelo://app?vid=e986687d-6f73-4f11-a1fb-90d6d6e4a54e"},"vehicle_type_id":"4","last_reported":1758661680,"current_range_meters":16800,"station_id":"ce4bgl12rcd13ifvqbo0","pricing_plan_id":"cebpf4jnsgd1na2vs0mg"},{"bike_id":"d68b9cdd-055c-48e6-b5c7-c6c683b923e5","system_id":"levelo_inurba_marseille","lat":43.28618,"lon":5.35101,"is_reserved":false,"is_disabled":true,"rental_uris":{"android":"levelo://app?vid=d68b9cdd-055c-48e6-b5c7-c6c683b923e5","ios":"levelo://app?vid=d68b9cdd-055c-48e6-b5c7-c6c683b923e5"},"vehicle_type_id":"4","last_reported":1758661680,"current_range_meters":16800,"station_id":"ce4bhch2rcd13ifvqeug","pricing_plan_id":"cebpf4jnsgd1na2vs0mg"},{"bike_id":"f8c06f7d-03bd-4462-954a-b00f606bc63d","system_id":"levelo_inurba_marseille","lat":43.25345,"lon":5.42179,"is_reserved":false,"is_disabled":false,"rental_uris":{"android":"levelo://app?vid=f8c06f7d-03bd-4462-954a-b00f606bc63d","ios":"levelo://app?vid=f8c06f7d-03bd-4462-954a-b00f606bc63d"},"vehicle_type_id":"4","last_reported":1758661680,"current_range_meters":17200,"station_id":"st_d2m65c5bi1j21697t3ng","pricing_plan_id":"cebpf4jnsgd1na2vs0mg"},{"bike_id":"f1109d1c-3dfd-4013-af5e-deeaec240c17","system_id":"levelo_inurba_marseille","lat":43.32105,"lon":5.36781,"is_reserved":false,"is_disabled":false,"rental_uris":{"android":"levelo://app?vid=f1109d1c-3dfd-4013-af5e-deeaec240c17","ios":"levelo://app?vid=f1109d1c-3dfd-4013-af5e-deeaec240c17"},"vehicle_type_id":"4","last_reported":1758661680,"current_range_meters":17200,"station_id":"ce4bhrh2rcd13ifvqhug","pricing_plan_id":"cebpf4jnsgd1na2vs0mg"},{"bike_id":"ef00c611-56e3-4d87-83a8-6fad9627913a","system_id":"levelo_inurba_marseille","lat":43.308894,"lon":5.371943,"is_reserved":false,"is_disabled":false,"rental_uris":{"android":"levelo://app?vid=ef00c611-56e3-4d87-83a8-6fad9627913a","ios":"levelo://app?vid=ef00c611-56e3-4d87-83a8-6fad9627913a"},"vehicle_type_id":"4","last_reported":1758661680,"current_range_meters":17200,"station_id":"ce4bguh2rcd13ifvqckg","pricing_plan_id":"cebpf4jnsgd1na2vs0mg"},{"bike_id":"73191c81-1d43-414e-9511-6c6ae5e9c556","system_id":"levelo_inurba_marseille","lat":43.29189,"lon":5.35805,"is_reserved":false,"is_disabled":false,"rental_uris":{"android":"levelo://app?vid=73191c81-1d43-414e-9511-6c6ae5e9c556","ios":"levelo://app?vid=73191c81-1d43-414e-9511-6c6ae5e9c556"},"vehicle_type_id":"4","last_reported":1758661680,"current_range_meters":17200,"station_id":"ce4bhb12rcd13ifvqel0","pricing_plan_id":"cebpf4jnsgd1na2vs0mg"},{"bike_id":"0ee7c44f-23ce-458a-9e87-469204bb5d2d","system_id":"levelo_inurba_marseille","lat":43.29991,"lon":5.40109,"is_reserved":false,"is_disabled":false,"rental_uris":{"android":"levelo://app?vid=0ee7c44f-23ce-458a-9e87-469204bb5d2d","ios":"levelo://app?vid=0ee7c44f-23ce-458a-9e87-469204bb5d2d"},"vehicle_type_id":"4","last_reported":1758661680,"current_range_meters":17200,"station_id":"","pricing_plan_id":"cebpf4jnsgd1na2vs0mg"},{"bike_id":"822e4d00-1937-47f6-91e3-69ab57cde6b1","system_id":"levelo_inurba_marseille","lat":43.29254,"lon":5.40908,"is_reserved":false,"is_disabled":false,"rental_uris":{"android":"levelo://app?vid=822e4d00-1937-47f6-91e3-69ab57cde6b1","ios":"levelo://app?vid=822e4d00-1937-47f6-91e3-69ab57cde6b1"},"vehicle_type_id":"4","last_reported":1758661680,"current_range_meters":17200,"station_id":"ce4bh192rcd13ifvqdc0","pricing_plan_id":"cebpf4jnsgd1na2vs0mg"},{"bike_id":"817a7689-6721-44f0-8d80-02a933ee2211","system_id":"levelo_inurba_marseille","lat":43.32506,"lon":5.41436,"is_reserved":false,"is_disabled":false,"rental_uris":{"android":"levelo://app?vid=817a7689-6721-44f0-8d80-02a933ee2211","ios":"levelo://app?vid=817a7689-6721-44f0-8d80-02a933ee2211"},"vehicle_type_id":"4","last_reported":1758661680,"current_range_meters":17200,"station_id":"ce4bhq12rcd13ifvqhhg","pricing_plan_id":"cebpf4jnsgd1na2vs0mg"},{"bike_id":"bf7922d8-f04c-44a6-912b-505ec561dd82","system_id":"levelo_inurba_marseille","lat":43.28152,"lon":5.42648,"is_reserved":false,"is_disabled":false,"rental_uris":{"android":"levelo://app?vid=bf7922d8-f04c-44a6-912b-505ec561dd82","ios":"levelo://app?vid=bf7922d8-f04c-44a6-912b-505ec561dd82"},"vehicle_type_id":"4","last_reported":1758661680,"current_range_meters":17200,"station_id":"ce4bhnh2rcd13ifvqgug","pricing_plan_id":"cebpf4jnsgd1na2vs0mg"},{"bike_id":"b48e70b2-53f1-4641-819c-a53cac59b8ed","system_id":"levelo_inurba_marseille","lat":43.258241,"lon":5.39439,"is_reserved":false,"is_disabled":false,"rental_uris":{"android":"levelo://app?vid=b48e70b2-53f1-4641-819c-a53cac59b8ed","ios":"levelo://app?vid=b48e70b2-53f1-4641-819c-a53cac59b8ed"},"vehicle_type_id":"4","last_reported":1758661680,"current_range_meters":17200,"station_id":"ce4bhip2rcd13ifvqft0","pricing_plan_id":"cebpf4jnsgd1na2vs0mg"},{"bike_id":"36b070bb-df09-4433-b99c-aab79ada22d5","system_id":"levelo_inurba_marseille","lat":43.29287,"lon":5.3744,"is_reserved":false,"is_disabled":false,"rental_uris":{"android":"levelo://app?vid=36b070bb-df09-4433-b99c-aab79ada22d5","ios":"levelo://app?vid=36b070bb-df09-4433-b99c-aab79ada22d5"},"vehicle_type_id":"4","last_reported":1758661680,"current_range_meters":17200,"station_id":"","pricing_plan_id":"cebpf4jnsgd1na2vs0mg"},{"bike_id":"0412dbb0-08ae-49a0-afef-1ad2c96f78ef","system_id":"levelo_inurba_marseille","lat":43.265689,"lon":5.403244,"is_reserved":false,"is_disabled":false,"rental_uris":{"android":"levelo://app?vid=0412dbb0-08ae-49a0-afef-1ad2c96f78ef","ios":"levelo://app?vid=0412dbb0-08ae-49a0-afef-1ad2c96f78ef"},"vehicle_type_id":"4","last_reported":1758661680,"current_range_meters":17200,"station_id":"ce4bhmp2rcd13ifvqgng","pricing_plan_id":"cebpf4jnsgd1na2vs0mg"},{"bike_id":"8c0227e3-55e8-4994-aa0c-9b6ee99b7e26","system_id":"levelo_inurba_marseille","lat":43.23061,"lon":5.35497,"is_reserved":false,"is_disabled":false,"rental_uris":{"android":"levelo://app?vid=8c0227e3-55e8-4994-aa0c-9b6ee99b7e26","ios":"levelo://app?vid=8c0227e3-55e8-4994-aa0c-9b6ee99b7e26"},"vehicle_type_id":"4","last_reported":1758661680,"current_range_meters":17600,"station_id":"cpo3342slgdg3j2ifvpg","pricing_plan_id":"cebpf4jnsgd1na2vs0mg"},{"bike_id":"0a6c2b70-1945-4951-b91b-6f290b58fe96","system_id":"levelo_inurba_marseille","lat":43.30586,"lon":5.39337,"is_reserved":false,"is_disabled":false,"rental_uris":{"android":"levelo://app?vid=0a6c2b70-1945-4951-b91b-6f290b58fe96","ios":"levelo://app?vid=0a6c2b70-1945-4951-b91b-6f290b58fe96"},"vehicle_type_id":"4","last_reported":1758661680,"current_range_meters":17600,"station_id":"ce4bh0p2rcd13ifvqd80","pricing_plan_id":"cebpf4jnsgd1na2vs0mg"},{"bike_id":"a851cae0-b395-441e-9dd1-21300baf3396","system_id":"levelo_inurba_marseille","lat":43.31512,"lon":5.3871,"is_reserved":false,"is_disabled":false,"rental_uris":{"android":"levelo://app?vid=a851cae0-b395-441e-9dd1-21300baf3396","ios":"levelo://app?vid=a851cae0-b395-441e-9dd1-21300baf3396"},"vehicle_type_id":"4","last_reported":1758661680,"current_range_meters":17600,"station_id":"","pricing_plan_id":"cebpf4jnsgd1na2vs0mg"},{"bike_id":"f66b5d9b-1629-47ea-b155-a24e3d2fc3a5","system_id":"levelo_inurba_marseille","lat":43.283593,"lon":5.386358,"is_reserved":false,"is_disabled":false,"rental_uris":{"android":"levelo://app?vid=f66b5d9b-1629-47ea-b155-a24e3d2fc3a5","ios":"levelo://app?vid=f66b5d9b-1629-47ea-b155-a24e3d2fc3a5"},"vehicle_type_id":"4","last_reported":1758661680,"current_range_meters":17600,"station_id":"ce4bh492rcd13ifvqdvg","pricing_plan_id":"cebpf4jnsgd1na2vs0mg"},{"bike_id":"a438c922-d434-4038-8185-18bf8f1d07c8","system_id":"levelo_inurba_marseille","lat":43.29278,"lon":5.40115,"is_reserved":false,"is_disabled":false,"rental_uris":{"android":"levelo://app?vid=a438c922-d434-4038-8185-18bf8f1d07c8","ios":"levelo://app?vid=a438c922-d434-4038-8185-18bf8f1d07c8"},"vehicle_type_id":"4","last_reported":1758661680,"current_range_meters":17600,"station_id":"ce4bh312rcd13ifvqdk0","pricing_plan_id":"cebpf4jnsgd1na2vs0mg"},{"bike_id":"8b69df7e-0e1a-4ea2-a182-12c76d786c77","system_id":"levelo_inurba_marseille","lat":43.28699,"lon":5.37386,"is_reserved":false,"is_disabled":false,"rental_uris":{"android":"levelo://app?vid=8b69df7e-0e1a-4ea2-a182-12c76d786c77","ios":"levelo://app?vid=8b69df7e-0e1a-4ea2-a182-12c76d786c77"},"vehicle_type_id":"4","last_reported":1758661680,"current_range_meters":17600,"station_id":"ce4bh3p2rcd13ifvqdq0","pricing_plan_id":"cebpf4jnsgd1na2vs0mg"},{"bike_id":"e2017298-7010-4fcc-9644-9ccfb0f46125","system_id":"levelo_inurba_marseille","lat":43.30108,"lon":5.41522,"is_reserved":false,"is_disabled":false,"rental_uris":{"android":"levelo://app?vid=e2017298-7010-4fcc-9644-9ccfb0f46125","ios":"levelo://app?vid=e2017298-7010-4fcc-9644-9ccfb0f46125"},"vehicle_type_id":"4","last_reported":1758661680,"current_range_meters":17600,"station_id":"","pricing_plan_id":"cebpf4jnsgd1na2vs0mg"},{"bike_id":"57b14c92-2a17-45b3-beb1-cbb460ef441b","system_id":"levelo_inurba_marseille","lat":43.23207,"lon":5.39989,"is_reserved":false,"is_disabled":false,"rental_uris":{"android":"levelo://app?vid=57b14c92-2a17-45b3-beb1-cbb460ef441b","ios":"levelo://app?vid=57b14c92-2a17-45b3-beb1-cbb460ef441b"},"vehicle_type_id":"4","last_reported":1758661680,"current_range_meters":18000,"station_id":"ce4bhn12rcd13ifvqgqg","pricing_plan_id":"cebpf4jnsgd1na2vs0mg"},{"bike_id":"e9b89614-379d-417a-8ad3-50092d4df2ac","system_id":"levelo_inurba_marseille","lat":43.29517,"lon":5.39036,"is_reserved":false,"is_disabled":false,"rental_uris":{"android":"levelo://app?vid=e9b89614-379d-417a-8ad3-50092d4df2ac","ios":"levelo://app?vid=e9b89614-379d-417a-8ad3-50092d4df2ac"},"vehicle_type_id":"4","last_reported":1758661680,"current_range_meters":18000,"station_id":"ce4bh3p2rcd13ifvqdp0","pricing_plan_id":"cebpf4jnsgd1na2vs0mg"},{"bike_id":"d9eb0f9a-cdc2-413e-a783-fd50958d16e9","system_id":"levelo_inurba_marseille","lat":43.31237,"lon":5.36847,"is_reserved":false,"is_disabled":false,"rental_uris":{"android":"levelo://app?vid=d9eb0f9a-cdc2-413e-a783-fd50958d16e9","ios":"levelo://app?vid=d9eb0f9a-cdc2-413e-a783-fd50958d16e9"},"vehicle_type_id":"4","last_reported":1758661680,"current_range_meters":17600,"station_id":"ce4bgl92rcd13ifvqbq0","pricing_plan_id":"cebpf4jnsgd1na2vs0mg"},{"bike_id":"e758b01b-ca98-467a-bdcc-b51ccfc96ed6","system_id":"levelo_inurba_marseille","lat":43.33762,"lon":5.37434,"is_reserved":false,"is_disabled":false,"rental_uris":{"android":"levelo://app?vid=e758b01b-ca98-467a-bdcc-b51ccfc96ed6","ios":"levelo://app?vid=e758b01b-ca98-467a-bdcc-b51ccfc96ed6"},"vehicle_type_id":"4","last_reported":1758661680,"current_range_meters":22400,"station_id":"","pricing_plan_id":"cebpf4jnsgd1na2vs0mg"},{"bike_id":"d3599974-e621-4ce2-8c9b-8d38c86f7517","system_id":"levelo_inurba_marseille","lat":43.30629,"lon":5.40062,"is_reserved":false,"is_disabled":false,"rental_uris":{"android":"levelo://app?vid=d3599974-e621-4ce2-8c9b-8d38c86f7517","ios":"levelo://app?vid=d3599974-e621-4ce2-8c9b-8d38c86f7517"},"vehicle_type_id":"4","last_reported":1758661680,"current_range_meters":18000,"station_id":"ce4bh112rcd13ifvqda0","pricing_plan_id":"cebpf4jnsgd1na2vs0mg"},{"bike_id":"e19472f1-87e0-4943-97f3-e785d2a10054","system_id":"levelo_inurba_marseille","lat":43.28856,"lon":5.42525,"is_reserved":false,"is_disabled":false,"rental_uris":{"android":"levelo://app?vid=e19472f1-87e0-4943-97f3-e785d2a10054","ios":"levelo://app?vid=e19472f1-87e0-4943-97f3-e785d2a10054"},"vehicle_type_id":"4","last_reported":1758661680,"current_range_meters":18000,"station_id":"","pricing_plan_id":"cebpf4jnsgd1na2vs0mg"},{"bike_id":"7471b13e-299b-4640-af83-29135da0a5cf","system_id":"levelo_inurba_marseille","lat":43.30308,"lon":5.39206,"is_reserved":false,"is_disabled":false,"rental_uris":{"android":"levelo://app?vid=7471b13e-299b-4640-af83-29135da0a5cf","ios":"levelo://app?vid=7471b13e-299b-4640-af83-29135da0a5cf"},"vehicle_type_id":"4","last_reported":1758661680,"current_range_meters":18800,"station_id":"ce4bgkh2rcd13ifvqbk0","pricing_plan_id":"cebpf4jnsgd1na2vs0mg"},{"bike_id":"39a18ca1-e53a-49e7-a186-f182991fab33","system_id":"levelo_inurba_marseille","lat":43.29972,"lon":5.38492,"is_reserved":false,"is_disabled":false,"rental_uris":{"android":"levelo://app?vid=39a18ca1-e53a-49e7-a186-f182991fab33","ios":"levelo://app?vid=39a18ca1-e53a-49e7-a186-f182991fab33"},"vehicle_type_id":"4","last_reported":1758661680,"current_range_meters":18800,"station_id":"ce4bgj92rcd13ifvqbd0","pricing_plan_id":"cebpf4jnsgd1na2vs0mg"},{"bike_id":"3cb1dae7-6bcd-41e5-b1b7-c1d25c751a99","system_id":"levelo_inurba_marseille","lat":43.337594,"lon":5.374419,"is_reserved":false,"is_disabled":false,"rental_uris":{"android":"levelo://app?vid=3cb1dae7-6bcd-41e5-b1b7-c1d25c751a99","ios":"levelo://app?vid=3cb1dae7-6bcd-41e5-b1b7-c1d25c751a99"},"vehicle_type_id":"4","last_reported":1758661680,"current_range_meters":18800,"station_id":"","pricing_plan_id":"cebpf4jnsgd1na2vs0mg"},{"bike_id":"20eace88-c493-49d0-82ad-d68f6f050420","system_id":"levelo_inurba_marseille","lat":43.2587,"lon":5.39895,"is_reserved":false,"is_disabled":false,"rental_uris":{"android":"levelo://app?vid=20eace88-c493-49d0-82ad-d68f6f050420","ios":"levelo://app?vid=20eace88-c493-49d0-82ad-d68f6f050420"},"vehicle_type_id":"4","last_reported":1758661680,"current_range_meters":18000,"station_id":"ce4bhl92rcd13ifvqghg","pricing_plan_id":"cebpf4jnsgd1na2vs0mg"},{"bike_id":"178af37d-dd54-4cf7-b80a-b996e0f2a163","system_id":"levelo_inurba_marseille","lat":43.21245,"lon":5.35057,"is_reserved":false,"is_disabled":false,"rental_uris":{"android":"levelo://app?vid=178af37d-dd54-4cf7-b80a-b996e0f2a163","ios":"levelo://app?vid=178af37d-dd54-4cf7-b80a-b996e0f2a163"},"vehicle_type_id":"4","last_reported":1758661680,"current_range_meters":18800,"station_id":"","pricing_plan_id":"cebpf4jnsgd1na2vs0mg"},{"bike_id":"8debf553-fcec-405e-8923-d181547c2da3","system_id":"levelo_inurba_marseille","lat":43.30253,"lon":5.4007,"is_reserved":false,"is_disabled":false,"rental_uris":{"android":"levelo://app?vid=8debf553-fcec-405e-8923-d181547c2da3","ios":"levelo://app?vid=8debf553-fcec-405e-8923-d181547c2da3"},"vehicle_type_id":"4","last_reported":1758661680,"current_range_meters":18800,"station_id":"ce4bgvh2rcd13ifvqcs0","pricing_plan_id":"cebpf4jnsgd1na2vs0mg"},{"bike_id":"3dbbecd9-4d5b-4497-aba7-7635aa12fe91","system_id":"levelo_inurba_marseille","lat":43.27996,"lon":5.39995,"is_reserved":false,"is_disabled":false,"rental_uris":{"android":"levelo://app?vid=3dbbecd9-4d5b-4497-aba7-7635aa12fe91","ios":"levelo://app?vid=3dbbecd9-4d5b-4497-aba7-7635aa12fe91"},"vehicle_type_id":"4","last_reported":1758661680,"current_range_meters":18800,"station_id":"ce4bho92rcd13ifvqh4g","pricing_plan_id":"cebpf4jnsgd1na2vs0mg"},{"bike_id":"02f8f0dd-f6c9-4a1f-8bdf-33a56a1c0100","system_id":"levelo_inurba_marseille","lat":43.29065,"lon":5.37996,"is_reserved":false,"is_disabled":false,"rental_uris":{"android":"levelo://app?vid=02f8f0dd-f6c9-4a1f-8bdf-33a56a1c0100","ios":"levelo://app?vid=02f8f0dd-f6c9-4a1f-8bdf-33a56a1c0100"},"vehicle_type_id":"4","last_reported":1758661680,"current_range_meters":18800,"station_id":"","pricing_plan_id":"cebpf4jnsgd1na2vs0mg"},{"bike_id":"da8e8708-8b5d-4bf2-be68-b94960adb568","system_id":"levelo_inurba_marseille","lat":43.29242,"lon":5.38439,"is_reserved":false,"is_disabled":true,"rental_uris":{"android":"levelo://app?vid=da8e8708-8b5d-4bf2-be68-b94960adb568","ios":"levelo://app?vid=da8e8708-8b5d-4bf2-be68-b94960adb568"},"vehicle_type_id":"4","last_reported":1758661680,"current_range_meters":18800,"station_id":"ce4bh692rcd13ifvqea0","pricing_plan_id":"cebpf4jnsgd1na2vs0mg"},{"bike_id":"cebc8209-2bfc-4f57-8ca3-481df1629888","system_id":"levelo_inurba_marseille","lat":43.29365,"lon":5.37868,"is_reserved":false,"is_disabled":false,"rental_uris":{"android":"levelo://app?vid=cebc8209-2bfc-4f57-8ca3-481df1629888","ios":"levelo://app?vid=cebc8209-2bfc-4f57-8ca3-481df1629888"},"vehicle_type_id":"4","last_reported":1758661680,"current_range_meters":18800,"station_id":"ce4bgjh2rcd13ifvqbf0","pricing_plan_id":"cebpf4jnsgd1na2vs0mg"},{"bike_id":"bf08355d-d0ed-49d0-b790-a31c0476ed93","system_id":"levelo_inurba_marseille","lat":43.25124,"lon":5.40324,"is_reserved":false,"is_disabled":false,"rental_uris":{"android":"levelo://app?vid=bf08355d-d0ed-49d0-b790-a31c0476ed93","ios":"levelo://app?vid=bf08355d-d0ed-49d0-b790-a31c0476ed93"},"vehicle_type_id":"4","last_reported":1758661680,"current_range_meters":18800,"station_id":"ce4bhlh2rcd13ifvqgig","pricing_plan_id":"cebpf4jnsgd1na2vs0mg"},{"bike_id":"5fb726be-412e-4b65-b587-9d991ba40c42","system_id":"levelo_inurba_marseille","lat":43.21191,"lon":5.35061,"is_reserved":false,"is_disabled":false,"rental_uris":{"android":"levelo://app?vid=5fb726be-412e-4b65-b587-9d991ba40c42","ios":"levelo://app?vid=5fb726be-412e-4b65-b587-9d991ba40c42"},"vehicle_type_id":"4","last_reported":1758661680,"current_range_meters":18800,"station_id":"ce4bhi12rcd13ifvqfp0","pricing_plan_id":"cebpf4jnsgd1na2vs0mg"},{"bike_id":"327c041e-5c9e-4b0d-a97c-a2dbaab036ae","system_id":"levelo_inurba_marseille","lat":43.32548,"lon":5.40429,"is_reserved":false,"is_disabled":false,"rental_uris":{"android":"levelo://app?vid=327c041e-5c9e-4b0d-a97c-a2dbaab036ae","ios":"levelo://app?vid=327c041e-5c9e-4b0d-a97c-a2dbaab036ae"},"vehicle_type_id":"4","last_reported":1758661680,"current_range_meters":19200,"station_id":"","pricing_plan_id":"cebpf4jnsgd1na2vs0mg"},{"bike_id":"a3e6b777-2285-4b5e-b5b8-95b4bb536e0b","system_id":"levelo_inurba_marseille","lat":43.28725,"lon":5.37925,"is_reserved":false,"is_disabled":false,"rental_uris":{"android":"levelo://app?vid=a3e6b777-2285-4b5e-b5b8-95b4bb536e0b","ios":"levelo://app?vid=a3e6b777-2285-4b5e-b5b8-95b4bb536e0b"},"vehicle_type_id":"4","last_reported":1758661680,"current_range_meters":19200,"station_id":"ce4bh9p2rcd13ifvqec0","pricing_plan_id":"cebpf4jnsgd1na2vs0mg"},{"bike_id":"8eae954c-dab6-4303-94f5-569e1c483f62","system_id":"levelo_inurba_marseille","lat":43.29435,"lon":5.40761,"is_reserved":false,"is_disabled":false,"rental_uris":{"android":"levelo://app?vid=8eae954c-dab6-4303-94f5-569e1c483f62","ios":"levelo://app?vid=8eae954c-dab6-4303-94f5-569e1c483f62"},"vehicle_type_id":"4","last_reported":1758661680,"current_range_meters":19200,"station_id":"","pricing_plan_id":"cebpf4jnsgd1na2vs0mg"},{"bike_id":"6c358240-9d0d-401e-beef-eb8202ca93b0","system_id":"levelo_inurba_marseille","lat":43.257238,"lon":5.411158,"is_reserved":false,"is_disabled":false,"rental_uris":{"android":"levelo://app?vid=6c358240-9d0d-401e-beef-eb8202ca93b0","ios":"levelo://app?vid=6c358240-9d0d-401e-beef-eb8202ca93b0"},"vehicle_type_id":"4","last_reported":1758661680,"current_range_meters":19200,"station_id":"ce4bhkp2rcd13ifvqgd0","pricing_plan_id":"cebpf4jnsgd1na2vs0mg"},{"bike_id":"32b6bcee-b0bf-4974-9edd-ae20895fd4c0","system_id":"levelo_inurba_marseille","lat":43.30684,"lon":5.40094,"is_reserved":false,"is_disabled":false,"rental_uris":{"android":"levelo://app?vid=32b6bcee-b0bf-4974-9edd-ae20895fd4c0","ios":"levelo://app?vid=32b6bcee-b0bf-4974-9edd-ae20895fd4c0"},"vehicle_type_id":"4","last_reported":1758661680,"current_range_meters":19200,"station_id":"ce4bh112rcd13ifvqda0","pricing_plan_id":"cebpf4jnsgd1na2vs0mg"},{"bike_id":"189e953a-f0f5-4c03-b7b5-2321dcc67751","system_id":"levelo_inurba_marseille","lat":43.29526,"lon":5.39035,"is_reserved":false,"is_disabled":true,"rental_uris":{"android":"levelo://app?vid=189e953a-f0f5-4c03-b7b5-2321dcc67751","ios":"levelo://app?vid=189e953a-f0f5-4c03-b7b5-2321dcc67751"},"vehicle_type_id":"4","last_reported":1758661680,"current_range_meters":19200,"station_id":"ce4bh3p2rcd13ifvqdp0","pricing_plan_id":"cebpf4jnsgd1na2vs0mg"},{"bike_id":"129c8450-4cca-4e9f-b9f6-538b0080ad49","system_id":"levelo_inurba_marseille","lat":43.32568,"lon":5.38925,"is_reserved":false,"is_disabled":false,"rental_uris":{"android":"levelo://app?vid=129c8450-4cca-4e9f-b9f6-538b0080ad49","ios":"levelo://app?vid=129c8450-4cca-4e9f-b9f6-538b0080ad49"},"vehicle_type_id":"4","last_reported":1758661680,"current_range_meters":19200,"station_id":"","pricing_plan_id":"cebpf4jnsgd1na2vs0mg"},{"bike_id":"bcb71d7d-9f90-4495-a001-e0f5211c472c","system_id":"levelo_inurba_marseille","lat":43.29785,"lon":5.37649,"is_reserved":false,"is_disabled":false,"rental_uris":{"android":"levelo://app?vid=bcb71d7d-9f90-4495-a001-e0f5211c472c","ios":"levelo://app?vid=bcb71d7d-9f90-4495-a001-e0f5211c472c"},"vehicle_type_id":"4","last_reported":1758661680,"current_range_meters":19200,"station_id":"","pricing_plan_id":"cebpf4jnsgd1na2vs0mg"},{"bike_id":"1755623a-c330-4b9a-acee-3c8817d901c0","system_id":"levelo_inurba_marseille","lat":43.30915,"lon":5.39594,"is_reserved":false,"is_disabled":false,"rental_uris":{"android":"levelo://app?vid=1755623a-c330-4b9a-acee-3c8817d901c0","ios":"levelo://app?vid=1755623a-c330-4b9a-acee-3c8817d901c0"},"vehicle_type_id":"4","last_reported":1758661680,"current_range_meters":19200,"station_id":"","pricing_plan_id":"cebpf4jnsgd1na2vs0mg"},{"bike_id":"55043fb7-0957-4299-af2e-bd2e83515f00","system_id":"levelo_inurba_marseille","lat":43.29765,"lon":5.38102,"is_reserved":false,"is_disabled":true,"rental_uris":{"android":"levelo://app?vid=55043fb7-0957-4299-af2e-bd2e83515f00","ios":"levelo://app?vid=55043fb7-0957-4299-af2e-bd2e83515f00"},"vehicle_type_id":"4","last_reported":1758661680,"current_range_meters":19200,"station_id":"ce4bgip2rcd13ifvqbb0","pricing_plan_id":"cebpf4jnsgd1na2vs0mg"},{"bike_id":"6e6abb14-c356-483a-beaf-a2aec33a383c","system_id":"levelo_inurba_marseille","lat":43.33606,"lon":5.41005,"is_reserved":false,"is_disabled":false,"rental_uris":{"android":"levelo://app?vid=6e6abb14-c356-483a-beaf-a2aec33a383c","ios":"levelo://app?vid=6e6abb14-c356-483a-beaf-a2aec33a383c"},"vehicle_type_id":"4","last_reported":1758661680,"current_range_meters":19200,"station_id":"ce4bhqh2rcd13ifvqhmg","pricing_plan_id":"cebpf4jnsgd1na2vs0mg"},{"bike_id":"5db97d1f-13d3-4441-b000-cf6b1353d7d1","system_id":"levelo_inurba_marseille","lat":43.32378,"lon":5.38884,"is_reserved":false,"is_disabled":false,"rental_uris":{"android":"levelo://app?vid=5db97d1f-13d3-4441-b000-cf6b1353d7d1","ios":"levelo://app?vid=5db97d1f-13d3-4441-b000-cf6b1353d7d1"},"vehicle_type_id":"4","last_reported":1758661680,"current_range_meters":19200,"station_id":"ce4bhqp2rcd13ifvqhog","pricing_plan_id":"cebpf4jnsgd1na2vs0mg"},{"bike_id":"df9fd904-4100-4d28-b004-33d1b1254366","system_id":"levelo_inurba_marseille","lat":43.30316,"lon":5.40433,"is_reserved":false,"is_disabled":false,"rental_uris":{"android":"levelo://app?vid=df9fd904-4100-4d28-b004-33d1b1254366","ios":"levelo://app?vid=df9fd904-4100-4d28-b004-33d1b1254366"},"vehicle_type_id":"4","last_reported":1758661680,"current_range_meters":19200,"station_id":"ce4bh012rcd13ifvqd10","pricing_plan_id":"cebpf4jnsgd1na2vs0mg"},{"bike_id":"452b9061-67e3-47b2-8dd9-90082f869ec5","system_id":"levelo_inurba_marseille","lat":43.21185,"lon":5.35092,"is_reserved":false,"is_disabled":true,"rental_uris":{"android":"levelo://app?vid=452b9061-67e3-47b2-8dd9-90082f869ec5","ios":"levelo://app?vid=452b9061-67e3-47b2-8dd9-90082f869ec5"},"vehicle_type_id":"4","last_reported":1758661680,"current_range_meters":19600,"station_id":"","pricing_plan_id":"cebpf4jnsgd1na2vs0mg"},{"bike_id":"0f9539df-509f-487e-82d0-16c840f4e781","system_id":"levelo_inurba_marseille","lat":43.314,"lon":5.38488,"is_reserved":false,"is_disabled":false,"rental_uris":{"android":"levelo://app?vid=0f9539df-509f-487e-82d0-16c840f4e781","ios":"levelo://app?vid=0f9539df-509f-487e-82d0-16c840f4e781"},"vehicle_type_id":"4","last_reported":1758661680,"current_range_meters":19600,"station_id":"ce4bgt92rcd13ifvqcf0","pricing_plan_id":"cebpf4jnsgd1na2vs0mg"},{"bike_id":"cff32680-ad32-4b76-a4c2-64992b83e29f","system_id":"levelo_inurba_marseille","lat":43.30261,"lon":5.40052,"is_reserved":false,"is_disabled":false,"rental_uris":{"android":"levelo://app?vid=cff32680-ad32-4b76-a4c2-64992b83e29f","ios":"levelo://app?vid=cff32680-ad32-4b76-a4c2-64992b83e29f"},"vehicle_type_id":"4","last_reported":1758661680,"current_range_meters":19600,"station_id":"ce4bgvh2rcd13ifvqcs0","pricing_plan_id":"cebpf4jnsgd1na2vs0mg"},{"bike_id":"0e9ca394-4351-4bf8-a641-f4e5215baf20","system_id":"levelo_inurba_marseille","lat":43.28286,"lon":5.35067,"is_reserved":false,"is_disabled":true,"rental_uris":{"android":"levelo://app?vid=0e9ca394-4351-4bf8-a641-f4e5215baf20","ios":"levelo://app?vid=0e9ca394-4351-4bf8-a641-f4e5215baf20"},"vehicle_type_id":"4","last_reported":1758661680,"current_range_meters":19600,"station_id":"ce4bhbp2rcd13ifvqerg","pricing_plan_id":"cebpf4jnsgd1na2vs0mg"},{"bike_id":"6847db21-f3fe-48db-b277-aa48de7fee75","system_id":"levelo_inurba_marseille","lat":43.31529,"lon":5.380305,"is_reserved":false,"is_disabled":false,"rental_uris":{"android":"levelo://app?vid=6847db21-f3fe-48db-b277-aa48de7fee75","ios":"levelo://app?vid=6847db21-f3fe-48db-b277-aa48de7fee75"},"vehicle_type_id":"4","last_reported":1758661680,"current_range_meters":19600,"station_id":"ce4bhsp2rcd13ifvqi50","pricing_plan_id":"cebpf4jnsgd1na2vs0mg"},{"bike_id":"5f0c51d4-3806-4fda-8794-43cbebec9e30","system_id":"levelo_inurba_marseille","lat":43.29096,"lon":5.38145,"is_reserved":false,"is_disabled":false,"rental_uris":{"android":"levelo://app?vid=5f0c51d4-3806-4fda-8794-43cbebec9e30","ios":"levelo://app?vid=5f0c51d4-3806-4fda-8794-43cbebec9e30"},"vehicle_type_id":"4","last_reported":1758661680,"current_range_meters":19600,"station_id":"ce4bh512rcd13ifvqe2g","pricing_plan_id":"cebpf4jnsgd1na2vs0mg"},{"bike_id":"9daac5d3-61aa-4838-867b-05177cf139a4","system_id":"levelo_inurba_marseille","lat":43.2257,"lon":5.41631,"is_reserved":false,"is_disabled":false,"rental_uris":{"android":"levelo://app?vid=9daac5d3-61aa-4838-867b-05177cf139a4","ios":"levelo://app?vid=9daac5d3-61aa-4838-867b-05177cf139a4"},"vehicle_type_id":"4","last_reported":1758661680,"current_range_meters":19600,"station_id":"st_d2o4gvlbi1j2169b742g","pricing_plan_id":"cebpf4jnsgd1na2vs0mg"},{"bike_id":"1136df36-4abf-480d-9607-1d20922498f7","system_id":"levelo_inurba_marseille","lat":43.26934,"lon":5.40277,"is_reserved":false,"is_disabled":false,"rental_uris":{"android":"levelo://app?vid=1136df36-4abf-480d-9607-1d20922498f7","ios":"levelo://app?vid=1136df36-4abf-480d-9607-1d20922498f7"},"vehicle_type_id":"4","last_reported":1758661680,"current_range_meters":19600,"station_id":"cjm6bp8fraef2m0cb0m0","pricing_plan_id":"cebpf4jnsgd1na2vs0mg"},{"bike_id":"1a859677-18b8-45a0-b887-542ec22c33cb","system_id":"levelo_inurba_marseille","lat":43.31999,"lon":5.38179,"is_reserved":false,"is_disabled":false,"rental_uris":{"android":"levelo://app?vid=1a859677-18b8-45a0-b887-542ec22c33cb","ios":"levelo://app?vid=1a859677-18b8-45a0-b887-542ec22c33cb"},"vehicle_type_id":"4","last_reported":1758661680,"current_range_meters":19600,"station_id":"ce4bhr12rcd13ifvqhpg","pricing_plan_id":"cebpf4jnsgd1na2vs0mg"},{"bike_id":"8ea7287b-740b-420b-8cba-7025150324d6","system_id":"levelo_inurba_marseille","lat":43.29353,"lon":5.37846,"is_reserved":false,"is_disabled":false,"rental_uris":{"android":"levelo://app?vid=8ea7287b-740b-420b-8cba-7025150324d6","ios":"levelo://app?vid=8ea7287b-740b-420b-8cba-7025150324d6"},"vehicle_type_id":"4","last_reported":1758661680,"current_range_meters":20000,"station_id":"ce4bgjh2rcd13ifvqbf0","pricing_plan_id":"cebpf4jnsgd1na2vs0mg"},{"bike_id":"79627af3-5e4c-4c79-9ce8-bb6cb8053117","system_id":"levelo_inurba_marseille","lat":43.23186,"lon":5.39999,"is_reserved":false,"is_disabled":false,"rental_uris":{"android":"levelo://app?vid=79627af3-5e4c-4c79-9ce8-bb6cb8053117","ios":"levelo://app?vid=79627af3-5e4c-4c79-9ce8-bb6cb8053117"},"vehicle_type_id":"4","last_reported":1758661680,"current_range_meters":20000,"station_id":"ce4bhn12rcd13ifvqgqg","pricing_plan_id":"cebpf4jnsgd1na2vs0mg"},{"bike_id":"8a828295-28e2-4f47-bc01-1374c80f32a1","system_id":"levelo_inurba_marseille","lat":43.23968,"lon":5.36618,"is_reserved":false,"is_disabled":true,"rental_uris":{"android":"levelo://app?vid=8a828295-28e2-4f47-bc01-1374c80f32a1","ios":"levelo://app?vid=8a828295-28e2-4f47-bc01-1374c80f32a1"},"vehicle_type_id":"4","last_reported":1758661680,"current_range_meters":20000,"station_id":"ce4bhi12rcd13ifvqfp0","pricing_plan_id":"cebpf4jnsgd1na2vs0mg"},{"bike_id":"5d34e476-b692-45cd-9a51-81f691ad62a3","system_id":"levelo_inurba_marseille","lat":43.29031,"lon":5.38657,"is_reserved":false,"is_disabled":false,"rental_uris":{"android":"levelo://app?vid=5d34e476-b692-45cd-9a51-81f691ad62a3","ios":"levelo://app?vid=5d34e476-b692-45cd-9a51-81f691ad62a3"},"vehicle_type_id":"4","last_reported":1758661680,"current_range_meters":20000,"station_id":"ce4bh4p2rcd13ifvqe0g","pricing_plan_id":"cebpf4jnsgd1na2vs0mg"},{"bike_id":"1266648c-8e12-4d66-b95a-b41f600960b1","system_id":"levelo_inurba_marseille","lat":43.2408,"lon":5.37755,"is_reserved":false,"is_disabled":false,"rental_uris":{"android":"levelo://app?vid=1266648c-8e12-4d66-b95a-b41f600960b1","ios":"levelo://app?vid=1266648c-8e12-4d66-b95a-b41f600960b1"},"vehicle_type_id":"4","last_reported":1758661680,"current_range_meters":20000,"station_id":"ce4bhnp2rcd13ifvqgvg","pricing_plan_id":"cebpf4jnsgd1na2vs0mg"},{"bike_id":"e8627790-8a87-4571-bcb3-dab4fd186c29","system_id":"levelo_inurba_marseille","lat":43.28219,"lon":5.3905,"is_reserved":false,"is_disabled":false,"rental_uris":{"android":"levelo://app?vid=e8627790-8a87-4571-bcb3-dab4fd186c29","ios":"levelo://app?vid=e8627790-8a87-4571-bcb3-dab4fd186c29"},"vehicle_type_id":"4","last_reported":1758661680,"current_range_meters":20000,"station_id":"ce4bhn92rcd13ifvqgsg","pricing_plan_id":"cebpf4jnsgd1na2vs0mg"},{"bike_id":"dc9354e7-403d-4884-95bf-6d7a164c6248","system_id":"levelo_inurba_marseille","lat":43.28385,"lon":5.38634,"is_reserved":false,"is_disabled":false,"rental_uris":{"android":"levelo://app?vid=dc9354e7-403d-4884-95bf-6d7a164c6248","ios":"levelo://app?vid=dc9354e7-403d-4884-95bf-6d7a164c6248"},"vehicle_type_id":"4","last_reported":1758661680,"current_range_meters":20000,"station_id":"ce4bh492rcd13ifvqdvg","pricing_plan_id":"cebpf4jnsgd1na2vs0mg"},{"bike_id":"6ce97256-6e29-4ee4-b817-ac92bdd5aea1","system_id":"levelo_inurba_marseille","lat":43.22534,"lon":5.34835,"is_reserved":false,"is_disabled":false,"rental_uris":{"android":"levelo://app?vid=6ce97256-6e29-4ee4-b817-ac92bdd5aea1","ios":"levelo://app?vid=6ce97256-6e29-4ee4-b817-ac92bdd5aea1"},"vehicle_type_id":"4","last_reported":1758661680,"current_range_meters":20000,"station_id":"","pricing_plan_id":"cebpf4jnsgd1na2vs0mg"},{"bike_id":"0269da92-564e-4167-8ee5-fa82c67b772b","system_id":"levelo_inurba_marseille","lat":43.292618,"lon":5.409091,"is_reserved":false,"is_disabled":false,"rental_uris":{"android":"levelo://app?vid=0269da92-564e-4167-8ee5-fa82c67b772b","ios":"levelo://app?vid=0269da92-564e-4167-8ee5-fa82c67b772b"},"vehicle_type_id":"4","last_reported":1758661680,"current_range_meters":20000,"station_id":"ce4bh192rcd13ifvqdc0","pricing_plan_id":"cebpf4jnsgd1na2vs0mg"},{"bike_id":"ac5468df-86ee-4341-b971-77e358ee7fa6","system_id":"levelo_inurba_marseille","lat":43.28621,"lon":5.351,"is_reserved":false,"is_disabled":false,"rental_uris":{"android":"levelo://app?vid=ac5468df-86ee-4341-b971-77e358ee7fa6","ios":"levelo://app?vid=ac5468df-86ee-4341-b971-77e358ee7fa6"},"vehicle_type_id":"4","last_reported":1758661680,"current_range_meters":20000,"station_id":"ce4bhch2rcd13ifvqeug","pricing_plan_id":"cebpf4jnsgd1na2vs0mg"},{"bike_id":"f2f35d28-0d3a-4b43-99dc-ef80d376d863","system_id":"levelo_inurba_marseille","lat":43.30802,"lon":5.43408,"is_reserved":false,"is_disabled":false,"rental_uris":{"android":"levelo://app?vid=f2f35d28-0d3a-4b43-99dc-ef80d376d863","ios":"levelo://app?vid=f2f35d28-0d3a-4b43-99dc-ef80d376d863"},"vehicle_type_id":"4","last_reported":1758661680,"current_range_meters":20000,"station_id":"ce4bhph2rcd13ifvqheg","pricing_plan_id":"cebpf4jnsgd1na2vs0mg"},{"bike_id":"e4b90c88-c560-4105-b17b-77a9a236e47b","system_id":"levelo_inurba_marseille","lat":43.28015,"lon":5.40035,"is_reserved":false,"is_disabled":false,"rental_uris":{"android":"levelo://app?vid=e4b90c88-c560-4105-b17b-77a9a236e47b","ios":"levelo://app?vid=e4b90c88-c560-4105-b17b-77a9a236e47b"},"vehicle_type_id":"4","last_reported":1758661680,"current_range_meters":20000,"station_id":"ce4bho92rcd13ifvqh4g","pricing_plan_id":"cebpf4jnsgd1na2vs0mg"},{"bike_id":"e6337b8e-5e2d-4a14-9d64-9c419f36bd22","system_id":"levelo_inurba_marseille","lat":43.27986,"lon":5.41658,"is_reserved":false,"is_disabled":false,"rental_uris":{"android":"levelo://app?vid=e6337b8e-5e2d-4a14-9d64-9c419f36bd22","ios":"levelo://app?vid=e6337b8e-5e2d-4a14-9d64-9c419f36bd22"},"vehicle_type_id":"4","last_reported":1758661680,"current_range_meters":20000,"station_id":"ce4bho12rcd13ifvqh1g","pricing_plan_id":"cebpf4jnsgd1na2vs0mg"},{"bike_id":"4342a142-70b9-4566-a52e-9ccaf81ccd90","system_id":"levelo_inurba_marseille","lat":43.25334,"lon":5.42168,"is_reserved":false,"is_disabled":false,"rental_uris":{"android":"levelo://app?vid=4342a142-70b9-4566-a52e-9ccaf81ccd90","ios":"levelo://app?vid=4342a142-70b9-4566-a52e-9ccaf81ccd90"},"vehicle_type_id":"4","last_reported":1758661680,"current_range_meters":20400,"station_id":"st_d2m65c5bi1j21697t3ng","pricing_plan_id":"cebpf4jnsgd1na2vs0mg"},{"bike_id":"2bd2a176-8590-4e06-8b8c-a96b49b7b36a","system_id":"levelo_inurba_marseille","lat":43.262237,"lon":5.404538,"is_reserved":false,"is_disabled":false,"rental_uris":{"android":"levelo://app?vid=2bd2a176-8590-4e06-8b8c-a96b49b7b36a","ios":"levelo://app?vid=2bd2a176-8590-4e06-8b8c-a96b49b7b36a"},"vehicle_type_id":"4","last_reported":1758661680,"current_range_meters":20400,"station_id":"","pricing_plan_id":"cebpf4jnsgd1na2vs0mg"},{"bike_id":"c9183adb-cc92-4c53-b9e5-811f4ffd474b","system_id":"levelo_inurba_marseille","lat":43.28482,"lon":5.38441,"is_reserved":false,"is_disabled":true,"rental_uris":{"android":"levelo://app?vid=c9183adb-cc92-4c53-b9e5-811f4ffd474b","ios":"levelo://app?vid=c9183adb-cc92-4c53-b9e5-811f4ffd474b"},"vehicle_type_id":"4","last_reported":1758661680,"current_range_meters":20400,"station_id":"ce4bh512rcd13ifvqe3g","pricing_plan_id":"cebpf4jnsgd1na2vs0mg"},{"bike_id":"ed625854-ee6d-4f6a-bb7e-f224f01cbaf6","system_id":"levelo_inurba_marseille","lat":43.28873,"lon":5.35816,"is_reserved":false,"is_disabled":false,"rental_uris":{"android":"levelo://app?vid=ed625854-ee6d-4f6a-bb7e-f224f01cbaf6","ios":"levelo://app?vid=ed625854-ee6d-4f6a-bb7e-f224f01cbaf6"},"vehicle_type_id":"4","last_reported":1758661680,"current_range_meters":20400,"station_id":"ce4bhb12rcd13ifvqem0","pricing_plan_id":"cebpf4jnsgd1na2vs0mg"},{"bike_id":"7d263a10-eb17-4696-bdc4-6f643169bc29","system_id":"levelo_inurba_marseille","lat":43.29306,"lon":5.37172,"is_reserved":false,"is_disabled":false,"rental_uris":{"android":"levelo://app?vid=7d263a10-eb17-4696-bdc4-6f643169bc29","ios":"levelo://app?vid=7d263a10-eb17-4696-bdc4-6f643169bc29"},"vehicle_type_id":"4","last_reported":1758661680,"current_range_meters":20400,"station_id":"","pricing_plan_id":"cebpf4jnsgd1na2vs0mg"},{"bike_id":"179c662a-e8cd-4245-8d8b-ee10052bfe85","system_id":"levelo_inurba_marseille","lat":43.29058,"lon":5.37576,"is_reserved":false,"is_disabled":false,"rental_uris":{"android":"levelo://app?vid=179c662a-e8cd-4245-8d8b-ee10052bfe85","ios":"levelo://app?vid=179c662a-e8cd-4245-8d8b-ee10052bfe85"},"vehicle_type_id":"4","last_reported":1758661680,"current_range_meters":20400,"station_id":"ce4bh692rcd13ifvqe90","pricing_plan_id":"cebpf4jnsgd1na2vs0mg"},{"bike_id":"6d9e0ff4-906e-4679-be3b-cdf49be887cb","system_id":"levelo_inurba_marseille","lat":43.27989,"lon":5.41663,"is_reserved":false,"is_disabled":false,"rental_uris":{"android":"levelo://app?vid=6d9e0ff4-906e-4679-be3b-cdf49be887cb","ios":"levelo://app?vid=6d9e0ff4-906e-4679-be3b-cdf49be887cb"},"vehicle_type_id":"4","last_reported":1758661680,"current_range_meters":20400,"station_id":"ce4bho12rcd13ifvqh1g","pricing_plan_id":"cebpf4jnsgd1na2vs0mg"},{"bike_id":"c8d7352e-3b71-4d21-84fd-94bbe6641e21","system_id":"levelo_inurba_marseille","lat":43.243911,"lon":5.370596,"is_reserved":false,"is_disabled":false,"rental_uris":{"android":"levelo://app?vid=c8d7352e-3b71-4d21-84fd-94bbe6641e21","ios":"levelo://app?vid=c8d7352e-3b71-4d21-84fd-94bbe6641e21"},"vehicle_type_id":"4","last_reported":1758661680,"current_range_meters":20400,"station_id":"ce4bhhh2rcd13ifvqfk0","pricing_plan_id":"cebpf4jnsgd1na2vs0mg"},{"bike_id":"e7a19603-697e-4f34-bf6e-d21cb8ee387e","system_id":"levelo_inurba_marseille","lat":43.26088,"lon":5.39406,"is_reserved":false,"is_disabled":true,"rental_uris":{"android":"levelo://app?vid=e7a19603-697e-4f34-bf6e-d21cb8ee387e","ios":"levelo://app?vid=e7a19603-697e-4f34-bf6e-d21cb8ee387e"},"vehicle_type_id":"4","last_reported":1758661680,"current_range_meters":20800,"station_id":"ce4bhh92rcd13ifvqfj0","pricing_plan_id":"cebpf4jnsgd1na2vs0mg"},{"bike_id":"bc1f7f7d-2b11-48f3-a868-277314cf5cbb","system_id":"levelo_inurba_marseille","lat":43.30601,"lon":5.37232,"is_reserved":false,"is_disabled":false,"rental_uris":{"android":"levelo://app?vid=bc1f7f7d-2b11-48f3-a868-277314cf5cbb","ios":"levelo://app?vid=bc1f7f7d-2b11-48f3-a868-277314cf5cbb"},"vehicle_type_id":"4","last_reported":1758661680,"current_range_meters":20800,"station_id":"ce4bgqh2rcd13ifvqc4g","pricing_plan_id":"cebpf4jnsgd1na2vs0mg"},{"bike_id":"9ed13a1d-cf97-4e21-a7f0-2871c7659984","system_id":"levelo_inurba_marseille","lat":43.29632,"lon":5.40594,"is_reserved":false,"is_disabled":false,"rental_uris":{"android":"levelo://app?vid=9ed13a1d-cf97-4e21-a7f0-2871c7659984","ios":"levelo://app?vid=9ed13a1d-cf97-4e21-a7f0-2871c7659984"},"vehicle_type_id":"4","last_reported":1758661680,"current_range_meters":20800,"station_id":"ce4bh0h2rcd13ifvqd60","pricing_plan_id":"cebpf4jnsgd1na2vs0mg"},{"bike_id":"ff898cc4-e357-4e75-a6cb-dc3f7c91f054","system_id":"levelo_inurba_marseille","lat":43.21742,"lon":5.34598,"is_reserved":false,"is_disabled":true,"rental_uris":{"android":"levelo://app?vid=ff898cc4-e357-4e75-a6cb-dc3f7c91f054","ios":"levelo://app?vid=ff898cc4-e357-4e75-a6cb-dc3f7c91f054"},"vehicle_type_id":"4","last_reported":1758661680,"current_range_meters":20800,"station_id":"st_cvj6r9ubvosntc0bgbag","pricing_plan_id":"cebpf4jnsgd1na2vs0mg"},{"bike_id":"a6ad0c6c-868d-42f3-ba54-573e1a175a36","system_id":"levelo_inurba_marseille","lat":43.26255,"lon":5.41301,"is_reserved":false,"is_disabled":false,"rental_uris":{"android":"levelo://app?vid=a6ad0c6c-868d-42f3-ba54-573e1a175a36","ios":"levelo://app?vid=a6ad0c6c-868d-42f3-ba54-573e1a175a36"},"vehicle_type_id":"4","last_reported":1758661680,"current_range_meters":20800,"station_id":"","pricing_plan_id":"cebpf4jnsgd1na2vs0mg"},{"bike_id":"44f1eaf0-9e53-46af-85bb-81d3e73f8a96","system_id":"levelo_inurba_marseille","lat":43.28858,"lon":5.39334,"is_reserved":false,"is_disabled":true,"rental_uris":{"android":"levelo://app?vid=44f1eaf0-9e53-46af-85bb-81d3e73f8a96","ios":"levelo://app?vid=44f1eaf0-9e53-46af-85bb-81d3e73f8a96"},"vehicle_type_id":"4","last_reported":1758661680,"current_range_meters":20800,"station_id":"ce4bh2p2rcd13ifvqdi0","pricing_plan_id":"cebpf4jnsgd1na2vs0mg"},{"bike_id":"93ea507f-2430-4803-ba0e-45e688db5e68","system_id":"levelo_inurba_marseille","lat":43.298626,"lon":5.389122,"is_reserved":false,"is_disabled":false,"rental_uris":{"android":"levelo://app?vid=93ea507f-2430-4803-ba0e-45e688db5e68","ios":"levelo://app?vid=93ea507f-2430-4803-ba0e-45e688db5e68"},"vehicle_type_id":"4","last_reported":1758661680,"current_range_meters":21600,"station_id":"ce4bh392rcd13ifvqdl0","pricing_plan_id":"cebpf4jnsgd1na2vs0mg"},{"bike_id":"003515e8-8117-44bb-979d-5f47e8d50fda","system_id":"levelo_inurba_marseille","lat":43.30638,"lon":5.3758,"is_reserved":false,"is_disabled":false,"rental_uris":{"android":"levelo://app?vid=003515e8-8117-44bb-979d-5f47e8d50fda","ios":"levelo://app?vid=003515e8-8117-44bb-979d-5f47e8d50fda"},"vehicle_type_id":"4","last_reported":1758661680,"current_range_meters":21600,"station_id":"","pricing_plan_id":"cebpf4jnsgd1na2vs0mg"},{"bike_id":"97039272-1606-4f77-a0db-979de455505a","system_id":"levelo_inurba_marseille","lat":43.32408,"lon":5.39317,"is_reserved":false,"is_disabled":false,"rental_uris":{"android":"levelo://app?vid=97039272-1606-4f77-a0db-979de455505a","ios":"levelo://app?vid=97039272-1606-4f77-a0db-979de455505a"},"vehicle_type_id":"4","last_reported":1758661680,"current_range_meters":21600,"station_id":"","pricing_plan_id":"cebpf4jnsgd1na2vs0mg"},{"bike_id":"573525ee-0a6a-4169-8294-7a89fdbf9d63","system_id":"levelo_inurba_marseille","lat":43.30505,"lon":5.3682,"is_reserved":false,"is_disabled":false,"rental_uris":{"android":"levelo://app?vid=573525ee-0a6a-4169-8294-7a89fdbf9d63","ios":"levelo://app?vid=573525ee-0a6a-4169-8294-7a89fdbf9d63"},"vehicle_type_id":"4","last_reported":1758661680,"current_range_meters":21600,"station_id":"","pricing_plan_id":"cebpf4jnsgd1na2vs0mg"},{"bike_id":"4b7580a2-2e98-4ffe-8874-9e420d2498f5","system_id":"levelo_inurba_marseille","lat":43.25334,"lon":5.42166,"is_reserved":false,"is_disabled":false,"rental_uris":{"android":"levelo://app?vid=4b7580a2-2e98-4ffe-8874-9e420d2498f5","ios":"levelo://app?vid=4b7580a2-2e98-4ffe-8874-9e420d2498f5"},"vehicle_type_id":"4","last_reported":1758661680,"current_range_meters":21600,"station_id":"st_d2m65c5bi1j21697t3ng","pricing_plan_id":"cebpf4jnsgd1na2vs0mg"},{"bike_id":"bb933b68-c692-46c3-a6fe-78c1e6e9fe0f","system_id":"levelo_inurba_marseille","lat":43.27379,"lon":5.362523,"is_reserved":false,"is_disabled":false,"rental_uris":{"android":"levelo://app?vid=bb933b68-c692-46c3-a6fe-78c1e6e9fe0f","ios":"levelo://app?vid=bb933b68-c692-46c3-a6fe-78c1e6e9fe0f"},"vehicle_type_id":"4","last_reported":1758661680,"current_range_meters":21600,"station_id":"ce4bhbh2rcd13ifvqeo0","pricing_plan_id":"cebpf4jnsgd1na2vs0mg"},{"bike_id":"a8106c10-9347-4448-a569-fcfcc5d97838","system_id":"levelo_inurba_marseille","lat":43.33729,"lon":5.37468,"is_reserved":false,"is_disabled":false,"rental_uris":{"android":"levelo://app?vid=a8106c10-9347-4448-a569-fcfcc5d97838","ios":"levelo://app?vid=a8106c10-9347-4448-a569-fcfcc5d97838"},"vehicle_type_id":"4","last_reported":1758661680,"current_range_meters":21600,"station_id":"","pricing_plan_id":"cebpf4jnsgd1na2vs0mg"},{"bike_id":"93858309-d4a4-443a-a289-bcf5dcef1514","system_id":"levelo_inurba_marseille","lat":43.27073,"lon":5.42276,"is_reserved":false,"is_disabled":false,"rental_uris":{"android":"levelo://app?vid=93858309-d4a4-443a-a289-bcf5dcef1514","ios":"levelo://app?vid=93858309-d4a4-443a-a289-bcf5dcef1514"},"vehicle_type_id":"4","last_reported":1758661680,"current_range_meters":21600,"station_id":"ce4bhk92rcd13ifvqgb0","pricing_plan_id":"cebpf4jnsgd1na2vs0mg"},{"bike_id":"16d9a464-95f6-4241-939a-8d28eb548d4d","system_id":"levelo_inurba_marseille","lat":43.28625,"lon":5.35105,"is_reserved":false,"is_disabled":true,"rental_uris":{"android":"levelo://app?vid=16d9a464-95f6-4241-939a-8d28eb548d4d","ios":"levelo://app?vid=16d9a464-95f6-4241-939a-8d28eb548d4d"},"vehicle_type_id":"4","last_reported":1758661680,"current_range_meters":21600,"station_id":"ce4bhch2rcd13ifvqeug","pricing_plan_id":"cebpf4jnsgd1na2vs0mg"},{"bike_id":"26645e03-c8d5-4f86-9627-b4c52f808188","system_id":"levelo_inurba_marseille","lat":43.309099,"lon":5.396348,"is_reserved":false,"is_disabled":false,"rental_uris":{"android":"levelo://app?vid=26645e03-c8d5-4f86-9627-b4c52f808188","ios":"levelo://app?vid=26645e03-c8d5-4f86-9627-b4c52f808188"},"vehicle_type_id":"4","last_reported":1758661680,"current_range_meters":21600,"station_id":"ce4bh012rcd13ifvqcv0","pricing_plan_id":"cebpf4jnsgd1na2vs0mg"},{"bike_id":"1544f695-0e61-46b6-a7ce-c0e6c37e3895","system_id":"levelo_inurba_marseille","lat":43.29976,"lon":5.3718,"is_reserved":false,"is_disabled":false,"rental_uris":{"android":"levelo://app?vid=1544f695-0e61-46b6-a7ce-c0e6c37e3895","ios":"levelo://app?vid=1544f695-0e61-46b6-a7ce-c0e6c37e3895"},"vehicle_type_id":"4","last_reported":1758661680,"current_range_meters":21600,"station_id":"ce4bgr92rcd13ifvqc7g","pricing_plan_id":"cebpf4jnsgd1na2vs0mg"},{"bike_id":"d087f77a-406c-4d5a-be43-4950dac65ee4","system_id":"levelo_inurba_marseille","lat":43.2439,"lon":5.3706,"is_reserved":false,"is_disabled":true,"rental_uris":{"android":"levelo://app?vid=d087f77a-406c-4d5a-be43-4950dac65ee4","ios":"levelo://app?vid=d087f77a-406c-4d5a-be43-4950dac65ee4"},"vehicle_type_id":"4","last_reported":1758661680,"current_range_meters":22000,"station_id":"ce4bhhh2rcd13ifvqfk0","pricing_plan_id":"cebpf4jnsgd1na2vs0mg"},{"bike_id":"f8a2532a-7e0e-4316-8015-25acc40b6db7","system_id":"levelo_inurba_marseille","lat":43.2811,"lon":5.37836,"is_reserved":false,"is_disabled":false,"rental_uris":{"android":"levelo://app?vid=f8a2532a-7e0e-4316-8015-25acc40b6db7","ios":"levelo://app?vid=f8a2532a-7e0e-4316-8015-25acc40b6db7"},"vehicle_type_id":"4","last_reported":1758661680,"current_range_meters":22000,"station_id":"ce4bha12rcd13ifvqee0","pricing_plan_id":"cebpf4jnsgd1na2vs0mg"},{"bike_id":"ef99f425-b8b3-4d9a-98e8-cf1686560b64","system_id":"levelo_inurba_marseille","lat":43.30731,"lon":5.4244,"is_reserved":false,"is_disabled":false,"rental_uris":{"android":"levelo://app?vid=ef99f425-b8b3-4d9a-98e8-cf1686560b64","ios":"levelo://app?vid=ef99f425-b8b3-4d9a-98e8-cf1686560b64"},"vehicle_type_id":"4","last_reported":1758661680,"current_range_meters":22000,"station_id":"st_cvj6ca6bvosntc0bfgr0","pricing_plan_id":"cebpf4jnsgd1na2vs0mg"},{"bike_id":"6aad9f27-2ba3-43ec-89ce-ccabbbe9acaa","system_id":"levelo_inurba_marseille","lat":43.29981,"lon":5.37179,"is_reserved":false,"is_disabled":false,"rental_uris":{"android":"levelo://app?vid=6aad9f27-2ba3-43ec-89ce-ccabbbe9acaa","ios":"levelo://app?vid=6aad9f27-2ba3-43ec-89ce-ccabbbe9acaa"},