{"last_updated":1752344045,"ttl":60,"version":"2.2","data":{"bikes":[{"bike_id":"380456c5-166f-412f-8cc7-64f9bf7c0999","system_id":"levelo_inurba_marseille","lat":43.29014,"lon":5.38128,"is_reserved":false,"is_disabled":false,"rental_uris":{"android":"levelo://app?vid=380456c5-166f-412f-8cc7-64f9bf7c0999","ios":"levelo://app?vid=380456c5-166f-412f-8cc7-64f9bf7c0999"},"vehicle_type_id":"4","last_reported":1752344045,"current_range_meters":2800,"station_id":"ce4bh4p2rcd13ifvqe1g","pricing_plan_id":"cebpf4jnsgd1na2vs0mg"},{"bike_id":"95a256e0-8159-404a-b562-5c8984ad4ec8","system_id":"levelo_inurba_marseille","lat":43.320565,"lon":5.415398,"is_reserved":false,"is_disabled":false,"rental_uris":{"android":"levelo://app?vid=95a256e0-8159-404a-b562-5c8984ad4ec8","ios":"levelo://app?vid=95a256e0-8159-404a-b562-5c8984ad4ec8"},"vehicle_type_id":"4","last_reported":1752344045,"current_range_meters":2800,"station_id":"ce4bhq92rcd13ifvqhkg","pricing_plan_id":"cebpf4jnsgd1na2vs0mg"},{"bike_id":"733cdf2f-9344-485e-af92-546feccd0261","system_id":"levelo_inurba_marseille","lat":43.30545,"lon":5.365609,"is_reserved":false,"is_disabled":true,"rental_uris":{"android":"levelo://app?vid=733cdf2f-9344-485e-af92-546feccd0261","ios":"levelo://app?vid=733cdf2f-9344-485e-af92-546feccd0261"},"vehicle_type_id":"4","last_reported":1752344045,"current_range_meters":3200,"station_id":"ce4bgs12rcd13ifvqcag","pricing_plan_id":"cebpf4jnsgd1na2vs0mg"},{"bike_id":"2e3f75d1-d934-410a-bd58-2a5b0afcc2a0","system_id":"levelo_inurba_marseille","lat":43.29712,"lon":5.37698,"is_reserved":false,"is_disabled":false,"rental_uris":{"android":"levelo://app?vid=2e3f75d1-d934-410a-bd58-2a5b0afcc2a0","ios":"levelo://app?vid=2e3f75d1-d934-410a-bd58-2a5b0afcc2a0"},"vehicle_type_id":"4","last_reported":1752344045,"current_range_meters":3200,"station_id":"ce4bgkh2rcd13ifvqbl0","pricing_plan_id":"cebpf4jnsgd1na2vs0mg"},{"bike_id":"0608d800-097b-4f70-a518-7bebbd73d51f","system_id":"levelo_inurba_marseille","lat":43.31358,"lon":5.38494,"is_reserved":false,"is_disabled":true,"rental_uris":{"android":"levelo://app?vid=0608d800-097b-4f70-a518-7bebbd73d51f","ios":"levelo://app?vid=0608d800-097b-4f70-a518-7bebbd73d51f"},"vehicle_type_id":"4","last_reported":1752344045,"current_range_meters":3200,"station_id":"ce4bgt92rcd13ifvqcf0","pricing_plan_id":"cebpf4jnsgd1na2vs0mg"},{"bike_id":"f1ada2fb-fc94-45fb-b78f-9e90eeb23476","system_id":"levelo_inurba_marseille","lat":43.304236,"lon":5.397466,"is_reserved":false,"is_disabled":false,"rental_uris":{"android":"levelo://app?vid=f1ada2fb-fc94-45fb-b78f-9e90eeb23476","ios":"levelo://app?vid=f1ada2fb-fc94-45fb-b78f-9e90eeb23476"},"vehicle_type_id":"4","last_reported":1752344045,"current_range_meters":3600,"station_id":"ce4bh092rcd13ifvqd20","pricing_plan_id":"cebpf4jnsgd1na2vs0mg"},{"bike_id":"c3f1f050-c2eb-4eb9-9fa0-937b836318b1","system_id":"levelo_inurba_marseille","lat":43.31274,"lon":5.40143,"is_reserved":false,"is_disabled":false,"rental_uris":{"android":"levelo://app?vid=c3f1f050-c2eb-4eb9-9fa0-937b836318b1","ios":"levelo://app?vid=c3f1f050-c2eb-4eb9-9fa0-937b836318b1"},"vehicle_type_id":"4","last_reported":1752344045,"current_range_meters":3600,"station_id":"ce4bh092rcd13ifvqd30","pricing_plan_id":"cebpf4jnsgd1na2vs0mg"},{"bike_id":"727b6e07-ba0e-458b-950a-dfe9ba10b4a4","system_id":"levelo_inurba_marseille","lat":43.30936,"lon":5.40136,"is_reserved":false,"is_disabled":false,"rental_uris":{"android":"levelo://app?vid=727b6e07-ba0e-458b-950a-dfe9ba10b4a4","ios":"levelo://app?vid=727b6e07-ba0e-458b-950a-dfe9ba10b4a4"},"vehicle_type_id":"4","last_reported":1752344045,"current_range_meters":3600,"station_id":"ce4bgvp2rcd13ifvqct0","pricing_plan_id":"cebpf4jnsgd1na2vs0mg"},{"bike_id":"2346baa2-6b00-45fd-b408-226d9322baeb","system_id":"levelo_inurba_marseille","lat":43.3234,"lon":5.38868,"is_reserved":false,"is_disabled":false,"rental_uris":{"android":"levelo://app?vid=2346baa2-6b00-45fd-b408-226d9322baeb","ios":"levelo://app?vid=2346baa2-6b00-45fd-b408-226d9322baeb"},"vehicle_type_id":"4","last_reported":1752344045,"current_range_meters":4000,"station_id":"ce4bhqp2rcd13ifvqhog","pricing_plan_id":"cebpf4jnsgd1na2vs0mg"},{"bike_id":"0c0dcd33-db71-4f0b-bb0d-b9247bdf9957","system_id":"levelo_inurba_marseille","lat":43.27919,"lon":5.39577,"is_reserved":false,"is_disabled":false,"rental_uris":{"android":"levelo://app?vid=0c0dcd33-db71-4f0b-bb0d-b9247bdf9957","ios":"levelo://app?vid=0c0dcd33-db71-4f0b-bb0d-b9247bdf9957"},"vehicle_type_id":"4","last_reported":1752344045,"current_range_meters":4000,"station_id":"ce4bhf92rcd13ifvqf40","pricing_plan_id":"cebpf4jnsgd1na2vs0mg"},{"bike_id":"f981747a-fa23-4a99-a648-cae41bfbcb68","system_id":"levelo_inurba_marseille","lat":43.27071,"lon":5.42278,"is_reserved":false,"is_disabled":false,"rental_uris":{"android":"levelo://app?vid=f981747a-fa23-4a99-a648-cae41bfbcb68","ios":"levelo://app?vid=f981747a-fa23-4a99-a648-cae41bfbcb68"},"vehicle_type_id":"4","last_reported":1752344045,"current_range_meters":4000,"station_id":"ce4bhk92rcd13ifvqgb0","pricing_plan_id":"cebpf4jnsgd1na2vs0mg"},{"bike_id":"92505eb1-6c22-4a49-bc06-f1f200b19eb5","system_id":"levelo_inurba_marseille","lat":43.29282,"lon":5.36836,"is_reserved":false,"is_disabled":false,"rental_uris":{"android":"levelo://app?vid=92505eb1-6c22-4a49-bc06-f1f200b19eb5","ios":"levelo://app?vid=92505eb1-6c22-4a49-bc06-f1f200b19eb5"},"vehicle_type_id":"4","last_reported":1752344045,"current_range_meters":4400,"station_id":"ce4bhbp2rcd13ifvqesg","pricing_plan_id":"cebpf4jnsgd1na2vs0mg"},{"bike_id":"5d58da4a-019c-47a4-ae55-3d3c5b2d6a02","system_id":"levelo_inurba_marseille","lat":43.29536,"lon":5.38539,"is_reserved":false,"is_disabled":false,"rental_uris":{"android":"levelo://app?vid=5d58da4a-019c-47a4-ae55-3d3c5b2d6a02","ios":"levelo://app?vid=5d58da4a-019c-47a4-ae55-3d3c5b2d6a02"},"vehicle_type_id":"4","last_reported":1752344045,"current_range_meters":4800,"station_id":"ce4bgih2rcd13ifvqba0","pricing_plan_id":"cebpf4jnsgd1na2vs0mg"},{"bike_id":"830739b6-57aa-4185-95a0-7b6768f6ba37","system_id":"levelo_inurba_marseille","lat":43.29577,"lon":5.37512,"is_reserved":false,"is_disabled":false,"rental_uris":{"android":"levelo://app?vid=830739b6-57aa-4185-95a0-7b6768f6ba37","ios":"levelo://app?vid=830739b6-57aa-4185-95a0-7b6768f6ba37"},"vehicle_type_id":"4","last_reported":1752344045,"current_range_meters":4800,"station_id":"ce4bgh92rcd13ifvqb50","pricing_plan_id":"cebpf4jnsgd1na2vs0mg"},{"bike_id":"863afab1-12de-4ef3-a28f-c827972b2f02","system_id":"levelo_inurba_marseille","lat":43.29724,"lon":5.37686,"is_reserved":false,"is_disabled":false,"rental_uris":{"android":"levelo://app?vid=863afab1-12de-4ef3-a28f-c827972b2f02","ios":"levelo://app?vid=863afab1-12de-4ef3-a28f-c827972b2f02"},"vehicle_type_id":"4","last_reported":1752344045,"current_range_meters":5600,"station_id":"ce4bgkh2rcd13ifvqbl0","pricing_plan_id":"cebpf4jnsgd1na2vs0mg"},{"bike_id":"f4d2a92b-5486-45cc-9ad6-6ed5cfd5f1c0","system_id":"levelo_inurba_marseille","lat":43.30795,"lon":5.37948,"is_reserved":false,"is_disabled":false,"rental_uris":{"android":"levelo://app?vid=f4d2a92b-5486-45cc-9ad6-6ed5cfd5f1c0","ios":"levelo://app?vid=f4d2a92b-5486-45cc-9ad6-6ed5cfd5f1c0"},"vehicle_type_id":"4","last_reported":1752344045,"current_range_meters":5600,"station_id":"","pricing_plan_id":"cebpf4jnsgd1na2vs0mg"},{"bike_id":"8af2c016-7437-497b-8472-699b8e5dfde0","system_id":"levelo_inurba_marseille","lat":43.25493,"lon":5.37655,"is_reserved":false,"is_disabled":false,"rental_uris":{"android":"levelo://app?vid=8af2c016-7437-497b-8472-699b8e5dfde0","ios":"levelo://app?vid=8af2c016-7437-497b-8472-699b8e5dfde0"},"vehicle_type_id":"4","last_reported":1752344045,"current_range_meters":6000,"station_id":"ce4bhh12rcd13ifvqff0","pricing_plan_id":"cebpf4jnsgd1na2vs0mg"},{"bike_id":"3ae28166-dd5a-4dd4-908b-0aab66521097","system_id":"levelo_inurba_marseille","lat":43.29034,"lon":5.38638,"is_reserved":false,"is_disabled":false,"rental_uris":{"android":"levelo://app?vid=3ae28166-dd5a-4dd4-908b-0aab66521097","ios":"levelo://app?vid=3ae28166-dd5a-4dd4-908b-0aab66521097"},"vehicle_type_id":"4","last_reported":1752344045,"current_range_meters":6000,"station_id":"ce4bh4p2rcd13ifvqe0g","pricing_plan_id":"cebpf4jnsgd1na2vs0mg"},{"bike_id":"55e6470f-2df5-43f8-8f28-e60ad2051a01","system_id":"levelo_inurba_marseille","lat":43.30906,"lon":5.36846,"is_reserved":false,"is_disabled":false,"rental_uris":{"android":"levelo://app?vid=55e6470f-2df5-43f8-8f28-e60ad2051a01","ios":"levelo://app?vid=55e6470f-2df5-43f8-8f28-e60ad2051a01"},"vehicle_type_id":"4","last_reported":1752344045,"current_range_meters":6400,"station_id":"ce4bgn92rcd13ifvqbvg","pricing_plan_id":"cebpf4jnsgd1na2vs0mg"},{"bike_id":"c4cb91f3-21de-4fc5-9c62-bcf13ddf8388","system_id":"levelo_inurba_marseille","lat":43.26581,"lon":5.38986,"is_reserved":false,"is_disabled":true,"rental_uris":{"android":"levelo://app?vid=c4cb91f3-21de-4fc5-9c62-bcf13ddf8388","ios":"levelo://app?vid=c4cb91f3-21de-4fc5-9c62-bcf13ddf8388"},"vehicle_type_id":"4","last_reported":1752344045,"current_range_meters":6400,"station_id":"ce4bhe12rcd13ifvqf30","pricing_plan_id":"cebpf4jnsgd1na2vs0mg"},{"bike_id":"91f89d24-d5de-4e85-bb61-d242526dd3b0","system_id":"levelo_inurba_marseille","lat":43.31121,"lon":5.37771,"is_reserved":false,"is_disabled":false,"rental_uris":{"android":"levelo://app?vid=91f89d24-d5de-4e85-bb61-d242526dd3b0","ios":"levelo://app?vid=91f89d24-d5de-4e85-bb61-d242526dd3b0"},"vehicle_type_id":"4","last_reported":1752344045,"current_range_meters":6400,"station_id":"ce4bgt92rcd13ifvqcg0","pricing_plan_id":"cebpf4jnsgd1na2vs0mg"},{"bike_id":"1d5f04ae-fbe7-41ac-b4ef-23f754f2c177","system_id":"levelo_inurba_marseille","lat":43.29976,"lon":5.38486,"is_reserved":false,"is_disabled":false,"rental_uris":{"android":"levelo://app?vid=1d5f04ae-fbe7-41ac-b4ef-23f754f2c177","ios":"levelo://app?vid=1d5f04ae-fbe7-41ac-b4ef-23f754f2c177"},"vehicle_type_id":"4","last_reported":1752344045,"current_range_meters":6400,"station_id":"ce4bgj92rcd13ifvqbd0","pricing_plan_id":"cebpf4jnsgd1na2vs0mg"},{"bike_id":"4701a18c-d6c0-4281-9efd-8c244f45f570","system_id":"levelo_inurba_marseille","lat":43.33031,"lon":5.3906,"is_reserved":false,"is_disabled":false,"rental_uris":{"android":"levelo://app?vid=4701a18c-d6c0-4281-9efd-8c244f45f570","ios":"levelo://app?vid=4701a18c-d6c0-4281-9efd-8c244f45f570"},"vehicle_type_id":"4","last_reported":1752344045,"current_range_meters":6400,"station_id":"ce4bhr92rcd13ifvqhrg","pricing_plan_id":"cebpf4jnsgd1na2vs0mg"},{"bike_id":"8e98c52c-4202-41d8-a877-a21a4a5c7a8b","system_id":"levelo_inurba_marseille","lat":43.31171,"lon":5.38714,"is_reserved":false,"is_disabled":false,"rental_uris":{"android":"levelo://app?vid=8e98c52c-4202-41d8-a877-a21a4a5c7a8b","ios":"levelo://app?vid=8e98c52c-4202-41d8-a877-a21a4a5c7a8b"},"vehicle_type_id":"4","last_reported":1752344045,"current_range_meters":6400,"station_id":"ce4bgv12rcd13ifvqcp0","pricing_plan_id":"cebpf4jnsgd1na2vs0mg"},{"bike_id":"859fc60b-d7a8-4c33-91cc-a74dcac375a5","system_id":"levelo_inurba_marseille","lat":43.286166,"lon":5.351049,"is_reserved":false,"is_disabled":false,"rental_uris":{"android":"levelo://app?vid=859fc60b-d7a8-4c33-91cc-a74dcac375a5","ios":"levelo://app?vid=859fc60b-d7a8-4c33-91cc-a74dcac375a5"},"vehicle_type_id":"4","last_reported":1752344045,"current_range_meters":6400,"station_id":"ce4bhch2rcd13ifvqeug","pricing_plan_id":"cebpf4jnsgd1na2vs0mg"},{"bike_id":"47058aa3-c013-4bcd-978c-38d0e59b043a","system_id":"levelo_inurba_marseille","lat":43.2418,"lon":5.39726,"is_reserved":false,"is_disabled":false,"rental_uris":{"android":"levelo://app?vid=47058aa3-c013-4bcd-978c-38d0e59b043a","ios":"levelo://app?vid=47058aa3-c013-4bcd-978c-38d0e59b043a"},"vehicle_type_id":"4","last_reported":1752344045,"current_range_meters":6800,"station_id":"ce4bhn12rcd13ifvqgpg","pricing_plan_id":"cebpf4jnsgd1na2vs0mg"},{"bike_id":"d62b4956-fce0-4b98-976c-117c21640dd3","system_id":"levelo_inurba_marseille","lat":43.3081,"lon":5.38154,"is_reserved":false,"is_disabled":false,"rental_uris":{"android":"levelo://app?vid=d62b4956-fce0-4b98-976c-117c21640dd3","ios":"levelo://app?vid=d62b4956-fce0-4b98-976c-117c21640dd3"},"vehicle_type_id":"4","last_reported":1752344045,"current_range_meters":6800,"station_id":"ce4bgt12rcd13ifvqce0","pricing_plan_id":"cebpf4jnsgd1na2vs0mg"},{"bike_id":"b129111e-e565-48c4-bdcd-2afa7c3c0bad","system_id":"levelo_inurba_marseille","lat":43.3176,"lon":5.39011,"is_reserved":false,"is_disabled":false,"rental_uris":{"android":"levelo://app?vid=b129111e-e565-48c4-bdcd-2afa7c3c0bad","ios":"levelo://app?vid=b129111e-e565-48c4-bdcd-2afa7c3c0bad"},"vehicle_type_id":"4","last_reported":1752344045,"current_range_meters":6400,"station_id":"ce4bhqp2rcd13ifvqhng","pricing_plan_id":"cebpf4jnsgd1na2vs0mg"},{"bike_id":"e60a83f3-6af6-4039-bcfa-c51c7e8c6158","system_id":"levelo_inurba_marseille","lat":43.3343,"lon":5.40035,"is_reserved":false,"is_disabled":false,"rental_uris":{"android":"levelo://app?vid=e60a83f3-6af6-4039-bcfa-c51c7e8c6158","ios":"levelo://app?vid=e60a83f3-6af6-4039-bcfa-c51c7e8c6158"},"vehicle_type_id":"4","last_reported":1752344045,"current_range_meters":6800,"station_id":"","pricing_plan_id":"cebpf4jnsgd1na2vs0mg"},{"bike_id":"05b50c1d-f29a-4957-b654-bfe95ab1649d","system_id":"levelo_inurba_marseille","lat":43.29534,"lon":5.39037,"is_reserved":false,"is_disabled":false,"rental_uris":{"android":"levelo://app?vid=05b50c1d-f29a-4957-b654-bfe95ab1649d","ios":"levelo://app?vid=05b50c1d-f29a-4957-b654-bfe95ab1649d"},"vehicle_type_id":"4","last_reported":1752344045,"current_range_meters":6800,"station_id":"ce4bh3p2rcd13ifvqdp0","pricing_plan_id":"cebpf4jnsgd1na2vs0mg"},{"bike_id":"cb9282c9-0a04-426f-af4a-9dc494a82650","system_id":"levelo_inurba_marseille","lat":43.225037,"lon":5.347922,"is_reserved":false,"is_disabled":false,"rental_uris":{"android":"levelo://app?vid=cb9282c9-0a04-426f-af4a-9dc494a82650","ios":"levelo://app?vid=cb9282c9-0a04-426f-af4a-9dc494a82650"},"vehicle_type_id":"4","last_reported":1752344045,"current_range_meters":6800,"station_id":"","pricing_plan_id":"cebpf4jnsgd1na2vs0mg"},{"bike_id":"534ed68d-5ceb-43a8-968b-be30f01dfa74","system_id":"levelo_inurba_marseille","lat":43.28212,"lon":5.39025,"is_reserved":false,"is_disabled":false,"rental_uris":{"android":"levelo://app?vid=534ed68d-5ceb-43a8-968b-be30f01dfa74","ios":"levelo://app?vid=534ed68d-5ceb-43a8-968b-be30f01dfa74"},"vehicle_type_id":"4","last_reported":1752344045,"current_range_meters":7200,"station_id":"","pricing_plan_id":"cebpf4jnsgd1na2vs0mg"},{"bike_id":"bced4aa7-a628-4057-a6e6-27edc27c5e17","system_id":"levelo_inurba_marseille","lat":43.21202,"lon":5.3506,"is_reserved":false,"is_disabled":false,"rental_uris":{"android":"levelo://app?vid=bced4aa7-a628-4057-a6e6-27edc27c5e17","ios":"levelo://app?vid=bced4aa7-a628-4057-a6e6-27edc27c5e17"},"vehicle_type_id":"4","last_reported":1752344045,"current_range_meters":7200,"station_id":"st_cvj6sg6p6f1abm77japg","pricing_plan_id":"cebpf4jnsgd1na2vs0mg"},{"bike_id":"5e841bd5-eab2-4f49-939f-6750659ad71e","system_id":"levelo_inurba_marseille","lat":43.29923,"lon":5.37475,"is_reserved":false,"is_disabled":false,"rental_uris":{"android":"levelo://app?vid=5e841bd5-eab2-4f49-939f-6750659ad71e","ios":"levelo://app?vid=5e841bd5-eab2-4f49-939f-6750659ad71e"},"vehicle_type_id":"4","last_reported":1752344045,"current_range_meters":7200,"station_id":"ce4bgjh2rcd13ifvqbg0","pricing_plan_id":"cebpf4jnsgd1na2vs0mg"},{"bike_id":"6a7f3fd1-1e04-4e84-af61-750524402007","system_id":"levelo_inurba_marseille","lat":43.29186,"lon":5.38451,"is_reserved":false,"is_disabled":false,"rental_uris":{"android":"levelo://app?vid=6a7f3fd1-1e04-4e84-af61-750524402007","ios":"levelo://app?vid=6a7f3fd1-1e04-4e84-af61-750524402007"},"vehicle_type_id":"4","last_reported":1752344045,"current_range_meters":7200,"station_id":"","pricing_plan_id":"cebpf4jnsgd1na2vs0mg"},{"bike_id":"b99807e6-6c49-47ed-8f4a-a5fcb4ddc379","system_id":"levelo_inurba_marseille","lat":43.29968,"lon":5.37176,"is_reserved":false,"is_disabled":false,"rental_uris":{"android":"levelo://app?vid=b99807e6-6c49-47ed-8f4a-a5fcb4ddc379","ios":"levelo://app?vid=b99807e6-6c49-47ed-8f4a-a5fcb4ddc379"},"vehicle_type_id":"4","last_reported":1752344045,"current_range_meters":8000,"station_id":"ce4bgr92rcd13ifvqc7g","pricing_plan_id":"cebpf4jnsgd1na2vs0mg"},{"bike_id":"cb16a7bb-d08a-4b98-a61d-e43b07347bbb","system_id":"levelo_inurba_marseille","lat":43.29295,"lon":5.36785,"is_reserved":false,"is_disabled":false,"rental_uris":{"android":"levelo://app?vid=cb16a7bb-d08a-4b98-a61d-e43b07347bbb","ios":"levelo://app?vid=cb16a7bb-d08a-4b98-a61d-e43b07347bbb"},"vehicle_type_id":"4","last_reported":1752344045,"current_range_meters":8400,"station_id":"ce4bhbp2rcd13ifvqesg","pricing_plan_id":"cebpf4jnsgd1na2vs0mg"},{"bike_id":"462aab80-f3b8-4ca8-a24d-4c9b0c73039d","system_id":"levelo_inurba_marseille","lat":43.22507,"lon":5.34784,"is_reserved":false,"is_disabled":false,"rental_uris":{"android":"levelo://app?vid=462aab80-f3b8-4ca8-a24d-4c9b0c73039d","ios":"levelo://app?vid=462aab80-f3b8-4ca8-a24d-4c9b0c73039d"},"vehicle_type_id":"4","last_reported":1752344045,"current_range_meters":8400,"station_id":"","pricing_plan_id":"cebpf4jnsgd1na2vs0mg"},{"bike_id":"495b833d-1a32-435d-8b44-7bd38702b6c7","system_id":"levelo_inurba_marseille","lat":43.32283,"lon":5.3828,"is_reserved":false,"is_disabled":false,"rental_uris":{"android":"levelo://app?vid=495b833d-1a32-435d-8b44-7bd38702b6c7","ios":"levelo://app?vid=495b833d-1a32-435d-8b44-7bd38702b6c7"},"vehicle_type_id":"4","last_reported":1752344045,"current_range_meters":8400,"station_id":"ce4bhr12rcd13ifvqhqg","pricing_plan_id":"cebpf4jnsgd1na2vs0mg"},{"bike_id":"9a721a67-800d-41fb-b2c2-3309f63164c3","system_id":"levelo_inurba_marseille","lat":43.2121,"lon":5.35041,"is_reserved":false,"is_disabled":false,"rental_uris":{"android":"levelo://app?vid=9a721a67-800d-41fb-b2c2-3309f63164c3","ios":"levelo://app?vid=9a721a67-800d-41fb-b2c2-3309f63164c3"},"vehicle_type_id":"4","last_reported":1752344045,"current_range_meters":8400,"station_id":"","pricing_plan_id":"cebpf4jnsgd1na2vs0mg"},{"bike_id":"0485f75d-f280-4f53-ae5d-69a11814d126","system_id":"levelo_inurba_marseille","lat":43.29786,"lon":5.38101,"is_reserved":false,"is_disabled":false,"rental_uris":{"android":"levelo://app?vid=0485f75d-f280-4f53-ae5d-69a11814d126","ios":"levelo://app?vid=0485f75d-f280-4f53-ae5d-69a11814d126"},"vehicle_type_id":"4","last_reported":1752344045,"current_range_meters":8400,"station_id":"ce4bgip2rcd13ifvqbb0","pricing_plan_id":"cebpf4jnsgd1na2vs0mg"},{"bike_id":"595e9351-a7ce-45de-8995-771f7d9fe86e","system_id":"levelo_inurba_marseille","lat":43.309243,"lon":5.378088,"is_reserved":false,"is_disabled":false,"rental_uris":{"android":"levelo://app?vid=595e9351-a7ce-45de-8995-771f7d9fe86e","ios":"levelo://app?vid=595e9351-a7ce-45de-8995-771f7d9fe86e"},"vehicle_type_id":"4","last_reported":1752344045,"current_range_meters":8800,"station_id":"","pricing_plan_id":"cebpf4jnsgd1na2vs0mg"},{"bike_id":"2f0ba75c-aff3-43f4-857b-fc7c66f4e426","system_id":"levelo_inurba_marseille","lat":43.30976,"lon":5.39059,"is_reserved":false,"is_disabled":true,"rental_uris":{"android":"levelo://app?vid=2f0ba75c-aff3-43f4-857b-fc7c66f4e426","ios":"levelo://app?vid=2f0ba75c-aff3-43f4-857b-fc7c66f4e426"},"vehicle_type_id":"4","last_reported":1752344045,"current_range_meters":8800,"station_id":"ce4bgup2rcd13ifvqco0","pricing_plan_id":"cebpf4jnsgd1na2vs0mg"},{"bike_id":"703c35d2-d0ac-4ae9-9380-f6de84acba84","system_id":"levelo_inurba_marseille","lat":43.30134,"lon":5.39848,"is_reserved":false,"is_disabled":false,"rental_uris":{"android":"levelo://app?vid=703c35d2-d0ac-4ae9-9380-f6de84acba84","ios":"levelo://app?vid=703c35d2-d0ac-4ae9-9380-f6de84acba84"},"vehicle_type_id":"4","last_reported":1752344045,"current_range_meters":8800,"station_id":"ce4bh0h2rcd13ifvqd40","pricing_plan_id":"cebpf4jnsgd1na2vs0mg"},{"bike_id":"3910ce2f-4d8e-4314-a265-b46764269439","system_id":"levelo_inurba_marseille","lat":43.29966,"lon":5.37166,"is_reserved":false,"is_disabled":false,"rental_uris":{"android":"levelo://app?vid=3910ce2f-4d8e-4314-a265-b46764269439","ios":"levelo://app?vid=3910ce2f-4d8e-4314-a265-b46764269439"},"vehicle_type_id":"4","last_reported":1752344045,"current_range_meters":8800,"station_id":"ce4bgr92rcd13ifvqc7g","pricing_plan_id":"cebpf4jnsgd1na2vs0mg"},{"bike_id":"cd62f5fb-6b0c-4347-b481-e570c3099ff3","system_id":"levelo_inurba_marseille","lat":43.29788,"lon":5.37099,"is_reserved":false,"is_disabled":false,"rental_uris":{"android":"levelo://app?vid=cd62f5fb-6b0c-4347-b481-e570c3099ff3","ios":"levelo://app?vid=cd62f5fb-6b0c-4347-b481-e570c3099ff3"},"vehicle_type_id":"4","last_reported":1752344045,"current_range_meters":8800,"station_id":"ce4bgop2rcd13ifvqc1g","pricing_plan_id":"cebpf4jnsgd1na2vs0mg"},{"bike_id":"09ade3bb-d8d0-4117-934c-33f7ea1ea0b2","system_id":"levelo_inurba_marseille","lat":43.31269,"lon":5.40165,"is_reserved":false,"is_disabled":false,"rental_uris":{"android":"levelo://app?vid=09ade3bb-d8d0-4117-934c-33f7ea1ea0b2","ios":"levelo://app?vid=09ade3bb-d8d0-4117-934c-33f7ea1ea0b2"},"vehicle_type_id":"4","last_reported":1752344045,"current_range_meters":8800,"station_id":"ce4bh092rcd13ifvqd30","pricing_plan_id":"cebpf4jnsgd1na2vs0mg"},{"bike_id":"097106d7-0dc8-4152-8540-cae0e1de8dea","system_id":"levelo_inurba_marseille","lat":43.2118,"lon":5.3507,"is_reserved":false,"is_disabled":false,"rental_uris":{"android":"levelo://app?vid=097106d7-0dc8-4152-8540-cae0e1de8dea","ios":"levelo://app?vid=097106d7-0dc8-4152-8540-cae0e1de8dea"},"vehicle_type_id":"4","last_reported":1752344045,"current_range_meters":9200,"station_id":"st_cvj6sg6p6f1abm77japg","pricing_plan_id":"cebpf4jnsgd1na2vs0mg"},{"bike_id":"e3a75ee9-c614-467b-8cc2-f813bcef2ab1","system_id":"levelo_inurba_marseille","lat":43.33743,"lon":5.3919,"is_reserved":false,"is_disabled":false,"rental_uris":{"android":"levelo://app?vid=e3a75ee9-c614-467b-8cc2-f813bcef2ab1","ios":"levelo://app?vid=e3a75ee9-c614-467b-8cc2-f813bcef2ab1"},"vehicle_type_id":"4","last_reported":1752344045,"current_range_meters":9200,"station_id":"ce4bhr92rcd13ifvqhsg","pricing_plan_id":"cebpf4jnsgd1na2vs0mg"},{"bike_id":"621e3d77-a052-4190-9fa9-0c299bf51976","system_id":"levelo_inurba_marseille","lat":43.29626,"lon":5.38073,"is_reserved":false,"is_disabled":false,"rental_uris":{"android":"levelo://app?vid=621e3d77-a052-4190-9fa9-0c299bf51976","ios":"levelo://app?vid=621e3d77-a052-4190-9fa9-0c299bf51976"},"vehicle_type_id":"4","last_reported":1752344045,"current_range_meters":9200,"station_id":"ce4bgl12rcd13ifvqbo0","pricing_plan_id":"cebpf4jnsgd1na2vs0mg"},{"bike_id":"e4c2e5d1-6c6d-4914-a692-32d3ec0cb718","system_id":"levelo_inurba_marseille","lat":43.29791,"lon":5.38089,"is_reserved":false,"is_disabled":false,"rental_uris":{"android":"levelo://app?vid=e4c2e5d1-6c6d-4914-a692-32d3ec0cb718","ios":"levelo://app?vid=e4c2e5d1-6c6d-4914-a692-32d3ec0cb718"},"vehicle_type_id":"4","last_reported":1752344045,"current_range_meters":9200,"station_id":"ce4bgip2rcd13ifvqbb0","pricing_plan_id":"cebpf4jnsgd1na2vs0mg"},{"bike_id":"98a7cb1d-872f-4911-be61-aa155e8dbb63","system_id":"levelo_inurba_marseille","lat":43.29934,"lon":5.36556,"is_reserved":false,"is_disabled":false,"rental_uris":{"android":"levelo://app?vid=98a7cb1d-872f-4911-be61-aa155e8dbb63","ios":"levelo://app?vid=98a7cb1d-872f-4911-be61-aa155e8dbb63"},"vehicle_type_id":"4","last_reported":1752344045,"current_range_meters":9600,"station_id":"ce4bgm92rcd13ifvqbr0","pricing_plan_id":"cebpf4jnsgd1na2vs0mg"},{"bike_id":"b72bbd5c-3887-4a46-a74a-6d63af9780a3","system_id":"levelo_inurba_marseille","lat":43.31076,"lon":5.38349,"is_reserved":false,"is_disabled":false,"rental_uris":{"android":"levelo://app?vid=b72bbd5c-3887-4a46-a74a-6d63af9780a3","ios":"levelo://app?vid=b72bbd5c-3887-4a46-a74a-6d63af9780a3"},"vehicle_type_id":"4","last_reported":1752344045,"current_range_meters":9600,"station_id":"ce4bgv92rcd13ifvqcr0","pricing_plan_id":"cebpf4jnsgd1na2vs0mg"},{"bike_id":"f34f885f-e9c5-4718-b947-de97d601b1f6","system_id":"levelo_inurba_marseille","lat":43.2792,"lon":5.39577,"is_reserved":false,"is_disabled":false,"rental_uris":{"android":"levelo://app?vid=f34f885f-e9c5-4718-b947-de97d601b1f6","ios":"levelo://app?vid=f34f885f-e9c5-4718-b947-de97d601b1f6"},"vehicle_type_id":"4","last_reported":1752344045,"current_range_meters":9600,"station_id":"ce4bhf92rcd13ifvqf40","pricing_plan_id":"cebpf4jnsgd1na2vs0mg"},{"bike_id":"a8e9385b-a6c9-4a6c-bada-15b59ca19be1","system_id":"levelo_inurba_marseille","lat":43.28953,"lon":5.39634,"is_reserved":false,"is_disabled":true,"rental_uris":{"android":"levelo://app?vid=a8e9385b-a6c9-4a6c-bada-15b59ca19be1","ios":"levelo://app?vid=a8e9385b-a6c9-4a6c-bada-15b59ca19be1"},"vehicle_type_id":"4","last_reported":1752344045,"current_range_meters":9600,"station_id":"ce4bh3h2rcd13ifvqdn0","pricing_plan_id":"cebpf4jnsgd1na2vs0mg"},{"bike_id":"ff965150-72a8-44ec-a873-267e5f7584c5","system_id":"levelo_inurba_marseille","lat":43.27811,"lon":5.40714,"is_reserved":false,"is_disabled":false,"rental_uris":{"android":"levelo://app?vid=ff965150-72a8-44ec-a873-267e5f7584c5","ios":"levelo://app?vid=ff965150-72a8-44ec-a873-267e5f7584c5"},"vehicle_type_id":"4","last_reported":1752344045,"current_range_meters":9200,"station_id":"ce4bhnh2rcd13ifvqgtg","pricing_plan_id":"cebpf4jnsgd1na2vs0mg"},{"bike_id":"6fd8ccae-8d49-413c-b280-b5d6fbeb373c","system_id":"levelo_inurba_marseille","lat":43.26684,"lon":5.38267,"is_reserved":false,"is_disabled":false,"rental_uris":{"android":"levelo://app?vid=6fd8ccae-8d49-413c-b280-b5d6fbeb373c","ios":"levelo://app?vid=6fd8ccae-8d49-413c-b280-b5d6fbeb373c"},"vehicle_type_id":"4","last_reported":1752344045,"current_range_meters":9200,"station_id":"ce4bhg92rcd13ifvqf90","pricing_plan_id":"cebpf4jnsgd1na2vs0mg"},{"bike_id":"d27d7bac-29a0-4f59-89ec-57c682521485","system_id":"levelo_inurba_marseille","lat":43.29964,"lon":5.385,"is_reserved":false,"is_disabled":false,"rental_uris":{"android":"levelo://app?vid=d27d7bac-29a0-4f59-89ec-57c682521485","ios":"levelo://app?vid=d27d7bac-29a0-4f59-89ec-57c682521485"},"vehicle_type_id":"4","last_reported":1752344045,"current_range_meters":9600,"station_id":"ce4bgj92rcd13ifvqbd0","pricing_plan_id":"cebpf4jnsgd1na2vs0mg"},{"bike_id":"75bb1dd6-50a7-47a9-9e4b-6b29bd46237a","system_id":"levelo_inurba_marseille","lat":43.21231,"lon":5.35051,"is_reserved":false,"is_disabled":false,"rental_uris":{"android":"levelo://app?vid=75bb1dd6-50a7-47a9-9e4b-6b29bd46237a","ios":"levelo://app?vid=75bb1dd6-50a7-47a9-9e4b-6b29bd46237a"},"vehicle_type_id":"4","last_reported":1752344045,"current_range_meters":9600,"station_id":"","pricing_plan_id":"cebpf4jnsgd1na2vs0mg"},{"bike_id":"9dbd7bad-ca30-43ae-8d8f-a597179d5b51","system_id":"levelo_inurba_marseille","lat":43.28034,"lon":5.36949,"is_reserved":false,"is_disabled":true,"rental_uris":{"android":"levelo://app?vid=9dbd7bad-ca30-43ae-8d8f-a597179d5b51","ios":"levelo://app?vid=9dbd7bad-ca30-43ae-8d8f-a597179d5b51"},"vehicle_type_id":"4","last_reported":1752344045,"current_range_meters":9600,"station_id":"ce4bha12rcd13ifvqef0","pricing_plan_id":"cebpf4jnsgd1na2vs0mg"},{"bike_id":"901f2503-315b-44c8-a84d-50b46f86c5d3","system_id":"levelo_inurba_marseille","lat":43.30884,"lon":5.39646,"is_reserved":false,"is_disabled":false,"rental_uris":{"android":"levelo://app?vid=901f2503-315b-44c8-a84d-50b46f86c5d3","ios":"levelo://app?vid=901f2503-315b-44c8-a84d-50b46f86c5d3"},"vehicle_type_id":"4","last_reported":1752344045,"current_range_meters":10000,"station_id":"ce4bh012rcd13ifvqcv0","pricing_plan_id":"cebpf4jnsgd1na2vs0mg"},{"bike_id":"3d6043bf-7a58-4e3a-a9fe-a625824d9d21","system_id":"levelo_inurba_marseille","lat":43.30622,"lon":5.3725,"is_reserved":false,"is_disabled":false,"rental_uris":{"android":"levelo://app?vid=3d6043bf-7a58-4e3a-a9fe-a625824d9d21","ios":"levelo://app?vid=3d6043bf-7a58-4e3a-a9fe-a625824d9d21"},"vehicle_type_id":"4","last_reported":1752344045,"current_range_meters":10000,"station_id":"ce4bgqh2rcd13ifvqc4g","pricing_plan_id":"cebpf4jnsgd1na2vs0mg"},{"bike_id":"8929c1bf-fd4d-44e4-aa66-b3eb6538c998","system_id":"levelo_inurba_marseille","lat":43.286,"lon":5.42932,"is_reserved":false,"is_disabled":false,"rental_uris":{"android":"levelo://app?vid=8929c1bf-fd4d-44e4-aa66-b3eb6538c998","ios":"levelo://app?vid=8929c1bf-fd4d-44e4-aa66-b3eb6538c998"},"vehicle_type_id":"4","last_reported":1752344045,"current_range_meters":10000,"station_id":"","pricing_plan_id":"cebpf4jnsgd1na2vs0mg"},{"bike_id":"46cacac0-84b7-4c70-a453-a1cb8250fb4d","system_id":"levelo_inurba_marseille","lat":43.33825,"lon":5.37419,"is_reserved":false,"is_disabled":false,"rental_uris":{"android":"levelo://app?vid=46cacac0-84b7-4c70-a453-a1cb8250fb4d","ios":"levelo://app?vid=46cacac0-84b7-4c70-a453-a1cb8250fb4d"},"vehicle_type_id":"4","last_reported":1752344045,"current_range_meters":10000,"station_id":"","pricing_plan_id":"cebpf4jnsgd1na2vs0mg"},{"bike_id":"e6897c29-901f-4100-99da-b96c8544c2ad","system_id":"levelo_inurba_marseille","lat":43.31275,"lon":5.40163,"is_reserved":false,"is_disabled":false,"rental_uris":{"android":"levelo://app?vid=e6897c29-901f-4100-99da-b96c8544c2ad","ios":"levelo://app?vid=e6897c29-901f-4100-99da-b96c8544c2ad"},"vehicle_type_id":"4","last_reported":1752344045,"current_range_meters":10000,"station_id":"ce4bh092rcd13ifvqd30","pricing_plan_id":"cebpf4jnsgd1na2vs0mg"},{"bike_id":"df61839a-7a72-4634-9960-e8ea0d9a8d35","system_id":"levelo_inurba_marseille","lat":43.239474,"lon":5.366089,"is_reserved":false,"is_disabled":true,"rental_uris":{"android":"levelo://app?vid=df61839a-7a72-4634-9960-e8ea0d9a8d35","ios":"levelo://app?vid=df61839a-7a72-4634-9960-e8ea0d9a8d35"},"vehicle_type_id":"4","last_reported":1752344045,"current_range_meters":10000,"station_id":"","pricing_plan_id":"cebpf4jnsgd1na2vs0mg"},{"bike_id":"a2c597b0-ca1b-48e9-8b1e-0c237c1fb128","system_id":"levelo_inurba_marseille","lat":43.30532,"lon":5.38414,"is_reserved":false,"is_disabled":false,"rental_uris":{"android":"levelo://app?vid=a2c597b0-ca1b-48e9-8b1e-0c237c1fb128","ios":"levelo://app?vid=a2c597b0-ca1b-48e9-8b1e-0c237c1fb128"},"vehicle_type_id":"4","last_reported":1752344045,"current_range_meters":10000,"station_id":"ce4bgg92rcd13ifvqb30","pricing_plan_id":"cebpf4jnsgd1na2vs0mg"},{"bike_id":"5f0719fc-5580-4c64-a2ed-1baa7a0666c5","system_id":"levelo_inurba_marseille","lat":43.295516,"lon":5.374826,"is_reserved":false,"is_disabled":false,"rental_uris":{"android":"levelo://app?vid=5f0719fc-5580-4c64-a2ed-1baa7a0666c5","ios":"levelo://app?vid=5f0719fc-5580-4c64-a2ed-1baa7a0666c5"},"vehicle_type_id":"4","last_reported":1752344045,"current_range_meters":9600,"station_id":"ce4bh3p2rcd13ifvqdp0","pricing_plan_id":"cebpf4jnsgd1na2vs0mg"},{"bike_id":"e4f15305-8c68-433a-b775-71771e6cdeb4","system_id":"levelo_inurba_marseille","lat":43.30305,"lon":5.39217,"is_reserved":false,"is_disabled":false,"rental_uris":{"android":"levelo://app?vid=e4f15305-8c68-433a-b775-71771e6cdeb4","ios":"levelo://app?vid=e4f15305-8c68-433a-b775-71771e6cdeb4"},"vehicle_type_id":"4","last_reported":1752344045,"current_range_meters":10000,"station_id":"ce4bgkh2rcd13ifvqbk0","pricing_plan_id":"cebpf4jnsgd1na2vs0mg"},{"bike_id":"f2051474-556c-4f23-86b4-a1c6ce176880","system_id":"levelo_inurba_marseille","lat":43.2978,"lon":5.3711,"is_reserved":false,"is_disabled":false,"rental_uris":{"android":"levelo://app?vid=f2051474-556c-4f23-86b4-a1c6ce176880","ios":"levelo://app?vid=f2051474-556c-4f23-86b4-a1c6ce176880"},"vehicle_type_id":"4","last_reported":1752344045,"current_range_meters":10800,"station_id":"ce4bgop2rcd13ifvqc1g","pricing_plan_id":"cebpf4jnsgd1na2vs0mg"},{"bike_id":"b0acdd29-d79f-412d-8f93-5f6abb4004e6","system_id":"levelo_inurba_marseille","lat":43.29624,"lon":5.37679,"is_reserved":false,"is_disabled":false,"rental_uris":{"android":"levelo://app?vid=b0acdd29-d79f-412d-8f93-5f6abb4004e6","ios":"levelo://app?vid=b0acdd29-d79f-412d-8f93-5f6abb4004e6"},"vehicle_type_id":"4","last_reported":1752344045,"current_range_meters":10800,"station_id":"ce4bgi92rcd13ifvqb90","pricing_plan_id":"cebpf4jnsgd1na2vs0mg"},{"bike_id":"ca916d6e-ae98-4ad2-afda-d54f15e4ee73","system_id":"levelo_inurba_marseille","lat":43.3006,"lon":5.399897,"is_reserved":false,"is_disabled":false,"rental_uris":{"android":"levelo://app?vid=ca916d6e-ae98-4ad2-afda-d54f15e4ee73","ios":"levelo://app?vid=ca916d6e-ae98-4ad2-afda-d54f15e4ee73"},"vehicle_type_id":"4","last_reported":1752344045,"current_range_meters":10800,"station_id":"ce4bh0h2rcd13ifvqd40","pricing_plan_id":"cebpf4jnsgd1na2vs0mg"},{"bike_id":"21f51f77-8b78-488b-a42e-44d2a504cf11","system_id":"levelo_inurba_marseille","lat":43.24197,"lon":5.36384,"is_reserved":false,"is_disabled":true,"rental_uris":{"android":"levelo://app?vid=21f51f77-8b78-488b-a42e-44d2a504cf11","ios":"levelo://app?vid=21f51f77-8b78-488b-a42e-44d2a504cf11"},"vehicle_type_id":"4","last_reported":1752344045,"current_range_meters":10800,"station_id":"cpo36qri1sfpv3e86is0","pricing_plan_id":"cebpf4jnsgd1na2vs0mg"},{"bike_id":"4272ef37-2d5a-4a54-ae7a-f6596c0f46ed","system_id":"levelo_inurba_marseille","lat":43.31488,"lon":5.37307,"is_reserved":false,"is_disabled":false,"rental_uris":{"android":"levelo://app?vid=4272ef37-2d5a-4a54-ae7a-f6596c0f46ed","ios":"levelo://app?vid=4272ef37-2d5a-4a54-ae7a-f6596c0f46ed"},"vehicle_type_id":"4","last_reported":1752344045,"current_range_meters":10800,"station_id":"ce4bgt12rcd13ifvqcd0","pricing_plan_id":"cebpf4jnsgd1na2vs0mg"},{"bike_id":"fcb8808f-2291-472b-bcc2-48f2e9de67da","system_id":"levelo_inurba_marseille","lat":43.28941,"lon":5.36619,"is_reserved":false,"is_disabled":false,"rental_uris":{"android":"levelo://app?vid=fcb8808f-2291-472b-bcc2-48f2e9de67da","ios":"levelo://app?vid=fcb8808f-2291-472b-bcc2-48f2e9de67da"},"vehicle_type_id":"4","last_reported":1752344045,"current_range_meters":10800,"station_id":"ce4bhap2rcd13ifvqek0","pricing_plan_id":"cebpf4jnsgd1na2vs0mg"},{"bike_id":"3ec07e07-18c9-4847-9450-d847a3b61b46","system_id":"levelo_inurba_marseille","lat":43.30947,"lon":5.39047,"is_reserved":false,"is_disabled":false,"rental_uris":{"android":"levelo://app?vid=3ec07e07-18c9-4847-9450-d847a3b61b46","ios":"levelo://app?vid=3ec07e07-18c9-4847-9450-d847a3b61b46"},"vehicle_type_id":"4","last_reported":1752344045,"current_range_meters":11200,"station_id":"ce4bgup2rcd13ifvqco0","pricing_plan_id":"cebpf4jnsgd1na2vs0mg"},{"bike_id":"f3763541-784b-4646-a294-580579f3e70b","system_id":"levelo_inurba_marseille","lat":43.30319,"lon":5.36894,"is_reserved":false,"is_disabled":false,"rental_uris":{"android":"levelo://app?vid=f3763541-784b-4646-a294-580579f3e70b","ios":"levelo://app?vid=f3763541-784b-4646-a294-580579f3e70b"},"vehicle_type_id":"4","last_reported":1752344045,"current_range_meters":11200,"station_id":"ce4bgqh2rcd13ifvqc5g","pricing_plan_id":"cebpf4jnsgd1na2vs0mg"},{"bike_id":"61198919-e72c-4fce-bc96-126627987dc0","system_id":"levelo_inurba_marseille","lat":43.29577,"lon":5.37859,"is_reserved":false,"is_disabled":false,"rental_uris":{"android":"levelo://app?vid=61198919-e72c-4fce-bc96-126627987dc0","ios":"levelo://app?vid=61198919-e72c-4fce-bc96-126627987dc0"},"vehicle_type_id":"4","last_reported":1752344045,"current_range_meters":11200,"station_id":"","pricing_plan_id":"cebpf4jnsgd1na2vs0mg"},{"bike_id":"865da3e6-aa09-4ef5-b2f6-d4e597dc56f3","system_id":"levelo_inurba_marseille","lat":43.28326,"lon":5.38118,"is_reserved":false,"is_disabled":false,"rental_uris":{"android":"levelo://app?vid=865da3e6-aa09-4ef5-b2f6-d4e597dc56f3","ios":"levelo://app?vid=865da3e6-aa09-4ef5-b2f6-d4e597dc56f3"},"vehicle_type_id":"4","last_reported":1752344045,"current_range_meters":10800,"station_id":"ce4bh412rcd13ifvqdr0","pricing_plan_id":"cebpf4jnsgd1na2vs0mg"},{"bike_id":"9b6d7389-c299-465a-9413-06a765a17e8e","system_id":"levelo_inurba_marseille","lat":43.299251,"lon":5.381603,"is_reserved":false,"is_disabled":false,"rental_uris":{"android":"levelo://app?vid=9b6d7389-c299-465a-9413-06a765a17e8e","ios":"levelo://app?vid=9b6d7389-c299-465a-9413-06a765a17e8e"},"vehicle_type_id":"4","last_reported":1752344045,"current_range_meters":11200,"station_id":"ce4bgj12rcd13ifvqbc0","pricing_plan_id":"cebpf4jnsgd1na2vs0mg"},{"bike_id":"c453155a-5220-48fc-922b-600ca54f8ab5","system_id":"levelo_inurba_marseille","lat":43.2868,"lon":5.3632,"is_reserved":false,"is_disabled":true,"rental_uris":{"android":"levelo://app?vid=c453155a-5220-48fc-922b-600ca54f8ab5","ios":"levelo://app?vid=c453155a-5220-48fc-922b-600ca54f8ab5"},"vehicle_type_id":"4","last_reported":1752344045,"current_range_meters":11200,"station_id":"ce4bhah2rcd13ifvqej0","pricing_plan_id":"cebpf4jnsgd1na2vs0mg"},{"bike_id":"bad0611b-cc0c-4db8-915b-91958891196d","system_id":"levelo_inurba_marseille","lat":43.29627,"lon":5.37712,"is_reserved":false,"is_disabled":false,"rental_uris":{"android":"levelo://app?vid=bad0611b-cc0c-4db8-915b-91958891196d","ios":"levelo://app?vid=bad0611b-cc0c-4db8-915b-91958891196d"},"vehicle_type_id":"4","last_reported":1752344045,"current_range_meters":11200,"station_id":"ce4bgi92rcd13ifvqb90","pricing_plan_id":"cebpf4jnsgd1na2vs0mg"},{"bike_id":"a050206f-acb1-4909-8f9b-c349dd23486b","system_id":"levelo_inurba_marseille","lat":43.33588,"lon":5.41001,"is_reserved":false,"is_disabled":false,"rental_uris":{"android":"levelo://app?vid=a050206f-acb1-4909-8f9b-c349dd23486b","ios":"levelo://app?vid=a050206f-acb1-4909-8f9b-c349dd23486b"},"vehicle_type_id":"4","last_reported":1752344045,"current_range_meters":11600,"station_id":"ce4bhqh2rcd13ifvqhmg","pricing_plan_id":"cebpf4jnsgd1na2vs0mg"},{"bike_id":"d31bef9c-40d6-42bc-aa53-9e042fc12d92","system_id":"levelo_inurba_marseille","lat":43.28961,"lon":5.37839,"is_reserved":false,"is_disabled":false,"rental_uris":{"android":"levelo://app?vid=d31bef9c-40d6-42bc-aa53-9e042fc12d92","ios":"levelo://app?vid=d31bef9c-40d6-42bc-aa53-9e042fc12d92"},"vehicle_type_id":"4","last_reported":1752344045,"current_range_meters":11200,"station_id":"ce4bh9p2rcd13ifvqed0","pricing_plan_id":"cebpf4jnsgd1na2vs0mg"},{"bike_id":"f70d4eb7-0483-4b22-b4af-6857c0805839","system_id":"levelo_inurba_marseille","lat":43.29911,"lon":5.3812,"is_reserved":false,"is_disabled":true,"rental_uris":{"android":"levelo://app?vid=f70d4eb7-0483-4b22-b4af-6857c0805839","ios":"levelo://app?vid=f70d4eb7-0483-4b22-b4af-6857c0805839"},"vehicle_type_id":"4","last_reported":1752344045,"current_range_meters":11600,"station_id":"ce4bgj12rcd13ifvqbc0","pricing_plan_id":"cebpf4jnsgd1na2vs0mg"},{"bike_id":"abf03464-e950-48ad-9438-674604699964","system_id":"levelo_inurba_marseille","lat":43.28665,"lon":5.36345,"is_reserved":false,"is_disabled":false,"rental_uris":{"android":"levelo://app?vid=abf03464-e950-48ad-9438-674604699964","ios":"levelo://app?vid=abf03464-e950-48ad-9438-674604699964"},"vehicle_type_id":"4","last_reported":1752344045,"current_range_meters":11200,"station_id":"ce4bhah2rcd13ifvqej0","pricing_plan_id":"cebpf4jnsgd1na2vs0mg"},{"bike_id":"315a5a68-06bd-4863-bd7c-2a501238c465","system_id":"levelo_inurba_marseille","lat":43.29297,"lon":5.37463,"is_reserved":false,"is_disabled":false,"rental_uris":{"android":"levelo://app?vid=315a5a68-06bd-4863-bd7c-2a501238c465","ios":"levelo://app?vid=315a5a68-06bd-4863-bd7c-2a501238c465"},"vehicle_type_id":"4","last_reported":1752344045,"current_range_meters":11600,"station_id":"ce4bgi12rcd13ifvqb70","pricing_plan_id":"cebpf4jnsgd1na2vs0mg"},{"bike_id":"4357e7f2-7824-4fd1-81d8-d04f9f43afa4","system_id":"levelo_inurba_marseille","lat":43.26683,"lon":5.38269,"is_reserved":false,"is_disabled":false,"rental_uris":{"android":"levelo://app?vid=4357e7f2-7824-4fd1-81d8-d04f9f43afa4","ios":"levelo://app?vid=4357e7f2-7824-4fd1-81d8-d04f9f43afa4"},"vehicle_type_id":"4","last_reported":1752344045,"current_range_meters":11200,"station_id":"ce4bhg92rcd13ifvqf90","pricing_plan_id":"cebpf4jnsgd1na2vs0mg"},{"bike_id":"77b71a94-f050-43b9-b53b-bb479cfa2c64","system_id":"levelo_inurba_marseille","lat":43.2816,"lon":5.42644,"is_reserved":false,"is_disabled":false,"rental_uris":{"android":"levelo://app?vid=77b71a94-f050-43b9-b53b-bb479cfa2c64","ios":"levelo://app?vid=77b71a94-f050-43b9-b53b-bb479cfa2c64"},"vehicle_type_id":"4","last_reported":1752344045,"current_range_meters":11200,"station_id":"ce4bhnh2rcd13ifvqgug","pricing_plan_id":"cebpf4jnsgd1na2vs0mg"},{"bike_id":"dbba3321-20c7-4989-a7b5-ea9ab2c4b3e8","system_id":"levelo_inurba_marseille","lat":43.261935,"lon":5.374477,"is_reserved":false,"is_disabled":false,"rental_uris":{"android":"levelo://app?vid=dbba3321-20c7-4989-a7b5-ea9ab2c4b3e8","ios":"levelo://app?vid=dbba3321-20c7-4989-a7b5-ea9ab2c4b3e8"},"vehicle_type_id":"4","last_reported":1752344045,"current_range_meters":11600,"station_id":"ce4bhgp2rcd13ifvqfc0","pricing_plan_id":"cebpf4jnsgd1na2vs0mg"},{"bike_id":"e646e481-a4d6-4b85-b84d-3edc06745025","system_id":"levelo_inurba_marseille","lat":43.30601,"lon":5.39338,"is_reserved":false,"is_disabled":true,"rental_uris":{"android":"levelo://app?vid=e646e481-a4d6-4b85-b84d-3edc06745025","ios":"levelo://app?vid=e646e481-a4d6-4b85-b84d-3edc06745025"},"vehicle_type_id":"4","last_reported":1752344045,"current_range_meters":11600,"station_id":"ce4bh0p2rcd13ifvqd80","pricing_plan_id":"cebpf4jnsgd1na2vs0mg"},{"bike_id":"d248cb9a-4ff6-4069-840b-8cf4a1de6a15","system_id":"levelo_inurba_marseille","lat":43.28421,"lon":5.34993,"is_reserved":false,"is_disabled":false,"rental_uris":{"android":"levelo://app?vid=d248cb9a-4ff6-4069-840b-8cf4a1de6a15","ios":"levelo://app?vid=d248cb9a-4ff6-4069-840b-8cf4a1de6a15"},"vehicle_type_id":"4","last_reported":1752344045,"current_range_meters":12000,"station_id":"ce4bhbh2rcd13ifvqepg","pricing_plan_id":"cebpf4jnsgd1na2vs0mg"},{"bike_id":"4ab59cdc-8b57-4e43-ab39-09949ea9fe4e","system_id":"levelo_inurba_marseille","lat":43.28712,"lon":5.39978,"is_reserved":false,"is_disabled":false,"rental_uris":{"android":"levelo://app?vid=4ab59cdc-8b57-4e43-ab39-09949ea9fe4e","ios":"levelo://app?vid=4ab59cdc-8b57-4e43-ab39-09949ea9fe4e"},"vehicle_type_id":"4","last_reported":1752344045,"current_range_meters":12000,"station_id":"","pricing_plan_id":"cebpf4jnsgd1na2vs0mg"},{"bike_id":"4020d8d5-abf1-4778-aa0f-d3bf332ec589","system_id":"levelo_inurba_marseille","lat":43.27978,"lon":5.38735,"is_reserved":false,"is_disabled":false,"rental_uris":{"android":"levelo://app?vid=4020d8d5-abf1-4778-aa0f-d3bf332ec589","ios":"levelo://app?vid=4020d8d5-abf1-4778-aa0f-d3bf332ec589"},"vehicle_type_id":"4","last_reported":1752344045,"current_range_meters":12000,"station_id":"ce4bhg12rcd13ifvqf80","pricing_plan_id":"cebpf4jnsgd1na2vs0mg"},{"bike_id":"ffe907d6-7ed9-401c-9d9c-e32dcd8dda6d","system_id":"levelo_inurba_marseille","lat":43.29272,"lon":5.38427,"is_reserved":false,"is_disabled":false,"rental_uris":{"android":"levelo://app?vid=ffe907d6-7ed9-401c-9d9c-e32dcd8dda6d","ios":"levelo://app?vid=ffe907d6-7ed9-401c-9d9c-e32dcd8dda6d"},"vehicle_type_id":"4","last_reported":1752344045,"current_range_meters":12000,"station_id":"ce4bh692rcd13ifvqea0","pricing_plan_id":"cebpf4jnsgd1na2vs0mg"},{"bike_id":"ab6cb234-c8d6-4ce4-ab4f-b14b364484d3","system_id":"levelo_inurba_marseille","lat":43.30155,"lon":5.38098,"is_reserved":false,"is_disabled":false,"rental_uris":{"android":"levelo://app?vid=ab6cb234-c8d6-4ce4-ab4f-b14b364484d3","ios":"levelo://app?vid=ab6cb234-c8d6-4ce4-ab4f-b14b364484d3"},"vehicle_type_id":"4","last_reported":1752344045,"current_range_meters":12000,"station_id":"ce4bgjp2rcd13ifvqbh0","pricing_plan_id":"cebpf4jnsgd1na2vs0mg"},{"bike_id":"dabbf217-315e-4744-bec8-5f9774b3921b","system_id":"levelo_inurba_marseille","lat":43.282612,"lon":5.350659,"is_reserved":false,"is_disabled":false,"rental_uris":{"android":"levelo://app?vid=dabbf217-315e-4744-bec8-5f9774b3921b","ios":"levelo://app?vid=dabbf217-315e-4744-bec8-5f9774b3921b"},"vehicle_type_id":"4","last_reported":1752344045,"current_range_meters":12000,"station_id":"ce4bhbp2rcd13ifvqerg","pricing_plan_id":"cebpf4jnsgd1na2vs0mg"},{"bike_id":"693ad173-2341-4e70-8b0e-8370795f5940","system_id":"levelo_inurba_marseille","lat":43.26784,"lon":5.39414,"is_reserved":false,"is_disabled":false,"rental_uris":{"android":"levelo://app?vid=693ad173-2341-4e70-8b0e-8370795f5940","ios":"levelo://app?vid=693ad173-2341-4e70-8b0e-8370795f5940"},"vehicle_type_id":"4","last_reported":1752344045,"current_range_meters":12400,"station_id":"ce4bhh12rcd13ifvqfg0","pricing_plan_id":"cebpf4jnsgd1na2vs0mg"},{"bike_id":"ecc43651-b9c4-4bc8-97b4-ff0a2eb8ae42","system_id":"levelo_inurba_marseille","lat":43.284546,"lon":5.358782,"is_reserved":false,"is_disabled":false,"rental_uris":{"android":"levelo://app?vid=ecc43651-b9c4-4bc8-97b4-ff0a2eb8ae42","ios":"levelo://app?vid=ecc43651-b9c4-4bc8-97b4-ff0a2eb8ae42"},"vehicle_type_id":"4","last_reported":1752344045,"current_range_meters":12400,"station_id":"ce4bhah2rcd13ifvqei0","pricing_plan_id":"cebpf4jnsgd1na2vs0mg"},{"bike_id":"11f1c63d-20e7-4dfd-b83e-9f450c8b8cbc","system_id":"levelo_inurba_marseille","lat":43.289392,"lon":5.366333,"is_reserved":false,"is_disabled":false,"rental_uris":{"android":"levelo://app?vid=11f1c63d-20e7-4dfd-b83e-9f450c8b8cbc","ios":"levelo://app?vid=11f1c63d-20e7-4dfd-b83e-9f450c8b8cbc"},"vehicle_type_id":"4","last_reported":1752344045,"current_range_meters":12400,"station_id":"ce4bhap2rcd13ifvqek0","pricing_plan_id":"cebpf4jnsgd1na2vs0mg"},{"bike_id":"aeef83a0-cd48-47ed-b123-08598ed42290","system_id":"levelo_inurba_marseille","lat":43.31075,"lon":5.38348,"is_reserved":false,"is_disabled":false,"rental_uris":{"android":"levelo://app?vid=aeef83a0-cd48-47ed-b123-08598ed42290","ios":"levelo://app?vid=aeef83a0-cd48-47ed-b123-08598ed42290"},"vehicle_type_id":"4","last_reported":1752344045,"current_range_meters":12400,"station_id":"ce4bgv92rcd13ifvqcr0","pricing_plan_id":"cebpf4jnsgd1na2vs0mg"},{"bike_id":"22e3cc01-e0a6-44f9-bde4-0da10d2444c3","system_id":"levelo_inurba_marseille","lat":43.30358,"lon":5.41879,"is_reserved":false,"is_disabled":false,"rental_uris":{"android":"levelo://app?vid=22e3cc01-e0a6-44f9-bde4-0da10d2444c3","ios":"levelo://app?vid=22e3cc01-e0a6-44f9-bde4-0da10d2444c3"},"vehicle_type_id":"4","last_reported":1752344045,"current_range_meters":12400,"station_id":"ce4bhop2rcd13ifvqh7g","pricing_plan_id":"cebpf4jnsgd1na2vs0mg"},{"bike_id":"bba6cb94-6f4e-4994-873d-cb240dac5d73","system_id":"levelo_inurba_marseille","lat":43.29848,"lon":5.36285,"is_reserved":false,"is_disabled":false,"rental_uris":{"android":"levelo://app?vid=bba6cb94-6f4e-4994-873d-cb240dac5d73","ios":"levelo://app?vid=bba6cb94-6f4e-4994-873d-cb240dac5d73"},"vehicle_type_id":"4","last_reported":1752344045,"current_range_meters":12400,"station_id":"ce4bgpp2rcd13ifvqc3g","pricing_plan_id":"cebpf4jnsgd1na2vs0mg"},{"bike_id":"5a1aa169-e8de-4c42-8232-f9cf794c57f1","system_id":"levelo_inurba_marseille","lat":43.21201,"lon":5.35063,"is_reserved":false,"is_disabled":false,"rental_uris":{"android":"levelo://app?vid=5a1aa169-e8de-4c42-8232-f9cf794c57f1","ios":"levelo://app?vid=5a1aa169-e8de-4c42-8232-f9cf794c57f1"},"vehicle_type_id":"4","last_reported":1752344045,"current_range_meters":12400,"station_id":"st_cvj6sg6p6f1abm77japg","pricing_plan_id":"cebpf4jnsgd1na2vs0mg"},{"bike_id":"a75d9643-21a7-4254-8aa8-505650a3bcb1","system_id":"levelo_inurba_marseille","lat":43.28673,"lon":5.36338,"is_reserved":false,"is_disabled":false,"rental_uris":{"android":"levelo://app?vid=a75d9643-21a7-4254-8aa8-505650a3bcb1","ios":"levelo://app?vid=a75d9643-21a7-4254-8aa8-505650a3bcb1"},"vehicle_type_id":"4","last_reported":1752344045,"current_range_meters":12000,"station_id":"ce4bhah2rcd13ifvqej0","pricing_plan_id":"cebpf4jnsgd1na2vs0mg"},{"bike_id":"c40d1a53-9e7d-41dd-a6b9-7758a70b16ca","system_id":"levelo_inurba_marseille","lat":43.2669,"lon":5.38268,"is_reserved":false,"is_disabled":false,"rental_uris":{"android":"levelo://app?vid=c40d1a53-9e7d-41dd-a6b9-7758a70b16ca","ios":"levelo://app?vid=c40d1a53-9e7d-41dd-a6b9-7758a70b16ca"},"vehicle_type_id":"4","last_reported":1752344045,"current_range_meters":12000,"station_id":"ce4bhg92rcd13ifvqf90","pricing_plan_id":"cebpf4jnsgd1na2vs0mg"},{"bike_id":"c816310d-8ff0-4290-b10a-aad431dd902c","system_id":"levelo_inurba_marseille","lat":43.2176,"lon":5.34607,"is_reserved":false,"is_disabled":true,"rental_uris":{"android":"levelo://app?vid=c816310d-8ff0-4290-b10a-aad431dd902c","ios":"levelo://app?vid=c816310d-8ff0-4290-b10a-aad431dd902c"},"vehicle_type_id":"4","last_reported":1752344045,"current_range_meters":12800,"station_id":"st_cvj6r9ubvosntc0bgbag","pricing_plan_id":"cebpf4jnsgd1na2vs0mg"},{"bike_id":"febec9a3-2797-423d-a424-12f3a796fcb3","system_id":"levelo_inurba_marseille","lat":43.31687,"lon":5.40473,"is_reserved":false,"is_disabled":false,"rental_uris":{"android":"levelo://app?vid=febec9a3-2797-423d-a424-12f3a796fcb3","ios":"levelo://app?vid=febec9a3-2797-423d-a424-12f3a796fcb3"},"vehicle_type_id":"4","last_reported":1752344045,"current_range_meters":12800,"station_id":"ce4bh012rcd13ifvqd00","pricing_plan_id":"cebpf4jnsgd1na2vs0mg"},{"bike_id":"9ddcfd2a-bb38-4cf4-bdda-488c986d0b54","system_id":"levelo_inurba_marseille","lat":43.29303,"lon":5.37462,"is_reserved":false,"is_disabled":false,"rental_uris":{"android":"levelo://app?vid=9ddcfd2a-bb38-4cf4-bdda-488c986d0b54","ios":"levelo://app?vid=9ddcfd2a-bb38-4cf4-bdda-488c986d0b54"},"vehicle_type_id":"4","last_reported":1752344045,"current_range_meters":12800,"station_id":"ce4bgi12rcd13ifvqb70","pricing_plan_id":"cebpf4jnsgd1na2vs0mg"},{"bike_id":"ad3a92a9-aac6-4694-a2f3-20c935fef2b6","system_id":"levelo_inurba_marseille","lat":43.292986,"lon":5.374656,"is_reserved":false,"is_disabled":false,"rental_uris":{"android":"levelo://app?vid=ad3a92a9-aac6-4694-a2f3-20c935fef2b6","ios":"levelo://app?vid=ad3a92a9-aac6-4694-a2f3-20c935fef2b6"},"vehicle_type_id":"4","last_reported":1752344045,"current_range_meters":12800,"station_id":"","pricing_plan_id":"cebpf4jnsgd1na2vs0mg"},{"bike_id":"ac0b4b6a-87f1-43d8-97bf-f440d89f3ebf","system_id":"levelo_inurba_marseille","lat":43.29259,"lon":5.38424,"is_reserved":false,"is_disabled":false,"rental_uris":{"android":"levelo://app?vid=ac0b4b6a-87f1-43d8-97bf-f440d89f3ebf","ios":"levelo://app?vid=ac0b4b6a-87f1-43d8-97bf-f440d89f3ebf"},"vehicle_type_id":"4","last_reported":1752344045,"current_range_meters":12400,"station_id":"ce4bh692rcd13ifvqea0","pricing_plan_id":"cebpf4jnsgd1na2vs0mg"},{"bike_id":"e03a2377-57a6-4979-9818-4fb0077e2e75","system_id":"levelo_inurba_marseille","lat":43.24191,"lon":5.39703,"is_reserved":false,"is_disabled":false,"rental_uris":{"android":"levelo://app?vid=e03a2377-57a6-4979-9818-4fb0077e2e75","ios":"levelo://app?vid=e03a2377-57a6-4979-9818-4fb0077e2e75"},"vehicle_type_id":"4","last_reported":1752344045,"current_range_meters":13600,"station_id":"ce4bhn12rcd13ifvqgpg","pricing_plan_id":"cebpf4jnsgd1na2vs0mg"},{"bike_id":"2be4fa43-a887-464c-9224-dcbb19c53896","system_id":"levelo_inurba_marseille","lat":43.26202,"lon":5.379317,"is_reserved":false,"is_disabled":false,"rental_uris":{"android":"levelo://app?vid=2be4fa43-a887-464c-9224-dcbb19c53896","ios":"levelo://app?vid=2be4fa43-a887-464c-9224-dcbb19c53896"},"vehicle_type_id":"4","last_reported":1752344045,"current_range_meters":13600,"station_id":"ce4bhjp2rcd13ifvqg90","pricing_plan_id":"cebpf4jnsgd1na2vs0mg"},{"bike_id":"ee5338dd-18a1-4b48-a5b0-f8c72f7b1319","system_id":"levelo_inurba_marseille","lat":43.318805,"lon":5.367881,"is_reserved":false,"is_disabled":false,"rental_uris":{"android":"levelo://app?vid=ee5338dd-18a1-4b48-a5b0-f8c72f7b1319","ios":"levelo://app?vid=ee5338dd-18a1-4b48-a5b0-f8c72f7b1319"},"vehicle_type_id":"4","last_reported":1752344045,"current_range_meters":13600,"station_id":"","pricing_plan_id":"cebpf4jnsgd1na2vs0mg"},{"bike_id":"652cff43-29eb-4878-9688-07803ac3637f","system_id":"levelo_inurba_marseille","lat":43.29259,"lon":5.40903,"is_reserved":false,"is_disabled":false,"rental_uris":{"android":"levelo://app?vid=652cff43-29eb-4878-9688-07803ac3637f","ios":"levelo://app?vid=652cff43-29eb-4878-9688-07803ac3637f"},"vehicle_type_id":"4","last_reported":1752344045,"current_range_meters":12800,"station_id":"ce4bh192rcd13ifvqdc0","pricing_plan_id":"cebpf4jnsgd1na2vs0mg"},{"bike_id":"e34f5d7d-0125-44e4-b2d1-8a57ed3ee9a0","system_id":"levelo_inurba_marseille","lat":43.26023,"lon":5.37538,"is_reserved":false,"is_disabled":false,"rental_uris":{"android":"levelo://app?vid=e34f5d7d-0125-44e4-b2d1-8a57ed3ee9a0","ios":"levelo://app?vid=e34f5d7d-0125-44e4-b2d1-8a57ed3ee9a0"},"vehicle_type_id":"4","last_reported":1752344045,"current_range_meters":13600,"station_id":"ce4bhgh2rcd13ifvqfa0","pricing_plan_id":"cebpf4jnsgd1na2vs0mg"},{"bike_id":"f51b4b10-71c6-4846-93c1-c5f5d36e3469","system_id":"levelo_inurba_marseille","lat":43.26941,"lon":5.40259,"is_reserved":false,"is_disabled":false,"rental_uris":{"android":"levelo://app?vid=f51b4b10-71c6-4846-93c1-c5f5d36e3469","ios":"levelo://app?vid=f51b4b10-71c6-4846-93c1-c5f5d36e3469"},"vehicle_type_id":"4","last_reported":1752344045,"current_range_meters":13600,"station_id":"cjm6bp8fraef2m0cb0m0","pricing_plan_id":"cebpf4jnsgd1na2vs0mg"},{"bike_id":"a9d95707-2d8e-44f0-827b-224e87d952c8","system_id":"levelo_inurba_marseille","lat":43.30299,"lon":5.39115,"is_reserved":false,"is_disabled":false,"rental_uris":{"android":"levelo://app?vid=a9d95707-2d8e-44f0-827b-224e87d952c8","ios":"levelo://app?vid=a9d95707-2d8e-44f0-827b-224e87d952c8"},"vehicle_type_id":"4","last_reported":1752344045,"current_range_meters":11600,"station_id":"","pricing_plan_id":"cebpf4jnsgd1na2vs0mg"},{"bike_id":"470d1e9d-8c05-40b8-a6b2-039f183b9f6a","system_id":"levelo_inurba_marseille","lat":43.23197,"lon":5.35554,"is_reserved":false,"is_disabled":true,"rental_uris":{"android":"levelo://app?vid=470d1e9d-8c05-40b8-a6b2-039f183b9f6a","ios":"levelo://app?vid=470d1e9d-8c05-40b8-a6b2-039f183b9f6a"},"vehicle_type_id":"4","last_reported":1752344045,"current_range_meters":13600,"station_id":"ce4bhu92rcd13ifvqi70","pricing_plan_id":"cebpf4jnsgd1na2vs0mg"},{"bike_id":"eecd3b76-6861-452d-b688-b927c61bb068","system_id":"levelo_inurba_marseille","lat":43.29099,"lon":5.3815,"is_reserved":false,"is_disabled":false,"rental_uris":{"android":"levelo://app?vid=eecd3b76-6861-452d-b688-b927c61bb068","ios":"levelo://app?vid=eecd3b76-6861-452d-b688-b927c61bb068"},"vehicle_type_id":"4","last_reported":1752344045,"current_range_meters":14000,"station_id":"ce4bh512rcd13ifvqe2g","pricing_plan_id":"cebpf4jnsgd1na2vs0mg"},{"bike_id":"7f02047d-a6cd-43f4-a617-996f2b9a8bc8","system_id":"levelo_inurba_marseille","lat":43.32373,"lon":5.3677,"is_reserved":false,"is_disabled":false,"rental_uris":{"android":"levelo://app?vid=7f02047d-a6cd-43f4-a617-996f2b9a8bc8","ios":"levelo://app?vid=7f02047d-a6cd-43f4-a617-996f2b9a8bc8"},"vehicle_type_id":"4","last_reported":1752344045,"current_range_meters":14000,"station_id":"ce4bhsh2rcd13ifvqi2g","pricing_plan_id":"cebpf4jnsgd1na2vs0mg"},{"bike_id":"5fd62d9f-772d-4269-8337-67a17b3d19b8","system_id":"levelo_inurba_marseille","lat":43.24678,"lon":5.3814,"is_reserved":false,"is_disabled":false,"rental_uris":{"android":"levelo://app?vid=5fd62d9f-772d-4269-8337-67a17b3d19b8","ios":"levelo://app?vid=5fd62d9f-772d-4269-8337-67a17b3d19b8"},"vehicle_type_id":"4","last_reported":1752344045,"current_range_meters":14000,"station_id":"ce4bhih2rcd13ifvqfr0","pricing_plan_id":"cebpf4jnsgd1na2vs0mg"},{"bike_id":"00a228d9-1424-47d5-bc91-1b6cb877047e","system_id":"levelo_inurba_marseille","lat":43.26196,"lon":5.37449,"is_reserved":false,"is_disabled":false,"rental_uris":{"android":"levelo://app?vid=00a228d9-1424-47d5-bc91-1b6cb877047e","ios":"levelo://app?vid=00a228d9-1424-47d5-bc91-1b6cb877047e"},"vehicle_type_id":"4","last_reported":1752344045,"current_range_meters":14000,"station_id":"ce4bhgp2rcd13ifvqfc0","pricing_plan_id":"cebpf4jnsgd1na2vs0mg"},{"bike_id":"2d8df8c0-37b9-4bcd-971f-b8fa6868731f","system_id":"levelo_inurba_marseille","lat":43.295597,"lon":5.422833,"is_reserved":false,"is_disabled":false,"rental_uris":{"android":"levelo://app?vid=2d8df8c0-37b9-4bcd-971f-b8fa6868731f","ios":"levelo://app?vid=2d8df8c0-37b9-4bcd-971f-b8fa6868731f"},"vehicle_type_id":"4","last_reported":1752344045,"current_range_meters":14000,"station_id":"ce4bhph2rcd13ifvqhdg","pricing_plan_id":"cebpf4jnsgd1na2vs0mg"},{"bike_id":"af7cdff7-c641-4ea9-b055-e8f67018757c","system_id":"levelo_inurba_marseille","lat":43.26788,"lon":5.39416,"is_reserved":false,"is_disabled":false,"rental_uris":{"android":"levelo://app?vid=af7cdff7-c641-4ea9-b055-e8f67018757c","ios":"levelo://app?vid=af7cdff7-c641-4ea9-b055-e8f67018757c"},"vehicle_type_id":"4","last_reported":1752344045,"current_range_meters":13600,"station_id":"ce4bhh12rcd13ifvqfg0","pricing_plan_id":"cebpf4jnsgd1na2vs0mg"},{"bike_id":"3871b306-7c1c-40cf-9da9-a3cac9f9b275","system_id":"levelo_inurba_marseille","lat":43.30419,"lon":5.41281,"is_reserved":false,"is_disabled":false,"rental_uris":{"android":"levelo://app?vid=3871b306-7c1c-40cf-9da9-a3cac9f9b275","ios":"levelo://app?vid=3871b306-7c1c-40cf-9da9-a3cac9f9b275"},"vehicle_type_id":"4","last_reported":1752344045,"current_range_meters":14000,"station_id":"ce4bhop2rcd13ifvqh8g","pricing_plan_id":"cebpf4jnsgd1na2vs0mg"},{"bike_id":"930467ea-7268-4cf5-ba6d-d271e91ee991","system_id":"levelo_inurba_marseille","lat":43.30934,"lon":5.40145,"is_reserved":false,"is_disabled":false,"rental_uris":{"android":"levelo://app?vid=930467ea-7268-4cf5-ba6d-d271e91ee991","ios":"levelo://app?vid=930467ea-7268-4cf5-ba6d-d271e91ee991"},"vehicle_type_id":"4","last_reported":1752344045,"current_range_meters":14400,"station_id":"ce4bgvp2rcd13ifvqct0","pricing_plan_id":"cebpf4jnsgd1na2vs0mg"},{"bike_id":"fbacda24-025c-4da3-b3df-def6e9ee4c00","system_id":"levelo_inurba_marseille","lat":43.28672,"lon":5.36335,"is_reserved":false,"is_disabled":false,"rental_uris":{"android":"levelo://app?vid=fbacda24-025c-4da3-b3df-def6e9ee4c00","ios":"levelo://app?vid=fbacda24-025c-4da3-b3df-def6e9ee4c00"},"vehicle_type_id":"4","last_reported":1752344045,"current_range_meters":14400,"station_id":"ce4bhah2rcd13ifvqej0","pricing_plan_id":"cebpf4jnsgd1na2vs0mg"},{"bike_id":"fe9985d4-07f4-44b9-9e62-b7a73a049020","system_id":"levelo_inurba_marseille","lat":43.280393,"lon":5.369395,"is_reserved":false,"is_disabled":false,"rental_uris":{"android":"levelo://app?vid=fe9985d4-07f4-44b9-9e62-b7a73a049020","ios":"levelo://app?vid=fe9985d4-07f4-44b9-9e62-b7a73a049020"},"vehicle_type_id":"4","last_reported":1752344045,"current_range_meters":14400,"station_id":"ce4bha12rcd13ifvqef0","pricing_plan_id":"cebpf4jnsgd1na2vs0mg"},{"bike_id":"a53df2ed-bb47-491c-92a6-afd2f18e56a5","system_id":"levelo_inurba_marseille","lat":43.33605,"lon":5.41036,"is_reserved":false,"is_disabled":false,"rental_uris":{"android":"levelo://app?vid=a53df2ed-bb47-491c-92a6-afd2f18e56a5","ios":"levelo://app?vid=a53df2ed-bb47-491c-92a6-afd2f18e56a5"},"vehicle_type_id":"4","last_reported":1752344045,"current_range_meters":14000,"station_id":"ce4bhqh2rcd13ifvqhmg","pricing_plan_id":"cebpf4jnsgd1na2vs0mg"},{"bike_id":"05bd9997-3c4e-49c6-a628-686076927091","system_id":"levelo_inurba_marseille","lat":43.29622,"lon":5.37162,"is_reserved":false,"is_disabled":false,"rental_uris":{"android":"levelo://app?vid=05bd9997-3c4e-49c6-a628-686076927091","ios":"levelo://app?vid=05bd9997-3c4e-49c6-a628-686076927091"},"vehicle_type_id":"4","last_reported":1752344045,"current_range_meters":14000,"station_id":"ce4bgnh2rcd13ifvqc0g","pricing_plan_id":"cebpf4jnsgd1na2vs0mg"},{"bike_id":"a7582bfb-61fb-4fa4-a94b-68b9469cc81e","system_id":"levelo_inurba_marseille","lat":43.284094,"lon":5.375175,"is_reserved":false,"is_disabled":false,"rental_uris":{"android":"levelo://app?vid=a7582bfb-61fb-4fa4-a94b-68b9469cc81e","ios":"levelo://app?vid=a7582bfb-61fb-4fa4-a94b-68b9469cc81e"},"vehicle_type_id":"4","last_reported":1752344045,"current_range_meters":14400,"station_id":"ce4bh412rcd13ifvqds0","pricing_plan_id":"cebpf4jnsgd1na2vs0mg"},{"bike_id":"737ead6f-e608-42f1-8a55-8949c954e8e3","system_id":"levelo_inurba_marseille","lat":43.21214,"lon":5.35061,"is_reserved":false,"is_disabled":false,"rental_uris":{"android":"levelo://app?vid=737ead6f-e608-42f1-8a55-8949c954e8e3","ios":"levelo://app?vid=737ead6f-e608-42f1-8a55-8949c954e8e3"},"vehicle_type_id":"4","last_reported":1752344045,"current_range_meters":14400,"station_id":"st_cvj6sg6p6f1abm77japg","pricing_plan_id":"cebpf4jnsgd1na2vs0mg"},{"bike_id":"854d5dbd-9ed2-47cd-9380-9348e08a193d","system_id":"levelo_inurba_marseille","lat":43.29917,"lon":5.37469,"is_reserved":false,"is_disabled":false,"rental_uris":{"android":"levelo://app?vid=854d5dbd-9ed2-47cd-9380-9348e08a193d","ios":"levelo://app?vid=854d5dbd-9ed2-47cd-9380-9348e08a193d"},"vehicle_type_id":"4","last_reported":1752344045,"current_range_meters":14800,"station_id":"ce4bgjh2rcd13ifvqbg0","pricing_plan_id":"cebpf4jnsgd1na2vs0mg"},{"bike_id":"d7d851de-d966-47dc-9bd8-1a9ae0c433a4","system_id":"levelo_inurba_marseille","lat":43.225055,"lon":5.347843,"is_reserved":false,"is_disabled":false,"rental_uris":{"android":"levelo://app?vid=d7d851de-d966-47dc-9bd8-1a9ae0c433a4","ios":"levelo://app?vid=d7d851de-d966-47dc-9bd8-1a9ae0c433a4"},"vehicle_type_id":"4","last_reported":1752344045,"current_range_meters":14800,"station_id":"","pricing_plan_id":"cebpf4jnsgd1na2vs0mg"},{"bike_id":"51890362-46b0-4ee7-9f02-afbf036d064e","system_id":"levelo_inurba_marseille","lat":43.21195,"lon":5.35073,"is_reserved":false,"is_disabled":false,"rental_uris":{"android":"levelo://app?vid=51890362-46b0-4ee7-9f02-afbf036d064e","ios":"levelo://app?vid=51890362-46b0-4ee7-9f02-afbf036d064e"},"vehicle_type_id":"4","last_reported":1752344045,"current_range_meters":14800,"station_id":"st_cvj6sg6p6f1abm77japg","pricing_plan_id":"cebpf4jnsgd1na2vs0mg"},{"bike_id":"49801dc2-618a-44b8-84ae-416cd87fdbe9","system_id":"levelo_inurba_marseille","lat":43.33774,"lon":5.37475,"is_reserved":false,"is_disabled":false,"rental_uris":{"android":"levelo://app?vid=49801dc2-618a-44b8-84ae-416cd87fdbe9","ios":"levelo://app?vid=49801dc2-618a-44b8-84ae-416cd87fdbe9"},"vehicle_type_id":"4","last_reported":1752344045,"current_range_meters":14800,"station_id":"","pricing_plan_id":"cebpf4jnsgd1na2vs0mg"},{"bike_id":"3f2f54ea-4770-4590-b19e-824f4e2eec26","system_id":"levelo_inurba_marseille","lat":43.260294,"lon":5.375481,"is_reserved":false,"is_disabled":false,"rental_uris":{"android":"levelo://app?vid=3f2f54ea-4770-4590-b19e-824f4e2eec26","ios":"levelo://app?vid=3f2f54ea-4770-4590-b19e-824f4e2eec26"},"vehicle_type_id":"4","last_reported":1752344045,"current_range_meters":14800,"station_id":"ce4bhgh2rcd13ifvqfa0","pricing_plan_id":"cebpf4jnsgd1na2vs0mg"},{"bike_id":"ac9c40a8-4267-43e4-a186-06cb106b6fdf","system_id":"levelo_inurba_marseille","lat":43.29593,"lon":5.37497,"is_reserved":false,"is_disabled":false,"rental_uris":{"android":"levelo://app?vid=ac9c40a8-4267-43e4-a186-06cb106b6fdf","ios":"levelo://app?vid=ac9c40a8-4267-43e4-a186-06cb106b6fdf"},"vehicle_type_id":"4","last_reported":1752344045,"current_range_meters":15200,"station_id":"ce4bgh92rcd13ifvqb50","pricing_plan_id":"cebpf4jnsgd1na2vs0mg"},{"bike_id":"99a2bc3d-57e3-4284-b398-ff6b022e8db0","system_id":"levelo_inurba_marseille","lat":43.28611,"lon":5.37066,"is_reserved":false,"is_disabled":false,"rental_uris":{"android":"levelo://app?vid=99a2bc3d-57e3-4284-b398-ff6b022e8db0","ios":"levelo://app?vid=99a2bc3d-57e3-4284-b398-ff6b022e8db0"},"vehicle_type_id":"4","last_reported":1752344045,"current_range_meters":15200,"station_id":"ce4bht12rcd13ifvqi60","pricing_plan_id":"cebpf4jnsgd1na2vs0mg"},{"bike_id":"d24b005a-12c4-4b82-b8f3-41c245b98253","system_id":"levelo_inurba_marseille","lat":43.298,"lon":5.38098,"is_reserved":false,"is_disabled":false,"rental_uris":{"android":"levelo://app?vid=d24b005a-12c4-4b82-b8f3-41c245b98253","ios":"levelo://app?vid=d24b005a-12c4-4b82-b8f3-41c245b98253"},"vehicle_type_id":"4","last_reported":1752344045,"current_range_meters":14800,"station_id":"ce4bgip2rcd13ifvqbb0","pricing_plan_id":"cebpf4jnsgd1na2vs0mg"},{"bike_id":"9edb398a-fbe1-4e01-8627-4c6e2fc1d082","system_id":"levelo_inurba_marseille","lat":43.29279,"lon":5.36838,"is_reserved":false,"is_disabled":false,"rental_uris":{"android":"levelo://app?vid=9edb398a-fbe1-4e01-8627-4c6e2fc1d082","ios":"levelo://app?vid=9edb398a-fbe1-4e01-8627-4c6e2fc1d082"},"vehicle_type_id":"4","last_reported":1752344045,"current_range_meters":15200,"station_id":"ce4bhbp2rcd13ifvqesg","pricing_plan_id":"cebpf4jnsgd1na2vs0mg"},{"bike_id":"27473b88-8aa8-4a0a-9408-dec22a68ef6f","system_id":"levelo_inurba_marseille","lat":43.33609,"lon":5.41031,"is_reserved":false,"is_disabled":false,"rental_uris":{"android":"levelo://app?vid=27473b88-8aa8-4a0a-9408-dec22a68ef6f","ios":"levelo://app?vid=27473b88-8aa8-4a0a-9408-dec22a68ef6f"},"vehicle_type_id":"4","last_reported":1752344045,"current_range_meters":15200,"station_id":"ce4bhqh2rcd13ifvqhmg","pricing_plan_id":"cebpf4jnsgd1na2vs0mg"},{"bike_id":"a0137104-c9f4-434a-a5e3-80725cd5a2b4","system_id":"levelo_inurba_marseille","lat":43.211965,"lon":5.350774,"is_reserved":false,"is_disabled":false,"rental_uris":{"android":"levelo://app?vid=a0137104-c9f4-434a-a5e3-80725cd5a2b4","ios":"levelo://app?vid=a0137104-c9f4-434a-a5e3-80725cd5a2b4"},"vehicle_type_id":"4","last_reported":1752344045,"current_range_meters":15200,"station_id":"st_cvj6sg6p6f1abm77japg","pricing_plan_id":"cebpf4jnsgd1na2vs0mg"},{"bike_id":"ba7aedf6-1e12-49e4-a1c3-a364c35c03ac","system_id":"levelo_inurba_marseille","lat":43.30889,"lon":5.39656,"is_reserved":false,"is_disabled":false,"rental_uris":{"android":"levelo://app?vid=ba7aedf6-1e12-49e4-a1c3-a364c35c03ac","ios":"levelo://app?vid=ba7aedf6-1e12-49e4-a1c3-a364c35c03ac"},"vehicle_type_id":"4","last_reported":1752344045,"current_range_meters":14800,"station_id":"ce4bh012rcd13ifvqcv0","pricing_plan_id":"cebpf4jnsgd1na2vs0mg"},{"bike_id":"46e39d81-d030-4487-9c65-9dc814e5a4c5","system_id":"levelo_inurba_marseille","lat":43.309544,"lon":5.390383,"is_reserved":false,"is_disabled":false,"rental_uris":{"android":"levelo://app?vid=46e39d81-d030-4487-9c65-9dc814e5a4c5","ios":"levelo://app?vid=46e39d81-d030-4487-9c65-9dc814e5a4c5"},"vehicle_type_id":"4","last_reported":1752344045,"current_range_meters":16000,"station_id":"ce4bgup2rcd13ifvqco0","pricing_plan_id":"cebpf4jnsgd1na2vs0mg"},{"bike_id":"34e7f93c-c892-4b6d-b726-78e8129cf585","system_id":"levelo_inurba_marseille","lat":43.28414,"lon":5.34987,"is_reserved":false,"is_disabled":false,"rental_uris":{"android":"levelo://app?vid=34e7f93c-c892-4b6d-b726-78e8129cf585","ios":"levelo://app?vid=34e7f93c-c892-4b6d-b726-78e8129cf585"},"vehicle_type_id":"4","last_reported":1752344045,"current_range_meters":16000,"station_id":"ce4bhbh2rcd13ifvqepg","pricing_plan_id":"cebpf4jnsgd1na2vs0mg"},{"bike_id":"01ec080a-2072-40fe-8f02-ee71150e5d55","system_id":"levelo_inurba_marseille","lat":43.29272,"lon":5.36838,"is_reserved":false,"is_disabled":false,"rental_uris":{"android":"levelo://app?vid=01ec080a-2072-40fe-8f02-ee71150e5d55","ios":"levelo://app?vid=01ec080a-2072-40fe-8f02-ee71150e5d55"},"vehicle_type_id":"4","last_reported":1752344045,"current_range_meters":16000,"station_id":"ce4bhbp2rcd13ifvqesg","pricing_plan_id":"cebpf4jnsgd1na2vs0mg"},{"bike_id":"00bc0b3b-e317-4a17-a011-a3a9a29d816a","system_id":"levelo_inurba_marseille","lat":43.21192,"lon":5.35069,"is_reserved":false,"is_disabled":false,"rental_uris":{"android":"levelo://app?vid=00bc0b3b-e317-4a17-a011-a3a9a29d816a","ios":"levelo://app?vid=00bc0b3b-e317-4a17-a011-a3a9a29d816a"},"vehicle_type_id":"4","last_reported":1752344045,"current_range_meters":16000,"station_id":"st_cvj6sg6p6f1abm77japg","pricing_plan_id":"cebpf4jnsgd1na2vs0mg"},{"bike_id":"34ef3b01-fe68-4f8d-92d4-e56de5eb0def","system_id":"levelo_inurba_marseille","lat":43.262787,"lon":5.393127,"is_reserved":false,"is_disabled":false,"rental_uris":{"android":"levelo://app?vid=34ef3b01-fe68-4f8d-92d4-e56de5eb0def","ios":"levelo://app?vid=34ef3b01-fe68-4f8d-92d4-e56de5eb0def"},"vehicle_type_id":"4","last_reported":1752344045,"current_range_meters":16000,"station_id":"ce4bhh92rcd13ifvqfj0","pricing_plan_id":"cebpf4jnsgd1na2vs0mg"},{"bike_id":"b59abc13-3ce4-4852-b64e-5c578ce71136","system_id":"levelo_inurba_marseille","lat":43.23191,"lon":5.35555,"is_reserved":false,"is_disabled":false,"rental_uris":{"android":"levelo://app?vid=b59abc13-3ce4-4852-b64e-5c578ce71136","ios":"levelo://app?vid=b59abc13-3ce4-4852-b64e-5c578ce71136"},"vehicle_type_id":"4","last_reported":1752344045,"current_range_meters":16000,"station_id":"ce4bhu92rcd13ifvqi70","pricing_plan_id":"cebpf4jnsgd1na2vs0mg"},{"bike_id":"76c25987-6fe7-4e1c-a023-a91a50bdbd2e","system_id":"levelo_inurba_marseille","lat":43.29306,"lon":5.37164,"is_reserved":false,"is_disabled":false,"rental_uris":{"android":"levelo://app?vid=76c25987-6fe7-4e1c-a023-a91a50bdbd2e","ios":"levelo://app?vid=76c25987-6fe7-4e1c-a023-a91a50bdbd2e"},"vehicle_type_id":"4","last_reported":1752344045,"current_range_meters":16000,"station_id":"ce4bgh92rcd13ifvqb40","pricing_plan_id":"cebpf4jnsgd1na2vs0mg"},{"bike_id":"8b37f03f-f226-4bbc-8648-b109da7ba145","system_id":"levelo_inurba_marseille","lat":43.30536,"lon":5.366999,"is_reserved":false,"is_disabled":false,"rental_uris":{"android":"levelo://app?vid=8b37f03f-f226-4bbc-8648-b109da7ba145","ios":"levelo://app?vid=8b37f03f-f226-4bbc-8648-b109da7ba145"},"vehicle_type_id":"4","last_reported":1752344045,"current_range_meters":16400,"station_id":"","pricing_plan_id":"cebpf4jnsgd1na2vs0mg"},{"bike_id":"9b796795-834a-4eef-b910-061ae9ef4928","system_id":"levelo_inurba_marseille","lat":43.30595,"lon":5.37229,"is_reserved":false,"is_disabled":false,"rental_uris":{"android":"levelo://app?vid=9b796795-834a-4eef-b910-061ae9ef4928","ios":"levelo://app?vid=9b796795-834a-4eef-b910-061ae9ef4928"},"vehicle_type_id":"4","last_reported":1752344045,"current_range_meters":15200,"station_id":"ce4bgqh2rcd13ifvqc4g","pricing_plan_id":"cebpf4jnsgd1na2vs0mg"},{"bike_id":"c5bb6a2d-3d32-484a-8fa5-3d10639579f4","system_id":"levelo_inurba_marseille","lat":43.28746,"lon":5.36079,"is_reserved":false,"is_disabled":false,"rental_uris":{"android":"levelo://app?vid=c5bb6a2d-3d32-484a-8fa5-3d10639579f4","ios":"levelo://app?vid=c5bb6a2d-3d32-484a-8fa5-3d10639579f4"},"vehicle_type_id":"4","last_reported":1752344045,"current_range_meters":15200,"station_id":"cki0cbj6b192h4jlfktg","pricing_plan_id":"cebpf4jnsgd1na2vs0mg"},{"bike_id":"ca0ec3ab-1ae4-4776-8ba4-148d299c0ae7","system_id":"levelo_inurba_marseille","lat":43.24812,"lon":5.37458,"is_reserved":false,"is_disabled":false,"rental_uris":{"android":"levelo://app?vid=ca0ec3ab-1ae4-4776-8ba4-148d299c0ae7","ios":"levelo://app?vid=ca0ec3ab-1ae4-4776-8ba4-148d299c0ae7"},"vehicle_type_id":"4","last_reported":1752344045,"current_range_meters":16400,"station_id":"ce4bhgh2rcd13ifvqfb0","pricing_plan_id":"cebpf4jnsgd1na2vs0mg"},{"bike_id":"57692aae-9841-41ad-bc01-254866eaf8b0","system_id":"levelo_inurba_marseille","lat":43.32337,"lon":5.40624,"is_reserved":false,"is_disabled":false,"rental_uris":{"android":"levelo://app?vid=57692aae-9841-41ad-bc01-254866eaf8b0","ios":"levelo://app?vid=57692aae-9841-41ad-bc01-254866eaf8b0"},"vehicle_type_id":"4","last_reported":1752344045,"current_range_meters":16400,"station_id":"ce4bhq92rcd13ifvqhjg","pricing_plan_id":"cebpf4jnsgd1na2vs0mg"},{"bike_id":"54c42649-7aa4-4934-92f3-a23a386f7d15","system_id":"levelo_inurba_marseille","lat":43.24187,"lon":5.36395,"is_reserved":false,"is_disabled":false,"rental_uris":{"android":"levelo://app?vid=54c42649-7aa4-4934-92f3-a23a386f7d15","ios":"levelo://app?vid=54c42649-7aa4-4934-92f3-a23a386f7d15"},"vehicle_type_id":"4","last_reported":1752344045,"current_range_meters":16400,"station_id":"cpo36qri1sfpv3e86is0","pricing_plan_id":"cebpf4jnsgd1na2vs0mg"},{"bike_id":"b4994252-6379-404b-8e88-9479b97129cf","system_id":"levelo_inurba_marseille","lat":43.28615,"lon":5.3706,"is_reserved":false,"is_disabled":false,"rental_uris":{"android":"levelo://app?vid=b4994252-6379-404b-8e88-9479b97129cf","ios":"levelo://app?vid=b4994252-6379-404b-8e88-9479b97129cf"},"vehicle_type_id":"4","last_reported":1752344045,"current_range_meters":16400,"station_id":"ce4bht12rcd13ifvqi60","pricing_plan_id":"cebpf4jnsgd1na2vs0mg"},{"bike_id":"c6ab8f8b-dd2b-4d87-8833-1d402b709fff","system_id":"levelo_inurba_marseille","lat":43.29305,"lon":5.37175,"is_reserved":false,"is_disabled":false,"rental_uris":{"android":"levelo://app?vid=c6ab8f8b-dd2b-4d87-8833-1d402b709fff","ios":"levelo://app?vid=c6ab8f8b-dd2b-4d87-8833-1d402b709fff"},"vehicle_type_id":"4","last_reported":1752344045,"current_range_meters":16400,"station_id":"ce4bgh92rcd13ifvqb40","pricing_plan_id":"cebpf4jnsgd1na2vs0mg"},{"bike_id":"f23760ff-ab61-4853-aa67-28aac93822c1","system_id":"levelo_inurba_marseille","lat":43.337444,"lon":5.374475,"is_reserved":false,"is_disabled":false,"rental_uris":{"android":"levelo://app?vid=f23760ff-ab61-4853-aa67-28aac93822c1","ios":"levelo://app?vid=f23760ff-ab61-4853-aa67-28aac93822c1"},"vehicle_type_id":"4","last_reported":1752344045,"current_range_meters":16400,"station_id":"","pricing_plan_id":"cebpf4jnsgd1na2vs0mg"},{"bike_id":"0197d11d-0d34-4074-9851-865858a4626f","system_id":"levelo_inurba_marseille","lat":43.29038,"lon":5.38631,"is_reserved":false,"is_disabled":false,"rental_uris":{"android":"levelo://app?vid=0197d11d-0d34-4074-9851-865858a4626f","ios":"levelo://app?vid=0197d11d-0d34-4074-9851-865858a4626f"},"vehicle_type_id":"4","last_reported":1752344045,"current_range_meters":16000,"station_id":"ce4bh4p2rcd13ifvqe0g","pricing_plan_id":"cebpf4jnsgd1na2vs0mg"},{"bike_id":"3adb1760-ffb5-4e0c-94e2-7736a9bd3dda","system_id":"levelo_inurba_marseille","lat":43.27941,"lon":5.41048,"is_reserved":false,"is_disabled":false,"rental_uris":{"android":"levelo://app?vid=3adb1760-ffb5-4e0c-94e2-7736a9bd3dda","ios":"levelo://app?vid=3adb1760-ffb5-4e0c-94e2-7736a9bd3dda"},"vehicle_type_id":"4","last_reported":1752344045,"current_range_meters":16400,"station_id":"ce4bhnp2rcd13ifvqh0g","pricing_plan_id":"cebpf4jnsgd1na2vs0mg"},{"bike_id":"d3eb6ebc-944c-4672-ad0e-46dbd50d6295","system_id":"levelo_inurba_marseille","lat":43.26229,"lon":5.37445,"is_reserved":false,"is_disabled":false,"rental_uris":{"android":"levelo://app?vid=d3eb6ebc-944c-4672-ad0e-46dbd50d6295","ios":"levelo://app?vid=d3eb6ebc-944c-4672-ad0e-46dbd50d6295"},"vehicle_type_id":"4","last_reported":1752344045,"current_range_meters":16400,"station_id":"ce4bhgp2rcd13ifvqfc0","pricing_plan_id":"cebpf4jnsgd1na2vs0mg"},{"bike_id":"6d3f299a-d341-49bc-a1f9-7534528d9b67","system_id":"levelo_inurba_marseille","lat":43.23202,"lon":5.35547,"is_reserved":false,"is_disabled":false,"rental_uris":{"android":"levelo://app?vid=6d3f299a-d341-49bc-a1f9-7534528d9b67","ios":"levelo://app?vid=6d3f299a-d341-49bc-a1f9-7534528d9b67"},"vehicle_type_id":"4","last_reported":1752344045,"current_range_meters":16800,"station_id":"ce4bhu92rcd13ifvqi70","pricing_plan_id":"cebpf4jnsgd1na2vs0mg"},{"bike_id":"b0577c2d-5920-483d-9611-7b932b7b0816","system_id":"levelo_inurba_marseille","lat":43.2873,"lon":5.3608,"is_reserved":false,"is_disabled":false,"rental_uris":{"android":"levelo://app?vid=b0577c2d-5920-483d-9611-7b932b7b0816","ios":"levelo://app?vid=b0577c2d-5920-483d-9611-7b932b7b0816"},"vehicle_type_id":"4","last_reported":1752344045,"current_range_meters":16800,"station_id":"cki0cbj6b192h4jlfktg","pricing_plan_id":"cebpf4jnsgd1na2vs0mg"},{"bike_id":"844b44b6-4e33-4917-878d-a3c647561239","system_id":"levelo_inurba_marseille","lat":43.30763,"lon":5.42443,"is_reserved":false,"is_disabled":false,"rental_uris":{"android":"levelo://app?vid=844b44b6-4e33-4917-878d-a3c647561239","ios":"levelo://app?vid=844b44b6-4e33-4917-878d-a3c647561239"},"vehicle_type_id":"4","last_reported":1752344045,"current_range_meters":16800,"station_id":"st_cvj6ca6bvosntc0bfgr0","pricing_plan_id":"cebpf4jnsgd1na2vs0mg"},{"bike_id":"c550a15c-3159-4a5c-a240-a687aacce846","system_id":"levelo_inurba_marseille","lat":43.2797,"lon":5.38737,"is_reserved":false,"is_disabled":false,"rental_uris":{"android":"levelo://app?vid=c550a15c-3159-4a5c-a240-a687aacce846","ios":"levelo://app?vid=c550a15c-3159-4a5c-a240-a687aacce846"},"vehicle_type_id":"4","last_reported":1752344045,"current_range_meters":16400,"station_id":"ce4bhg12rcd13ifvqf80","pricing_plan_id":"cebpf4jnsgd1na2vs0mg"},{"bike_id":"4b8da722-ee9e-48a4-a5e5-3a8a10364708","system_id":"levelo_inurba_marseille","lat":43.31261,"lon":5.37819,"is_reserved":false,"is_disabled":false,"rental_uris":{"android":"levelo://app?vid=4b8da722-ee9e-48a4-a5e5-3a8a10364708","ios":"levelo://app?vid=4b8da722-ee9e-48a4-a5e5-3a8a10364708"},"vehicle_type_id":"4","last_reported":1752344045,"current_range_meters":16800,"station_id":"","pricing_plan_id":"cebpf4jnsgd1na2vs0mg"},{"bike_id":"6500c5eb-d097-4a22-b3bd-334fbdc3dc9d","system_id":"levelo_inurba_marseille","lat":43.29922,"lon":5.37475,"is_reserved":false,"is_disabled":false,"rental_uris":{"android":"levelo://app?vid=6500c5eb-d097-4a22-b3bd-334fbdc3dc9d","ios":"levelo://app?vid=6500c5eb-d097-4a22-b3bd-334fbdc3dc9d"},"vehicle_type_id":"4","last_reported":1752344045,"current_range_meters":16800,"station_id":"ce4bgjh2rcd13ifvqbg0","pricing_plan_id":"cebpf4jnsgd1na2vs0mg"},{"bike_id":"c1d0629c-eaee-41e7-8c10-68b0ec1b077d","system_id":"levelo_inurba_marseille","lat":43.33035,"lon":5.3903,"is_reserved":false,"is_disabled":false,"rental_uris":{"android":"levelo://app?vid=c1d0629c-eaee-41e7-8c10-68b0ec1b077d","ios":"levelo://app?vid=c1d0629c-eaee-41e7-8c10-68b0ec1b077d"},"vehicle_type_id":"4","last_reported":1752344045,"current_range_meters":16800,"station_id":"ce4bhr92rcd13ifvqhrg","pricing_plan_id":"cebpf4jnsgd1na2vs0mg"},{"bike_id":"8a72c655-9715-40b5-acef-07af4de91043","system_id":"levelo_inurba_marseille","lat":43.30134,"lon":5.39854,"is_reserved":false,"is_disabled":false,"rental_uris":{"android":"levelo://app?vid=8a72c655-9715-40b5-acef-07af4de91043","ios":"levelo://app?vid=8a72c655-9715-40b5-acef-07af4de91043"},"vehicle_type_id":"4","last_reported":1752344045,"current_range_meters":16400,"station_id":"ce4bh0h2rcd13ifvqd40","pricing_plan_id":"cebpf4jnsgd1na2vs0mg"},{"bike_id":"a44f68aa-b920-4eb6-845e-df1183944a6b","system_id":"levelo_inurba_marseille","lat":43.28577,"lon":5.35046,"is_reserved":false,"is_disabled":true,"rental_uris":{"android":"levelo://app?vid=a44f68aa-b920-4eb6-845e-df1183944a6b","ios":"levelo://app?vid=a44f68aa-b920-4eb6-845e-df1183944a6b"},"vehicle_type_id":"4","last_reported":1752344045,"current_range_meters":17200,"station_id":"","pricing_plan_id":"cebpf4jnsgd1na2vs0mg"},{"bike_id":"e2ce6e8a-ef9f-4211-8776-042780e4931d","system_id":"levelo_inurba_marseille","lat":43.28416,"lon":5.34979,"is_reserved":false,"is_disabled":true,"rental_uris":{"android":"levelo://app?vid=e2ce6e8a-ef9f-4211-8776-042780e4931d","ios":"levelo://app?vid=e2ce6e8a-ef9f-4211-8776-042780e4931d"},"vehicle_type_id":"4","last_reported":1752344045,"current_range_meters":17200,"station_id":"ce4bhbh2rcd13ifvqepg","pricing_plan_id":"cebpf4jnsgd1na2vs0mg"},{"bike_id":"4036f3ab-530d-4af6-87a2-e61d4b4c3d1c","system_id":"levelo_inurba_marseille","lat":43.25511,"lon":5.37624,"is_reserved":false,"is_disabled":false,"rental_uris":{"android":"levelo://app?vid=4036f3ab-530d-4af6-87a2-e61d4b4c3d1c","ios":"levelo://app?vid=4036f3ab-530d-4af6-87a2-e61d4b4c3d1c"},"vehicle_type_id":"4","last_reported":1752344045,"current_range_meters":17200,"station_id":"ce4bhh12rcd13ifvqff0","pricing_plan_id":"cebpf4jnsgd1na2vs0mg"},{"bike_id":"df40f023-f13c-49b0-b949-77aa55e16bc6","system_id":"levelo_inurba_marseille","lat":43.2621,"lon":5.37441,"is_reserved":false,"is_disabled":false,"rental_uris":{"android":"levelo://app?vid=df40f023-f13c-49b0-b949-77aa55e16bc6","ios":"levelo://app?vid=df40f023-f13c-49b0-b949-77aa55e16bc6"},"vehicle_type_id":"4","last_reported":1752344045,"current_range_meters":17200,"station_id":"ce4bhgp2rcd13ifvqfc0","pricing_plan_id":"cebpf4jnsgd1na2vs0mg"},{"bike_id":"a258dc86-7c84-4445-ad0e-265b9f56cb91","system_id":"levelo_inurba_marseille","lat":43.29556,"lon":5.42276,"is_reserved":false,"is_disabled":false,"rental_uris":{"android":"levelo://app?vid=a258dc86-7c84-4445-ad0e-265b9f56cb91","ios":"levelo://app?vid=a258dc86-7c84-4445-ad0e-265b9f56cb91"},"vehicle_type_id":"4","last_reported":1752344045,"current_range_meters":17200,"station_id":"ce4bhph2rcd13ifvqhdg","pricing_plan_id":"cebpf4jnsgd1na2vs0mg"},{"bike_id":"8ceb4b8f-e38b-40f1-a85f-d57ecc360668","system_id":"levelo_inurba_marseille","lat":43.29438,"lon":5.39745,"is_reserved":false,"is_disabled":false,"rental_uris":{"android":"levelo://app?vid=8ceb4b8f-e38b-40f1-a85f-d57ecc360668","ios":"levelo://app?vid=8ceb4b8f-e38b-40f1-a85f-d57ecc360668"},"vehicle_type_id":"4","last_reported":1752344045,"current_range_meters":17600,"station_id":"ce4bh3h2rcd13ifvqdo0","pricing_plan_id":"cebpf4jnsgd1na2vs0mg"},{"bike_id":"3a36a634-72e6-414b-84f2-02186e1712ae","system_id":"levelo_inurba_marseille","lat":43.28417,"lon":5.34977,"is_reserved":false,"is_disabled":false,"rental_uris":{"android":"levelo://app?vid=3a36a634-72e6-414b-84f2-02186e1712ae","ios":"levelo://app?vid=3a36a634-72e6-414b-84f2-02186e1712ae"},"vehicle_type_id":"4","last_reported":1752344045,"current_range_meters":17600,"station_id":"ce4bhbh2rcd13ifvqepg","pricing_plan_id":"cebpf4jnsgd1na2vs0mg"},{"bike_id":"4b726b60-721d-40f0-ab07-54cf9dc4684f","system_id":"levelo_inurba_marseille","lat":43.29925,"lon":5.37481,"is_reserved":false,"is_disabled":false,"rental_uris":{"android":"levelo://app?vid=4b726b60-721d-40f0-ab07-54cf9dc4684f","ios":"levelo://app?vid=4b726b60-721d-40f0-ab07-54cf9dc4684f"},"vehicle_type_id":"4","last_reported":1752344045,"current_range_meters":17600,"station_id":"ce4bgjh2rcd13ifvqbg0","pricing_plan_id":"cebpf4jnsgd1na2vs0mg"},{"bike_id":"54398d99-4eb6-4d33-9598-00d527a15a13","system_id":"levelo_inurba_marseille","lat":43.26203,"lon":5.37461,"is_reserved":false,"is_disabled":false,"rental_uris":{"android":"levelo://app?vid=54398d99-4eb6-4d33-9598-00d527a15a13","ios":"levelo://app?vid=54398d99-4eb6-4d33-9598-00d527a15a13"},"vehicle_type_id":"4","last_reported":1752344045,"current_range_meters":17600,"station_id":"ce4bhgp2rcd13ifvqfc0","pricing_plan_id":"cebpf4jnsgd1na2vs0mg"},{"bike_id":"07bfc936-df25-46ae-b3b7-097b42708d88","system_id":"levelo_inurba_marseille","lat":43.29201,"lon":5.35797,"is_reserved":false,"is_disabled":false,"rental_uris":{"android":"levelo://app?vid=07bfc936-df25-46ae-b3b7-097b42708d88","ios":"levelo://app?vid=07bfc936-df25-46ae-b3b7-097b42708d88"},"vehicle_type_id":"4","last_reported":1752344045,"current_range_meters":17600,"station_id":"ce4bhb12rcd13ifvqel0","pricing_plan_id":"cebpf4jnsgd1na2vs0mg"},{"bike_id":"96eab653-fff1-41cd-bcbd-417d9feda892","system_id":"levelo_inurba_marseille","lat":43.24177,"lon":5.39725,"is_reserved":false,"is_disabled":false,"rental_uris":{"android":"levelo://app?vid=96eab653-fff1-41cd-bcbd-417d9feda892","ios":"levelo://app?vid=96eab653-fff1-41cd-bcbd-417d9feda892"},"vehicle_type_id":"4","last_reported":1752344045,"current_range_meters":18000,"station_id":"ce4bhn12rcd13ifvqgpg","pricing_plan_id":"cebpf4jnsgd1na2vs0mg"},{"bike_id":"3e8e03bf-ec25-49a9-be60-035cba3ce77e","system_id":"levelo_inurba_marseille","lat":43.29529,"lon":5.38528,"is_reserved":false,"is_disabled":false,"rental_uris":{"android":"levelo://app?vid=3e8e03bf-ec25-49a9-be60-035cba3ce77e","ios":"levelo://app?vid=3e8e03bf-ec25-49a9-be60-035cba3ce77e"},"vehicle_type_id":"4","last_reported":1752344045,"current_range_meters":18000,"station_id":"ce4bgih2rcd13ifvqba0","pricing_plan_id":"cebpf4jnsgd1na2vs0mg"},{"bike_id":"a8830b52-7b57-46c5-8d4c-beadddaa5f60","system_id":"levelo_inurba_marseille","lat":43.26562,"lon":5.37279,"is_reserved":false,"is_disabled":false,"rental_uris":{"android":"levelo://app?vid=a8830b52-7b57-46c5-8d4c-beadddaa5f60","ios":"levelo://app?vid=a8830b52-7b57-46c5-8d4c-beadddaa5f60"},"vehicle_type_id":"4","last_reported":1752344045,"current_range_meters":18000,"station_id":"ce4bhg12rcd13ifvqf70","pricing_plan_id":"cebpf4jnsgd1na2vs0mg"},{"bike_id":"f9924005-c8ac-4086-8e25-9a21391f65ea","system_id":"levelo_inurba_marseille","lat":43.211921,"lon":5.350774,"is_reserved":false,"is_disabled":false,"rental_uris":{"android":"levelo://app?vid=f9924005-c8ac-4086-8e25-9a21391f65ea","ios":"levelo://app?vid=f9924005-c8ac-4086-8e25-9a21391f65ea"},"vehicle_type_id":"4","last_reported":1752344045,"current_range_meters":18000,"station_id":"st_cvj6sg6p6f1abm77japg","pricing_plan_id":"cebpf4jnsgd1na2vs0mg"},{"bike_id":"2afd10ce-5f23-4122-9c7a-a3416be941b2","system_id":"levelo_inurba_marseille","lat":43.26071,"lon":5.37558,"is_reserved":false,"is_disabled":true,"rental_uris":{"android":"levelo://app?vid=2afd10ce-5f23-4122-9c7a-a3416be941b2","ios":"levelo://app?vid=2afd10ce-5f23-4122-9c7a-a3416be941b2"},"vehicle_type_id":"4","last_reported":1752344045,"current_range_meters":18000,"station_id":"","pricing_plan_id":"cebpf4jnsgd1na2vs0mg"},{"bike_id":"7048b274-bb73-4f78-bd84-2dffe4927289","system_id":"levelo_inurba_marseille","lat":43.29791,"lon":5.39345,"is_reserved":false,"is_disabled":true,"rental_uris":{"android":"levelo://app?vid=7048b274-bb73-4f78-bd84-2dffe4927289","ios":"levelo://app?vid=7048b274-bb73-4f78-bd84-2dffe4927289"},"vehicle_type_id":"4","last_reported":1752344045,"current_range_meters":18000,"station_id":"chh1huq6cuj3fo74tm60","pricing_plan_id":"cebpf4jnsgd1na2vs0mg"},{"bike_id":"1fe41f3b-e080-4952-9993-ec80cf707d1f","system_id":"levelo_inurba_marseille","lat":43.30131,"lon":5.38775,"is_reserved":false,"is_disabled":false,"rental_uris":{"android":"levelo://app?vid=1fe41f3b-e080-4952-9993-ec80cf707d1f","ios":"levelo://app?vid=1fe41f3b-e080-4952-9993-ec80cf707d1f"},"vehicle_type_id":"4","last_reported":1752344045,"current_range_meters":18000,"station_id":"ce4bghh2rcd13ifvqb60","pricing_plan_id":"cebpf4jnsgd1na2vs0mg"},{"bike_id":"9ab0c076-7bd3-4e73-9c3e-0696fbb7ffdb","system_id":"levelo_inurba_marseille","lat":43.27371,"lon":5.3626,"is_reserved":false,"is_disabled":false,"rental_uris":{"android":"levelo://app?vid=9ab0c076-7bd3-4e73-9c3e-0696fbb7ffdb","ios":"levelo://app?vid=9ab0c076-7bd3-4e73-9c3e-0696fbb7ffdb"},"vehicle_type_id":"4","last_reported":1752344045,"current_range_meters":18000,"station_id":"ce4bhbh2rcd13ifvqeo0","pricing_plan_id":"cebpf4jnsgd1na2vs0mg"},{"bike_id":"1cd36741-a274-45de-9559-9c922039c260","system_id":"levelo_inurba_marseille","lat":43.29273,"lon":5.38455,"is_reserved":false,"is_disabled":false,"rental_uris":{"android":"levelo://app?vid=1cd36741-a274-45de-9559-9c922039c260","ios":"levelo://app?vid=1cd36741-a274-45de-9559-9c922039c260"},"vehicle_type_id":"4","last_reported":1752344045,"current_range_meters":18800,"station_id":"ce4bh692rcd13ifvqea0","pricing_plan_id":"cebpf4jnsgd1na2vs0mg"},{"bike_id":"9b40dc73-509b-4d2f-8a27-44696719b175","system_id":"levelo_inurba_marseille","lat":43.27085,"lon":5.42251,"is_reserved":false,"is_disabled":false,"rental_uris":{"android":"levelo://app?vid=9b40dc73-509b-4d2f-8a27-44696719b175","ios":"levelo://app?vid=9b40dc73-509b-4d2f-8a27-44696719b175"},"vehicle_type_id":"4","last_reported":1752344045,"current_range_meters":18800,"station_id":"ce4bhk92rcd13ifvqgb0","pricing_plan_id":"cebpf4jnsgd1na2vs0mg"},{"bike_id":"6db2d44d-c7ca-41ac-b814-ccca58d47fae","system_id":"levelo_inurba_marseille","lat":43.26219,"lon":5.3745,"is_reserved":false,"is_disabled":false,"rental_uris":{"android":"levelo://app?vid=6db2d44d-c7ca-41ac-b814-ccca58d47fae","ios":"levelo://app?vid=6db2d44d-c7ca-41ac-b814-ccca58d47fae"},"vehicle_type_id":"4","last_reported":1752344045,"current_range_meters":18800,"station_id":"ce4bhgp2rcd13ifvqfc0","pricing_plan_id":"cebpf4jnsgd1na2vs0mg"},{"bike_id":"2789363d-6c32-4f54-a6f0-e032059a9c8e","system_id":"levelo_inurba_marseille","lat":43.24396,"lon":5.37068,"is_reserved":false,"is_disabled":false,"rental_uris":{"android":"levelo://app?vid=2789363d-6c32-4f54-a6f0-e032059a9c8e","ios":"levelo://app?vid=2789363d-6c32-4f54-a6f0-e032059a9c8e"},"vehicle_type_id":"4","last_reported":1752344045,"current_range_meters":18800,"station_id":"ce4bhhh2rcd13ifvqfk0","pricing_plan_id":"cebpf4jnsgd1na2vs0mg"},{"bike_id":"1ef612ef-84a5-4778-8b13-b99f4d9c03ea","system_id":"levelo_inurba_marseille","lat":43.2998,"lon":5.37175,"is_reserved":false,"is_disabled":false,"rental_uris":{"android":"levelo://app?vid=1ef612ef-84a5-4778-8b13-b99f4d9c03ea","ios":"levelo://app?vid=1ef612ef-84a5-4778-8b13-b99f4d9c03ea"},"vehicle_type_id":"4","last_reported":1752344045,"current_range_meters":18800,"station_id":"ce4bgr92rcd13ifvqc7g","pricing_plan_id":"cebpf4jnsgd1na2vs0mg"},{"bike_id":"a44e24a6-bfbf-4246-9c07-3034f9897a7b","system_id":"levelo_inurba_marseille","lat":43.27072,"lon":5.42279,"is_reserved":false,"is_disabled":false,"rental_uris":{"android":"levelo://app?vid=a44e24a6-bfbf-4246-9c07-3034f9897a7b","ios":"levelo://app?vid=a44e24a6-bfbf-4246-9c07-3034f9897a7b"},"vehicle_type_id":"4","last_reported":1752344045,"current_range_meters":18800,"station_id":"ce4bhk92rcd13ifvqgb0","pricing_plan_id":"cebpf4jnsgd1na2vs0mg"},{"bike_id":"0b697ac8-09ba-40f1-aa88-f86e79cf244d","system_id":"levelo_inurba_marseille","lat":43.260146,"lon":5.375348,"is_reserved":false,"is_disabled":false,"rental_uris":{"android":"levelo://app?vid=0b697ac8-09ba-40f1-aa88-f86e79cf244d","ios":"levelo://app?vid=0b697ac8-09ba-40f1-aa88-f86e79cf244d"},"vehicle_type_id":"4","last_reported":1752344045,"current_range_meters":18800,"station_id":"","pricing_plan_id":"cebpf4jnsgd1na2vs0mg"},{"bike_id":"4c0b9dec-fd72-4d53-85bf-d15506676fb5","system_id":"levelo_inurba_marseille","lat":43.301363,"lon":5.387754,"is_reserved":false,"is_disabled":false,"rental_uris":{"android":"levelo://app?vid=4c0b9dec-fd72-4d53-85bf-d15506676fb5","ios":"levelo://app?vid=4c0b9dec-fd72-4d53-85bf-d15506676fb5"},"vehicle_type_id":"4","last_reported":1752344045,"current_range_meters":18800,"station_id":"","pricing_plan_id":"cebpf4jnsgd1na2vs0mg"},{"bike_id":"dbf78402-9380-4208-a15a-2558ad00150a","system_id":"levelo_inurba_marseille","lat":43.26227,"lon":5.37424,"is_reserved":false,"is_disabled":false,"rental_uris":{"android":"levelo://app?vid=dbf78402-9380-4208-a15a-2558ad00150a","ios":"levelo://app?vid=dbf78402-9380-4208-a15a-2558ad00150a"},"vehicle_type_id":"4","last_reported":1752344045,"current_range_meters":18800,"station_id":"ce4bhgp2rcd13ifvqfc0","pricing_plan_id":"cebpf4jnsgd1na2vs0mg"},{"bike_id":"46286855-f48e-4801-b61c-b3df3c72e12a","system_id":"levelo_inurba_marseille","lat":43.30428,"lon":5.39742,"is_reserved":false,"is_disabled":false,"rental_uris":{"android":"levelo://app?vid=46286855-f48e-4801-b61c-b3df3c72e12a","ios":"levelo://app?vid=46286855-f48e-4801-b61c-b3df3c72e12a"},"vehicle_type_id":"4","last_reported":1752344045,"current_range_meters":19600,"station_id":"ce4bh092rcd13ifvqd20","pricing_plan_id":"cebpf4jnsgd1na2vs0mg"},{"bike_id":"21a57e85-e254-4500-a792-a97fa1cc4eaa","system_id":"levelo_inurba_marseille","lat":43.28473,"lon":5.35866,"is_reserved":false,"is_disabled":false,"rental_uris":{"android":"levelo://app?vid=21a57e85-e254-4500-a792-a97fa1cc4eaa","ios":"levelo://app?vid=21a57e85-e254-4500-a792-a97fa1cc4eaa"},"vehicle_type_id":"4","last_reported":1752344045,"current_range_meters":19200,"station_id":"ce4bhah2rcd13ifvqei0","pricing_plan_id":"cebpf4jnsgd1na2vs0mg"},{"bike_id":"83cc096d-7180-434b-94ac-1fc5aa56b4dc","system_id":"levelo_inurba_marseille","lat":43.28737,"lon":5.36081,"is_reserved":false,"is_disabled":false,"rental_uris":{"android":"levelo://app?vid=83cc096d-7180-434b-94ac-1fc5aa56b4dc","ios":"levelo://app?vid=83cc096d-7180-434b-94ac-1fc5aa56b4dc"},"vehicle_type_id":"4","last_reported":1752344045,"current_range_meters":19200,"station_id":"cki0cbj6b192h4jlfktg","pricing_plan_id":"cebpf4jnsgd1na2vs0mg"},{"bike_id":"de60112a-5cdf-4d86-9a61-1ddaed807604","system_id":"levelo_inurba_marseille","lat":43.30932,"lon":5.36832,"is_reserved":false,"is_disabled":false,"rental_uris":{"android":"levelo://app?vid=de60112a-5cdf-4d86-9a61-1ddaed807604","ios":"levelo://app?vid=de60112a-5cdf-4d86-9a61-1ddaed807604"},"vehicle_type_id":"4","last_reported":1752344045,"current_range_meters":19200,"station_id":"","pricing_plan_id":"cebpf4jnsgd1na2vs0mg"},{"bike_id":"a8cbf741-e0fb-4383-830d-58064c7f96b0","system_id":"levelo_inurba_marseille","lat":43.30938,"lon":5.40137,"is_reserved":false,"is_disabled":false,"rental_uris":{"android":"levelo://app?vid=a8cbf741-e0fb-4383-830d-58064c7f96b0","ios":"levelo://app?vid=a8cbf741-e0fb-4383-830d-58064c7f96b0"},"vehicle_type_id":"4","last_reported":1752344045,"current_range_meters":19200,"station_id":"ce4bgvp2rcd13ifvqct0","pricing_plan_id":"cebpf4jnsgd1na2vs0mg"},{"bike_id":"17e7387e-5d91-4ccb-b404-566d704cb3cd","system_id":"levelo_inurba_marseille","lat":43.29922,"lon":5.37463,"is_reserved":false,"is_disabled":false,"rental_uris":{"android":"levelo://app?vid=17e7387e-5d91-4ccb-b404-566d704cb3cd","ios":"levelo://app?vid=17e7387e-5d91-4ccb-b404-566d704cb3cd"},"vehicle_type_id":"4","last_reported":1752344045,"current_range_meters":19200,"station_id":"ce4bgjh2rcd13ifvqbg0","pricing_plan_id":"cebpf4jnsgd1na2vs0mg"},{"bike_id":"7d9e3f53-cf37-4d56-9ff5-57d7cc79d46c","system_id":"levelo_inurba_marseille","lat":43.29534,"lon":5.3853,"is_reserved":false,"is_disabled":false,"rental_uris":{"android":"levelo://app?vid=7d9e3f53-cf37-4d56-9ff5-57d7cc79d46c","ios":"levelo://app?vid=7d9e3f53-cf37-4d56-9ff5-57d7cc79d46c"},"vehicle_type_id":"4","last_reported":1752344045,"current_range_meters":19200,"station_id":"ce4bgih2rcd13ifvqba0","pricing_plan_id":"cebpf4jnsgd1na2vs0mg"},{"bike_id":"51ecb449-9edf-46be-b831-6d02721e6fa2","system_id":"levelo_inurba_marseille","lat":43.30953,"lon":5.39043,"is_reserved":false,"is_disabled":false,"rental_uris":{"android":"levelo://app?vid=51ecb449-9edf-46be-b831-6d02721e6fa2","ios":"levelo://app?vid=51ecb449-9edf-46be-b831-6d02721e6fa2"},"vehicle_type_id":"4","last_reported":1752344045,"current_range_meters":19200,"station_id":"ce4bgup2rcd13ifvqco0","pricing_plan_id":"cebpf4jnsgd1na2vs0mg"},{"bike_id":"bd24e9d4-160b-4d58-af40-9a3a85abff83","system_id":"levelo_inurba_marseille","lat":43.286657,"lon":5.3867,"is_reserved":false,"is_disabled":false,"rental_uris":{"android":"levelo://app?vid=bd24e9d4-160b-4d58-af40-9a3a85abff83","ios":"levelo://app?vid=bd24e9d4-160b-4d58-af40-9a3a85abff83"},"vehicle_type_id":"4","last_reported":1752344045,"current_range_meters":19200,"station_id":"ce4bh492rcd13ifvqdug","pricing_plan_id":"cebpf4jnsgd1na2vs0mg"},{"bike_id":"96f83f9f-600c-41f3-88ba-8bc0f4fcc554","system_id":"levelo_inurba_marseille","lat":43.291962,"lon":5.383332,"is_reserved":false,"is_disabled":false,"rental_uris":{"android":"levelo://app?vid=96f83f9f-600c-41f3-88ba-8bc0f4fcc554","ios":"levelo://app?vid=96f83f9f-600c-41f3-88ba-8bc0f4fcc554"},"vehicle_type_id":"4","last_reported":1752344045,"current_range_meters":19200,"station_id":"","pricing_plan_id":"cebpf4jnsgd1na2vs0mg"},{"bike_id":"302ba0d7-fd7d-449b-9f3c-90508f92f17f","system_id":"levelo_inurba_marseille","lat":43.30325,"lon":5.40431,"is_reserved":false,"is_disabled":false,"rental_uris":{"android":"levelo://app?vid=302ba0d7-fd7d-449b-9f3c-90508f92f17f","ios":"levelo://app?vid=302ba0d7-fd7d-449b-9f3c-90508f92f17f"},"vehicle_type_id":"4","last_reported":1752344045,"current_range_meters":19200,"station_id":"ce4bh012rcd13ifvqd10","pricing_plan_id":"cebpf4jnsgd1na2vs0mg"},{"bike_id":"6182d049-a5d8-422a-b0b9-1e868d3cc374","system_id":"levelo_inurba_marseille","lat":43.30948,"lon":5.39037,"is_reserved":false,"is_disabled":false,"rental_uris":{"android":"levelo://app?vid=6182d049-a5d8-422a-b0b9-1e868d3cc374","ios":"levelo://app?vid=6182d049-a5d8-422a-b0b9-1e868d3cc374"},"vehicle_type_id":"4","last_reported":1752344045,"current_range_meters":19600,"station_id":"ce4bgup2rcd13ifvqco0","pricing_plan_id":"cebpf4jnsgd1na2vs0mg"},{"bike_id":"e19ce2b2-8d40-4de4-9143-c389e0cb6e19","system_id":"levelo_inurba_marseille","lat":43.26193,"lon":5.37456,"is_reserved":false,"is_disabled":false,"rental_uris":{"android":"levelo://app?vid=e19ce2b2-8d40-4de4-9143-c389e0cb6e19","ios":"levelo://app?vid=e19ce2b2-8d40-4de4-9143-c389e0cb6e19"},"vehicle_type_id":"4","last_reported":1752344045,"current_range_meters":19600,"station_id":"ce4bhgp2rcd13ifvqfc0","pricing_plan_id":"cebpf4jnsgd1na2vs0mg"},{"bike_id":"899f3cd4-00cc-438c-bf29-379d610fdcc2","system_id":"levelo_inurba_marseille","lat":43.26027,"lon":5.37551,"is_reserved":false,"is_disabled":false,"rental_uris":{"android":"levelo://app?vid=899f3cd4-00cc-438c-bf29-379d610fdcc2","ios":"levelo://app?vid=899f3cd4-00cc-438c-bf29-379d610fdcc2"},"vehicle_type_id":"4","last_reported":1752344045,"current_range_meters":19600,"station_id":"ce4bhgh2rcd13ifvqfa0","pricing_plan_id":"cebpf4jnsgd1na2vs0mg"},{"bike_id":"84c320d4-6247-4d55-844f-da86c73b1a19","system_id":"levelo_inurba_marseille","lat":43.30104,"lon":5.39075,"is_reserved":false,"is_disabled":false,"rental_uris":{"android":"levelo://app?vid=84c320d4-6247-4d55-844f-da86c73b1a19","ios":"levelo://app?vid=84c320d4-6247-4d55-844f-da86c73b1a19"},"vehicle_type_id":"4","last_reported":1752344045,"current_range_meters":19600,"station_id":"ce4bh192rcd13ifvqdb0","pricing_plan_id":"cebpf4jnsgd1na2vs0mg"},{"bike_id":"3ddb6d3f-6e11-4a20-95ed-3b1d52ce7226","system_id":"levelo_inurba_marseille","lat":43.28417,"lon":5.35002,"is_reserved":false,"is_disabled":false,"rental_uris":{"android":"levelo://app?vid=3ddb6d3f-6e11-4a20-95ed-3b1d52ce7226","ios":"levelo://app?vid=3ddb6d3f-6e11-4a20-95ed-3b1d52ce7226"},"vehicle_type_id":"4","last_reported":1752344045,"current_range_meters":19600,"station_id":"ce4bhbh2rcd13ifvqepg","pricing_plan_id":"cebpf4jnsgd1na2vs0mg"},{"bike_id":"56f09403-a466-410a-916d-29f260962e7d","system_id":"levelo_inurba_marseille","lat":43.29538,"lon":5.38547,"is_reserved":false,"is_disabled":false,"rental_uris":{"android":"levelo://app?vid=56f09403-a466-410a-916d-29f260962e7d","ios":"levelo://app?vid=56f09403-a466-410a-916d-29f260962e7d"},"vehicle_type_id":"4","last_reported":1752344045,"current_range_meters":19600,"station_id":"ce4bgih2rcd13ifvqba0","pricing_plan_id":"cebpf4jnsgd1na2vs0mg"},{"bike_id":"fc1a915c-c35a-4017-83fb-64435cc1f601","system_id":"levelo_inurba_marseille","lat":43.280791,"lon":5.396673,"is_reserved":false,"is_disabled":false,"rental_uris":{"android":"levelo://app?vid=fc1a915c-c35a-4017-83fb-64435cc1f601","ios":"levelo://app?vid=fc1a915c-c35a-4017-83fb-64435cc1f601"},"vehicle_type_id":"4","last_reported":1752344045,"current_range_meters":19600,"station_id":"ce4bho12rcd13ifvqh2g","pricing_plan_id":"cebpf4jnsgd1na2vs0mg"},{"bike_id":"d89e827e-b2f2-4ba5-a976-a487e64c32a5","system_id":"levelo_inurba_marseille","lat":43.24185,"lon":5.39724,"is_reserved":false,"is_disabled":false,"rental_uris":{"android":"levelo://app?vid=d89e827e-b2f2-4ba5-a976-a487e64c32a5","ios":"levelo://app?vid=d89e827e-b2f2-4ba5-a976-a487e64c32a5"},"vehicle_type_id":"4","last_reported":1752344045,"current_range_meters":19600,"station_id":"ce4bhn12rcd13ifvqgpg","pricing_plan_id":"cebpf4jnsgd1na2vs0mg"},{"bike_id":"10ca0278-9c6d-4031-856e-0825fa8c115c","system_id":"levelo_inurba_marseille","lat":43.31697,"lon":5.40477,"is_reserved":false,"is_disabled":false,"rental_uris":{"android":"levelo://app?vid=10ca0278-9c6d-4031-856e-0825fa8c115c","ios":"levelo://app?vid=10ca0278-9c6d-4031-856e-0825fa8c115c"},"vehicle_type_id":"4","last_reported":1752344045,"current_range_meters":20000,"station_id":"ce4bh012rcd13ifvqd00","pricing_plan_id":"cebpf4jnsgd1na2vs0mg"},{"bike_id":"e1b53900-c592-46fc-9e72-c51f38e41c34","system_id":"levelo_inurba_marseille","lat":43.27374,"lon":5.36249,"is_reserved":false,"is_disabled":false,"rental_uris":{"android":"levelo://app?vid=e1b53900-c592-46fc-9e72-c51f38e41c34","ios":"levelo://app?vid=e1b53900-c592-46fc-9e72-c51f38e41c34"},