{"last_updated":1683558401,"ttl":30,"version":"2.2","data":{"bikes":[{"bike_id":"a460d740-797a-4836-a104-67765b22c20c","system_id":"levelo_inurba_marseille","lat":43.313391,"lon":5.36706,"is_reserved":false,"is_disabled":false,"rental_uris":{"android":"levelo://app?vid=a460d740-797a-4836-a104-67765b22c20c","ios":"levelo://app?vid=a460d740-797a-4836-a104-67765b22c20c"},"vehicle_type_id":"4","last_reported":1683558402,"current_range_meters":15200,"station_id":"ce4bgr92rcd13ifvqc6g","pricing_plan_id":"free"},{"bike_id":"ada43c62-67e9-49cd-9654-66c046313c11","system_id":"levelo_inurba_marseille","lat":43.314973,"lon":5.373051,"is_reserved":false,"is_disabled":false,"rental_uris":{"android":"levelo://app?vid=ada43c62-67e9-49cd-9654-66c046313c11","ios":"levelo://app?vid=ada43c62-67e9-49cd-9654-66c046313c11"},"vehicle_type_id":"4","last_reported":1683558402,"current_range_meters":28800,"station_id":"","pricing_plan_id":"free"},{"bike_id":"d4f66ef4-7bad-441e-b4e4-8dcbfaf028e2","system_id":"levelo_inurba_marseille","lat":43.314811,"lon":5.373104,"is_reserved":false,"is_disabled":false,"rental_uris":{"android":"levelo://app?vid=d4f66ef4-7bad-441e-b4e4-8dcbfaf028e2","ios":"levelo://app?vid=d4f66ef4-7bad-441e-b4e4-8dcbfaf028e2"},"vehicle_type_id":"4","last_reported":1683558402,"current_range_meters":14000,"station_id":"ce4bgt12rcd13ifvqcd0","pricing_plan_id":"free"},{"bike_id":"de71d5f5-33a7-4599-bfa7-aca57aa8be84","system_id":"levelo_inurba_marseille","lat":43.305706,"lon":5.365654,"is_reserved":false,"is_disabled":false,"rental_uris":{"android":"levelo://app?vid=de71d5f5-33a7-4599-bfa7-aca57aa8be84","ios":"levelo://app?vid=de71d5f5-33a7-4599-bfa7-aca57aa8be84"},"vehicle_type_id":"4","last_reported":1683558402,"current_range_meters":23600,"station_id":"ce4bgs12rcd13ifvqcag","pricing_plan_id":"free"},{"bike_id":"066e8180-91e3-4890-bf66-f45b92d04da7","system_id":"levelo_inurba_marseille","lat":43.305368,"lon":5.367343,"is_reserved":false,"is_disabled":false,"rental_uris":{"android":"levelo://app?vid=066e8180-91e3-4890-bf66-f45b92d04da7","ios":"levelo://app?vid=066e8180-91e3-4890-bf66-f45b92d04da7"},"vehicle_type_id":"4","last_reported":1683558402,"current_range_meters":3600,"station_id":"ce4bgrp2rcd13ifvqc9g","pricing_plan_id":"free"},{"bike_id":"e4c2b845-912a-4e98-af3b-b34d96a0f514","system_id":"levelo_inurba_marseille","lat":43.305706,"lon":5.365654,"is_reserved":false,"is_disabled":false,"rental_uris":{"android":"levelo://app?vid=e4c2b845-912a-4e98-af3b-b34d96a0f514","ios":"levelo://app?vid=e4c2b845-912a-4e98-af3b-b34d96a0f514"},"vehicle_type_id":"4","last_reported":1683558402,"current_range_meters":14800,"station_id":"ce4bgs12rcd13ifvqcag","pricing_plan_id":"free"},{"bike_id":"f928dd2b-d1ed-46a6-900e-e74546d09117","system_id":"levelo_inurba_marseille","lat":43.305368,"lon":5.367343,"is_reserved":false,"is_disabled":false,"rental_uris":{"android":"levelo://app?vid=f928dd2b-d1ed-46a6-900e-e74546d09117","ios":"levelo://app?vid=f928dd2b-d1ed-46a6-900e-e74546d09117"},"vehicle_type_id":"4","last_reported":1683558402,"current_range_meters":20800,"station_id":"ce4bgrp2rcd13ifvqc9g","pricing_plan_id":"free"},{"bike_id":"95849431-ef2a-46b1-88a0-407b729029fe","system_id":"levelo_inurba_marseille","lat":43.305706,"lon":5.365654,"is_reserved":false,"is_disabled":false,"rental_uris":{"android":"levelo://app?vid=95849431-ef2a-46b1-88a0-407b729029fe","ios":"levelo://app?vid=95849431-ef2a-46b1-88a0-407b729029fe"},"vehicle_type_id":"4","last_reported":1683558402,"current_range_meters":23200,"station_id":"ce4bgs12rcd13ifvqcag","pricing_plan_id":"free"},{"bike_id":"33be3fed-2e65-4cb8-8fbd-a35a8de4f167","system_id":"levelo_inurba_marseille","lat":43.305989,"lon":5.37225,"is_reserved":false,"is_disabled":false,"rental_uris":{"android":"levelo://app?vid=33be3fed-2e65-4cb8-8fbd-a35a8de4f167","ios":"levelo://app?vid=33be3fed-2e65-4cb8-8fbd-a35a8de4f167"},"vehicle_type_id":"4","last_reported":1683558402,"current_range_meters":19200,"station_id":"ce4bgqh2rcd13ifvqc4g","pricing_plan_id":"free"},{"bike_id":"cde143c4-5e86-4b9d-a3a4-9ae65cd92f8e","system_id":"levelo_inurba_marseille","lat":43.303046,"lon":5.368981,"is_reserved":false,"is_disabled":false,"rental_uris":{"android":"levelo://app?vid=cde143c4-5e86-4b9d-a3a4-9ae65cd92f8e","ios":"levelo://app?vid=cde143c4-5e86-4b9d-a3a4-9ae65cd92f8e"},"vehicle_type_id":"4","last_reported":1683558402,"current_range_meters":19200,"station_id":"ce4bgqh2rcd13ifvqc5g","pricing_plan_id":"free"},{"bike_id":"243d58c6-677a-4ef5-ac10-1ca5621449fc","system_id":"levelo_inurba_marseille","lat":43.30311,"lon":5.36446,"is_reserved":false,"is_disabled":false,"rental_uris":{"android":"levelo://app?vid=243d58c6-677a-4ef5-ac10-1ca5621449fc","ios":"levelo://app?vid=243d58c6-677a-4ef5-ac10-1ca5621449fc"},"vehicle_type_id":"4","last_reported":1683558402,"current_range_meters":8800,"station_id":"","pricing_plan_id":"free"},{"bike_id":"483a8aea-6588-49c9-9285-42daf6ea690a","system_id":"levelo_inurba_marseille","lat":43.303044,"lon":5.369,"is_reserved":false,"is_disabled":false,"rental_uris":{"android":"levelo://app?vid=483a8aea-6588-49c9-9285-42daf6ea690a","ios":"levelo://app?vid=483a8aea-6588-49c9-9285-42daf6ea690a"},"vehicle_type_id":"4","last_reported":1683558402,"current_range_meters":29600,"station_id":"ce4bgqh2rcd13ifvqc5g","pricing_plan_id":"free"},{"bike_id":"dd6eadb2-d35d-4583-887b-139b02ce67d8","system_id":"levelo_inurba_marseille","lat":43.301939,"lon":5.366286,"is_reserved":false,"is_disabled":false,"rental_uris":{"android":"levelo://app?vid=dd6eadb2-d35d-4583-887b-139b02ce67d8","ios":"levelo://app?vid=dd6eadb2-d35d-4583-887b-139b02ce67d8"},"vehicle_type_id":"4","last_reported":1683558402,"current_range_meters":26800,"station_id":"ce4bgrh2rcd13ifvqc8g","pricing_plan_id":"free"},{"bike_id":"d6a35a06-123e-406a-a8b7-02c552e9a324","system_id":"levelo_inurba_marseille","lat":43.304606,"lon":5.379026,"is_reserved":false,"is_disabled":false,"rental_uris":{"android":"levelo://app?vid=d6a35a06-123e-406a-a8b7-02c552e9a324","ios":"levelo://app?vid=d6a35a06-123e-406a-a8b7-02c552e9a324"},"vehicle_type_id":"4","last_reported":1683558402,"current_range_meters":30800,"station_id":"ce4bgup2rcd13ifvqcn0","pricing_plan_id":"free"},{"bike_id":"de3d06c0-7cc5-4232-be8b-1152891be218","system_id":"levelo_inurba_marseille","lat":43.304606,"lon":5.379026,"is_reserved":false,"is_disabled":false,"rental_uris":{"android":"levelo://app?vid=de3d06c0-7cc5-4232-be8b-1152891be218","ios":"levelo://app?vid=de3d06c0-7cc5-4232-be8b-1152891be218"},"vehicle_type_id":"4","last_reported":1683558402,"current_range_meters":23600,"station_id":"ce4bgup2rcd13ifvqcn0","pricing_plan_id":"free"},{"bike_id":"0b000f3f-024e-4357-9dc5-a5ece1d596e5","system_id":"levelo_inurba_marseille","lat":43.313571,"lon":5.384829,"is_reserved":false,"is_disabled":false,"rental_uris":{"android":"levelo://app?vid=0b000f3f-024e-4357-9dc5-a5ece1d596e5","ios":"levelo://app?vid=0b000f3f-024e-4357-9dc5-a5ece1d596e5"},"vehicle_type_id":"4","last_reported":1683558402,"current_range_meters":8000,"station_id":"ce4bgt92rcd13ifvqcf0","pricing_plan_id":"free"},{"bike_id":"b92a9aa6-b5a5-41db-97b1-8938ccd7ac45","system_id":"levelo_inurba_marseille","lat":43.313571,"lon":5.384829,"is_reserved":false,"is_disabled":false,"rental_uris":{"android":"levelo://app?vid=b92a9aa6-b5a5-41db-97b1-8938ccd7ac45","ios":"levelo://app?vid=b92a9aa6-b5a5-41db-97b1-8938ccd7ac45"},"vehicle_type_id":"4","last_reported":1683558402,"current_range_meters":18000,"station_id":"ce4bgt92rcd13ifvqcf0","pricing_plan_id":"free"},{"bike_id":"11355a26-ce04-4637-b186-e63c722271b4","system_id":"levelo_inurba_marseille","lat":43.31349,"lon":5.38522,"is_reserved":false,"is_disabled":false,"rental_uris":{"android":"levelo://app?vid=11355a26-ce04-4637-b186-e63c722271b4","ios":"levelo://app?vid=11355a26-ce04-4637-b186-e63c722271b4"},"vehicle_type_id":"4","last_reported":1683558402,"current_range_meters":26800,"station_id":"ce4bgt92rcd13ifvqcf0","pricing_plan_id":"free"},{"bike_id":"e67e733c-6b53-4c7c-8dea-0693ac61a34c","system_id":"levelo_inurba_marseille","lat":43.32639,"lon":5.3612,"is_reserved":false,"is_disabled":false,"rental_uris":{"android":"levelo://app?vid=e67e733c-6b53-4c7c-8dea-0693ac61a34c","ios":"levelo://app?vid=e67e733c-6b53-4c7c-8dea-0693ac61a34c"},"vehicle_type_id":"4","last_reported":1683558402,"current_range_meters":9200,"station_id":"","pricing_plan_id":"free"},{"bike_id":"692d6979-e241-4b9d-9d66-8c7c7ea1bf5a","system_id":"levelo_inurba_marseille","lat":43.298433,"lon":5.362774,"is_reserved":false,"is_disabled":false,"rental_uris":{"android":"levelo://app?vid=692d6979-e241-4b9d-9d66-8c7c7ea1bf5a","ios":"levelo://app?vid=692d6979-e241-4b9d-9d66-8c7c7ea1bf5a"},"vehicle_type_id":"4","last_reported":1683558402,"current_range_meters":12800,"station_id":"ce4bgpp2rcd13ifvqc3g","pricing_plan_id":"free"},{"bike_id":"5f08124e-8d66-48f9-8767-ef326f711325","system_id":"levelo_inurba_marseille","lat":43.298433,"lon":5.362774,"is_reserved":false,"is_disabled":false,"rental_uris":{"android":"levelo://app?vid=5f08124e-8d66-48f9-8767-ef326f711325","ios":"levelo://app?vid=5f08124e-8d66-48f9-8767-ef326f711325"},"vehicle_type_id":"4","last_reported":1683558402,"current_range_meters":12800,"station_id":"ce4bgpp2rcd13ifvqc3g","pricing_plan_id":"free"},{"bike_id":"820bc183-37bf-4c9e-9db0-4512e4d81411","system_id":"levelo_inurba_marseille","lat":43.29573,"lon":5.367355,"is_reserved":false,"is_disabled":false,"rental_uris":{"android":"levelo://app?vid=820bc183-37bf-4c9e-9db0-4512e4d81411","ios":"levelo://app?vid=820bc183-37bf-4c9e-9db0-4512e4d81411"},"vehicle_type_id":"4","last_reported":1683558402,"current_range_meters":6400,"station_id":"ce4bgph2rcd13ifvqc2g","pricing_plan_id":"free"},{"bike_id":"356b92d6-23b7-489b-82df-604f08b91dfc","system_id":"levelo_inurba_marseille","lat":43.299028,"lon":5.381509,"is_reserved":false,"is_disabled":false,"rental_uris":{"android":"levelo://app?vid=356b92d6-23b7-489b-82df-604f08b91dfc","ios":"levelo://app?vid=356b92d6-23b7-489b-82df-604f08b91dfc"},"vehicle_type_id":"4","last_reported":1683558402,"current_range_meters":21200,"station_id":"ce4bgj12rcd13ifvqbc0","pricing_plan_id":"free"},{"bike_id":"64949753-5105-4760-8ca3-9dce7a804782","system_id":"levelo_inurba_marseille","lat":43.309589,"lon":5.390258,"is_reserved":false,"is_disabled":false,"rental_uris":{"android":"levelo://app?vid=64949753-5105-4760-8ca3-9dce7a804782","ios":"levelo://app?vid=64949753-5105-4760-8ca3-9dce7a804782"},"vehicle_type_id":"4","last_reported":1683558402,"current_range_meters":16000,"station_id":"ce4bgup2rcd13ifvqco0","pricing_plan_id":"free"},{"bike_id":"40bcea4e-adf4-4001-b0a1-f6360e1f6d72","system_id":"levelo_inurba_marseille","lat":43.31758,"lon":5.3901,"is_reserved":false,"is_disabled":false,"rental_uris":{"android":"levelo://app?vid=40bcea4e-adf4-4001-b0a1-f6360e1f6d72","ios":"levelo://app?vid=40bcea4e-adf4-4001-b0a1-f6360e1f6d72"},"vehicle_type_id":"4","last_reported":1683558402,"current_range_meters":800,"station_id":"ce4bhqp2rcd13ifvqhng","pricing_plan_id":"free"},{"bike_id":"4f6418cd-2719-486c-8971-8645a7fa1118","system_id":"levelo_inurba_marseille","lat":43.317557,"lon":5.390173,"is_reserved":false,"is_disabled":false,"rental_uris":{"android":"levelo://app?vid=4f6418cd-2719-486c-8971-8645a7fa1118","ios":"levelo://app?vid=4f6418cd-2719-486c-8971-8645a7fa1118"},"vehicle_type_id":"4","last_reported":1683558402,"current_range_meters":12000,"station_id":"ce4bhqp2rcd13ifvqhng","pricing_plan_id":"free"},{"bike_id":"93f64dcd-3f82-4aa3-bfaa-9ddcebbc9c22","system_id":"levelo_inurba_marseille","lat":43.29801,"lon":5.3809,"is_reserved":false,"is_disabled":false,"rental_uris":{"android":"levelo://app?vid=93f64dcd-3f82-4aa3-bfaa-9ddcebbc9c22","ios":"levelo://app?vid=93f64dcd-3f82-4aa3-bfaa-9ddcebbc9c22"},"vehicle_type_id":"4","last_reported":1683558402,"current_range_meters":1200,"station_id":"ce4bgip2rcd13ifvqbb0","pricing_plan_id":"free"},{"bike_id":"537a10dd-eff2-4757-bea6-e62b8e51c5f2","system_id":"levelo_inurba_marseille","lat":43.296277,"lon":5.377108,"is_reserved":false,"is_disabled":false,"rental_uris":{"android":"levelo://app?vid=537a10dd-eff2-4757-bea6-e62b8e51c5f2","ios":"levelo://app?vid=537a10dd-eff2-4757-bea6-e62b8e51c5f2"},"vehicle_type_id":"4","last_reported":1683558402,"current_range_meters":7200,"station_id":"ce4bgi92rcd13ifvqb90","pricing_plan_id":"free"},{"bike_id":"b5161c46-dc20-43c3-9fac-e7859b5b4d4f","system_id":"levelo_inurba_marseille","lat":43.29542,"lon":5.37496,"is_reserved":false,"is_disabled":false,"rental_uris":{"android":"levelo://app?vid=b5161c46-dc20-43c3-9fac-e7859b5b4d4f","ios":"levelo://app?vid=b5161c46-dc20-43c3-9fac-e7859b5b4d4f"},"vehicle_type_id":"4","last_reported":1683558402,"current_range_meters":14400,"station_id":"ce4bgkp2rcd13ifvqbmg","pricing_plan_id":"free"},{"bike_id":"5057f7da-85f4-4aff-8518-4965bc97c48d","system_id":"levelo_inurba_marseille","lat":43.297794,"lon":5.370888,"is_reserved":false,"is_disabled":false,"rental_uris":{"android":"levelo://app?vid=5057f7da-85f4-4aff-8518-4965bc97c48d","ios":"levelo://app?vid=5057f7da-85f4-4aff-8518-4965bc97c48d"},"vehicle_type_id":"4","last_reported":1683558402,"current_range_meters":0,"station_id":"ce4bgop2rcd13ifvqc1g","pricing_plan_id":"free"},{"bike_id":"31fecdc1-a057-4d10-93d8-858d40049e29","system_id":"levelo_inurba_marseille","lat":43.30738,"lon":5.39241,"is_reserved":false,"is_disabled":false,"rental_uris":{"android":"levelo://app?vid=31fecdc1-a057-4d10-93d8-858d40049e29","ios":"levelo://app?vid=31fecdc1-a057-4d10-93d8-858d40049e29"},"vehicle_type_id":"4","last_reported":1683558402,"current_range_meters":14800,"station_id":"","pricing_plan_id":"free"},{"bike_id":"308db4fd-76b6-4543-94f0-0938a5bbc512","system_id":"levelo_inurba_marseille","lat":43.29372,"lon":5.37836,"is_reserved":false,"is_disabled":false,"rental_uris":{"android":"levelo://app?vid=308db4fd-76b6-4543-94f0-0938a5bbc512","ios":"levelo://app?vid=308db4fd-76b6-4543-94f0-0938a5bbc512"},"vehicle_type_id":"4","last_reported":1683558402,"current_range_meters":9600,"station_id":"ce4bgjh2rcd13ifvqbf0","pricing_plan_id":"free"},{"bike_id":"c558b413-0397-4d89-89b9-b5f428487fdf","system_id":"levelo_inurba_marseille","lat":43.2936,"lon":5.37835,"is_reserved":false,"is_disabled":false,"rental_uris":{"android":"levelo://app?vid=c558b413-0397-4d89-89b9-b5f428487fdf","ios":"levelo://app?vid=c558b413-0397-4d89-89b9-b5f428487fdf"},"vehicle_type_id":"4","last_reported":1683558402,"current_range_meters":22400,"station_id":"ce4bgjh2rcd13ifvqbf0","pricing_plan_id":"free"},{"bike_id":"574be080-fd9e-44f8-832a-0ad5f721cbb1","system_id":"levelo_inurba_marseille","lat":43.29228,"lon":5.361,"is_reserved":false,"is_disabled":false,"rental_uris":{"android":"levelo://app?vid=574be080-fd9e-44f8-832a-0ad5f721cbb1","ios":"levelo://app?vid=574be080-fd9e-44f8-832a-0ad5f721cbb1"},"vehicle_type_id":"4","last_reported":1683558402,"current_range_meters":10000,"station_id":"","pricing_plan_id":"free"},{"bike_id":"7e06dd60-29da-4ec8-bf8f-8769cb044166","system_id":"levelo_inurba_marseille","lat":43.29882,"lon":5.38901,"is_reserved":false,"is_disabled":false,"rental_uris":{"android":"levelo://app?vid=7e06dd60-29da-4ec8-bf8f-8769cb044166","ios":"levelo://app?vid=7e06dd60-29da-4ec8-bf8f-8769cb044166"},"vehicle_type_id":"4","last_reported":1683558402,"current_range_meters":8800,"station_id":"ce4bh392rcd13ifvqdl0","pricing_plan_id":"free"},{"bike_id":"1b2b1c5d-eb02-49cd-9bc2-d31f649b35c7","system_id":"levelo_inurba_marseille","lat":43.313291,"lon":5.396838,"is_reserved":false,"is_disabled":false,"rental_uris":{"android":"levelo://app?vid=1b2b1c5d-eb02-49cd-9bc2-d31f649b35c7","ios":"levelo://app?vid=1b2b1c5d-eb02-49cd-9bc2-d31f649b35c7"},"vehicle_type_id":"4","last_reported":1683558402,"current_range_meters":19200,"station_id":"ce4bgvp2rcd13ifvqcu0","pricing_plan_id":"free"},{"bike_id":"db0c5132-1d02-4ca5-aca9-b30e13f52ecf","system_id":"levelo_inurba_marseille","lat":43.309038,"lon":5.396546,"is_reserved":false,"is_disabled":false,"rental_uris":{"android":"levelo://app?vid=db0c5132-1d02-4ca5-aca9-b30e13f52ecf","ios":"levelo://app?vid=db0c5132-1d02-4ca5-aca9-b30e13f52ecf"},"vehicle_type_id":"4","last_reported":1683558402,"current_range_meters":4000,"station_id":"ce4bh012rcd13ifvqcv0","pricing_plan_id":"free"},{"bike_id":"b9ca78bb-0060-4c65-9ee1-6cd90dc26ac7","system_id":"levelo_inurba_marseille","lat":43.31327,"lon":5.39698,"is_reserved":false,"is_disabled":false,"rental_uris":{"android":"levelo://app?vid=b9ca78bb-0060-4c65-9ee1-6cd90dc26ac7","ios":"levelo://app?vid=b9ca78bb-0060-4c65-9ee1-6cd90dc26ac7"},"vehicle_type_id":"4","last_reported":1683558402,"current_range_meters":0,"station_id":"ce4bgvp2rcd13ifvqcu0","pricing_plan_id":"free"},{"bike_id":"8591527d-6601-4b9d-b138-9e8b06d23eec","system_id":"levelo_inurba_marseille","lat":43.289184,"lon":5.366408,"is_reserved":false,"is_disabled":false,"rental_uris":{"android":"levelo://app?vid=8591527d-6601-4b9d-b138-9e8b06d23eec","ios":"levelo://app?vid=8591527d-6601-4b9d-b138-9e8b06d23eec"},"vehicle_type_id":"4","last_reported":1683558402,"current_range_meters":10400,"station_id":"ce4bhap2rcd13ifvqek0","pricing_plan_id":"free"},{"bike_id":"ee00fa29-0879-420c-aba7-5c397cde95c5","system_id":"levelo_inurba_marseille","lat":43.294162,"lon":5.386292,"is_reserved":false,"is_disabled":false,"rental_uris":{"android":"levelo://app?vid=ee00fa29-0879-420c-aba7-5c397cde95c5","ios":"levelo://app?vid=ee00fa29-0879-420c-aba7-5c397cde95c5"},"vehicle_type_id":"4","last_reported":1683558402,"current_range_meters":10000,"station_id":"ce4bh2h2rcd13ifvqdh0","pricing_plan_id":"free"},{"bike_id":"5f0d7198-f8c9-4a55-b586-6b7efe7e0f9c","system_id":"levelo_inurba_marseille","lat":43.3042,"lon":5.39721,"is_reserved":false,"is_disabled":false,"rental_uris":{"android":"levelo://app?vid=5f0d7198-f8c9-4a55-b586-6b7efe7e0f9c","ios":"levelo://app?vid=5f0d7198-f8c9-4a55-b586-6b7efe7e0f9c"},"vehicle_type_id":"4","last_reported":1683558402,"current_range_meters":0,"station_id":"","pricing_plan_id":"free"},{"bike_id":"c80426be-83d3-4e57-a092-befe7b8a7a79","system_id":"levelo_inurba_marseille","lat":43.33041,"lon":5.3892,"is_reserved":false,"is_disabled":false,"rental_uris":{"android":"levelo://app?vid=c80426be-83d3-4e57-a092-befe7b8a7a79","ios":"levelo://app?vid=c80426be-83d3-4e57-a092-befe7b8a7a79"},"vehicle_type_id":"4","last_reported":1683558402,"current_range_meters":26000,"station_id":"ce4bhr92rcd13ifvqhrg","pricing_plan_id":"free"},{"bike_id":"a0ee4d01-561e-4344-a057-194a5b737740","system_id":"levelo_inurba_marseille","lat":43.330443,"lon":5.389162,"is_reserved":false,"is_disabled":false,"rental_uris":{"android":"levelo://app?vid=a0ee4d01-561e-4344-a057-194a5b737740","ios":"levelo://app?vid=a0ee4d01-561e-4344-a057-194a5b737740"},"vehicle_type_id":"4","last_reported":1683558402,"current_range_meters":30000,"station_id":"ce4bhr92rcd13ifvqhrg","pricing_plan_id":"free"},{"bike_id":"72f7fdc7-4763-479b-a34e-f238ca3cd360","system_id":"levelo_inurba_marseille","lat":43.33043,"lon":5.38919,"is_reserved":false,"is_disabled":false,"rental_uris":{"android":"levelo://app?vid=72f7fdc7-4763-479b-a34e-f238ca3cd360","ios":"levelo://app?vid=72f7fdc7-4763-479b-a34e-f238ca3cd360"},"vehicle_type_id":"4","last_reported":1683558402,"current_range_meters":26000,"station_id":"ce4bhr92rcd13ifvqhrg","pricing_plan_id":"free"},{"bike_id":"5d42a6c7-cc7f-41bd-9f57-8eb46448bdf8","system_id":"levelo_inurba_marseille","lat":43.290104,"lon":5.356111,"is_reserved":false,"is_disabled":false,"rental_uris":{"android":"levelo://app?vid=5d42a6c7-cc7f-41bd-9f57-8eb46448bdf8","ios":"levelo://app?vid=5d42a6c7-cc7f-41bd-9f57-8eb46448bdf8"},"vehicle_type_id":"4","last_reported":1683558402,"current_range_meters":0,"station_id":"ce4bhb92rcd13ifvqen0","pricing_plan_id":"free"},{"bike_id":"78725f08-8d42-4f1a-9002-0d0b35dc7efd","system_id":"levelo_inurba_marseille","lat":43.3375,"lon":5.37441,"is_reserved":false,"is_disabled":false,"rental_uris":{"android":"levelo://app?vid=78725f08-8d42-4f1a-9002-0d0b35dc7efd","ios":"levelo://app?vid=78725f08-8d42-4f1a-9002-0d0b35dc7efd"},"vehicle_type_id":"4","last_reported":1683558402,"current_range_meters":14400,"station_id":"","pricing_plan_id":"free"},{"bike_id":"7c7fe969-ca3b-4e6a-9b0a-6e22bc5df003","system_id":"levelo_inurba_marseille","lat":43.33759,"lon":5.37428,"is_reserved":false,"is_disabled":false,"rental_uris":{"android":"levelo://app?vid=7c7fe969-ca3b-4e6a-9b0a-6e22bc5df003","ios":"levelo://app?vid=7c7fe969-ca3b-4e6a-9b0a-6e22bc5df003"},"vehicle_type_id":"4","last_reported":1683558402,"current_range_meters":31600,"station_id":"ce4rr2p2rcd13i802rgg","pricing_plan_id":"free"},{"bike_id":"b4d2bbff-b2dd-43d4-b642-cbde7c159902","system_id":"levelo_inurba_marseille","lat":43.33763,"lon":5.37462,"is_reserved":false,"is_disabled":false,"rental_uris":{"android":"levelo://app?vid=b4d2bbff-b2dd-43d4-b642-cbde7c159902","ios":"levelo://app?vid=b4d2bbff-b2dd-43d4-b642-cbde7c159902"},"vehicle_type_id":"4","last_reported":1683558402,"current_range_meters":26800,"station_id":"","pricing_plan_id":"free"},{"bike_id":"fea2fd21-f5e5-432d-9549-f27f62c4988d","system_id":"levelo_inurba_marseille","lat":43.298681,"lon":5.397225,"is_reserved":false,"is_disabled":false,"rental_uris":{"android":"levelo://app?vid=fea2fd21-f5e5-432d-9549-f27f62c4988d","ios":"levelo://app?vid=fea2fd21-f5e5-432d-9549-f27f62c4988d"},"vehicle_type_id":"4","last_reported":1683558402,"current_range_meters":2000,"station_id":"ce4bh0h2rcd13ifvqd50","pricing_plan_id":"free"},{"bike_id":"35b17cec-c760-4423-a268-327d40853e7d","system_id":"levelo_inurba_marseille","lat":43.298681,"lon":5.397225,"is_reserved":false,"is_disabled":false,"rental_uris":{"android":"levelo://app?vid=35b17cec-c760-4423-a268-327d40853e7d","ios":"levelo://app?vid=35b17cec-c760-4423-a268-327d40853e7d"},"vehicle_type_id":"4","last_reported":1683558402,"current_range_meters":12800,"station_id":"ce4bh0h2rcd13ifvqd50","pricing_plan_id":"free"},{"bike_id":"5d8e9d0e-ff00-4e6f-a9f3-002675cc963a","system_id":"levelo_inurba_marseille","lat":43.286039,"lon":5.370679,"is_reserved":false,"is_disabled":false,"rental_uris":{"android":"levelo://app?vid=5d8e9d0e-ff00-4e6f-a9f3-002675cc963a","ios":"levelo://app?vid=5d8e9d0e-ff00-4e6f-a9f3-002675cc963a"},"vehicle_type_id":"4","last_reported":1683558402,"current_range_meters":5600,"station_id":"ce4bht12rcd13ifvqi60","pricing_plan_id":"free"},{"bike_id":"1b6cafd5-40c0-4db6-be1e-bd096fe00d56","system_id":"levelo_inurba_marseille","lat":43.286039,"lon":5.370679,"is_reserved":false,"is_disabled":false,"rental_uris":{"android":"levelo://app?vid=1b6cafd5-40c0-4db6-be1e-bd096fe00d56","ios":"levelo://app?vid=1b6cafd5-40c0-4db6-be1e-bd096fe00d56"},"vehicle_type_id":"4","last_reported":1683558402,"current_range_meters":6000,"station_id":"ce4bht12rcd13ifvqi60","pricing_plan_id":"free"},{"bike_id":"046e6e45-6bd6-4d84-b1a1-96b61996f46e","system_id":"levelo_inurba_marseille","lat":43.287184,"lon":5.37937,"is_reserved":false,"is_disabled":false,"rental_uris":{"android":"levelo://app?vid=046e6e45-6bd6-4d84-b1a1-96b61996f46e","ios":"levelo://app?vid=046e6e45-6bd6-4d84-b1a1-96b61996f46e"},"vehicle_type_id":"4","last_reported":1683558402,"current_range_meters":0,"station_id":"ce4bh9p2rcd13ifvqec0","pricing_plan_id":"free"},{"bike_id":"5bff2443-2ae9-4366-b834-80d65336e3f6","system_id":"levelo_inurba_marseille","lat":43.28829,"lon":5.38244,"is_reserved":false,"is_disabled":false,"rental_uris":{"android":"levelo://app?vid=5bff2443-2ae9-4366-b834-80d65336e3f6","ios":"levelo://app?vid=5bff2443-2ae9-4366-b834-80d65336e3f6"},"vehicle_type_id":"4","last_reported":1683558402,"current_range_meters":0,"station_id":"","pricing_plan_id":"free"},{"bike_id":"46f7ba43-fab7-44d0-8acc-302268013d04","system_id":"levelo_inurba_marseille","lat":43.28458,"lon":5.35883,"is_reserved":false,"is_disabled":false,"rental_uris":{"android":"levelo://app?vid=46f7ba43-fab7-44d0-8acc-302268013d04","ios":"levelo://app?vid=46f7ba43-fab7-44d0-8acc-302268013d04"},"vehicle_type_id":"4","last_reported":1683558402,"current_range_meters":9200,"station_id":"ce4bhah2rcd13ifvqei0","pricing_plan_id":"free"},{"bike_id":"a4a6a0a2-07c5-401a-b7fb-161654f1b26f","system_id":"levelo_inurba_marseille","lat":43.28604,"lon":5.35175,"is_reserved":false,"is_disabled":false,"rental_uris":{"android":"levelo://app?vid=a4a6a0a2-07c5-401a-b7fb-161654f1b26f","ios":"levelo://app?vid=a4a6a0a2-07c5-401a-b7fb-161654f1b26f"},"vehicle_type_id":"4","last_reported":1683558402,"current_range_meters":20800,"station_id":"","pricing_plan_id":"free"},{"bike_id":"8005ee8d-dcef-473a-b574-1c2615bdac91","system_id":"levelo_inurba_marseille","lat":43.285856,"lon":5.350771,"is_reserved":false,"is_disabled":false,"rental_uris":{"android":"levelo://app?vid=8005ee8d-dcef-473a-b574-1c2615bdac91","ios":"levelo://app?vid=8005ee8d-dcef-473a-b574-1c2615bdac91"},"vehicle_type_id":"4","last_reported":1683558402,"current_range_meters":21600,"station_id":"ce4bhch2rcd13ifvqeug","pricing_plan_id":"free"},{"bike_id":"7cdb1143-1df3-41fc-a179-c2f32ca67ebe","system_id":"levelo_inurba_marseille","lat":43.28496,"lon":5.35138,"is_reserved":false,"is_disabled":false,"rental_uris":{"android":"levelo://app?vid=7cdb1143-1df3-41fc-a179-c2f32ca67ebe","ios":"levelo://app?vid=7cdb1143-1df3-41fc-a179-c2f32ca67ebe"},"vehicle_type_id":"4","last_reported":1683558402,"current_range_meters":0,"station_id":"","pricing_plan_id":"free"},{"bike_id":"f1aa2330-3b31-44a4-97f8-e98ceff08ecf","system_id":"levelo_inurba_marseille","lat":43.33717,"lon":5.391857,"is_reserved":false,"is_disabled":false,"rental_uris":{"android":"levelo://app?vid=f1aa2330-3b31-44a4-97f8-e98ceff08ecf","ios":"levelo://app?vid=f1aa2330-3b31-44a4-97f8-e98ceff08ecf"},"vehicle_type_id":"4","last_reported":1683558402,"current_range_meters":31200,"station_id":"ce4bhr92rcd13ifvqhsg","pricing_plan_id":"free"},{"bike_id":"9c83bfd6-c1b6-4a4e-a784-955d5b766f75","system_id":"levelo_inurba_marseille","lat":43.323464,"lon":5.406297,"is_reserved":false,"is_disabled":false,"rental_uris":{"android":"levelo://app?vid=9c83bfd6-c1b6-4a4e-a784-955d5b766f75","ios":"levelo://app?vid=9c83bfd6-c1b6-4a4e-a784-955d5b766f75"},"vehicle_type_id":"4","last_reported":1683558402,"current_range_meters":24000,"station_id":"ce4bhq92rcd13ifvqhjg","pricing_plan_id":"free"},{"bike_id":"eeed33b8-4405-4fee-8d96-fecd07572891","system_id":"levelo_inurba_marseille","lat":43.323464,"lon":5.406297,"is_reserved":false,"is_disabled":false,"rental_uris":{"android":"levelo://app?vid=eeed33b8-4405-4fee-8d96-fecd07572891","ios":"levelo://app?vid=eeed33b8-4405-4fee-8d96-fecd07572891"},"vehicle_type_id":"4","last_reported":1683558402,"current_range_meters":31600,"station_id":"ce4bhq92rcd13ifvqhjg","pricing_plan_id":"free"},{"bike_id":"ad3cdfdb-0864-4cce-8a5d-05a05de94244","system_id":"levelo_inurba_marseille","lat":43.30077,"lon":5.4057,"is_reserved":false,"is_disabled":false,"rental_uris":{"android":"levelo://app?vid=ad3cdfdb-0864-4cce-8a5d-05a05de94244","ios":"levelo://app?vid=ad3cdfdb-0864-4cce-8a5d-05a05de94244"},"vehicle_type_id":"4","last_reported":1683558402,"current_range_meters":10800,"station_id":"","pricing_plan_id":"free"},{"bike_id":"7e8fb2c6-86cf-455b-bdd4-2d88a1c022e1","system_id":"levelo_inurba_marseille","lat":43.288497,"lon":5.393089,"is_reserved":false,"is_disabled":false,"rental_uris":{"android":"levelo://app?vid=7e8fb2c6-86cf-455b-bdd4-2d88a1c022e1","ios":"levelo://app?vid=7e8fb2c6-86cf-455b-bdd4-2d88a1c022e1"},"vehicle_type_id":"4","last_reported":1683558402,"current_range_meters":28800,"station_id":"ce4bh2p2rcd13ifvqdi0","pricing_plan_id":"free"},{"bike_id":"b91012d7-c56c-48a0-a6c4-d62a0c546830","system_id":"levelo_inurba_marseille","lat":43.284217,"lon":5.349697,"is_reserved":false,"is_disabled":false,"rental_uris":{"android":"levelo://app?vid=b91012d7-c56c-48a0-a6c4-d62a0c546830","ios":"levelo://app?vid=b91012d7-c56c-48a0-a6c4-d62a0c546830"},"vehicle_type_id":"4","last_reported":1683558402,"current_range_meters":31200,"station_id":"ce4bhbh2rcd13ifvqepg","pricing_plan_id":"free"},{"bike_id":"5285da43-c6de-45ce-ba4d-dd01a74b4cb6","system_id":"levelo_inurba_marseille","lat":43.28425,"lon":5.34986,"is_reserved":false,"is_disabled":false,"rental_uris":{"android":"levelo://app?vid=5285da43-c6de-45ce-ba4d-dd01a74b4cb6","ios":"levelo://app?vid=5285da43-c6de-45ce-ba4d-dd01a74b4cb6"},"vehicle_type_id":"4","last_reported":1683558402,"current_range_meters":12000,"station_id":"ce4bhbh2rcd13ifvqepg","pricing_plan_id":"free"},{"bike_id":"b72bf647-b2d5-4711-ae08-87b759846106","system_id":"levelo_inurba_marseille","lat":43.28424,"lon":5.34989,"is_reserved":false,"is_disabled":false,"rental_uris":{"android":"levelo://app?vid=b72bf647-b2d5-4711-ae08-87b759846106","ios":"levelo://app?vid=b72bf647-b2d5-4711-ae08-87b759846106"},"vehicle_type_id":"4","last_reported":1683558402,"current_range_meters":31200,"station_id":"ce4bhbh2rcd13ifvqepg","pricing_plan_id":"free"},{"bike_id":"40252b8d-9a81-4bef-9093-9534596e88b8","system_id":"levelo_inurba_marseille","lat":43.283494,"lon":5.380945,"is_reserved":false,"is_disabled":false,"rental_uris":{"android":"levelo://app?vid=40252b8d-9a81-4bef-9093-9534596e88b8","ios":"levelo://app?vid=40252b8d-9a81-4bef-9093-9534596e88b8"},"vehicle_type_id":"4","last_reported":1683558402,"current_range_meters":1200,"station_id":"ce4bh412rcd13ifvqdr0","pricing_plan_id":"free"},{"bike_id":"9385093c-34fc-4d5a-b6e4-23f05c459ca9","system_id":"levelo_inurba_marseille","lat":43.28423,"lon":5.34991,"is_reserved":false,"is_disabled":false,"rental_uris":{"android":"levelo://app?vid=9385093c-34fc-4d5a-b6e4-23f05c459ca9","ios":"levelo://app?vid=9385093c-34fc-4d5a-b6e4-23f05c459ca9"},"vehicle_type_id":"4","last_reported":1683558402,"current_range_meters":18800,"station_id":"ce4bhbh2rcd13ifvqepg","pricing_plan_id":"free"},{"bike_id":"d8659fbd-42f2-4cfa-ac0b-1279388d472c","system_id":"levelo_inurba_marseille","lat":43.28421,"lon":5.34994,"is_reserved":false,"is_disabled":false,"rental_uris":{"android":"levelo://app?vid=d8659fbd-42f2-4cfa-ac0b-1279388d472c","ios":"levelo://app?vid=d8659fbd-42f2-4cfa-ac0b-1279388d472c"},"vehicle_type_id":"4","last_reported":1683558402,"current_range_meters":23600,"station_id":"ce4bhbh2rcd13ifvqepg","pricing_plan_id":"free"},{"bike_id":"0fcd05e9-f01a-4b73-9481-1c94870e837e","system_id":"levelo_inurba_marseille","lat":43.28422,"lon":5.34986,"is_reserved":false,"is_disabled":false,"rental_uris":{"android":"levelo://app?vid=0fcd05e9-f01a-4b73-9481-1c94870e837e","ios":"levelo://app?vid=0fcd05e9-f01a-4b73-9481-1c94870e837e"},"vehicle_type_id":"4","last_reported":1683558402,"current_range_meters":28400,"station_id":"ce4bhbh2rcd13ifvqepg","pricing_plan_id":"free"},{"bike_id":"fc15d2c3-7d02-469a-9704-226c1011f666","system_id":"levelo_inurba_marseille","lat":43.28421,"lon":5.34988,"is_reserved":false,"is_disabled":false,"rental_uris":{"android":"levelo://app?vid=fc15d2c3-7d02-469a-9704-226c1011f666","ios":"levelo://app?vid=fc15d2c3-7d02-469a-9704-226c1011f666"},"vehicle_type_id":"4","last_reported":1683558402,"current_range_meters":15200,"station_id":"ce4bhbh2rcd13ifvqepg","pricing_plan_id":"free"},{"bike_id":"955fb7d3-677d-424f-8361-d7b7ba0f61bc","system_id":"levelo_inurba_marseille","lat":43.28419,"lon":5.34993,"is_reserved":false,"is_disabled":false,"rental_uris":{"android":"levelo://app?vid=955fb7d3-677d-424f-8361-d7b7ba0f61bc","ios":"levelo://app?vid=955fb7d3-677d-424f-8361-d7b7ba0f61bc"},"vehicle_type_id":"4","last_reported":1683558402,"current_range_meters":29600,"station_id":"ce4bhbh2rcd13ifvqepg","pricing_plan_id":"free"},{"bike_id":"0596a4ef-a8b3-4e7e-9b64-0010bcbdb405","system_id":"levelo_inurba_marseille","lat":43.28419,"lon":5.34993,"is_reserved":false,"is_disabled":false,"rental_uris":{"android":"levelo://app?vid=0596a4ef-a8b3-4e7e-9b64-0010bcbdb405","ios":"levelo://app?vid=0596a4ef-a8b3-4e7e-9b64-0010bcbdb405"},"vehicle_type_id":"4","last_reported":1683558402,"current_range_meters":5600,"station_id":"ce4bhbh2rcd13ifvqepg","pricing_plan_id":"free"},{"bike_id":"68c4ff42-2fb9-4574-8f39-3991b06235c9","system_id":"levelo_inurba_marseille","lat":43.28419,"lon":5.3499,"is_reserved":false,"is_disabled":false,"rental_uris":{"android":"levelo://app?vid=68c4ff42-2fb9-4574-8f39-3991b06235c9","ios":"levelo://app?vid=68c4ff42-2fb9-4574-8f39-3991b06235c9"},"vehicle_type_id":"4","last_reported":1683558402,"current_range_meters":21200,"station_id":"ce4bhbh2rcd13ifvqepg","pricing_plan_id":"free"},{"bike_id":"9484af35-8e98-4dc1-bbf9-4955decdf8d2","system_id":"levelo_inurba_marseille","lat":43.28419,"lon":5.34989,"is_reserved":false,"is_disabled":false,"rental_uris":{"android":"levelo://app?vid=9484af35-8e98-4dc1-bbf9-4955decdf8d2","ios":"levelo://app?vid=9484af35-8e98-4dc1-bbf9-4955decdf8d2"},"vehicle_type_id":"4","last_reported":1683558402,"current_range_meters":13200,"station_id":"ce4bhbh2rcd13ifvqepg","pricing_plan_id":"free"},{"bike_id":"2a511c83-0fc1-4453-93dd-9540628e33ac","system_id":"levelo_inurba_marseille","lat":43.284217,"lon":5.349697,"is_reserved":false,"is_disabled":false,"rental_uris":{"android":"levelo://app?vid=2a511c83-0fc1-4453-93dd-9540628e33ac","ios":"levelo://app?vid=2a511c83-0fc1-4453-93dd-9540628e33ac"},"vehicle_type_id":"4","last_reported":1683558402,"current_range_meters":31200,"station_id":"ce4bhbh2rcd13ifvqepg","pricing_plan_id":"free"},{"bike_id":"e191e413-38ce-4ea1-bbf8-4c2b159ace2a","system_id":"levelo_inurba_marseille","lat":43.28419,"lon":5.34986,"is_reserved":false,"is_disabled":false,"rental_uris":{"android":"levelo://app?vid=e191e413-38ce-4ea1-bbf8-4c2b159ace2a","ios":"levelo://app?vid=e191e413-38ce-4ea1-bbf8-4c2b159ace2a"},"vehicle_type_id":"4","last_reported":1683558402,"current_range_meters":13600,"station_id":"ce4bhbh2rcd13ifvqepg","pricing_plan_id":"free"},{"bike_id":"2e0cae07-0e30-4e4e-92c9-73929729869c","system_id":"levelo_inurba_marseille","lat":43.28417,"lon":5.34991,"is_reserved":false,"is_disabled":false,"rental_uris":{"android":"levelo://app?vid=2e0cae07-0e30-4e4e-92c9-73929729869c","ios":"levelo://app?vid=2e0cae07-0e30-4e4e-92c9-73929729869c"},"vehicle_type_id":"4","last_reported":1683558402,"current_range_meters":24400,"station_id":"ce4bhbh2rcd13ifvqepg","pricing_plan_id":"free"},{"bike_id":"d23ba795-b4e6-4138-8475-ea477b43f324","system_id":"levelo_inurba_marseille","lat":43.28417,"lon":5.34991,"is_reserved":false,"is_disabled":false,"rental_uris":{"android":"levelo://app?vid=d23ba795-b4e6-4138-8475-ea477b43f324","ios":"levelo://app?vid=d23ba795-b4e6-4138-8475-ea477b43f324"},"vehicle_type_id":"4","last_reported":1683558402,"current_range_meters":20800,"station_id":"ce4bhbh2rcd13ifvqepg","pricing_plan_id":"free"},{"bike_id":"85ffc63f-cbd7-4370-a2a4-345341f702d5","system_id":"levelo_inurba_marseille","lat":43.28421,"lon":5.34976,"is_reserved":false,"is_disabled":false,"rental_uris":{"android":"levelo://app?vid=85ffc63f-cbd7-4370-a2a4-345341f702d5","ios":"levelo://app?vid=85ffc63f-cbd7-4370-a2a4-345341f702d5"},"vehicle_type_id":"4","last_reported":1683558402,"current_range_meters":25600,"station_id":"ce4bhbh2rcd13ifvqepg","pricing_plan_id":"free"},{"bike_id":"00155e3e-aff3-4652-bb42-216489405fd6","system_id":"levelo_inurba_marseille","lat":43.28419,"lon":5.34978,"is_reserved":false,"is_disabled":false,"rental_uris":{"android":"levelo://app?vid=00155e3e-aff3-4652-bb42-216489405fd6","ios":"levelo://app?vid=00155e3e-aff3-4652-bb42-216489405fd6"},"vehicle_type_id":"4","last_reported":1683558402,"current_range_meters":31200,"station_id":"ce4bhbh2rcd13ifvqepg","pricing_plan_id":"free"},{"bike_id":"aaa538ff-e314-4b5f-81fb-34d132333bf6","system_id":"levelo_inurba_marseille","lat":43.284077,"lon":5.34976,"is_reserved":false,"is_disabled":false,"rental_uris":{"android":"levelo://app?vid=aaa538ff-e314-4b5f-81fb-34d132333bf6","ios":"levelo://app?vid=aaa538ff-e314-4b5f-81fb-34d132333bf6"},"vehicle_type_id":"4","last_reported":1683558402,"current_range_meters":0,"station_id":"","pricing_plan_id":"free"},{"bike_id":"a396c261-757c-41a2-83d0-9fabdda2e27e","system_id":"levelo_inurba_marseille","lat":43.284462,"lon":5.392121,"is_reserved":false,"is_disabled":false,"rental_uris":{"android":"levelo://app?vid=a396c261-757c-41a2-83d0-9fabdda2e27e","ios":"levelo://app?vid=a396c261-757c-41a2-83d0-9fabdda2e27e"},"vehicle_type_id":"4","last_reported":1683558402,"current_range_meters":25200,"station_id":"ce4bhoh2rcd13ifvqh5g","pricing_plan_id":"free"},{"bike_id":"8f570d76-84f8-4338-a85c-c2ba86499149","system_id":"levelo_inurba_marseille","lat":43.28279,"lon":5.35075,"is_reserved":false,"is_disabled":false,"rental_uris":{"android":"levelo://app?vid=8f570d76-84f8-4338-a85c-c2ba86499149","ios":"levelo://app?vid=8f570d76-84f8-4338-a85c-c2ba86499149"},"vehicle_type_id":"4","last_reported":1683558402,"current_range_meters":14400,"station_id":"ce4bhbp2rcd13ifvqerg","pricing_plan_id":"free"},{"bike_id":"f4993f49-7624-4b70-8ba2-5cb550bdda83","system_id":"levelo_inurba_marseille","lat":43.28274,"lon":5.35074,"is_reserved":false,"is_disabled":false,"rental_uris":{"android":"levelo://app?vid=f4993f49-7624-4b70-8ba2-5cb550bdda83","ios":"levelo://app?vid=f4993f49-7624-4b70-8ba2-5cb550bdda83"},"vehicle_type_id":"4","last_reported":1683558402,"current_range_meters":18400,"station_id":"ce4bhbp2rcd13ifvqerg","pricing_plan_id":"free"},{"bike_id":"69798ae7-8371-45e7-b99d-18888a06f08f","system_id":"levelo_inurba_marseille","lat":43.282744,"lon":5.350533,"is_reserved":false,"is_disabled":false,"rental_uris":{"android":"levelo://app?vid=69798ae7-8371-45e7-b99d-18888a06f08f","ios":"levelo://app?vid=69798ae7-8371-45e7-b99d-18888a06f08f"},"vehicle_type_id":"4","last_reported":1683558402,"current_range_meters":12400,"station_id":"ce4bhbp2rcd13ifvqerg","pricing_plan_id":"free"},{"bike_id":"cb7a782f-ce80-44a2-bfe4-34990f710e2c","system_id":"levelo_inurba_marseille","lat":43.282744,"lon":5.350533,"is_reserved":false,"is_disabled":false,"rental_uris":{"android":"levelo://app?vid=cb7a782f-ce80-44a2-bfe4-34990f710e2c","ios":"levelo://app?vid=cb7a782f-ce80-44a2-bfe4-34990f710e2c"},"vehicle_type_id":"4","last_reported":1683558402,"current_range_meters":29200,"station_id":"ce4bhbp2rcd13ifvqerg","pricing_plan_id":"free"},{"bike_id":"427088ea-18d2-4e40-8730-5b9d1c1150e2","system_id":"levelo_inurba_marseille","lat":43.28271,"lon":5.35068,"is_reserved":false,"is_disabled":false,"rental_uris":{"android":"levelo://app?vid=427088ea-18d2-4e40-8730-5b9d1c1150e2","ios":"levelo://app?vid=427088ea-18d2-4e40-8730-5b9d1c1150e2"},"vehicle_type_id":"4","last_reported":1683558402,"current_range_meters":6000,"station_id":"ce4bhbp2rcd13ifvqerg","pricing_plan_id":"free"},{"bike_id":"ffe71b75-027c-49e1-a6db-4f1e164b47af","system_id":"levelo_inurba_marseille","lat":43.280382,"lon":5.369291,"is_reserved":false,"is_disabled":false,"rental_uris":{"android":"levelo://app?vid=ffe71b75-027c-49e1-a6db-4f1e164b47af","ios":"levelo://app?vid=ffe71b75-027c-49e1-a6db-4f1e164b47af"},"vehicle_type_id":"4","last_reported":1683558402,"current_range_meters":27600,"station_id":"ce4bha12rcd13ifvqef0","pricing_plan_id":"free"},{"bike_id":"8e20a5e3-55b2-40e4-bce7-89ff265e38ad","system_id":"levelo_inurba_marseille","lat":43.282744,"lon":5.350533,"is_reserved":false,"is_disabled":false,"rental_uris":{"android":"levelo://app?vid=8e20a5e3-55b2-40e4-bce7-89ff265e38ad","ios":"levelo://app?vid=8e20a5e3-55b2-40e4-bce7-89ff265e38ad"},"vehicle_type_id":"4","last_reported":1683558402,"current_range_meters":26400,"station_id":"ce4bhbp2rcd13ifvqerg","pricing_plan_id":"free"},{"bike_id":"b4716e4f-1de3-4cea-b876-fba5319ea456","system_id":"levelo_inurba_marseille","lat":43.282744,"lon":5.350533,"is_reserved":false,"is_disabled":false,"rental_uris":{"android":"levelo://app?vid=b4716e4f-1de3-4cea-b876-fba5319ea456","ios":"levelo://app?vid=b4716e4f-1de3-4cea-b876-fba5319ea456"},"vehicle_type_id":"4","last_reported":1683558402,"current_range_meters":17600,"station_id":"ce4bhbp2rcd13ifvqerg","pricing_plan_id":"free"},{"bike_id":"0b445dbf-47e2-4584-9530-8607ce7d2828","system_id":"levelo_inurba_marseille","lat":43.282744,"lon":5.350533,"is_reserved":false,"is_disabled":false,"rental_uris":{"android":"levelo://app?vid=0b445dbf-47e2-4584-9530-8607ce7d2828","ios":"levelo://app?vid=0b445dbf-47e2-4584-9530-8607ce7d2828"},"vehicle_type_id":"4","last_reported":1683558402,"current_range_meters":19200,"station_id":"ce4bhbp2rcd13ifvqerg","pricing_plan_id":"free"},{"bike_id":"ff94beca-bc5d-47bd-81d5-efd32d2dfbc5","system_id":"levelo_inurba_marseille","lat":43.282744,"lon":5.350533,"is_reserved":false,"is_disabled":false,"rental_uris":{"android":"levelo://app?vid=ff94beca-bc5d-47bd-81d5-efd32d2dfbc5","ios":"levelo://app?vid=ff94beca-bc5d-47bd-81d5-efd32d2dfbc5"},"vehicle_type_id":"4","last_reported":1683558402,"current_range_meters":28400,"station_id":"ce4bhbp2rcd13ifvqerg","pricing_plan_id":"free"},{"bike_id":"76242f32-c407-44d4-84d7-fa1d50b0f9dc","system_id":"levelo_inurba_marseille","lat":43.32444,"lon":5.40831,"is_reserved":false,"is_disabled":false,"rental_uris":{"android":"levelo://app?vid=76242f32-c407-44d4-84d7-fa1d50b0f9dc","ios":"levelo://app?vid=76242f32-c407-44d4-84d7-fa1d50b0f9dc"},"vehicle_type_id":"4","last_reported":1683558402,"current_range_meters":0,"station_id":"","pricing_plan_id":"free"},{"bike_id":"59a7a792-e723-430b-b0ed-a8e5768a8401","system_id":"levelo_inurba_marseille","lat":43.282744,"lon":5.350533,"is_reserved":false,"is_disabled":false,"rental_uris":{"android":"levelo://app?vid=59a7a792-e723-430b-b0ed-a8e5768a8401","ios":"levelo://app?vid=59a7a792-e723-430b-b0ed-a8e5768a8401"},"vehicle_type_id":"4","last_reported":1683558402,"current_range_meters":31200,"station_id":"ce4bhbp2rcd13ifvqerg","pricing_plan_id":"free"},{"bike_id":"b70b8c78-8e8f-479e-b70c-a96929b82130","system_id":"levelo_inurba_marseille","lat":43.28266,"lon":5.3507,"is_reserved":false,"is_disabled":false,"rental_uris":{"android":"levelo://app?vid=b70b8c78-8e8f-479e-b70c-a96929b82130","ios":"levelo://app?vid=b70b8c78-8e8f-479e-b70c-a96929b82130"},"vehicle_type_id":"4","last_reported":1683558402,"current_range_meters":5600,"station_id":"ce4bhbp2rcd13ifvqerg","pricing_plan_id":"free"},{"bike_id":"2060cfe0-e61b-4bcf-9b7f-6320f48ac01a","system_id":"levelo_inurba_marseille","lat":43.282671,"lon":5.350642,"is_reserved":false,"is_disabled":false,"rental_uris":{"android":"levelo://app?vid=2060cfe0-e61b-4bcf-9b7f-6320f48ac01a","ios":"levelo://app?vid=2060cfe0-e61b-4bcf-9b7f-6320f48ac01a"},"vehicle_type_id":"4","last_reported":1683558402,"current_range_meters":25200,"station_id":"ce4bhbp2rcd13ifvqerg","pricing_plan_id":"free"},{"bike_id":"0a3282c3-e67d-415c-871c-9710005d67d3","system_id":"levelo_inurba_marseille","lat":43.282744,"lon":5.350533,"is_reserved":false,"is_disabled":false,"rental_uris":{"android":"levelo://app?vid=0a3282c3-e67d-415c-871c-9710005d67d3","ios":"levelo://app?vid=0a3282c3-e67d-415c-871c-9710005d67d3"},"vehicle_type_id":"4","last_reported":1683558402,"current_range_meters":18400,"station_id":"ce4bhbp2rcd13ifvqerg","pricing_plan_id":"free"},{"bike_id":"833f1918-ae79-452c-aaef-ec22e9d198dd","system_id":"levelo_inurba_marseille","lat":43.282744,"lon":5.350533,"is_reserved":false,"is_disabled":false,"rental_uris":{"android":"levelo://app?vid=833f1918-ae79-452c-aaef-ec22e9d198dd","ios":"levelo://app?vid=833f1918-ae79-452c-aaef-ec22e9d198dd"},"vehicle_type_id":"4","last_reported":1683558402,"current_range_meters":0,"station_id":"ce4bhbp2rcd13ifvqerg","pricing_plan_id":"free"},{"bike_id":"38ca7130-4f50-494d-93d7-7782329d2af8","system_id":"levelo_inurba_marseille","lat":43.28039,"lon":5.369297,"is_reserved":false,"is_disabled":false,"rental_uris":{"android":"levelo://app?vid=38ca7130-4f50-494d-93d7-7782329d2af8","ios":"levelo://app?vid=38ca7130-4f50-494d-93d7-7782329d2af8"},"vehicle_type_id":"4","last_reported":1683558402,"current_range_meters":13600,"station_id":"ce4bha12rcd13ifvqef0","pricing_plan_id":"free"},{"bike_id":"313da5e9-4c41-46e2-b3d8-b3186b8cd53e","system_id":"levelo_inurba_marseille","lat":43.280382,"lon":5.369291,"is_reserved":false,"is_disabled":false,"rental_uris":{"android":"levelo://app?vid=313da5e9-4c41-46e2-b3d8-b3186b8cd53e","ios":"levelo://app?vid=313da5e9-4c41-46e2-b3d8-b3186b8cd53e"},"vehicle_type_id":"4","last_reported":1683558402,"current_range_meters":15200,"station_id":"ce4bha12rcd13ifvqef0","pricing_plan_id":"free"},{"bike_id":"30cfbec4-bc47-47bf-91e4-b660b289a398","system_id":"levelo_inurba_marseille","lat":43.28039,"lon":5.369297,"is_reserved":false,"is_disabled":false,"rental_uris":{"android":"levelo://app?vid=30cfbec4-bc47-47bf-91e4-b660b289a398","ios":"levelo://app?vid=30cfbec4-bc47-47bf-91e4-b660b289a398"},"vehicle_type_id":"4","last_reported":1683558402,"current_range_meters":27200,"station_id":"ce4bha12rcd13ifvqef0","pricing_plan_id":"free"},{"bike_id":"1c022c63-927b-48b5-aef3-cfb57bc9b21e","system_id":"levelo_inurba_marseille","lat":43.281044,"lon":5.378308,"is_reserved":false,"is_disabled":false,"rental_uris":{"android":"levelo://app?vid=1c022c63-927b-48b5-aef3-cfb57bc9b21e","ios":"levelo://app?vid=1c022c63-927b-48b5-aef3-cfb57bc9b21e"},"vehicle_type_id":"4","last_reported":1683558402,"current_range_meters":18000,"station_id":"ce4bha12rcd13ifvqee0","pricing_plan_id":"free"},{"bike_id":"b9088282-ae32-4c7e-b557-4fb444fc1f35","system_id":"levelo_inurba_marseille","lat":43.284462,"lon":5.392121,"is_reserved":false,"is_disabled":false,"rental_uris":{"android":"levelo://app?vid=b9088282-ae32-4c7e-b557-4fb444fc1f35","ios":"levelo://app?vid=b9088282-ae32-4c7e-b557-4fb444fc1f35"},"vehicle_type_id":"4","last_reported":1683558402,"current_range_meters":25600,"station_id":"ce4bhoh2rcd13ifvqh5g","pricing_plan_id":"free"},{"bike_id":"f82fb79d-076d-463e-86e3-fe4d6400f7ee","system_id":"levelo_inurba_marseille","lat":43.284462,"lon":5.392121,"is_reserved":false,"is_disabled":false,"rental_uris":{"android":"levelo://app?vid=f82fb79d-076d-463e-86e3-fe4d6400f7ee","ios":"levelo://app?vid=f82fb79d-076d-463e-86e3-fe4d6400f7ee"},"vehicle_type_id":"4","last_reported":1683558402,"current_range_meters":19200,"station_id":"ce4bhoh2rcd13ifvqh5g","pricing_plan_id":"free"},{"bike_id":"de7ea1e6-fa43-469e-b37b-7f7dd52fa4a5","system_id":"levelo_inurba_marseille","lat":43.32609,"lon":5.41049,"is_reserved":false,"is_disabled":false,"rental_uris":{"android":"levelo://app?vid=de7ea1e6-fa43-469e-b37b-7f7dd52fa4a5","ios":"levelo://app?vid=de7ea1e6-fa43-469e-b37b-7f7dd52fa4a5"},"vehicle_type_id":"4","last_reported":1683558402,"current_range_meters":1600,"station_id":"ce4bhpp2rcd13ifvqhgg","pricing_plan_id":"free"},{"bike_id":"c56389b3-7611-47bb-b742-b0db3b699473","system_id":"levelo_inurba_marseille","lat":43.304188,"lon":5.412904,"is_reserved":false,"is_disabled":false,"rental_uris":{"android":"levelo://app?vid=c56389b3-7611-47bb-b742-b0db3b699473","ios":"levelo://app?vid=c56389b3-7611-47bb-b742-b0db3b699473"},"vehicle_type_id":"4","last_reported":1683558402,"current_range_meters":6000,"station_id":"ce4bhop2rcd13ifvqh8g","pricing_plan_id":"free"},{"bike_id":"505562ca-6d49-4e24-86f1-e4cd6599d9d3","system_id":"levelo_inurba_marseille","lat":43.28712,"lon":5.39987,"is_reserved":false,"is_disabled":false,"rental_uris":{"android":"levelo://app?vid=505562ca-6d49-4e24-86f1-e4cd6599d9d3","ios":"levelo://app?vid=505562ca-6d49-4e24-86f1-e4cd6599d9d3"},"vehicle_type_id":"4","last_reported":1683558402,"current_range_meters":0,"station_id":"ce4bho92rcd13ifvqh3g","pricing_plan_id":"free"},{"bike_id":"d43101b5-746e-41b0-a429-3467052e0791","system_id":"levelo_inurba_marseille","lat":43.320045,"lon":5.415048,"is_reserved":false,"is_disabled":false,"rental_uris":{"android":"levelo://app?vid=d43101b5-746e-41b0-a429-3467052e0791","ios":"levelo://app?vid=d43101b5-746e-41b0-a429-3467052e0791"},"vehicle_type_id":"4","last_reported":1683558402,"current_range_meters":30800,"station_id":"ce4bhq92rcd13ifvqhkg","pricing_plan_id":"free"},{"bike_id":"592b2911-95f3-4384-9339-5412bcf411d1","system_id":"levelo_inurba_marseille","lat":43.320045,"lon":5.415048,"is_reserved":false,"is_disabled":false,"rental_uris":{"android":"levelo://app?vid=592b2911-95f3-4384-9339-5412bcf411d1","ios":"levelo://app?vid=592b2911-95f3-4384-9339-5412bcf411d1"},"vehicle_type_id":"4","last_reported":1683558402,"current_range_meters":27200,"station_id":"ce4bhq92rcd13ifvqhkg","pricing_plan_id":"free"},{"bike_id":"5085f70d-af80-435c-aaff-3d14cb76bf44","system_id":"levelo_inurba_marseille","lat":43.320045,"lon":5.415048,"is_reserved":false,"is_disabled":false,"rental_uris":{"android":"levelo://app?vid=5085f70d-af80-435c-aaff-3d14cb76bf44","ios":"levelo://app?vid=5085f70d-af80-435c-aaff-3d14cb76bf44"},"vehicle_type_id":"4","last_reported":1683558402,"current_range_meters":22800,"station_id":"ce4bhq92rcd13ifvqhkg","pricing_plan_id":"free"},{"bike_id":"17b255af-3133-41cc-9b13-3bf3797c30d0","system_id":"levelo_inurba_marseille","lat":43.320045,"lon":5.415048,"is_reserved":false,"is_disabled":false,"rental_uris":{"android":"levelo://app?vid=17b255af-3133-41cc-9b13-3bf3797c30d0","ios":"levelo://app?vid=17b255af-3133-41cc-9b13-3bf3797c30d0"},"vehicle_type_id":"4","last_reported":1683558402,"current_range_meters":31200,"station_id":"ce4bhq92rcd13ifvqhkg","pricing_plan_id":"free"},{"bike_id":"b58044b5-53d2-4380-b355-31d5d93a315d","system_id":"levelo_inurba_marseille","lat":43.320045,"lon":5.415048,"is_reserved":false,"is_disabled":false,"rental_uris":{"android":"levelo://app?vid=b58044b5-53d2-4380-b355-31d5d93a315d","ios":"levelo://app?vid=b58044b5-53d2-4380-b355-31d5d93a315d"},"vehicle_type_id":"4","last_reported":1683558402,"current_range_meters":31200,"station_id":"ce4bhq92rcd13ifvqhkg","pricing_plan_id":"free"},{"bike_id":"c6f6826b-7057-4698-b3ec-22c901df9b49","system_id":"levelo_inurba_marseille","lat":43.299579,"lon":5.413255,"is_reserved":false,"is_disabled":false,"rental_uris":{"android":"levelo://app?vid=c6f6826b-7057-4698-b3ec-22c901df9b49","ios":"levelo://app?vid=c6f6826b-7057-4698-b3ec-22c901df9b49"},"vehicle_type_id":"4","last_reported":1683558402,"current_range_meters":29600,"station_id":"ce4bhp12rcd13ifvqh9g","pricing_plan_id":"free"},{"bike_id":"9f261c0c-c710-4d2b-a989-f1a8a6d3d8c9","system_id":"levelo_inurba_marseille","lat":43.320045,"lon":5.415048,"is_reserved":false,"is_disabled":false,"rental_uris":{"android":"levelo://app?vid=9f261c0c-c710-4d2b-a989-f1a8a6d3d8c9","ios":"levelo://app?vid=9f261c0c-c710-4d2b-a989-f1a8a6d3d8c9"},"vehicle_type_id":"4","last_reported":1683558402,"current_range_meters":29200,"station_id":"ce4bhq92rcd13ifvqhkg","pricing_plan_id":"free"},{"bike_id":"84b667b0-b076-44b2-a0b5-7946c54027d8","system_id":"levelo_inurba_marseille","lat":43.320045,"lon":5.415048,"is_reserved":false,"is_disabled":false,"rental_uris":{"android":"levelo://app?vid=84b667b0-b076-44b2-a0b5-7946c54027d8","ios":"levelo://app?vid=84b667b0-b076-44b2-a0b5-7946c54027d8"},"vehicle_type_id":"4","last_reported":1683558402,"current_range_meters":4800,"station_id":"ce4bhq92rcd13ifvqhkg","pricing_plan_id":"free"},{"bike_id":"95a9fac9-0b1d-44a9-b36a-e44b6679c865","system_id":"levelo_inurba_marseille","lat":43.292571,"lon":5.409107,"is_reserved":false,"is_disabled":false,"rental_uris":{"android":"levelo://app?vid=95a9fac9-0b1d-44a9-b36a-e44b6679c865","ios":"levelo://app?vid=95a9fac9-0b1d-44a9-b36a-e44b6679c865"},"vehicle_type_id":"4","last_reported":1683558402,"current_range_meters":4800,"station_id":"ce4bh192rcd13ifvqdc0","pricing_plan_id":"free"},{"bike_id":"0b043852-c02a-4a5f-8457-c14b49f6c1e8","system_id":"levelo_inurba_marseille","lat":43.32536,"lon":5.41434,"is_reserved":false,"is_disabled":false,"rental_uris":{"android":"levelo://app?vid=0b043852-c02a-4a5f-8457-c14b49f6c1e8","ios":"levelo://app?vid=0b043852-c02a-4a5f-8457-c14b49f6c1e8"},"vehicle_type_id":"4","last_reported":1683558402,"current_range_meters":31200,"station_id":"ce4bhq12rcd13ifvqhhg","pricing_plan_id":"free"},{"bike_id":"9055ed5f-83a5-4d4b-afbb-c008421beaf1","system_id":"levelo_inurba_marseille","lat":43.32545,"lon":5.41433,"is_reserved":false,"is_disabled":false,"rental_uris":{"android":"levelo://app?vid=9055ed5f-83a5-4d4b-afbb-c008421beaf1","ios":"levelo://app?vid=9055ed5f-83a5-4d4b-afbb-c008421beaf1"},"vehicle_type_id":"4","last_reported":1683558402,"current_range_meters":29600,"station_id":"ce4bhq12rcd13ifvqhhg","pricing_plan_id":"free"},{"bike_id":"1c2a22c5-6330-4a39-9235-617c098450bf","system_id":"levelo_inurba_marseille","lat":43.27618,"lon":5.361009,"is_reserved":false,"is_disabled":false,"rental_uris":{"android":"levelo://app?vid=1c2a22c5-6330-4a39-9235-617c098450bf","ios":"levelo://app?vid=1c2a22c5-6330-4a39-9235-617c098450bf"},"vehicle_type_id":"4","last_reported":1683558402,"current_range_meters":10000,"station_id":"ce4bgj92rcd13ifvqbe0","pricing_plan_id":"free"},{"bike_id":"d328f2a2-9760-4001-b3af-29fd8a060e3d","system_id":"levelo_inurba_marseille","lat":43.27622,"lon":5.36103,"is_reserved":false,"is_disabled":false,"rental_uris":{"android":"levelo://app?vid=d328f2a2-9760-4001-b3af-29fd8a060e3d","ios":"levelo://app?vid=d328f2a2-9760-4001-b3af-29fd8a060e3d"},"vehicle_type_id":"4","last_reported":1683558402,"current_range_meters":4000,"station_id":"ce4bgj92rcd13ifvqbe0","pricing_plan_id":"free"},{"bike_id":"1e12c9cc-e46f-4db5-96a1-e9619a12fafe","system_id":"levelo_inurba_marseille","lat":43.32541,"lon":5.41438,"is_reserved":false,"is_disabled":false,"rental_uris":{"android":"levelo://app?vid=1e12c9cc-e46f-4db5-96a1-e9619a12fafe","ios":"levelo://app?vid=1e12c9cc-e46f-4db5-96a1-e9619a12fafe"},"vehicle_type_id":"4","last_reported":1683558402,"current_range_meters":30800,"station_id":"ce4bhq12rcd13ifvqhhg","pricing_plan_id":"free"},{"bike_id":"1cbe7a30-8218-45d3-a325-6a9ce7afcee6","system_id":"levelo_inurba_marseille","lat":43.27618,"lon":5.361009,"is_reserved":false,"is_disabled":false,"rental_uris":{"android":"levelo://app?vid=1cbe7a30-8218-45d3-a325-6a9ce7afcee6","ios":"levelo://app?vid=1cbe7a30-8218-45d3-a325-6a9ce7afcee6"},"vehicle_type_id":"4","last_reported":1683558402,"current_range_meters":29200,"station_id":"ce4bgj92rcd13ifvqbe0","pricing_plan_id":"free"},{"bike_id":"f99d7321-e2b2-465d-91a6-4b665a3c5439","system_id":"levelo_inurba_marseille","lat":43.2762,"lon":5.36107,"is_reserved":false,"is_disabled":false,"rental_uris":{"android":"levelo://app?vid=f99d7321-e2b2-465d-91a6-4b665a3c5439","ios":"levelo://app?vid=f99d7321-e2b2-465d-91a6-4b665a3c5439"},"vehicle_type_id":"4","last_reported":1683558402,"current_range_meters":6800,"station_id":"ce4bgj92rcd13ifvqbe0","pricing_plan_id":"free"},{"bike_id":"adace850-826d-4831-8306-18384f10974f","system_id":"levelo_inurba_marseille","lat":43.2762,"lon":5.36105,"is_reserved":false,"is_disabled":false,"rental_uris":{"android":"levelo://app?vid=adace850-826d-4831-8306-18384f10974f","ios":"levelo://app?vid=adace850-826d-4831-8306-18384f10974f"},"vehicle_type_id":"4","last_reported":1683558402,"current_range_meters":17200,"station_id":"ce4bgj92rcd13ifvqbe0","pricing_plan_id":"free"},{"bike_id":"61f420b0-f1b3-468f-9dcd-bff90ce0f0e9","system_id":"levelo_inurba_marseille","lat":43.27618,"lon":5.361009,"is_reserved":false,"is_disabled":false,"rental_uris":{"android":"levelo://app?vid=61f420b0-f1b3-468f-9dcd-bff90ce0f0e9","ios":"levelo://app?vid=61f420b0-f1b3-468f-9dcd-bff90ce0f0e9"},"vehicle_type_id":"4","last_reported":1683558402,"current_range_meters":29600,"station_id":"ce4bgj92rcd13ifvqbe0","pricing_plan_id":"free"},{"bike_id":"89bbb9ef-5470-4891-95dd-0f2039b348d9","system_id":"levelo_inurba_marseille","lat":43.32538,"lon":5.41442,"is_reserved":false,"is_disabled":false,"rental_uris":{"android":"levelo://app?vid=89bbb9ef-5470-4891-95dd-0f2039b348d9","ios":"levelo://app?vid=89bbb9ef-5470-4891-95dd-0f2039b348d9"},"vehicle_type_id":"4","last_reported":1683558402,"current_range_meters":31200,"station_id":"ce4bhq12rcd13ifvqhhg","pricing_plan_id":"free"},{"bike_id":"ac19d7fd-ec2f-4f19-a106-96d79320ee4d","system_id":"levelo_inurba_marseille","lat":43.27618,"lon":5.361009,"is_reserved":false,"is_disabled":false,"rental_uris":{"android":"levelo://app?vid=ac19d7fd-ec2f-4f19-a106-96d79320ee4d","ios":"levelo://app?vid=ac19d7fd-ec2f-4f19-a106-96d79320ee4d"},"vehicle_type_id":"4","last_reported":1683558402,"current_range_meters":5600,"station_id":"ce4bgj92rcd13ifvqbe0","pricing_plan_id":"free"},{"bike_id":"c765fd78-6ec0-4a3c-8168-2799f615f4f9","system_id":"levelo_inurba_marseille","lat":43.27617,"lon":5.36108,"is_reserved":false,"is_disabled":false,"rental_uris":{"android":"levelo://app?vid=c765fd78-6ec0-4a3c-8168-2799f615f4f9","ios":"levelo://app?vid=c765fd78-6ec0-4a3c-8168-2799f615f4f9"},"vehicle_type_id":"4","last_reported":1683558402,"current_range_meters":29600,"station_id":"ce4bgj92rcd13ifvqbe0","pricing_plan_id":"free"},{"bike_id":"133444f2-ec38-4ea0-a7eb-46d8a7d90f25","system_id":"levelo_inurba_marseille","lat":43.276179,"lon":5.361009,"is_reserved":false,"is_disabled":false,"rental_uris":{"android":"levelo://app?vid=133444f2-ec38-4ea0-a7eb-46d8a7d90f25","ios":"levelo://app?vid=133444f2-ec38-4ea0-a7eb-46d8a7d90f25"},"vehicle_type_id":"4","last_reported":1683558402,"current_range_meters":20000,"station_id":"ce4bgj92rcd13ifvqbe0","pricing_plan_id":"free"},{"bike_id":"b6e61f04-6284-4e0a-b173-2874c53e487f","system_id":"levelo_inurba_marseille","lat":43.276179,"lon":5.361009,"is_reserved":false,"is_disabled":false,"rental_uris":{"android":"levelo://app?vid=b6e61f04-6284-4e0a-b173-2874c53e487f","ios":"levelo://app?vid=b6e61f04-6284-4e0a-b173-2874c53e487f"},"vehicle_type_id":"4","last_reported":1683558402,"current_range_meters":19200,"station_id":"ce4bgj92rcd13ifvqbe0","pricing_plan_id":"free"},{"bike_id":"da20c52d-0f93-44e3-ba05-c76904e8247c","system_id":"levelo_inurba_marseille","lat":43.276179,"lon":5.361009,"is_reserved":false,"is_disabled":false,"rental_uris":{"android":"levelo://app?vid=da20c52d-0f93-44e3-ba05-c76904e8247c","ios":"levelo://app?vid=da20c52d-0f93-44e3-ba05-c76904e8247c"},"vehicle_type_id":"4","last_reported":1683558402,"current_range_meters":400,"station_id":"ce4bgj92rcd13ifvqbe0","pricing_plan_id":"free"},{"bike_id":"0285b01f-d4de-4389-bd78-48e1913590a0","system_id":"levelo_inurba_marseille","lat":43.276179,"lon":5.361009,"is_reserved":false,"is_disabled":false,"rental_uris":{"android":"levelo://app?vid=0285b01f-d4de-4389-bd78-48e1913590a0","ios":"levelo://app?vid=0285b01f-d4de-4389-bd78-48e1913590a0"},"vehicle_type_id":"4","last_reported":1683558402,"current_range_meters":1200,"station_id":"ce4bgj92rcd13ifvqbe0","pricing_plan_id":"free"},{"bike_id":"4cbf6c5f-b780-40bf-a192-5d1e7aea8c49","system_id":"levelo_inurba_marseille","lat":43.276179,"lon":5.361009,"is_reserved":false,"is_disabled":false,"rental_uris":{"android":"levelo://app?vid=4cbf6c5f-b780-40bf-a192-5d1e7aea8c49","ios":"levelo://app?vid=4cbf6c5f-b780-40bf-a192-5d1e7aea8c49"},"vehicle_type_id":"4","last_reported":1683558402,"current_range_meters":18000,"station_id":"ce4bgj92rcd13ifvqbe0","pricing_plan_id":"free"},{"bike_id":"d21b9887-d73c-42f1-9b5f-33d551cc28ba","system_id":"levelo_inurba_marseille","lat":43.276179,"lon":5.361009,"is_reserved":false,"is_disabled":false,"rental_uris":{"android":"levelo://app?vid=d21b9887-d73c-42f1-9b5f-33d551cc28ba","ios":"levelo://app?vid=d21b9887-d73c-42f1-9b5f-33d551cc28ba"},"vehicle_type_id":"4","last_reported":1683558402,"current_range_meters":18000,"station_id":"ce4bgj92rcd13ifvqbe0","pricing_plan_id":"free"},{"bike_id":"f3703bea-d94b-4060-affb-a5bc463d96f0","system_id":"levelo_inurba_marseille","lat":43.276179,"lon":5.361009,"is_reserved":false,"is_disabled":false,"rental_uris":{"android":"levelo://app?vid=f3703bea-d94b-4060-affb-a5bc463d96f0","ios":"levelo://app?vid=f3703bea-d94b-4060-affb-a5bc463d96f0"},"vehicle_type_id":"4","last_reported":1683558402,"current_range_meters":25600,"station_id":"ce4bgj92rcd13ifvqbe0","pricing_plan_id":"free"},{"bike_id":"f9764df3-4651-4fa2-a4e5-661ee224c0dc","system_id":"levelo_inurba_marseille","lat":43.276179,"lon":5.361009,"is_reserved":false,"is_disabled":false,"rental_uris":{"android":"levelo://app?vid=f9764df3-4651-4fa2-a4e5-661ee224c0dc","ios":"levelo://app?vid=f9764df3-4651-4fa2-a4e5-661ee224c0dc"},"vehicle_type_id":"4","last_reported":1683558402,"current_range_meters":15200,"station_id":"ce4bgj92rcd13ifvqbe0","pricing_plan_id":"free"},{"bike_id":"d12ec49d-0c1d-4a93-a1d3-6b67fcd32ee2","system_id":"levelo_inurba_marseille","lat":43.27543,"lon":5.35977,"is_reserved":false,"is_disabled":false,"rental_uris":{"android":"levelo://app?vid=d12ec49d-0c1d-4a93-a1d3-6b67fcd32ee2","ios":"levelo://app?vid=d12ec49d-0c1d-4a93-a1d3-6b67fcd32ee2"},"vehicle_type_id":"4","last_reported":1683558402,"current_range_meters":4000,"station_id":"ce4bgj92rcd13ifvqbe0","pricing_plan_id":"free"},{"bike_id":"3f0c2974-eaa9-4702-9b5d-c19311382717","system_id":"levelo_inurba_marseille","lat":43.273613,"lon":5.362705,"is_reserved":false,"is_disabled":false,"rental_uris":{"android":"levelo://app?vid=3f0c2974-eaa9-4702-9b5d-c19311382717","ios":"levelo://app?vid=3f0c2974-eaa9-4702-9b5d-c19311382717"},"vehicle_type_id":"4","last_reported":1683558402,"current_range_meters":31600,"station_id":"ce4bhbh2rcd13ifvqeo0","pricing_plan_id":"free"},{"bike_id":"61596c98-86ef-4d32-9647-6aa648f6a64a","system_id":"levelo_inurba_marseille","lat":43.273613,"lon":5.362705,"is_reserved":false,"is_disabled":false,"rental_uris":{"android":"levelo://app?vid=61596c98-86ef-4d32-9647-6aa648f6a64a","ios":"levelo://app?vid=61596c98-86ef-4d32-9647-6aa648f6a64a"},"vehicle_type_id":"4","last_reported":1683558402,"current_range_meters":10000,"station_id":"ce4bhbh2rcd13ifvqeo0","pricing_plan_id":"free"},{"bike_id":"432277c9-aa72-4ea2-9cc6-2d7223873749","system_id":"levelo_inurba_marseille","lat":43.273613,"lon":5.362705,"is_reserved":false,"is_disabled":false,"rental_uris":{"android":"levelo://app?vid=432277c9-aa72-4ea2-9cc6-2d7223873749","ios":"levelo://app?vid=432277c9-aa72-4ea2-9cc6-2d7223873749"},"vehicle_type_id":"4","last_reported":1683558402,"current_range_meters":22000,"station_id":"ce4bhbh2rcd13ifvqeo0","pricing_plan_id":"free"},{"bike_id":"2a9f1b7b-efb3-4af7-a41e-2c9daedd92d8","system_id":"levelo_inurba_marseille","lat":43.273613,"lon":5.362705,"is_reserved":false,"is_disabled":false,"rental_uris":{"android":"levelo://app?vid=2a9f1b7b-efb3-4af7-a41e-2c9daedd92d8","ios":"levelo://app?vid=2a9f1b7b-efb3-4af7-a41e-2c9daedd92d8"},"vehicle_type_id":"4","last_reported":1683558402,"current_range_meters":29600,"station_id":"ce4bhbh2rcd13ifvqeo0","pricing_plan_id":"free"},{"bike_id":"1615f1e4-0a0e-45eb-b49a-3741a572d394","system_id":"levelo_inurba_marseille","lat":43.273613,"lon":5.362705,"is_reserved":false,"is_disabled":false,"rental_uris":{"android":"levelo://app?vid=1615f1e4-0a0e-45eb-b49a-3741a572d394","ios":"levelo://app?vid=1615f1e4-0a0e-45eb-b49a-3741a572d394"},"vehicle_type_id":"4","last_reported":1683558402,"current_range_meters":31600,"station_id":"ce4bhbh2rcd13ifvqeo0","pricing_plan_id":"free"},{"bike_id":"a8cc4fa3-1004-4f8c-9959-2eb6881664b3","system_id":"levelo_inurba_marseille","lat":43.273613,"lon":5.362705,"is_reserved":false,"is_disabled":false,"rental_uris":{"android":"levelo://app?vid=a8cc4fa3-1004-4f8c-9959-2eb6881664b3","ios":"levelo://app?vid=a8cc4fa3-1004-4f8c-9959-2eb6881664b3"},"vehicle_type_id":"4","last_reported":1683558402,"current_range_meters":31600,"station_id":"ce4bhbh2rcd13ifvqeo0","pricing_plan_id":"free"},{"bike_id":"acfdee2b-1879-493f-9bc9-d28ad2b0f209","system_id":"levelo_inurba_marseille","lat":43.273613,"lon":5.362705,"is_reserved":false,"is_disabled":false,"rental_uris":{"android":"levelo://app?vid=acfdee2b-1879-493f-9bc9-d28ad2b0f209","ios":"levelo://app?vid=acfdee2b-1879-493f-9bc9-d28ad2b0f209"},"vehicle_type_id":"4","last_reported":1683558402,"current_range_meters":23600,"station_id":"ce4bhbh2rcd13ifvqeo0","pricing_plan_id":"free"},{"bike_id":"bf70ac2e-4cf4-4dbc-8306-040a6298b584","system_id":"levelo_inurba_marseille","lat":43.273613,"lon":5.362705,"is_reserved":false,"is_disabled":false,"rental_uris":{"android":"levelo://app?vid=bf70ac2e-4cf4-4dbc-8306-040a6298b584","ios":"levelo://app?vid=bf70ac2e-4cf4-4dbc-8306-040a6298b584"},"vehicle_type_id":"4","last_reported":1683558402,"current_range_meters":31600,"station_id":"ce4bhbh2rcd13ifvqeo0","pricing_plan_id":"free"},{"bike_id":"670aeb47-4475-4a87-9fc4-319d48acc773","system_id":"levelo_inurba_marseille","lat":43.273814,"lon":5.362571,"is_reserved":false,"is_disabled":false,"rental_uris":{"android":"levelo://app?vid=670aeb47-4475-4a87-9fc4-319d48acc773","ios":"levelo://app?vid=670aeb47-4475-4a87-9fc4-319d48acc773"},"vehicle_type_id":"4","last_reported":1683558402,"current_range_meters":31200,"station_id":"","pricing_plan_id":"free"},{"bike_id":"fd21131b-c049-487d-bffb-c12c88eb5442","system_id":"levelo_inurba_marseille","lat":43.273613,"lon":5.362705,"is_reserved":false,"is_disabled":false,"rental_uris":{"android":"levelo://app?vid=fd21131b-c049-487d-bffb-c12c88eb5442","ios":"levelo://app?vid=fd21131b-c049-487d-bffb-c12c88eb5442"},"vehicle_type_id":"4","last_reported":1683558402,"current_range_meters":31600,"station_id":"ce4bhbh2rcd13ifvqeo0","pricing_plan_id":"free"},{"bike_id":"412be53c-7d2f-4a09-9bbb-e1b52643ac3b","system_id":"levelo_inurba_marseille","lat":43.273613,"lon":5.362705,"is_reserved":false,"is_disabled":false,"rental_uris":{"android":"levelo://app?vid=412be53c-7d2f-4a09-9bbb-e1b52643ac3b","ios":"levelo://app?vid=412be53c-7d2f-4a09-9bbb-e1b52643ac3b"},"vehicle_type_id":"4","last_reported":1683558402,"current_range_meters":24800,"station_id":"ce4bhbh2rcd13ifvqeo0","pricing_plan_id":"free"},{"bike_id":"97c8773a-e73d-4d33-9212-ed94aba0a3b4","system_id":"levelo_inurba_marseille","lat":43.273609,"lon":5.362708,"is_reserved":false,"is_disabled":false,"rental_uris":{"android":"levelo://app?vid=97c8773a-e73d-4d33-9212-ed94aba0a3b4","ios":"levelo://app?vid=97c8773a-e73d-4d33-9212-ed94aba0a3b4"},"vehicle_type_id":"4","last_reported":1683558402,"current_range_meters":32000,"station_id":"ce4bhbh2rcd13ifvqeo0","pricing_plan_id":"free"},{"bike_id":"21b23107-ef1a-4c23-ac17-2895ce3d923e","system_id":"levelo_inurba_marseille","lat":43.273613,"lon":5.362705,"is_reserved":false,"is_disabled":false,"rental_uris":{"android":"levelo://app?vid=21b23107-ef1a-4c23-ac17-2895ce3d923e","ios":"levelo://app?vid=21b23107-ef1a-4c23-ac17-2895ce3d923e"},"vehicle_type_id":"4","last_reported":1683558402,"current_range_meters":24800,"station_id":"ce4bhbh2rcd13ifvqeo0","pricing_plan_id":"free"},{"bike_id":"917010e9-146a-49bb-847a-43f85ccba8c3","system_id":"levelo_inurba_marseille","lat":43.273613,"lon":5.362705,"is_reserved":false,"is_disabled":false,"rental_uris":{"android":"levelo://app?vid=917010e9-146a-49bb-847a-43f85ccba8c3","ios":"levelo://app?vid=917010e9-146a-49bb-847a-43f85ccba8c3"},"vehicle_type_id":"4","last_reported":1683558402,"current_range_meters":23600,"station_id":"ce4bhbh2rcd13ifvqeo0","pricing_plan_id":"free"},{"bike_id":"a5a37aac-cf92-49c1-903a-20e4b210ebd8","system_id":"levelo_inurba_marseille","lat":43.273609,"lon":5.362708,"is_reserved":false,"is_disabled":false,"rental_uris":{"android":"levelo://app?vid=a5a37aac-cf92-49c1-903a-20e4b210ebd8","ios":"levelo://app?vid=a5a37aac-cf92-49c1-903a-20e4b210ebd8"},"vehicle_type_id":"4","last_reported":1683558402,"current_range_meters":31600,"station_id":"ce4bhbh2rcd13ifvqeo0","pricing_plan_id":"free"},{"bike_id":"b522f12c-5bba-4cd0-879e-437e44703205","system_id":"levelo_inurba_marseille","lat":43.273609,"lon":5.362708,"is_reserved":false,"is_disabled":false,"rental_uris":{"android":"levelo://app?vid=b522f12c-5bba-4cd0-879e-437e44703205","ios":"levelo://app?vid=b522f12c-5bba-4cd0-879e-437e44703205"},"vehicle_type_id":"4","last_reported":1683558402,"current_range_meters":31600,"station_id":"ce4bhbh2rcd13ifvqeo0","pricing_plan_id":"free"},{"bike_id":"7aeb8413-9a3b-4f7f-bb35-0e698677b64b","system_id":"levelo_inurba_marseille","lat":43.273609,"lon":5.362708,"is_reserved":false,"is_disabled":false,"rental_uris":{"android":"levelo://app?vid=7aeb8413-9a3b-4f7f-bb35-0e698677b64b","ios":"levelo://app?vid=7aeb8413-9a3b-4f7f-bb35-0e698677b64b"},"vehicle_type_id":"4","last_reported":1683558402,"current_range_meters":14000,"station_id":"ce4bhbh2rcd13ifvqeo0","pricing_plan_id":"free"},{"bike_id":"5bad95ee-15b4-4563-8dae-a9e73b24b764","system_id":"levelo_inurba_marseille","lat":43.273613,"lon":5.362705,"is_reserved":false,"is_disabled":false,"rental_uris":{"android":"levelo://app?vid=5bad95ee-15b4-4563-8dae-a9e73b24b764","ios":"levelo://app?vid=5bad95ee-15b4-4563-8dae-a9e73b24b764"},"vehicle_type_id":"4","last_reported":1683558402,"current_range_meters":31600,"station_id":"ce4bhbh2rcd13ifvqeo0","pricing_plan_id":"free"},{"bike_id":"3a53e1b5-55da-4ce0-ad8b-f7d49f4a5cc0","system_id":"levelo_inurba_marseille","lat":43.273613,"lon":5.362705,"is_reserved":false,"is_disabled":false,"rental_uris":{"android":"levelo://app?vid=3a53e1b5-55da-4ce0-ad8b-f7d49f4a5cc0","ios":"levelo://app?vid=3a53e1b5-55da-4ce0-ad8b-f7d49f4a5cc0"},"vehicle_type_id":"4","last_reported":1683558402,"current_range_meters":29600,"station_id":"ce4bhbh2rcd13ifvqeo0","pricing_plan_id":"free"},{"bike_id":"3f956054-a2de-42ad-9559-94cdb162c013","system_id":"levelo_inurba_marseille","lat":43.273609,"lon":5.362708,"is_reserved":false,"is_disabled":false,"rental_uris":{"android":"levelo://app?vid=3f956054-a2de-42ad-9559-94cdb162c013","ios":"levelo://app?vid=3f956054-a2de-42ad-9559-94cdb162c013"},"vehicle_type_id":"4","last_reported":1683558402,"current_range_meters":31600,"station_id":"ce4bhbh2rcd13ifvqeo0","pricing_plan_id":"free"},{"bike_id":"c765cacb-54c6-42e2-8a72-dbc716f9dc90","system_id":"levelo_inurba_marseille","lat":43.273613,"lon":5.362705,"is_reserved":false,"is_disabled":false,"rental_uris":{"android":"levelo://app?vid=c765cacb-54c6-42e2-8a72-dbc716f9dc90","ios":"levelo://app?vid=c765cacb-54c6-42e2-8a72-dbc716f9dc90"},"vehicle_type_id":"4","last_reported":1683558402,"current_range_meters":30400,"station_id":"ce4bhbh2rcd13ifvqeo0","pricing_plan_id":"free"},{"bike_id":"79e92e05-1cde-4218-b66e-b723b9a0f114","system_id":"levelo_inurba_marseille","lat":43.273609,"lon":5.362708,"is_reserved":false,"is_disabled":false,"rental_uris":{"android":"levelo://app?vid=79e92e05-1cde-4218-b66e-b723b9a0f114","ios":"levelo://app?vid=79e92e05-1cde-4218-b66e-b723b9a0f114"},"vehicle_type_id":"4","last_reported":1683558402,"current_range_meters":28800,"station_id":"ce4bhbh2rcd13ifvqeo0","pricing_plan_id":"free"},{"bike_id":"cf3018ed-6993-4780-aac2-e598f7925e5d","system_id":"levelo_inurba_marseille","lat":43.273609,"lon":5.362708,"is_reserved":false,"is_disabled":false,"rental_uris":{"android":"levelo://app?vid=cf3018ed-6993-4780-aac2-e598f7925e5d","ios":"levelo://app?vid=cf3018ed-6993-4780-aac2-e598f7925e5d"},"vehicle_type_id":"4","last_reported":1683558402,"current_range_meters":31600,"station_id":"ce4bhbh2rcd13ifvqeo0","pricing_plan_id":"free"},{"bike_id":"f323656e-029a-43b2-810b-bcfbd370ea1d","system_id":"levelo_inurba_marseille","lat":43.273613,"lon":5.362705,"is_reserved":false,"is_disabled":false,"rental_uris":{"android":"levelo://app?vid=f323656e-029a-43b2-810b-bcfbd370ea1d","ios":"levelo://app?vid=f323656e-029a-43b2-810b-bcfbd370ea1d"},"vehicle_type_id":"4","last_reported":1683558402,"current_range_meters":26000,"station_id":"ce4bhbh2rcd13ifvqeo0","pricing_plan_id":"free"},{"bike_id":"2179a268-5503-4f51-9588-2a7e9a363c93","system_id":"levelo_inurba_marseille","lat":43.27375,"lon":5.36264,"is_reserved":false,"is_disabled":false,"rental_uris":{"android":"levelo://app?vid=2179a268-5503-4f51-9588-2a7e9a363c93","ios":"levelo://app?vid=2179a268-5503-4f51-9588-2a7e9a363c93"},"vehicle_type_id":"4","last_reported":1683558402,"current_range_meters":25600,"station_id":"ce4bhbh2rcd13ifvqeo0","pricing_plan_id":"free"},{"bike_id":"fb6aa1fa-0947-48b2-bed7-a5f1a3958ca7","system_id":"levelo_inurba_marseille","lat":43.273609,"lon":5.362708,"is_reserved":false,"is_disabled":false,"rental_uris":{"android":"levelo://app?vid=fb6aa1fa-0947-48b2-bed7-a5f1a3958ca7","ios":"levelo://app?vid=fb6aa1fa-0947-48b2-bed7-a5f1a3958ca7"},"vehicle_type_id":"4","last_reported":1683558402,"current_range_meters":19600,"station_id":"ce4bhbh2rcd13ifvqeo0","pricing_plan_id":"free"},{"bike_id":"95f7561b-ae16-429b-ac7a-34df559c63be","system_id":"levelo_inurba_marseille","lat":43.27374,"lon":5.36259,"is_reserved":false,"is_disabled":false,"rental_uris":{"android":"levelo://app?vid=95f7561b-ae16-429b-ac7a-34df559c63be","ios":"levelo://app?vid=95f7561b-ae16-429b-ac7a-34df559c63be"},"vehicle_type_id":"4","last_reported":1683558402,"current_range_meters":15200,"station_id":"ce4bhbh2rcd13ifvqeo0","pricing_plan_id":"free"},{"bike_id":"5bc8eca8-3b5b-4ed6-9d2a-30e08b85ae08","system_id":"levelo_inurba_marseille","lat":43.27373,"lon":5.36258,"is_reserved":false,"is_disabled":false,"rental_uris":{"android":"levelo://app?vid=5bc8eca8-3b5b-4ed6-9d2a-30e08b85ae08","ios":"levelo://app?vid=5bc8eca8-3b5b-4ed6-9d2a-30e08b85ae08"},"vehicle_type_id":"4","last_reported":1683558402,"current_range_meters":20000,"station_id":"ce4bhbh2rcd13ifvqeo0","pricing_plan_id":"free"},{"bike_id":"43b6a5d0-c1ed-4018-8aca-98fac210ab3a","system_id":"levelo_inurba_marseille","lat":43.273609,"lon":5.362708,"is_reserved":false,"is_disabled":false,"rental_uris":{"android":"levelo://app?vid=43b6a5d0-c1ed-4018-8aca-98fac210ab3a","ios":"levelo://app?vid=43b6a5d0-c1ed-4018-8aca-98fac210ab3a"},"vehicle_type_id":"4","last_reported":1683558402,"current_range_meters":31600,"station_id":"ce4bhbh2rcd13ifvqeo0","pricing_plan_id":"free"},{"bike_id":"5c45b351-8e45-4ce5-b467-e516e498c069","system_id":"levelo_inurba_marseille","lat":43.273609,"lon":5.362708,"is_reserved":false,"is_disabled":false,"rental_uris":{"android":"levelo://app?vid=5c45b351-8e45-4ce5-b467-e516e498c069","ios":"levelo://app?vid=5c45b351-8e45-4ce5-b467-e516e498c069"},"vehicle_type_id":"4","last_reported":1683558402,"current_range_meters":26800,"station_id":"ce4bhbh2rcd13ifvqeo0","pricing_plan_id":"free"},{"bike_id":"58d25a49-f622-4129-ae7c-1c754fb2c98e","system_id":"levelo_inurba_marseille","lat":43.273609,"lon":5.362708,"is_reserved":false,"is_disabled":false,"rental_uris":{"android":"levelo://app?vid=58d25a49-f622-4129-ae7c-1c754fb2c98e","ios":"levelo://app?vid=58d25a49-f622-4129-ae7c-1c754fb2c98e"},"vehicle_type_id":"4","last_reported":1683558402,"current_range_meters":31200,"station_id":"ce4bhbh2rcd13ifvqeo0","pricing_plan_id":"free"},{"bike_id":"76ef355f-74b8-47d2-9b28-d9e761985f63","system_id":"levelo_inurba_marseille","lat":43.27372,"lon":5.36257,"is_reserved":false,"is_disabled":false,"rental_uris":{"android":"levelo://app?vid=76ef355f-74b8-47d2-9b28-d9e761985f63","ios":"levelo://app?vid=76ef355f-74b8-47d2-9b28-d9e761985f63"},"vehicle_type_id":"4","last_reported":1683558402,"current_range_meters":19200,"station_id":"ce4bhbh2rcd13ifvqeo0","pricing_plan_id":"free"},{"bike_id":"5468653c-6058-4968-a126-fc1b5af8e921","system_id":"levelo_inurba_marseille","lat":43.273609,"lon":5.362708,"is_reserved":false,"is_disabled":false,"rental_uris":{"android":"levelo://app?vid=5468653c-6058-4968-a126-fc1b5af8e921","ios":"levelo://app?vid=5468653c-6058-4968-a126-fc1b5af8e921"},"vehicle_type_id":"4","last_reported":1683558402,"current_range_meters":22000,"station_id":"ce4bhbh2rcd13ifvqeo0","pricing_plan_id":"free"},{"bike_id":"e54c0d44-d0a2-49bd-a589-85ea57c174d4","system_id":"levelo_inurba_marseille","lat":43.2737,"lon":5.36254,"is_reserved":false,"is_disabled":false,"rental_uris":{"android":"levelo://app?vid=e54c0d44-d0a2-49bd-a589-85ea57c174d4","ios":"levelo://app?vid=e54c0d44-d0a2-49bd-a589-85ea57c174d4"},"vehicle_type_id":"4","last_reported":1683558402,"current_range_meters":22000,"station_id":"ce4bhbh2rcd13ifvqeo0","pricing_plan_id":"free"},{"bike_id":"69ee5d4c-8c57-4a26-a0f0-487ab775577e","system_id":"levelo_inurba_marseille","lat":43.27369,"lon":5.36255,"is_reserved":false,"is_disabled":false,"rental_uris":{"android":"levelo://app?vid=69ee5d4c-8c57-4a26-a0f0-487ab775577e","ios":"levelo://app?vid=69ee5d4c-8c57-4a26-a0f0-487ab775577e"},"vehicle_type_id":"4","last_reported":1683558402,"current_range_meters":20400,"station_id":"ce4bhbh2rcd13ifvqeo0","pricing_plan_id":"free"},{"bike_id":"294be055-4880-4192-b473-b96a84442a5d","system_id":"levelo_inurba_marseille","lat":43.27364,"lon":5.36251,"is_reserved":false,"is_disabled":false,"rental_uris":{"android":"levelo://app?vid=294be055-4880-4192-b473-b96a84442a5d","ios":"levelo://app?vid=294be055-4880-4192-b473-b96a84442a5d"},"vehicle_type_id":"4","last_reported":1683558402,"current_range_meters":31200,"station_id":"ce4bhbh2rcd13ifvqeo0","pricing_plan_id":"free"},{"bike_id":"ccafe208-7214-4c6d-96e2-e583918b246c","system_id":"levelo_inurba_marseille","lat":43.276769,"lon":5.388787,"is_reserved":false,"is_disabled":false,"rental_uris":{"android":"levelo://app?vid=ccafe208-7214-4c6d-96e2-e583918b246c","ios":"levelo://app?vid=ccafe208-7214-4c6d-96e2-e583918b246c"},"vehicle_type_id":"4","last_reported":1683558402,"current_range_meters":24800,"station_id":"ce4bhi12rcd13ifvqfo0","pricing_plan_id":"free"},{"bike_id":"a2c5c09d-00a8-479e-a7cf-40f1ec6f6f44","system_id":"levelo_inurba_marseille","lat":43.27359,"lon":5.36242,"is_reserved":false,"is_disabled":false,"rental_uris":{"android":"levelo://app?vid=a2c5c09d-00a8-479e-a7cf-40f1ec6f6f44","ios":"levelo://app?vid=a2c5c09d-00a8-479e-a7cf-40f1ec6f6f44"},"vehicle_type_id":"4","last_reported":1683558402,"current_range_meters":13600,"station_id":"ce4bhbh2rcd13ifvqeo0","pricing_plan_id":"free"},{"bike_id":"58edf1c4-af94-4a6b-b2e1-4ecec8722171","system_id":"levelo_inurba_marseille","lat":43.27676,"lon":5.38894,"is_reserved":false,"is_disabled":false,"rental_uris":{"android":"levelo://app?vid=58edf1c4-af94-4a6b-b2e1-4ecec8722171","ios":"levelo://app?vid=58edf1c4-af94-4a6b-b2e1-4ecec8722171"},"vehicle_type_id":"4","last_reported":1683558402,"current_range_meters":0,"station_id":"ce4bhi12rcd13ifvqfo0","pricing_plan_id":"free"},{"bike_id":"3c74701a-f6a0-435d-9b34-35e94fed7183","system_id":"levelo_inurba_marseille","lat":43.3279,"lon":5.41795,"is_reserved":false,"is_disabled":false,"rental_uris":{"android":"levelo://app?vid=3c74701a-f6a0-435d-9b34-35e94fed7183","ios":"levelo://app?vid=3c74701a-f6a0-435d-9b34-35e94fed7183"},"vehicle_type_id":"4","last_reported":1683558402,"current_range_meters":13200,"station_id":"","pricing_plan_id":"free"},{"bike_id":"56460abe-93fd-4347-9359-06676c50ed5b","system_id":"levelo_inurba_marseille","lat":43.310785,"lon":5.424305,"is_reserved":false,"is_disabled":false,"rental_uris":{"android":"levelo://app?vid=56460abe-93fd-4347-9359-06676c50ed5b","ios":"levelo://app?vid=56460abe-93fd-4347-9359-06676c50ed5b"},"vehicle_type_id":"4","last_reported":1683558402,"current_range_meters":28000,"station_id":"ce4bhp92rcd13ifvqhag","pricing_plan_id":"free"},{"bike_id":"db3dca1b-0d01-4ca7-838c-23ee8a122c54","system_id":"levelo_inurba_marseille","lat":43.31717,"lon":5.424,"is_reserved":false,"is_disabled":false,"rental_uris":{"android":"levelo://app?vid=db3dca1b-0d01-4ca7-838c-23ee8a122c54","ios":"levelo://app?vid=db3dca1b-0d01-4ca7-838c-23ee8a122c54"},"vehicle_type_id":"4","last_reported":1683558402,"current_range_meters":23200,"station_id":"ce4bhp92rcd13ifvqhbg","pricing_plan_id":"free"},{"bike_id":"687ac03d-a5c0-4259-9591-cb0a98ee6881","system_id":"levelo_inurba_marseille","lat":43.3172,"lon":5.424,"is_reserved":false,"is_disabled":false,"rental_uris":{"android":"levelo://app?vid=687ac03d-a5c0-4259-9591-cb0a98ee6881","ios":"levelo://app?vid=687ac03d-a5c0-4259-9591-cb0a98ee6881"},"vehicle_type_id":"4","last_reported":1683558402,"current_range_meters":18800,"station_id":"ce4bhp92rcd13ifvqhbg","pricing_plan_id":"free"},{"bike_id":"fec8f199-6d7e-44f7-8d32-1436fee6581b","system_id":"levelo_inurba_marseille","lat":43.310785,"lon":5.424305,"is_reserved":false,"is_disabled":false,"rental_uris":{"android":"levelo://app?vid=fec8f199-6d7e-44f7-8d32-1436fee6581b","ios":"levelo://app?vid=fec8f199-6d7e-44f7-8d32-1436fee6581b"},"vehicle_type_id":"4","last_reported":1683558402,"current_range_meters":29600,"station_id":"ce4bhp92rcd13ifvqhag","pricing_plan_id":"free"},{"bike_id":"83d90a67-703a-47e9-a0c8-486659e4ab33","system_id":"levelo_inurba_marseille","lat":43.310785,"lon":5.424305,"is_reserved":false,"is_disabled":false,"rental_uris":{"android":"levelo://app?vid=83d90a67-703a-47e9-a0c8-486659e4ab33","ios":"levelo://app?vid=83d90a67-703a-47e9-a0c8-486659e4ab33"},"vehicle_type_id":"4","last_reported":1683558402,"current_range_meters":31600,"station_id":"ce4bhp92rcd13ifvqhag","pricing_plan_id":"free"},{"bike_id":"d272d8d7-f915-4306-a0e5-3a4bd497ecb8","system_id":"levelo_inurba_marseille","lat":43.310785,"lon":5.424305,"is_reserved":false,"is_disabled":false,"rental_uris":{"android":"levelo://app?vid=d272d8d7-f915-4306-a0e5-3a4bd497ecb8","ios":"levelo://app?vid=d272d8d7-f915-4306-a0e5-3a4bd497ecb8"},"vehicle_type_id":"4","last_reported":1683558402,"current_range_meters":20800,"station_id":"ce4bhp92rcd13ifvqhag","pricing_plan_id":"free"},{"bike_id":"cdd66801-a1f5-4bed-847d-ccd1e7a4bc49","system_id":"levelo_inurba_marseille","lat":43.310785,"lon":5.424305,"is_reserved":false,"is_disabled":false,"rental_uris":{"android":"levelo://app?vid=cdd66801-a1f5-4bed-847d-ccd1e7a4bc49","ios":"levelo://app?vid=cdd66801-a1f5-4bed-847d-ccd1e7a4bc49"},"vehicle_type_id":"4","last_reported":1683558402,"current_range_meters":31600,"station_id":"ce4bhp92rcd13ifvqhag","pricing_plan_id":"free"},{"bike_id":"cb9d5d3e-40f5-4904-b651-335b32bb320b","system_id":"levelo_inurba_marseille","lat":43.26995,"lon":5.36569,"is_reserved":false,"is_disabled":false,"rental_uris":{"android":"levelo://app?vid=cb9d5d3e-40f5-4904-b651-335b32bb320b","ios":"levelo://app?vid=cb9d5d3e-40f5-4904-b651-335b32bb320b"},"vehicle_type_id":"4","last_reported":1683558402,"current_range_meters":18000,"station_id":"ce4bhgp2rcd13ifvqfe0","pricing_plan_id":"free"},{"bike_id":"660924fb-690c-4713-983f-83134378120c","system_id":"levelo_inurba_marseille","lat":43.29553,"lon":5.42285,"is_reserved":false,"is_disabled":false,"rental_uris":{"android":"levelo://app?vid=660924fb-690c-4713-983f-83134378120c","ios":"levelo://app?vid=660924fb-690c-4713-983f-83134378120c"},"vehicle_type_id":"4","last_reported":1683558402,"current_range_meters":31200,"station_id":"","pricing_plan_id":"free"},{"bike_id":"04d6f401-2a9c-4013-9d0e-0ab17841ecf2","system_id":"levelo_inurba_marseille","lat":43.29554,"lon":5.42287,"is_reserved":false,"is_disabled":false,"rental_uris":{"android":"levelo://app?vid=04d6f401-2a9c-4013-9d0e-0ab17841ecf2","ios":"levelo://app?vid=04d6f401-2a9c-4013-9d0e-0ab17841ecf2"},"vehicle_type_id":"4","last_reported":1683558402,"current_range_meters":31200,"station_id":"","pricing_plan_id":"free"},{"bike_id":"a09b5167-4a4a-4e38-8b9d-47cee2412737","system_id":"levelo_inurba_marseille","lat":43.29555,"lon":5.42289,"is_reserved":false,"is_disabled":false,"rental_uris":{"android":"levelo://app?vid=a09b5167-4a4a-4e38-8b9d-47cee2412737","ios":"levelo://app?vid=a09b5167-4a4a-4e38-8b9d-47cee2412737"},"vehicle_type_id":"4","last_reported":1683558402,"current_range_meters":6800,"station_id":"","pricing_plan_id":"free"},{"bike_id":"ce740067-c5a0-4408-becc-e9f5878ba7e4","system_id":"levelo_inurba_marseille","lat":43.27004,"lon":5.38771,"is_reserved":false,"is_disabled":false,"rental_uris":{"android":"levelo://app?vid=ce740067-c5a0-4408-becc-e9f5878ba7e4","ios":"levelo://app?vid=ce740067-c5a0-4408-becc-e9f5878ba7e4"},"vehicle_type_id":"4","last_reported":1683558402,"current_range_meters":13200,"station_id":"","pricing_plan_id":"free"},{"bike_id":"22e38652-287a-410d-a584-c44bb2c58d4f","system_id":"levelo_inurba_marseille","lat":43.27813,"lon":5.40726,"is_reserved":false,"is_disabled":false,"rental_uris":{"android":"levelo://app?vid=22e38652-287a-410d-a584-c44bb2c58d4f","ios":"levelo://app?vid=22e38652-287a-410d-a584-c44bb2c58d4f"},"vehicle_type_id":"4","last_reported":1683558402,"current_range_meters":0,"station_id":"ce4bhnh2rcd13ifvqgtg","pricing_plan_id":"free"},{"bike_id":"3efc1025-5f85-444e-8a13-c68c18d4b4f0","system_id":"levelo_inurba_marseille","lat":43.265714,"lon":5.372891,"is_reserved":false,"is_disabled":false,"rental_uris":{"android":"levelo://app?vid=3efc1025-5f85-444e-8a13-c68c18d4b4f0","ios":"levelo://app?vid=3efc1025-5f85-444e-8a13-c68c18d4b4f0"},"vehicle_type_id":"4","last_reported":1683558402,"current_range_meters":25600,"station_id":"ce4bhg12rcd13ifvqf70","pricing_plan_id":"free"},{"bike_id":"51a3e0ce-9872-4426-a3ca-9c97614c0201","system_id":"levelo_inurba_marseille","lat":43.265714,"lon":5.372891,"is_reserved":false,"is_disabled":false,"rental_uris":{"android":"levelo://app?vid=51a3e0ce-9872-4426-a3ca-9c97614c0201","ios":"levelo://app?vid=51a3e0ce-9872-4426-a3ca-9c97614c0201"},"vehicle_type_id":"4","last_reported":1683558402,"current_range_meters":16800,"station_id":"ce4bhg12rcd13ifvqf70","pricing_plan_id":"free"},{"bike_id":"10efaeeb-5aca-4cfd-8226-12af6e093dfa","system_id":"levelo_inurba_marseille","lat":43.28001,"lon":5.41665,"is_reserved":false,"is_disabled":false,"rental_uris":{"android":"levelo://app?vid=10efaeeb-5aca-4cfd-8226-12af6e093dfa","ios":"levelo://app?vid=10efaeeb-5aca-4cfd-8226-12af6e093dfa"},"vehicle_type_id":"4","last_reported":1683558402,"current_range_meters":4800,"station_id":"","pricing_plan_id":"free"},{"bike_id":"360fd781-5509-4789-97ba-ec85bcc6f829","system_id":"levelo_inurba_marseille","lat":43.27996,"lon":5.416624,"is_reserved":false,"is_disabled":false,"rental_uris":{"android":"levelo://app?vid=360fd781-5509-4789-97ba-ec85bcc6f829","ios":"levelo://app?vid=360fd781-5509-4789-97ba-ec85bcc6f829"},"vehicle_type_id":"4","last_reported":1683558402,"current_range_meters":13600,"station_id":"ce4bho12rcd13ifvqh1g","pricing_plan_id":"free"},{"bike_id":"1b017ee9-1f3e-43c5-9a49-5bc2725481ed","system_id":"levelo_inurba_marseille","lat":43.267966,"lon":5.393976,"is_reserved":false,"is_disabled":false,"rental_uris":{"android":"levelo://app?vid=1b017ee9-1f3e-43c5-9a49-5bc2725481ed","ios":"levelo://app?vid=1b017ee9-1f3e-43c5-9a49-5bc2725481ed"},"vehicle_type_id":"4","last_reported":1683558402,"current_range_meters":14400,"station_id":"ce4bhh12rcd13ifvqfg0","pricing_plan_id":"free"},{"bike_id":"910de505-88a4-493b-a1ae-718607826ac1","system_id":"levelo_inurba_marseille","lat":43.29559,"lon":5.43292,"is_reserved":false,"is_disabled":false,"rental_uris":{"android":"levelo://app?vid=910de505-88a4-493b-a1ae-718607826ac1","ios":"levelo://app?vid=910de505-88a4-493b-a1ae-718607826ac1"},"vehicle_type_id":"4","last_reported":1683558402,"current_range_meters":0,"station_id":"","pricing_plan_id":"free"},{"bike_id":"68ac60b5-6185-4465-a033-cdc43e06fefb","system_id":"levelo_inurba_marseille","lat":43.317104,"lon":5.436818,"is_reserved":false,"is_disabled":false,"rental_uris":{"android":"levelo://app?vid=68ac60b5-6185-4465-a033-cdc43e06fefb","ios":"levelo://app?vid=68ac60b5-6185-4465-a033-cdc43e06fefb"},"vehicle_type_id":"4","last_reported":1683558402,"current_range_meters":14000,"station_id":"ce4bhp92rcd13ifvqhcg","pricing_plan_id":"free"},{"bike_id":"e9222a58-7a6e-4a5c-9bab-45703ef87a9b","system_id":"levelo_inurba_marseille","lat":43.267959,"lon":5.402685,"is_reserved":false,"is_disabled":false,"rental_uris":{"android":"levelo://app?vid=e9222a58-7a6e-4a5c-9bab-45703ef87a9b","ios":"levelo://app?vid=e9222a58-7a6e-4a5c-9bab-45703ef87a9b"},"vehicle_type_id":"4","last_reported":1683558402,"current_range_meters":12400,"station_id":"ce501612rcd8frsf0b60","pricing_plan_id":"free"},{"bike_id":"dc6422e2-b4c8-4201-9b50-a18230a3c8d1","system_id":"levelo_inurba_marseille","lat":43.267959,"lon":5.402687,"is_reserved":false,"is_disabled":false,"rental_uris":{"android":"levelo://app?vid=dc6422e2-b4c8-4201-9b50-a18230a3c8d1","ios":"levelo://app?vid=dc6422e2-b4c8-4201-9b50-a18230a3c8d1"},"vehicle_type_id":"4","last_reported":1683558402,"current_range_meters":11600,"station_id":"ce501612rcd8frsf0b60","pricing_plan_id":"free"},{"bike_id":"98d9a725-d866-4e15-88a0-10eaccf6ddc4","system_id":"levelo_inurba_marseille","lat":43.26802,"lon":5.40265,"is_reserved":false,"is_disabled":false,"rental_uris":{"android":"levelo://app?vid=98d9a725-d866-4e15-88a0-10eaccf6ddc4","ios":"levelo://app?vid=98d9a725-d866-4e15-88a0-10eaccf6ddc4"},"vehicle_type_id":"4","last_reported":1683558402,"current_range_meters":1600,"station_id":"ce501612rcd8frsf0b60","pricing_plan_id":"free"},{"bike_id":"decf0676-d4e1-4a03-b302-8f35c3f2e14d","system_id":"levelo_inurba_marseille","lat":43.298768,"lon":5.43643,"is_reserved":false,"is_disabled":false,"rental_uris":{"android":"levelo://app?vid=decf0676-d4e1-4a03-b302-8f35c3f2e14d","ios":"levelo://app?vid=decf0676-d4e1-4a03-b302-8f35c3f2e14d"},"vehicle_type_id":"4","last_reported":1683558402,"current_range_meters":31600,"station_id":"ce4bhpp2rcd13ifvqhfg","pricing_plan_id":"free"},{"bike_id":"03fd24f9-8427-4343-9c30-b8632c126f48","system_id":"levelo_inurba_marseille","lat":43.298768,"lon":5.43643,"is_reserved":false,"is_disabled":false,"rental_uris":{"android":"levelo://app?vid=03fd24f9-8427-4343-9c30-b8632c126f48","ios":"levelo://app?vid=03fd24f9-8427-4343-9c30-b8632c126f48"},"vehicle_type_id":"4","last_reported":1683558402,"current_range_meters":31600,"station_id":"ce4bhpp2rcd13ifvqhfg","pricing_plan_id":"free"},{"bike_id":"ce9cc9d3-5ba1-484b-82eb-af33311d57be","system_id":"levelo_inurba_marseille","lat":43.298768,"lon":5.43643,"is_reserved":false,"is_disabled":false,"rental_uris":{"android":"levelo://app?vid=ce9cc9d3-5ba1-484b-82eb-af33311d57be","ios":"levelo://app?vid=ce9cc9d3-5ba1-484b-82eb-af33311d57be"},"vehicle_type_id":"4","last_reported":1683558402,"current_range_meters":31600,"station_id":"ce4bhpp2rcd13ifvqhfg","pricing_plan_id":"free"},{"bike_id":"6631430c-3572-4b30-8911-9f0a88133a74","system_id":"levelo_inurba_marseille","lat":43.298768,"lon":5.43643,"is_reserved":false,"is_disabled":false,"rental_uris":{"android":"levelo://app?vid=6631430c-3572-4b30-8911-9f0a88133a74","ios":"levelo://app?vid=6631430c-3572-4b30-8911-9f0a88133a74"},"vehicle_type_id":"4","last_reported":1683558402,"current_range_meters":28000,"station_id":"ce4bhpp2rcd13ifvqhfg","pricing_plan_id":"free"},{"bike_id":"66f5e184-f093-4fe1-8a88-7e1e061b915f","system_id":"levelo_inurba_marseille","lat":43.26013,"lon":5.37538,"is_reserved":false,"is_disabled":false,"rental_uris":{"android":"levelo://app?vid=66f5e184-f093-4fe1-8a88-7e1e061b915f","ios":"levelo://app?vid=66f5e184-f093-4fe1-8a88-7e1e061b915f"},"vehicle_type_id":"4","last_reported":1683558402,"current_range_meters":15200,"station_id":"","pricing_plan_id":"free"},{"bike_id":"bc7c6da2-1e67-46e5-be0c-f4b62cc6f7e5","system_id":"levelo_inurba_marseille","lat":43.2607,"lon":5.393983,"is_reserved":false,"is_disabled":false,"rental_uris":{"android":"levelo://app?vid=bc7c6da2-1e67-46e5-be0c-f4b62cc6f7e5","ios":"levelo://app?vid=bc7c6da2-1e67-46e5-be0c-f4b62cc6f7e5"},"vehicle_type_id":"4","last_reported":1683558402,"current_range_meters":16000,"station_id":"ce4bhh92rcd13ifvqfj0","pricing_plan_id":"free"},{"bike_id":"2646de82-7b1e-46b0-9ecf-38daafb57885","system_id":"levelo_inurba_marseille","lat":43.26385,"lon":5.40563,"is_reserved":false,"is_disabled":false,"rental_uris":{"android":"levelo://app?vid=2646de82-7b1e-46b0-9ecf-38daafb57885","ios":"levelo://app?vid=2646de82-7b1e-46b0-9ecf-38daafb57885"},"vehicle_type_id":"4","last_reported":1683558402,"current_range_meters":18000,"station_id":"","pricing_plan_id":"free"},{"bike_id":"13c09b9b-100d-48a4-9ad2-ec3d529ead1d","system_id":"levelo_inurba_marseille","lat":43.254947,"lon":5.376454,"is_reserved":false,"is_disabled":false,"rental_uris":{"android":"levelo://app?vid=13c09b9b-100d-48a4-9ad2-ec3d529ead1d","ios":"levelo://app?vid=13c09b9b-100d-48a4-9ad2-ec3d529ead1d"},"vehicle_type_id":"4","last_reported":1683558402,"current_range_meters":11200,"station_id":"ce4bhh12rcd13ifvqff0","pricing_plan_id":"free"},{"bike_id":"754bc950-1a0a-4a19-8bd3-e46a4285dd9e","system_id":"levelo_inurba_marseille","lat":43.254945,"lon":5.376454,"is_reserved":false,"is_disabled":false,"rental_uris":{"android":"levelo://app?vid=754bc950-1a0a-4a19-8bd3-e46a4285dd9e","ios":"levelo://app?vid=754bc950-1a0a-4a19-8bd3-e46a4285dd9e"},"vehicle_type_id":"4","last_reported":1683558402,"current_range_meters":2400,"station_id":"ce4bhh12rcd13ifvqff0","pricing_plan_id":"free"},{"bike_id":"ab3ee75b-89b8-4ef7-8839-78d172f169e4","system_id":"levelo_inurba_marseille","lat":43.254945,"lon":5.376454,"is_reserved":false,"is_disabled":false,"rental_uris":{"android":"levelo://app?vid=ab3ee75b-89b8-4ef7-8839-78d172f169e4","ios":"levelo://app?vid=ab3ee75b-89b8-4ef7-8839-78d172f169e4"},"vehicle_type_id":"4","last_reported":1683558402,"current_range_meters":3600,"station_id":"ce4bhh12rcd13ifvqff0","pricing_plan_id":"free"},{"bike_id":"884999ea-dcdd-4a70-8468-57fd90a70c95","system_id":"levelo_inurba_marseille","lat":43.254945,"lon":5.376454,"is_reserved":false,"is_disabled":false,"rental_uris":{"android":"levelo://app?vid=884999ea-dcdd-4a70-8468-57fd90a70c95","ios":"levelo://app?vid=884999ea-dcdd-4a70-8468-57fd90a70c95"},"vehicle_type_id":"4","last_reported":1683558402,"current_range_meters":0,"station_id":"ce4bhh12rcd13ifvqff0","pricing_plan_id":"free"},{"bike_id":"24a54cbb-8edb-49b1-b327-73e3925500b3","system_id":"levelo_inurba_marseille","lat":43.254947,"lon":5.376454,"is_reserved":false,"is_disabled":false,"rental_uris":{"android":"levelo://app?vid=24a54cbb-8edb-49b1-b327-73e3925500b3","ios":"levelo://app?vid=24a54cbb-8edb-49b1-b327-73e3925500b3"},"vehicle_type_id":"4","last_reported":1683558402,"current_range_meters":31200,"station_id":"ce4bhh12rcd13ifvqff0","pricing_plan_id":"free"},{"bike_id":"8fdfa448-b182-41a2-9859-0403f506fc45","system_id":"levelo_inurba_marseille","lat":43.25496,"lon":5.37647,"is_reserved":false,"is_disabled":false,"rental_uris":{"android":"levelo://app?vid=8fdfa448-b182-41a2-9859-0403f506fc45","ios":"levelo://app?vid=8fdfa448-b182-41a2-9859-0403f506fc45"},"vehicle_type_id":"4","last_reported":1683558402,"current_range_meters":29200,"station_id":"ce4bhh12rcd13ifvqff0","pricing_plan_id":"free"},{"bike_id":"0b039435-caed-44de-8d43-5c32705ea102","system_id":"levelo_inurba_marseille","lat":43.25496,"lon":5.37654,"is_reserved":false,"is_disabled":false,"rental_uris":{"android":"levelo://app?vid=0b039435-caed-44de-8d43-5c32705ea102","ios":"levelo://app?vid=0b039435-caed-44de-8d43-5c32705ea102"},"vehicle_type_id":"4","last_reported":1683558402,"current_range_meters":23600,"station_id":"ce4bhh12rcd13ifvqff0","pricing_plan_id":"free"},{"bike_id":"54bab31b-e110-46da-9f4b-35deeaf66c94","system_id":"levelo_inurba_marseille","lat":43.254945,"lon":5.376454,"is_reserved":false,"is_disabled":false,"rental_uris":{"android":"levelo://app?vid=54bab31b-e110-46da-9f4b-35deeaf66c94","ios":"levelo://app?vid=54bab31b-e110-46da-9f4b-35deeaf66c94"},"vehicle_type_id":"4","last_reported":1683558402,"current_range_meters":7600,"station_id":"ce4bhh12rcd13ifvqff0","pricing_plan_id":"free"},{"bike_id":"1356c8a7-98f8-477a-9f65-5b2d52b8ccc5","system_id":"levelo_inurba_marseille","lat":43.25491,"lon":5.37645,"is_reserved":false,"is_disabled":false,"rental_uris":{"android":"levelo://app?vid=1356c8a7-98f8-477a-9f65-5b2d52b8ccc5","ios":"levelo://app?vid=1356c8a7-98f8-477a-9f65-5b2d52b8ccc5"},"vehicle_type_id":"4","last_reported":1683558402,"current_range_meters":0,"station_id":"ce4bhh12rcd13ifvqff0","pricing_plan_id":"free"},{"bike_id":"4cca0b68-df36-4087-a743-a3f6b531b7ce","system_id":"levelo_inurba_marseille","lat":43.270721,"lon":5.422764,"is_reserved":false,"is_disabled":false,"rental_uris":{"android":"levelo://app?vid=4cca0b68-df36-4087-a743-a3f6b531b7ce","ios":"levelo://app?vid=4cca0b68-df36-4087-a743-a3f6b531b7ce"},"vehicle_type_id":"4","last_reported":1683558402,"current_range_meters":21600,"station_id":"ce4bhk92rcd13ifvqgb0","pricing_plan_id":"free"},{"bike_id":"6ef7dd19-c417-4de9-8dfb-c72c18290c1b","system_id":"levelo_inurba_marseille","lat":43.270721,"lon":5.422764,"is_reserved":false,"is_disabled":false,"rental_uris":{"android":"levelo://app?vid=6ef7dd19-c417-4de9-8dfb-c72c18290c1b","ios":"levelo://app?vid=6ef7dd19-c417-4de9-8dfb-c72c18290c1b"},"vehicle_type_id":"4","last_reported":1683558402,"current_range_meters":16800,"station_id":"ce4bhk92rcd13ifvqgb0","pricing_plan_id":"free"},{"bike_id":"84b720ba-9a74-42ba-811d-3db96cbd5aff","system_id":"levelo_inurba_marseille","lat":43.25942,"lon":5.40907,"is_reserved":false,"is_disabled":false,"rental_uris":{"android":"levelo://app?vid=84b720ba-9a74-42ba-811d-3db96cbd5aff","ios":"levelo://app?vid=84b720ba-9a74-42ba-811d-3db96cbd5aff"},"vehicle_type_id":"4","last_reported":1683558402,"current_range_meters":17600,"station_id":"","pricing_plan_id":"free"},{"bike_id":"bcef3dea-3664-4629-818d-54a087021ba7","system_id":"levelo_inurba_marseille","lat":43.25935,"lon":5.40916,"is_reserved":false,"is_disabled":false,"rental_uris":{"android":"levelo://app?vid=bcef3dea-3664-4629-818d-54a087021ba7","ios":"levelo://app?vid=bcef3dea-3664-4629-818d-54a087021ba7"},"vehicle_type_id":"4","last_reported":1683558402,"current_range_meters":6000,"station_id":"","pricing_plan_id":"free"},{"bike_id":"ac326367-97ba-4d2f-9ef8-5d9f03356e7f","system_id":"levelo_inurba_marseille","lat":43.25007,"lon":5.38911,"is_reserved":false,"is_disabled":false,"rental_uris":{"android":"levelo://app?vid=ac326367-97ba-4d2f-9ef8-5d9f03356e7f","ios":"levelo://app?vid=ac326367-97ba-4d2f-9ef8-5d9f03356e7f"},"vehicle_type_id":"4","last_reported":1683558402,"current_range_meters":3600,"station_id":"ce4bhgp2rcd13ifvqfd0","pricing_plan_id":"free"},{"bike_id":"f0910757-43a3-4e39-b45b-d1db13b01459","system_id":"levelo_inurba_marseille","lat":43.24815,"lon":5.37461,"is_reserved":false,"is_disabled":false,"rental_uris":{"android":"levelo://app?vid=f0910757-43a3-4e39-b45b-d1db13b01459","ios":"levelo://app?vid=f0910757-43a3-4e39-b45b-d1db13b01459"},"vehicle_type_id":"4","last_reported":1683558402,"current_range_meters":0,"station_id":"","pricing_plan_id":"free"},{"bike_id":"5a1f7d46-9bb9-49a1-b5c8-c67b23eb2df4","system_id":"levelo_inurba_marseille","lat":43.2479,"lon":5.374457,"is_reserved":false,"is_disabled":false,"rental_uris":{"android":"levelo://app?vid=5a1f7d46-9bb9-49a1-b5c8-c67b23eb2df4","ios":"levelo://app?vid=5a1f7d46-9bb9-49a1-b5c8-c67b23eb2df4"},"vehicle_type_id":"4","last_reported":1683558402,"current_range_meters":0,"station_id":"ce4bhgh2rcd13ifvqfb0","pricing_plan_id":"free"},{"bike_id":"254c7ca2-5533-405d-a94e-3856855e829d","system_id":"levelo_inurba_marseille","lat":43.2479,"lon":5.374457,"is_reserved":false,"is_disabled":false,"rental_uris":{"android":"levelo://app?vid=254c7ca2-5533-405d-a94e-3856855e829d","ios":"levelo://app?vid=254c7ca2-5533-405d-a94e-3856855e829d"},"vehicle_type_id":"4","last_reported":1683558402,"current_range_meters":0,"station_id":"ce4bhgh2rcd13ifvqfb0","pricing_plan_id":"free"},{"bike_id":"bb4ef77a-0ae3-4e4d-9c8f-57891ab17b40","system_id":"levelo_inurba_marseille","lat":43.2479,"lon":5.374457,"is_reserved":false,"is_disabled":false,"rental_uris":{"android":"levelo://app?vid=bb4ef77a-0ae3-4e4d-9c8f-57891ab17b40","ios":"levelo://app?vid=bb4ef77a-0ae3-4e4d-9c8f-57891ab17b40"},"vehicle_type_id":"4","last_reported":1683558402,"current_range_meters":8800,"station_id":"ce4bhgh2rcd13ifvqfb0","pricing_plan_id":"free"},{"bike_id":"57bbf864-ad12-454d-8fa7-28290ebde209","system_id":"levelo_inurba_marseille","lat":43.2479,"lon":5.374457,"is_reserved":false,"is_disabled":false,"rental_uris":{"android":"levelo://app?vid=57bbf864-ad12-454d-8fa7-28290ebde209","ios":"levelo://app?vid=57bbf864-ad12-454d-8fa7-28290ebde209"},"vehicle_type_id":"4","last_reported":1683558402,"current_range_meters":31600,"station_id":"ce4bhgh2rcd13ifvqfb0","pricing_plan_id":"free"},