{"last_updated":1761642713,"ttl":60,"version":"2.2","data":{"bikes":[{"bike_id":"6a559b90-de2f-484c-84d8-ede2111374f2","system_id":"levelo_inurba_marseille","lat":43.24079,"lon":5.37742,"is_reserved":false,"is_disabled":false,"rental_uris":{"android":"levelo://app?vid=6a559b90-de2f-484c-84d8-ede2111374f2","ios":"levelo://app?vid=6a559b90-de2f-484c-84d8-ede2111374f2"},"vehicle_type_id":"4","last_reported":1761642713,"current_range_meters":2800,"station_id":"ce4bhnp2rcd13ifvqgvg","pricing_plan_id":"cebpf4jnsgd1na2vs0mg"},{"bike_id":"7f485983-de5f-4351-a1e6-48f1911505fa","system_id":"levelo_inurba_marseille","lat":43.24656,"lon":5.38156,"is_reserved":false,"is_disabled":false,"rental_uris":{"android":"levelo://app?vid=7f485983-de5f-4351-a1e6-48f1911505fa","ios":"levelo://app?vid=7f485983-de5f-4351-a1e6-48f1911505fa"},"vehicle_type_id":"4","last_reported":1761642713,"current_range_meters":2800,"station_id":"ce4bhih2rcd13ifvqfr0","pricing_plan_id":"cebpf4jnsgd1na2vs0mg"},{"bike_id":"d4062ec3-e55d-4739-8d85-5351cae9cfdd","system_id":"levelo_inurba_marseille","lat":43.2979,"lon":5.37092,"is_reserved":false,"is_disabled":false,"rental_uris":{"android":"levelo://app?vid=d4062ec3-e55d-4739-8d85-5351cae9cfdd","ios":"levelo://app?vid=d4062ec3-e55d-4739-8d85-5351cae9cfdd"},"vehicle_type_id":"4","last_reported":1761642713,"current_range_meters":3200,"station_id":"ce4bgop2rcd13ifvqc1g","pricing_plan_id":"cebpf4jnsgd1na2vs0mg"},{"bike_id":"ca1c602e-df5f-4e08-aad7-43ca8ba1f695","system_id":"levelo_inurba_marseille","lat":43.27204,"lon":5.3917,"is_reserved":false,"is_disabled":false,"rental_uris":{"android":"levelo://app?vid=ca1c602e-df5f-4e08-aad7-43ca8ba1f695","ios":"levelo://app?vid=ca1c602e-df5f-4e08-aad7-43ca8ba1f695"},"vehicle_type_id":"4","last_reported":1761642713,"current_range_meters":3200,"station_id":"ce4bhhp2rcd13ifvqfm0","pricing_plan_id":"cebpf4jnsgd1na2vs0mg"},{"bike_id":"dd539c3d-8244-460c-97df-764a86a3f675","system_id":"levelo_inurba_marseille","lat":43.286285,"lon":5.359264,"is_reserved":false,"is_disabled":false,"rental_uris":{"android":"levelo://app?vid=dd539c3d-8244-460c-97df-764a86a3f675","ios":"levelo://app?vid=dd539c3d-8244-460c-97df-764a86a3f675"},"vehicle_type_id":"4","last_reported":1761642713,"current_range_meters":3200,"station_id":"","pricing_plan_id":"cebpf4jnsgd1na2vs0mg"},{"bike_id":"2511db91-008c-4aa3-88b0-a77624a34b5a","system_id":"levelo_inurba_marseille","lat":43.288223,"lon":5.357197,"is_reserved":false,"is_disabled":false,"rental_uris":{"android":"levelo://app?vid=2511db91-008c-4aa3-88b0-a77624a34b5a","ios":"levelo://app?vid=2511db91-008c-4aa3-88b0-a77624a34b5a"},"vehicle_type_id":"4","last_reported":1761642713,"current_range_meters":3200,"station_id":"","pricing_plan_id":"cebpf4jnsgd1na2vs0mg"},{"bike_id":"b8470f0e-6453-476c-af6d-d4fadadf4cfb","system_id":"levelo_inurba_marseille","lat":43.26569,"lon":5.37293,"is_reserved":false,"is_disabled":false,"rental_uris":{"android":"levelo://app?vid=b8470f0e-6453-476c-af6d-d4fadadf4cfb","ios":"levelo://app?vid=b8470f0e-6453-476c-af6d-d4fadadf4cfb"},"vehicle_type_id":"4","last_reported":1761642713,"current_range_meters":3600,"station_id":"ce4bhg12rcd13ifvqf70","pricing_plan_id":"cebpf4jnsgd1na2vs0mg"},{"bike_id":"e2e4e292-1c51-4895-9707-c13eb5df9b66","system_id":"levelo_inurba_marseille","lat":43.21201,"lon":5.35066,"is_reserved":false,"is_disabled":false,"rental_uris":{"android":"levelo://app?vid=e2e4e292-1c51-4895-9707-c13eb5df9b66","ios":"levelo://app?vid=e2e4e292-1c51-4895-9707-c13eb5df9b66"},"vehicle_type_id":"4","last_reported":1761642713,"current_range_meters":4000,"station_id":"st_cvj6sg6p6f1abm77japg","pricing_plan_id":"cebpf4jnsgd1na2vs0mg"},{"bike_id":"1b48f07a-6509-479a-b2a3-e1ebebd17894","system_id":"levelo_inurba_marseille","lat":43.3055,"lon":5.36707,"is_reserved":false,"is_disabled":true,"rental_uris":{"android":"levelo://app?vid=1b48f07a-6509-479a-b2a3-e1ebebd17894","ios":"levelo://app?vid=1b48f07a-6509-479a-b2a3-e1ebebd17894"},"vehicle_type_id":"4","last_reported":1761642713,"current_range_meters":4000,"station_id":"ce4bgrp2rcd13ifvqc9g","pricing_plan_id":"cebpf4jnsgd1na2vs0mg"},{"bike_id":"3c1f12b3-5b5b-4a34-8585-9be5fc266db2","system_id":"levelo_inurba_marseille","lat":43.28664,"lon":5.36338,"is_reserved":false,"is_disabled":false,"rental_uris":{"android":"levelo://app?vid=3c1f12b3-5b5b-4a34-8585-9be5fc266db2","ios":"levelo://app?vid=3c1f12b3-5b5b-4a34-8585-9be5fc266db2"},"vehicle_type_id":"4","last_reported":1761642713,"current_range_meters":4000,"station_id":"ce4bhah2rcd13ifvqej0","pricing_plan_id":"cebpf4jnsgd1na2vs0mg"},{"bike_id":"2b3cb08b-16d7-482c-bf89-b35883c416ff","system_id":"levelo_inurba_marseille","lat":43.28482,"lon":5.38546,"is_reserved":false,"is_disabled":false,"rental_uris":{"android":"levelo://app?vid=2b3cb08b-16d7-482c-bf89-b35883c416ff","ios":"levelo://app?vid=2b3cb08b-16d7-482c-bf89-b35883c416ff"},"vehicle_type_id":"4","last_reported":1761642713,"current_range_meters":4800,"station_id":"ce4bh8p2rcd13ifvqeb0","pricing_plan_id":"cebpf4jnsgd1na2vs0mg"},{"bike_id":"c0b81f28-bbba-4247-a74b-c55a34b31846","system_id":"levelo_inurba_marseille","lat":43.33258,"lon":5.41086,"is_reserved":false,"is_disabled":true,"rental_uris":{"android":"levelo://app?vid=c0b81f28-bbba-4247-a74b-c55a34b31846","ios":"levelo://app?vid=c0b81f28-bbba-4247-a74b-c55a34b31846"},"vehicle_type_id":"4","last_reported":1761642713,"current_range_meters":4800,"station_id":"","pricing_plan_id":"cebpf4jnsgd1na2vs0mg"},{"bike_id":"4ade9d83-f2d5-4d19-a54e-74fbd9ec2b53","system_id":"levelo_inurba_marseille","lat":43.31048,"lon":5.401,"is_reserved":false,"is_disabled":false,"rental_uris":{"android":"levelo://app?vid=4ade9d83-f2d5-4d19-a54e-74fbd9ec2b53","ios":"levelo://app?vid=4ade9d83-f2d5-4d19-a54e-74fbd9ec2b53"},"vehicle_type_id":"4","last_reported":1761642713,"current_range_meters":4800,"station_id":"","pricing_plan_id":"cebpf4jnsgd1na2vs0mg"},{"bike_id":"481d1e93-7d4b-4e10-a327-eaede4d49687","system_id":"levelo_inurba_marseille","lat":43.28262,"lon":5.35063,"is_reserved":false,"is_disabled":false,"rental_uris":{"android":"levelo://app?vid=481d1e93-7d4b-4e10-a327-eaede4d49687","ios":"levelo://app?vid=481d1e93-7d4b-4e10-a327-eaede4d49687"},"vehicle_type_id":"4","last_reported":1761642713,"current_range_meters":4800,"station_id":"ce4bhbp2rcd13ifvqerg","pricing_plan_id":"cebpf4jnsgd1na2vs0mg"},{"bike_id":"41d45b45-3a52-4b5a-b2b3-1e62d5490ada","system_id":"levelo_inurba_marseille","lat":43.285267,"lon":5.44097,"is_reserved":false,"is_disabled":false,"rental_uris":{"android":"levelo://app?vid=41d45b45-3a52-4b5a-b2b3-1e62d5490ada","ios":"levelo://app?vid=41d45b45-3a52-4b5a-b2b3-1e62d5490ada"},"vehicle_type_id":"4","last_reported":1761642713,"current_range_meters":5600,"station_id":"st_d3j3df2ikq2c7380ej80","pricing_plan_id":"cebpf4jnsgd1na2vs0mg"},{"bike_id":"48871fdb-0ea1-4309-9984-670d6268f5b4","system_id":"levelo_inurba_marseille","lat":43.29556,"lon":5.42294,"is_reserved":false,"is_disabled":false,"rental_uris":{"android":"levelo://app?vid=48871fdb-0ea1-4309-9984-670d6268f5b4","ios":"levelo://app?vid=48871fdb-0ea1-4309-9984-670d6268f5b4"},"vehicle_type_id":"4","last_reported":1761642713,"current_range_meters":5600,"station_id":"ce4bhph2rcd13ifvqhdg","pricing_plan_id":"cebpf4jnsgd1na2vs0mg"},{"bike_id":"c959edbd-1e41-42fa-a6c8-382d15fb070a","system_id":"levelo_inurba_marseille","lat":43.296289,"lon":5.405904,"is_reserved":false,"is_disabled":false,"rental_uris":{"android":"levelo://app?vid=c959edbd-1e41-42fa-a6c8-382d15fb070a","ios":"levelo://app?vid=c959edbd-1e41-42fa-a6c8-382d15fb070a"},"vehicle_type_id":"4","last_reported":1761642713,"current_range_meters":6000,"station_id":"ce4bh0h2rcd13ifvqd60","pricing_plan_id":"cebpf4jnsgd1na2vs0mg"},{"bike_id":"de5cece4-6186-4ccb-b70e-a25e8bd3fc86","system_id":"levelo_inurba_marseille","lat":43.337444,"lon":5.374475,"is_reserved":false,"is_disabled":false,"rental_uris":{"android":"levelo://app?vid=de5cece4-6186-4ccb-b70e-a25e8bd3fc86","ios":"levelo://app?vid=de5cece4-6186-4ccb-b70e-a25e8bd3fc86"},"vehicle_type_id":"4","last_reported":1761642713,"current_range_meters":6000,"station_id":"","pricing_plan_id":"cebpf4jnsgd1na2vs0mg"},{"bike_id":"bb5ca92b-91a2-4e6b-8a65-69614c391295","system_id":"levelo_inurba_marseille","lat":43.29841,"lon":5.362674,"is_reserved":false,"is_disabled":false,"rental_uris":{"android":"levelo://app?vid=bb5ca92b-91a2-4e6b-8a65-69614c391295","ios":"levelo://app?vid=bb5ca92b-91a2-4e6b-8a65-69614c391295"},"vehicle_type_id":"4","last_reported":1761642713,"current_range_meters":6400,"station_id":"ce4bgpp2rcd13ifvqc3g","pricing_plan_id":"cebpf4jnsgd1na2vs0mg"},{"bike_id":"7a106490-60df-48be-9949-e4e769a61001","system_id":"levelo_inurba_marseille","lat":43.26563,"lon":5.38996,"is_reserved":false,"is_disabled":false,"rental_uris":{"android":"levelo://app?vid=7a106490-60df-48be-9949-e4e769a61001","ios":"levelo://app?vid=7a106490-60df-48be-9949-e4e769a61001"},"vehicle_type_id":"4","last_reported":1761642713,"current_range_meters":6400,"station_id":"ce4bhe12rcd13ifvqf30","pricing_plan_id":"cebpf4jnsgd1na2vs0mg"},{"bike_id":"64b75b4a-3497-4861-8cc2-90dd62cd9f5e","system_id":"levelo_inurba_marseille","lat":43.293001,"lon":5.434495,"is_reserved":false,"is_disabled":false,"rental_uris":{"android":"levelo://app?vid=64b75b4a-3497-4861-8cc2-90dd62cd9f5e","ios":"levelo://app?vid=64b75b4a-3497-4861-8cc2-90dd62cd9f5e"},"vehicle_type_id":"4","last_reported":1761642713,"current_range_meters":6400,"station_id":"","pricing_plan_id":"cebpf4jnsgd1na2vs0mg"},{"bike_id":"3ea13603-c9ad-4550-9948-b83f47812af6","system_id":"levelo_inurba_marseille","lat":43.29094,"lon":5.36633,"is_reserved":false,"is_disabled":false,"rental_uris":{"android":"levelo://app?vid=3ea13603-c9ad-4550-9948-b83f47812af6","ios":"levelo://app?vid=3ea13603-c9ad-4550-9948-b83f47812af6"},"vehicle_type_id":"4","last_reported":1761642713,"current_range_meters":6400,"station_id":"","pricing_plan_id":"cebpf4jnsgd1na2vs0mg"},{"bike_id":"8bef9aed-ea2a-4f67-a4d4-24466d18f1e2","system_id":"levelo_inurba_marseille","lat":43.289813,"lon":5.378353,"is_reserved":false,"is_disabled":false,"rental_uris":{"android":"levelo://app?vid=8bef9aed-ea2a-4f67-a4d4-24466d18f1e2","ios":"levelo://app?vid=8bef9aed-ea2a-4f67-a4d4-24466d18f1e2"},"vehicle_type_id":"4","last_reported":1761642713,"current_range_meters":6400,"station_id":"ce4bh9p2rcd13ifvqed0","pricing_plan_id":"cebpf4jnsgd1na2vs0mg"},{"bike_id":"e4ccce50-4824-4895-aa8c-033835526f23","system_id":"levelo_inurba_marseille","lat":43.318758,"lon":5.399915,"is_reserved":false,"is_disabled":false,"rental_uris":{"android":"levelo://app?vid=e4ccce50-4824-4895-aa8c-033835526f23","ios":"levelo://app?vid=e4ccce50-4824-4895-aa8c-033835526f23"},"vehicle_type_id":"4","last_reported":1761642713,"current_range_meters":6400,"station_id":"","pricing_plan_id":"cebpf4jnsgd1na2vs0mg"},{"bike_id":"8847af5d-c1ad-4d8d-a5c1-273c3b41c105","system_id":"levelo_inurba_marseille","lat":43.32251,"lon":5.4195,"is_reserved":false,"is_disabled":false,"rental_uris":{"android":"levelo://app?vid=8847af5d-c1ad-4d8d-a5c1-273c3b41c105","ios":"levelo://app?vid=8847af5d-c1ad-4d8d-a5c1-273c3b41c105"},"vehicle_type_id":"4","last_reported":1761642713,"current_range_meters":6800,"station_id":"","pricing_plan_id":"cebpf4jnsgd1na2vs0mg"},{"bike_id":"9b595f11-77b7-4c23-9b2f-131a5e6700bf","system_id":"levelo_inurba_marseille","lat":43.26566,"lon":5.40323,"is_reserved":false,"is_disabled":false,"rental_uris":{"android":"levelo://app?vid=9b595f11-77b7-4c23-9b2f-131a5e6700bf","ios":"levelo://app?vid=9b595f11-77b7-4c23-9b2f-131a5e6700bf"},"vehicle_type_id":"4","last_reported":1761642713,"current_range_meters":7200,"station_id":"ce4bhmp2rcd13ifvqgng","pricing_plan_id":"cebpf4jnsgd1na2vs0mg"},{"bike_id":"760e19d7-feba-4336-8bb7-6d4a6c700460","system_id":"levelo_inurba_marseille","lat":43.26672,"lon":5.38255,"is_reserved":false,"is_disabled":false,"rental_uris":{"android":"levelo://app?vid=760e19d7-feba-4336-8bb7-6d4a6c700460","ios":"levelo://app?vid=760e19d7-feba-4336-8bb7-6d4a6c700460"},"vehicle_type_id":"4","last_reported":1761642713,"current_range_meters":7200,"station_id":"ce4bhg92rcd13ifvqf90","pricing_plan_id":"cebpf4jnsgd1na2vs0mg"},{"bike_id":"221243a1-438f-4d71-b800-2056f9b5d681","system_id":"levelo_inurba_marseille","lat":43.31241,"lon":5.36857,"is_reserved":false,"is_disabled":false,"rental_uris":{"android":"levelo://app?vid=221243a1-438f-4d71-b800-2056f9b5d681","ios":"levelo://app?vid=221243a1-438f-4d71-b800-2056f9b5d681"},"vehicle_type_id":"4","last_reported":1761642713,"current_range_meters":7200,"station_id":"ce4bgl92rcd13ifvqbq0","pricing_plan_id":"cebpf4jnsgd1na2vs0mg"},{"bike_id":"078ad834-3710-4737-bd35-410aa9e5354a","system_id":"levelo_inurba_marseille","lat":43.28101,"lon":5.37832,"is_reserved":false,"is_disabled":false,"rental_uris":{"android":"levelo://app?vid=078ad834-3710-4737-bd35-410aa9e5354a","ios":"levelo://app?vid=078ad834-3710-4737-bd35-410aa9e5354a"},"vehicle_type_id":"4","last_reported":1761642713,"current_range_meters":7200,"station_id":"ce4bha12rcd13ifvqee0","pricing_plan_id":"cebpf4jnsgd1na2vs0mg"},{"bike_id":"6368de57-9afe-4e98-9e89-da965106710e","system_id":"levelo_inurba_marseille","lat":43.29032,"lon":5.38641,"is_reserved":false,"is_disabled":false,"rental_uris":{"android":"levelo://app?vid=6368de57-9afe-4e98-9e89-da965106710e","ios":"levelo://app?vid=6368de57-9afe-4e98-9e89-da965106710e"},"vehicle_type_id":"4","last_reported":1761642713,"current_range_meters":7200,"station_id":"ce4bh4p2rcd13ifvqe0g","pricing_plan_id":"cebpf4jnsgd1na2vs0mg"},{"bike_id":"0d645f28-d342-44a9-95a7-3687b3e1d799","system_id":"levelo_inurba_marseille","lat":43.26781,"lon":5.39424,"is_reserved":false,"is_disabled":false,"rental_uris":{"android":"levelo://app?vid=0d645f28-d342-44a9-95a7-3687b3e1d799","ios":"levelo://app?vid=0d645f28-d342-44a9-95a7-3687b3e1d799"},"vehicle_type_id":"4","last_reported":1761642713,"current_range_meters":7200,"station_id":"ce4bhh12rcd13ifvqfg0","pricing_plan_id":"cebpf4jnsgd1na2vs0mg"},{"bike_id":"8ac1dfc4-5bfc-4282-a4e5-49db87ac2c7d","system_id":"levelo_inurba_marseille","lat":43.29915,"lon":5.37464,"is_reserved":false,"is_disabled":false,"rental_uris":{"android":"levelo://app?vid=8ac1dfc4-5bfc-4282-a4e5-49db87ac2c7d","ios":"levelo://app?vid=8ac1dfc4-5bfc-4282-a4e5-49db87ac2c7d"},"vehicle_type_id":"4","last_reported":1761642713,"current_range_meters":8000,"station_id":"ce4bgjh2rcd13ifvqbg0","pricing_plan_id":"cebpf4jnsgd1na2vs0mg"},{"bike_id":"bb79924b-54e4-4a0f-a0aa-71650af4bec3","system_id":"levelo_inurba_marseille","lat":43.2318,"lon":5.3999,"is_reserved":false,"is_disabled":false,"rental_uris":{"android":"levelo://app?vid=bb79924b-54e4-4a0f-a0aa-71650af4bec3","ios":"levelo://app?vid=bb79924b-54e4-4a0f-a0aa-71650af4bec3"},"vehicle_type_id":"4","last_reported":1761642713,"current_range_meters":8000,"station_id":"ce4bhn12rcd13ifvqgqg","pricing_plan_id":"cebpf4jnsgd1na2vs0mg"},{"bike_id":"72f47d49-a2e4-44dc-b28f-d73bd5b4a2a7","system_id":"levelo_inurba_marseille","lat":43.21752,"lon":5.34601,"is_reserved":false,"is_disabled":true,"rental_uris":{"android":"levelo://app?vid=72f47d49-a2e4-44dc-b28f-d73bd5b4a2a7","ios":"levelo://app?vid=72f47d49-a2e4-44dc-b28f-d73bd5b4a2a7"},"vehicle_type_id":"4","last_reported":1761642713,"current_range_meters":8000,"station_id":"","pricing_plan_id":"cebpf4jnsgd1na2vs0mg"},{"bike_id":"349759df-8c32-4f36-bca5-911bc00886a8","system_id":"levelo_inurba_marseille","lat":43.24648,"lon":5.38889,"is_reserved":false,"is_disabled":false,"rental_uris":{"android":"levelo://app?vid=349759df-8c32-4f36-bca5-911bc00886a8","ios":"levelo://app?vid=349759df-8c32-4f36-bca5-911bc00886a8"},"vehicle_type_id":"4","last_reported":1761642713,"current_range_meters":8000,"station_id":"ce4bhg12rcd13ifvqf60","pricing_plan_id":"cebpf4jnsgd1na2vs0mg"},{"bike_id":"347eb2db-1df7-4746-bdc8-5c9e2c4e7281","system_id":"levelo_inurba_marseille","lat":43.29746,"lon":5.42786,"is_reserved":false,"is_disabled":false,"rental_uris":{"android":"levelo://app?vid=347eb2db-1df7-4746-bdc8-5c9e2c4e7281","ios":"levelo://app?vid=347eb2db-1df7-4746-bdc8-5c9e2c4e7281"},"vehicle_type_id":"4","last_reported":1761642713,"current_range_meters":8000,"station_id":"st_d3md5207bmas73dh9klg","pricing_plan_id":"cebpf4jnsgd1na2vs0mg"},{"bike_id":"b9aed265-7bb5-4917-9a1f-df45ce79c285","system_id":"levelo_inurba_marseille","lat":43.25018,"lon":5.38905,"is_reserved":false,"is_disabled":false,"rental_uris":{"android":"levelo://app?vid=b9aed265-7bb5-4917-9a1f-df45ce79c285","ios":"levelo://app?vid=b9aed265-7bb5-4917-9a1f-df45ce79c285"},"vehicle_type_id":"4","last_reported":1761642713,"current_range_meters":8400,"station_id":"ce4bhgp2rcd13ifvqfd0","pricing_plan_id":"cebpf4jnsgd1na2vs0mg"},{"bike_id":"d729c0db-f8e3-4a17-9c0f-f35d2bace2da","system_id":"levelo_inurba_marseille","lat":43.313203,"lon":5.367342,"is_reserved":false,"is_disabled":false,"rental_uris":{"android":"levelo://app?vid=d729c0db-f8e3-4a17-9c0f-f35d2bace2da","ios":"levelo://app?vid=d729c0db-f8e3-4a17-9c0f-f35d2bace2da"},"vehicle_type_id":"4","last_reported":1761642713,"current_range_meters":8800,"station_id":"ce4bgr92rcd13ifvqc6g","pricing_plan_id":"cebpf4jnsgd1na2vs0mg"},{"bike_id":"aca20572-74b8-48d5-91aa-406d204cb96f","system_id":"levelo_inurba_marseille","lat":43.33726,"lon":5.3919,"is_reserved":false,"is_disabled":false,"rental_uris":{"android":"levelo://app?vid=aca20572-74b8-48d5-91aa-406d204cb96f","ios":"levelo://app?vid=aca20572-74b8-48d5-91aa-406d204cb96f"},"vehicle_type_id":"4","last_reported":1761642713,"current_range_meters":8800,"station_id":"ce4bhr92rcd13ifvqhsg","pricing_plan_id":"cebpf4jnsgd1na2vs0mg"},{"bike_id":"aa12a7f4-938d-475c-958b-b7b19d6a4155","system_id":"levelo_inurba_marseille","lat":43.29172,"lon":5.37152,"is_reserved":false,"is_disabled":false,"rental_uris":{"android":"levelo://app?vid=aa12a7f4-938d-475c-958b-b7b19d6a4155","ios":"levelo://app?vid=aa12a7f4-938d-475c-958b-b7b19d6a4155"},"vehicle_type_id":"4","last_reported":1761642713,"current_range_meters":8800,"station_id":"ce4bha92rcd13ifvqeh0","pricing_plan_id":"cebpf4jnsgd1na2vs0mg"},{"bike_id":"ac9553c1-2e20-49d2-9627-d54e379f7e28","system_id":"levelo_inurba_marseille","lat":43.31338,"lon":5.36674,"is_reserved":false,"is_disabled":true,"rental_uris":{"android":"levelo://app?vid=ac9553c1-2e20-49d2-9627-d54e379f7e28","ios":"levelo://app?vid=ac9553c1-2e20-49d2-9627-d54e379f7e28"},"vehicle_type_id":"4","last_reported":1761642713,"current_range_meters":8800,"station_id":"ce4bgr92rcd13ifvqc6g","pricing_plan_id":"cebpf4jnsgd1na2vs0mg"},{"bike_id":"d0c081ad-3486-48c9-8966-70405df77a5b","system_id":"levelo_inurba_marseille","lat":43.22926,"lon":5.35383,"is_reserved":false,"is_disabled":false,"rental_uris":{"android":"levelo://app?vid=d0c081ad-3486-48c9-8966-70405df77a5b","ios":"levelo://app?vid=d0c081ad-3486-48c9-8966-70405df77a5b"},"vehicle_type_id":"4","last_reported":1761642713,"current_range_meters":9200,"station_id":"cpo3532slgdg3j2ikp40","pricing_plan_id":"cebpf4jnsgd1na2vs0mg"},{"bike_id":"cf9dd328-3e06-421a-ad57-f6f3127edcf3","system_id":"levelo_inurba_marseille","lat":43.30548,"lon":5.36697,"is_reserved":false,"is_disabled":false,"rental_uris":{"android":"levelo://app?vid=cf9dd328-3e06-421a-ad57-f6f3127edcf3","ios":"levelo://app?vid=cf9dd328-3e06-421a-ad57-f6f3127edcf3"},"vehicle_type_id":"4","last_reported":1761642713,"current_range_meters":9200,"station_id":"ce4bgrp2rcd13ifvqc9g","pricing_plan_id":"cebpf4jnsgd1na2vs0mg"},{"bike_id":"273a5fb1-1a07-45b8-86e3-910206f73535","system_id":"levelo_inurba_marseille","lat":43.29552,"lon":5.42282,"is_reserved":false,"is_disabled":false,"rental_uris":{"android":"levelo://app?vid=273a5fb1-1a07-45b8-86e3-910206f73535","ios":"levelo://app?vid=273a5fb1-1a07-45b8-86e3-910206f73535"},"vehicle_type_id":"4","last_reported":1761642713,"current_range_meters":9200,"station_id":"ce4bhph2rcd13ifvqhdg","pricing_plan_id":"cebpf4jnsgd1na2vs0mg"},{"bike_id":"f5adc0f6-8f78-420c-a3cc-2381696afa4a","system_id":"levelo_inurba_marseille","lat":43.28864,"lon":5.42523,"is_reserved":false,"is_disabled":true,"rental_uris":{"android":"levelo://app?vid=f5adc0f6-8f78-420c-a3cc-2381696afa4a","ios":"levelo://app?vid=f5adc0f6-8f78-420c-a3cc-2381696afa4a"},"vehicle_type_id":"4","last_reported":1761642713,"current_range_meters":9200,"station_id":"st_d3b462108ojc7389ooeg","pricing_plan_id":"cebpf4jnsgd1na2vs0mg"},{"bike_id":"59c4feee-6cbb-4e1a-bedf-6c709dde4adf","system_id":"levelo_inurba_marseille","lat":43.24176,"lon":5.39731,"is_reserved":false,"is_disabled":false,"rental_uris":{"android":"levelo://app?vid=59c4feee-6cbb-4e1a-bedf-6c709dde4adf","ios":"levelo://app?vid=59c4feee-6cbb-4e1a-bedf-6c709dde4adf"},"vehicle_type_id":"4","last_reported":1761642713,"current_range_meters":9200,"station_id":"ce4bhn12rcd13ifvqgpg","pricing_plan_id":"cebpf4jnsgd1na2vs0mg"},{"bike_id":"33536d63-32c5-4dda-b600-be1d3fbb9bcc","system_id":"levelo_inurba_marseille","lat":43.21186,"lon":5.35073,"is_reserved":false,"is_disabled":true,"rental_uris":{"android":"levelo://app?vid=33536d63-32c5-4dda-b600-be1d3fbb9bcc","ios":"levelo://app?vid=33536d63-32c5-4dda-b600-be1d3fbb9bcc"},"vehicle_type_id":"4","last_reported":1761642713,"current_range_meters":9600,"station_id":"","pricing_plan_id":"cebpf4jnsgd1na2vs0mg"},{"bike_id":"f4d0911d-bcf1-4415-9142-43f03aaa2022","system_id":"levelo_inurba_marseille","lat":43.28848,"lon":5.39312,"is_reserved":false,"is_disabled":false,"rental_uris":{"android":"levelo://app?vid=f4d0911d-bcf1-4415-9142-43f03aaa2022","ios":"levelo://app?vid=f4d0911d-bcf1-4415-9142-43f03aaa2022"},"vehicle_type_id":"4","last_reported":1761642713,"current_range_meters":9600,"station_id":"ce4bh2p2rcd13ifvqdi0","pricing_plan_id":"cebpf4jnsgd1na2vs0mg"},{"bike_id":"2319520a-fc10-4ea5-a5ca-d3a4702f6c7b","system_id":"levelo_inurba_marseille","lat":43.299,"lon":5.43669,"is_reserved":false,"is_disabled":false,"rental_uris":{"android":"levelo://app?vid=2319520a-fc10-4ea5-a5ca-d3a4702f6c7b","ios":"levelo://app?vid=2319520a-fc10-4ea5-a5ca-d3a4702f6c7b"},"vehicle_type_id":"4","last_reported":1761642713,"current_range_meters":9600,"station_id":"ce4bhpp2rcd13ifvqhfg","pricing_plan_id":"cebpf4jnsgd1na2vs0mg"},{"bike_id":"bbbf3dbb-fbe2-4b7e-bfad-c027ca4e1c25","system_id":"levelo_inurba_marseille","lat":43.28479,"lon":5.48391,"is_reserved":false,"is_disabled":false,"rental_uris":{"android":"levelo://app?vid=bbbf3dbb-fbe2-4b7e-bfad-c027ca4e1c25","ios":"levelo://app?vid=bbbf3dbb-fbe2-4b7e-bfad-c027ca4e1c25"},"vehicle_type_id":"4","last_reported":1761642713,"current_range_meters":9600,"station_id":"st_d3svhcjqgbts73a3dn0g","pricing_plan_id":"cebpf4jnsgd1na2vs0mg"},{"bike_id":"6578b1a7-048d-4541-ac17-886c2d1e6d6a","system_id":"levelo_inurba_marseille","lat":43.27203,"lon":5.39184,"is_reserved":false,"is_disabled":false,"rental_uris":{"android":"levelo://app?vid=6578b1a7-048d-4541-ac17-886c2d1e6d6a","ios":"levelo://app?vid=6578b1a7-048d-4541-ac17-886c2d1e6d6a"},"vehicle_type_id":"4","last_reported":1761642713,"current_range_meters":9600,"station_id":"ce4bhhp2rcd13ifvqfm0","pricing_plan_id":"cebpf4jnsgd1na2vs0mg"},{"bike_id":"eea3c3c3-734f-4fd3-8061-ed84cfe47b38","system_id":"levelo_inurba_marseille","lat":43.3256,"lon":5.39142,"is_reserved":false,"is_disabled":false,"rental_uris":{"android":"levelo://app?vid=eea3c3c3-734f-4fd3-8061-ed84cfe47b38","ios":"levelo://app?vid=eea3c3c3-734f-4fd3-8061-ed84cfe47b38"},"vehicle_type_id":"4","last_reported":1761642713,"current_range_meters":9600,"station_id":"","pricing_plan_id":"cebpf4jnsgd1na2vs0mg"},{"bike_id":"fcccff9e-d9a1-4fc5-ab8b-e0f57424c05f","system_id":"levelo_inurba_marseille","lat":43.27322,"lon":5.39093,"is_reserved":false,"is_disabled":false,"rental_uris":{"android":"levelo://app?vid=fcccff9e-d9a1-4fc5-ab8b-e0f57424c05f","ios":"levelo://app?vid=fcccff9e-d9a1-4fc5-ab8b-e0f57424c05f"},"vehicle_type_id":"4","last_reported":1761642713,"current_range_meters":9600,"station_id":"ce4bhgp2rcd13ifvqfe0","pricing_plan_id":"cebpf4jnsgd1na2vs0mg"},{"bike_id":"8c71c05b-dd29-470b-8b05-4159f459865a","system_id":"levelo_inurba_marseille","lat":43.2766,"lon":5.38901,"is_reserved":false,"is_disabled":false,"rental_uris":{"android":"levelo://app?vid=8c71c05b-dd29-470b-8b05-4159f459865a","ios":"levelo://app?vid=8c71c05b-dd29-470b-8b05-4159f459865a"},"vehicle_type_id":"4","last_reported":1761642713,"current_range_meters":9600,"station_id":"ce4bhi12rcd13ifvqfo0","pricing_plan_id":"cebpf4jnsgd1na2vs0mg"},{"bike_id":"2aaf4961-fb40-475d-a27e-9bfea85825ac","system_id":"levelo_inurba_marseille","lat":43.262,"lon":5.37928,"is_reserved":false,"is_disabled":false,"rental_uris":{"android":"levelo://app?vid=2aaf4961-fb40-475d-a27e-9bfea85825ac","ios":"levelo://app?vid=2aaf4961-fb40-475d-a27e-9bfea85825ac"},"vehicle_type_id":"4","last_reported":1761642713,"current_range_meters":9600,"station_id":"ce4bhjp2rcd13ifvqg90","pricing_plan_id":"cebpf4jnsgd1na2vs0mg"},{"bike_id":"b3241da2-f8bb-47f5-a1fb-added95072c1","system_id":"levelo_inurba_marseille","lat":43.253371,"lon":5.421779,"is_reserved":false,"is_disabled":false,"rental_uris":{"android":"levelo://app?vid=b3241da2-f8bb-47f5-a1fb-added95072c1","ios":"levelo://app?vid=b3241da2-f8bb-47f5-a1fb-added95072c1"},"vehicle_type_id":"4","last_reported":1761642713,"current_range_meters":9600,"station_id":"st_d2m65c5bi1j21697t3ng","pricing_plan_id":"cebpf4jnsgd1na2vs0mg"},{"bike_id":"3bf40ce1-565d-4e4c-b920-f197206ded30","system_id":"levelo_inurba_marseille","lat":43.22931,"lon":5.35389,"is_reserved":false,"is_disabled":false,"rental_uris":{"android":"levelo://app?vid=3bf40ce1-565d-4e4c-b920-f197206ded30","ios":"levelo://app?vid=3bf40ce1-565d-4e4c-b920-f197206ded30"},"vehicle_type_id":"4","last_reported":1761642713,"current_range_meters":10000,"station_id":"cpo3532slgdg3j2ikp40","pricing_plan_id":"cebpf4jnsgd1na2vs0mg"},{"bike_id":"87f73197-ea2a-4801-9947-0f7cedc037c8","system_id":"levelo_inurba_marseille","lat":43.26195,"lon":5.37908,"is_reserved":false,"is_disabled":false,"rental_uris":{"android":"levelo://app?vid=87f73197-ea2a-4801-9947-0f7cedc037c8","ios":"levelo://app?vid=87f73197-ea2a-4801-9947-0f7cedc037c8"},"vehicle_type_id":"4","last_reported":1761642713,"current_range_meters":10000,"station_id":"ce4bhjp2rcd13ifvqg90","pricing_plan_id":"cebpf4jnsgd1na2vs0mg"},{"bike_id":"836f14e1-39bc-446a-8e26-833658824b6e","system_id":"levelo_inurba_marseille","lat":43.28222,"lon":5.39065,"is_reserved":false,"is_disabled":false,"rental_uris":{"android":"levelo://app?vid=836f14e1-39bc-446a-8e26-833658824b6e","ios":"levelo://app?vid=836f14e1-39bc-446a-8e26-833658824b6e"},"vehicle_type_id":"4","last_reported":1761642713,"current_range_meters":10000,"station_id":"ce4bhn92rcd13ifvqgsg","pricing_plan_id":"cebpf4jnsgd1na2vs0mg"},{"bike_id":"937149e8-9361-4694-bad2-43b01bb5062c","system_id":"levelo_inurba_marseille","lat":43.31072,"lon":5.38355,"is_reserved":false,"is_disabled":false,"rental_uris":{"android":"levelo://app?vid=937149e8-9361-4694-bad2-43b01bb5062c","ios":"levelo://app?vid=937149e8-9361-4694-bad2-43b01bb5062c"},"vehicle_type_id":"4","last_reported":1761642713,"current_range_meters":10000,"station_id":"ce4bgv92rcd13ifvqcr0","pricing_plan_id":"cebpf4jnsgd1na2vs0mg"},{"bike_id":"64c2c53b-6987-4f66-8c1c-55b604a9e24d","system_id":"levelo_inurba_marseille","lat":43.291927,"lon":5.357666,"is_reserved":false,"is_disabled":false,"rental_uris":{"android":"levelo://app?vid=64c2c53b-6987-4f66-8c1c-55b604a9e24d","ios":"levelo://app?vid=64c2c53b-6987-4f66-8c1c-55b604a9e24d"},"vehicle_type_id":"4","last_reported":1761642713,"current_range_meters":10000,"station_id":"ce4bhb12rcd13ifvqel0","pricing_plan_id":"cebpf4jnsgd1na2vs0mg"},{"bike_id":"266970d8-aad5-4f4c-92b9-75abcd47064d","system_id":"levelo_inurba_marseille","lat":43.23195,"lon":5.35553,"is_reserved":false,"is_disabled":false,"rental_uris":{"android":"levelo://app?vid=266970d8-aad5-4f4c-92b9-75abcd47064d","ios":"levelo://app?vid=266970d8-aad5-4f4c-92b9-75abcd47064d"},"vehicle_type_id":"4","last_reported":1761642713,"current_range_meters":10000,"station_id":"ce4bhu92rcd13ifvqi70","pricing_plan_id":"cebpf4jnsgd1na2vs0mg"},{"bike_id":"191a89c3-b6b5-4197-8447-4616b7a34a12","system_id":"levelo_inurba_marseille","lat":43.29897,"lon":5.43664,"is_reserved":false,"is_disabled":false,"rental_uris":{"android":"levelo://app?vid=191a89c3-b6b5-4197-8447-4616b7a34a12","ios":"levelo://app?vid=191a89c3-b6b5-4197-8447-4616b7a34a12"},"vehicle_type_id":"4","last_reported":1761642713,"current_range_meters":10000,"station_id":"ce4bhpp2rcd13ifvqhfg","pricing_plan_id":"cebpf4jnsgd1na2vs0mg"},{"bike_id":"763dedad-f3f7-4198-bc42-a8f8d4bc1d9e","system_id":"levelo_inurba_marseille","lat":43.22932,"lon":5.35389,"is_reserved":false,"is_disabled":false,"rental_uris":{"android":"levelo://app?vid=763dedad-f3f7-4198-bc42-a8f8d4bc1d9e","ios":"levelo://app?vid=763dedad-f3f7-4198-bc42-a8f8d4bc1d9e"},"vehicle_type_id":"4","last_reported":1761642713,"current_range_meters":10000,"station_id":"cpo3532slgdg3j2ikp40","pricing_plan_id":"cebpf4jnsgd1na2vs0mg"},{"bike_id":"553ca2a5-4405-4b83-89a7-047e96cdb660","system_id":"levelo_inurba_marseille","lat":43.29227,"lon":5.36074,"is_reserved":false,"is_disabled":false,"rental_uris":{"android":"levelo://app?vid=553ca2a5-4405-4b83-89a7-047e96cdb660","ios":"levelo://app?vid=553ca2a5-4405-4b83-89a7-047e96cdb660"},"vehicle_type_id":"4","last_reported":1761642713,"current_range_meters":10000,"station_id":"ce4bhbh2rcd13ifvqeqg","pricing_plan_id":"cebpf4jnsgd1na2vs0mg"},{"bike_id":"dcce0a14-3cc3-4f25-8718-2bf29b1953e1","system_id":"levelo_inurba_marseille","lat":43.2731,"lon":5.39077,"is_reserved":false,"is_disabled":false,"rental_uris":{"android":"levelo://app?vid=dcce0a14-3cc3-4f25-8718-2bf29b1953e1","ios":"levelo://app?vid=dcce0a14-3cc3-4f25-8718-2bf29b1953e1"},"vehicle_type_id":"4","last_reported":1761642713,"current_range_meters":10000,"station_id":"ce4bhgp2rcd13ifvqfe0","pricing_plan_id":"cebpf4jnsgd1na2vs0mg"},{"bike_id":"c896b697-d7c3-47ea-81cb-50811f76c96f","system_id":"levelo_inurba_marseille","lat":43.25084,"lon":5.3952,"is_reserved":false,"is_disabled":false,"rental_uris":{"android":"levelo://app?vid=c896b697-d7c3-47ea-81cb-50811f76c96f","ios":"levelo://app?vid=c896b697-d7c3-47ea-81cb-50811f76c96f"},"vehicle_type_id":"4","last_reported":1761642713,"current_range_meters":10800,"station_id":"ce4bhm12rcd13ifvqgkg","pricing_plan_id":"cebpf4jnsgd1na2vs0mg"},{"bike_id":"a507e789-f440-40a8-85cf-09841d81676c","system_id":"levelo_inurba_marseille","lat":43.225306,"lon":5.348419,"is_reserved":false,"is_disabled":false,"rental_uris":{"android":"levelo://app?vid=a507e789-f440-40a8-85cf-09841d81676c","ios":"levelo://app?vid=a507e789-f440-40a8-85cf-09841d81676c"},"vehicle_type_id":"4","last_reported":1761642713,"current_range_meters":10800,"station_id":"","pricing_plan_id":"cebpf4jnsgd1na2vs0mg"},{"bike_id":"4c888f7a-a3cd-4aff-ab0b-fe318b78464b","system_id":"levelo_inurba_marseille","lat":43.21739,"lon":5.34598,"is_reserved":false,"is_disabled":false,"rental_uris":{"android":"levelo://app?vid=4c888f7a-a3cd-4aff-ab0b-fe318b78464b","ios":"levelo://app?vid=4c888f7a-a3cd-4aff-ab0b-fe318b78464b"},"vehicle_type_id":"4","last_reported":1761642713,"current_range_meters":10800,"station_id":"st_cvj6r9ubvosntc0bgbag","pricing_plan_id":"cebpf4jnsgd1na2vs0mg"},{"bike_id":"1880ebb9-7edb-463e-976b-226e958b9ebe","system_id":"levelo_inurba_marseille","lat":43.31097,"lon":5.37487,"is_reserved":false,"is_disabled":false,"rental_uris":{"android":"levelo://app?vid=1880ebb9-7edb-463e-976b-226e958b9ebe","ios":"levelo://app?vid=1880ebb9-7edb-463e-976b-226e958b9ebe"},"vehicle_type_id":"4","last_reported":1761642713,"current_range_meters":11200,"station_id":"ce4bgt12rcd13ifvqce0","pricing_plan_id":"cebpf4jnsgd1na2vs0mg"},{"bike_id":"46318416-7c91-428c-b90a-595c0083141a","system_id":"levelo_inurba_marseille","lat":43.23188,"lon":5.3999,"is_reserved":false,"is_disabled":false,"rental_uris":{"android":"levelo://app?vid=46318416-7c91-428c-b90a-595c0083141a","ios":"levelo://app?vid=46318416-7c91-428c-b90a-595c0083141a"},"vehicle_type_id":"4","last_reported":1761642713,"current_range_meters":11200,"station_id":"ce4bhn12rcd13ifvqgqg","pricing_plan_id":"cebpf4jnsgd1na2vs0mg"},{"bike_id":"f3673a60-efd2-465f-aa18-cb0baaf105f7","system_id":"levelo_inurba_marseille","lat":43.31093,"lon":5.40086,"is_reserved":false,"is_disabled":false,"rental_uris":{"android":"levelo://app?vid=f3673a60-efd2-465f-aa18-cb0baaf105f7","ios":"levelo://app?vid=f3673a60-efd2-465f-aa18-cb0baaf105f7"},"vehicle_type_id":"4","last_reported":1761642713,"current_range_meters":11200,"station_id":"","pricing_plan_id":"cebpf4jnsgd1na2vs0mg"},{"bike_id":"d840e009-d66a-4263-964b-f2c1c855217d","system_id":"levelo_inurba_marseille","lat":43.29764,"lon":5.42791,"is_reserved":false,"is_disabled":false,"rental_uris":{"android":"levelo://app?vid=d840e009-d66a-4263-964b-f2c1c855217d","ios":"levelo://app?vid=d840e009-d66a-4263-964b-f2c1c855217d"},"vehicle_type_id":"4","last_reported":1761642713,"current_range_meters":11200,"station_id":"st_d3md5207bmas73dh9klg","pricing_plan_id":"cebpf4jnsgd1na2vs0mg"},{"bike_id":"f0f74863-ab00-4349-b358-6344f852e4d2","system_id":"levelo_inurba_marseille","lat":43.29887,"lon":5.38906,"is_reserved":false,"is_disabled":false,"rental_uris":{"android":"levelo://app?vid=f0f74863-ab00-4349-b358-6344f852e4d2","ios":"levelo://app?vid=f0f74863-ab00-4349-b358-6344f852e4d2"},"vehicle_type_id":"4","last_reported":1761642713,"current_range_meters":11200,"station_id":"ce4bh392rcd13ifvqdl0","pricing_plan_id":"cebpf4jnsgd1na2vs0mg"},{"bike_id":"1d92979f-f3dd-47ce-a7d4-fe4fed0c96f4","system_id":"levelo_inurba_marseille","lat":43.29044,"lon":5.37565,"is_reserved":false,"is_disabled":false,"rental_uris":{"android":"levelo://app?vid=1d92979f-f3dd-47ce-a7d4-fe4fed0c96f4","ios":"levelo://app?vid=1d92979f-f3dd-47ce-a7d4-fe4fed0c96f4"},"vehicle_type_id":"4","last_reported":1761642713,"current_range_meters":11200,"station_id":"ce4bh692rcd13ifvqe90","pricing_plan_id":"cebpf4jnsgd1na2vs0mg"},{"bike_id":"0a0f5fe2-a99d-4a4d-afc6-8a0aeeb4e546","system_id":"levelo_inurba_marseille","lat":43.296355,"lon":5.371572,"is_reserved":false,"is_disabled":false,"rental_uris":{"android":"levelo://app?vid=0a0f5fe2-a99d-4a4d-afc6-8a0aeeb4e546","ios":"levelo://app?vid=0a0f5fe2-a99d-4a4d-afc6-8a0aeeb4e546"},"vehicle_type_id":"4","last_reported":1761642713,"current_range_meters":11600,"station_id":"ce4bgnh2rcd13ifvqc0g","pricing_plan_id":"cebpf4jnsgd1na2vs0mg"},{"bike_id":"0278b3ce-87fd-4225-a971-5cd6d347c42c","system_id":"levelo_inurba_marseille","lat":43.29221,"lon":5.36074,"is_reserved":false,"is_disabled":false,"rental_uris":{"android":"levelo://app?vid=0278b3ce-87fd-4225-a971-5cd6d347c42c","ios":"levelo://app?vid=0278b3ce-87fd-4225-a971-5cd6d347c42c"},"vehicle_type_id":"4","last_reported":1761642713,"current_range_meters":11600,"station_id":"ce4bhbh2rcd13ifvqeqg","pricing_plan_id":"cebpf4jnsgd1na2vs0mg"},{"bike_id":"aaaed192-3f15-422a-b1fc-58052d869cd7","system_id":"levelo_inurba_marseille","lat":43.26679,"lon":5.3827,"is_reserved":false,"is_disabled":false,"rental_uris":{"android":"levelo://app?vid=aaaed192-3f15-422a-b1fc-58052d869cd7","ios":"levelo://app?vid=aaaed192-3f15-422a-b1fc-58052d869cd7"},"vehicle_type_id":"4","last_reported":1761642713,"current_range_meters":11600,"station_id":"ce4bhg92rcd13ifvqf90","pricing_plan_id":"cebpf4jnsgd1na2vs0mg"},{"bike_id":"0045d293-fc25-4f9a-9434-47036bd87e67","system_id":"levelo_inurba_marseille","lat":43.229334,"lon":5.35372,"is_reserved":false,"is_disabled":false,"rental_uris":{"android":"levelo://app?vid=0045d293-fc25-4f9a-9434-47036bd87e67","ios":"levelo://app?vid=0045d293-fc25-4f9a-9434-47036bd87e67"},"vehicle_type_id":"4","last_reported":1761642713,"current_range_meters":11600,"station_id":"cpo3532slgdg3j2ikp40","pricing_plan_id":"cebpf4jnsgd1na2vs0mg"},{"bike_id":"788fa594-bca3-4176-b78b-c0fa243bcc71","system_id":"levelo_inurba_marseille","lat":43.30949,"lon":5.39039,"is_reserved":false,"is_disabled":false,"rental_uris":{"android":"levelo://app?vid=788fa594-bca3-4176-b78b-c0fa243bcc71","ios":"levelo://app?vid=788fa594-bca3-4176-b78b-c0fa243bcc71"},"vehicle_type_id":"4","last_reported":1761642713,"current_range_meters":11600,"station_id":"ce4bgup2rcd13ifvqco0","pricing_plan_id":"cebpf4jnsgd1na2vs0mg"},{"bike_id":"ff806bd2-c7e9-493a-9703-ad992684e451","system_id":"levelo_inurba_marseille","lat":43.296263,"lon":5.377142,"is_reserved":false,"is_disabled":true,"rental_uris":{"android":"levelo://app?vid=ff806bd2-c7e9-493a-9703-ad992684e451","ios":"levelo://app?vid=ff806bd2-c7e9-493a-9703-ad992684e451"},"vehicle_type_id":"4","last_reported":1761642713,"current_range_meters":12000,"station_id":"","pricing_plan_id":"cebpf4jnsgd1na2vs0mg"},{"bike_id":"dbcbcef0-4b5f-446e-9d2e-80d991993c2b","system_id":"levelo_inurba_marseille","lat":43.2953,"lon":5.40227,"is_reserved":false,"is_disabled":false,"rental_uris":{"android":"levelo://app?vid=dbcbcef0-4b5f-446e-9d2e-80d991993c2b","ios":"levelo://app?vid=dbcbcef0-4b5f-446e-9d2e-80d991993c2b"},"vehicle_type_id":"4","last_reported":1761642713,"current_range_meters":12000,"station_id":"","pricing_plan_id":"cebpf4jnsgd1na2vs0mg"},{"bike_id":"0b29f2b5-468f-4c39-baef-fa8688d42667","system_id":"levelo_inurba_marseille","lat":43.29223,"lon":5.36073,"is_reserved":false,"is_disabled":false,"rental_uris":{"android":"levelo://app?vid=0b29f2b5-468f-4c39-baef-fa8688d42667","ios":"levelo://app?vid=0b29f2b5-468f-4c39-baef-fa8688d42667"},"vehicle_type_id":"4","last_reported":1761642713,"current_range_meters":12000,"station_id":"ce4bhbh2rcd13ifvqeqg","pricing_plan_id":"cebpf4jnsgd1na2vs0mg"},{"bike_id":"4bf9d265-8b82-4e6d-af96-57b56fdfaed3","system_id":"levelo_inurba_marseille","lat":43.29739,"lon":5.4276,"is_reserved":false,"is_disabled":false,"rental_uris":{"android":"levelo://app?vid=4bf9d265-8b82-4e6d-af96-57b56fdfaed3","ios":"levelo://app?vid=4bf9d265-8b82-4e6d-af96-57b56fdfaed3"},"vehicle_type_id":"4","last_reported":1761642713,"current_range_meters":12400,"station_id":"st_d3md5207bmas73dh9klg","pricing_plan_id":"cebpf4jnsgd1na2vs0mg"},{"bike_id":"9eb27e8b-0951-4c08-8214-6e629081e2a3","system_id":"levelo_inurba_marseille","lat":43.24171,"lon":5.36404,"is_reserved":false,"is_disabled":false,"rental_uris":{"android":"levelo://app?vid=9eb27e8b-0951-4c08-8214-6e629081e2a3","ios":"levelo://app?vid=9eb27e8b-0951-4c08-8214-6e629081e2a3"},"vehicle_type_id":"4","last_reported":1761642713,"current_range_meters":12400,"station_id":"cpo36qri1sfpv3e86is0","pricing_plan_id":"cebpf4jnsgd1na2vs0mg"},{"bike_id":"9fbd96ee-563a-43f7-87fd-6fffaeedac55","system_id":"levelo_inurba_marseille","lat":43.25846,"lon":5.39935,"is_reserved":false,"is_disabled":true,"rental_uris":{"android":"levelo://app?vid=9fbd96ee-563a-43f7-87fd-6fffaeedac55","ios":"levelo://app?vid=9fbd96ee-563a-43f7-87fd-6fffaeedac55"},"vehicle_type_id":"4","last_reported":1761642713,"current_range_meters":12400,"station_id":"ce4bhl92rcd13ifvqghg","pricing_plan_id":"cebpf4jnsgd1na2vs0mg"},{"bike_id":"7b1b6fda-acbf-4bcc-9c4e-eb02a7bb672a","system_id":"levelo_inurba_marseille","lat":43.24168,"lon":5.36376,"is_reserved":false,"is_disabled":false,"rental_uris":{"android":"levelo://app?vid=7b1b6fda-acbf-4bcc-9c4e-eb02a7bb672a","ios":"levelo://app?vid=7b1b6fda-acbf-4bcc-9c4e-eb02a7bb672a"},"vehicle_type_id":"4","last_reported":1761642713,"current_range_meters":12800,"station_id":"cpo36qri1sfpv3e86is0","pricing_plan_id":"cebpf4jnsgd1na2vs0mg"},{"bike_id":"8062c369-ff3b-4a48-b2ef-d270e82c4cf4","system_id":"levelo_inurba_marseille","lat":43.230591,"lon":5.354895,"is_reserved":false,"is_disabled":false,"rental_uris":{"android":"levelo://app?vid=8062c369-ff3b-4a48-b2ef-d270e82c4cf4","ios":"levelo://app?vid=8062c369-ff3b-4a48-b2ef-d270e82c4cf4"},"vehicle_type_id":"4","last_reported":1761642713,"current_range_meters":12800,"station_id":"cpo3342slgdg3j2ifvpg","pricing_plan_id":"cebpf4jnsgd1na2vs0mg"},{"bike_id":"da7305bc-9098-4a3f-9bea-8372d29d8b76","system_id":"levelo_inurba_marseille","lat":43.31232,"lon":5.3686,"is_reserved":false,"is_disabled":false,"rental_uris":{"android":"levelo://app?vid=da7305bc-9098-4a3f-9bea-8372d29d8b76","ios":"levelo://app?vid=da7305bc-9098-4a3f-9bea-8372d29d8b76"},"vehicle_type_id":"4","last_reported":1761642713,"current_range_meters":12800,"station_id":"ce4bgl92rcd13ifvqbq0","pricing_plan_id":"cebpf4jnsgd1na2vs0mg"},{"bike_id":"d7b556e6-ac3d-4fe4-b136-c7cd05c756e3","system_id":"levelo_inurba_marseille","lat":43.23069,"lon":5.35489,"is_reserved":false,"is_disabled":false,"rental_uris":{"android":"levelo://app?vid=d7b556e6-ac3d-4fe4-b136-c7cd05c756e3","ios":"levelo://app?vid=d7b556e6-ac3d-4fe4-b136-c7cd05c756e3"},"vehicle_type_id":"4","last_reported":1761642713,"current_range_meters":13600,"station_id":"cpo3342slgdg3j2ifvpg","pricing_plan_id":"cebpf4jnsgd1na2vs0mg"},{"bike_id":"f568391f-b71f-4807-9099-53eb6b0dc22d","system_id":"levelo_inurba_marseille","lat":43.2978,"lon":5.38126,"is_reserved":false,"is_disabled":false,"rental_uris":{"android":"levelo://app?vid=f568391f-b71f-4807-9099-53eb6b0dc22d","ios":"levelo://app?vid=f568391f-b71f-4807-9099-53eb6b0dc22d"},"vehicle_type_id":"4","last_reported":1761642713,"current_range_meters":13600,"station_id":"ce4bgip2rcd13ifvqbb0","pricing_plan_id":"cebpf4jnsgd1na2vs0mg"},{"bike_id":"2b8781f1-9477-4dc4-b793-c006a6885d7d","system_id":"levelo_inurba_marseille","lat":43.30906,"lon":5.36844,"is_reserved":false,"is_disabled":false,"rental_uris":{"android":"levelo://app?vid=2b8781f1-9477-4dc4-b793-c006a6885d7d","ios":"levelo://app?vid=2b8781f1-9477-4dc4-b793-c006a6885d7d"},"vehicle_type_id":"4","last_reported":1761642713,"current_range_meters":13600,"station_id":"ce4bgn92rcd13ifvqbvg","pricing_plan_id":"cebpf4jnsgd1na2vs0mg"},{"bike_id":"0f82576d-f37e-4634-87a4-042dadbbb587","system_id":"levelo_inurba_marseille","lat":43.30542,"lon":5.36703,"is_reserved":false,"is_disabled":false,"rental_uris":{"android":"levelo://app?vid=0f82576d-f37e-4634-87a4-042dadbbb587","ios":"levelo://app?vid=0f82576d-f37e-4634-87a4-042dadbbb587"},"vehicle_type_id":"4","last_reported":1761642713,"current_range_meters":13600,"station_id":"ce4bgrp2rcd13ifvqc9g","pricing_plan_id":"cebpf4jnsgd1na2vs0mg"},{"bike_id":"519eca50-73dd-4fd4-b531-a04302fe7dc3","system_id":"levelo_inurba_marseille","lat":43.24384,"lon":5.37049,"is_reserved":false,"is_disabled":false,"rental_uris":{"android":"levelo://app?vid=519eca50-73dd-4fd4-b531-a04302fe7dc3","ios":"levelo://app?vid=519eca50-73dd-4fd4-b531-a04302fe7dc3"},"vehicle_type_id":"4","last_reported":1761642713,"current_range_meters":14000,"station_id":"ce4bhhh2rcd13ifvqfk0","pricing_plan_id":"cebpf4jnsgd1na2vs0mg"},{"bike_id":"d5ca831f-8041-403e-ada8-7b4196c3d5be","system_id":"levelo_inurba_marseille","lat":43.293714,"lon":5.379385,"is_reserved":false,"is_disabled":false,"rental_uris":{"android":"levelo://app?vid=d5ca831f-8041-403e-ada8-7b4196c3d5be","ios":"levelo://app?vid=d5ca831f-8041-403e-ada8-7b4196c3d5be"},"vehicle_type_id":"4","last_reported":1761642713,"current_range_meters":14000,"station_id":"","pricing_plan_id":"cebpf4jnsgd1na2vs0mg"},{"bike_id":"c09b8e76-bdda-4598-a096-bf80b222c7dc","system_id":"levelo_inurba_marseille","lat":43.30186,"lon":5.36603,"is_reserved":false,"is_disabled":false,"rental_uris":{"android":"levelo://app?vid=c09b8e76-bdda-4598-a096-bf80b222c7dc","ios":"levelo://app?vid=c09b8e76-bdda-4598-a096-bf80b222c7dc"},"vehicle_type_id":"4","last_reported":1761642713,"current_range_meters":14000,"station_id":"ce4bgrh2rcd13ifvqc8g","pricing_plan_id":"cebpf4jnsgd1na2vs0mg"},{"bike_id":"44e0699e-f44e-4ec5-b8b4-f4364d3125a6","system_id":"levelo_inurba_marseille","lat":43.26949,"lon":5.38647,"is_reserved":false,"is_disabled":false,"rental_uris":{"android":"levelo://app?vid=44e0699e-f44e-4ec5-b8b4-f4364d3125a6","ios":"levelo://app?vid=44e0699e-f44e-4ec5-b8b4-f4364d3125a6"},"vehicle_type_id":"4","last_reported":1761642713,"current_range_meters":14000,"station_id":"ce4bhh92rcd13ifvqfh0","pricing_plan_id":"cebpf4jnsgd1na2vs0mg"},{"bike_id":"aaa731ae-3c8e-44e7-b3b3-1a62fe8fd280","system_id":"levelo_inurba_marseille","lat":43.22556,"lon":5.41626,"is_reserved":false,"is_disabled":false,"rental_uris":{"android":"levelo://app?vid=aaa731ae-3c8e-44e7-b3b3-1a62fe8fd280","ios":"levelo://app?vid=aaa731ae-3c8e-44e7-b3b3-1a62fe8fd280"},"vehicle_type_id":"4","last_reported":1761642713,"current_range_meters":14400,"station_id":"st_d2o4gvlbi1j2169b742g","pricing_plan_id":"cebpf4jnsgd1na2vs0mg"},{"bike_id":"83b2324e-53af-411d-bfe8-d85563b734a6","system_id":"levelo_inurba_marseille","lat":43.2907,"lon":5.37169,"is_reserved":false,"is_disabled":false,"rental_uris":{"android":"levelo://app?vid=83b2324e-53af-411d-bfe8-d85563b734a6","ios":"levelo://app?vid=83b2324e-53af-411d-bfe8-d85563b734a6"},"vehicle_type_id":"4","last_reported":1761642713,"current_range_meters":14400,"station_id":"ce4bh5p2rcd13ifvqe4g","pricing_plan_id":"cebpf4jnsgd1na2vs0mg"},{"bike_id":"b654c3d6-2b47-4c05-8415-cf0cc8e55a57","system_id":"levelo_inurba_marseille","lat":43.27174,"lon":5.4099,"is_reserved":false,"is_disabled":false,"rental_uris":{"android":"levelo://app?vid=b654c3d6-2b47-4c05-8415-cf0cc8e55a57","ios":"levelo://app?vid=b654c3d6-2b47-4c05-8415-cf0cc8e55a57"},"vehicle_type_id":"4","last_reported":1761642713,"current_range_meters":14400,"station_id":"ce4bhl12rcd13ifvqgf0","pricing_plan_id":"cebpf4jnsgd1na2vs0mg"},{"bike_id":"db88a8a5-5637-4384-a6d7-41d8f099747a","system_id":"levelo_inurba_marseille","lat":43.312379,"lon":5.368484,"is_reserved":false,"is_disabled":false,"rental_uris":{"android":"levelo://app?vid=db88a8a5-5637-4384-a6d7-41d8f099747a","ios":"levelo://app?vid=db88a8a5-5637-4384-a6d7-41d8f099747a"},"vehicle_type_id":"4","last_reported":1761642713,"current_range_meters":14400,"station_id":"ce4bgr92rcd13ifvqc6g","pricing_plan_id":"cebpf4jnsgd1na2vs0mg"},{"bike_id":"cc24e2d6-1c19-4c0f-9066-da2f75e78c9a","system_id":"levelo_inurba_marseille","lat":43.30914,"lon":5.36858,"is_reserved":false,"is_disabled":false,"rental_uris":{"android":"levelo://app?vid=cc24e2d6-1c19-4c0f-9066-da2f75e78c9a","ios":"levelo://app?vid=cc24e2d6-1c19-4c0f-9066-da2f75e78c9a"},"vehicle_type_id":"4","last_reported":1761642713,"current_range_meters":14400,"station_id":"ce4bgn92rcd13ifvqbvg","pricing_plan_id":"cebpf4jnsgd1na2vs0mg"},{"bike_id":"1895376c-dbd6-45fe-b211-d4e81b395782","system_id":"levelo_inurba_marseille","lat":43.3248,"lon":5.36553,"is_reserved":false,"is_disabled":false,"rental_uris":{"android":"levelo://app?vid=1895376c-dbd6-45fe-b211-d4e81b395782","ios":"levelo://app?vid=1895376c-dbd6-45fe-b211-d4e81b395782"},"vehicle_type_id":"4","last_reported":1761642713,"current_range_meters":14400,"station_id":"ce4bhs12rcd13ifvqhvg","pricing_plan_id":"cebpf4jnsgd1na2vs0mg"},{"bike_id":"e975e8a7-f7cd-4da8-aa29-5220da96c704","system_id":"levelo_inurba_marseille","lat":43.32362,"lon":5.36765,"is_reserved":false,"is_disabled":true,"rental_uris":{"android":"levelo://app?vid=e975e8a7-f7cd-4da8-aa29-5220da96c704","ios":"levelo://app?vid=e975e8a7-f7cd-4da8-aa29-5220da96c704"},"vehicle_type_id":"4","last_reported":1761642713,"current_range_meters":14400,"station_id":"ce4bhsh2rcd13ifvqi2g","pricing_plan_id":"cebpf4jnsgd1na2vs0mg"},{"bike_id":"e1ca1064-3ac1-495e-b8d2-df8047d11b2e","system_id":"levelo_inurba_marseille","lat":43.284782,"lon":5.483869,"is_reserved":false,"is_disabled":false,"rental_uris":{"android":"levelo://app?vid=e1ca1064-3ac1-495e-b8d2-df8047d11b2e","ios":"levelo://app?vid=e1ca1064-3ac1-495e-b8d2-df8047d11b2e"},"vehicle_type_id":"4","last_reported":1761642713,"current_range_meters":14400,"station_id":"st_d3svhcjqgbts73a3dn0g","pricing_plan_id":"cebpf4jnsgd1na2vs0mg"},{"bike_id":"310e927d-d5b8-4a6f-82be-2d623690659d","system_id":"levelo_inurba_marseille","lat":43.31284,"lon":5.37751,"is_reserved":false,"is_disabled":false,"rental_uris":{"android":"levelo://app?vid=310e927d-d5b8-4a6f-82be-2d623690659d","ios":"levelo://app?vid=310e927d-d5b8-4a6f-82be-2d623690659d"},"vehicle_type_id":"4","last_reported":1761642713,"current_range_meters":14800,"station_id":"","pricing_plan_id":"cebpf4jnsgd1na2vs0mg"},{"bike_id":"98819f4e-9e8f-4b32-8615-e08640d2c475","system_id":"levelo_inurba_marseille","lat":43.273749,"lon":5.362604,"is_reserved":false,"is_disabled":false,"rental_uris":{"android":"levelo://app?vid=98819f4e-9e8f-4b32-8615-e08640d2c475","ios":"levelo://app?vid=98819f4e-9e8f-4b32-8615-e08640d2c475"},"vehicle_type_id":"4","last_reported":1761642713,"current_range_meters":14800,"station_id":"ce4bhbh2rcd13ifvqeo0","pricing_plan_id":"cebpf4jnsgd1na2vs0mg"},{"bike_id":"dccef0b1-edb3-49b5-866c-43e10e5763cc","system_id":"levelo_inurba_marseille","lat":43.2882,"lon":5.43833,"is_reserved":false,"is_disabled":false,"rental_uris":{"android":"levelo://app?vid=dccef0b1-edb3-49b5-866c-43e10e5763cc","ios":"levelo://app?vid=dccef0b1-edb3-49b5-866c-43e10e5763cc"},"vehicle_type_id":"4","last_reported":1761642713,"current_range_meters":14800,"station_id":"","pricing_plan_id":"cebpf4jnsgd1na2vs0mg"},{"bike_id":"ef4e0d5b-3e99-4ff6-a010-5338cf809c70","system_id":"levelo_inurba_marseille","lat":43.32655,"lon":5.40985,"is_reserved":false,"is_disabled":false,"rental_uris":{"android":"levelo://app?vid=ef4e0d5b-3e99-4ff6-a010-5338cf809c70","ios":"levelo://app?vid=ef4e0d5b-3e99-4ff6-a010-5338cf809c70"},"vehicle_type_id":"4","last_reported":1761642713,"current_range_meters":14800,"station_id":"ce4bhpp2rcd13ifvqhgg","pricing_plan_id":"cebpf4jnsgd1na2vs0mg"},{"bike_id":"cad8db34-904f-424e-b01c-67315ce915b3","system_id":"levelo_inurba_marseille","lat":43.29261,"lon":5.37608,"is_reserved":false,"is_disabled":false,"rental_uris":{"android":"levelo://app?vid=cad8db34-904f-424e-b01c-67315ce915b3","ios":"levelo://app?vid=cad8db34-904f-424e-b01c-67315ce915b3"},"vehicle_type_id":"4","last_reported":1761642713,"current_range_meters":14800,"station_id":"ce4bgi12rcd13ifvqb80","pricing_plan_id":"cebpf4jnsgd1na2vs0mg"},{"bike_id":"49ed0d39-51fe-4cd4-8527-50556baa8749","system_id":"levelo_inurba_marseille","lat":43.22531,"lon":5.348321,"is_reserved":false,"is_disabled":false,"rental_uris":{"android":"levelo://app?vid=49ed0d39-51fe-4cd4-8527-50556baa8749","ios":"levelo://app?vid=49ed0d39-51fe-4cd4-8527-50556baa8749"},"vehicle_type_id":"4","last_reported":1761642713,"current_range_meters":14800,"station_id":"","pricing_plan_id":"cebpf4jnsgd1na2vs0mg"},{"bike_id":"a98b84b6-0814-4406-870e-6dd4d59b60e3","system_id":"levelo_inurba_marseille","lat":43.24079,"lon":5.37757,"is_reserved":false,"is_disabled":false,"rental_uris":{"android":"levelo://app?vid=a98b84b6-0814-4406-870e-6dd4d59b60e3","ios":"levelo://app?vid=a98b84b6-0814-4406-870e-6dd4d59b60e3"},"vehicle_type_id":"4","last_reported":1761642713,"current_range_meters":14800,"station_id":"ce4bhnp2rcd13ifvqgvg","pricing_plan_id":"cebpf4jnsgd1na2vs0mg"},{"bike_id":"fecf8e86-049e-49c6-ae26-487ea7fda6cf","system_id":"levelo_inurba_marseille","lat":43.24188,"lon":5.39719,"is_reserved":false,"is_disabled":false,"rental_uris":{"android":"levelo://app?vid=fecf8e86-049e-49c6-ae26-487ea7fda6cf","ios":"levelo://app?vid=fecf8e86-049e-49c6-ae26-487ea7fda6cf"},"vehicle_type_id":"4","last_reported":1761642713,"current_range_meters":15200,"station_id":"ce4bhn12rcd13ifvqgpg","pricing_plan_id":"cebpf4jnsgd1na2vs0mg"},{"bike_id":"39ffcab8-0f9d-40f0-bd54-6dbc1a53fb91","system_id":"levelo_inurba_marseille","lat":43.25939,"lon":5.40899,"is_reserved":false,"is_disabled":false,"rental_uris":{"android":"levelo://app?vid=39ffcab8-0f9d-40f0-bd54-6dbc1a53fb91","ios":"levelo://app?vid=39ffcab8-0f9d-40f0-bd54-6dbc1a53fb91"},"vehicle_type_id":"4","last_reported":1761642713,"current_range_meters":15200,"station_id":"ce4bhm92rcd13ifvqglg","pricing_plan_id":"cebpf4jnsgd1na2vs0mg"},{"bike_id":"e0e8459e-4585-476d-a572-7bcb703886bb","system_id":"levelo_inurba_marseille","lat":43.29037,"lon":5.3996,"is_reserved":false,"is_disabled":true,"rental_uris":{"android":"levelo://app?vid=e0e8459e-4585-476d-a572-7bcb703886bb","ios":"levelo://app?vid=e0e8459e-4585-476d-a572-7bcb703886bb"},"vehicle_type_id":"4","last_reported":1761642713,"current_range_meters":15200,"station_id":"ce4bh392rcd13ifvqdm0","pricing_plan_id":"cebpf4jnsgd1na2vs0mg"},{"bike_id":"c02e493f-549d-46aa-b3ea-4c48f11f0cc8","system_id":"levelo_inurba_marseille","lat":43.279596,"lon":5.38768,"is_reserved":false,"is_disabled":false,"rental_uris":{"android":"levelo://app?vid=c02e493f-549d-46aa-b3ea-4c48f11f0cc8","ios":"levelo://app?vid=c02e493f-549d-46aa-b3ea-4c48f11f0cc8"},"vehicle_type_id":"4","last_reported":1761642713,"current_range_meters":15200,"station_id":"ce4bhg12rcd13ifvqf80","pricing_plan_id":"cebpf4jnsgd1na2vs0mg"},{"bike_id":"dced2bcc-e95f-44ce-b7d8-7bb47def612a","system_id":"levelo_inurba_marseille","lat":43.23055,"lon":5.35489,"is_reserved":false,"is_disabled":false,"rental_uris":{"android":"levelo://app?vid=dced2bcc-e95f-44ce-b7d8-7bb47def612a","ios":"levelo://app?vid=dced2bcc-e95f-44ce-b7d8-7bb47def612a"},"vehicle_type_id":"4","last_reported":1761642713,"current_range_meters":15200,"station_id":"cpo3342slgdg3j2ifvpg","pricing_plan_id":"cebpf4jnsgd1na2vs0mg"},{"bike_id":"e37a8d1c-0606-41ea-874b-0a1fcf8f2f31","system_id":"levelo_inurba_marseille","lat":43.29197,"lon":5.358,"is_reserved":false,"is_disabled":false,"rental_uris":{"android":"levelo://app?vid=e37a8d1c-0606-41ea-874b-0a1fcf8f2f31","ios":"levelo://app?vid=e37a8d1c-0606-41ea-874b-0a1fcf8f2f31"},"vehicle_type_id":"4","last_reported":1761642713,"current_range_meters":15200,"station_id":"ce4bhb12rcd13ifvqel0","pricing_plan_id":"cebpf4jnsgd1na2vs0mg"},{"bike_id":"e8b00d39-8726-45ab-902a-db5ebf514149","system_id":"levelo_inurba_marseille","lat":43.24079,"lon":5.37736,"is_reserved":false,"is_disabled":false,"rental_uris":{"android":"levelo://app?vid=e8b00d39-8726-45ab-902a-db5ebf514149","ios":"levelo://app?vid=e8b00d39-8726-45ab-902a-db5ebf514149"},"vehicle_type_id":"4","last_reported":1761642713,"current_range_meters":16000,"station_id":"ce4bhnp2rcd13ifvqgvg","pricing_plan_id":"cebpf4jnsgd1na2vs0mg"},{"bike_id":"a9bd066d-8ed2-4c73-a710-ce4df058c25f","system_id":"levelo_inurba_marseille","lat":43.298,"lon":5.37111,"is_reserved":false,"is_disabled":false,"rental_uris":{"android":"levelo://app?vid=a9bd066d-8ed2-4c73-a710-ce4df058c25f","ios":"levelo://app?vid=a9bd066d-8ed2-4c73-a710-ce4df058c25f"},"vehicle_type_id":"4","last_reported":1761642713,"current_range_meters":16000,"station_id":"ce4bgop2rcd13ifvqc1g","pricing_plan_id":"cebpf4jnsgd1na2vs0mg"},{"bike_id":"94e6b0aa-f8c9-477e-8091-c3a189e0f238","system_id":"levelo_inurba_marseille","lat":43.29667,"lon":5.38109,"is_reserved":false,"is_disabled":false,"rental_uris":{"android":"levelo://app?vid=94e6b0aa-f8c9-477e-8091-c3a189e0f238","ios":"levelo://app?vid=94e6b0aa-f8c9-477e-8091-c3a189e0f238"},"vehicle_type_id":"4","last_reported":1761642713,"current_range_meters":16000,"station_id":"","pricing_plan_id":"cebpf4jnsgd1na2vs0mg"},{"bike_id":"a60cb070-d57c-4cd2-8d5d-f1d4b549ff3a","system_id":"levelo_inurba_marseille","lat":43.32356,"lon":5.36738,"is_reserved":false,"is_disabled":false,"rental_uris":{"android":"levelo://app?vid=a60cb070-d57c-4cd2-8d5d-f1d4b549ff3a","ios":"levelo://app?vid=a60cb070-d57c-4cd2-8d5d-f1d4b549ff3a"},"vehicle_type_id":"4","last_reported":1761642713,"current_range_meters":16000,"station_id":"ce4bhsh2rcd13ifvqi2g","pricing_plan_id":"cebpf4jnsgd1na2vs0mg"},{"bike_id":"2be3bf9b-39f4-4c37-8c01-9e9bcabe1c53","system_id":"levelo_inurba_marseille","lat":43.33741,"lon":5.37444,"is_reserved":false,"is_disabled":false,"rental_uris":{"android":"levelo://app?vid=2be3bf9b-39f4-4c37-8c01-9e9bcabe1c53","ios":"levelo://app?vid=2be3bf9b-39f4-4c37-8c01-9e9bcabe1c53"},"vehicle_type_id":"4","last_reported":1761642713,"current_range_meters":16000,"station_id":"","pricing_plan_id":"cebpf4jnsgd1na2vs0mg"},{"bike_id":"4ddfb4bb-556a-4528-9867-2221062f07d7","system_id":"levelo_inurba_marseille","lat":43.25928,"lon":5.40889,"is_reserved":false,"is_disabled":false,"rental_uris":{"android":"levelo://app?vid=4ddfb4bb-556a-4528-9867-2221062f07d7","ios":"levelo://app?vid=4ddfb4bb-556a-4528-9867-2221062f07d7"},"vehicle_type_id":"4","last_reported":1761642713,"current_range_meters":16000,"station_id":"ce4bhm92rcd13ifvqglg","pricing_plan_id":"cebpf4jnsgd1na2vs0mg"},{"bike_id":"902a8100-99e3-4d92-9b77-c60c0882d9d8","system_id":"levelo_inurba_marseille","lat":43.27945,"lon":5.41041,"is_reserved":false,"is_disabled":false,"rental_uris":{"android":"levelo://app?vid=902a8100-99e3-4d92-9b77-c60c0882d9d8","ios":"levelo://app?vid=902a8100-99e3-4d92-9b77-c60c0882d9d8"},"vehicle_type_id":"4","last_reported":1761642713,"current_range_meters":16400,"station_id":"ce4bhnp2rcd13ifvqh0g","pricing_plan_id":"cebpf4jnsgd1na2vs0mg"},{"bike_id":"b95f7d8b-7a23-478a-8d89-02c299293620","system_id":"levelo_inurba_marseille","lat":43.24068,"lon":5.37752,"is_reserved":false,"is_disabled":false,"rental_uris":{"android":"levelo://app?vid=b95f7d8b-7a23-478a-8d89-02c299293620","ios":"levelo://app?vid=b95f7d8b-7a23-478a-8d89-02c299293620"},"vehicle_type_id":"4","last_reported":1761642713,"current_range_meters":16400,"station_id":"ce4bhnp2rcd13ifvqgvg","pricing_plan_id":"cebpf4jnsgd1na2vs0mg"},{"bike_id":"f4ae8a8d-d71a-4e48-9339-66550bde7b84","system_id":"levelo_inurba_marseille","lat":43.296782,"lon":5.378637,"is_reserved":false,"is_disabled":false,"rental_uris":{"android":"levelo://app?vid=f4ae8a8d-d71a-4e48-9339-66550bde7b84","ios":"levelo://app?vid=f4ae8a8d-d71a-4e48-9339-66550bde7b84"},"vehicle_type_id":"4","last_reported":1761642713,"current_range_meters":16400,"station_id":"","pricing_plan_id":"cebpf4jnsgd1na2vs0mg"},{"bike_id":"b1fe57ed-71d9-4e16-b5a4-9d7bcf1ece4b","system_id":"levelo_inurba_marseille","lat":43.27317,"lon":5.391,"is_reserved":false,"is_disabled":false,"rental_uris":{"android":"levelo://app?vid=b1fe57ed-71d9-4e16-b5a4-9d7bcf1ece4b","ios":"levelo://app?vid=b1fe57ed-71d9-4e16-b5a4-9d7bcf1ece4b"},"vehicle_type_id":"4","last_reported":1761642713,"current_range_meters":16400,"station_id":"ce4bhgp2rcd13ifvqfe0","pricing_plan_id":"cebpf4jnsgd1na2vs0mg"},{"bike_id":"1e56fb51-2975-452c-86bb-dbdffd4bcc2f","system_id":"levelo_inurba_marseille","lat":43.2927,"lon":5.37638,"is_reserved":false,"is_disabled":false,"rental_uris":{"android":"levelo://app?vid=1e56fb51-2975-452c-86bb-dbdffd4bcc2f","ios":"levelo://app?vid=1e56fb51-2975-452c-86bb-dbdffd4bcc2f"},"vehicle_type_id":"4","last_reported":1761642713,"current_range_meters":16400,"station_id":"ce4bgi12rcd13ifvqb80","pricing_plan_id":"cebpf4jnsgd1na2vs0mg"},{"bike_id":"ae8ebe94-fc0f-4409-8f77-39eb5c613a67","system_id":"levelo_inurba_marseille","lat":43.337444,"lon":5.374475,"is_reserved":false,"is_disabled":false,"rental_uris":{"android":"levelo://app?vid=ae8ebe94-fc0f-4409-8f77-39eb5c613a67","ios":"levelo://app?vid=ae8ebe94-fc0f-4409-8f77-39eb5c613a67"},"vehicle_type_id":"4","last_reported":1761642713,"current_range_meters":16800,"station_id":"","pricing_plan_id":"cebpf4jnsgd1na2vs0mg"},{"bike_id":"85377363-cbd4-45ea-ab32-d8f5e1c2d1e3","system_id":"levelo_inurba_marseille","lat":43.24803,"lon":5.37454,"is_reserved":false,"is_disabled":true,"rental_uris":{"android":"levelo://app?vid=85377363-cbd4-45ea-ab32-d8f5e1c2d1e3","ios":"levelo://app?vid=85377363-cbd4-45ea-ab32-d8f5e1c2d1e3"},"vehicle_type_id":"4","last_reported":1761642713,"current_range_meters":16800,"station_id":"ce4bhgh2rcd13ifvqfb0","pricing_plan_id":"cebpf4jnsgd1na2vs0mg"},{"bike_id":"30be3bd8-ecb4-4749-acf1-2b8d8d14222d","system_id":"levelo_inurba_marseille","lat":43.27917,"lon":5.39584,"is_reserved":false,"is_disabled":false,"rental_uris":{"android":"levelo://app?vid=30be3bd8-ecb4-4749-acf1-2b8d8d14222d","ios":"levelo://app?vid=30be3bd8-ecb4-4749-acf1-2b8d8d14222d"},"vehicle_type_id":"4","last_reported":1761642713,"current_range_meters":16800,"station_id":"ce4bhf92rcd13ifvqf40","pricing_plan_id":"cebpf4jnsgd1na2vs0mg"},{"bike_id":"dc3f4f27-0c87-4208-8c15-6b40e049f762","system_id":"levelo_inurba_marseille","lat":43.231555,"lon":5.437056,"is_reserved":false,"is_disabled":false,"rental_uris":{"android":"levelo://app?vid=dc3f4f27-0c87-4208-8c15-6b40e049f762","ios":"levelo://app?vid=dc3f4f27-0c87-4208-8c15-6b40e049f762"},"vehicle_type_id":"4","last_reported":1761642713,"current_range_meters":16800,"station_id":"","pricing_plan_id":"cebpf4jnsgd1na2vs0mg"},{"bike_id":"32d7653e-b033-4183-b4c0-f44169bb9067","system_id":"levelo_inurba_marseille","lat":43.327072,"lon":5.392055,"is_reserved":false,"is_disabled":false,"rental_uris":{"android":"levelo://app?vid=32d7653e-b033-4183-b4c0-f44169bb9067","ios":"levelo://app?vid=32d7653e-b033-4183-b4c0-f44169bb9067"},"vehicle_type_id":"4","last_reported":1761642713,"current_range_meters":16800,"station_id":"","pricing_plan_id":"cebpf4jnsgd1na2vs0mg"},{"bike_id":"452e8e6e-6805-4d8b-9b13-79df7a637126","system_id":"levelo_inurba_marseille","lat":43.24402,"lon":5.37065,"is_reserved":false,"is_disabled":false,"rental_uris":{"android":"levelo://app?vid=452e8e6e-6805-4d8b-9b13-79df7a637126","ios":"levelo://app?vid=452e8e6e-6805-4d8b-9b13-79df7a637126"},"vehicle_type_id":"4","last_reported":1761642713,"current_range_meters":16800,"station_id":"ce4bhhh2rcd13ifvqfk0","pricing_plan_id":"cebpf4jnsgd1na2vs0mg"},{"bike_id":"c5357aaa-f358-42dd-a7b4-114e2fddc718","system_id":"levelo_inurba_marseille","lat":43.24818,"lon":5.37435,"is_reserved":false,"is_disabled":false,"rental_uris":{"android":"levelo://app?vid=c5357aaa-f358-42dd-a7b4-114e2fddc718","ios":"levelo://app?vid=c5357aaa-f358-42dd-a7b4-114e2fddc718"},"vehicle_type_id":"4","last_reported":1761642713,"current_range_meters":17200,"station_id":"ce4bhgh2rcd13ifvqfb0","pricing_plan_id":"cebpf4jnsgd1na2vs0mg"},{"bike_id":"18dddb8e-0d93-487d-a3c1-3245c18648cd","system_id":"levelo_inurba_marseille","lat":43.29848,"lon":5.36278,"is_reserved":false,"is_disabled":false,"rental_uris":{"android":"levelo://app?vid=18dddb8e-0d93-487d-a3c1-3245c18648cd","ios":"levelo://app?vid=18dddb8e-0d93-487d-a3c1-3245c18648cd"},"vehicle_type_id":"4","last_reported":1761642713,"current_range_meters":17200,"station_id":"ce4bgpp2rcd13ifvqc3g","pricing_plan_id":"cebpf4jnsgd1na2vs0mg"},{"bike_id":"7b123cef-0e94-4981-bd10-b225eb0c765d","system_id":"levelo_inurba_marseille","lat":43.23151,"lon":5.43716,"is_reserved":false,"is_disabled":false,"rental_uris":{"android":"levelo://app?vid=7b123cef-0e94-4981-bd10-b225eb0c765d","ios":"levelo://app?vid=7b123cef-0e94-4981-bd10-b225eb0c765d"},"vehicle_type_id":"4","last_reported":1761642713,"current_range_meters":17200,"station_id":"ce4bhmp2rcd13ifvqgog","pricing_plan_id":"cebpf4jnsgd1na2vs0mg"},{"bike_id":"eaed6499-9973-47d4-9735-9e2c2bd97da4","system_id":"levelo_inurba_marseille","lat":43.28544,"lon":5.44101,"is_reserved":false,"is_disabled":false,"rental_uris":{"android":"levelo://app?vid=eaed6499-9973-47d4-9735-9e2c2bd97da4","ios":"levelo://app?vid=eaed6499-9973-47d4-9735-9e2c2bd97da4"},"vehicle_type_id":"4","last_reported":1761642713,"current_range_meters":17200,"station_id":"st_d3j3df2ikq2c7380ej80","pricing_plan_id":"cebpf4jnsgd1na2vs0mg"},{"bike_id":"02dd205b-e97c-4104-9683-066d2523fd3f","system_id":"levelo_inurba_marseille","lat":43.230662,"lon":5.354907,"is_reserved":false,"is_disabled":false,"rental_uris":{"android":"levelo://app?vid=02dd205b-e97c-4104-9683-066d2523fd3f","ios":"levelo://app?vid=02dd205b-e97c-4104-9683-066d2523fd3f"},"vehicle_type_id":"4","last_reported":1761642713,"current_range_meters":17200,"station_id":"cpo3342slgdg3j2ifvpg","pricing_plan_id":"cebpf4jnsgd1na2vs0mg"},{"bike_id":"fc0ec4b0-3301-435f-a8cb-285894800f7a","system_id":"levelo_inurba_marseille","lat":43.3248,"lon":5.36586,"is_reserved":false,"is_disabled":false,"rental_uris":{"android":"levelo://app?vid=fc0ec4b0-3301-435f-a8cb-285894800f7a","ios":"levelo://app?vid=fc0ec4b0-3301-435f-a8cb-285894800f7a"},"vehicle_type_id":"4","last_reported":1761642713,"current_range_meters":17200,"station_id":"ce4bhs12rcd13ifvqhvg","pricing_plan_id":"cebpf4jnsgd1na2vs0mg"},{"bike_id":"20dc2d7a-398c-4e5d-81c7-7740366d42f6","system_id":"levelo_inurba_marseille","lat":43.26062,"lon":5.39395,"is_reserved":false,"is_disabled":false,"rental_uris":{"android":"levelo://app?vid=20dc2d7a-398c-4e5d-81c7-7740366d42f6","ios":"levelo://app?vid=20dc2d7a-398c-4e5d-81c7-7740366d42f6"},"vehicle_type_id":"4","last_reported":1761642713,"current_range_meters":17600,"station_id":"ce4bhh92rcd13ifvqfj0","pricing_plan_id":"cebpf4jnsgd1na2vs0mg"},{"bike_id":"3e8ea34b-90dd-4ef5-bd63-010a75b6e8aa","system_id":"levelo_inurba_marseille","lat":43.29154,"lon":5.3717,"is_reserved":false,"is_disabled":false,"rental_uris":{"android":"levelo://app?vid=3e8ea34b-90dd-4ef5-bd63-010a75b6e8aa","ios":"levelo://app?vid=3e8ea34b-90dd-4ef5-bd63-010a75b6e8aa"},"vehicle_type_id":"4","last_reported":1761642713,"current_range_meters":17600,"station_id":"ce4bha92rcd13ifvqeh0","pricing_plan_id":"cebpf4jnsgd1na2vs0mg"},{"bike_id":"689ae7e0-097f-4a34-a722-ee96618212a0","system_id":"levelo_inurba_marseille","lat":43.2501,"lon":5.38934,"is_reserved":false,"is_disabled":false,"rental_uris":{"android":"levelo://app?vid=689ae7e0-097f-4a34-a722-ee96618212a0","ios":"levelo://app?vid=689ae7e0-097f-4a34-a722-ee96618212a0"},"vehicle_type_id":"4","last_reported":1761642713,"current_range_meters":17600,"station_id":"ce4bhgp2rcd13ifvqfd0","pricing_plan_id":"cebpf4jnsgd1na2vs0mg"},{"bike_id":"6255e730-d590-4d7b-9b87-267f69ab4258","system_id":"levelo_inurba_marseille","lat":43.30906,"lon":5.36856,"is_reserved":false,"is_disabled":false,"rental_uris":{"android":"levelo://app?vid=6255e730-d590-4d7b-9b87-267f69ab4258","ios":"levelo://app?vid=6255e730-d590-4d7b-9b87-267f69ab4258"},"vehicle_type_id":"4","last_reported":1761642713,"current_range_meters":17600,"station_id":"ce4bgn92rcd13ifvqbvg","pricing_plan_id":"cebpf4jnsgd1na2vs0mg"},{"bike_id":"85a7df2c-8dcf-46f5-826c-c18168f09c7e","system_id":"levelo_inurba_marseille","lat":43.23062,"lon":5.35493,"is_reserved":false,"is_disabled":false,"rental_uris":{"android":"levelo://app?vid=85a7df2c-8dcf-46f5-826c-c18168f09c7e","ios":"levelo://app?vid=85a7df2c-8dcf-46f5-826c-c18168f09c7e"},"vehicle_type_id":"4","last_reported":1761642713,"current_range_meters":17600,"station_id":"cpo3342slgdg3j2ifvpg","pricing_plan_id":"cebpf4jnsgd1na2vs0mg"},{"bike_id":"1fc6db9c-9e61-4384-8596-d632009dac71","system_id":"levelo_inurba_marseille","lat":43.25818,"lon":5.39429,"is_reserved":false,"is_disabled":false,"rental_uris":{"android":"levelo://app?vid=1fc6db9c-9e61-4384-8596-d632009dac71","ios":"levelo://app?vid=1fc6db9c-9e61-4384-8596-d632009dac71"},"vehicle_type_id":"4","last_reported":1761642713,"current_range_meters":17600,"station_id":"ce4bhip2rcd13ifvqft0","pricing_plan_id":"cebpf4jnsgd1na2vs0mg"},{"bike_id":"7878df31-4079-4cd6-85ac-071b26189e33","system_id":"levelo_inurba_marseille","lat":43.29198,"lon":5.35816,"is_reserved":false,"is_disabled":false,"rental_uris":{"android":"levelo://app?vid=7878df31-4079-4cd6-85ac-071b26189e33","ios":"levelo://app?vid=7878df31-4079-4cd6-85ac-071b26189e33"},"vehicle_type_id":"4","last_reported":1761642713,"current_range_meters":18000,"station_id":"ce4bhb12rcd13ifvqel0","pricing_plan_id":"cebpf4jnsgd1na2vs0mg"},{"bike_id":"f79a84f4-55d0-4441-8119-340765a2973b","system_id":"levelo_inurba_marseille","lat":43.2592,"lon":5.40899,"is_reserved":false,"is_disabled":false,"rental_uris":{"android":"levelo://app?vid=f79a84f4-55d0-4441-8119-340765a2973b","ios":"levelo://app?vid=f79a84f4-55d0-4441-8119-340765a2973b"},"vehicle_type_id":"4","last_reported":1761642713,"current_range_meters":18000,"station_id":"ce4bhm92rcd13ifvqglg","pricing_plan_id":"cebpf4jnsgd1na2vs0mg"},{"bike_id":"d5d227ed-f82b-41ab-be3e-db91ac78eac3","system_id":"levelo_inurba_marseille","lat":43.29264,"lon":5.37615,"is_reserved":false,"is_disabled":false,"rental_uris":{"android":"levelo://app?vid=d5d227ed-f82b-41ab-be3e-db91ac78eac3","ios":"levelo://app?vid=d5d227ed-f82b-41ab-be3e-db91ac78eac3"},"vehicle_type_id":"4","last_reported":1761642713,"current_range_meters":18000,"station_id":"ce4bgi12rcd13ifvqb80","pricing_plan_id":"cebpf4jnsgd1na2vs0mg"},{"bike_id":"51a7e268-9562-4b96-8e84-f568b0acc7b7","system_id":"levelo_inurba_marseille","lat":43.247969,"lon":5.37456,"is_reserved":false,"is_disabled":true,"rental_uris":{"android":"levelo://app?vid=51a7e268-9562-4b96-8e84-f568b0acc7b7","ios":"levelo://app?vid=51a7e268-9562-4b96-8e84-f568b0acc7b7"},"vehicle_type_id":"4","last_reported":1761642713,"current_range_meters":18000,"station_id":"","pricing_plan_id":"cebpf4jnsgd1na2vs0mg"},{"bike_id":"681d38b5-a75b-4764-af13-b68c82b21e57","system_id":"levelo_inurba_marseille","lat":43.2791,"lon":5.39584,"is_reserved":false,"is_disabled":false,"rental_uris":{"android":"levelo://app?vid=681d38b5-a75b-4764-af13-b68c82b21e57","ios":"levelo://app?vid=681d38b5-a75b-4764-af13-b68c82b21e57"},"vehicle_type_id":"4","last_reported":1761642713,"current_range_meters":18000,"station_id":"ce4bhf92rcd13ifvqf40","pricing_plan_id":"cebpf4jnsgd1na2vs0mg"},{"bike_id":"a5b9631c-fc00-4689-bef7-803838a946a9","system_id":"levelo_inurba_marseille","lat":43.23153,"lon":5.43719,"is_reserved":false,"is_disabled":false,"rental_uris":{"android":"levelo://app?vid=a5b9631c-fc00-4689-bef7-803838a946a9","ios":"levelo://app?vid=a5b9631c-fc00-4689-bef7-803838a946a9"},"vehicle_type_id":"4","last_reported":1761642713,"current_range_meters":18000,"station_id":"ce4bhmp2rcd13ifvqgog","pricing_plan_id":"cebpf4jnsgd1na2vs0mg"},{"bike_id":"fc689893-6350-4e0a-916a-a88878849e6a","system_id":"levelo_inurba_marseille","lat":43.30373,"lon":5.424927,"is_reserved":false,"is_disabled":false,"rental_uris":{"android":"levelo://app?vid=fc689893-6350-4e0a-916a-a88878849e6a","ios":"levelo://app?vid=fc689893-6350-4e0a-916a-a88878849e6a"},"vehicle_type_id":"4","last_reported":1761642713,"current_range_meters":18000,"station_id":"ce4bhoh2rcd13ifvqh6g","pricing_plan_id":"cebpf4jnsgd1na2vs0mg"},{"bike_id":"80270f7b-205b-40d4-996c-ddafa23bb2a0","system_id":"levelo_inurba_marseille","lat":43.211914,"lon":5.350712,"is_reserved":false,"is_disabled":false,"rental_uris":{"android":"levelo://app?vid=80270f7b-205b-40d4-996c-ddafa23bb2a0","ios":"levelo://app?vid=80270f7b-205b-40d4-996c-ddafa23bb2a0"},"vehicle_type_id":"4","last_reported":1761642713,"current_range_meters":18000,"station_id":"","pricing_plan_id":"cebpf4jnsgd1na2vs0mg"},{"bike_id":"99373ff4-c6ad-47a3-8ec0-acdae6a78daf","system_id":"levelo_inurba_marseille","lat":43.30533,"lon":5.36518,"is_reserved":false,"is_disabled":false,"rental_uris":{"android":"levelo://app?vid=99373ff4-c6ad-47a3-8ec0-acdae6a78daf","ios":"levelo://app?vid=99373ff4-c6ad-47a3-8ec0-acdae6a78daf"},"vehicle_type_id":"4","last_reported":1761642713,"current_range_meters":18000,"station_id":"ce4bgs12rcd13ifvqcag","pricing_plan_id":"cebpf4jnsgd1na2vs0mg"},{"bike_id":"338ffcdd-7541-40bd-8376-76b9ce0895be","system_id":"levelo_inurba_marseille","lat":43.29708,"lon":5.36606,"is_reserved":false,"is_disabled":false,"rental_uris":{"android":"levelo://app?vid=338ffcdd-7541-40bd-8376-76b9ce0895be","ios":"levelo://app?vid=338ffcdd-7541-40bd-8376-76b9ce0895be"},"vehicle_type_id":"4","last_reported":1761642713,"current_range_meters":18000,"station_id":"ce4bgn12rcd13ifvqbt0","pricing_plan_id":"cebpf4jnsgd1na2vs0mg"},{"bike_id":"11ef3bae-f74c-4d6c-9e1c-74445fbc74b3","system_id":"levelo_inurba_marseille","lat":43.25508,"lon":5.37658,"is_reserved":false,"is_disabled":false,"rental_uris":{"android":"levelo://app?vid=11ef3bae-f74c-4d6c-9e1c-74445fbc74b3","ios":"levelo://app?vid=11ef3bae-f74c-4d6c-9e1c-74445fbc74b3"},"vehicle_type_id":"4","last_reported":1761642713,"current_range_meters":18000,"station_id":"ce4bhh12rcd13ifvqff0","pricing_plan_id":"cebpf4jnsgd1na2vs0mg"},{"bike_id":"da0b74d7-7595-45ed-848b-d80a3d4a8054","system_id":"levelo_inurba_marseille","lat":43.27211,"lon":5.39178,"is_reserved":false,"is_disabled":false,"rental_uris":{"android":"levelo://app?vid=da0b74d7-7595-45ed-848b-d80a3d4a8054","ios":"levelo://app?vid=da0b74d7-7595-45ed-848b-d80a3d4a8054"},"vehicle_type_id":"4","last_reported":1761642713,"current_range_meters":18800,"station_id":"ce4bhhp2rcd13ifvqfm0","pricing_plan_id":"cebpf4jnsgd1na2vs0mg"},{"bike_id":"8d1d20c2-6bab-4c94-9a9c-105633cd91c9","system_id":"levelo_inurba_marseille","lat":43.27958,"lon":5.38698,"is_reserved":false,"is_disabled":false,"rental_uris":{"android":"levelo://app?vid=8d1d20c2-6bab-4c94-9a9c-105633cd91c9","ios":"levelo://app?vid=8d1d20c2-6bab-4c94-9a9c-105633cd91c9"},"vehicle_type_id":"4","last_reported":1761642713,"current_range_meters":18800,"station_id":"ce4bhg12rcd13ifvqf80","pricing_plan_id":"cebpf4jnsgd1na2vs0mg"},{"bike_id":"9290c7a7-69c0-4b47-8ea2-eb69edee6a84","system_id":"levelo_inurba_marseille","lat":43.23147,"lon":5.43709,"is_reserved":false,"is_disabled":false,"rental_uris":{"android":"levelo://app?vid=9290c7a7-69c0-4b47-8ea2-eb69edee6a84","ios":"levelo://app?vid=9290c7a7-69c0-4b47-8ea2-eb69edee6a84"},"vehicle_type_id":"4","last_reported":1761642713,"current_range_meters":18800,"station_id":"ce4bhmp2rcd13ifvqgog","pricing_plan_id":"cebpf4jnsgd1na2vs0mg"},{"bike_id":"c52574f5-61a3-4a30-920f-6b556f81d351","system_id":"levelo_inurba_marseille","lat":43.32289,"lon":5.38284,"is_reserved":false,"is_disabled":false,"rental_uris":{"android":"levelo://app?vid=c52574f5-61a3-4a30-920f-6b556f81d351","ios":"levelo://app?vid=c52574f5-61a3-4a30-920f-6b556f81d351"},"vehicle_type_id":"4","last_reported":1761642713,"current_range_meters":18800,"station_id":"ce4bhr12rcd13ifvqhqg","pricing_plan_id":"cebpf4jnsgd1na2vs0mg"},{"bike_id":"8743deb1-3e1b-4fe6-ab63-b75dc0a57f17","system_id":"levelo_inurba_marseille","lat":43.23058,"lon":5.35502,"is_reserved":false,"is_disabled":false,"rental_uris":{"android":"levelo://app?vid=8743deb1-3e1b-4fe6-ab63-b75dc0a57f17","ios":"levelo://app?vid=8743deb1-3e1b-4fe6-ab63-b75dc0a57f17"},"vehicle_type_id":"4","last_reported":1761642713,"current_range_meters":18800,"station_id":"cpo3342slgdg3j2ifvpg","pricing_plan_id":"cebpf4jnsgd1na2vs0mg"},{"bike_id":"6ce8387a-7217-4885-b90c-41215d188545","system_id":"levelo_inurba_marseille","lat":43.288661,"lon":5.409361,"is_reserved":false,"is_disabled":false,"rental_uris":{"android":"levelo://app?vid=6ce8387a-7217-4885-b90c-41215d188545","ios":"levelo://app?vid=6ce8387a-7217-4885-b90c-41215d188545"},"vehicle_type_id":"4","last_reported":1761642713,"current_range_meters":18800,"station_id":"","pricing_plan_id":"cebpf4jnsgd1na2vs0mg"},{"bike_id":"aa0e7e4b-f890-4f53-a40a-615d9f77115a","system_id":"levelo_inurba_marseille","lat":43.321112,"lon":5.367748,"is_reserved":false,"is_disabled":false,"rental_uris":{"android":"levelo://app?vid=aa0e7e4b-f890-4f53-a40a-615d9f77115a","ios":"levelo://app?vid=aa0e7e4b-f890-4f53-a40a-615d9f77115a"},"vehicle_type_id":"4","last_reported":1761642713,"current_range_meters":19200,"station_id":"ce4bhrh2rcd13ifvqhug","pricing_plan_id":"cebpf4jnsgd1na2vs0mg"},{"bike_id":"6daca031-efb5-4517-911c-f1bf58b277b7","system_id":"levelo_inurba_marseille","lat":43.21195,"lon":5.35076,"is_reserved":false,"is_disabled":false,"rental_uris":{"android":"levelo://app?vid=6daca031-efb5-4517-911c-f1bf58b277b7","ios":"levelo://app?vid=6daca031-efb5-4517-911c-f1bf58b277b7"},"vehicle_type_id":"4","last_reported":1761642713,"current_range_meters":19200,"station_id":"st_cvj6sg6p6f1abm77japg","pricing_plan_id":"cebpf4jnsgd1na2vs0mg"},{"bike_id":"3f84c6d8-7145-4615-8fe5-f253b0c157ab","system_id":"levelo_inurba_marseille","lat":43.29165,"lon":5.37157,"is_reserved":false,"is_disabled":false,"rental_uris":{"android":"levelo://app?vid=3f84c6d8-7145-4615-8fe5-f253b0c157ab","ios":"levelo://app?vid=3f84c6d8-7145-4615-8fe5-f253b0c157ab"},"vehicle_type_id":"4","last_reported":1761642713,"current_range_meters":19200,"station_id":"ce4bha92rcd13ifvqeh0","pricing_plan_id":"cebpf4jnsgd1na2vs0mg"},{"bike_id":"f4dc36c7-6111-46e3-863e-30c22df8c912","system_id":"levelo_inurba_marseille","lat":43.26801,"lon":5.39415,"is_reserved":false,"is_disabled":false,"rental_uris":{"android":"levelo://app?vid=f4dc36c7-6111-46e3-863e-30c22df8c912","ios":"levelo://app?vid=f4dc36c7-6111-46e3-863e-30c22df8c912"},"vehicle_type_id":"4","last_reported":1761642713,"current_range_meters":19200,"station_id":"ce4bhh12rcd13ifvqfg0","pricing_plan_id":"cebpf4jnsgd1na2vs0mg"},{"bike_id":"cf532674-ded9-4c61-87c1-a0668ebf0df3","system_id":"levelo_inurba_marseille","lat":43.24068,"lon":5.37743,"is_reserved":false,"is_disabled":false,"rental_uris":{"android":"levelo://app?vid=cf532674-ded9-4c61-87c1-a0668ebf0df3","ios":"levelo://app?vid=cf532674-ded9-4c61-87c1-a0668ebf0df3"},"vehicle_type_id":"4","last_reported":1761642713,"current_range_meters":19200,"station_id":"ce4bhnp2rcd13ifvqgvg","pricing_plan_id":"cebpf4jnsgd1na2vs0mg"},{"bike_id":"1ff14011-1bb3-49a1-9941-97d38a0c81be","system_id":"levelo_inurba_marseille","lat":43.25099,"lon":5.39521,"is_reserved":false,"is_disabled":false,"rental_uris":{"android":"levelo://app?vid=1ff14011-1bb3-49a1-9941-97d38a0c81be","ios":"levelo://app?vid=1ff14011-1bb3-49a1-9941-97d38a0c81be"},"vehicle_type_id":"4","last_reported":1761642713,"current_range_meters":19200,"station_id":"ce4bhm12rcd13ifvqgkg","pricing_plan_id":"cebpf4jnsgd1na2vs0mg"},{"bike_id":"c8659c21-4a09-41c8-8fe9-93410494433a","system_id":"levelo_inurba_marseille","lat":43.26683,"lon":5.38266,"is_reserved":false,"is_disabled":false,"rental_uris":{"android":"levelo://app?vid=c8659c21-4a09-41c8-8fe9-93410494433a","ios":"levelo://app?vid=c8659c21-4a09-41c8-8fe9-93410494433a"},"vehicle_type_id":"4","last_reported":1761642713,"current_range_meters":19200,"station_id":"ce4bhg92rcd13ifvqf90","pricing_plan_id":"cebpf4jnsgd1na2vs0mg"},{"bike_id":"4a9eeb4c-11c1-4f5a-b3c3-0aeb1caccf66","system_id":"levelo_inurba_marseille","lat":43.2418,"lon":5.3973,"is_reserved":false,"is_disabled":false,"rental_uris":{"android":"levelo://app?vid=4a9eeb4c-11c1-4f5a-b3c3-0aeb1caccf66","ios":"levelo://app?vid=4a9eeb4c-11c1-4f5a-b3c3-0aeb1caccf66"},"vehicle_type_id":"4","last_reported":1761642713,"current_range_meters":19200,"station_id":"ce4bhn12rcd13ifvqgpg","pricing_plan_id":"cebpf4jnsgd1na2vs0mg"},{"bike_id":"96b93a83-82f2-4d31-acb8-139fbce4500d","system_id":"levelo_inurba_marseille","lat":43.229315,"lon":5.353833,"is_reserved":false,"is_disabled":false,"rental_uris":{"android":"levelo://app?vid=96b93a83-82f2-4d31-acb8-139fbce4500d","ios":"levelo://app?vid=96b93a83-82f2-4d31-acb8-139fbce4500d"},"vehicle_type_id":"4","last_reported":1761642713,"current_range_meters":19200,"station_id":"cpo3532slgdg3j2ikp40","pricing_plan_id":"cebpf4jnsgd1na2vs0mg"},{"bike_id":"3c172d5e-4be3-4447-81d6-5d4b4efa8bc0","system_id":"levelo_inurba_marseille","lat":43.26543,"lon":5.38538,"is_reserved":false,"is_disabled":false,"rental_uris":{"android":"levelo://app?vid=3c172d5e-4be3-4447-81d6-5d4b4efa8bc0","ios":"levelo://app?vid=3c172d5e-4be3-4447-81d6-5d4b4efa8bc0"},"vehicle_type_id":"4","last_reported":1761642713,"current_range_meters":19200,"station_id":"","pricing_plan_id":"cebpf4jnsgd1na2vs0mg"},{"bike_id":"56fd111b-345a-4693-9a2f-92da0def9adb","system_id":"levelo_inurba_marseille","lat":43.29258,"lon":5.38433,"is_reserved":false,"is_disabled":true,"rental_uris":{"android":"levelo://app?vid=56fd111b-345a-4693-9a2f-92da0def9adb","ios":"levelo://app?vid=56fd111b-345a-4693-9a2f-92da0def9adb"},"vehicle_type_id":"4","last_reported":1761642713,"current_range_meters":19600,"station_id":"ce4bh692rcd13ifvqea0","pricing_plan_id":"cebpf4jnsgd1na2vs0mg"},{"bike_id":"d3a42040-2141-4afa-ac78-ffd4f86fafb2","system_id":"levelo_inurba_marseille","lat":43.26197,"lon":5.37436,"is_reserved":false,"is_disabled":false,"rental_uris":{"android":"levelo://app?vid=d3a42040-2141-4afa-ac78-ffd4f86fafb2","ios":"levelo://app?vid=d3a42040-2141-4afa-ac78-ffd4f86fafb2"},"vehicle_type_id":"4","last_reported":1761642713,"current_range_meters":19600,"station_id":"ce4bhgp2rcd13ifvqfc0","pricing_plan_id":"cebpf4jnsgd1na2vs0mg"},{"bike_id":"6d8da19b-0143-43ba-a2b6-b774a32597d4","system_id":"levelo_inurba_marseille","lat":43.28147,"lon":5.34772,"is_reserved":false,"is_disabled":false,"rental_uris":{"android":"levelo://app?vid=6d8da19b-0143-43ba-a2b6-b774a32597d4","ios":"levelo://app?vid=6d8da19b-0143-43ba-a2b6-b774a32597d4"},"vehicle_type_id":"4","last_reported":1761642713,"current_range_meters":19600,"station_id":"","pricing_plan_id":"cebpf4jnsgd1na2vs0mg"},{"bike_id":"95ef2b07-316c-4f33-add3-3715d9b6a042","system_id":"levelo_inurba_marseille","lat":43.27551,"lon":5.38424,"is_reserved":false,"is_disabled":false,"rental_uris":{"android":"levelo://app?vid=95ef2b07-316c-4f33-add3-3715d9b6a042","ios":"levelo://app?vid=95ef2b07-316c-4f33-add3-3715d9b6a042"},"vehicle_type_id":"4","last_reported":1761642713,"current_range_meters":19600,"station_id":"ce4bhh92rcd13ifvqfi0","pricing_plan_id":"cebpf4jnsgd1na2vs0mg"},{"bike_id":"14fed8bf-0e52-4b67-9780-8d00ed00b796","system_id":"levelo_inurba_marseille","lat":43.25084,"lon":5.39499,"is_reserved":false,"is_disabled":false,"rental_uris":{"android":"levelo://app?vid=14fed8bf-0e52-4b67-9780-8d00ed00b796","ios":"levelo://app?vid=14fed8bf-0e52-4b67-9780-8d00ed00b796"},"vehicle_type_id":"4","last_reported":1761642713,"current_range_meters":19600,"station_id":"ce4bhm12rcd13ifvqgkg","pricing_plan_id":"cebpf4jnsgd1na2vs0mg"},{"bike_id":"2934ca1b-bcf3-47b2-a5e5-ce91178f4945","system_id":"levelo_inurba_marseille","lat":43.30548,"lon":5.36685,"is_reserved":false,"is_disabled":false,"rental_uris":{"android":"levelo://app?vid=2934ca1b-bcf3-47b2-a5e5-ce91178f4945","ios":"levelo://app?vid=2934ca1b-bcf3-47b2-a5e5-ce91178f4945"},"vehicle_type_id":"4","last_reported":1761642713,"current_range_meters":19600,"station_id":"ce4bgrp2rcd13ifvqc9g","pricing_plan_id":"cebpf4jnsgd1na2vs0mg"},{"bike_id":"f6adb9c1-4a78-4322-baec-aa5f6f5d93b6","system_id":"levelo_inurba_marseille","lat":43.225321,"lon":5.348302,"is_reserved":false,"is_disabled":false,"rental_uris":{"android":"levelo://app?vid=f6adb9c1-4a78-4322-baec-aa5f6f5d93b6","ios":"levelo://app?vid=f6adb9c1-4a78-4322-baec-aa5f6f5d93b6"},"vehicle_type_id":"4","last_reported":1761642713,"current_range_meters":19600,"station_id":"","pricing_plan_id":"cebpf4jnsgd1na2vs0mg"},{"bike_id":"941eca81-61b6-4376-acbb-773a2fc9f625","system_id":"levelo_inurba_marseille","lat":43.320936,"lon":5.367755,"is_reserved":false,"is_disabled":false,"rental_uris":{"android":"levelo://app?vid=941eca81-61b6-4376-acbb-773a2fc9f625","ios":"levelo://app?vid=941eca81-61b6-4376-acbb-773a2fc9f625"},"vehicle_type_id":"4","last_reported":1761642713,"current_range_meters":20000,"station_id":"ce4bhrh2rcd13ifvqhug","pricing_plan_id":"cebpf4jnsgd1na2vs0mg"},{"bike_id":"8e2dcd31-6a9c-4b7f-a366-5e2640173d3c","system_id":"levelo_inurba_marseille","lat":43.22936,"lon":5.35377,"is_reserved":false,"is_disabled":false,"rental_uris":{"android":"levelo://app?vid=8e2dcd31-6a9c-4b7f-a366-5e2640173d3c","ios":"levelo://app?vid=8e2dcd31-6a9c-4b7f-a366-5e2640173d3c"},"vehicle_type_id":"4","last_reported":1761642713,"current_range_meters":20000,"station_id":"cpo3532slgdg3j2ikp40","pricing_plan_id":"cebpf4jnsgd1na2vs0mg"},{"bike_id":"faee4aed-34d1-4e59-9f3e-bc2337688920","system_id":"levelo_inurba_marseille","lat":43.31714,"lon":5.43701,"is_reserved":false,"is_disabled":true,"rental_uris":{"android":"levelo://app?vid=faee4aed-34d1-4e59-9f3e-bc2337688920","ios":"levelo://app?vid=faee4aed-34d1-4e59-9f3e-bc2337688920"},"vehicle_type_id":"4","last_reported":1761642713,"current_range_meters":20000,"station_id":"ce4bhp92rcd13ifvqhcg","pricing_plan_id":"cebpf4jnsgd1na2vs0mg"},{"bike_id":"a861114f-0f83-408a-bc04-40467fb270de","system_id":"levelo_inurba_marseille","lat":43.2418,"lon":5.39727,"is_reserved":false,"is_disabled":false,"rental_uris":{"android":"levelo://app?vid=a861114f-0f83-408a-bc04-40467fb270de","ios":"levelo://app?vid=a861114f-0f83-408a-bc04-40467fb270de"},"vehicle_type_id":"4","last_reported":1761642713,"current_range_meters":20000,"station_id":"ce4bhn12rcd13ifvqgpg","pricing_plan_id":"cebpf4jnsgd1na2vs0mg"},{"bike_id":"1d2f5121-1156-406d-9bfb-6de607efd7cf","system_id":"levelo_inurba_marseille","lat":43.2594,"lon":5.40887,"is_reserved":false,"is_disabled":false,"rental_uris":{"android":"levelo://app?vid=1d2f5121-1156-406d-9bfb-6de607efd7cf","ios":"levelo://app?vid=1d2f5121-1156-406d-9bfb-6de607efd7cf"},"vehicle_type_id":"4","last_reported":1761642713,"current_range_meters":20000,"station_id":"ce4bhm92rcd13ifvqglg","pricing_plan_id":"cebpf4jnsgd1na2vs0mg"},{"bike_id":"4f24d0df-7b9a-48fa-a400-a6a0ae0f4ff8","system_id":"levelo_inurba_marseille","lat":43.24198,"lon":5.39728,"is_reserved":false,"is_disabled":false,"rental_uris":{"android":"levelo://app?vid=4f24d0df-7b9a-48fa-a400-a6a0ae0f4ff8","ios":"levelo://app?vid=4f24d0df-7b9a-48fa-a400-a6a0ae0f4ff8"},"vehicle_type_id":"4","last_reported":1761642713,"current_range_meters":20000,"station_id":"ce4bhn12rcd13ifvqgpg","pricing_plan_id":"cebpf4jnsgd1na2vs0mg"},{"bike_id":"e3260d53-1f31-4048-a6b1-57d9b1375877","system_id":"levelo_inurba_marseille","lat":43.28549,"lon":5.4412,"is_reserved":false,"is_disabled":false,"rental_uris":{"android":"levelo://app?vid=e3260d53-1f31-4048-a6b1-57d9b1375877","ios":"levelo://app?vid=e3260d53-1f31-4048-a6b1-57d9b1375877"},"vehicle_type_id":"4","last_reported":1761642713,"current_range_meters":20400,"station_id":"st_d3j3df2ikq2c7380ej80","pricing_plan_id":"cebpf4jnsgd1na2vs0mg"},{"bike_id":"3d00cf23-a66b-47a1-8eb3-f05af16b09a1","system_id":"levelo_inurba_marseille","lat":43.24396,"lon":5.37076,"is_reserved":false,"is_disabled":false,"rental_uris":{"android":"levelo://app?vid=3d00cf23-a66b-47a1-8eb3-f05af16b09a1","ios":"levelo://app?vid=3d00cf23-a66b-47a1-8eb3-f05af16b09a1"},"vehicle_type_id":"4","last_reported":1761642713,"current_range_meters":20400,"station_id":"ce4bhhh2rcd13ifvqfk0","pricing_plan_id":"cebpf4jnsgd1na2vs0mg"},{"bike_id":"8f40e585-9573-4a47-a5fc-e6719e6dcb82","system_id":"levelo_inurba_marseille","lat":43.30181,"lon":5.36607,"is_reserved":false,"is_disabled":false,"rental_uris":{"android":"levelo://app?vid=8f40e585-9573-4a47-a5fc-e6719e6dcb82","ios":"levelo://app?vid=8f40e585-9573-4a47-a5fc-e6719e6dcb82"},"vehicle_type_id":"4","last_reported":1761642713,"current_range_meters":20400,"station_id":"ce4bgrh2rcd13ifvqc8g","pricing_plan_id":"cebpf4jnsgd1na2vs0mg"},{"bike_id":"d8f01a87-338f-417f-87fc-81131e46bf2c","system_id":"levelo_inurba_marseille","lat":43.28284,"lon":5.35081,"is_reserved":false,"is_disabled":false,"rental_uris":{"android":"levelo://app?vid=d8f01a87-338f-417f-87fc-81131e46bf2c","ios":"levelo://app?vid=d8f01a87-338f-417f-87fc-81131e46bf2c"},"vehicle_type_id":"4","last_reported":1761642713,"current_range_meters":20400,"station_id":"ce4bhbp2rcd13ifvqerg","pricing_plan_id":"cebpf4jnsgd1na2vs0mg"},{"bike_id":"4bc3157f-2e41-472f-bc43-5c7044c93e52","system_id":"levelo_inurba_marseille","lat":43.29201,"lon":5.35788,"is_reserved":false,"is_disabled":false,"rental_uris":{"android":"levelo://app?vid=4bc3157f-2e41-472f-bc43-5c7044c93e52","ios":"levelo://app?vid=4bc3157f-2e41-472f-bc43-5c7044c93e52"},"vehicle_type_id":"4","last_reported":1761642713,"current_range_meters":20400,"station_id":"ce4bhb12rcd13ifvqel0","pricing_plan_id":"cebpf4jnsgd1na2vs0mg"},{"bike_id":"60e48d99-4eb3-4f02-8e95-5ec5b2f3486e","system_id":"levelo_inurba_marseille","lat":43.24176,"lon":5.397312,"is_reserved":false,"is_disabled":false,"rental_uris":{"android":"levelo://app?vid=60e48d99-4eb3-4f02-8e95-5ec5b2f3486e","ios":"levelo://app?vid=60e48d99-4eb3-4f02-8e95-5ec5b2f3486e"},"vehicle_type_id":"4","last_reported":1761642713,"current_range_meters":20400,"station_id":"ce4bhn12rcd13ifvqgpg","pricing_plan_id":"cebpf4jnsgd1na2vs0mg"},{"bike_id":"be2dc5fb-e27d-4d1a-97df-2261a1e2677e","system_id":"levelo_inurba_marseille","lat":43.265644,"lon":5.390147,"is_reserved":false,"is_disabled":true,"rental_uris":{"android":"levelo://app?vid=be2dc5fb-e27d-4d1a-97df-2261a1e2677e","ios":"levelo://app?vid=be2dc5fb-e27d-4d1a-97df-2261a1e2677e"},"vehicle_type_id":"4","last_reported":1761642713,"current_range_meters":20400,"station_id":"","pricing_plan_id":"cebpf4jnsgd1na2vs0mg"},{"bike_id":"208cdda3-2b43-400e-951e-2693b6f7bbf2","system_id":"levelo_inurba_marseille","lat":43.31717,"lon":5.40448,"is_reserved":false,"is_disabled":false,"rental_uris":{"android":"levelo://app?vid=208cdda3-2b43-400e-951e-2693b6f7bbf2","ios":"levelo://app?vid=208cdda3-2b43-400e-951e-2693b6f7bbf2"},"vehicle_type_id":"4","last_reported":1761642713,"current_range_meters":20400,"station_id":"ce4bh012rcd13ifvqd00","pricing_plan_id":"cebpf4jnsgd1na2vs0mg"},{"bike_id":"ce17120e-5ac7-42ed-b9d1-664e8dd35e4f","system_id":"levelo_inurba_marseille","lat":43.30911,"lon":5.36851,"is_reserved":false,"is_disabled":false,"rental_uris":{"android":"levelo://app?vid=ce17120e-5ac7-42ed-b9d1-664e8dd35e4f","ios":"levelo://app?vid=ce17120e-5ac7-42ed-b9d1-664e8dd35e4f"},"vehicle_type_id":"4","last_reported":1761642713,"current_range_meters":20800,"station_id":"ce4bgn92rcd13ifvqbvg","pricing_plan_id":"cebpf4jnsgd1na2vs0mg"},{"bike_id":"75dc66b3-0d26-400d-85b7-e985f64e2136","system_id":"levelo_inurba_marseille","lat":43.29007,"lon":5.43693,"is_reserved":false,"is_disabled":false,"rental_uris":{"android":"levelo://app?vid=75dc66b3-0d26-400d-85b7-e985f64e2136","ios":"levelo://app?vid=75dc66b3-0d26-400d-85b7-e985f64e2136"},"vehicle_type_id":"4","last_reported":1761642713,"current_range_meters":20800,"station_id":"","pricing_plan_id":"cebpf4jnsgd1na2vs0mg"},{"bike_id":"39d094ac-6017-4390-8e80-c3e2498dcfcf","system_id":"levelo_inurba_marseille","lat":43.2464,"lon":5.43113,"is_reserved":false,"is_disabled":false,"rental_uris":{"android":"levelo://app?vid=39d094ac-6017-4390-8e80-c3e2498dcfcf","ios":"levelo://app?vid=39d094ac-6017-4390-8e80-c3e2498dcfcf"},"vehicle_type_id":"4","last_reported":1761642713,"current_range_meters":20800,"station_id":"st_d2m6c4gdas8pm72e190g","pricing_plan_id":"cebpf4jnsgd1na2vs0mg"},{"bike_id":"c5371389-46de-4f8a-bd7f-bf00e2d0adb6","system_id":"levelo_inurba_marseille","lat":43.285,"lon":5.38432,"is_reserved":false,"is_disabled":false,"rental_uris":{"android":"levelo://app?vid=c5371389-46de-4f8a-bd7f-bf00e2d0adb6","ios":"levelo://app?vid=c5371389-46de-4f8a-bd7f-bf00e2d0adb6"},"vehicle_type_id":"4","last_reported":1761642713,"current_range_meters":20800,"station_id":"ce4bh512rcd13ifvqe3g","pricing_plan_id":"cebpf4jnsgd1na2vs0mg"},{"bike_id":"29fedfcf-711f-4172-b067-9501d1ef7f5b","system_id":"levelo_inurba_marseille","lat":43.25511,"lon":5.37661,"is_reserved":false,"is_disabled":false,"rental_uris":{"android":"levelo://app?vid=29fedfcf-711f-4172-b067-9501d1ef7f5b","ios":"levelo://app?vid=29fedfcf-711f-4172-b067-9501d1ef7f5b"},"vehicle_type_id":"4","last_reported":1761642713,"current_range_meters":20800,"station_id":"ce4bhh12rcd13ifvqff0","pricing_plan_id":"cebpf4jnsgd1na2vs0mg"},{"bike_id":"3abe6783-62e3-4753-b5d9-0c1f352bf635","system_id":"levelo_inurba_marseille","lat":43.29372,"lon":5.37834,"is_reserved":false,"is_disabled":false,"rental_uris":{"android":"levelo://app?vid=3abe6783-62e3-4753-b5d9-0c1f352bf635","ios":"levelo://app?vid=3abe6783-62e3-4753-b5d9-0c1f352bf635"},"vehicle_type_id":"4","last_reported":1761642713,"current_range_meters":20800,"station_id":"ce4bgjh2rcd13ifvqbf0","pricing_plan_id":"cebpf4jnsgd1na2vs0mg"},{"bike_id":"274d77b4-bd72-4c55-8f33-fb5287848718","system_id":"levelo_inurba_marseille","lat":43.30108,"lon":5.39843,"is_reserved":false,"is_disabled":true,"rental_uris":{"android":"levelo://app?vid=274d77b4-bd72-4c55-8f33-fb5287848718","ios":"levelo://app?vid=274d77b4-bd72-4c55-8f33-fb5287848718"},"vehicle_type_id":"4","last_reported":1761642713,"current_range_meters":20800,"station_id":"ce4bh0h2rcd13ifvqd40","pricing_plan_id":"cebpf4jnsgd1na2vs0mg"},{"bike_id":"a049967b-d347-4414-83a8-1154d36b087e","system_id":"levelo_inurba_marseille","lat":43.24388,"lon":5.37074,"is_reserved":false,"is_disabled":false,"rental_uris":{"android":"levelo://app?vid=a049967b-d347-4414-83a8-1154d36b087e","ios":"levelo://app?vid=a049967b-d347-4414-83a8-1154d36b087e"},"vehicle_type_id":"4","last_reported":1761642713,"current_range_meters":20800,"station_id":"ce4bhhh2rcd13ifvqfk0","pricing_plan_id":"cebpf4jnsgd1na2vs0mg"},{"bike_id":"0a61e5cd-3cd0-469c-b899-eaf7f5e2c2f9","system_id":"levelo_inurba_marseille","lat":43.24172,"lon":5.39725,"is_reserved":false,"is_disabled":false,"rental_uris":{"android":"levelo://app?vid=0a61e5cd-3cd0-469c-b899-eaf7f5e2c2f9","ios":"levelo://app?vid=0a61e5cd-3cd0-469c-b899-eaf7f5e2c2f9"},"vehicle_type_id":"4","last_reported":1761642713,"current_range_meters":20800,"station_id":"ce4bhn12rcd13ifvqgpg","pricing_plan_id":"cebpf4jnsgd1na2vs0mg"},{"bike_id":"1a34b5a4-3c1e-479b-b6f5-76f97d5c5c52","system_id":"levelo_inurba_marseille","lat":43.28536,"lon":5.44098,"is_reserved":false,"is_disabled":false,"rental_uris":{"android":"levelo://app?vid=1a34b5a4-3c1e-479b-b6f5-76f97d5c5c52","ios":"levelo://app?vid=1a34b5a4-3c1e-479b-b6f5-76f97d5c5c52"},"vehicle_type_id":"4","last_reported":1761642713,"current_range_meters":21600,"station_id":"st_d3j3df2ikq2c7380ej80","pricing_plan_id":"cebpf4jnsgd1na2vs0mg"},{"bike_id":"7360dde9-c6f3-4146-8f4e-b7bda3257fd2","system_id":"levelo_inurba_marseille","lat":43.30518,"lon":5.36523,"is_reserved":false,"is_disabled":false,"rental_uris":{"android":"levelo://app?vid=7360dde9-c6f3-4146-8f4e-b7bda3257fd2","ios":"levelo://app?vid=7360dde9-c6f3-4146-8f4e-b7bda3257fd2"},"vehicle_type_id":"4","last_reported":1761642713,"current_range_meters":21600,"station_id":"","pricing_plan_id":"cebpf4jnsgd1na2vs0mg"},{"bike_id":"37e8da48-74b0-4367-b595-5f28980577d6","system_id":"levelo_inurba_marseille","lat":43.25,"lon":5.38928,"is_reserved":false,"is_disabled":false,"rental_uris":{"android":"levelo://app?vid=37e8da48-74b0-4367-b595-5f28980577d6","ios":"levelo://app?vid=37e8da48-74b0-4367-b595-5f28980577d6"},"vehicle_type_id":"4","last_reported":1761642713,"current_range_meters":21600,"station_id":"ce4bhgp2rcd13ifvqfd0","pricing_plan_id":"cebpf4jnsgd1na2vs0mg"},{"bike_id":"ff172ac2-7565-43b3-b14a-170de46f0b4c","system_id":"levelo_inurba_marseille","lat":43.2418,"lon":5.39732,"is_reserved":false,"is_disabled":false,"rental_uris":{"android":"levelo://app?vid=ff172ac2-7565-43b3-b14a-170de46f0b4c","ios":"levelo://app?vid=ff172ac2-7565-43b3-b14a-170de46f0b4c"},"vehicle_type_id":"4","last_reported":1761642713,"current_range_meters":21600,"station_id":"ce4bhn12rcd13ifvqgpg","pricing_plan_id":"cebpf4jnsgd1na2vs0mg"},{"bike_id":"723a003b-69e7-40c1-8770-b8861d0b490a","system_id":"levelo_inurba_marseille","lat":43.22933,"lon":5.35378,"is_reserved":false,"is_disabled":false,"rental_uris":{"android":"levelo://app?vid=723a003b-69e7-40c1-8770-b8861d0b490a","ios":"levelo://app?vid=723a003b-69e7-40c1-8770-b8861d0b490a"},"vehicle_type_id":"4","last_reported":1761642713,"current_range_meters":21600,"station_id":"cpo3532slgdg3j2ikp40","pricing_plan_id":"cebpf4jnsgd1na2vs0mg"},{"bike_id":"edc72fb2-7f14-4c75-8c38-0a11b9902215","system_id":"levelo_inurba_marseille","lat":43.23957,"lon":5.36635,"is_reserved":false,"is_disabled":false,"rental_uris":{"android":"levelo://app?vid=edc72fb2-7f14-4c75-8c38-0a11b9902215","ios":"levelo://app?vid=edc72fb2-7f14-4c75-8c38-0a11b9902215"},"vehicle_type_id":"4","last_reported":1761642713,"current_range_meters":21600,"station_id":"ce4bhi12rcd13ifvqfp0","pricing_plan_id":"cebpf4jnsgd1na2vs0mg"},{"bike_id":"5d6dab70-76c7-420b-ad97-bb518b3696b2","system_id":"levelo_inurba_marseille","lat":43.30557,"lon":5.36526,"is_reserved":false,"is_disabled":false,"rental_uris":{"android":"levelo://app?vid=5d6dab70-76c7-420b-ad97-bb518b3696b2","ios":"levelo://app?vid=5d6dab70-76c7-420b-ad97-bb518b3696b2"},"vehicle_type_id":"4","last_reported":1761642713,"current_range_meters":21600,"station_id":"ce4bgs12rcd13ifvqcag","pricing_plan_id":"cebpf4jnsgd1na2vs0mg"},{"bike_id":"3abb6eb6-db1b-4cca-93df-245b58edd81e","system_id":"levelo_inurba_marseille","lat":43.312177,"lon":5.368588,"is_reserved":false,"is_disabled":false,"rental_uris":{"android":"levelo://app?vid=3abb6eb6-db1b-4cca-93df-245b58edd81e","ios":"levelo://app?vid=3abb6eb6-db1b-4cca-93df-245b58edd81e"},"vehicle_type_id":"4","last_reported":1761642713,"current_range_meters":21600,"station_id":"ce4bgl92rcd13ifvqbq0","pricing_plan_id":"cebpf4jnsgd1na2vs0mg"},{"bike_id":"a9551daa-79ad-468d-831f-e466d721d066","system_id":"levelo_inurba_marseille","lat":43.28712,"lon":5.37942,"is_reserved":false,"is_disabled":false,"rental_uris":{"android":"levelo://app?vid=a9551daa-79ad-468d-831f-e466d721d066","ios":"levelo://app?vid=a9551daa-79ad-468d-831f-e466d721d066"},"vehicle_type_id":"4","last_reported":1761642713,"current_range_meters":21600,"station_id":"ce4bh9p2rcd13ifvqec0","pricing_plan_id":"cebpf4jnsgd1na2vs0mg"},{"bike_id":"dcc94eee-350c-4c15-9e1d-369c37bc5f4b","system_id":"levelo_inurba_marseille","lat":43.24182,"lon":5.39719,"is_reserved":false,"is_disabled":false,"rental_uris":{"android":"levelo://app?vid=dcc94eee-350c-4c15-9e1d-369c37bc5f4b","ios":"levelo://app?vid=dcc94eee-350c-4c15-9e1d-369c37bc5f4b"},"vehicle_type_id":"4","last_reported":1761642713,"current_range_meters":21600,"station_id":"ce4bhn12rcd13ifvqgpg","pricing_plan_id":"cebpf4jnsgd1na2vs0mg"},{"bike_id":"11cc0176-4ba3-4520-941a-9b353baaf8c9","system_id":"levelo_inurba_marseille","lat":43.28697,"lon":5.39981,"is_reserved":false,"is_disabled":false,"rental_uris":{"android":"levelo://app?vid=11cc0176-4ba3-4520-941a-9b353baaf8c9","ios":"levelo://app?vid=11cc0176-4ba3-4520-941a-9b353baaf8c9"},"vehicle_type_id":"4","last_reported":1761642713,"current_range_meters":21600,"station_id":"ce4bho92rcd13ifvqh3g","pricing_plan_id":"cebpf4jnsgd1na2vs0mg"},{"bike_id":"036e4f11-a538-44e0-9363-2a866923620b","system_id":"levelo_inurba_marseille","lat":43.255134,"lon":5.376565,"is_reserved":false,"is_disabled":false,"rental_uris":{"android":"levelo://app?vid=036e4f11-a538-44e0-9363-2a866923620b","ios":"levelo://app?vid=036e4f11-a538-44e0-9363-2a866923620b"},"vehicle_type_id":"4","last_reported":1761642713,"current_range_meters":21600,"station_id":"ce4bhh12rcd13ifvqff0","pricing_plan_id":"cebpf4jnsgd1na2vs0mg"},{"bike_id":"a0eb1fa6-8b89-4fe8-a8c4-680d34293d34","system_id":"levelo_inurba_marseille","lat":43.28462,"lon":5.35891,"is_reserved":false,"is_disabled":false,"rental_uris":{"android":"levelo://app?vid=a0eb1fa6-8b89-4fe8-a8c4-680d34293d34","ios":"levelo://app?vid=a0eb1fa6-8b89-4fe8-a8c4-680d34293d34"},"vehicle_type_id":"4","last_reported":1761642713,"current_range_meters":22000,"station_id":"ce4bhah2rcd13ifvqei0","pricing_plan_id":"cebpf4jnsgd1na2vs0mg"},{"bike_id":"db0d7fd2-78fb-49f2-88b1-362741a795cb","system_id":"levelo_inurba_marseille","lat":43.337444,"lon":5.374475,"is_reserved":false,"is_disabled":false,"rental_uris":{"android":"levelo://app?vid=db0d7fd2-78fb-49f2-88b1-362741a795cb","ios":"levelo://app?vid=db0d7fd2-78fb-49f2-88b1-362741a795cb"},"vehicle_type_id":"4","last_reported":1761642713,"current_range_meters":22000,"station_id":"","pricing_plan_id":"cebpf4jnsgd1na2vs0mg"},{"bike_id":"b7236a65-6223-4fd4-815e-40976aa381e1","system_id":"levelo_inurba_marseille","lat":43.26789,"lon":5.39404,"is_reserved":false,"is_disabled":false,"rental_uris":{"android":"levelo://app?vid=b7236a65-6223-4fd4-815e-40976aa381e1","ios":"levelo://app?vid=b7236a65-6223-4fd4-815e-40976aa381e1"},"vehicle_type_id":"4","last_reported":1761642713,"current_range_meters":22000,"station_id":"ce4bhh12rcd13ifvqfg0","pricing_plan_id":"cebpf4jnsgd1na2vs0mg"},{"bike_id":"acd643fd-0a63-46e4-8844-bfae46dd5d43","system_id":"levelo_inurba_marseille","lat":43.28436,"lon":5.39199,"is_reserved":false,"is_disabled":false,"rental_uris":{"android":"levelo://app?vid=acd643fd-0a63-46e4-8844-bfae46dd5d43","ios":"levelo://app?vid=acd643fd-0a63-46e4-8844-bfae46dd5d43"},"vehicle_type_id":"4","last_reported":1761642713,"current_range_meters":22000,"station_id":"ce4bhoh2rcd13ifvqh5g","pricing_plan_id":"cebpf4jnsgd1na2vs0mg"},