{"last_updated":1737133677,"ttl":60,"version":"2.2","data":{"bikes":[{"bike_id":"69e32280-6e98-4445-91f9-7eb6d8634aa1","system_id":"levelo_inurba_marseille","lat":43.29049,"lon":5.35897,"is_reserved":false,"is_disabled":false,"rental_uris":{"android":"levelo://app?vid=69e32280-6e98-4445-91f9-7eb6d8634aa1","ios":"levelo://app?vid=69e32280-6e98-4445-91f9-7eb6d8634aa1"},"vehicle_type_id":"4","last_reported":1737133677,"current_range_meters":21600,"station_id":"ce4bha92rcd13ifvqeg0","pricing_plan_id":"cebpf4jnsgd1na2vs0mg"},{"bike_id":"9cef2990-7ae2-4408-93b1-79f4b4b40c4f","system_id":"levelo_inurba_marseille","lat":43.30988,"lon":5.38292,"is_reserved":false,"is_disabled":false,"rental_uris":{"android":"levelo://app?vid=9cef2990-7ae2-4408-93b1-79f4b4b40c4f","ios":"levelo://app?vid=9cef2990-7ae2-4408-93b1-79f4b4b40c4f"},"vehicle_type_id":"4","last_reported":1737133677,"current_range_meters":5600,"station_id":"ce4bh0h2rcd13ifvqd60","pricing_plan_id":"cebpf4jnsgd1na2vs0mg"},{"bike_id":"22251474-6b05-4b88-a57d-355b1ef20b73","system_id":"levelo_inurba_marseille","lat":43.281582,"lon":5.426456,"is_reserved":false,"is_disabled":false,"rental_uris":{"android":"levelo://app?vid=22251474-6b05-4b88-a57d-355b1ef20b73","ios":"levelo://app?vid=22251474-6b05-4b88-a57d-355b1ef20b73"},"vehicle_type_id":"4","last_reported":1737133677,"current_range_meters":14400,"station_id":"ce4bhnh2rcd13ifvqgug","pricing_plan_id":"cebpf4jnsgd1na2vs0mg"},{"bike_id":"4291f2e9-175e-4cb6-a7ee-9c6114f6ec79","system_id":"levelo_inurba_marseille","lat":43.29548,"lon":5.39394,"is_reserved":false,"is_disabled":false,"rental_uris":{"android":"levelo://app?vid=4291f2e9-175e-4cb6-a7ee-9c6114f6ec79","ios":"levelo://app?vid=4291f2e9-175e-4cb6-a7ee-9c6114f6ec79"},"vehicle_type_id":"4","last_reported":1737133677,"current_range_meters":32400,"station_id":"ce4bh292rcd13ifvqdf0","pricing_plan_id":"cebpf4jnsgd1na2vs0mg"},{"bike_id":"abfd55a3-e719-489b-80d7-7cc7d969f03e","system_id":"levelo_inurba_marseille","lat":43.30133,"lon":5.38781,"is_reserved":false,"is_disabled":false,"rental_uris":{"android":"levelo://app?vid=abfd55a3-e719-489b-80d7-7cc7d969f03e","ios":"levelo://app?vid=abfd55a3-e719-489b-80d7-7cc7d969f03e"},"vehicle_type_id":"4","last_reported":1737133677,"current_range_meters":38400,"station_id":"ce4bghh2rcd13ifvqb60","pricing_plan_id":"cebpf4jnsgd1na2vs0mg"},{"bike_id":"63944c13-1dbc-4b8e-892d-53ea6e8c8f43","system_id":"levelo_inurba_marseille","lat":43.27979,"lon":5.40038,"is_reserved":false,"is_disabled":false,"rental_uris":{"android":"levelo://app?vid=63944c13-1dbc-4b8e-892d-53ea6e8c8f43","ios":"levelo://app?vid=63944c13-1dbc-4b8e-892d-53ea6e8c8f43"},"vehicle_type_id":"4","last_reported":1737133677,"current_range_meters":14000,"station_id":"ce4bho92rcd13ifvqh4g","pricing_plan_id":"cebpf4jnsgd1na2vs0mg"},{"bike_id":"736aa54d-b902-4630-8a90-71e7dee03587","system_id":"levelo_inurba_marseille","lat":43.2607,"lon":5.39391,"is_reserved":false,"is_disabled":false,"rental_uris":{"android":"levelo://app?vid=736aa54d-b902-4630-8a90-71e7dee03587","ios":"levelo://app?vid=736aa54d-b902-4630-8a90-71e7dee03587"},"vehicle_type_id":"4","last_reported":1737133677,"current_range_meters":38000,"station_id":"ce4bhh92rcd13ifvqfj0","pricing_plan_id":"cebpf4jnsgd1na2vs0mg"},{"bike_id":"75d8f0a6-e099-4c97-914c-445fb134b064","system_id":"levelo_inurba_marseille","lat":43.293653,"lon":5.37839,"is_reserved":false,"is_disabled":true,"rental_uris":{"android":"levelo://app?vid=75d8f0a6-e099-4c97-914c-445fb134b064","ios":"levelo://app?vid=75d8f0a6-e099-4c97-914c-445fb134b064"},"vehicle_type_id":"4","last_reported":1737133677,"current_range_meters":0,"station_id":"ce4bgjh2rcd13ifvqbf0","pricing_plan_id":"cebpf4jnsgd1na2vs0mg"},{"bike_id":"5ff1c1c1-92c2-43f7-8f5e-7f9a3f2cf9a0","system_id":"levelo_inurba_marseille","lat":43.24199,"lon":5.39721,"is_reserved":false,"is_disabled":false,"rental_uris":{"android":"levelo://app?vid=5ff1c1c1-92c2-43f7-8f5e-7f9a3f2cf9a0","ios":"levelo://app?vid=5ff1c1c1-92c2-43f7-8f5e-7f9a3f2cf9a0"},"vehicle_type_id":"4","last_reported":1737133677,"current_range_meters":38800,"station_id":"ce4bhn12rcd13ifvqgpg","pricing_plan_id":"cebpf4jnsgd1na2vs0mg"},{"bike_id":"ce0550f8-eabb-49fd-8709-5684b4a3d568","system_id":"levelo_inurba_marseille","lat":43.29841,"lon":5.36266,"is_reserved":false,"is_disabled":false,"rental_uris":{"android":"levelo://app?vid=ce0550f8-eabb-49fd-8709-5684b4a3d568","ios":"levelo://app?vid=ce0550f8-eabb-49fd-8709-5684b4a3d568"},"vehicle_type_id":"4","last_reported":1737133677,"current_range_meters":33600,"station_id":"ce4bgpp2rcd13ifvqc3g","pricing_plan_id":"cebpf4jnsgd1na2vs0mg"},{"bike_id":"d8c3ae6f-579d-4d7c-8fe1-6fb2e88a0f76","system_id":"levelo_inurba_marseille","lat":43.32049,"lon":5.41553,"is_reserved":false,"is_disabled":false,"rental_uris":{"android":"levelo://app?vid=d8c3ae6f-579d-4d7c-8fe1-6fb2e88a0f76","ios":"levelo://app?vid=d8c3ae6f-579d-4d7c-8fe1-6fb2e88a0f76"},"vehicle_type_id":"4","last_reported":1737133677,"current_range_meters":19600,"station_id":"ce4bhq92rcd13ifvqhkg","pricing_plan_id":"cebpf4jnsgd1na2vs0mg"},{"bike_id":"c44af89f-e868-4ce6-b238-1e170c71f631","system_id":"levelo_inurba_marseille","lat":43.28682,"lon":5.38676,"is_reserved":false,"is_disabled":false,"rental_uris":{"android":"levelo://app?vid=c44af89f-e868-4ce6-b238-1e170c71f631","ios":"levelo://app?vid=c44af89f-e868-4ce6-b238-1e170c71f631"},"vehicle_type_id":"4","last_reported":1737133677,"current_range_meters":8000,"station_id":"ce4bh492rcd13ifvqdug","pricing_plan_id":"cebpf4jnsgd1na2vs0mg"},{"bike_id":"fbd788d9-1b39-4492-b12b-f43f19cba6a3","system_id":"levelo_inurba_marseille","lat":43.30547,"lon":5.38438,"is_reserved":false,"is_disabled":false,"rental_uris":{"android":"levelo://app?vid=fbd788d9-1b39-4492-b12b-f43f19cba6a3","ios":"levelo://app?vid=fbd788d9-1b39-4492-b12b-f43f19cba6a3"},"vehicle_type_id":"4","last_reported":1737133677,"current_range_meters":4400,"station_id":"ce4bgg92rcd13ifvqb30","pricing_plan_id":"cebpf4jnsgd1na2vs0mg"},{"bike_id":"93875a9e-d0eb-4aed-ab59-5b055f6834bd","system_id":"levelo_inurba_marseille","lat":43.30185,"lon":5.3957,"is_reserved":false,"is_disabled":false,"rental_uris":{"android":"levelo://app?vid=93875a9e-d0eb-4aed-ab59-5b055f6834bd","ios":"levelo://app?vid=93875a9e-d0eb-4aed-ab59-5b055f6834bd"},"vehicle_type_id":"4","last_reported":1737133677,"current_range_meters":8400,"station_id":"","pricing_plan_id":"cebpf4jnsgd1na2vs0mg"},{"bike_id":"a4607759-bc6a-4b88-a0dc-6331eb2acc8c","system_id":"levelo_inurba_marseille","lat":43.2922,"lon":5.36078,"is_reserved":false,"is_disabled":false,"rental_uris":{"android":"levelo://app?vid=a4607759-bc6a-4b88-a0dc-6331eb2acc8c","ios":"levelo://app?vid=a4607759-bc6a-4b88-a0dc-6331eb2acc8c"},"vehicle_type_id":"4","last_reported":1737133677,"current_range_meters":32000,"station_id":"ce4bhbh2rcd13ifvqeqg","pricing_plan_id":"cebpf4jnsgd1na2vs0mg"},{"bike_id":"f62770e2-2ef1-4a19-aa9a-6f653e74a837","system_id":"levelo_inurba_marseille","lat":43.310777,"lon":5.38363,"is_reserved":false,"is_disabled":false,"rental_uris":{"android":"levelo://app?vid=f62770e2-2ef1-4a19-aa9a-6f653e74a837","ios":"levelo://app?vid=f62770e2-2ef1-4a19-aa9a-6f653e74a837"},"vehicle_type_id":"4","last_reported":1737133677,"current_range_meters":18800,"station_id":"ce4bgv92rcd13ifvqcr0","pricing_plan_id":"cebpf4jnsgd1na2vs0mg"},{"bike_id":"f064536d-734b-4401-82e7-b786257f7319","system_id":"levelo_inurba_marseille","lat":43.32365,"lon":5.38888,"is_reserved":false,"is_disabled":false,"rental_uris":{"android":"levelo://app?vid=f064536d-734b-4401-82e7-b786257f7319","ios":"levelo://app?vid=f064536d-734b-4401-82e7-b786257f7319"},"vehicle_type_id":"4","last_reported":1737133677,"current_range_meters":14400,"station_id":"ce4bhqp2rcd13ifvqhog","pricing_plan_id":"cebpf4jnsgd1na2vs0mg"},{"bike_id":"2bcd7bc0-7654-426d-8907-9a875656b506","system_id":"levelo_inurba_marseille","lat":43.29916,"lon":5.37475,"is_reserved":false,"is_disabled":false,"rental_uris":{"android":"levelo://app?vid=2bcd7bc0-7654-426d-8907-9a875656b506","ios":"levelo://app?vid=2bcd7bc0-7654-426d-8907-9a875656b506"},"vehicle_type_id":"4","last_reported":1737133677,"current_range_meters":18800,"station_id":"ce4bgjh2rcd13ifvqbg0","pricing_plan_id":"cebpf4jnsgd1na2vs0mg"},{"bike_id":"8b6a8b78-4966-4fb6-9b29-4d80005f6d28","system_id":"levelo_inurba_marseille","lat":43.284122,"lon":5.37513,"is_reserved":false,"is_disabled":false,"rental_uris":{"android":"levelo://app?vid=8b6a8b78-4966-4fb6-9b29-4d80005f6d28","ios":"levelo://app?vid=8b6a8b78-4966-4fb6-9b29-4d80005f6d28"},"vehicle_type_id":"4","last_reported":1737133677,"current_range_meters":3200,"station_id":"ce4bh412rcd13ifvqds0","pricing_plan_id":"cebpf4jnsgd1na2vs0mg"},{"bike_id":"42e8d8d1-11e0-45bc-b4af-2e57d1dd8999","system_id":"levelo_inurba_marseille","lat":43.27205,"lon":5.39186,"is_reserved":false,"is_disabled":false,"rental_uris":{"android":"levelo://app?vid=42e8d8d1-11e0-45bc-b4af-2e57d1dd8999","ios":"levelo://app?vid=42e8d8d1-11e0-45bc-b4af-2e57d1dd8999"},"vehicle_type_id":"4","last_reported":1737133677,"current_range_meters":38000,"station_id":"ce4bhhp2rcd13ifvqfm0","pricing_plan_id":"cebpf4jnsgd1na2vs0mg"},{"bike_id":"93466992-898b-4f8b-b430-7905d1a379d9","system_id":"levelo_inurba_marseille","lat":43.28453,"lon":5.39209,"is_reserved":false,"is_disabled":false,"rental_uris":{"android":"levelo://app?vid=93466992-898b-4f8b-b430-7905d1a379d9","ios":"levelo://app?vid=93466992-898b-4f8b-b430-7905d1a379d9"},"vehicle_type_id":"4","last_reported":1737133677,"current_range_meters":10800,"station_id":"ce4bhoh2rcd13ifvqh5g","pricing_plan_id":"cebpf4jnsgd1na2vs0mg"},{"bike_id":"9b635df1-6311-412a-bda1-f3ae694ab633","system_id":"levelo_inurba_marseille","lat":43.31255,"lon":5.40174,"is_reserved":false,"is_disabled":false,"rental_uris":{"android":"levelo://app?vid=9b635df1-6311-412a-bda1-f3ae694ab633","ios":"levelo://app?vid=9b635df1-6311-412a-bda1-f3ae694ab633"},"vehicle_type_id":"4","last_reported":1737133677,"current_range_meters":36400,"station_id":"ce4bh092rcd13ifvqd30","pricing_plan_id":"cebpf4jnsgd1na2vs0mg"},{"bike_id":"c6e723d3-0b88-4608-8b8e-5bb7fffa11f4","system_id":"levelo_inurba_marseille","lat":43.30904,"lon":5.37202,"is_reserved":false,"is_disabled":false,"rental_uris":{"android":"levelo://app?vid=c6e723d3-0b88-4608-8b8e-5bb7fffa11f4","ios":"levelo://app?vid=c6e723d3-0b88-4608-8b8e-5bb7fffa11f4"},"vehicle_type_id":"4","last_reported":1737133677,"current_range_meters":38800,"station_id":"ce4bguh2rcd13ifvqckg","pricing_plan_id":"cebpf4jnsgd1na2vs0mg"},{"bike_id":"b41597f0-30e4-4731-a821-d808d1574cbb","system_id":"levelo_inurba_marseille","lat":43.33018,"lon":5.39042,"is_reserved":false,"is_disabled":false,"rental_uris":{"android":"levelo://app?vid=b41597f0-30e4-4731-a821-d808d1574cbb","ios":"levelo://app?vid=b41597f0-30e4-4731-a821-d808d1574cbb"},"vehicle_type_id":"4","last_reported":1737133677,"current_range_meters":38800,"station_id":"ce4bhr92rcd13ifvqhrg","pricing_plan_id":"cebpf4jnsgd1na2vs0mg"},{"bike_id":"15c9bac7-063b-4008-8233-689b3351f329","system_id":"levelo_inurba_marseille","lat":43.24801,"lon":5.37452,"is_reserved":false,"is_disabled":false,"rental_uris":{"android":"levelo://app?vid=15c9bac7-063b-4008-8233-689b3351f329","ios":"levelo://app?vid=15c9bac7-063b-4008-8233-689b3351f329"},"vehicle_type_id":"4","last_reported":1737133677,"current_range_meters":38800,"station_id":"ce4bhgh2rcd13ifvqfb0","pricing_plan_id":"cebpf4jnsgd1na2vs0mg"},{"bike_id":"88f5dbd0-5095-470c-9345-6a35673836c6","system_id":"levelo_inurba_marseille","lat":43.26213,"lon":5.37911,"is_reserved":false,"is_disabled":true,"rental_uris":{"android":"levelo://app?vid=88f5dbd0-5095-470c-9345-6a35673836c6","ios":"levelo://app?vid=88f5dbd0-5095-470c-9345-6a35673836c6"},"vehicle_type_id":"4","last_reported":1737133677,"current_range_meters":1200,"station_id":"ce4bhjp2rcd13ifvqg90","pricing_plan_id":"cebpf4jnsgd1na2vs0mg"},{"bike_id":"33a27f13-5f23-4984-8323-e12bba922a06","system_id":"levelo_inurba_marseille","lat":43.29058,"lon":5.35903,"is_reserved":false,"is_disabled":false,"rental_uris":{"android":"levelo://app?vid=33a27f13-5f23-4984-8323-e12bba922a06","ios":"levelo://app?vid=33a27f13-5f23-4984-8323-e12bba922a06"},"vehicle_type_id":"4","last_reported":1737133677,"current_range_meters":33200,"station_id":"ce4bha92rcd13ifvqeg0","pricing_plan_id":"cebpf4jnsgd1na2vs0mg"},{"bike_id":"632cc366-cde4-41ed-ab29-ccda15cdfc25","system_id":"levelo_inurba_marseille","lat":43.30273,"lon":5.37713,"is_reserved":false,"is_disabled":false,"rental_uris":{"android":"levelo://app?vid=632cc366-cde4-41ed-ab29-ccda15cdfc25","ios":"levelo://app?vid=632cc366-cde4-41ed-ab29-ccda15cdfc25"},"vehicle_type_id":"4","last_reported":1737133677,"current_range_meters":31200,"station_id":"ce4bguh2rcd13ifvqcj0","pricing_plan_id":"cebpf4jnsgd1na2vs0mg"},{"bike_id":"68f8bbf7-74cf-4eff-93b3-663befb1d865","system_id":"levelo_inurba_marseille","lat":43.29731,"lon":5.37695,"is_reserved":false,"is_disabled":false,"rental_uris":{"android":"levelo://app?vid=68f8bbf7-74cf-4eff-93b3-663befb1d865","ios":"levelo://app?vid=68f8bbf7-74cf-4eff-93b3-663befb1d865"},"vehicle_type_id":"4","last_reported":1737133677,"current_range_meters":38800,"station_id":"ce4bgkh2rcd13ifvqbl0","pricing_plan_id":"cebpf4jnsgd1na2vs0mg"},{"bike_id":"835db956-1cf0-49b1-b7c0-a9f7cb79e4cc","system_id":"levelo_inurba_marseille","lat":43.28748,"lon":5.36068,"is_reserved":false,"is_disabled":false,"rental_uris":{"android":"levelo://app?vid=835db956-1cf0-49b1-b7c0-a9f7cb79e4cc","ios":"levelo://app?vid=835db956-1cf0-49b1-b7c0-a9f7cb79e4cc"},"vehicle_type_id":"4","last_reported":1737133677,"current_range_meters":26800,"station_id":"cki0cbj6b192h4jlfktg","pricing_plan_id":"cebpf4jnsgd1na2vs0mg"},{"bike_id":"b03dfcf7-3859-499c-918f-1033b134f4d2","system_id":"levelo_inurba_marseille","lat":43.29721,"lon":5.37699,"is_reserved":false,"is_disabled":false,"rental_uris":{"android":"levelo://app?vid=b03dfcf7-3859-499c-918f-1033b134f4d2","ios":"levelo://app?vid=b03dfcf7-3859-499c-918f-1033b134f4d2"},"vehicle_type_id":"4","last_reported":1737133677,"current_range_meters":20800,"station_id":"ce4bgkh2rcd13ifvqbl0","pricing_plan_id":"cebpf4jnsgd1na2vs0mg"},{"bike_id":"66ec8711-3dbc-48f7-b091-25773ac6b77c","system_id":"levelo_inurba_marseille","lat":43.2819,"lon":5.44248,"is_reserved":false,"is_disabled":true,"rental_uris":{"android":"levelo://app?vid=66ec8711-3dbc-48f7-b091-25773ac6b77c","ios":"levelo://app?vid=66ec8711-3dbc-48f7-b091-25773ac6b77c"},"vehicle_type_id":"4","last_reported":1737133677,"current_range_meters":0,"station_id":"","pricing_plan_id":"cebpf4jnsgd1na2vs0mg"},{"bike_id":"99a2bf87-28b5-4248-b5d1-114b7b6aade7","system_id":"levelo_inurba_marseille","lat":43.29093,"lon":5.38141,"is_reserved":false,"is_disabled":false,"rental_uris":{"android":"levelo://app?vid=99a2bf87-28b5-4248-b5d1-114b7b6aade7","ios":"levelo://app?vid=99a2bf87-28b5-4248-b5d1-114b7b6aade7"},"vehicle_type_id":"4","last_reported":1737133677,"current_range_meters":38000,"station_id":"ce4bh512rcd13ifvqe2g","pricing_plan_id":"cebpf4jnsgd1na2vs0mg"},{"bike_id":"ead89a28-58b2-4040-8b88-df405528c49a","system_id":"levelo_inurba_marseille","lat":43.29794,"lon":5.38099,"is_reserved":false,"is_disabled":false,"rental_uris":{"android":"levelo://app?vid=ead89a28-58b2-4040-8b88-df405528c49a","ios":"levelo://app?vid=ead89a28-58b2-4040-8b88-df405528c49a"},"vehicle_type_id":"4","last_reported":1737133677,"current_range_meters":8800,"station_id":"ce4bgip2rcd13ifvqbb0","pricing_plan_id":"cebpf4jnsgd1na2vs0mg"},{"bike_id":"ea908303-e230-4a2c-ac3c-75f450eac299","system_id":"levelo_inurba_marseille","lat":43.29301,"lon":5.37177,"is_reserved":false,"is_disabled":true,"rental_uris":{"android":"levelo://app?vid=ea908303-e230-4a2c-ac3c-75f450eac299","ios":"levelo://app?vid=ea908303-e230-4a2c-ac3c-75f450eac299"},"vehicle_type_id":"4","last_reported":1737133677,"current_range_meters":800,"station_id":"ce4bgh92rcd13ifvqb40","pricing_plan_id":"cebpf4jnsgd1na2vs0mg"},{"bike_id":"242ce156-004f-44a4-999c-5530f5da8c4e","system_id":"levelo_inurba_marseille","lat":43.29731,"lon":5.40093,"is_reserved":false,"is_disabled":false,"rental_uris":{"android":"levelo://app?vid=242ce156-004f-44a4-999c-5530f5da8c4e","ios":"levelo://app?vid=242ce156-004f-44a4-999c-5530f5da8c4e"},"vehicle_type_id":"4","last_reported":1737133677,"current_range_meters":30400,"station_id":"","pricing_plan_id":"cebpf4jnsgd1na2vs0mg"},{"bike_id":"a81ea5b1-9317-453a-bcfd-4915654f0b73","system_id":"levelo_inurba_marseille","lat":43.32493,"lon":5.36591,"is_reserved":false,"is_disabled":false,"rental_uris":{"android":"levelo://app?vid=a81ea5b1-9317-453a-bcfd-4915654f0b73","ios":"levelo://app?vid=a81ea5b1-9317-453a-bcfd-4915654f0b73"},"vehicle_type_id":"4","last_reported":1737133677,"current_range_meters":38800,"station_id":"ce4bhs12rcd13ifvqhvg","pricing_plan_id":"cebpf4jnsgd1na2vs0mg"},{"bike_id":"8d22f8c5-ad80-43dc-98d7-5495be9f6849","system_id":"levelo_inurba_marseille","lat":43.28427,"lon":5.39208,"is_reserved":false,"is_disabled":true,"rental_uris":{"android":"levelo://app?vid=8d22f8c5-ad80-43dc-98d7-5495be9f6849","ios":"levelo://app?vid=8d22f8c5-ad80-43dc-98d7-5495be9f6849"},"vehicle_type_id":"4","last_reported":1737133677,"current_range_meters":0,"station_id":"ce4bhoh2rcd13ifvqh5g","pricing_plan_id":"cebpf4jnsgd1na2vs0mg"},{"bike_id":"4bcbd349-bdab-40c9-9aeb-55d852e9309f","system_id":"levelo_inurba_marseille","lat":43.26551,"lon":5.37289,"is_reserved":false,"is_disabled":false,"rental_uris":{"android":"levelo://app?vid=4bcbd349-bdab-40c9-9aeb-55d852e9309f","ios":"levelo://app?vid=4bcbd349-bdab-40c9-9aeb-55d852e9309f"},"vehicle_type_id":"4","last_reported":1737133677,"current_range_meters":2800,"station_id":"ce4bhg12rcd13ifvqf70","pricing_plan_id":"cebpf4jnsgd1na2vs0mg"},{"bike_id":"28a7dd22-f7c4-4216-a790-d0c17c2bfdcb","system_id":"levelo_inurba_marseille","lat":43.2827,"lon":5.35074,"is_reserved":false,"is_disabled":false,"rental_uris":{"android":"levelo://app?vid=28a7dd22-f7c4-4216-a790-d0c17c2bfdcb","ios":"levelo://app?vid=28a7dd22-f7c4-4216-a790-d0c17c2bfdcb"},"vehicle_type_id":"4","last_reported":1737133677,"current_range_meters":38800,"station_id":"ce4bhbp2rcd13ifvqerg","pricing_plan_id":"cebpf4jnsgd1na2vs0mg"},{"bike_id":"e15788f7-d2c1-4368-9bef-a76751232bcb","system_id":"levelo_inurba_marseille","lat":43.25115,"lon":5.40304,"is_reserved":false,"is_disabled":true,"rental_uris":{"android":"levelo://app?vid=e15788f7-d2c1-4368-9bef-a76751232bcb","ios":"levelo://app?vid=e15788f7-d2c1-4368-9bef-a76751232bcb"},"vehicle_type_id":"4","last_reported":1737133677,"current_range_meters":1600,"station_id":"ce4bhlh2rcd13ifvqgig","pricing_plan_id":"cebpf4jnsgd1na2vs0mg"},{"bike_id":"b481a069-add0-4d6b-b2dc-255c08074828","system_id":"levelo_inurba_marseille","lat":43.27914,"lon":5.3958,"is_reserved":false,"is_disabled":false,"rental_uris":{"android":"levelo://app?vid=b481a069-add0-4d6b-b2dc-255c08074828","ios":"levelo://app?vid=b481a069-add0-4d6b-b2dc-255c08074828"},"vehicle_type_id":"4","last_reported":1737133677,"current_range_meters":22000,"station_id":"ce4bhf92rcd13ifvqf40","pricing_plan_id":"cebpf4jnsgd1na2vs0mg"},{"bike_id":"30579412-b6f8-4825-8642-ca471e06d7d6","system_id":"levelo_inurba_marseille","lat":43.286677,"lon":5.363536,"is_reserved":false,"is_disabled":false,"rental_uris":{"android":"levelo://app?vid=30579412-b6f8-4825-8642-ca471e06d7d6","ios":"levelo://app?vid=30579412-b6f8-4825-8642-ca471e06d7d6"},"vehicle_type_id":"4","last_reported":1737133677,"current_range_meters":38800,"station_id":"ce4bhah2rcd13ifvqej0","pricing_plan_id":"cebpf4jnsgd1na2vs0mg"},{"bike_id":"ed05d91e-075f-4457-9cea-1cc457a72937","system_id":"levelo_inurba_marseille","lat":43.27373,"lon":5.3626,"is_reserved":false,"is_disabled":false,"rental_uris":{"android":"levelo://app?vid=ed05d91e-075f-4457-9cea-1cc457a72937","ios":"levelo://app?vid=ed05d91e-075f-4457-9cea-1cc457a72937"},"vehicle_type_id":"4","last_reported":1737133677,"current_range_meters":38800,"station_id":"ce4bhbh2rcd13ifvqeo0","pricing_plan_id":"cebpf4jnsgd1na2vs0mg"},{"bike_id":"7804de62-0eea-40a8-8d82-51a406eb0aec","system_id":"levelo_inurba_marseille","lat":43.28725,"lon":5.360977,"is_reserved":false,"is_disabled":false,"rental_uris":{"android":"levelo://app?vid=7804de62-0eea-40a8-8d82-51a406eb0aec","ios":"levelo://app?vid=7804de62-0eea-40a8-8d82-51a406eb0aec"},"vehicle_type_id":"4","last_reported":1737133677,"current_range_meters":9600,"station_id":"cki0cbj6b192h4jlfktg","pricing_plan_id":"cebpf4jnsgd1na2vs0mg"},{"bike_id":"b6b15eac-0d9c-4583-b37f-0f4d649fd5db","system_id":"levelo_inurba_marseille","lat":43.29885,"lon":5.3973,"is_reserved":false,"is_disabled":false,"rental_uris":{"android":"levelo://app?vid=b6b15eac-0d9c-4583-b37f-0f4d649fd5db","ios":"levelo://app?vid=b6b15eac-0d9c-4583-b37f-0f4d649fd5db"},"vehicle_type_id":"4","last_reported":1737133677,"current_range_meters":34000,"station_id":"ce4bh0h2rcd13ifvqd50","pricing_plan_id":"cebpf4jnsgd1na2vs0mg"},{"bike_id":"c29c09ef-1999-4d84-aafa-017171b454ff","system_id":"levelo_inurba_marseille","lat":43.31069,"lon":5.3837,"is_reserved":false,"is_disabled":false,"rental_uris":{"android":"levelo://app?vid=c29c09ef-1999-4d84-aafa-017171b454ff","ios":"levelo://app?vid=c29c09ef-1999-4d84-aafa-017171b454ff"},"vehicle_type_id":"4","last_reported":1737133677,"current_range_meters":8000,"station_id":"ce4bgv92rcd13ifvqcr0","pricing_plan_id":"cebpf4jnsgd1na2vs0mg"},{"bike_id":"914448ac-b0fd-428b-a466-a1d6a573446e","system_id":"levelo_inurba_marseille","lat":43.29516,"lon":5.39402,"is_reserved":false,"is_disabled":false,"rental_uris":{"android":"levelo://app?vid=914448ac-b0fd-428b-a466-a1d6a573446e","ios":"levelo://app?vid=914448ac-b0fd-428b-a466-a1d6a573446e"},"vehicle_type_id":"4","last_reported":1737133677,"current_range_meters":30800,"station_id":"ce4bh292rcd13ifvqdf0","pricing_plan_id":"cebpf4jnsgd1na2vs0mg"},{"bike_id":"6ea4d259-06b8-4e0f-9494-4eae2040b46d","system_id":"levelo_inurba_marseille","lat":43.24172,"lon":5.39718,"is_reserved":false,"is_disabled":false,"rental_uris":{"android":"levelo://app?vid=6ea4d259-06b8-4e0f-9494-4eae2040b46d","ios":"levelo://app?vid=6ea4d259-06b8-4e0f-9494-4eae2040b46d"},"vehicle_type_id":"4","last_reported":1737133677,"current_range_meters":28000,"station_id":"ce4bhn12rcd13ifvqgpg","pricing_plan_id":"cebpf4jnsgd1na2vs0mg"},{"bike_id":"1c251bf5-b64e-4eb9-a4d4-3356681275a3","system_id":"levelo_inurba_marseille","lat":43.27311,"lon":5.39088,"is_reserved":false,"is_disabled":false,"rental_uris":{"android":"levelo://app?vid=1c251bf5-b64e-4eb9-a4d4-3356681275a3","ios":"levelo://app?vid=1c251bf5-b64e-4eb9-a4d4-3356681275a3"},"vehicle_type_id":"4","last_reported":1737133677,"current_range_meters":4800,"station_id":"ce4bhgp2rcd13ifvqfe0","pricing_plan_id":"cebpf4jnsgd1na2vs0mg"},{"bike_id":"0aacbbb4-b4df-4112-9f3e-9c8b0c3a36b2","system_id":"levelo_inurba_marseille","lat":43.2439,"lon":5.37043,"is_reserved":false,"is_disabled":false,"rental_uris":{"android":"levelo://app?vid=0aacbbb4-b4df-4112-9f3e-9c8b0c3a36b2","ios":"levelo://app?vid=0aacbbb4-b4df-4112-9f3e-9c8b0c3a36b2"},"vehicle_type_id":"4","last_reported":1737133677,"current_range_meters":27600,"station_id":"ce4bhhh2rcd13ifvqfk0","pricing_plan_id":"cebpf4jnsgd1na2vs0mg"},{"bike_id":"43d66404-cb05-42fb-9c69-99683ebcfcd9","system_id":"levelo_inurba_marseille","lat":43.3014,"lon":5.3742,"is_reserved":false,"is_disabled":false,"rental_uris":{"android":"levelo://app?vid=43d66404-cb05-42fb-9c69-99683ebcfcd9","ios":"levelo://app?vid=43d66404-cb05-42fb-9c69-99683ebcfcd9"},"vehicle_type_id":"4","last_reported":1737133677,"current_range_meters":24800,"station_id":"ce4bgs92rcd13ifvqcc0","pricing_plan_id":"cebpf4jnsgd1na2vs0mg"},{"bike_id":"811a1ec0-366e-4fd8-8f3c-3e594a31f929","system_id":"levelo_inurba_marseille","lat":43.255713,"lon":5.38239,"is_reserved":false,"is_disabled":false,"rental_uris":{"android":"levelo://app?vid=811a1ec0-366e-4fd8-8f3c-3e594a31f929","ios":"levelo://app?vid=811a1ec0-366e-4fd8-8f3c-3e594a31f929"},"vehicle_type_id":"4","last_reported":1737133677,"current_range_meters":33200,"station_id":"ce4bhih2rcd13ifvqfs0","pricing_plan_id":"cebpf4jnsgd1na2vs0mg"},{"bike_id":"33af81ff-7332-4df6-9033-3aca60f72781","system_id":"levelo_inurba_marseille","lat":43.29191,"lon":5.39317,"is_reserved":false,"is_disabled":false,"rental_uris":{"android":"levelo://app?vid=33af81ff-7332-4df6-9033-3aca60f72781","ios":"levelo://app?vid=33af81ff-7332-4df6-9033-3aca60f72781"},"vehicle_type_id":"4","last_reported":1737133677,"current_range_meters":29600,"station_id":"ce4bh192rcd13ifvqdd0","pricing_plan_id":"cebpf4jnsgd1na2vs0mg"},{"bike_id":"891d5aa4-b1b0-4e0c-90ac-49e97bf9c382","system_id":"levelo_inurba_marseille","lat":43.23194,"lon":5.40004,"is_reserved":false,"is_disabled":false,"rental_uris":{"android":"levelo://app?vid=891d5aa4-b1b0-4e0c-90ac-49e97bf9c382","ios":"levelo://app?vid=891d5aa4-b1b0-4e0c-90ac-49e97bf9c382"},"vehicle_type_id":"4","last_reported":1737133677,"current_range_meters":33200,"station_id":"ce4bhn12rcd13ifvqgqg","pricing_plan_id":"cebpf4jnsgd1na2vs0mg"},{"bike_id":"4ef97778-b2b1-48fc-8b54-3333d03be56b","system_id":"levelo_inurba_marseille","lat":43.293357,"lon":5.403408,"is_reserved":false,"is_disabled":false,"rental_uris":{"android":"levelo://app?vid=4ef97778-b2b1-48fc-8b54-3333d03be56b","ios":"levelo://app?vid=4ef97778-b2b1-48fc-8b54-3333d03be56b"},"vehicle_type_id":"4","last_reported":1737133677,"current_range_meters":16400,"station_id":"","pricing_plan_id":"cebpf4jnsgd1na2vs0mg"},{"bike_id":"aab9ccff-ed55-4214-b5e0-76557c45eff3","system_id":"levelo_inurba_marseille","lat":43.29358,"lon":5.37865,"is_reserved":false,"is_disabled":false,"rental_uris":{"android":"levelo://app?vid=aab9ccff-ed55-4214-b5e0-76557c45eff3","ios":"levelo://app?vid=aab9ccff-ed55-4214-b5e0-76557c45eff3"},"vehicle_type_id":"4","last_reported":1737133677,"current_range_meters":18800,"station_id":"ce4bgjh2rcd13ifvqbf0","pricing_plan_id":"cebpf4jnsgd1na2vs0mg"},{"bike_id":"357eaeda-fef2-41f2-9ad0-621ae2cc5c09","system_id":"levelo_inurba_marseille","lat":43.33768,"lon":5.37496,"is_reserved":false,"is_disabled":false,"rental_uris":{"android":"levelo://app?vid=357eaeda-fef2-41f2-9ad0-621ae2cc5c09","ios":"levelo://app?vid=357eaeda-fef2-41f2-9ad0-621ae2cc5c09"},"vehicle_type_id":"4","last_reported":1737133677,"current_range_meters":35200,"station_id":"","pricing_plan_id":"cebpf4jnsgd1na2vs0mg"},{"bike_id":"80d1f7de-1185-440e-928b-30c5ef899902","system_id":"levelo_inurba_marseille","lat":43.30141,"lon":5.38083,"is_reserved":false,"is_disabled":false,"rental_uris":{"android":"levelo://app?vid=80d1f7de-1185-440e-928b-30c5ef899902","ios":"levelo://app?vid=80d1f7de-1185-440e-928b-30c5ef899902"},"vehicle_type_id":"4","last_reported":1737133677,"current_range_meters":32800,"station_id":"ce4bgjp2rcd13ifvqbh0","pricing_plan_id":"cebpf4jnsgd1na2vs0mg"},{"bike_id":"d40db295-ba70-46c6-9f9e-98afe382ed30","system_id":"levelo_inurba_marseille","lat":43.29803,"lon":5.37108,"is_reserved":false,"is_disabled":false,"rental_uris":{"android":"levelo://app?vid=d40db295-ba70-46c6-9f9e-98afe382ed30","ios":"levelo://app?vid=d40db295-ba70-46c6-9f9e-98afe382ed30"},"vehicle_type_id":"4","last_reported":1737133677,"current_range_meters":32400,"station_id":"ce4bgop2rcd13ifvqc1g","pricing_plan_id":"cebpf4jnsgd1na2vs0mg"},{"bike_id":"c5c9f01e-4015-400e-b849-c83503a3014f","system_id":"levelo_inurba_marseille","lat":43.25114,"lon":5.40336,"is_reserved":false,"is_disabled":false,"rental_uris":{"android":"levelo://app?vid=c5c9f01e-4015-400e-b849-c83503a3014f","ios":"levelo://app?vid=c5c9f01e-4015-400e-b849-c83503a3014f"},"vehicle_type_id":"4","last_reported":1737133677,"current_range_meters":4400,"station_id":"ce4bhlh2rcd13ifvqgig","pricing_plan_id":"cebpf4jnsgd1na2vs0mg"},{"bike_id":"312b622b-01c5-426d-8513-fedfcbcce3bf","system_id":"levelo_inurba_marseille","lat":43.30802,"lon":5.43526,"is_reserved":false,"is_disabled":false,"rental_uris":{"android":"levelo://app?vid=312b622b-01c5-426d-8513-fedfcbcce3bf","ios":"levelo://app?vid=312b622b-01c5-426d-8513-fedfcbcce3bf"},"vehicle_type_id":"4","last_reported":1737133677,"current_range_meters":24000,"station_id":"ce4bhph2rcd13ifvqheg","pricing_plan_id":"cebpf4jnsgd1na2vs0mg"},{"bike_id":"2a8f49bf-0f24-4c20-9534-899ede2c3fb2","system_id":"levelo_inurba_marseille","lat":43.29364,"lon":5.37857,"is_reserved":false,"is_disabled":false,"rental_uris":{"android":"levelo://app?vid=2a8f49bf-0f24-4c20-9534-899ede2c3fb2","ios":"levelo://app?vid=2a8f49bf-0f24-4c20-9534-899ede2c3fb2"},"vehicle_type_id":"4","last_reported":1737133677,"current_range_meters":5600,"station_id":"ce4bgjh2rcd13ifvqbf0","pricing_plan_id":"cebpf4jnsgd1na2vs0mg"},{"bike_id":"5b76f427-64cd-45d3-9800-3fa0b93657e9","system_id":"levelo_inurba_marseille","lat":43.27609,"lon":5.36112,"is_reserved":false,"is_disabled":true,"rental_uris":{"android":"levelo://app?vid=5b76f427-64cd-45d3-9800-3fa0b93657e9","ios":"levelo://app?vid=5b76f427-64cd-45d3-9800-3fa0b93657e9"},"vehicle_type_id":"4","last_reported":1737133677,"current_range_meters":0,"station_id":"ce4bgj92rcd13ifvqbe0","pricing_plan_id":"cebpf4jnsgd1na2vs0mg"},{"bike_id":"7975a0c2-37ee-487f-804f-1164e539cf9a","system_id":"levelo_inurba_marseille","lat":43.24677,"lon":5.38158,"is_reserved":false,"is_disabled":false,"rental_uris":{"android":"levelo://app?vid=7975a0c2-37ee-487f-804f-1164e539cf9a","ios":"levelo://app?vid=7975a0c2-37ee-487f-804f-1164e539cf9a"},"vehicle_type_id":"4","last_reported":1737133677,"current_range_meters":39200,"station_id":"ce4bhih2rcd13ifvqfr0","pricing_plan_id":"cebpf4jnsgd1na2vs0mg"},{"bike_id":"a9e718dc-8810-4554-9aac-159398d57135","system_id":"levelo_inurba_marseille","lat":43.30796,"lon":5.38154,"is_reserved":false,"is_disabled":false,"rental_uris":{"android":"levelo://app?vid=a9e718dc-8810-4554-9aac-159398d57135","ios":"levelo://app?vid=a9e718dc-8810-4554-9aac-159398d57135"},"vehicle_type_id":"4","last_reported":1737133677,"current_range_meters":34000,"station_id":"ce4bgt12rcd13ifvqce0","pricing_plan_id":"cebpf4jnsgd1na2vs0mg"},{"bike_id":"a447752a-91ad-40ca-9d72-9e7cab9a2b00","system_id":"levelo_inurba_marseille","lat":43.29036,"lon":5.38651,"is_reserved":false,"is_disabled":false,"rental_uris":{"android":"levelo://app?vid=a447752a-91ad-40ca-9d72-9e7cab9a2b00","ios":"levelo://app?vid=a447752a-91ad-40ca-9d72-9e7cab9a2b00"},"vehicle_type_id":"4","last_reported":1737133677,"current_range_meters":16800,"station_id":"ce4bh4p2rcd13ifvqe0g","pricing_plan_id":"cebpf4jnsgd1na2vs0mg"},{"bike_id":"5c84e98f-ad29-46e7-b229-0f070ab7b120","system_id":"levelo_inurba_marseille","lat":43.2794,"lon":5.41041,"is_reserved":false,"is_disabled":false,"rental_uris":{"android":"levelo://app?vid=5c84e98f-ad29-46e7-b229-0f070ab7b120","ios":"levelo://app?vid=5c84e98f-ad29-46e7-b229-0f070ab7b120"},"vehicle_type_id":"4","last_reported":1737133677,"current_range_meters":28000,"station_id":"ce4bhnp2rcd13ifvqh0g","pricing_plan_id":"cebpf4jnsgd1na2vs0mg"},{"bike_id":"ad892ce8-947d-4ca7-890e-f92eaf40b0d9","system_id":"levelo_inurba_marseille","lat":43.24173,"lon":5.39737,"is_reserved":false,"is_disabled":false,"rental_uris":{"android":"levelo://app?vid=ad892ce8-947d-4ca7-890e-f92eaf40b0d9","ios":"levelo://app?vid=ad892ce8-947d-4ca7-890e-f92eaf40b0d9"},"vehicle_type_id":"4","last_reported":1737133677,"current_range_meters":38800,"station_id":"ce4bhn12rcd13ifvqgpg","pricing_plan_id":"cebpf4jnsgd1na2vs0mg"},{"bike_id":"9be957d2-26d1-49a4-9f85-b06ee3432064","system_id":"levelo_inurba_marseille","lat":43.33728,"lon":5.39223,"is_reserved":false,"is_disabled":false,"rental_uris":{"android":"levelo://app?vid=9be957d2-26d1-49a4-9f85-b06ee3432064","ios":"levelo://app?vid=9be957d2-26d1-49a4-9f85-b06ee3432064"},"vehicle_type_id":"4","last_reported":1737133677,"current_range_meters":29600,"station_id":"ce4bhr92rcd13ifvqhsg","pricing_plan_id":"cebpf4jnsgd1na2vs0mg"},{"bike_id":"93eaaa03-9c47-4080-88a3-408e4b6ee6c4","system_id":"levelo_inurba_marseille","lat":43.30879,"lon":5.37212,"is_reserved":false,"is_disabled":true,"rental_uris":{"android":"levelo://app?vid=93eaaa03-9c47-4080-88a3-408e4b6ee6c4","ios":"levelo://app?vid=93eaaa03-9c47-4080-88a3-408e4b6ee6c4"},"vehicle_type_id":"4","last_reported":1737133677,"current_range_meters":1600,"station_id":"ce4bguh2rcd13ifvqckg","pricing_plan_id":"cebpf4jnsgd1na2vs0mg"},{"bike_id":"4f2b33bf-5340-41d8-832a-14d80612ba43","system_id":"levelo_inurba_marseille","lat":43.25084,"lon":5.39513,"is_reserved":false,"is_disabled":false,"rental_uris":{"android":"levelo://app?vid=4f2b33bf-5340-41d8-832a-14d80612ba43","ios":"levelo://app?vid=4f2b33bf-5340-41d8-832a-14d80612ba43"},"vehicle_type_id":"4","last_reported":1737133677,"current_range_meters":38800,"station_id":"ce4bhm12rcd13ifvqgkg","pricing_plan_id":"cebpf4jnsgd1na2vs0mg"},{"bike_id":"2026c448-07ec-415d-9bd1-67da4edd1d13","system_id":"levelo_inurba_marseille","lat":43.296,"lon":5.38109,"is_reserved":false,"is_disabled":false,"rental_uris":{"android":"levelo://app?vid=2026c448-07ec-415d-9bd1-67da4edd1d13","ios":"levelo://app?vid=2026c448-07ec-415d-9bd1-67da4edd1d13"},"vehicle_type_id":"4","last_reported":1737133677,"current_range_meters":20800,"station_id":"ce4bgl12rcd13ifvqbo0","pricing_plan_id":"cebpf4jnsgd1na2vs0mg"},{"bike_id":"015345ae-a454-4a87-93a5-89eed37c898f","system_id":"levelo_inurba_marseille","lat":43.28348,"lon":5.38102,"is_reserved":false,"is_disabled":false,"rental_uris":{"android":"levelo://app?vid=015345ae-a454-4a87-93a5-89eed37c898f","ios":"levelo://app?vid=015345ae-a454-4a87-93a5-89eed37c898f"},"vehicle_type_id":"4","last_reported":1737133677,"current_range_meters":35200,"station_id":"ce4bh412rcd13ifvqdr0","pricing_plan_id":"cebpf4jnsgd1na2vs0mg"},{"bike_id":"dba19669-f0ce-4351-808c-3c11f0dc4ead","system_id":"levelo_inurba_marseille","lat":43.29091,"lon":5.38139,"is_reserved":false,"is_disabled":false,"rental_uris":{"android":"levelo://app?vid=dba19669-f0ce-4351-808c-3c11f0dc4ead","ios":"levelo://app?vid=dba19669-f0ce-4351-808c-3c11f0dc4ead"},"vehicle_type_id":"4","last_reported":1737133677,"current_range_meters":36000,"station_id":"ce4bh512rcd13ifvqe2g","pricing_plan_id":"cebpf4jnsgd1na2vs0mg"},{"bike_id":"2f8323ce-59e6-451b-8899-796352a9f28c","system_id":"levelo_inurba_marseille","lat":43.30132,"lon":5.37421,"is_reserved":false,"is_disabled":false,"rental_uris":{"android":"levelo://app?vid=2f8323ce-59e6-451b-8899-796352a9f28c","ios":"levelo://app?vid=2f8323ce-59e6-451b-8899-796352a9f28c"},"vehicle_type_id":"4","last_reported":1737133677,"current_range_meters":25200,"station_id":"ce4bgs92rcd13ifvqcc0","pricing_plan_id":"cebpf4jnsgd1na2vs0mg"},{"bike_id":"f02609cc-defe-461f-ac25-29f93533a230","system_id":"levelo_inurba_marseille","lat":43.32291,"lon":5.38278,"is_reserved":false,"is_disabled":false,"rental_uris":{"android":"levelo://app?vid=f02609cc-defe-461f-ac25-29f93533a230","ios":"levelo://app?vid=f02609cc-defe-461f-ac25-29f93533a230"},"vehicle_type_id":"4","last_reported":1737133677,"current_range_meters":38400,"station_id":"ce4bhr12rcd13ifvqhqg","pricing_plan_id":"cebpf4jnsgd1na2vs0mg"},{"bike_id":"89b06e1d-660c-4f17-bcc8-d713ffeebb23","system_id":"levelo_inurba_marseille","lat":43.28103,"lon":5.3784,"is_reserved":false,"is_disabled":false,"rental_uris":{"android":"levelo://app?vid=89b06e1d-660c-4f17-bcc8-d713ffeebb23","ios":"levelo://app?vid=89b06e1d-660c-4f17-bcc8-d713ffeebb23"},"vehicle_type_id":"4","last_reported":1737133677,"current_range_meters":27600,"station_id":"ce4bha12rcd13ifvqee0","pricing_plan_id":"cebpf4jnsgd1na2vs0mg"},{"bike_id":"d0175b4f-e5a5-4857-830f-fc61eef99108","system_id":"levelo_inurba_marseille","lat":43.30936,"lon":5.40135,"is_reserved":false,"is_disabled":false,"rental_uris":{"android":"levelo://app?vid=d0175b4f-e5a5-4857-830f-fc61eef99108","ios":"levelo://app?vid=d0175b4f-e5a5-4857-830f-fc61eef99108"},"vehicle_type_id":"4","last_reported":1737133677,"current_range_meters":38800,"station_id":"ce4bgvp2rcd13ifvqct0","pricing_plan_id":"cebpf4jnsgd1na2vs0mg"},{"bike_id":"2ebff9cb-7b6e-4e9e-a1ea-2677fb8fe52d","system_id":"levelo_inurba_marseille","lat":43.27988,"lon":5.4166,"is_reserved":false,"is_disabled":false,"rental_uris":{"android":"levelo://app?vid=2ebff9cb-7b6e-4e9e-a1ea-2677fb8fe52d","ios":"levelo://app?vid=2ebff9cb-7b6e-4e9e-a1ea-2677fb8fe52d"},"vehicle_type_id":"4","last_reported":1737133677,"current_range_meters":26800,"station_id":"ce4bho12rcd13ifvqh1g","pricing_plan_id":"cebpf4jnsgd1na2vs0mg"},{"bike_id":"79d2d2a8-6be9-4e59-85ea-706cafb20b4e","system_id":"levelo_inurba_marseille","lat":43.28668,"lon":5.36342,"is_reserved":false,"is_disabled":false,"rental_uris":{"android":"levelo://app?vid=79d2d2a8-6be9-4e59-85ea-706cafb20b4e","ios":"levelo://app?vid=79d2d2a8-6be9-4e59-85ea-706cafb20b4e"},"vehicle_type_id":"4","last_reported":1737133677,"current_range_meters":9200,"station_id":"ce4bhah2rcd13ifvqej0","pricing_plan_id":"cebpf4jnsgd1na2vs0mg"},{"bike_id":"8850e6e9-607c-4707-a35e-396796b7213c","system_id":"levelo_inurba_marseille","lat":43.2558,"lon":5.38231,"is_reserved":false,"is_disabled":true,"rental_uris":{"android":"levelo://app?vid=8850e6e9-607c-4707-a35e-396796b7213c","ios":"levelo://app?vid=8850e6e9-607c-4707-a35e-396796b7213c"},"vehicle_type_id":"4","last_reported":1737133677,"current_range_meters":0,"station_id":"ce4bhih2rcd13ifvqfs0","pricing_plan_id":"cebpf4jnsgd1na2vs0mg"},{"bike_id":"2f4bf420-3325-488b-a54b-1f6887aa9595","system_id":"levelo_inurba_marseille","lat":43.31052,"lon":5.40075,"is_reserved":false,"is_disabled":false,"rental_uris":{"android":"levelo://app?vid=2f4bf420-3325-488b-a54b-1f6887aa9595","ios":"levelo://app?vid=2f4bf420-3325-488b-a54b-1f6887aa9595"},"vehicle_type_id":"4","last_reported":1737133677,"current_range_meters":38800,"station_id":"","pricing_plan_id":"cebpf4jnsgd1na2vs0mg"},{"bike_id":"72ee35ea-34ee-4b89-a819-27a2e564f7ec","system_id":"levelo_inurba_marseille","lat":43.258297,"lon":5.394323,"is_reserved":false,"is_disabled":false,"rental_uris":{"android":"levelo://app?vid=72ee35ea-34ee-4b89-a819-27a2e564f7ec","ios":"levelo://app?vid=72ee35ea-34ee-4b89-a819-27a2e564f7ec"},"vehicle_type_id":"4","last_reported":1737133677,"current_range_meters":16400,"station_id":"ce4bhip2rcd13ifvqft0","pricing_plan_id":"cebpf4jnsgd1na2vs0mg"},{"bike_id":"cd5bbd0e-67ff-417a-948d-9539778448fb","system_id":"levelo_inurba_marseille","lat":43.29209,"lon":5.39336,"is_reserved":false,"is_disabled":false,"rental_uris":{"android":"levelo://app?vid=cd5bbd0e-67ff-417a-948d-9539778448fb","ios":"levelo://app?vid=cd5bbd0e-67ff-417a-948d-9539778448fb"},"vehicle_type_id":"4","last_reported":1737133677,"current_range_meters":24800,"station_id":"ce4bh192rcd13ifvqdd0","pricing_plan_id":"cebpf4jnsgd1na2vs0mg"},{"bike_id":"dabaa9ed-d73a-4f65-a26e-437d029e622e","system_id":"levelo_inurba_marseille","lat":43.30653,"lon":5.40086,"is_reserved":false,"is_disabled":false,"rental_uris":{"android":"levelo://app?vid=dabaa9ed-d73a-4f65-a26e-437d029e622e","ios":"levelo://app?vid=dabaa9ed-d73a-4f65-a26e-437d029e622e"},"vehicle_type_id":"4","last_reported":1737133677,"current_range_meters":12400,"station_id":"ce4bh112rcd13ifvqda0","pricing_plan_id":"cebpf4jnsgd1na2vs0mg"},{"bike_id":"4e396b93-4dd7-4cda-8395-278f5c5c4f46","system_id":"levelo_inurba_marseille","lat":43.29552,"lon":5.38525,"is_reserved":false,"is_disabled":false,"rental_uris":{"android":"levelo://app?vid=4e396b93-4dd7-4cda-8395-278f5c5c4f46","ios":"levelo://app?vid=4e396b93-4dd7-4cda-8395-278f5c5c4f46"},"vehicle_type_id":"4","last_reported":1737133677,"current_range_meters":17200,"station_id":"ce4bgih2rcd13ifvqba0","pricing_plan_id":"cebpf4jnsgd1na2vs0mg"},{"bike_id":"b2269802-94da-4df1-a94f-c0120e22dfba","system_id":"levelo_inurba_marseille","lat":43.23055,"lon":5.35497,"is_reserved":false,"is_disabled":false,"rental_uris":{"android":"levelo://app?vid=b2269802-94da-4df1-a94f-c0120e22dfba","ios":"levelo://app?vid=b2269802-94da-4df1-a94f-c0120e22dfba"},"vehicle_type_id":"4","last_reported":1737133677,"current_range_meters":20000,"station_id":"cpo3342slgdg3j2ifvpg","pricing_plan_id":"cebpf4jnsgd1na2vs0mg"},{"bike_id":"f4a4a406-b0a5-42fc-9236-32e93ac6f6b2","system_id":"levelo_inurba_marseille","lat":43.23146,"lon":5.43691,"is_reserved":false,"is_disabled":true,"rental_uris":{"android":"levelo://app?vid=f4a4a406-b0a5-42fc-9236-32e93ac6f6b2","ios":"levelo://app?vid=f4a4a406-b0a5-42fc-9236-32e93ac6f6b2"},"vehicle_type_id":"4","last_reported":1737133677,"current_range_meters":33200,"station_id":"ce4bhmp2rcd13ifvqgog","pricing_plan_id":"cebpf4jnsgd1na2vs0mg"},{"bike_id":"e9f88ade-a4c7-4862-9e4b-788e4d7ba7b7","system_id":"levelo_inurba_marseille","lat":43.31712,"lon":5.42406,"is_reserved":false,"is_disabled":false,"rental_uris":{"android":"levelo://app?vid=e9f88ade-a4c7-4862-9e4b-788e4d7ba7b7","ios":"levelo://app?vid=e9f88ade-a4c7-4862-9e4b-788e4d7ba7b7"},"vehicle_type_id":"4","last_reported":1737133677,"current_range_meters":38800,"station_id":"ce4bhp92rcd13ifvqhbg","pricing_plan_id":"cebpf4jnsgd1na2vs0mg"},{"bike_id":"5d44b428-73f2-4318-acb1-07f87cea294f","system_id":"levelo_inurba_marseille","lat":43.29729,"lon":5.37693,"is_reserved":false,"is_disabled":false,"rental_uris":{"android":"levelo://app?vid=5d44b428-73f2-4318-acb1-07f87cea294f","ios":"levelo://app?vid=5d44b428-73f2-4318-acb1-07f87cea294f"},"vehicle_type_id":"4","last_reported":1737133677,"current_range_meters":16400,"station_id":"ce4bgkh2rcd13ifvqbl0","pricing_plan_id":"cebpf4jnsgd1na2vs0mg"},{"bike_id":"fae1883e-e730-4256-bb8b-8168e59c6bcb","system_id":"levelo_inurba_marseille","lat":43.29609,"lon":5.40608,"is_reserved":false,"is_disabled":false,"rental_uris":{"android":"levelo://app?vid=fae1883e-e730-4256-bb8b-8168e59c6bcb","ios":"levelo://app?vid=fae1883e-e730-4256-bb8b-8168e59c6bcb"},"vehicle_type_id":"4","last_reported":1737133677,"current_range_meters":38800,"station_id":"ce4bh0h2rcd13ifvqd60","pricing_plan_id":"cebpf4jnsgd1na2vs0mg"},{"bike_id":"678e6c21-ae33-4211-9534-682ad57c39c7","system_id":"levelo_inurba_marseille","lat":43.2319,"lon":5.40002,"is_reserved":false,"is_disabled":false,"rental_uris":{"android":"levelo://app?vid=678e6c21-ae33-4211-9534-682ad57c39c7","ios":"levelo://app?vid=678e6c21-ae33-4211-9534-682ad57c39c7"},"vehicle_type_id":"4","last_reported":1737133677,"current_range_meters":12800,"station_id":"ce4bhn12rcd13ifvqgqg","pricing_plan_id":"cebpf4jnsgd1na2vs0mg"},{"bike_id":"67c549d5-ce81-408a-a146-d43915340e7f","system_id":"levelo_inurba_marseille","lat":43.33723,"lon":5.39191,"is_reserved":false,"is_disabled":false,"rental_uris":{"android":"levelo://app?vid=67c549d5-ce81-408a-a146-d43915340e7f","ios":"levelo://app?vid=67c549d5-ce81-408a-a146-d43915340e7f"},"vehicle_type_id":"4","last_reported":1737133677,"current_range_meters":38800,"station_id":"ce4bhr92rcd13ifvqhsg","pricing_plan_id":"cebpf4jnsgd1na2vs0mg"},{"bike_id":"fa546e5c-a68a-4a86-a5bb-1d856af38d7e","system_id":"levelo_inurba_marseille","lat":43.2356,"lon":5.43618,"is_reserved":false,"is_disabled":true,"rental_uris":{"android":"levelo://app?vid=fa546e5c-a68a-4a86-a5bb-1d856af38d7e","ios":"levelo://app?vid=fa546e5c-a68a-4a86-a5bb-1d856af38d7e"},"vehicle_type_id":"4","last_reported":1737133677,"current_range_meters":0,"station_id":"","pricing_plan_id":"cebpf4jnsgd1na2vs0mg"},{"bike_id":"34b4297c-3aa9-49ec-8c3e-4dc835fa76e0","system_id":"levelo_inurba_marseille","lat":43.31327,"lon":5.39693,"is_reserved":false,"is_disabled":false,"rental_uris":{"android":"levelo://app?vid=34b4297c-3aa9-49ec-8c3e-4dc835fa76e0","ios":"levelo://app?vid=34b4297c-3aa9-49ec-8c3e-4dc835fa76e0"},"vehicle_type_id":"4","last_reported":1737133677,"current_range_meters":32400,"station_id":"ce4bgvp2rcd13ifvqcu0","pricing_plan_id":"cebpf4jnsgd1na2vs0mg"},{"bike_id":"3ddd1561-9c30-4e82-b6fb-9287e345b524","system_id":"levelo_inurba_marseille","lat":43.29191,"lon":5.35811,"is_reserved":false,"is_disabled":false,"rental_uris":{"android":"levelo://app?vid=3ddd1561-9c30-4e82-b6fb-9287e345b524","ios":"levelo://app?vid=3ddd1561-9c30-4e82-b6fb-9287e345b524"},"vehicle_type_id":"4","last_reported":1737133677,"current_range_meters":10000,"station_id":"ce4bhb12rcd13ifvqel0","pricing_plan_id":"cebpf4jnsgd1na2vs0mg"},{"bike_id":"9d863c8b-4bf0-4fc8-8716-1b895d0dec1d","system_id":"levelo_inurba_marseille","lat":43.30926,"lon":5.40145,"is_reserved":false,"is_disabled":false,"rental_uris":{"android":"levelo://app?vid=9d863c8b-4bf0-4fc8-8716-1b895d0dec1d","ios":"levelo://app?vid=9d863c8b-4bf0-4fc8-8716-1b895d0dec1d"},"vehicle_type_id":"4","last_reported":1737133677,"current_range_meters":14800,"station_id":"ce4bgvp2rcd13ifvqct0","pricing_plan_id":"cebpf4jnsgd1na2vs0mg"},{"bike_id":"4a3a266d-a7af-4027-8b96-803bbbced3ef","system_id":"levelo_inurba_marseille","lat":43.30461,"lon":5.37904,"is_reserved":false,"is_disabled":false,"rental_uris":{"android":"levelo://app?vid=4a3a266d-a7af-4027-8b96-803bbbced3ef","ios":"levelo://app?vid=4a3a266d-a7af-4027-8b96-803bbbced3ef"},"vehicle_type_id":"4","last_reported":1737133677,"current_range_meters":32800,"station_id":"ce4bgup2rcd13ifvqcn0","pricing_plan_id":"cebpf4jnsgd1na2vs0mg"},{"bike_id":"34709e64-d1c8-4538-88a5-33805792c0a5","system_id":"levelo_inurba_marseille","lat":43.25859,"lon":5.39355,"is_reserved":false,"is_disabled":false,"rental_uris":{"android":"levelo://app?vid=34709e64-d1c8-4538-88a5-33805792c0a5","ios":"levelo://app?vid=34709e64-d1c8-4538-88a5-33805792c0a5"},"vehicle_type_id":"4","last_reported":1737133677,"current_range_meters":38000,"station_id":"","pricing_plan_id":"cebpf4jnsgd1na2vs0mg"},{"bike_id":"d4c5158e-511e-4c0e-af6f-6a3bbf5cc0e5","system_id":"levelo_inurba_marseille","lat":43.27116,"lon":5.422375,"is_reserved":false,"is_disabled":true,"rental_uris":{"android":"levelo://app?vid=d4c5158e-511e-4c0e-af6f-6a3bbf5cc0e5","ios":"levelo://app?vid=d4c5158e-511e-4c0e-af6f-6a3bbf5cc0e5"},"vehicle_type_id":"4","last_reported":1737133677,"current_range_meters":0,"station_id":"","pricing_plan_id":"cebpf4jnsgd1na2vs0mg"},{"bike_id":"8067e2c8-91e1-4b01-955b-cb47a104e7dc","system_id":"levelo_inurba_marseille","lat":43.24174,"lon":5.39731,"is_reserved":false,"is_disabled":false,"rental_uris":{"android":"levelo://app?vid=8067e2c8-91e1-4b01-955b-cb47a104e7dc","ios":"levelo://app?vid=8067e2c8-91e1-4b01-955b-cb47a104e7dc"},"vehicle_type_id":"4","last_reported":1737133677,"current_range_meters":26800,"station_id":"ce4bhn12rcd13ifvqgpg","pricing_plan_id":"cebpf4jnsgd1na2vs0mg"},{"bike_id":"e47f896e-7338-4dbf-876a-596734ff5aea","system_id":"levelo_inurba_marseille","lat":43.29579,"lon":5.36751,"is_reserved":false,"is_disabled":false,"rental_uris":{"android":"levelo://app?vid=e47f896e-7338-4dbf-876a-596734ff5aea","ios":"levelo://app?vid=e47f896e-7338-4dbf-876a-596734ff5aea"},"vehicle_type_id":"4","last_reported":1737133677,"current_range_meters":15200,"station_id":"ce4bgph2rcd13ifvqc2g","pricing_plan_id":"cebpf4jnsgd1na2vs0mg"},{"bike_id":"7b73b80d-a1dd-430b-aa67-950539e6457d","system_id":"levelo_inurba_marseille","lat":43.28,"lon":5.40009,"is_reserved":false,"is_disabled":false,"rental_uris":{"android":"levelo://app?vid=7b73b80d-a1dd-430b-aa67-950539e6457d","ios":"levelo://app?vid=7b73b80d-a1dd-430b-aa67-950539e6457d"},"vehicle_type_id":"4","last_reported":1737133677,"current_range_meters":14400,"station_id":"ce4bho92rcd13ifvqh4g","pricing_plan_id":"cebpf4jnsgd1na2vs0mg"},{"bike_id":"f1a999be-1a78-4477-a9d1-a2eb96d2a93d","system_id":"levelo_inurba_marseille","lat":43.27932,"lon":5.41059,"is_reserved":false,"is_disabled":false,"rental_uris":{"android":"levelo://app?vid=f1a999be-1a78-4477-a9d1-a2eb96d2a93d","ios":"levelo://app?vid=f1a999be-1a78-4477-a9d1-a2eb96d2a93d"},"vehicle_type_id":"4","last_reported":1737133677,"current_range_meters":6400,"station_id":"ce4bhnp2rcd13ifvqh0g","pricing_plan_id":"cebpf4jnsgd1na2vs0mg"},{"bike_id":"f8aad85d-54d6-4ca2-81ac-46c1a831eb57","system_id":"levelo_inurba_marseille","lat":43.28077,"lon":5.39662,"is_reserved":false,"is_disabled":false,"rental_uris":{"android":"levelo://app?vid=f8aad85d-54d6-4ca2-81ac-46c1a831eb57","ios":"levelo://app?vid=f8aad85d-54d6-4ca2-81ac-46c1a831eb57"},"vehicle_type_id":"4","last_reported":1737133677,"current_range_meters":38400,"station_id":"ce4bho12rcd13ifvqh2g","pricing_plan_id":"cebpf4jnsgd1na2vs0mg"},{"bike_id":"e6982ea7-1cbf-4fe7-852d-b74aa8fc048d","system_id":"levelo_inurba_marseille","lat":43.2793,"lon":5.41039,"is_reserved":false,"is_disabled":false,"rental_uris":{"android":"levelo://app?vid=e6982ea7-1cbf-4fe7-852d-b74aa8fc048d","ios":"levelo://app?vid=e6982ea7-1cbf-4fe7-852d-b74aa8fc048d"},"vehicle_type_id":"4","last_reported":1737133677,"current_range_meters":36400,"station_id":"ce4bhnp2rcd13ifvqh0g","pricing_plan_id":"cebpf4jnsgd1na2vs0mg"},{"bike_id":"56b8e9bc-f750-4815-bc98-9098414d16db","system_id":"levelo_inurba_marseille","lat":43.23198,"lon":5.35555,"is_reserved":false,"is_disabled":true,"rental_uris":{"android":"levelo://app?vid=56b8e9bc-f750-4815-bc98-9098414d16db","ios":"levelo://app?vid=56b8e9bc-f750-4815-bc98-9098414d16db"},"vehicle_type_id":"4","last_reported":1737133677,"current_range_meters":0,"station_id":"ce4bhu92rcd13ifvqi70","pricing_plan_id":"cebpf4jnsgd1na2vs0mg"},{"bike_id":"3982c320-5f4d-41b7-a032-aae60aec3800","system_id":"levelo_inurba_marseille","lat":43.28664,"lon":5.36345,"is_reserved":false,"is_disabled":false,"rental_uris":{"android":"levelo://app?vid=3982c320-5f4d-41b7-a032-aae60aec3800","ios":"levelo://app?vid=3982c320-5f4d-41b7-a032-aae60aec3800"},"vehicle_type_id":"4","last_reported":1737133677,"current_range_meters":29600,"station_id":"ce4bhah2rcd13ifvqej0","pricing_plan_id":"cebpf4jnsgd1na2vs0mg"},{"bike_id":"4916c5da-e318-4472-84cf-aee3a54ce3c4","system_id":"levelo_inurba_marseille","lat":43.24643,"lon":5.435,"is_reserved":false,"is_disabled":true,"rental_uris":{"android":"levelo://app?vid=4916c5da-e318-4472-84cf-aee3a54ce3c4","ios":"levelo://app?vid=4916c5da-e318-4472-84cf-aee3a54ce3c4"},"vehicle_type_id":"4","last_reported":1737133677,"current_range_meters":0,"station_id":"","pricing_plan_id":"cebpf4jnsgd1na2vs0mg"},{"bike_id":"7f8fc78d-38ee-4b1b-a7fe-82d2ac88b94a","system_id":"levelo_inurba_marseille","lat":43.303283,"lon":5.393429,"is_reserved":false,"is_disabled":false,"rental_uris":{"android":"levelo://app?vid=7f8fc78d-38ee-4b1b-a7fe-82d2ac88b94a","ios":"levelo://app?vid=7f8fc78d-38ee-4b1b-a7fe-82d2ac88b94a"},"vehicle_type_id":"4","last_reported":1737133677,"current_range_meters":26800,"station_id":"ce4bh0p2rcd13ifvqd70","pricing_plan_id":"cebpf4jnsgd1na2vs0mg"},{"bike_id":"89f094a3-84a6-4a3f-a7be-368eadfc0b2d","system_id":"levelo_inurba_marseille","lat":43.27052,"lon":5.420009,"is_reserved":false,"is_disabled":true,"rental_uris":{"android":"levelo://app?vid=89f094a3-84a6-4a3f-a7be-368eadfc0b2d","ios":"levelo://app?vid=89f094a3-84a6-4a3f-a7be-368eadfc0b2d"},"vehicle_type_id":"4","last_reported":1737133677,"current_range_meters":1600,"station_id":"","pricing_plan_id":"cebpf4jnsgd1na2vs0mg"},{"bike_id":"1b0abdf0-ebc9-477b-9a5c-20d604bc88e3","system_id":"levelo_inurba_marseille","lat":43.25076,"lon":5.39523,"is_reserved":false,"is_disabled":false,"rental_uris":{"android":"levelo://app?vid=1b0abdf0-ebc9-477b-9a5c-20d604bc88e3","ios":"levelo://app?vid=1b0abdf0-ebc9-477b-9a5c-20d604bc88e3"},"vehicle_type_id":"4","last_reported":1737133677,"current_range_meters":38800,"station_id":"ce4bhm12rcd13ifvqgkg","pricing_plan_id":"cebpf4jnsgd1na2vs0mg"},{"bike_id":"8b843e76-bd96-4595-ab72-80ffcae76728","system_id":"levelo_inurba_marseille","lat":43.30535,"lon":5.36528,"is_reserved":false,"is_disabled":false,"rental_uris":{"android":"levelo://app?vid=8b843e76-bd96-4595-ab72-80ffcae76728","ios":"levelo://app?vid=8b843e76-bd96-4595-ab72-80ffcae76728"},"vehicle_type_id":"4","last_reported":1737133677,"current_range_meters":16400,"station_id":"ce4bgs12rcd13ifvqcag","pricing_plan_id":"cebpf4jnsgd1na2vs0mg"},{"bike_id":"06e0e151-f6f8-48f7-a8db-8d62a3b6f9ea","system_id":"levelo_inurba_marseille","lat":43.30864,"lon":5.37198,"is_reserved":false,"is_disabled":false,"rental_uris":{"android":"levelo://app?vid=06e0e151-f6f8-48f7-a8db-8d62a3b6f9ea","ios":"levelo://app?vid=06e0e151-f6f8-48f7-a8db-8d62a3b6f9ea"},"vehicle_type_id":"4","last_reported":1737133677,"current_range_meters":38800,"station_id":"ce4bguh2rcd13ifvqckg","pricing_plan_id":"cebpf4jnsgd1na2vs0mg"},{"bike_id":"2a353a14-c228-4d4b-b566-addca6715edd","system_id":"levelo_inurba_marseille","lat":43.30882,"lon":5.39643,"is_reserved":false,"is_disabled":false,"rental_uris":{"android":"levelo://app?vid=2a353a14-c228-4d4b-b566-addca6715edd","ios":"levelo://app?vid=2a353a14-c228-4d4b-b566-addca6715edd"},"vehicle_type_id":"4","last_reported":1737133677,"current_range_meters":21600,"station_id":"ce4bh012rcd13ifvqcv0","pricing_plan_id":"cebpf4jnsgd1na2vs0mg"},{"bike_id":"22465212-93af-4e0b-b803-6ee82bba56d5","system_id":"levelo_inurba_marseille","lat":43.33763,"lon":5.37492,"is_reserved":false,"is_disabled":false,"rental_uris":{"android":"levelo://app?vid=22465212-93af-4e0b-b803-6ee82bba56d5","ios":"levelo://app?vid=22465212-93af-4e0b-b803-6ee82bba56d5"},"vehicle_type_id":"4","last_reported":1737133677,"current_range_meters":32800,"station_id":"","pricing_plan_id":"cebpf4jnsgd1na2vs0mg"},{"bike_id":"df3636bb-85b0-473c-bc00-aa5ace582629","system_id":"levelo_inurba_marseille","lat":43.30122,"lon":5.39866,"is_reserved":false,"is_disabled":false,"rental_uris":{"android":"levelo://app?vid=df3636bb-85b0-473c-bc00-aa5ace582629","ios":"levelo://app?vid=df3636bb-85b0-473c-bc00-aa5ace582629"},"vehicle_type_id":"4","last_reported":1737133677,"current_range_meters":30800,"station_id":"ce4bh0h2rcd13ifvqd40","pricing_plan_id":"cebpf4jnsgd1na2vs0mg"},{"bike_id":"979d7a5c-00ce-4dcf-a15c-0fc9c9e35c10","system_id":"levelo_inurba_marseille","lat":43.33783,"lon":5.37456,"is_reserved":false,"is_disabled":false,"rental_uris":{"android":"levelo://app?vid=979d7a5c-00ce-4dcf-a15c-0fc9c9e35c10","ios":"levelo://app?vid=979d7a5c-00ce-4dcf-a15c-0fc9c9e35c10"},"vehicle_type_id":"4","last_reported":1737133677,"current_range_meters":28800,"station_id":"","pricing_plan_id":"cebpf4jnsgd1na2vs0mg"},{"bike_id":"730df4ba-4772-4a0e-9e4a-bb6bde6caaeb","system_id":"levelo_inurba_marseille","lat":43.30136,"lon":5.39882,"is_reserved":false,"is_disabled":true,"rental_uris":{"android":"levelo://app?vid=730df4ba-4772-4a0e-9e4a-bb6bde6caaeb","ios":"levelo://app?vid=730df4ba-4772-4a0e-9e4a-bb6bde6caaeb"},"vehicle_type_id":"4","last_reported":1737133677,"current_range_meters":38000,"station_id":"ce4bh0h2rcd13ifvqd40","pricing_plan_id":"cebpf4jnsgd1na2vs0mg"},{"bike_id":"01180f54-2343-4f7e-b811-233a7650a6b1","system_id":"levelo_inurba_marseille","lat":43.29551,"lon":5.42292,"is_reserved":false,"is_disabled":false,"rental_uris":{"android":"levelo://app?vid=01180f54-2343-4f7e-b811-233a7650a6b1","ios":"levelo://app?vid=01180f54-2343-4f7e-b811-233a7650a6b1"},"vehicle_type_id":"4","last_reported":1737133677,"current_range_meters":38800,"station_id":"ce4bhph2rcd13ifvqhdg","pricing_plan_id":"cebpf4jnsgd1na2vs0mg"},{"bike_id":"492bb2a4-bb26-45e4-9edc-d3f9691e28d1","system_id":"levelo_inurba_marseille","lat":43.31758,"lon":5.39019,"is_reserved":false,"is_disabled":false,"rental_uris":{"android":"levelo://app?vid=492bb2a4-bb26-45e4-9edc-d3f9691e28d1","ios":"levelo://app?vid=492bb2a4-bb26-45e4-9edc-d3f9691e28d1"},"vehicle_type_id":"4","last_reported":1737133677,"current_range_meters":38800,"station_id":"ce4bhqp2rcd13ifvqhng","pricing_plan_id":"cebpf4jnsgd1na2vs0mg"},{"bike_id":"4682e7f3-7717-48e6-9fb3-fc494ce2a951","system_id":"levelo_inurba_marseille","lat":43.30411,"lon":5.3976,"is_reserved":false,"is_disabled":false,"rental_uris":{"android":"levelo://app?vid=4682e7f3-7717-48e6-9fb3-fc494ce2a951","ios":"levelo://app?vid=4682e7f3-7717-48e6-9fb3-fc494ce2a951"},"vehicle_type_id":"4","last_reported":1737133677,"current_range_meters":16000,"station_id":"ce4bh092rcd13ifvqd20","pricing_plan_id":"cebpf4jnsgd1na2vs0mg"},{"bike_id":"2852113b-49ee-4cbf-9a16-ea68797906c2","system_id":"levelo_inurba_marseille","lat":43.33728,"lon":5.37492,"is_reserved":false,"is_disabled":false,"rental_uris":{"android":"levelo://app?vid=2852113b-49ee-4cbf-9a16-ea68797906c2","ios":"levelo://app?vid=2852113b-49ee-4cbf-9a16-ea68797906c2"},"vehicle_type_id":"4","last_reported":1737133677,"current_range_meters":37600,"station_id":"","pricing_plan_id":"cebpf4jnsgd1na2vs0mg"},{"bike_id":"0c5e855f-b56a-402c-ae21-d2d17f9d6d2e","system_id":"levelo_inurba_marseille","lat":43.29441,"lon":5.39758,"is_reserved":false,"is_disabled":false,"rental_uris":{"android":"levelo://app?vid=0c5e855f-b56a-402c-ae21-d2d17f9d6d2e","ios":"levelo://app?vid=0c5e855f-b56a-402c-ae21-d2d17f9d6d2e"},"vehicle_type_id":"4","last_reported":1737133677,"current_range_meters":15200,"station_id":"ce4bh3h2rcd13ifvqdo0","pricing_plan_id":"cebpf4jnsgd1na2vs0mg"},{"bike_id":"d52a5bd6-5e88-4931-a4a2-71bdf27759c4","system_id":"levelo_inurba_marseille","lat":43.26496,"lon":5.39561,"is_reserved":false,"is_disabled":true,"rental_uris":{"android":"levelo://app?vid=d52a5bd6-5e88-4931-a4a2-71bdf27759c4","ios":"levelo://app?vid=d52a5bd6-5e88-4931-a4a2-71bdf27759c4"},"vehicle_type_id":"4","last_reported":1737133677,"current_range_meters":800,"station_id":"ce4bhi12rcd13ifvqfq0","pricing_plan_id":"cebpf4jnsgd1na2vs0mg"},{"bike_id":"6131e8f2-3c22-4c5d-aaec-893ee54eef2a","system_id":"levelo_inurba_marseille","lat":43.30632,"lon":5.40094,"is_reserved":false,"is_disabled":false,"rental_uris":{"android":"levelo://app?vid=6131e8f2-3c22-4c5d-aaec-893ee54eef2a","ios":"levelo://app?vid=6131e8f2-3c22-4c5d-aaec-893ee54eef2a"},"vehicle_type_id":"4","last_reported":1737133677,"current_range_meters":19600,"station_id":"ce4bh112rcd13ifvqda0","pricing_plan_id":"cebpf4jnsgd1na2vs0mg"},{"bike_id":"cefc250c-1baa-4a78-8fed-eb20c7fbb95c","system_id":"levelo_inurba_marseille","lat":43.2319,"lon":5.35544,"is_reserved":false,"is_disabled":false,"rental_uris":{"android":"levelo://app?vid=cefc250c-1baa-4a78-8fed-eb20c7fbb95c","ios":"levelo://app?vid=cefc250c-1baa-4a78-8fed-eb20c7fbb95c"},"vehicle_type_id":"4","last_reported":1737133677,"current_range_meters":38800,"station_id":"ce4bhu92rcd13ifvqi70","pricing_plan_id":"cebpf4jnsgd1na2vs0mg"},{"bike_id":"6a7366d7-ed8c-4629-bf0c-70c2abcda36d","system_id":"levelo_inurba_marseille","lat":43.23195,"lon":5.35558,"is_reserved":false,"is_disabled":false,"rental_uris":{"android":"levelo://app?vid=6a7366d7-ed8c-4629-bf0c-70c2abcda36d","ios":"levelo://app?vid=6a7366d7-ed8c-4629-bf0c-70c2abcda36d"},"vehicle_type_id":"4","last_reported":1737133677,"current_range_meters":38800,"station_id":"ce4bhu92rcd13ifvqi70","pricing_plan_id":"cebpf4jnsgd1na2vs0mg"},{"bike_id":"0f72d5ab-2e32-4451-adf9-467171dc22e8","system_id":"levelo_inurba_marseille","lat":43.25872,"lon":5.39912,"is_reserved":false,"is_disabled":false,"rental_uris":{"android":"levelo://app?vid=0f72d5ab-2e32-4451-adf9-467171dc22e8","ios":"levelo://app?vid=0f72d5ab-2e32-4451-adf9-467171dc22e8"},"vehicle_type_id":"4","last_reported":1737133677,"current_range_meters":14800,"station_id":"ce4bhl92rcd13ifvqghg","pricing_plan_id":"cebpf4jnsgd1na2vs0mg"},{"bike_id":"cdb32490-46fd-4ee0-947c-b9b2129a99fc","system_id":"levelo_inurba_marseille","lat":43.26027,"lon":5.37562,"is_reserved":false,"is_disabled":false,"rental_uris":{"android":"levelo://app?vid=cdb32490-46fd-4ee0-947c-b9b2129a99fc","ios":"levelo://app?vid=cdb32490-46fd-4ee0-947c-b9b2129a99fc"},"vehicle_type_id":"4","last_reported":1737133677,"current_range_meters":39200,"station_id":"ce4bhgh2rcd13ifvqfa0","pricing_plan_id":"cebpf4jnsgd1na2vs0mg"},{"bike_id":"e038d9a9-8617-43b5-b012-d7d195739f30","system_id":"levelo_inurba_marseille","lat":43.30138,"lon":5.37423,"is_reserved":false,"is_disabled":false,"rental_uris":{"android":"levelo://app?vid=e038d9a9-8617-43b5-b012-d7d195739f30","ios":"levelo://app?vid=e038d9a9-8617-43b5-b012-d7d195739f30"},"vehicle_type_id":"4","last_reported":1737133677,"current_range_meters":6400,"station_id":"ce4bgs92rcd13ifvqcc0","pricing_plan_id":"cebpf4jnsgd1na2vs0mg"},{"bike_id":"35deb437-7ef2-4ee7-9ea5-27ce0001ca7b","system_id":"levelo_inurba_marseille","lat":43.26063,"lon":5.39401,"is_reserved":false,"is_disabled":false,"rental_uris":{"android":"levelo://app?vid=35deb437-7ef2-4ee7-9ea5-27ce0001ca7b","ios":"levelo://app?vid=35deb437-7ef2-4ee7-9ea5-27ce0001ca7b"},"vehicle_type_id":"4","last_reported":1737133677,"current_range_meters":38800,"station_id":"ce4bhh92rcd13ifvqfj0","pricing_plan_id":"cebpf4jnsgd1na2vs0mg"},{"bike_id":"8950ad97-12b3-4231-a25a-a92e6e418d6d","system_id":"levelo_inurba_marseille","lat":43.28619,"lon":5.37061,"is_reserved":false,"is_disabled":false,"rental_uris":{"android":"levelo://app?vid=8950ad97-12b3-4231-a25a-a92e6e418d6d","ios":"levelo://app?vid=8950ad97-12b3-4231-a25a-a92e6e418d6d"},"vehicle_type_id":"4","last_reported":1737133677,"current_range_meters":19200,"station_id":"ce4bht12rcd13ifvqi60","pricing_plan_id":"cebpf4jnsgd1na2vs0mg"},{"bike_id":"523b6566-5e7c-4b9e-a44f-ef720526bb85","system_id":"levelo_inurba_marseille","lat":43.32014,"lon":5.39007,"is_reserved":false,"is_disabled":false,"rental_uris":{"android":"levelo://app?vid=523b6566-5e7c-4b9e-a44f-ef720526bb85","ios":"levelo://app?vid=523b6566-5e7c-4b9e-a44f-ef720526bb85"},"vehicle_type_id":"4","last_reported":1737133677,"current_range_meters":6400,"station_id":"ce4bhqp2rcd13ifvqhng","pricing_plan_id":"cebpf4jnsgd1na2vs0mg"},{"bike_id":"3f0677da-d5d7-4bf4-80f9-7a0a93c7d27b","system_id":"levelo_inurba_marseille","lat":43.26209,"lon":5.37448,"is_reserved":false,"is_disabled":false,"rental_uris":{"android":"levelo://app?vid=3f0677da-d5d7-4bf4-80f9-7a0a93c7d27b","ios":"levelo://app?vid=3f0677da-d5d7-4bf4-80f9-7a0a93c7d27b"},"vehicle_type_id":"4","last_reported":1737133677,"current_range_meters":14400,"station_id":"ce4bhgp2rcd13ifvqfc0","pricing_plan_id":"cebpf4jnsgd1na2vs0mg"},{"bike_id":"1761c553-8020-496a-a911-06ad6ef6ea8f","system_id":"levelo_inurba_marseille","lat":43.31125,"lon":5.37783,"is_reserved":false,"is_disabled":true,"rental_uris":{"android":"levelo://app?vid=1761c553-8020-496a-a911-06ad6ef6ea8f","ios":"levelo://app?vid=1761c553-8020-496a-a911-06ad6ef6ea8f"},"vehicle_type_id":"4","last_reported":1737133677,"current_range_meters":0,"station_id":"ce4bgt92rcd13ifvqcg0","pricing_plan_id":"cebpf4jnsgd1na2vs0mg"},{"bike_id":"ace730fd-467b-4d46-89fc-58ac886b6246","system_id":"levelo_inurba_marseille","lat":43.30884,"lon":5.36832,"is_reserved":false,"is_disabled":false,"rental_uris":{"android":"levelo://app?vid=ace730fd-467b-4d46-89fc-58ac886b6246","ios":"levelo://app?vid=ace730fd-467b-4d46-89fc-58ac886b6246"},"vehicle_type_id":"4","last_reported":1737133677,"current_range_meters":38800,"station_id":"ce4bgn92rcd13ifvqbvg","pricing_plan_id":"cebpf4jnsgd1na2vs0mg"},{"bike_id":"b71a70a4-8af1-4321-a2da-c026e0f926ef","system_id":"levelo_inurba_marseille","lat":43.25106,"lon":5.40324,"is_reserved":false,"is_disabled":false,"rental_uris":{"android":"levelo://app?vid=b71a70a4-8af1-4321-a2da-c026e0f926ef","ios":"levelo://app?vid=b71a70a4-8af1-4321-a2da-c026e0f926ef"},"vehicle_type_id":"4","last_reported":1737133677,"current_range_meters":21600,"station_id":"ce4bhlh2rcd13ifvqgig","pricing_plan_id":"cebpf4jnsgd1na2vs0mg"},{"bike_id":"f97513ed-1870-4414-9ba2-371df5e87a4f","system_id":"levelo_inurba_marseille","lat":43.28439,"lon":5.39189,"is_reserved":false,"is_disabled":false,"rental_uris":{"android":"levelo://app?vid=f97513ed-1870-4414-9ba2-371df5e87a4f","ios":"levelo://app?vid=f97513ed-1870-4414-9ba2-371df5e87a4f"},"vehicle_type_id":"4","last_reported":1737133677,"current_range_meters":39200,"station_id":"ce4bhoh2rcd13ifvqh5g","pricing_plan_id":"cebpf4jnsgd1na2vs0mg"},{"bike_id":"60ab0459-2ba0-4188-b92a-ac7e3486218f","system_id":"levelo_inurba_marseille","lat":43.2587,"lon":5.39899,"is_reserved":false,"is_disabled":false,"rental_uris":{"android":"levelo://app?vid=60ab0459-2ba0-4188-b92a-ac7e3486218f","ios":"levelo://app?vid=60ab0459-2ba0-4188-b92a-ac7e3486218f"},"vehicle_type_id":"4","last_reported":1737133677,"current_range_meters":4000,"station_id":"ce4bhl92rcd13ifvqghg","pricing_plan_id":"cebpf4jnsgd1na2vs0mg"},{"bike_id":"c248864c-e161-4718-8c42-20a1064043b4","system_id":"levelo_inurba_marseille","lat":43.28394,"lon":5.37497,"is_reserved":false,"is_disabled":false,"rental_uris":{"android":"levelo://app?vid=c248864c-e161-4718-8c42-20a1064043b4","ios":"levelo://app?vid=c248864c-e161-4718-8c42-20a1064043b4"},"vehicle_type_id":"4","last_reported":1737133677,"current_range_meters":24400,"station_id":"ce4bh412rcd13ifvqds0","pricing_plan_id":"cebpf4jnsgd1na2vs0mg"},{"bike_id":"02df92ca-bc39-46ce-9f24-a041d776d92b","system_id":"levelo_inurba_marseille","lat":43.29531,"lon":5.39044,"is_reserved":false,"is_disabled":false,"rental_uris":{"android":"levelo://app?vid=02df92ca-bc39-46ce-9f24-a041d776d92b","ios":"levelo://app?vid=02df92ca-bc39-46ce-9f24-a041d776d92b"},"vehicle_type_id":"4","last_reported":1737133677,"current_range_meters":38800,"station_id":"ce4bh3p2rcd13ifvqdp0","pricing_plan_id":"cebpf4jnsgd1na2vs0mg"},{"bike_id":"72ca0742-1df6-4026-87cc-098e9e8db1ab","system_id":"levelo_inurba_marseille","lat":43.23963,"lon":5.36644,"is_reserved":false,"is_disabled":false,"rental_uris":{"android":"levelo://app?vid=72ca0742-1df6-4026-87cc-098e9e8db1ab","ios":"levelo://app?vid=72ca0742-1df6-4026-87cc-098e9e8db1ab"},"vehicle_type_id":"4","last_reported":1737133677,"current_range_meters":28000,"station_id":"ce4bhi12rcd13ifvqfp0","pricing_plan_id":"cebpf4jnsgd1na2vs0mg"},{"bike_id":"df21e837-05f3-4005-8fe2-5236e558c215","system_id":"levelo_inurba_marseille","lat":43.30351,"lon":5.41877,"is_reserved":false,"is_disabled":false,"rental_uris":{"android":"levelo://app?vid=df21e837-05f3-4005-8fe2-5236e558c215","ios":"levelo://app?vid=df21e837-05f3-4005-8fe2-5236e558c215"},"vehicle_type_id":"4","last_reported":1737133677,"current_range_meters":28400,"station_id":"ce4bhop2rcd13ifvqh7g","pricing_plan_id":"cebpf4jnsgd1na2vs0mg"},{"bike_id":"652b58e4-df0d-4489-a431-d7701f4ba54c","system_id":"levelo_inurba_marseille","lat":43.29368,"lon":5.37865,"is_reserved":false,"is_disabled":false,"rental_uris":{"android":"levelo://app?vid=652b58e4-df0d-4489-a431-d7701f4ba54c","ios":"levelo://app?vid=652b58e4-df0d-4489-a431-d7701f4ba54c"},"vehicle_type_id":"4","last_reported":1737133677,"current_range_meters":36400,"station_id":"ce4bgjh2rcd13ifvqbf0","pricing_plan_id":"cebpf4jnsgd1na2vs0mg"},{"bike_id":"5ed39e30-6df6-4cb7-b9e5-8eddd4f008ab","system_id":"levelo_inurba_marseille","lat":43.30341,"lon":5.391,"is_reserved":false,"is_disabled":true,"rental_uris":{"android":"levelo://app?vid=5ed39e30-6df6-4cb7-b9e5-8eddd4f008ab","ios":"levelo://app?vid=5ed39e30-6df6-4cb7-b9e5-8eddd4f008ab"},"vehicle_type_id":"4","last_reported":1737133677,"current_range_meters":0,"station_id":"ce4bgkh2rcd13ifvqbk0","pricing_plan_id":"cebpf4jnsgd1na2vs0mg"},{"bike_id":"ffcdcac3-effa-4d8f-9210-7fd4d97b8ff4","system_id":"levelo_inurba_marseille","lat":43.30158,"lon":5.38072,"is_reserved":false,"is_disabled":false,"rental_uris":{"android":"levelo://app?vid=ffcdcac3-effa-4d8f-9210-7fd4d97b8ff4","ios":"levelo://app?vid=ffcdcac3-effa-4d8f-9210-7fd4d97b8ff4"},"vehicle_type_id":"4","last_reported":1737133677,"current_range_meters":38400,"station_id":"ce4bgjp2rcd13ifvqbh0","pricing_plan_id":"cebpf4jnsgd1na2vs0mg"},{"bike_id":"e27e74b2-2c71-43d5-8029-588d7007cb32","system_id":"levelo_inurba_marseille","lat":43.31691,"lon":5.37775,"is_reserved":false,"is_disabled":false,"rental_uris":{"android":"levelo://app?vid=e27e74b2-2c71-43d5-8029-588d7007cb32","ios":"levelo://app?vid=e27e74b2-2c71-43d5-8029-588d7007cb32"},"vehicle_type_id":"4","last_reported":1737133677,"current_range_meters":36400,"station_id":"ce4bgth2rcd13ifvqch0","pricing_plan_id":"cebpf4jnsgd1na2vs0mg"},{"bike_id":"1e931b80-e023-422d-9769-c66a5ef7fe22","system_id":"levelo_inurba_marseille","lat":43.3021,"lon":5.39449,"is_reserved":false,"is_disabled":false,"rental_uris":{"android":"levelo://app?vid=1e931b80-e023-422d-9769-c66a5ef7fe22","ios":"levelo://app?vid=1e931b80-e023-422d-9769-c66a5ef7fe22"},"vehicle_type_id":"4","last_reported":1737133677,"current_range_meters":28400,"station_id":"ce4bh0p2rcd13ifvqd70","pricing_plan_id":"cebpf4jnsgd1na2vs0mg"},{"bike_id":"7383474c-b45a-4438-837c-99d7ae866fe7","system_id":"levelo_inurba_marseille","lat":43.260649,"lon":5.394083,"is_reserved":false,"is_disabled":false,"rental_uris":{"android":"levelo://app?vid=7383474c-b45a-4438-837c-99d7ae866fe7","ios":"levelo://app?vid=7383474c-b45a-4438-837c-99d7ae866fe7"},"vehicle_type_id":"4","last_reported":1737133677,"current_range_meters":38800,"station_id":"ce4bhh92rcd13ifvqfj0","pricing_plan_id":"cebpf4jnsgd1na2vs0mg"},{"bike_id":"9ab976b2-2273-4a2b-bfaf-135c8444686b","system_id":"levelo_inurba_marseille","lat":43.2958,"lon":5.36719,"is_reserved":false,"is_disabled":false,"rental_uris":{"android":"levelo://app?vid=9ab976b2-2273-4a2b-bfaf-135c8444686b","ios":"levelo://app?vid=9ab976b2-2273-4a2b-bfaf-135c8444686b"},"vehicle_type_id":"4","last_reported":1737133677,"current_range_meters":19200,"station_id":"ce4bgph2rcd13ifvqc2g","pricing_plan_id":"cebpf4jnsgd1na2vs0mg"},{"bike_id":"618eb557-dfd7-4295-a760-2844b707f1c9","system_id":"levelo_inurba_marseille","lat":43.30144,"lon":5.38073,"is_reserved":false,"is_disabled":false,"rental_uris":{"android":"levelo://app?vid=618eb557-dfd7-4295-a760-2844b707f1c9","ios":"levelo://app?vid=618eb557-dfd7-4295-a760-2844b707f1c9"},"vehicle_type_id":"4","last_reported":1737133677,"current_range_meters":6800,"station_id":"ce4bgjp2rcd13ifvqbh0","pricing_plan_id":"cebpf4jnsgd1na2vs0mg"},{"bike_id":"1c84ca9e-f68c-4a22-88dd-f8cfa991482c","system_id":"levelo_inurba_marseille","lat":43.29757,"lon":5.37104,"is_reserved":false,"is_disabled":false,"rental_uris":{"android":"levelo://app?vid=1c84ca9e-f68c-4a22-88dd-f8cfa991482c","ios":"levelo://app?vid=1c84ca9e-f68c-4a22-88dd-f8cfa991482c"},"vehicle_type_id":"4","last_reported":1737133677,"current_range_meters":32800,"station_id":"ce4bgop2rcd13ifvqc1g","pricing_plan_id":"cebpf4jnsgd1na2vs0mg"},{"bike_id":"391be811-6396-429f-b3c2-1bc7e192c41b","system_id":"levelo_inurba_marseille","lat":43.31488,"lon":5.37315,"is_reserved":false,"is_disabled":false,"rental_uris":{"android":"levelo://app?vid=391be811-6396-429f-b3c2-1bc7e192c41b","ios":"levelo://app?vid=391be811-6396-429f-b3c2-1bc7e192c41b"},"vehicle_type_id":"4","last_reported":1737133677,"current_range_meters":38400,"station_id":"ce4bgt12rcd13ifvqcd0","pricing_plan_id":"cebpf4jnsgd1na2vs0mg"},{"bike_id":"5eb40368-485d-4448-adb7-45b6b813df64","system_id":"levelo_inurba_marseille","lat":43.29262,"lon":5.38461,"is_reserved":false,"is_disabled":true,"rental_uris":{"android":"levelo://app?vid=5eb40368-485d-4448-adb7-45b6b813df64","ios":"levelo://app?vid=5eb40368-485d-4448-adb7-45b6b813df64"},"vehicle_type_id":"4","last_reported":1737133677,"current_range_meters":1200,"station_id":"ce4bh692rcd13ifvqea0","pricing_plan_id":"cebpf4jnsgd1na2vs0mg"},{"bike_id":"aecf56ba-64e3-4d3b-a823-decc10cf8dc2","system_id":"levelo_inurba_marseille","lat":43.30948,"lon":5.39025,"is_reserved":false,"is_disabled":false,"rental_uris":{"android":"levelo://app?vid=aecf56ba-64e3-4d3b-a823-decc10cf8dc2","ios":"levelo://app?vid=aecf56ba-64e3-4d3b-a823-decc10cf8dc2"},"vehicle_type_id":"4","last_reported":1737133677,"current_range_meters":9600,"station_id":"ce4bgup2rcd13ifvqco0","pricing_plan_id":"cebpf4jnsgd1na2vs0mg"},{"bike_id":"44721705-52d0-4eba-b0b2-b41ea9586411","system_id":"levelo_inurba_marseille","lat":43.23193,"lon":5.35557,"is_reserved":false,"is_disabled":false,"rental_uris":{"android":"levelo://app?vid=44721705-52d0-4eba-b0b2-b41ea9586411","ios":"levelo://app?vid=44721705-52d0-4eba-b0b2-b41ea9586411"},"vehicle_type_id":"4","last_reported":1737133677,"current_range_meters":38000,"station_id":"ce4bhu92rcd13ifvqi70","pricing_plan_id":"cebpf4jnsgd1na2vs0mg"},{"bike_id":"75313d8a-3eee-4fa7-b5a5-443b9680c351","system_id":"levelo_inurba_marseille","lat":43.3044,"lon":5.38905,"is_reserved":false,"is_disabled":false,"rental_uris":{"android":"levelo://app?vid=75313d8a-3eee-4fa7-b5a5-443b9680c351","ios":"levelo://app?vid=75313d8a-3eee-4fa7-b5a5-443b9680c351"},"vehicle_type_id":"4","last_reported":1737133677,"current_range_meters":8800,"station_id":"ce4bgk12rcd13ifvqbi0","pricing_plan_id":"cebpf4jnsgd1na2vs0mg"},{"bike_id":"96a2c5d0-d37c-4f88-8485-324febd508fb","system_id":"levelo_inurba_marseille","lat":43.29426,"lon":5.386339,"is_reserved":false,"is_disabled":false,"rental_uris":{"android":"levelo://app?vid=96a2c5d0-d37c-4f88-8485-324febd508fb","ios":"levelo://app?vid=96a2c5d0-d37c-4f88-8485-324febd508fb"},"vehicle_type_id":"4","last_reported":1737133677,"current_range_meters":33200,"station_id":"ce4bh2h2rcd13ifvqdh0","pricing_plan_id":"cebpf4jnsgd1na2vs0mg"},{"bike_id":"08fdc998-176c-44d2-b20a-10d4aee33c0b","system_id":"levelo_inurba_marseille","lat":43.27368,"lon":5.36267,"is_reserved":false,"is_disabled":false,"rental_uris":{"android":"levelo://app?vid=08fdc998-176c-44d2-b20a-10d4aee33c0b","ios":"levelo://app?vid=08fdc998-176c-44d2-b20a-10d4aee33c0b"},"vehicle_type_id":"4","last_reported":1737133677,"current_range_meters":38800,"station_id":"ce4bhbh2rcd13ifvqeo0","pricing_plan_id":"cebpf4jnsgd1na2vs0mg"},{"bike_id":"fe8bb3f2-0e5b-46b1-97fd-203b2d9b744d","system_id":"levelo_inurba_marseille","lat":43.27622,"lon":5.36085,"is_reserved":false,"is_disabled":false,"rental_uris":{"android":"levelo://app?vid=fe8bb3f2-0e5b-46b1-97fd-203b2d9b744d","ios":"levelo://app?vid=fe8bb3f2-0e5b-46b1-97fd-203b2d9b744d"},"vehicle_type_id":"4","last_reported":1737133677,"current_range_meters":38400,"station_id":"ce4bgj92rcd13ifvqbe0","pricing_plan_id":"cebpf4jnsgd1na2vs0mg"},{"bike_id":"dbc84289-e424-421f-8922-80495ae94fa1","system_id":"levelo_inurba_marseille","lat":43.30594,"lon":5.39363,"is_reserved":false,"is_disabled":true,"rental_uris":{"android":"levelo://app?vid=dbc84289-e424-421f-8922-80495ae94fa1","ios":"levelo://app?vid=dbc84289-e424-421f-8922-80495ae94fa1"},"vehicle_type_id":"4","last_reported":1737133677,"current_range_meters":25600,"station_id":"ce4bh0p2rcd13ifvqd80","pricing_plan_id":"cebpf4jnsgd1na2vs0mg"},{"bike_id":"a9a0e60f-8e94-490a-988c-5a9cfc45d626","system_id":"levelo_inurba_marseille","lat":43.241614,"lon":5.36402,"is_reserved":false,"is_disabled":false,"rental_uris":{"android":"levelo://app?vid=a9a0e60f-8e94-490a-988c-5a9cfc45d626","ios":"levelo://app?vid=a9a0e60f-8e94-490a-988c-5a9cfc45d626"},"vehicle_type_id":"4","last_reported":1737133677,"current_range_meters":15200,"station_id":"cpo36qri1sfpv3e86is0","pricing_plan_id":"cebpf4jnsgd1na2vs0mg"},{"bike_id":"2aa98a8e-265a-4dfa-baae-3da013df4e11","system_id":"levelo_inurba_marseille","lat":43.2737,"lon":5.36254,"is_reserved":false,"is_disabled":false,"rental_uris":{"android":"levelo://app?vid=2aa98a8e-265a-4dfa-baae-3da013df4e11","ios":"levelo://app?vid=2aa98a8e-265a-4dfa-baae-3da013df4e11"},"vehicle_type_id":"4","last_reported":1737133677,"current_range_meters":24400,"station_id":"ce4bhbh2rcd13ifvqeo0","pricing_plan_id":"cebpf4jnsgd1na2vs0mg"},{"bike_id":"65de3f56-5ebe-4a95-a686-6e709e622249","system_id":"levelo_inurba_marseille","lat":43.29961,"lon":5.41326,"is_reserved":false,"is_disabled":false,"rental_uris":{"android":"levelo://app?vid=65de3f56-5ebe-4a95-a686-6e709e622249","ios":"levelo://app?vid=65de3f56-5ebe-4a95-a686-6e709e622249"},"vehicle_type_id":"4","last_reported":1737133677,"current_range_meters":6400,"station_id":"ce4bhp12rcd13ifvqh9g","pricing_plan_id":"cebpf4jnsgd1na2vs0mg"},{"bike_id":"2c27878e-d42e-44dc-b789-949f1ee17504","system_id":"levelo_inurba_marseille","lat":43.33724,"lon":5.39209,"is_reserved":false,"is_disabled":false,"rental_uris":{"android":"levelo://app?vid=2c27878e-d42e-44dc-b789-949f1ee17504","ios":"levelo://app?vid=2c27878e-d42e-44dc-b789-949f1ee17504"},"vehicle_type_id":"4","last_reported":1737133677,"current_range_meters":29600,"station_id":"ce4bhr92rcd13ifvqhsg","pricing_plan_id":"cebpf4jnsgd1na2vs0mg"},{"bike_id":"307ff5c2-88a9-4c79-af74-7f5c4b6d54a3","system_id":"levelo_inurba_marseille","lat":43.29966,"lon":5.38499,"is_reserved":false,"is_disabled":true,"rental_uris":{"android":"levelo://app?vid=307ff5c2-88a9-4c79-af74-7f5c4b6d54a3","ios":"levelo://app?vid=307ff5c2-88a9-4c79-af74-7f5c4b6d54a3"},"vehicle_type_id":"4","last_reported":1737133677,"current_range_meters":800,"station_id":"ce4bgj92rcd13ifvqbd0","pricing_plan_id":"cebpf4jnsgd1na2vs0mg"},{"bike_id":"16214de5-398d-4885-bfb5-ca423aa8cefa","system_id":"levelo_inurba_marseille","lat":43.23963,"lon":5.36636,"is_reserved":false,"is_disabled":true,"rental_uris":{"android":"levelo://app?vid=16214de5-398d-4885-bfb5-ca423aa8cefa","ios":"levelo://app?vid=16214de5-398d-4885-bfb5-ca423aa8cefa"},"vehicle_type_id":"4","last_reported":1737133677,"current_range_meters":400,"station_id":"ce4bhi12rcd13ifvqfp0","pricing_plan_id":"cebpf4jnsgd1na2vs0mg"},{"bike_id":"f5863b18-13a1-4c6e-92de-5668ea912ad3","system_id":"levelo_inurba_marseille","lat":43.2623,"lon":5.40445,"is_reserved":false,"is_disabled":true,"rental_uris":{"android":"levelo://app?vid=f5863b18-13a1-4c6e-92de-5668ea912ad3","ios":"levelo://app?vid=f5863b18-13a1-4c6e-92de-5668ea912ad3"},"vehicle_type_id":"4","last_reported":1737133677,"current_range_meters":0,"station_id":"","pricing_plan_id":"cebpf4jnsgd1na2vs0mg"},{"bike_id":"907d9497-8b5c-4d88-bae6-a56ab740c5f3","system_id":"levelo_inurba_marseille","lat":43.28921,"lon":5.3842,"is_reserved":false,"is_disabled":false,"rental_uris":{"android":"levelo://app?vid=907d9497-8b5c-4d88-bae6-a56ab740c5f3","ios":"levelo://app?vid=907d9497-8b5c-4d88-bae6-a56ab740c5f3"},"vehicle_type_id":"4","last_reported":1737133677,"current_range_meters":35600,"station_id":"ce4bh612rcd13ifvqe6g","pricing_plan_id":"cebpf4jnsgd1na2vs0mg"},{"bike_id":"a8fad254-19bb-48fe-801d-9e93d4767cef","system_id":"levelo_inurba_marseille","lat":43.31404,"lon":5.37396,"is_reserved":false,"is_disabled":true,"rental_uris":{"android":"levelo://app?vid=a8fad254-19bb-48fe-801d-9e93d4767cef","ios":"levelo://app?vid=a8fad254-19bb-48fe-801d-9e93d4767cef"},"vehicle_type_id":"4","last_reported":1737133677,"current_range_meters":0,"station_id":"","pricing_plan_id":"cebpf4jnsgd1na2vs0mg"},{"bike_id":"e5f71037-c3e2-4a5c-b185-51bcddd625d8","system_id":"levelo_inurba_marseille","lat":43.2306,"lon":5.35495,"is_reserved":false,"is_disabled":false,"rental_uris":{"android":"levelo://app?vid=e5f71037-c3e2-4a5c-b185-51bcddd625d8","ios":"levelo://app?vid=e5f71037-c3e2-4a5c-b185-51bcddd625d8"},"vehicle_type_id":"4","last_reported":1737133677,"current_range_meters":38800,"station_id":"cpo3342slgdg3j2ifvpg","pricing_plan_id":"cebpf4jnsgd1na2vs0mg"},{"bike_id":"46686b70-f375-4947-b209-2f4548c2edcf","system_id":"levelo_inurba_marseille","lat":43.28897,"lon":5.39463,"is_reserved":false,"is_disabled":true,"rental_uris":{"android":"levelo://app?vid=46686b70-f375-4947-b209-2f4548c2edcf","ios":"levelo://app?vid=46686b70-f375-4947-b209-2f4548c2edcf"},"vehicle_type_id":"4","last_reported":1737133677,"current_range_meters":0,"station_id":"","pricing_plan_id":"cebpf4jnsgd1na2vs0mg"},{"bike_id":"832c3b78-ff34-419b-978a-54cb063d5cf4","system_id":"levelo_inurba_marseille","lat":43.24067,"lon":5.37765,"is_reserved":false,"is_disabled":false,"rental_uris":{"android":"levelo://app?vid=832c3b78-ff34-419b-978a-54cb063d5cf4","ios":"levelo://app?vid=832c3b78-ff34-419b-978a-54cb063d5cf4"},"vehicle_type_id":"4","last_reported":1737133677,"current_range_meters":7200,"station_id":"ce4bhnp2rcd13ifvqgvg","pricing_plan_id":"cebpf4jnsgd1na2vs0mg"},{"bike_id":"c3dcdf4d-5280-4d62-9cd4-44d537c8279d","system_id":"levelo_inurba_marseille","lat":43.31283,"lon":5.37306,"is_reserved":false,"is_disabled":false,"rental_uris":{"android":"levelo://app?vid=c3dcdf4d-5280-4d62-9cd4-44d537c8279d","ios":"levelo://app?vid=c3dcdf4d-5280-4d62-9cd4-44d537c8279d"},"vehicle_type_id":"4","last_reported":1737133677,"current_range_meters":28000,"station_id":"","pricing_plan_id":"cebpf4jnsgd1na2vs0mg"},{"bike_id":"dfca3b8c-23d1-4ceb-8351-cd493817b63f","system_id":"levelo_inurba_marseille","lat":43.28853,"lon":5.35852,"is_reserved":false,"is_disabled":false,"rental_uris":{"android":"levelo://app?vid=dfca3b8c-23d1-4ceb-8351-cd493817b63f","ios":"levelo://app?vid=dfca3b8c-23d1-4ceb-8351-cd493817b63f"},"vehicle_type_id":"4","last_reported":1737133677,"current_range_meters":32000,"station_id":"ce4bhb12rcd13ifvqem0","pricing_plan_id":"cebpf4jnsgd1na2vs0mg"},{"bike_id":"cc31be9d-a205-4eb1-ba9c-8e4c52a6043f","system_id":"levelo_inurba_marseille","lat":43.29796,"lon":5.38091,"is_reserved":false,"is_disabled":false,"rental_uris":{"android":"levelo://app?vid=cc31be9d-a205-4eb1-ba9c-8e4c52a6043f","ios":"levelo://app?vid=cc31be9d-a205-4eb1-ba9c-8e4c52a6043f"},"vehicle_type_id":"4","last_reported":1737133677,"current_range_meters":38000,"station_id":"ce4bgip2rcd13ifvqbb0","pricing_plan_id":"cebpf4jnsgd1na2vs0mg"},{"bike_id":"2874a690-165b-44fd-8e13-25e018b4bcda","system_id":"levelo_inurba_marseille","lat":43.28612,"lon":5.35106,"is_reserved":false,"is_disabled":false,"rental_uris":{"android":"levelo://app?vid=2874a690-165b-44fd-8e13-25e018b4bcda","ios":"levelo://app?vid=2874a690-165b-44fd-8e13-25e018b4bcda"},"vehicle_type_id":"4","last_reported":1737133677,"current_range_meters":32400,"station_id":"ce4bhch2rcd13ifvqeug","pricing_plan_id":"cebpf4jnsgd1na2vs0mg"},{"bike_id":"162e74e4-7cde-4983-afbf-6133953791de","system_id":"levelo_inurba_marseille","lat":43.27374,"lon":5.36251,"is_reserved":false,"is_disabled":false,"rental_uris":{"android":"levelo://app?vid=162e74e4-7cde-4983-afbf-6133953791de","ios":"levelo://app?vid=162e74e4-7cde-4983-afbf-6133953791de"},"vehicle_type_id":"4","last_reported":1737133677,"current_range_meters":38800,"station_id":"ce4bhbh2rcd13ifvqeo0","pricing_plan_id":"cebpf4jnsgd1na2vs0mg"},{"bike_id":"fe701751-cefd-4c69-a4eb-3e266aad91c8","system_id":"levelo_inurba_marseille","lat":43.31709,"lon":5.43709,"is_reserved":false,"is_disabled":false,"rental_uris":{"android":"levelo://app?vid=fe701751-cefd-4c69-a4eb-3e266aad91c8","ios":"levelo://app?vid=fe701751-cefd-4c69-a4eb-3e266aad91c8"},"vehicle_type_id":"4","last_reported":1737133677,"current_range_meters":38400,"station_id":"ce4bhp92rcd13ifvqhcg","pricing_plan_id":"cebpf4jnsgd1na2vs0mg"},{"bike_id":"e4cc7ced-77d2-4ae6-92fa-7d3a32325e5c","system_id":"levelo_inurba_marseille","lat":43.29263,"lon":5.38446,"is_reserved":false,"is_disabled":false,"rental_uris":{"android":"levelo://app?vid=e4cc7ced-77d2-4ae6-92fa-7d3a32325e5c","ios":"levelo://app?vid=e4cc7ced-77d2-4ae6-92fa-7d3a32325e5c"},"vehicle_type_id":"4","last_reported":1737133677,"current_range_meters":24800,"station_id":"ce4bh692rcd13ifvqea0","pricing_plan_id":"cebpf4jnsgd1na2vs0mg"},{"bike_id":"0dbeb0b2-e019-4335-8a33-9d8aca4ccee8","system_id":"levelo_inurba_marseille","lat":43.29875,"lon":5.39748,"is_reserved":false,"is_disabled":false,"rental_uris":{"android":"levelo://app?vid=0dbeb0b2-e019-4335-8a33-9d8aca4ccee8","ios":"levelo://app?vid=0dbeb0b2-e019-4335-8a33-9d8aca4ccee8"},"vehicle_type_id":"4","last_reported":1737133677,"current_range_meters":28400,"station_id":"ce4bh0h2rcd13ifvqd50","pricing_plan_id":"cebpf4jnsgd1na2vs0mg"},{"bike_id":"dfacd599-5918-4352-b7cf-fe3270433c68","system_id":"levelo_inurba_marseille","lat":43.26561,"lon":5.37289,"is_reserved":false,"is_disabled":true,"rental_uris":{"android":"levelo://app?vid=dfacd599-5918-4352-b7cf-fe3270433c68","ios":"levelo://app?vid=dfacd599-5918-4352-b7cf-fe3270433c68"},"vehicle_type_id":"4","last_reported":1737133677,"current_range_meters":400,"station_id":"ce4bhg12rcd13ifvqf70","pricing_plan_id":"cebpf4jnsgd1na2vs0mg"},{"bike_id":"9b40e672-fc46-4eff-bb90-0a05dbee027d","system_id":"levelo_inurba_marseille","lat":43.29982,"lon":5.37166,"is_reserved":false,"is_disabled":true,"rental_uris":{"android":"levelo://app?vid=9b40e672-fc46-4eff-bb90-0a05dbee027d","ios":"levelo://app?vid=9b40e672-fc46-4eff-bb90-0a05dbee027d"},"vehicle_type_id":"4","last_reported":1737133677,"current_range_meters":2000,"station_id":"ce4bgr92rcd13ifvqc7g","pricing_plan_id":"cebpf4jnsgd1na2vs0mg"},{"bike_id":"8cad2851-e998-4eb5-8223-c3ac6bd85827","system_id":"levelo_inurba_marseille","lat":43.28614,"lon":5.35107,"is_reserved":false,"is_disabled":false,"rental_uris":{"android":"levelo://app?vid=8cad2851-e998-4eb5-8223-c3ac6bd85827","ios":"levelo://app?vid=8cad2851-e998-4eb5-8223-c3ac6bd85827"},"vehicle_type_id":"4","last_reported":1737133677,"current_range_meters":38800,"station_id":"ce4bhch2rcd13ifvqeug","pricing_plan_id":"cebpf4jnsgd1na2vs0mg"},{"bike_id":"aea7bf98-ca4c-480e-ba38-8307c7dde144","system_id":"levelo_inurba_marseille","lat":43.24802,"lon":5.37458,"is_reserved":false,"is_disabled":false,"rental_uris":{"android":"levelo://app?vid=aea7bf98-ca4c-480e-ba38-8307c7dde144","ios":"levelo://app?vid=aea7bf98-ca4c-480e-ba38-8307c7dde144"},"vehicle_type_id":"4","last_reported":1737133677,"current_range_meters":25600,"station_id":"ce4bhgh2rcd13ifvqfb0","pricing_plan_id":"cebpf4jnsgd1na2vs0mg"},{"bike_id":"eb198c72-a7fc-45e5-96df-be25b8df1bfe","system_id":"levelo_inurba_marseille","lat":43.2926,"lon":5.4091,"is_reserved":false,"is_disabled":false,"rental_uris":{"android":"levelo://app?vid=eb198c72-a7fc-45e5-96df-be25b8df1bfe","ios":"levelo://app?vid=eb198c72-a7fc-45e5-96df-be25b8df1bfe"},"vehicle_type_id":"4","last_reported":1737133677,"current_range_meters":30800,"station_id":"ce4bh192rcd13ifvqdc0","pricing_plan_id":"cebpf4jnsgd1na2vs0mg"},{"bike_id":"7e561df8-bb32-40ea-95c8-69cd9182881b","system_id":"levelo_inurba_marseille","lat":43.29918,"lon":5.37475,"is_reserved":false,"is_disabled":false,"rental_uris":{"android":"levelo://app?vid=7e561df8-bb32-40ea-95c8-69cd9182881b","ios":"levelo://app?vid=7e561df8-bb32-40ea-95c8-69cd9182881b"},"vehicle_type_id":"4","last_reported":1737133677,"current_range_meters":24000,"station_id":"ce4bgjh2rcd13ifvqbg0","pricing_plan_id":"cebpf4jnsgd1na2vs0mg"},{"bike_id":"bd86c314-9d5d-4d3a-b4d2-1f66c0bb81b3","system_id":"levelo_inurba_marseille","lat":43.28694,"lon":5.37405,"is_reserved":false,"is_disabled":false,"rental_uris":{"android":"levelo://app?vid=bd86c314-9d5d-4d3a-b4d2-1f66c0bb81b3","ios":"levelo://app?vid=bd86c314-9d5d-4d3a-b4d2-1f66c0bb81b3"},"vehicle_type_id":"4","last_reported":1737133677,"current_range_meters":20800,"station_id":"ce4bh3p2rcd13ifvqdq0","pricing_plan_id":"cebpf4jnsgd1na2vs0mg"},{"bike_id":"57ee9f77-6136-4440-9a0d-54c028ee9b4c","system_id":"levelo_inurba_marseille","lat":43.25109,"lon":5.40325,"is_reserved":false,"is_disabled":false,"rental_uris":{"android":"levelo://app?vid=57ee9f77-6136-4440-9a0d-54c028ee9b4c","ios":"levelo://app?vid=57ee9f77-6136-4440-9a0d-54c028ee9b4c"},"vehicle_type_id":"4","last_reported":1737133677,"current_range_meters":18000,"station_id":"ce4bhlh2rcd13ifvqgig","pricing_plan_id":"cebpf4jnsgd1na2vs0mg"},{"bike_id":"fd54f3c9-0679-445e-8eed-39daf3f7ab14","system_id":"levelo_inurba_marseille","lat":43.29529,"lon":5.39034,"is_reserved":false,"is_disabled":false,"rental_uris":{"android":"levelo://app?vid=fd54f3c9-0679-445e-8eed-39daf3f7ab14","ios":"levelo://app?vid=fd54f3c9-0679-445e-8eed-39daf3f7ab14"},"vehicle_type_id":"4","last_reported":1737133677,"current_range_meters":26000,"station_id":"ce4bh3p2rcd13ifvqdp0","pricing_plan_id":"cebpf4jnsgd1na2vs0mg"},{"bike_id":"7b095187-6dee-4f8a-869d-470718b7a0b4","system_id":"levelo_inurba_marseille","lat":43.30536,"lon":5.36562,"is_reserved":false,"is_disabled":false,"rental_uris":{"android":"levelo://app?vid=7b095187-6dee-4f8a-869d-470718b7a0b4","ios":"levelo://app?vid=7b095187-6dee-4f8a-869d-470718b7a0b4"},"vehicle_type_id":"4","last_reported":1737133677,"current_range_meters":16800,"station_id":"ce4bgs12rcd13ifvqcag","pricing_plan_id":"cebpf4jnsgd1na2vs0mg"},{"bike_id":"e0465de2-1648-4504-9618-59b63e2acad8","system_id":"levelo_inurba_marseille","lat":43.321063,"lon":5.367754,"is_reserved":false,"is_disabled":false,"rental_uris":{"android":"levelo://app?vid=e0465de2-1648-4504-9618-59b63e2acad8","ios":"levelo://app?vid=e0465de2-1648-4504-9618-59b63e2acad8"},"vehicle_type_id":"4","last_reported":1737133677,"current_range_meters":34800,"station_id":"ce4bhrh2rcd13ifvqhug","pricing_plan_id":"cebpf4jnsgd1na2vs0mg"},{"bike_id":"aee46743-f0f7-4648-88e1-fa3d3a7aa9c0","system_id":"levelo_inurba_marseille","lat":43.25092,"lon":5.39516,"is_reserved":false,"is_disabled":false,"rental_uris":{"android":"levelo://app?vid=aee46743-f0f7-4648-88e1-fa3d3a7aa9c0","ios":"levelo://app?vid=aee46743-f0f7-4648-88e1-fa3d3a7aa9c0"},"vehicle_type_id":"4","last_reported":1737133677,"current_range_meters":28400,"station_id":"ce4bhm12rcd13ifvqgkg","pricing_plan_id":"cebpf4jnsgd1na2vs0mg"},{"bike_id":"61f6d027-7bbe-4f2a-8da9-204164873693","system_id":"levelo_inurba_marseille","lat":43.25577,"lon":5.38234,"is_reserved":false,"is_disabled":false,"rental_uris":{"android":"levelo://app?vid=61f6d027-7bbe-4f2a-8da9-204164873693","ios":"levelo://app?vid=61f6d027-7bbe-4f2a-8da9-204164873693"},"vehicle_type_id":"4","last_reported":1737133677,"current_range_meters":38800,"station_id":"ce4bhih2rcd13ifvqfs0","pricing_plan_id":"cebpf4jnsgd1na2vs0mg"},{"bike_id":"426c6dbb-f325-4738-906d-29242f82afb0","system_id":"levelo_inurba_marseille","lat":43.31239,"lon":5.38112,"is_reserved":false,"is_disabled":false,"rental_uris":{"android":"levelo://app?vid=426c6dbb-f325-4738-906d-29242f82afb0","ios":"levelo://app?vid=426c6dbb-f325-4738-906d-29242f82afb0"},"vehicle_type_id":"4","last_reported":1737133677,"current_range_meters":8400,"station_id":"","pricing_plan_id":"cebpf4jnsgd1na2vs0mg"},{"bike_id":"18ffa36b-1d72-4ef5-8795-7e923066e4b8","system_id":"levelo_inurba_marseille","lat":43.28071,"lon":5.39664,"is_reserved":false,"is_disabled":false,"rental_uris":{"android":"levelo://app?vid=18ffa36b-1d72-4ef5-8795-7e923066e4b8","ios":"levelo://app?vid=18ffa36b-1d72-4ef5-8795-7e923066e4b8"},"vehicle_type_id":"4","last_reported":1737133677,"current_range_meters":25600,"station_id":"ce4bho12rcd13ifvqh2g","pricing_plan_id":"cebpf4jnsgd1na2vs0mg"},{"bike_id":"4e899928-603c-48ae-bc1d-3ea4ed315f13","system_id":"levelo_inurba_marseille","lat":43.30309,"lon":5.39197,"is_reserved":false,"is_disabled":true,"rental_uris":{"android":"levelo://app?vid=4e899928-603c-48ae-bc1d-3ea4ed315f13","ios":"levelo://app?vid=4e899928-603c-48ae-bc1d-3ea4ed315f13"},"vehicle_type_id":"4","last_reported":1737133677,"current_range_meters":27200,"station_id":"ce4bgkh2rcd13ifvqbk0","pricing_plan_id":"cebpf4jnsgd1na2vs0mg"},{"bike_id":"511aeece-28c2-4127-a883-8f3aa7e8b00d","system_id":"levelo_inurba_marseille","lat":43.30176,"lon":5.38807,"is_reserved":false,"is_disabled":false,"rental_uris":{"android":"levelo://app?vid=511aeece-28c2-4127-a883-8f3aa7e8b00d","ios":"levelo://app?vid=511aeece-28c2-4127-a883-8f3aa7e8b00d"},"vehicle_type_id":"4","last_reported":1737133677,"current_range_meters":39200,"station_id":"ce4bhoh2rcd13ifvqh6g","pricing_plan_id":"cebpf4jnsgd1na2vs0mg"},{"bike_id":"c965c02f-10c1-43f9-8f96-d0879f8b00fb","system_id":"levelo_inurba_marseille","lat":43.30147,"lon":5.38081,"is_reserved":false,"is_disabled":false,"rental_uris":{"android":"levelo://app?vid=c965c02f-10c1-43f9-8f96-d0879f8b00fb","ios":"levelo://app?vid=c965c02f-10c1-43f9-8f96-d0879f8b00fb"},"vehicle_type_id":"4","last_reported":1737133677,"current_range_meters":12400,"station_id":"ce4bgjp2rcd13ifvqbh0","pricing_plan_id":"cebpf4jnsgd1na2vs0mg"},{"bike_id":"75ece4a3-5b3b-4618-a4a3-0948ea1d20f4","system_id":"levelo_inurba_marseille","lat":43.29878,"lon":5.38922,"is_reserved":false,"is_disabled":false,"rental_uris":{"android":"levelo://app?vid=75ece4a3-5b3b-4618-a4a3-0948ea1d20f4","ios":"levelo://app?vid=75ece4a3-5b3b-4618-a4a3-0948ea1d20f4"},"vehicle_type_id":"4","last_reported":1737133677,"current_range_meters":18800,"station_id":"ce4bh392rcd13ifvqdl0","pricing_plan_id":"cebpf4jnsgd1na2vs0mg"},{"bike_id":"b24a2576-89c3-4aa5-90e3-ac68bb357c04","system_id":"levelo_inurba_marseille","lat":43.3173,"lon":5.42386,"is_reserved":false,"is_disabled":false,"rental_uris":{"android":"levelo://app?vid=b24a2576-89c3-4aa5-90e3-ac68bb357c04","ios":"levelo://app?vid=b24a2576-89c3-4aa5-90e3-ac68bb357c04"},"vehicle_type_id":"4","last_reported":1737133677,"current_range_meters":30400,"station_id":"ce4bhp92rcd13ifvqhbg","pricing_plan_id":"cebpf4jnsgd1na2vs0mg"},{"bike_id":"c2dd5557-e003-4bf0-ab67-cf3d3a83b76c","system_id":"levelo_inurba_marseille","lat":43.297068,"lon":5.421828,"is_reserved":false,"is_disabled":true,"rental_uris":{"android":"levelo://app?vid=c2dd5557-e003-4bf0-ab67-cf3d3a83b76c","ios":"levelo://app?vid=c2dd5557-e003-4bf0-ab67-cf3d3a83b76c"},"vehicle_type_id":"4","last_reported":1737133677,"current_range_meters":800,"station_id":"","pricing_plan_id":"cebpf4jnsgd1na2vs0mg"},{"bike_id":"205f1349-4b93-47a6-83ad-3ae1acfcec69","system_id":"levelo_inurba_marseille","lat":43.30142,"lon":5.37428,"is_reserved":false,"is_disabled":false,"rental_uris":{"android":"levelo://app?vid=205f1349-4b93-47a6-83ad-3ae1acfcec69","ios":"levelo://app?vid=205f1349-4b93-47a6-83ad-3ae1acfcec69"},"vehicle_type_id":"4","last_reported":1737133677,"current_range_meters":36400,"station_id":"ce4bgs92rcd13ifvqcc0","pricing_plan_id":"cebpf4jnsgd1na2vs0mg"},{"bike_id":"2cfe01a2-969a-46c2-9df5-b5a7c6ed2380","system_id":"levelo_inurba_marseille","lat":43.30469,"lon":5.37914,"is_reserved":false,"is_disabled":false,"rental_uris":{"android":"levelo://app?vid=2cfe01a2-969a-46c2-9df5-b5a7c6ed2380","ios":"levelo://app?vid=2cfe01a2-969a-46c2-9df5-b5a7c6ed2380"},"vehicle_type_id":"4","last_reported":1737133677,"current_range_meters":22800,"station_id":"ce4bgup2rcd13ifvqcn0","pricing_plan_id":"cebpf4jnsgd1na2vs0mg"},{"bike_id":"50b95f46-aaea-49ca-a878-0422e52ed5a2","system_id":"levelo_inurba_marseille","lat":43.29559,"lon":5.39978,"is_reserved":false,"is_disabled":false,"rental_uris":{"android":"levelo://app?vid=50b95f46-aaea-49ca-a878-0422e52ed5a2","ios":"levelo://app?vid=50b95f46-aaea-49ca-a878-0422e52ed5a2"},"vehicle_type_id":"4","last_reported":1737133677,"current_range_meters":17600,"station_id":"ce4bh312rcd13ifvqdj0","pricing_plan_id":"cebpf4jnsgd1na2vs0mg"},{"bike_id":"00a4d52f-f224-458c-a4a0-bbfba7cd6a2a","system_id":"levelo_inurba_marseille","lat":43.28409,"lon":5.34998,"is_reserved":false,"is_disabled":false,"rental_uris":{"android":"levelo://app?vid=00a4d52f-f224-458c-a4a0-bbfba7cd6a2a","ios":"levelo://app?vid=00a4d52f-f224-458c-a4a0-bbfba7cd6a2a"},"vehicle_type_id":"4","last_reported":1737133677,"current_range_meters":38800,"station_id":"ce4bhbh2rcd13ifvqepg","pricing_plan_id":"cebpf4jnsgd1na2vs0mg"},{"bike_id":"ff934638-0993-4105-b3d4-b9c07a1a6b53","system_id":"levelo_inurba_marseille","lat":43.30176,"lon":5.37323,"is_reserved":false,"is_disabled":false,"rental_uris":{"android":"levelo://app?vid=ff934638-0993-4105-b3d4-b9c07a1a6b53","ios":"levelo://app?vid=ff934638-0993-4105-b3d4-b9c07a1a6b53"},"vehicle_type_id":"4","last_reported":1737133677,"current_range_meters":37600,"station_id":"","pricing_plan_id":"cebpf4jnsgd1na2vs0mg"},{"bike_id":"35ad59f7-9b19-47cb-9ae4-f8d4bb4ec6e8","system_id":"levelo_inurba_marseille","lat":43.27615,"lon":5.36111,"is_reserved":false,"is_disabled":true,"rental_uris":{"android":"levelo://app?vid=35ad59f7-9b19-47cb-9ae4-f8d4bb4ec6e8","ios":"levelo://app?vid=35ad59f7-9b19-47cb-9ae4-f8d4bb4ec6e8"},"vehicle_type_id":"4","last_reported":1737133677,"current_range_meters":0,"station_id":"ce4bgj92rcd13ifvqbe0","pricing_plan_id":"cebpf4jnsgd1na2vs0mg"},{"bike_id":"9a028993-d709-43d9-95c7-f94304ac326a","system_id":"levelo_inurba_marseille","lat":43.28459,"lon":5.35891,"is_reserved":false,"is_disabled":true,"rental_uris":{"android":"levelo://app?vid=9a028993-d709-43d9-95c7-f94304ac326a","ios":"levelo://app?vid=9a028993-d709-43d9-95c7-f94304ac326a"},"vehicle_type_id":"4","last_reported":1737133677,"current_range_meters":37600,"station_id":"ce4bhah2rcd13ifvqei0","pricing_plan_id":"cebpf4jnsgd1na2vs0mg"},{"bike_id":"60b4586b-86d9-415f-b2bf-1f861fd60dc9","system_id":"levelo_inurba_marseille","lat":43.25825,"lon":5.39434,"is_reserved":false,"is_disabled":false,"rental_uris":{"android":"levelo://app?vid=60b4586b-86d9-415f-b2bf-1f861fd60dc9","ios":"levelo://app?vid=60b4586b-86d9-415f-b2bf-1f861fd60dc9"},"vehicle_type_id":"4","last_reported":1737133677,"current_range_meters":11200,"station_id":"ce4bhip2rcd13ifvqft0","pricing_plan_id":"cebpf4jnsgd1na2vs0mg"},{"bike_id":"2edd7109-a662-40c0-b9d6-9039fe48b4cb","system_id":"levelo_inurba_marseille","lat":43.32482,"lon":5.36567,"is_reserved":false,"is_disabled":false,"rental_uris":{"android":"levelo://app?vid=2edd7109-a662-40c0-b9d6-9039fe48b4cb","ios":"levelo://app?vid=2edd7109-a662-40c0-b9d6-9039fe48b4cb"},"vehicle_type_id":"4","last_reported":1737133677,"current_range_meters":32000,"station_id":"ce4bhs12rcd13ifvqhvg","pricing_plan_id":"cebpf4jnsgd1na2vs0mg"},{"bike_id":"c8eb5688-10c0-42af-885e-bd72d5ee4321","system_id":"levelo_inurba_marseille","lat":43.2995,"lon":5.41312,"is_reserved":false,"is_disabled":false,"rental_uris":{"android":"levelo://app?vid=c8eb5688-10c0-42af-885e-bd72d5ee4321","ios":"levelo://app?vid=c8eb5688-10c0-42af-885e-bd72d5ee4321"},"vehicle_type_id":"4","last_reported":1737133677,"current_range_meters":36800,"station_id":"ce4bhp12rcd13ifvqh9g","pricing_plan_id":"cebpf4jnsgd1na2vs0mg"},{"bike_id":"76f6b38f-ae8b-4891-a5ac-43454c56a967","system_id":"levelo_inurba_marseille","lat":43.30534,"lon":5.36533,"is_reserved":false,"is_disabled":false,"rental_uris":{"android":"levelo://app?vid=76f6b38f-ae8b-4891-a5ac-43454c56a967","ios":"levelo://app?vid=76f6b38f-ae8b-4891-a5ac-43454c56a967"},"vehicle_type_id":"4","last_reported":1737133677,"current_range_meters":38800,"station_id":"ce4bgs12rcd13ifvqcag","pricing_plan_id":"cebpf4jnsgd1na2vs0mg"},{"bike_id":"dff7584a-a0ac-4efa-86e7-f9229510aef3","system_id":"levelo_inurba_marseille","lat":43.27948,"lon":5.41042,"is_reserved":false,"is_disabled":false,"rental_uris":{"android":"levelo://app?vid=dff7584a-a0ac-4efa-86e7-f9229510aef3","ios":"levelo://app?vid=dff7584a-a0ac-4efa-86e7-f9229510aef3"},"vehicle_type_id":"4","last_reported":1737133677,"current_range_meters":2800,"station_id":"ce4bhnp2rcd13ifvqh0g","pricing_plan_id":"cebpf4jnsgd1na2vs0mg"},{"bike_id":"971afc40-40e0-4262-8942-f156c53a821d","system_id":"levelo_inurba_marseille","lat":43.28371,"lon":5.38636,"is_reserved":false,"is_disabled":false,"rental_uris":{"android":"levelo://app?vid=971afc40-40e0-4262-8942-f156c53a821d","ios":"levelo://app?vid=971afc40-40e0-4262-8942-f156c53a821d"},"vehicle_type_id":"4","last_reported":1737133677,"current_range_meters":28000,"station_id":"ce4bh492rcd13ifvqdvg","pricing_plan_id":"cebpf4jnsgd1na2vs0mg"},{"bike_id":"22e4347c-c685-4569-988a-0a6dbc22e48c","system_id":"levelo_inurba_marseille","lat":43.3117,"lon":5.38729,"is_reserved":false,"is_disabled":false,"rental_uris":{"android":"levelo://app?vid=22e4347c-c685-4569-988a-0a6dbc22e48c","ios":"levelo://app?vid=22e4347c-c685-4569-988a-0a6dbc22e48c"},"vehicle_type_id":"4","last_reported":1737133677,"current_range_meters":28000,"station_id":"ce4bgv12rcd13ifvqcp0","pricing_plan_id":"cebpf4jnsgd1na2vs0mg"},{"bike_id":"bc7bb99b-5bb8-4857-bbc7-3d8d4f862dde","system_id":"levelo_inurba_marseille","lat":43.3041,"lon":5.41286,"is_reserved":false,"is_disabled":false,"rental_uris":{"android":"levelo://app?vid=bc7bb99b-5bb8-4857-bbc7-3d8d4f862dde","ios":"levelo://app?vid=bc7bb99b-5bb8-4857-bbc7-3d8d4f862dde"},"vehicle_type_id":"4","last_reported":1737133677,"current_range_meters":39200,"station_id":"ce4bhop2rcd13ifvqh8g","pricing_plan_id":"cebpf4jnsgd1na2vs0mg"},{"bike_id":"a4e3e60d-3826-44a4-b29a-410d3ec74cbc","system_id":"levelo_inurba_marseille","lat":43.273909,"lon":5.362327,"is_reserved":false,"is_disabled":true,"rental_uris":{"android":"levelo://app?vid=a4e3e60d-3826-44a4-b29a-410d3ec74cbc","ios":"levelo://app?vid=a4e3e60d-3826-44a4-b29a-410d3ec74cbc"},