{"last_updated":1747580910,"ttl":60,"version":"2.2","data":{"bikes":[{"bike_id":"d8aaa4e8-bab4-4435-9b4b-bdd39e5d1bea","system_id":"levelo_inurba_marseille","lat":43.24165,"lon":5.36399,"is_reserved":false,"is_disabled":false,"rental_uris":{"android":"levelo://app?vid=d8aaa4e8-bab4-4435-9b4b-bdd39e5d1bea","ios":"levelo://app?vid=d8aaa4e8-bab4-4435-9b4b-bdd39e5d1bea"},"vehicle_type_id":"4","last_reported":1747580910,"current_range_meters":2800,"station_id":"cpo36qri1sfpv3e86is0","pricing_plan_id":"cebpf4jnsgd1na2vs0mg"},{"bike_id":"8064e331-5536-42b9-b289-5e59ff068b17","system_id":"levelo_inurba_marseille","lat":43.29412,"lon":5.38624,"is_reserved":false,"is_disabled":false,"rental_uris":{"android":"levelo://app?vid=8064e331-5536-42b9-b289-5e59ff068b17","ios":"levelo://app?vid=8064e331-5536-42b9-b289-5e59ff068b17"},"vehicle_type_id":"4","last_reported":1747580910,"current_range_meters":2000,"station_id":"ce4bh2h2rcd13ifvqdh0","pricing_plan_id":"cebpf4jnsgd1na2vs0mg"},{"bike_id":"1c89a8d4-bf40-4451-87de-fe5b8f36a03a","system_id":"levelo_inurba_marseille","lat":43.31584,"lon":5.37698,"is_reserved":false,"is_disabled":false,"rental_uris":{"android":"levelo://app?vid=1c89a8d4-bf40-4451-87de-fe5b8f36a03a","ios":"levelo://app?vid=1c89a8d4-bf40-4451-87de-fe5b8f36a03a"},"vehicle_type_id":"4","last_reported":1747580910,"current_range_meters":2800,"station_id":"ce4bgth2rcd13ifvqch0","pricing_plan_id":"cebpf4jnsgd1na2vs0mg"},{"bike_id":"9d11a7be-ee4e-4f42-aa0f-1ca207a70cc8","system_id":"levelo_inurba_marseille","lat":43.27374,"lon":5.36265,"is_reserved":false,"is_disabled":false,"rental_uris":{"android":"levelo://app?vid=9d11a7be-ee4e-4f42-aa0f-1ca207a70cc8","ios":"levelo://app?vid=9d11a7be-ee4e-4f42-aa0f-1ca207a70cc8"},"vehicle_type_id":"4","last_reported":1747580910,"current_range_meters":2800,"station_id":"ce4bhbh2rcd13ifvqeo0","pricing_plan_id":"cebpf4jnsgd1na2vs0mg"},{"bike_id":"3fa58c22-00c6-48db-914d-ec2861a3d890","system_id":"levelo_inurba_marseille","lat":43.31074,"lon":5.40222,"is_reserved":false,"is_disabled":false,"rental_uris":{"android":"levelo://app?vid=3fa58c22-00c6-48db-914d-ec2861a3d890","ios":"levelo://app?vid=3fa58c22-00c6-48db-914d-ec2861a3d890"},"vehicle_type_id":"4","last_reported":1747580910,"current_range_meters":2800,"station_id":"","pricing_plan_id":"cebpf4jnsgd1na2vs0mg"},{"bike_id":"49098c40-29e0-47c7-b54a-5f9e8c2bb58b","system_id":"levelo_inurba_marseille","lat":43.29372,"lon":5.37843,"is_reserved":false,"is_disabled":false,"rental_uris":{"android":"levelo://app?vid=49098c40-29e0-47c7-b54a-5f9e8c2bb58b","ios":"levelo://app?vid=49098c40-29e0-47c7-b54a-5f9e8c2bb58b"},"vehicle_type_id":"4","last_reported":1747580910,"current_range_meters":2800,"station_id":"ce4bgjh2rcd13ifvqbf0","pricing_plan_id":"cebpf4jnsgd1na2vs0mg"},{"bike_id":"7fc12723-480d-4e88-b402-490cb78b983e","system_id":"levelo_inurba_marseille","lat":43.23964,"lon":5.36627,"is_reserved":false,"is_disabled":false,"rental_uris":{"android":"levelo://app?vid=7fc12723-480d-4e88-b402-490cb78b983e","ios":"levelo://app?vid=7fc12723-480d-4e88-b402-490cb78b983e"},"vehicle_type_id":"4","last_reported":1747580910,"current_range_meters":3200,"station_id":"ce4bhi12rcd13ifvqfp0","pricing_plan_id":"cebpf4jnsgd1na2vs0mg"},{"bike_id":"8d466ecb-36d6-4e2e-9a8f-8004c1f7dccc","system_id":"levelo_inurba_marseille","lat":43.27378,"lon":5.36287,"is_reserved":false,"is_disabled":false,"rental_uris":{"android":"levelo://app?vid=8d466ecb-36d6-4e2e-9a8f-8004c1f7dccc","ios":"levelo://app?vid=8d466ecb-36d6-4e2e-9a8f-8004c1f7dccc"},"vehicle_type_id":"4","last_reported":1747580910,"current_range_meters":3200,"station_id":"ce4bhbh2rcd13ifvqeo0","pricing_plan_id":"cebpf4jnsgd1na2vs0mg"},{"bike_id":"96073b52-19e3-4d93-aea0-0f83364f6acb","system_id":"levelo_inurba_marseille","lat":43.30311,"lon":5.39218,"is_reserved":false,"is_disabled":false,"rental_uris":{"android":"levelo://app?vid=96073b52-19e3-4d93-aea0-0f83364f6acb","ios":"levelo://app?vid=96073b52-19e3-4d93-aea0-0f83364f6acb"},"vehicle_type_id":"4","last_reported":1747580910,"current_range_meters":2800,"station_id":"ce4bgkh2rcd13ifvqbk0","pricing_plan_id":"cebpf4jnsgd1na2vs0mg"},{"bike_id":"4b6b0b62-66ab-406b-a1ad-632a61b5e0e2","system_id":"levelo_inurba_marseille","lat":43.21187,"lon":5.351,"is_reserved":false,"is_disabled":false,"rental_uris":{"android":"levelo://app?vid=4b6b0b62-66ab-406b-a1ad-632a61b5e0e2","ios":"levelo://app?vid=4b6b0b62-66ab-406b-a1ad-632a61b5e0e2"},"vehicle_type_id":"4","last_reported":1747580910,"current_range_meters":3200,"station_id":"st_cvj6sg6p6f1abm77japg","pricing_plan_id":"cebpf4jnsgd1na2vs0mg"},{"bike_id":"43ad80e1-07fc-4b8d-b615-6a0e44cac0c7","system_id":"levelo_inurba_marseille","lat":43.28626,"lon":5.35092,"is_reserved":false,"is_disabled":true,"rental_uris":{"android":"levelo://app?vid=43ad80e1-07fc-4b8d-b615-6a0e44cac0c7","ios":"levelo://app?vid=43ad80e1-07fc-4b8d-b615-6a0e44cac0c7"},"vehicle_type_id":"4","last_reported":1747580910,"current_range_meters":3200,"station_id":"ce4bhch2rcd13ifvqeug","pricing_plan_id":"cebpf4jnsgd1na2vs0mg"},{"bike_id":"1d6c28fb-f106-4d86-b5dd-ea8a3877c8fb","system_id":"levelo_inurba_marseille","lat":43.29539,"lon":5.38561,"is_reserved":false,"is_disabled":false,"rental_uris":{"android":"levelo://app?vid=1d6c28fb-f106-4d86-b5dd-ea8a3877c8fb","ios":"levelo://app?vid=1d6c28fb-f106-4d86-b5dd-ea8a3877c8fb"},"vehicle_type_id":"4","last_reported":1747580910,"current_range_meters":3600,"station_id":"ce4bgih2rcd13ifvqba0","pricing_plan_id":"cebpf4jnsgd1na2vs0mg"},{"bike_id":"5e6dca69-a85d-420e-8cb0-d5fe5bbc06a9","system_id":"levelo_inurba_marseille","lat":43.24182,"lon":5.39727,"is_reserved":false,"is_disabled":false,"rental_uris":{"android":"levelo://app?vid=5e6dca69-a85d-420e-8cb0-d5fe5bbc06a9","ios":"levelo://app?vid=5e6dca69-a85d-420e-8cb0-d5fe5bbc06a9"},"vehicle_type_id":"4","last_reported":1747580910,"current_range_meters":3600,"station_id":"ce4bhn12rcd13ifvqgpg","pricing_plan_id":"cebpf4jnsgd1na2vs0mg"},{"bike_id":"f1033d46-befc-4cac-80d9-e4fa25f6de03","system_id":"levelo_inurba_marseille","lat":43.27844,"lon":5.40728,"is_reserved":false,"is_disabled":false,"rental_uris":{"android":"levelo://app?vid=f1033d46-befc-4cac-80d9-e4fa25f6de03","ios":"levelo://app?vid=f1033d46-befc-4cac-80d9-e4fa25f6de03"},"vehicle_type_id":"4","last_reported":1747580910,"current_range_meters":3600,"station_id":"ce4bhnh2rcd13ifvqgtg","pricing_plan_id":"cebpf4jnsgd1na2vs0mg"},{"bike_id":"3b843dca-d67a-4b0e-916b-710ebb36ec6d","system_id":"levelo_inurba_marseille","lat":43.32508,"lon":5.40138,"is_reserved":false,"is_disabled":false,"rental_uris":{"android":"levelo://app?vid=3b843dca-d67a-4b0e-916b-710ebb36ec6d","ios":"levelo://app?vid=3b843dca-d67a-4b0e-916b-710ebb36ec6d"},"vehicle_type_id":"4","last_reported":1747580910,"current_range_meters":3600,"station_id":"","pricing_plan_id":"cebpf4jnsgd1na2vs0mg"},{"bike_id":"394cadcc-3a78-4403-9bfc-1006acf0fb23","system_id":"levelo_inurba_marseille","lat":43.26219,"lon":5.37919,"is_reserved":false,"is_disabled":true,"rental_uris":{"android":"levelo://app?vid=394cadcc-3a78-4403-9bfc-1006acf0fb23","ios":"levelo://app?vid=394cadcc-3a78-4403-9bfc-1006acf0fb23"},"vehicle_type_id":"4","last_reported":1747580910,"current_range_meters":3600,"station_id":"ce4bhjp2rcd13ifvqg90","pricing_plan_id":"cebpf4jnsgd1na2vs0mg"},{"bike_id":"1e5a7839-d218-47a9-988d-f5fdcdfa5acb","system_id":"levelo_inurba_marseille","lat":43.2583,"lon":5.39454,"is_reserved":false,"is_disabled":false,"rental_uris":{"android":"levelo://app?vid=1e5a7839-d218-47a9-988d-f5fdcdfa5acb","ios":"levelo://app?vid=1e5a7839-d218-47a9-988d-f5fdcdfa5acb"},"vehicle_type_id":"4","last_reported":1747580910,"current_range_meters":3600,"station_id":"ce4bhip2rcd13ifvqft0","pricing_plan_id":"cebpf4jnsgd1na2vs0mg"},{"bike_id":"2720b085-3e62-4b5b-a566-d4cbf6c560ed","system_id":"levelo_inurba_marseille","lat":43.29786,"lon":5.37103,"is_reserved":false,"is_disabled":false,"rental_uris":{"android":"levelo://app?vid=2720b085-3e62-4b5b-a566-d4cbf6c560ed","ios":"levelo://app?vid=2720b085-3e62-4b5b-a566-d4cbf6c560ed"},"vehicle_type_id":"4","last_reported":1747580910,"current_range_meters":3600,"station_id":"ce4bgop2rcd13ifvqc1g","pricing_plan_id":"cebpf4jnsgd1na2vs0mg"},{"bike_id":"d20d9e4e-80e6-475b-811c-d47d51269875","system_id":"levelo_inurba_marseille","lat":43.2319,"lon":5.35556,"is_reserved":false,"is_disabled":false,"rental_uris":{"android":"levelo://app?vid=d20d9e4e-80e6-475b-811c-d47d51269875","ios":"levelo://app?vid=d20d9e4e-80e6-475b-811c-d47d51269875"},"vehicle_type_id":"4","last_reported":1747580910,"current_range_meters":3600,"station_id":"ce4bhu92rcd13ifvqi70","pricing_plan_id":"cebpf4jnsgd1na2vs0mg"},{"bike_id":"3ccbfe66-d846-448d-b373-d43c1aac454b","system_id":"levelo_inurba_marseille","lat":43.28408,"lon":5.34999,"is_reserved":false,"is_disabled":false,"rental_uris":{"android":"levelo://app?vid=3ccbfe66-d846-448d-b373-d43c1aac454b","ios":"levelo://app?vid=3ccbfe66-d846-448d-b373-d43c1aac454b"},"vehicle_type_id":"4","last_reported":1747580910,"current_range_meters":3600,"station_id":"ce4bhbh2rcd13ifvqepg","pricing_plan_id":"cebpf4jnsgd1na2vs0mg"},{"bike_id":"4a4b0e62-8a6b-4dd3-9bd8-8ffe856f0948","system_id":"levelo_inurba_marseille","lat":43.26908,"lon":5.40258,"is_reserved":false,"is_disabled":false,"rental_uris":{"android":"levelo://app?vid=4a4b0e62-8a6b-4dd3-9bd8-8ffe856f0948","ios":"levelo://app?vid=4a4b0e62-8a6b-4dd3-9bd8-8ffe856f0948"},"vehicle_type_id":"4","last_reported":1747580910,"current_range_meters":4000,"station_id":"cjm6bp8fraef2m0cb0m0","pricing_plan_id":"cebpf4jnsgd1na2vs0mg"},{"bike_id":"cf60e1ca-3aee-4de7-a87a-c84a6d86fc44","system_id":"levelo_inurba_marseille","lat":43.2953,"lon":5.38528,"is_reserved":false,"is_disabled":false,"rental_uris":{"android":"levelo://app?vid=cf60e1ca-3aee-4de7-a87a-c84a6d86fc44","ios":"levelo://app?vid=cf60e1ca-3aee-4de7-a87a-c84a6d86fc44"},"vehicle_type_id":"4","last_reported":1747580910,"current_range_meters":4000,"station_id":"ce4bgih2rcd13ifvqba0","pricing_plan_id":"cebpf4jnsgd1na2vs0mg"},{"bike_id":"b5f49630-278d-4e97-adb5-be64e887fe97","system_id":"levelo_inurba_marseille","lat":43.295715,"lon":5.375242,"is_reserved":false,"is_disabled":false,"rental_uris":{"android":"levelo://app?vid=b5f49630-278d-4e97-adb5-be64e887fe97","ios":"levelo://app?vid=b5f49630-278d-4e97-adb5-be64e887fe97"},"vehicle_type_id":"4","last_reported":1747580910,"current_range_meters":2000,"station_id":"ce4bgh92rcd13ifvqb50","pricing_plan_id":"cebpf4jnsgd1na2vs0mg"},{"bike_id":"008f060c-158f-4f00-89de-f490d5b0767a","system_id":"levelo_inurba_marseille","lat":43.28446,"lon":5.392,"is_reserved":false,"is_disabled":false,"rental_uris":{"android":"levelo://app?vid=008f060c-158f-4f00-89de-f490d5b0767a","ios":"levelo://app?vid=008f060c-158f-4f00-89de-f490d5b0767a"},"vehicle_type_id":"4","last_reported":1747580910,"current_range_meters":4000,"station_id":"ce4bhoh2rcd13ifvqh5g","pricing_plan_id":"cebpf4jnsgd1na2vs0mg"},{"bike_id":"6229a0b1-a34f-4648-a639-3559e5fe5d4e","system_id":"levelo_inurba_marseille","lat":43.29201,"lon":5.35815,"is_reserved":false,"is_disabled":false,"rental_uris":{"android":"levelo://app?vid=6229a0b1-a34f-4648-a639-3559e5fe5d4e","ios":"levelo://app?vid=6229a0b1-a34f-4648-a639-3559e5fe5d4e"},"vehicle_type_id":"4","last_reported":1747580910,"current_range_meters":3600,"station_id":"ce4bhb12rcd13ifvqel0","pricing_plan_id":"cebpf4jnsgd1na2vs0mg"},{"bike_id":"6f054aee-463a-40e0-9cf7-fb391c291f84","system_id":"levelo_inurba_marseille","lat":43.28939,"lon":5.364,"is_reserved":false,"is_disabled":false,"rental_uris":{"android":"levelo://app?vid=6f054aee-463a-40e0-9cf7-fb391c291f84","ios":"levelo://app?vid=6f054aee-463a-40e0-9cf7-fb391c291f84"},"vehicle_type_id":"4","last_reported":1747580910,"current_range_meters":4000,"station_id":"ce4bhc92rcd13ifvqetg","pricing_plan_id":"cebpf4jnsgd1na2vs0mg"},{"bike_id":"be98142e-ab99-4f68-b04a-ff2165061bb2","system_id":"levelo_inurba_marseille","lat":43.26953,"lon":5.38635,"is_reserved":false,"is_disabled":true,"rental_uris":{"android":"levelo://app?vid=be98142e-ab99-4f68-b04a-ff2165061bb2","ios":"levelo://app?vid=be98142e-ab99-4f68-b04a-ff2165061bb2"},"vehicle_type_id":"4","last_reported":1747580910,"current_range_meters":4000,"station_id":"ce4bhh92rcd13ifvqfh0","pricing_plan_id":"cebpf4jnsgd1na2vs0mg"},{"bike_id":"bbda5443-72b0-478a-aaad-922de1a84bda","system_id":"levelo_inurba_marseille","lat":43.231606,"lon":5.437081,"is_reserved":false,"is_disabled":false,"rental_uris":{"android":"levelo://app?vid=bbda5443-72b0-478a-aaad-922de1a84bda","ios":"levelo://app?vid=bbda5443-72b0-478a-aaad-922de1a84bda"},"vehicle_type_id":"4","last_reported":1747580910,"current_range_meters":4000,"station_id":"ce4bhmp2rcd13ifvqgog","pricing_plan_id":"cebpf4jnsgd1na2vs0mg"},{"bike_id":"aa1d8c1e-7594-4615-aa13-56fdebb973d7","system_id":"levelo_inurba_marseille","lat":43.26855,"lon":5.39188,"is_reserved":false,"is_disabled":false,"rental_uris":{"android":"levelo://app?vid=aa1d8c1e-7594-4615-aa13-56fdebb973d7","ios":"levelo://app?vid=aa1d8c1e-7594-4615-aa13-56fdebb973d7"},"vehicle_type_id":"4","last_reported":1747580910,"current_range_meters":4400,"station_id":"","pricing_plan_id":"cebpf4jnsgd1na2vs0mg"},{"bike_id":"15c1ecbe-0de1-437d-bc3f-01fc9f56d06f","system_id":"levelo_inurba_marseille","lat":43.2509,"lon":5.39526,"is_reserved":false,"is_disabled":false,"rental_uris":{"android":"levelo://app?vid=15c1ecbe-0de1-437d-bc3f-01fc9f56d06f","ios":"levelo://app?vid=15c1ecbe-0de1-437d-bc3f-01fc9f56d06f"},"vehicle_type_id":"4","last_reported":1747580910,"current_range_meters":4400,"station_id":"ce4bhm12rcd13ifvqgkg","pricing_plan_id":"cebpf4jnsgd1na2vs0mg"},{"bike_id":"d948e1b9-e0a9-43c6-885d-ca07297715b3","system_id":"levelo_inurba_marseille","lat":43.29921,"lon":5.37479,"is_reserved":false,"is_disabled":false,"rental_uris":{"android":"levelo://app?vid=d948e1b9-e0a9-43c6-885d-ca07297715b3","ios":"levelo://app?vid=d948e1b9-e0a9-43c6-885d-ca07297715b3"},"vehicle_type_id":"4","last_reported":1747580910,"current_range_meters":4800,"station_id":"ce4bgjh2rcd13ifvqbg0","pricing_plan_id":"cebpf4jnsgd1na2vs0mg"},{"bike_id":"e14f7575-b29c-4546-8e86-70adba1d14c6","system_id":"levelo_inurba_marseille","lat":43.337444,"lon":5.374475,"is_reserved":false,"is_disabled":true,"rental_uris":{"android":"levelo://app?vid=e14f7575-b29c-4546-8e86-70adba1d14c6","ios":"levelo://app?vid=e14f7575-b29c-4546-8e86-70adba1d14c6"},"vehicle_type_id":"4","last_reported":1747580910,"current_range_meters":4800,"station_id":"","pricing_plan_id":"cebpf4jnsgd1na2vs0mg"},{"bike_id":"bc4fd15b-e7fa-4a52-9f42-562ce81ab7c0","system_id":"levelo_inurba_marseille","lat":43.28356,"lon":5.38112,"is_reserved":false,"is_disabled":false,"rental_uris":{"android":"levelo://app?vid=bc4fd15b-e7fa-4a52-9f42-562ce81ab7c0","ios":"levelo://app?vid=bc4fd15b-e7fa-4a52-9f42-562ce81ab7c0"},"vehicle_type_id":"4","last_reported":1747580910,"current_range_meters":4800,"station_id":"ce4bh412rcd13ifvqdr0","pricing_plan_id":"cebpf4jnsgd1na2vs0mg"},{"bike_id":"dab8a9e1-490a-4f7a-9562-03f33d344a26","system_id":"levelo_inurba_marseille","lat":43.31338,"lon":5.39694,"is_reserved":false,"is_disabled":false,"rental_uris":{"android":"levelo://app?vid=dab8a9e1-490a-4f7a-9562-03f33d344a26","ios":"levelo://app?vid=dab8a9e1-490a-4f7a-9562-03f33d344a26"},"vehicle_type_id":"4","last_reported":1747580910,"current_range_meters":4800,"station_id":"ce4bgvp2rcd13ifvqcu0","pricing_plan_id":"cebpf4jnsgd1na2vs0mg"},{"bike_id":"e5013baf-c7d0-4bd2-b1c5-b16df7134711","system_id":"levelo_inurba_marseille","lat":43.27054,"lon":5.42247,"is_reserved":false,"is_disabled":false,"rental_uris":{"android":"levelo://app?vid=e5013baf-c7d0-4bd2-b1c5-b16df7134711","ios":"levelo://app?vid=e5013baf-c7d0-4bd2-b1c5-b16df7134711"},"vehicle_type_id":"4","last_reported":1747580910,"current_range_meters":4800,"station_id":"ce4bhk92rcd13ifvqgb0","pricing_plan_id":"cebpf4jnsgd1na2vs0mg"},{"bike_id":"e7ac8ef0-7a88-4628-a309-07ca01c113e6","system_id":"levelo_inurba_marseille","lat":43.270691,"lon":5.422824,"is_reserved":false,"is_disabled":false,"rental_uris":{"android":"levelo://app?vid=e7ac8ef0-7a88-4628-a309-07ca01c113e6","ios":"levelo://app?vid=e7ac8ef0-7a88-4628-a309-07ca01c113e6"},"vehicle_type_id":"4","last_reported":1747580910,"current_range_meters":4800,"station_id":"ce4bhk92rcd13ifvqgb0","pricing_plan_id":"cebpf4jnsgd1na2vs0mg"},{"bike_id":"4f564f5b-959b-4050-8d90-89fbfc043b03","system_id":"levelo_inurba_marseille","lat":43.3149,"lon":5.37309,"is_reserved":false,"is_disabled":false,"rental_uris":{"android":"levelo://app?vid=4f564f5b-959b-4050-8d90-89fbfc043b03","ios":"levelo://app?vid=4f564f5b-959b-4050-8d90-89fbfc043b03"},"vehicle_type_id":"4","last_reported":1747580910,"current_range_meters":4800,"station_id":"ce4bgt12rcd13ifvqcd0","pricing_plan_id":"cebpf4jnsgd1na2vs0mg"},{"bike_id":"13d35905-d4e0-49e9-aca9-df3c3be2831d","system_id":"levelo_inurba_marseille","lat":43.28613,"lon":5.35097,"is_reserved":false,"is_disabled":false,"rental_uris":{"android":"levelo://app?vid=13d35905-d4e0-49e9-aca9-df3c3be2831d","ios":"levelo://app?vid=13d35905-d4e0-49e9-aca9-df3c3be2831d"},"vehicle_type_id":"4","last_reported":1747580910,"current_range_meters":4800,"station_id":"ce4bhch2rcd13ifvqeug","pricing_plan_id":"cebpf4jnsgd1na2vs0mg"},{"bike_id":"ebf7c431-98d7-4aa4-9d03-cca2a384e0e3","system_id":"levelo_inurba_marseille","lat":43.27372,"lon":5.36252,"is_reserved":false,"is_disabled":false,"rental_uris":{"android":"levelo://app?vid=ebf7c431-98d7-4aa4-9d03-cca2a384e0e3","ios":"levelo://app?vid=ebf7c431-98d7-4aa4-9d03-cca2a384e0e3"},"vehicle_type_id":"4","last_reported":1747580910,"current_range_meters":5600,"station_id":"ce4bhbh2rcd13ifvqeo0","pricing_plan_id":"cebpf4jnsgd1na2vs0mg"},{"bike_id":"97986b33-218c-48a6-a5ff-2c3ea1bc1bfa","system_id":"levelo_inurba_marseille","lat":43.29923,"lon":5.37473,"is_reserved":false,"is_disabled":false,"rental_uris":{"android":"levelo://app?vid=97986b33-218c-48a6-a5ff-2c3ea1bc1bfa","ios":"levelo://app?vid=97986b33-218c-48a6-a5ff-2c3ea1bc1bfa"},"vehicle_type_id":"4","last_reported":1747580910,"current_range_meters":4400,"station_id":"ce4bgjh2rcd13ifvqbg0","pricing_plan_id":"cebpf4jnsgd1na2vs0mg"},{"bike_id":"2feb3fc8-0cd8-4f9e-83bc-29ea96f35943","system_id":"levelo_inurba_marseille","lat":43.28268,"lon":5.3506,"is_reserved":false,"is_disabled":false,"rental_uris":{"android":"levelo://app?vid=2feb3fc8-0cd8-4f9e-83bc-29ea96f35943","ios":"levelo://app?vid=2feb3fc8-0cd8-4f9e-83bc-29ea96f35943"},"vehicle_type_id":"4","last_reported":1747580910,"current_range_meters":6000,"station_id":"ce4bhbp2rcd13ifvqerg","pricing_plan_id":"cebpf4jnsgd1na2vs0mg"},{"bike_id":"ffa15d23-0bc3-4c62-a3a9-e18af79b0170","system_id":"levelo_inurba_marseille","lat":43.28612,"lon":5.37066,"is_reserved":false,"is_disabled":false,"rental_uris":{"android":"levelo://app?vid=ffa15d23-0bc3-4c62-a3a9-e18af79b0170","ios":"levelo://app?vid=ffa15d23-0bc3-4c62-a3a9-e18af79b0170"},"vehicle_type_id":"4","last_reported":1747580910,"current_range_meters":5600,"station_id":"ce4bht12rcd13ifvqi60","pricing_plan_id":"cebpf4jnsgd1na2vs0mg"},{"bike_id":"90d8e992-27ba-4828-be86-218d4e6320aa","system_id":"levelo_inurba_marseille","lat":43.27175,"lon":5.40988,"is_reserved":false,"is_disabled":false,"rental_uris":{"android":"levelo://app?vid=90d8e992-27ba-4828-be86-218d4e6320aa","ios":"levelo://app?vid=90d8e992-27ba-4828-be86-218d4e6320aa"},"vehicle_type_id":"4","last_reported":1747580910,"current_range_meters":5600,"station_id":"ce4bhl12rcd13ifvqgf0","pricing_plan_id":"cebpf4jnsgd1na2vs0mg"},{"bike_id":"09c06e25-cabd-429c-9826-d2b80b18740c","system_id":"levelo_inurba_marseille","lat":43.27833,"lon":5.39212,"is_reserved":false,"is_disabled":false,"rental_uris":{"android":"levelo://app?vid=09c06e25-cabd-429c-9826-d2b80b18740c","ios":"levelo://app?vid=09c06e25-cabd-429c-9826-d2b80b18740c"},"vehicle_type_id":"4","last_reported":1747580910,"current_range_meters":5600,"station_id":"ce4bhjp2rcd13ifvqga0","pricing_plan_id":"cebpf4jnsgd1na2vs0mg"},{"bike_id":"15105c28-4481-4864-b934-48406906ff54","system_id":"levelo_inurba_marseille","lat":43.25113,"lon":5.40325,"is_reserved":false,"is_disabled":false,"rental_uris":{"android":"levelo://app?vid=15105c28-4481-4864-b934-48406906ff54","ios":"levelo://app?vid=15105c28-4481-4864-b934-48406906ff54"},"vehicle_type_id":"4","last_reported":1747580910,"current_range_meters":6000,"station_id":"ce4bhlh2rcd13ifvqgig","pricing_plan_id":"cebpf4jnsgd1na2vs0mg"},{"bike_id":"e0fe735b-2325-4a0c-9f0a-2132c368830d","system_id":"levelo_inurba_marseille","lat":43.29051,"lon":5.39954,"is_reserved":false,"is_disabled":true,"rental_uris":{"android":"levelo://app?vid=e0fe735b-2325-4a0c-9f0a-2132c368830d","ios":"levelo://app?vid=e0fe735b-2325-4a0c-9f0a-2132c368830d"},"vehicle_type_id":"4","last_reported":1747580910,"current_range_meters":6000,"station_id":"ce4bh392rcd13ifvqdm0","pricing_plan_id":"cebpf4jnsgd1na2vs0mg"},{"bike_id":"55fb771a-6e76-45c4-a9b7-cda97a0011d0","system_id":"levelo_inurba_marseille","lat":43.28756,"lon":5.3827,"is_reserved":false,"is_disabled":false,"rental_uris":{"android":"levelo://app?vid=55fb771a-6e76-45c4-a9b7-cda97a0011d0","ios":"levelo://app?vid=55fb771a-6e76-45c4-a9b7-cda97a0011d0"},"vehicle_type_id":"4","last_reported":1747580910,"current_range_meters":6000,"station_id":"","pricing_plan_id":"cebpf4jnsgd1na2vs0mg"},{"bike_id":"63b1149c-be18-48a4-a622-5bf02639495c","system_id":"levelo_inurba_marseille","lat":43.21188,"lon":5.35085,"is_reserved":false,"is_disabled":false,"rental_uris":{"android":"levelo://app?vid=63b1149c-be18-48a4-a622-5bf02639495c","ios":"levelo://app?vid=63b1149c-be18-48a4-a622-5bf02639495c"},"vehicle_type_id":"4","last_reported":1747580910,"current_range_meters":6000,"station_id":"st_cvj6sg6p6f1abm77japg","pricing_plan_id":"cebpf4jnsgd1na2vs0mg"},{"bike_id":"fb3e62df-f3f1-45b2-bccf-f1ac60f8fd01","system_id":"levelo_inurba_marseille","lat":43.28621,"lon":5.35094,"is_reserved":false,"is_disabled":false,"rental_uris":{"android":"levelo://app?vid=fb3e62df-f3f1-45b2-bccf-f1ac60f8fd01","ios":"levelo://app?vid=fb3e62df-f3f1-45b2-bccf-f1ac60f8fd01"},"vehicle_type_id":"4","last_reported":1747580910,"current_range_meters":6000,"station_id":"ce4bhch2rcd13ifvqeug","pricing_plan_id":"cebpf4jnsgd1na2vs0mg"},{"bike_id":"9336db23-c324-4a42-ae25-502bafafbd7a","system_id":"levelo_inurba_marseille","lat":43.29903,"lon":5.43656,"is_reserved":false,"is_disabled":false,"rental_uris":{"android":"levelo://app?vid=9336db23-c324-4a42-ae25-502bafafbd7a","ios":"levelo://app?vid=9336db23-c324-4a42-ae25-502bafafbd7a"},"vehicle_type_id":"4","last_reported":1747580910,"current_range_meters":6400,"station_id":"ce4bhpp2rcd13ifvqhfg","pricing_plan_id":"cebpf4jnsgd1na2vs0mg"},{"bike_id":"b8e6468b-87db-4ff6-8122-ef13bf5b7c8c","system_id":"levelo_inurba_marseille","lat":43.31379,"lon":5.37916,"is_reserved":false,"is_disabled":false,"rental_uris":{"android":"levelo://app?vid=b8e6468b-87db-4ff6-8122-ef13bf5b7c8c","ios":"levelo://app?vid=b8e6468b-87db-4ff6-8122-ef13bf5b7c8c"},"vehicle_type_id":"4","last_reported":1747580910,"current_range_meters":6400,"station_id":"","pricing_plan_id":"cebpf4jnsgd1na2vs0mg"},{"bike_id":"27d0891a-a616-42bd-8296-c20c1c0f81b4","system_id":"levelo_inurba_marseille","lat":43.25494,"lon":5.37647,"is_reserved":false,"is_disabled":false,"rental_uris":{"android":"levelo://app?vid=27d0891a-a616-42bd-8296-c20c1c0f81b4","ios":"levelo://app?vid=27d0891a-a616-42bd-8296-c20c1c0f81b4"},"vehicle_type_id":"4","last_reported":1747580910,"current_range_meters":6400,"station_id":"ce4bhh12rcd13ifvqff0","pricing_plan_id":"cebpf4jnsgd1na2vs0mg"},{"bike_id":"78726267-d475-4e2a-a282-696206202766","system_id":"levelo_inurba_marseille","lat":43.28147,"lon":5.42641,"is_reserved":false,"is_disabled":false,"rental_uris":{"android":"levelo://app?vid=78726267-d475-4e2a-a282-696206202766","ios":"levelo://app?vid=78726267-d475-4e2a-a282-696206202766"},"vehicle_type_id":"4","last_reported":1747580910,"current_range_meters":6400,"station_id":"ce4bhnh2rcd13ifvqgug","pricing_plan_id":"cebpf4jnsgd1na2vs0mg"},{"bike_id":"ae0fea53-ab0f-4e92-acf4-8a443729fb5e","system_id":"levelo_inurba_marseille","lat":43.23191,"lon":5.35541,"is_reserved":false,"is_disabled":false,"rental_uris":{"android":"levelo://app?vid=ae0fea53-ab0f-4e92-acf4-8a443729fb5e","ios":"levelo://app?vid=ae0fea53-ab0f-4e92-acf4-8a443729fb5e"},"vehicle_type_id":"4","last_reported":1747580910,"current_range_meters":6400,"station_id":"ce4bhu92rcd13ifvqi70","pricing_plan_id":"cebpf4jnsgd1na2vs0mg"},{"bike_id":"8cfc1be5-63bd-471f-a417-7e37abdb3f9d","system_id":"levelo_inurba_marseille","lat":43.23191,"lon":5.35539,"is_reserved":false,"is_disabled":false,"rental_uris":{"android":"levelo://app?vid=8cfc1be5-63bd-471f-a417-7e37abdb3f9d","ios":"levelo://app?vid=8cfc1be5-63bd-471f-a417-7e37abdb3f9d"},"vehicle_type_id":"4","last_reported":1747580910,"current_range_meters":6400,"station_id":"ce4bhu92rcd13ifvqi70","pricing_plan_id":"cebpf4jnsgd1na2vs0mg"},{"bike_id":"698c00d0-9d04-474a-9aca-cd5b8e8cadcb","system_id":"levelo_inurba_marseille","lat":43.26288,"lon":5.36605,"is_reserved":false,"is_disabled":false,"rental_uris":{"android":"levelo://app?vid=698c00d0-9d04-474a-9aca-cd5b8e8cadcb","ios":"levelo://app?vid=698c00d0-9d04-474a-9aca-cd5b8e8cadcb"},"vehicle_type_id":"4","last_reported":1747580910,"current_range_meters":6400,"station_id":"","pricing_plan_id":"cebpf4jnsgd1na2vs0mg"},{"bike_id":"3e073325-7c74-4b6c-b0bd-9716d89c3c37","system_id":"levelo_inurba_marseille","lat":43.265582,"lon":5.372941,"is_reserved":false,"is_disabled":false,"rental_uris":{"android":"levelo://app?vid=3e073325-7c74-4b6c-b0bd-9716d89c3c37","ios":"levelo://app?vid=3e073325-7c74-4b6c-b0bd-9716d89c3c37"},"vehicle_type_id":"4","last_reported":1747580910,"current_range_meters":6400,"station_id":"ce4bhg12rcd13ifvqf70","pricing_plan_id":"cebpf4jnsgd1na2vs0mg"},{"bike_id":"60d4af0f-e4b4-474e-a8c0-cb5cfe2a6e66","system_id":"levelo_inurba_marseille","lat":43.2865,"lon":5.35139,"is_reserved":false,"is_disabled":false,"rental_uris":{"android":"levelo://app?vid=60d4af0f-e4b4-474e-a8c0-cb5cfe2a6e66","ios":"levelo://app?vid=60d4af0f-e4b4-474e-a8c0-cb5cfe2a6e66"},"vehicle_type_id":"4","last_reported":1747580910,"current_range_meters":6800,"station_id":"ce4bhch2rcd13ifvqeug","pricing_plan_id":"cebpf4jnsgd1na2vs0mg"},{"bike_id":"81c659b6-3a02-46e7-a46f-d340746ad32e","system_id":"levelo_inurba_marseille","lat":43.27381,"lon":5.36254,"is_reserved":false,"is_disabled":true,"rental_uris":{"android":"levelo://app?vid=81c659b6-3a02-46e7-a46f-d340746ad32e","ios":"levelo://app?vid=81c659b6-3a02-46e7-a46f-d340746ad32e"},"vehicle_type_id":"4","last_reported":1747580910,"current_range_meters":6800,"station_id":"ce4bhbh2rcd13ifvqeo0","pricing_plan_id":"cebpf4jnsgd1na2vs0mg"},{"bike_id":"af2f3908-848e-4879-9c80-b3ddea1b7f0a","system_id":"levelo_inurba_marseille","lat":43.31213,"lon":5.38779,"is_reserved":false,"is_disabled":true,"rental_uris":{"android":"levelo://app?vid=af2f3908-848e-4879-9c80-b3ddea1b7f0a","ios":"levelo://app?vid=af2f3908-848e-4879-9c80-b3ddea1b7f0a"},"vehicle_type_id":"4","last_reported":1747580910,"current_range_meters":6800,"station_id":"","pricing_plan_id":"cebpf4jnsgd1na2vs0mg"},{"bike_id":"90b91ec4-9295-4740-af77-f3512896ed17","system_id":"levelo_inurba_marseille","lat":43.27357,"lon":5.36215,"is_reserved":false,"is_disabled":false,"rental_uris":{"android":"levelo://app?vid=90b91ec4-9295-4740-af77-f3512896ed17","ios":"levelo://app?vid=90b91ec4-9295-4740-af77-f3512896ed17"},"vehicle_type_id":"4","last_reported":1747580910,"current_range_meters":7200,"station_id":"ce4bhbh2rcd13ifvqeo0","pricing_plan_id":"cebpf4jnsgd1na2vs0mg"},{"bike_id":"1eb1573f-4cbd-4b2b-a5aa-d52eb894936b","system_id":"levelo_inurba_marseille","lat":43.25519,"lon":5.37668,"is_reserved":false,"is_disabled":false,"rental_uris":{"android":"levelo://app?vid=1eb1573f-4cbd-4b2b-a5aa-d52eb894936b","ios":"levelo://app?vid=1eb1573f-4cbd-4b2b-a5aa-d52eb894936b"},"vehicle_type_id":"4","last_reported":1747580910,"current_range_meters":7200,"station_id":"ce4bhh12rcd13ifvqff0","pricing_plan_id":"cebpf4jnsgd1na2vs0mg"},{"bike_id":"f573819e-e6e1-45c9-8c1e-8fd33e256fda","system_id":"levelo_inurba_marseille","lat":43.29787,"lon":5.39346,"is_reserved":false,"is_disabled":false,"rental_uris":{"android":"levelo://app?vid=f573819e-e6e1-45c9-8c1e-8fd33e256fda","ios":"levelo://app?vid=f573819e-e6e1-45c9-8c1e-8fd33e256fda"},"vehicle_type_id":"4","last_reported":1747580910,"current_range_meters":7200,"station_id":"chh1huq6cuj3fo74tm60","pricing_plan_id":"cebpf4jnsgd1na2vs0mg"},{"bike_id":"405e6028-bd40-4b9a-ad78-3c88ab49c540","system_id":"levelo_inurba_marseille","lat":43.31672,"lon":5.37231,"is_reserved":false,"is_disabled":false,"rental_uris":{"android":"levelo://app?vid=405e6028-bd40-4b9a-ad78-3c88ab49c540","ios":"levelo://app?vid=405e6028-bd40-4b9a-ad78-3c88ab49c540"},"vehicle_type_id":"4","last_reported":1747580910,"current_range_meters":7200,"station_id":"","pricing_plan_id":"cebpf4jnsgd1na2vs0mg"},{"bike_id":"72011d4f-5bcc-4520-927b-f02382c4469d","system_id":"levelo_inurba_marseille","lat":43.28412,"lon":5.34994,"is_reserved":false,"is_disabled":false,"rental_uris":{"android":"levelo://app?vid=72011d4f-5bcc-4520-927b-f02382c4469d","ios":"levelo://app?vid=72011d4f-5bcc-4520-927b-f02382c4469d"},"vehicle_type_id":"4","last_reported":1747580910,"current_range_meters":7200,"station_id":"ce4bhbh2rcd13ifvqepg","pricing_plan_id":"cebpf4jnsgd1na2vs0mg"},{"bike_id":"aa0d1a9a-9f70-4ce9-a3ca-49aad10ebcf4","system_id":"levelo_inurba_marseille","lat":43.28727,"lon":5.36098,"is_reserved":false,"is_disabled":false,"rental_uris":{"android":"levelo://app?vid=aa0d1a9a-9f70-4ce9-a3ca-49aad10ebcf4","ios":"levelo://app?vid=aa0d1a9a-9f70-4ce9-a3ca-49aad10ebcf4"},"vehicle_type_id":"4","last_reported":1747580910,"current_range_meters":7200,"station_id":"cki0cbj6b192h4jlfktg","pricing_plan_id":"cebpf4jnsgd1na2vs0mg"},{"bike_id":"954f9a2f-3d92-4afe-8ccd-55ebda55dfe0","system_id":"levelo_inurba_marseille","lat":43.270722,"lon":5.4228,"is_reserved":false,"is_disabled":false,"rental_uris":{"android":"levelo://app?vid=954f9a2f-3d92-4afe-8ccd-55ebda55dfe0","ios":"levelo://app?vid=954f9a2f-3d92-4afe-8ccd-55ebda55dfe0"},"vehicle_type_id":"4","last_reported":1747580910,"current_range_meters":7200,"station_id":"ce4bhk92rcd13ifvqgb0","pricing_plan_id":"cebpf4jnsgd1na2vs0mg"},{"bike_id":"79bb078b-7209-4bd4-978e-f68ace0406d0","system_id":"levelo_inurba_marseille","lat":43.290277,"lon":5.386509,"is_reserved":false,"is_disabled":true,"rental_uris":{"android":"levelo://app?vid=79bb078b-7209-4bd4-978e-f68ace0406d0","ios":"levelo://app?vid=79bb078b-7209-4bd4-978e-f68ace0406d0"},"vehicle_type_id":"4","last_reported":1747580910,"current_range_meters":7200,"station_id":"ce4bh4p2rcd13ifvqe0g","pricing_plan_id":"cebpf4jnsgd1na2vs0mg"},{"bike_id":"06e2e639-b232-4f76-bd49-4977668161bb","system_id":"levelo_inurba_marseille","lat":43.28428,"lon":5.35004,"is_reserved":false,"is_disabled":false,"rental_uris":{"android":"levelo://app?vid=06e2e639-b232-4f76-bd49-4977668161bb","ios":"levelo://app?vid=06e2e639-b232-4f76-bd49-4977668161bb"},"vehicle_type_id":"4","last_reported":1747580910,"current_range_meters":7200,"station_id":"ce4bhbh2rcd13ifvqepg","pricing_plan_id":"cebpf4jnsgd1na2vs0mg"},{"bike_id":"4499b708-6b06-4075-9dcb-2fa87bbed748","system_id":"levelo_inurba_marseille","lat":43.30949,"lon":5.39039,"is_reserved":false,"is_disabled":false,"rental_uris":{"android":"levelo://app?vid=4499b708-6b06-4075-9dcb-2fa87bbed748","ios":"levelo://app?vid=4499b708-6b06-4075-9dcb-2fa87bbed748"},"vehicle_type_id":"4","last_reported":1747580910,"current_range_meters":6800,"station_id":"ce4bgup2rcd13ifvqco0","pricing_plan_id":"cebpf4jnsgd1na2vs0mg"},{"bike_id":"5cf16f92-b693-47c2-9e9c-211b074a5ed2","system_id":"levelo_inurba_marseille","lat":43.259,"lon":5.37078,"is_reserved":false,"is_disabled":false,"rental_uris":{"android":"levelo://app?vid=5cf16f92-b693-47c2-9e9c-211b074a5ed2","ios":"levelo://app?vid=5cf16f92-b693-47c2-9e9c-211b074a5ed2"},"vehicle_type_id":"4","last_reported":1747580910,"current_range_meters":7200,"station_id":"","pricing_plan_id":"cebpf4jnsgd1na2vs0mg"},{"bike_id":"2e6ad87d-8daa-454e-ac65-eabd9b5e2c58","system_id":"levelo_inurba_marseille","lat":43.25501,"lon":5.37648,"is_reserved":false,"is_disabled":false,"rental_uris":{"android":"levelo://app?vid=2e6ad87d-8daa-454e-ac65-eabd9b5e2c58","ios":"levelo://app?vid=2e6ad87d-8daa-454e-ac65-eabd9b5e2c58"},"vehicle_type_id":"4","last_reported":1747580910,"current_range_meters":7200,"station_id":"ce4bhh12rcd13ifvqff0","pricing_plan_id":"cebpf4jnsgd1na2vs0mg"},{"bike_id":"cedc8adc-b259-4cbc-be3e-ed86bec299db","system_id":"levelo_inurba_marseille","lat":43.2315,"lon":5.43722,"is_reserved":false,"is_disabled":false,"rental_uris":{"android":"levelo://app?vid=cedc8adc-b259-4cbc-be3e-ed86bec299db","ios":"levelo://app?vid=cedc8adc-b259-4cbc-be3e-ed86bec299db"},"vehicle_type_id":"4","last_reported":1747580910,"current_range_meters":7200,"station_id":"ce4bhmp2rcd13ifvqgog","pricing_plan_id":"cebpf4jnsgd1na2vs0mg"},{"bike_id":"98d7e015-5e62-4cfd-8699-316a172e4b18","system_id":"levelo_inurba_marseille","lat":43.26187,"lon":5.3747,"is_reserved":false,"is_disabled":true,"rental_uris":{"android":"levelo://app?vid=98d7e015-5e62-4cfd-8699-316a172e4b18","ios":"levelo://app?vid=98d7e015-5e62-4cfd-8699-316a172e4b18"},"vehicle_type_id":"4","last_reported":1747580910,"current_range_meters":7200,"station_id":"ce4bhgp2rcd13ifvqfc0","pricing_plan_id":"cebpf4jnsgd1na2vs0mg"},{"bike_id":"2b2cdd47-9eee-4d6f-b03d-3db31e35313a","system_id":"levelo_inurba_marseille","lat":43.23202,"lon":5.35555,"is_reserved":false,"is_disabled":false,"rental_uris":{"android":"levelo://app?vid=2b2cdd47-9eee-4d6f-b03d-3db31e35313a","ios":"levelo://app?vid=2b2cdd47-9eee-4d6f-b03d-3db31e35313a"},"vehicle_type_id":"4","last_reported":1747580910,"current_range_meters":8000,"station_id":"ce4bhu92rcd13ifvqi70","pricing_plan_id":"cebpf4jnsgd1na2vs0mg"},{"bike_id":"eb6ad0b5-8b6e-459c-a670-56152878be7b","system_id":"levelo_inurba_marseille","lat":43.24086,"lon":5.37755,"is_reserved":false,"is_disabled":false,"rental_uris":{"android":"levelo://app?vid=eb6ad0b5-8b6e-459c-a670-56152878be7b","ios":"levelo://app?vid=eb6ad0b5-8b6e-459c-a670-56152878be7b"},"vehicle_type_id":"4","last_reported":1747580910,"current_range_meters":8000,"station_id":"ce4bhnp2rcd13ifvqgvg","pricing_plan_id":"cebpf4jnsgd1na2vs0mg"},{"bike_id":"6b849ac5-c25f-4393-bc5a-47493e693ba8","system_id":"levelo_inurba_marseille","lat":43.24172,"lon":5.3641,"is_reserved":false,"is_disabled":true,"rental_uris":{"android":"levelo://app?vid=6b849ac5-c25f-4393-bc5a-47493e693ba8","ios":"levelo://app?vid=6b849ac5-c25f-4393-bc5a-47493e693ba8"},"vehicle_type_id":"4","last_reported":1747580910,"current_range_meters":8000,"station_id":"cpo36qri1sfpv3e86is0","pricing_plan_id":"cebpf4jnsgd1na2vs0mg"},{"bike_id":"aa9446b4-e4c2-4e75-9648-971ccb772673","system_id":"levelo_inurba_marseille","lat":43.274901,"lon":5.424546,"is_reserved":false,"is_disabled":false,"rental_uris":{"android":"levelo://app?vid=aa9446b4-e4c2-4e75-9648-971ccb772673","ios":"levelo://app?vid=aa9446b4-e4c2-4e75-9648-971ccb772673"},"vehicle_type_id":"4","last_reported":1747580910,"current_range_meters":8400,"station_id":"ce4bhn92rcd13ifvqgrg","pricing_plan_id":"cebpf4jnsgd1na2vs0mg"},{"bike_id":"2738a579-996c-4eec-8da2-c50695c073cb","system_id":"levelo_inurba_marseille","lat":43.23153,"lon":5.43706,"is_reserved":false,"is_disabled":false,"rental_uris":{"android":"levelo://app?vid=2738a579-996c-4eec-8da2-c50695c073cb","ios":"levelo://app?vid=2738a579-996c-4eec-8da2-c50695c073cb"},"vehicle_type_id":"4","last_reported":1747580910,"current_range_meters":8400,"station_id":"ce4bhmp2rcd13ifvqgog","pricing_plan_id":"cebpf4jnsgd1na2vs0mg"},{"bike_id":"501131b2-a48f-41b7-8339-9d7dbd594e4f","system_id":"levelo_inurba_marseille","lat":43.284056,"lon":5.375042,"is_reserved":false,"is_disabled":false,"rental_uris":{"android":"levelo://app?vid=501131b2-a48f-41b7-8339-9d7dbd594e4f","ios":"levelo://app?vid=501131b2-a48f-41b7-8339-9d7dbd594e4f"},"vehicle_type_id":"4","last_reported":1747580910,"current_range_meters":8000,"station_id":"ce4bh412rcd13ifvqds0","pricing_plan_id":"cebpf4jnsgd1na2vs0mg"},{"bike_id":"bd40313d-bc0b-494f-bbd6-a21f06672578","system_id":"levelo_inurba_marseille","lat":43.29915,"lon":5.38144,"is_reserved":false,"is_disabled":false,"rental_uris":{"android":"levelo://app?vid=bd40313d-bc0b-494f-bbd6-a21f06672578","ios":"levelo://app?vid=bd40313d-bc0b-494f-bbd6-a21f06672578"},"vehicle_type_id":"4","last_reported":1747580910,"current_range_meters":8400,"station_id":"ce4bgj12rcd13ifvqbc0","pricing_plan_id":"cebpf4jnsgd1na2vs0mg"},{"bike_id":"b934e6da-efb5-4ac5-a51a-eb50220f6e1b","system_id":"levelo_inurba_marseille","lat":43.2698,"lon":5.405893,"is_reserved":false,"is_disabled":true,"rental_uris":{"android":"levelo://app?vid=b934e6da-efb5-4ac5-a51a-eb50220f6e1b","ios":"levelo://app?vid=b934e6da-efb5-4ac5-a51a-eb50220f6e1b"},"vehicle_type_id":"4","last_reported":1747580910,"current_range_meters":8400,"station_id":"","pricing_plan_id":"cebpf4jnsgd1na2vs0mg"},{"bike_id":"316f9168-9490-408b-a310-494034b1a3a8","system_id":"levelo_inurba_marseille","lat":43.23173,"lon":5.35616,"is_reserved":false,"is_disabled":false,"rental_uris":{"android":"levelo://app?vid=316f9168-9490-408b-a310-494034b1a3a8","ios":"levelo://app?vid=316f9168-9490-408b-a310-494034b1a3a8"},"vehicle_type_id":"4","last_reported":1747580910,"current_range_meters":8400,"station_id":"","pricing_plan_id":"cebpf4jnsgd1na2vs0mg"},{"bike_id":"c0db4030-ef30-480b-a735-af5435a471ed","system_id":"levelo_inurba_marseille","lat":43.27732,"lon":5.4267,"is_reserved":false,"is_disabled":false,"rental_uris":{"android":"levelo://app?vid=c0db4030-ef30-480b-a735-af5435a471ed","ios":"levelo://app?vid=c0db4030-ef30-480b-a735-af5435a471ed"},"vehicle_type_id":"4","last_reported":1747580910,"current_range_meters":8400,"station_id":"","pricing_plan_id":"cebpf4jnsgd1na2vs0mg"},{"bike_id":"9d8b2c79-3ca5-4f14-8ae6-6f43aeaa1f73","system_id":"levelo_inurba_marseille","lat":43.23193,"lon":5.3557,"is_reserved":false,"is_disabled":false,"rental_uris":{"android":"levelo://app?vid=9d8b2c79-3ca5-4f14-8ae6-6f43aeaa1f73","ios":"levelo://app?vid=9d8b2c79-3ca5-4f14-8ae6-6f43aeaa1f73"},"vehicle_type_id":"4","last_reported":1747580910,"current_range_meters":8400,"station_id":"ce4bhu92rcd13ifvqi70","pricing_plan_id":"cebpf4jnsgd1na2vs0mg"},{"bike_id":"9be12a09-efe5-495b-8ec3-e7e0d7473370","system_id":"levelo_inurba_marseille","lat":43.295964,"lon":5.380964,"is_reserved":false,"is_disabled":true,"rental_uris":{"android":"levelo://app?vid=9be12a09-efe5-495b-8ec3-e7e0d7473370","ios":"levelo://app?vid=9be12a09-efe5-495b-8ec3-e7e0d7473370"},"vehicle_type_id":"4","last_reported":1747580910,"current_range_meters":8400,"station_id":"ce4bgl12rcd13ifvqbo0","pricing_plan_id":"cebpf4jnsgd1na2vs0mg"},{"bike_id":"3e562258-9698-495a-8db5-0c0e2aafd080","system_id":"levelo_inurba_marseille","lat":43.27611,"lon":5.36121,"is_reserved":false,"is_disabled":false,"rental_uris":{"android":"levelo://app?vid=3e562258-9698-495a-8db5-0c0e2aafd080","ios":"levelo://app?vid=3e562258-9698-495a-8db5-0c0e2aafd080"},"vehicle_type_id":"4","last_reported":1747580910,"current_range_meters":8400,"station_id":"ce4bgj92rcd13ifvqbe0","pricing_plan_id":"cebpf4jnsgd1na2vs0mg"},{"bike_id":"b3441476-9e6c-4f72-9947-dd5d64a1b8bd","system_id":"levelo_inurba_marseille","lat":43.23069,"lon":5.355,"is_reserved":false,"is_disabled":false,"rental_uris":{"android":"levelo://app?vid=b3441476-9e6c-4f72-9947-dd5d64a1b8bd","ios":"levelo://app?vid=b3441476-9e6c-4f72-9947-dd5d64a1b8bd"},"vehicle_type_id":"4","last_reported":1747580910,"current_range_meters":8400,"station_id":"cpo3342slgdg3j2ifvpg","pricing_plan_id":"cebpf4jnsgd1na2vs0mg"},{"bike_id":"4c33e9a2-0e5c-427f-a7cc-632c63a61d9d","system_id":"levelo_inurba_marseille","lat":43.283439,"lon":5.381048,"is_reserved":false,"is_disabled":true,"rental_uris":{"android":"levelo://app?vid=4c33e9a2-0e5c-427f-a7cc-632c63a61d9d","ios":"levelo://app?vid=4c33e9a2-0e5c-427f-a7cc-632c63a61d9d"},"vehicle_type_id":"4","last_reported":1747580910,"current_range_meters":8400,"station_id":"ce4bh412rcd13ifvqdr0","pricing_plan_id":"cebpf4jnsgd1na2vs0mg"},{"bike_id":"b903fb70-8b79-4641-9100-fb1b62cdd85d","system_id":"levelo_inurba_marseille","lat":43.25498,"lon":5.3766,"is_reserved":false,"is_disabled":false,"rental_uris":{"android":"levelo://app?vid=b903fb70-8b79-4641-9100-fb1b62cdd85d","ios":"levelo://app?vid=b903fb70-8b79-4641-9100-fb1b62cdd85d"},"vehicle_type_id":"4","last_reported":1747580910,"current_range_meters":8400,"station_id":"ce4bhh12rcd13ifvqff0","pricing_plan_id":"cebpf4jnsgd1na2vs0mg"},{"bike_id":"7551f41f-94a1-4971-b955-fe714cad7ece","system_id":"levelo_inurba_marseille","lat":43.29209,"lon":5.39337,"is_reserved":false,"is_disabled":false,"rental_uris":{"android":"levelo://app?vid=7551f41f-94a1-4971-b955-fe714cad7ece","ios":"levelo://app?vid=7551f41f-94a1-4971-b955-fe714cad7ece"},"vehicle_type_id":"4","last_reported":1747580910,"current_range_meters":8400,"station_id":"ce4bh192rcd13ifvqdd0","pricing_plan_id":"cebpf4jnsgd1na2vs0mg"},{"bike_id":"a9708a62-39bd-41ba-9f56-5d528effa682","system_id":"levelo_inurba_marseille","lat":43.28426,"lon":5.34985,"is_reserved":false,"is_disabled":true,"rental_uris":{"android":"levelo://app?vid=a9708a62-39bd-41ba-9f56-5d528effa682","ios":"levelo://app?vid=a9708a62-39bd-41ba-9f56-5d528effa682"},"vehicle_type_id":"4","last_reported":1747580910,"current_range_meters":8400,"station_id":"ce4bhbh2rcd13ifvqepg","pricing_plan_id":"cebpf4jnsgd1na2vs0mg"},{"bike_id":"0fb02880-5c6e-4026-9e4a-07529c572b44","system_id":"levelo_inurba_marseille","lat":43.25488,"lon":5.37379,"is_reserved":false,"is_disabled":false,"rental_uris":{"android":"levelo://app?vid=0fb02880-5c6e-4026-9e4a-07529c572b44","ios":"levelo://app?vid=0fb02880-5c6e-4026-9e4a-07529c572b44"},"vehicle_type_id":"4","last_reported":1747580910,"current_range_meters":8800,"station_id":"","pricing_plan_id":"cebpf4jnsgd1na2vs0mg"},{"bike_id":"16a5ba99-b8b8-470d-9bfb-0358e7b6fbc9","system_id":"levelo_inurba_marseille","lat":43.23201,"lon":5.35554,"is_reserved":false,"is_disabled":false,"rental_uris":{"android":"levelo://app?vid=16a5ba99-b8b8-470d-9bfb-0358e7b6fbc9","ios":"levelo://app?vid=16a5ba99-b8b8-470d-9bfb-0358e7b6fbc9"},"vehicle_type_id":"4","last_reported":1747580910,"current_range_meters":8800,"station_id":"ce4bhu92rcd13ifvqi70","pricing_plan_id":"cebpf4jnsgd1na2vs0mg"},{"bike_id":"e617ddbe-d18c-46ef-a0d8-868f8326c5f7","system_id":"levelo_inurba_marseille","lat":43.30208,"lon":5.39465,"is_reserved":false,"is_disabled":false,"rental_uris":{"android":"levelo://app?vid=e617ddbe-d18c-46ef-a0d8-868f8326c5f7","ios":"levelo://app?vid=e617ddbe-d18c-46ef-a0d8-868f8326c5f7"},"vehicle_type_id":"4","last_reported":1747580910,"current_range_meters":8800,"station_id":"ce4bh0p2rcd13ifvqd70","pricing_plan_id":"cebpf4jnsgd1na2vs0mg"},{"bike_id":"5d0c204a-30d7-45a4-a38f-6cc374d60c0a","system_id":"levelo_inurba_marseille","lat":43.2416,"lon":5.36406,"is_reserved":false,"is_disabled":false,"rental_uris":{"android":"levelo://app?vid=5d0c204a-30d7-45a4-a38f-6cc374d60c0a","ios":"levelo://app?vid=5d0c204a-30d7-45a4-a38f-6cc374d60c0a"},"vehicle_type_id":"4","last_reported":1747580910,"current_range_meters":8800,"station_id":"cpo36qri1sfpv3e86is0","pricing_plan_id":"cebpf4jnsgd1na2vs0mg"},{"bike_id":"0cd71a92-4f31-432e-b283-c1046f0255b9","system_id":"levelo_inurba_marseille","lat":43.2721,"lon":5.39183,"is_reserved":false,"is_disabled":false,"rental_uris":{"android":"levelo://app?vid=0cd71a92-4f31-432e-b283-c1046f0255b9","ios":"levelo://app?vid=0cd71a92-4f31-432e-b283-c1046f0255b9"},"vehicle_type_id":"4","last_reported":1747580910,"current_range_meters":8800,"station_id":"ce4bhhp2rcd13ifvqfm0","pricing_plan_id":"cebpf4jnsgd1na2vs0mg"},{"bike_id":"5cbffc78-e5eb-4872-8d19-df4ad11c0af8","system_id":"levelo_inurba_marseille","lat":43.23191,"lon":5.35566,"is_reserved":false,"is_disabled":false,"rental_uris":{"android":"levelo://app?vid=5cbffc78-e5eb-4872-8d19-df4ad11c0af8","ios":"levelo://app?vid=5cbffc78-e5eb-4872-8d19-df4ad11c0af8"},"vehicle_type_id":"4","last_reported":1747580910,"current_range_meters":8800,"station_id":"ce4bhu92rcd13ifvqi70","pricing_plan_id":"cebpf4jnsgd1na2vs0mg"},{"bike_id":"8e6e4749-5dae-4c8f-98db-5bf2ebcbacd3","system_id":"levelo_inurba_marseille","lat":43.24165,"lon":5.36422,"is_reserved":false,"is_disabled":false,"rental_uris":{"android":"levelo://app?vid=8e6e4749-5dae-4c8f-98db-5bf2ebcbacd3","ios":"levelo://app?vid=8e6e4749-5dae-4c8f-98db-5bf2ebcbacd3"},"vehicle_type_id":"4","last_reported":1747580910,"current_range_meters":8800,"station_id":"cpo36qri1sfpv3e86is0","pricing_plan_id":"cebpf4jnsgd1na2vs0mg"},{"bike_id":"ce7e9451-c5e0-43a7-9d31-b76e6518f11a","system_id":"levelo_inurba_marseille","lat":43.29602,"lon":5.38104,"is_reserved":false,"is_disabled":false,"rental_uris":{"android":"levelo://app?vid=ce7e9451-c5e0-43a7-9d31-b76e6518f11a","ios":"levelo://app?vid=ce7e9451-c5e0-43a7-9d31-b76e6518f11a"},"vehicle_type_id":"4","last_reported":1747580910,"current_range_meters":8400,"station_id":"ce4bgl12rcd13ifvqbo0","pricing_plan_id":"cebpf4jnsgd1na2vs0mg"},{"bike_id":"17700e48-e8e2-4a44-b25f-b3d02cf4ff42","system_id":"levelo_inurba_marseille","lat":43.31337,"lon":5.39707,"is_reserved":false,"is_disabled":false,"rental_uris":{"android":"levelo://app?vid=17700e48-e8e2-4a44-b25f-b3d02cf4ff42","ios":"levelo://app?vid=17700e48-e8e2-4a44-b25f-b3d02cf4ff42"},"vehicle_type_id":"4","last_reported":1747580910,"current_range_meters":8800,"station_id":"ce4bgvp2rcd13ifvqcu0","pricing_plan_id":"cebpf4jnsgd1na2vs0mg"},{"bike_id":"4b7ad4e8-4441-4c08-89cc-670ca76d5ffd","system_id":"levelo_inurba_marseille","lat":43.255,"lon":5.37652,"is_reserved":false,"is_disabled":false,"rental_uris":{"android":"levelo://app?vid=4b7ad4e8-4441-4c08-89cc-670ca76d5ffd","ios":"levelo://app?vid=4b7ad4e8-4441-4c08-89cc-670ca76d5ffd"},"vehicle_type_id":"4","last_reported":1747580910,"current_range_meters":8800,"station_id":"ce4bhh12rcd13ifvqff0","pricing_plan_id":"cebpf4jnsgd1na2vs0mg"},{"bike_id":"143027c1-9198-4505-af04-a5d69289be79","system_id":"levelo_inurba_marseille","lat":43.24076,"lon":5.37759,"is_reserved":false,"is_disabled":false,"rental_uris":{"android":"levelo://app?vid=143027c1-9198-4505-af04-a5d69289be79","ios":"levelo://app?vid=143027c1-9198-4505-af04-a5d69289be79"},"vehicle_type_id":"4","last_reported":1747580910,"current_range_meters":9200,"station_id":"ce4bhnp2rcd13ifvqgvg","pricing_plan_id":"cebpf4jnsgd1na2vs0mg"},{"bike_id":"9259ea1c-9d9a-461f-a402-a0d0ed9916d0","system_id":"levelo_inurba_marseille","lat":43.27923,"lon":5.39577,"is_reserved":false,"is_disabled":false,"rental_uris":{"android":"levelo://app?vid=9259ea1c-9d9a-461f-a402-a0d0ed9916d0","ios":"levelo://app?vid=9259ea1c-9d9a-461f-a402-a0d0ed9916d0"},"vehicle_type_id":"4","last_reported":1747580910,"current_range_meters":9200,"station_id":"ce4bhf92rcd13ifvqf40","pricing_plan_id":"cebpf4jnsgd1na2vs0mg"},{"bike_id":"a31134cd-2dfd-447f-bba6-661fa8ffc5b3","system_id":"levelo_inurba_marseille","lat":43.32542,"lon":5.41428,"is_reserved":false,"is_disabled":false,"rental_uris":{"android":"levelo://app?vid=a31134cd-2dfd-447f-bba6-661fa8ffc5b3","ios":"levelo://app?vid=a31134cd-2dfd-447f-bba6-661fa8ffc5b3"},"vehicle_type_id":"4","last_reported":1747580910,"current_range_meters":9200,"station_id":"ce4bhq12rcd13ifvqhhg","pricing_plan_id":"cebpf4jnsgd1na2vs0mg"},{"bike_id":"2eab994d-a378-4391-894b-b62d11a34041","system_id":"levelo_inurba_marseille","lat":43.23184,"lon":5.43695,"is_reserved":false,"is_disabled":true,"rental_uris":{"android":"levelo://app?vid=2eab994d-a378-4391-894b-b62d11a34041","ios":"levelo://app?vid=2eab994d-a378-4391-894b-b62d11a34041"},"vehicle_type_id":"4","last_reported":1747580910,"current_range_meters":9200,"station_id":"ce4bhmp2rcd13ifvqgog","pricing_plan_id":"cebpf4jnsgd1na2vs0mg"},{"bike_id":"caf4c81d-8b81-4d8d-a4f9-9d00bac7ad70","system_id":"levelo_inurba_marseille","lat":43.30777,"lon":5.42811,"is_reserved":false,"is_disabled":false,"rental_uris":{"android":"levelo://app?vid=caf4c81d-8b81-4d8d-a4f9-9d00bac7ad70","ios":"levelo://app?vid=caf4c81d-8b81-4d8d-a4f9-9d00bac7ad70"},"vehicle_type_id":"4","last_reported":1747580910,"current_range_meters":9200,"station_id":"","pricing_plan_id":"cebpf4jnsgd1na2vs0mg"},{"bike_id":"3870ad7e-4079-43c0-8f0d-78c9ab8cdff5","system_id":"levelo_inurba_marseille","lat":43.28613,"lon":5.35105,"is_reserved":false,"is_disabled":false,"rental_uris":{"android":"levelo://app?vid=3870ad7e-4079-43c0-8f0d-78c9ab8cdff5","ios":"levelo://app?vid=3870ad7e-4079-43c0-8f0d-78c9ab8cdff5"},"vehicle_type_id":"4","last_reported":1747580910,"current_range_meters":9200,"station_id":"ce4bhch2rcd13ifvqeug","pricing_plan_id":"cebpf4jnsgd1na2vs0mg"},{"bike_id":"e6417261-b9f0-4f0e-aa09-b38495961be2","system_id":"levelo_inurba_marseille","lat":43.27795,"lon":5.40729,"is_reserved":false,"is_disabled":false,"rental_uris":{"android":"levelo://app?vid=e6417261-b9f0-4f0e-aa09-b38495961be2","ios":"levelo://app?vid=e6417261-b9f0-4f0e-aa09-b38495961be2"},"vehicle_type_id":"4","last_reported":1747580910,"current_range_meters":9200,"station_id":"ce4bhnh2rcd13ifvqgtg","pricing_plan_id":"cebpf4jnsgd1na2vs0mg"},{"bike_id":"388d3cc1-2c7c-47e8-8753-054135eab29c","system_id":"levelo_inurba_marseille","lat":43.28414,"lon":5.34997,"is_reserved":false,"is_disabled":false,"rental_uris":{"android":"levelo://app?vid=388d3cc1-2c7c-47e8-8753-054135eab29c","ios":"levelo://app?vid=388d3cc1-2c7c-47e8-8753-054135eab29c"},"vehicle_type_id":"4","last_reported":1747580910,"current_range_meters":9200,"station_id":"ce4bhbh2rcd13ifvqepg","pricing_plan_id":"cebpf4jnsgd1na2vs0mg"},{"bike_id":"14603e41-b2dd-4757-a53c-2e366aa4f983","system_id":"levelo_inurba_marseille","lat":43.27,"lon":5.42837,"is_reserved":false,"is_disabled":false,"rental_uris":{"android":"levelo://app?vid=14603e41-b2dd-4757-a53c-2e366aa4f983","ios":"levelo://app?vid=14603e41-b2dd-4757-a53c-2e366aa4f983"},"vehicle_type_id":"4","last_reported":1747580910,"current_range_meters":9200,"station_id":"","pricing_plan_id":"cebpf4jnsgd1na2vs0mg"},{"bike_id":"68a035d7-4f0c-467c-b4a3-aa6ef17901b5","system_id":"levelo_inurba_marseille","lat":43.28404,"lon":5.35001,"is_reserved":false,"is_disabled":false,"rental_uris":{"android":"levelo://app?vid=68a035d7-4f0c-467c-b4a3-aa6ef17901b5","ios":"levelo://app?vid=68a035d7-4f0c-467c-b4a3-aa6ef17901b5"},"vehicle_type_id":"4","last_reported":1747580910,"current_range_meters":9600,"station_id":"ce4bhbh2rcd13ifvqepg","pricing_plan_id":"cebpf4jnsgd1na2vs0mg"},{"bike_id":"7d080336-5a2d-419d-8d50-e49d93450255","system_id":"levelo_inurba_marseille","lat":43.29178,"lon":5.37173,"is_reserved":false,"is_disabled":true,"rental_uris":{"android":"levelo://app?vid=7d080336-5a2d-419d-8d50-e49d93450255","ios":"levelo://app?vid=7d080336-5a2d-419d-8d50-e49d93450255"},"vehicle_type_id":"4","last_reported":1747580910,"current_range_meters":9600,"station_id":"ce4bha92rcd13ifvqeh0","pricing_plan_id":"cebpf4jnsgd1na2vs0mg"},{"bike_id":"88c266e6-7038-494f-b358-90ca603fb435","system_id":"levelo_inurba_marseille","lat":43.295739,"lon":5.375016,"is_reserved":false,"is_disabled":true,"rental_uris":{"android":"levelo://app?vid=88c266e6-7038-494f-b358-90ca603fb435","ios":"levelo://app?vid=88c266e6-7038-494f-b358-90ca603fb435"},"vehicle_type_id":"4","last_reported":1747580910,"current_range_meters":9600,"station_id":"ce4bgh92rcd13ifvqb50","pricing_plan_id":"cebpf4jnsgd1na2vs0mg"},{"bike_id":"6bc77b59-1181-4de3-9ef3-20ddc90f578e","system_id":"levelo_inurba_marseille","lat":43.24196,"lon":5.39744,"is_reserved":false,"is_disabled":false,"rental_uris":{"android":"levelo://app?vid=6bc77b59-1181-4de3-9ef3-20ddc90f578e","ios":"levelo://app?vid=6bc77b59-1181-4de3-9ef3-20ddc90f578e"},"vehicle_type_id":"4","last_reported":1747580910,"current_range_meters":9600,"station_id":"ce4bhn12rcd13ifvqgpg","pricing_plan_id":"cebpf4jnsgd1na2vs0mg"},{"bike_id":"ffc3ddf2-0082-4578-9e25-c91f5b4279bc","system_id":"levelo_inurba_marseille","lat":43.283184,"lon":5.411197,"is_reserved":false,"is_disabled":false,"rental_uris":{"android":"levelo://app?vid=ffc3ddf2-0082-4578-9e25-c91f5b4279bc","ios":"levelo://app?vid=ffc3ddf2-0082-4578-9e25-c91f5b4279bc"},"vehicle_type_id":"4","last_reported":1747580910,"current_range_meters":9600,"station_id":"","pricing_plan_id":"cebpf4jnsgd1na2vs0mg"},{"bike_id":"7637f8e5-9413-45c0-9d54-b17f537b905c","system_id":"levelo_inurba_marseille","lat":43.24397,"lon":5.37048,"is_reserved":false,"is_disabled":false,"rental_uris":{"android":"levelo://app?vid=7637f8e5-9413-45c0-9d54-b17f537b905c","ios":"levelo://app?vid=7637f8e5-9413-45c0-9d54-b17f537b905c"},"vehicle_type_id":"4","last_reported":1747580910,"current_range_meters":9600,"station_id":"ce4bhhh2rcd13ifvqfk0","pricing_plan_id":"cebpf4jnsgd1na2vs0mg"},{"bike_id":"d06b8510-75a1-4ec9-ad6d-5a326870b568","system_id":"levelo_inurba_marseille","lat":43.24166,"lon":5.3642,"is_reserved":false,"is_disabled":false,"rental_uris":{"android":"levelo://app?vid=d06b8510-75a1-4ec9-ad6d-5a326870b568","ios":"levelo://app?vid=d06b8510-75a1-4ec9-ad6d-5a326870b568"},"vehicle_type_id":"4","last_reported":1747580910,"current_range_meters":9600,"station_id":"cpo36qri1sfpv3e86is0","pricing_plan_id":"cebpf4jnsgd1na2vs0mg"},{"bike_id":"addd64aa-9289-4468-8ac8-91905e890f3e","system_id":"levelo_inurba_marseille","lat":43.265,"lon":5.39554,"is_reserved":false,"is_disabled":false,"rental_uris":{"android":"levelo://app?vid=addd64aa-9289-4468-8ac8-91905e890f3e","ios":"levelo://app?vid=addd64aa-9289-4468-8ac8-91905e890f3e"},"vehicle_type_id":"4","last_reported":1747580910,"current_range_meters":10000,"station_id":"ce4bhi12rcd13ifvqfq0","pricing_plan_id":"cebpf4jnsgd1na2vs0mg"},{"bike_id":"8d301145-1b3f-414a-a62f-929588279e23","system_id":"levelo_inurba_marseille","lat":43.28452,"lon":5.35043,"is_reserved":false,"is_disabled":false,"rental_uris":{"android":"levelo://app?vid=8d301145-1b3f-414a-a62f-929588279e23","ios":"levelo://app?vid=8d301145-1b3f-414a-a62f-929588279e23"},"vehicle_type_id":"4","last_reported":1747580910,"current_range_meters":10000,"station_id":"","pricing_plan_id":"cebpf4jnsgd1na2vs0mg"},{"bike_id":"4da6c2c5-827f-4014-97ea-fc8e9ed0681c","system_id":"levelo_inurba_marseille","lat":43.25722,"lon":5.41116,"is_reserved":false,"is_disabled":false,"rental_uris":{"android":"levelo://app?vid=4da6c2c5-827f-4014-97ea-fc8e9ed0681c","ios":"levelo://app?vid=4da6c2c5-827f-4014-97ea-fc8e9ed0681c"},"vehicle_type_id":"4","last_reported":1747580910,"current_range_meters":9600,"station_id":"ce4bhkp2rcd13ifvqgd0","pricing_plan_id":"cebpf4jnsgd1na2vs0mg"},{"bike_id":"b7a60c97-eb49-426d-8503-c8dd84d61185","system_id":"levelo_inurba_marseille","lat":43.28414,"lon":5.34991,"is_reserved":false,"is_disabled":false,"rental_uris":{"android":"levelo://app?vid=b7a60c97-eb49-426d-8503-c8dd84d61185","ios":"levelo://app?vid=b7a60c97-eb49-426d-8503-c8dd84d61185"},"vehicle_type_id":"4","last_reported":1747580910,"current_range_meters":10000,"station_id":"ce4bhbh2rcd13ifvqepg","pricing_plan_id":"cebpf4jnsgd1na2vs0mg"},{"bike_id":"2b6d875a-3cf4-435f-bf35-777b1aa25565","system_id":"levelo_inurba_marseille","lat":43.29986,"lon":5.3849,"is_reserved":false,"is_disabled":true,"rental_uris":{"android":"levelo://app?vid=2b6d875a-3cf4-435f-bf35-777b1aa25565","ios":"levelo://app?vid=2b6d875a-3cf4-435f-bf35-777b1aa25565"},"vehicle_type_id":"4","last_reported":1747580910,"current_range_meters":10000,"station_id":"ce4bgj92rcd13ifvqbd0","pricing_plan_id":"cebpf4jnsgd1na2vs0mg"},{"bike_id":"ec260807-29d3-437c-b21b-e3525a6e2eeb","system_id":"levelo_inurba_marseille","lat":43.28416,"lon":5.34995,"is_reserved":false,"is_disabled":false,"rental_uris":{"android":"levelo://app?vid=ec260807-29d3-437c-b21b-e3525a6e2eeb","ios":"levelo://app?vid=ec260807-29d3-437c-b21b-e3525a6e2eeb"},"vehicle_type_id":"4","last_reported":1747580910,"current_range_meters":10000,"station_id":"ce4bhbh2rcd13ifvqepg","pricing_plan_id":"cebpf4jnsgd1na2vs0mg"},{"bike_id":"1b2f0e19-c9dc-4000-8367-67c619535c14","system_id":"levelo_inurba_marseille","lat":43.299431,"lon":5.365272,"is_reserved":false,"is_disabled":true,"rental_uris":{"android":"levelo://app?vid=1b2f0e19-c9dc-4000-8367-67c619535c14","ios":"levelo://app?vid=1b2f0e19-c9dc-4000-8367-67c619535c14"},"vehicle_type_id":"4","last_reported":1747580910,"current_range_meters":10000,"station_id":"ce4bgm92rcd13ifvqbr0","pricing_plan_id":"cebpf4jnsgd1na2vs0mg"},{"bike_id":"ba9bf3b9-e20e-4507-8286-827f71f56677","system_id":"levelo_inurba_marseille","lat":43.28278,"lon":5.35071,"is_reserved":false,"is_disabled":true,"rental_uris":{"android":"levelo://app?vid=ba9bf3b9-e20e-4507-8286-827f71f56677","ios":"levelo://app?vid=ba9bf3b9-e20e-4507-8286-827f71f56677"},"vehicle_type_id":"4","last_reported":1747580910,"current_range_meters":10000,"station_id":"ce4bhbp2rcd13ifvqerg","pricing_plan_id":"cebpf4jnsgd1na2vs0mg"},{"bike_id":"6e1bd625-3ec1-43df-9657-36d71ae09f8d","system_id":"levelo_inurba_marseille","lat":43.33741,"lon":5.3747,"is_reserved":false,"is_disabled":false,"rental_uris":{"android":"levelo://app?vid=6e1bd625-3ec1-43df-9657-36d71ae09f8d","ios":"levelo://app?vid=6e1bd625-3ec1-43df-9657-36d71ae09f8d"},"vehicle_type_id":"4","last_reported":1747580910,"current_range_meters":10000,"station_id":"","pricing_plan_id":"cebpf4jnsgd1na2vs0mg"},{"bike_id":"2fec9bab-bd43-4f16-835f-76d39d28e914","system_id":"levelo_inurba_marseille","lat":43.24171,"lon":5.36409,"is_reserved":false,"is_disabled":false,"rental_uris":{"android":"levelo://app?vid=2fec9bab-bd43-4f16-835f-76d39d28e914","ios":"levelo://app?vid=2fec9bab-bd43-4f16-835f-76d39d28e914"},"vehicle_type_id":"4","last_reported":1747580910,"current_range_meters":10000,"station_id":"cpo36qri1sfpv3e86is0","pricing_plan_id":"cebpf4jnsgd1na2vs0mg"},{"bike_id":"c608898e-58b6-42f7-903a-6008119c7a64","system_id":"levelo_inurba_marseille","lat":43.24093,"lon":5.37777,"is_reserved":false,"is_disabled":false,"rental_uris":{"android":"levelo://app?vid=c608898e-58b6-42f7-903a-6008119c7a64","ios":"levelo://app?vid=c608898e-58b6-42f7-903a-6008119c7a64"},"vehicle_type_id":"4","last_reported":1747580910,"current_range_meters":10000,"station_id":"ce4bhnp2rcd13ifvqgvg","pricing_plan_id":"cebpf4jnsgd1na2vs0mg"},{"bike_id":"a8416388-f7dc-469d-af9e-e34960387018","system_id":"levelo_inurba_marseille","lat":43.284252,"lon":5.349842,"is_reserved":false,"is_disabled":false,"rental_uris":{"android":"levelo://app?vid=a8416388-f7dc-469d-af9e-e34960387018","ios":"levelo://app?vid=a8416388-f7dc-469d-af9e-e34960387018"},"vehicle_type_id":"4","last_reported":1747580910,"current_range_meters":10000,"station_id":"ce4bhbh2rcd13ifvqepg","pricing_plan_id":"cebpf4jnsgd1na2vs0mg"},{"bike_id":"1580b165-ecf9-4c1a-8809-c7db1bc15693","system_id":"levelo_inurba_marseille","lat":43.28407,"lon":5.34991,"is_reserved":false,"is_disabled":false,"rental_uris":{"android":"levelo://app?vid=1580b165-ecf9-4c1a-8809-c7db1bc15693","ios":"levelo://app?vid=1580b165-ecf9-4c1a-8809-c7db1bc15693"},"vehicle_type_id":"4","last_reported":1747580910,"current_range_meters":10000,"station_id":"ce4bhbh2rcd13ifvqepg","pricing_plan_id":"cebpf4jnsgd1na2vs0mg"},{"bike_id":"44cde2a2-ca4a-4d32-a7af-7e56aa09810a","system_id":"levelo_inurba_marseille","lat":43.2737,"lon":5.36253,"is_reserved":false,"is_disabled":false,"rental_uris":{"android":"levelo://app?vid=44cde2a2-ca4a-4d32-a7af-7e56aa09810a","ios":"levelo://app?vid=44cde2a2-ca4a-4d32-a7af-7e56aa09810a"},"vehicle_type_id":"4","last_reported":1747580910,"current_range_meters":10800,"station_id":"ce4bhbh2rcd13ifvqeo0","pricing_plan_id":"cebpf4jnsgd1na2vs0mg"},{"bike_id":"bc6751dc-68b6-4b05-97dd-fd6e591e5bf7","system_id":"levelo_inurba_marseille","lat":43.2293,"lon":5.35374,"is_reserved":false,"is_disabled":false,"rental_uris":{"android":"levelo://app?vid=bc6751dc-68b6-4b05-97dd-fd6e591e5bf7","ios":"levelo://app?vid=bc6751dc-68b6-4b05-97dd-fd6e591e5bf7"},"vehicle_type_id":"4","last_reported":1747580910,"current_range_meters":10800,"station_id":"cpo3532slgdg3j2ikp40","pricing_plan_id":"cebpf4jnsgd1na2vs0mg"},{"bike_id":"f2b57822-1924-4338-9a56-1ff90fa8bf1e","system_id":"levelo_inurba_marseille","lat":43.29537,"lon":5.38553,"is_reserved":false,"is_disabled":false,"rental_uris":{"android":"levelo://app?vid=f2b57822-1924-4338-9a56-1ff90fa8bf1e","ios":"levelo://app?vid=f2b57822-1924-4338-9a56-1ff90fa8bf1e"},"vehicle_type_id":"4","last_reported":1747580910,"current_range_meters":10800,"station_id":"ce4bgih2rcd13ifvqba0","pricing_plan_id":"cebpf4jnsgd1na2vs0mg"},{"bike_id":"4b8056ed-9543-4ff0-869e-2f36a18ad1e7","system_id":"levelo_inurba_marseille","lat":43.32669,"lon":5.40989,"is_reserved":false,"is_disabled":false,"rental_uris":{"android":"levelo://app?vid=4b8056ed-9543-4ff0-869e-2f36a18ad1e7","ios":"levelo://app?vid=4b8056ed-9543-4ff0-869e-2f36a18ad1e7"},"vehicle_type_id":"4","last_reported":1747580910,"current_range_meters":10800,"station_id":"ce4bhpp2rcd13ifvqhgg","pricing_plan_id":"cebpf4jnsgd1na2vs0mg"},{"bike_id":"9b55a1e0-14da-4879-90dc-b321de5c8345","system_id":"levelo_inurba_marseille","lat":43.29777,"lon":5.38111,"is_reserved":false,"is_disabled":true,"rental_uris":{"android":"levelo://app?vid=9b55a1e0-14da-4879-90dc-b321de5c8345","ios":"levelo://app?vid=9b55a1e0-14da-4879-90dc-b321de5c8345"},"vehicle_type_id":"4","last_reported":1747580910,"current_range_meters":10800,"station_id":"ce4bgip2rcd13ifvqbb0","pricing_plan_id":"cebpf4jnsgd1na2vs0mg"},{"bike_id":"0dcd04e2-1d6d-4c3e-af17-aac8759ac618","system_id":"levelo_inurba_marseille","lat":43.299017,"lon":5.436753,"is_reserved":false,"is_disabled":false,"rental_uris":{"android":"levelo://app?vid=0dcd04e2-1d6d-4c3e-af17-aac8759ac618","ios":"levelo://app?vid=0dcd04e2-1d6d-4c3e-af17-aac8759ac618"},"vehicle_type_id":"4","last_reported":1747580910,"current_range_meters":10800,"station_id":"ce4bhpp2rcd13ifvqhfg","pricing_plan_id":"cebpf4jnsgd1na2vs0mg"},{"bike_id":"4745dd8b-a0b2-49db-b417-8a28eecc51d4","system_id":"levelo_inurba_marseille","lat":43.243306,"lon":5.379976,"is_reserved":false,"is_disabled":false,"rental_uris":{"android":"levelo://app?vid=4745dd8b-a0b2-49db-b417-8a28eecc51d4","ios":"levelo://app?vid=4745dd8b-a0b2-49db-b417-8a28eecc51d4"},"vehicle_type_id":"4","last_reported":1747580910,"current_range_meters":10800,"station_id":"","pricing_plan_id":"cebpf4jnsgd1na2vs0mg"},{"bike_id":"84681128-9b85-4b9f-8e87-dacf51b69edb","system_id":"levelo_inurba_marseille","lat":43.212,"lon":5.3508,"is_reserved":false,"is_disabled":false,"rental_uris":{"android":"levelo://app?vid=84681128-9b85-4b9f-8e87-dacf51b69edb","ios":"levelo://app?vid=84681128-9b85-4b9f-8e87-dacf51b69edb"},"vehicle_type_id":"4","last_reported":1747580910,"current_range_meters":11200,"station_id":"st_cvj6sg6p6f1abm77japg","pricing_plan_id":"cebpf4jnsgd1na2vs0mg"},{"bike_id":"06fb6274-c887-4ce8-9273-400ecb3aef67","system_id":"levelo_inurba_marseille","lat":43.28428,"lon":5.46036,"is_reserved":false,"is_disabled":false,"rental_uris":{"android":"levelo://app?vid=06fb6274-c887-4ce8-9273-400ecb3aef67","ios":"levelo://app?vid=06fb6274-c887-4ce8-9273-400ecb3aef67"},"vehicle_type_id":"4","last_reported":1747580910,"current_range_meters":11200,"station_id":"","pricing_plan_id":"cebpf4jnsgd1na2vs0mg"},{"bike_id":"775d8522-0bcc-4c72-95ff-1d119620c302","system_id":"levelo_inurba_marseille","lat":43.30436,"lon":5.39746,"is_reserved":false,"is_disabled":false,"rental_uris":{"android":"levelo://app?vid=775d8522-0bcc-4c72-95ff-1d119620c302","ios":"levelo://app?vid=775d8522-0bcc-4c72-95ff-1d119620c302"},"vehicle_type_id":"4","last_reported":1747580910,"current_range_meters":10800,"station_id":"ce4bh092rcd13ifvqd20","pricing_plan_id":"cebpf4jnsgd1na2vs0mg"},{"bike_id":"a566bc57-90e9-46d4-87db-8ae56f810767","system_id":"levelo_inurba_marseille","lat":43.24807,"lon":5.37461,"is_reserved":false,"is_disabled":false,"rental_uris":{"android":"levelo://app?vid=a566bc57-90e9-46d4-87db-8ae56f810767","ios":"levelo://app?vid=a566bc57-90e9-46d4-87db-8ae56f810767"},"vehicle_type_id":"4","last_reported":1747580910,"current_range_meters":11200,"station_id":"ce4bhgh2rcd13ifvqfb0","pricing_plan_id":"cebpf4jnsgd1na2vs0mg"},{"bike_id":"1d2624c4-ca9f-412f-9cd3-068152d3605e","system_id":"levelo_inurba_marseille","lat":43.22933,"lon":5.35409,"is_reserved":false,"is_disabled":false,"rental_uris":{"android":"levelo://app?vid=1d2624c4-ca9f-412f-9cd3-068152d3605e","ios":"levelo://app?vid=1d2624c4-ca9f-412f-9cd3-068152d3605e"},"vehicle_type_id":"4","last_reported":1747580910,"current_range_meters":11600,"station_id":"cpo3532slgdg3j2ikp40","pricing_plan_id":"cebpf4jnsgd1na2vs0mg"},{"bike_id":"1e573637-2584-426f-8195-e8ba2fdab251","system_id":"levelo_inurba_marseille","lat":43.24166,"lon":5.36406,"is_reserved":false,"is_disabled":false,"rental_uris":{"android":"levelo://app?vid=1e573637-2584-426f-8195-e8ba2fdab251","ios":"levelo://app?vid=1e573637-2584-426f-8195-e8ba2fdab251"},"vehicle_type_id":"4","last_reported":1747580910,"current_range_meters":11600,"station_id":"cpo36qri1sfpv3e86is0","pricing_plan_id":"cebpf4jnsgd1na2vs0mg"},{"bike_id":"3ff22c68-179d-4c88-9b68-fdcca31580ea","system_id":"levelo_inurba_marseille","lat":43.27368,"lon":5.36241,"is_reserved":false,"is_disabled":false,"rental_uris":{"android":"levelo://app?vid=3ff22c68-179d-4c88-9b68-fdcca31580ea","ios":"levelo://app?vid=3ff22c68-179d-4c88-9b68-fdcca31580ea"},"vehicle_type_id":"4","last_reported":1747580910,"current_range_meters":11600,"station_id":"ce4bhbh2rcd13ifvqeo0","pricing_plan_id":"cebpf4jnsgd1na2vs0mg"},{"bike_id":"f934bc6a-0557-4808-838a-248fc9c06946","system_id":"levelo_inurba_marseille","lat":43.27912,"lon":5.38015,"is_reserved":false,"is_disabled":false,"rental_uris":{"android":"levelo://app?vid=f934bc6a-0557-4808-838a-248fc9c06946","ios":"levelo://app?vid=f934bc6a-0557-4808-838a-248fc9c06946"},"vehicle_type_id":"4","last_reported":1747580910,"current_range_meters":11600,"station_id":"ce4bhf92rcd13ifvqf50","pricing_plan_id":"cebpf4jnsgd1na2vs0mg"},{"bike_id":"e117ff23-3212-42f6-89fe-d78f2f313251","system_id":"levelo_inurba_marseille","lat":43.23207,"lon":5.35552,"is_reserved":false,"is_disabled":false,"rental_uris":{"android":"levelo://app?vid=e117ff23-3212-42f6-89fe-d78f2f313251","ios":"levelo://app?vid=e117ff23-3212-42f6-89fe-d78f2f313251"},"vehicle_type_id":"4","last_reported":1747580910,"current_range_meters":11600,"station_id":"ce4bhu92rcd13ifvqi70","pricing_plan_id":"cebpf4jnsgd1na2vs0mg"},{"bike_id":"ae09ee8a-6013-4413-8f85-08be7428afe3","system_id":"levelo_inurba_marseille","lat":43.28423,"lon":5.34992,"is_reserved":false,"is_disabled":false,"rental_uris":{"android":"levelo://app?vid=ae09ee8a-6013-4413-8f85-08be7428afe3","ios":"levelo://app?vid=ae09ee8a-6013-4413-8f85-08be7428afe3"},"vehicle_type_id":"4","last_reported":1747580910,"current_range_meters":11600,"station_id":"ce4bhbh2rcd13ifvqepg","pricing_plan_id":"cebpf4jnsgd1na2vs0mg"},{"bike_id":"6ee7001e-07ad-49d2-9902-4e2095457f59","system_id":"levelo_inurba_marseille","lat":43.27078,"lon":5.42282,"is_reserved":false,"is_disabled":true,"rental_uris":{"android":"levelo://app?vid=6ee7001e-07ad-49d2-9902-4e2095457f59","ios":"levelo://app?vid=6ee7001e-07ad-49d2-9902-4e2095457f59"},"vehicle_type_id":"4","last_reported":1747580910,"current_range_meters":12000,"station_id":"ce4bhk92rcd13ifvqgb0","pricing_plan_id":"cebpf4jnsgd1na2vs0mg"},{"bike_id":"55982159-14b0-423d-a8c0-c157cf2770cd","system_id":"levelo_inurba_marseille","lat":43.27771,"lon":5.36237,"is_reserved":false,"is_disabled":false,"rental_uris":{"android":"levelo://app?vid=55982159-14b0-423d-a8c0-c157cf2770cd","ios":"levelo://app?vid=55982159-14b0-423d-a8c0-c157cf2770cd"},"vehicle_type_id":"4","last_reported":1747580910,"current_range_meters":12000,"station_id":"","pricing_plan_id":"cebpf4jnsgd1na2vs0mg"},{"bike_id":"01b0aa0c-c9be-4ffc-81d8-7b5a1cf89cdd","system_id":"levelo_inurba_marseille","lat":43.29799,"lon":5.37108,"is_reserved":false,"is_disabled":false,"rental_uris":{"android":"levelo://app?vid=01b0aa0c-c9be-4ffc-81d8-7b5a1cf89cdd","ios":"levelo://app?vid=01b0aa0c-c9be-4ffc-81d8-7b5a1cf89cdd"},"vehicle_type_id":"4","last_reported":1747580910,"current_range_meters":12000,"station_id":"ce4bgop2rcd13ifvqc1g","pricing_plan_id":"cebpf4jnsgd1na2vs0mg"},{"bike_id":"6aa74607-0d5c-4501-98de-b7d0e3ff861e","system_id":"levelo_inurba_marseille","lat":43.28362,"lon":5.38631,"is_reserved":false,"is_disabled":false,"rental_uris":{"android":"levelo://app?vid=6aa74607-0d5c-4501-98de-b7d0e3ff861e","ios":"levelo://app?vid=6aa74607-0d5c-4501-98de-b7d0e3ff861e"},"vehicle_type_id":"4","last_reported":1747580910,"current_range_meters":12000,"station_id":"ce4bh492rcd13ifvqdvg","pricing_plan_id":"cebpf4jnsgd1na2vs0mg"},{"bike_id":"217dbed3-43af-4cc5-bf57-db93629689e7","system_id":"levelo_inurba_marseille","lat":43.24155,"lon":5.36432,"is_reserved":false,"is_disabled":false,"rental_uris":{"android":"levelo://app?vid=217dbed3-43af-4cc5-bf57-db93629689e7","ios":"levelo://app?vid=217dbed3-43af-4cc5-bf57-db93629689e7"},"vehicle_type_id":"4","last_reported":1747580910,"current_range_meters":12000,"station_id":"cpo36qri1sfpv3e86is0","pricing_plan_id":"cebpf4jnsgd1na2vs0mg"},{"bike_id":"3c3e635a-336c-4aa5-86ed-8ab62617b09f","system_id":"levelo_inurba_marseille","lat":43.31713,"lon":5.37725,"is_reserved":false,"is_disabled":false,"rental_uris":{"android":"levelo://app?vid=3c3e635a-336c-4aa5-86ed-8ab62617b09f","ios":"levelo://app?vid=3c3e635a-336c-4aa5-86ed-8ab62617b09f"},"vehicle_type_id":"4","last_reported":1747580910,"current_range_meters":12400,"station_id":"ce4bgth2rcd13ifvqch0","pricing_plan_id":"cebpf4jnsgd1na2vs0mg"},{"bike_id":"7698f913-46d0-4283-89ce-e3d803d4cdb3","system_id":"levelo_inurba_marseille","lat":43.28269,"lon":5.35065,"is_reserved":false,"is_disabled":false,"rental_uris":{"android":"levelo://app?vid=7698f913-46d0-4283-89ce-e3d803d4cdb3","ios":"levelo://app?vid=7698f913-46d0-4283-89ce-e3d803d4cdb3"},"vehicle_type_id":"4","last_reported":1747580910,"current_range_meters":12400,"station_id":"ce4bhbp2rcd13ifvqerg","pricing_plan_id":"cebpf4jnsgd1na2vs0mg"},{"bike_id":"b26a0dd7-cbdc-4ab7-8def-31c4b88b224a","system_id":"levelo_inurba_marseille","lat":43.31215,"lon":5.39271,"is_reserved":false,"is_disabled":false,"rental_uris":{"android":"levelo://app?vid=b26a0dd7-cbdc-4ab7-8def-31c4b88b224a","ios":"levelo://app?vid=b26a0dd7-cbdc-4ab7-8def-31c4b88b224a"},"vehicle_type_id":"4","last_reported":1747580910,"current_range_meters":12400,"station_id":"","pricing_plan_id":"cebpf4jnsgd1na2vs0mg"},{"bike_id":"0582c4b1-2490-4623-9d85-7d5ae0173028","system_id":"levelo_inurba_marseille","lat":43.27071,"lon":5.4228,"is_reserved":false,"is_disabled":false,"rental_uris":{"android":"levelo://app?vid=0582c4b1-2490-4623-9d85-7d5ae0173028","ios":"levelo://app?vid=0582c4b1-2490-4623-9d85-7d5ae0173028"},"vehicle_type_id":"4","last_reported":1747580910,"current_range_meters":12400,"station_id":"ce4bhk92rcd13ifvqgb0","pricing_plan_id":"cebpf4jnsgd1na2vs0mg"},{"bike_id":"51a33848-f0f0-40ec-b6c6-8948c992d932","system_id":"levelo_inurba_marseille","lat":43.250983,"lon":5.395176,"is_reserved":false,"is_disabled":false,"rental_uris":{"android":"levelo://app?vid=51a33848-f0f0-40ec-b6c6-8948c992d932","ios":"levelo://app?vid=51a33848-f0f0-40ec-b6c6-8948c992d932"},"vehicle_type_id":"4","last_reported":1747580910,"current_range_meters":12400,"station_id":"ce4bhm12rcd13ifvqgkg","pricing_plan_id":"cebpf4jnsgd1na2vs0mg"},{"bike_id":"e8c092b6-ea1e-49b4-86f2-ae6140f06f6f","system_id":"levelo_inurba_marseille","lat":43.289192,"lon":5.383954,"is_reserved":false,"is_disabled":true,"rental_uris":{"android":"levelo://app?vid=e8c092b6-ea1e-49b4-86f2-ae6140f06f6f","ios":"levelo://app?vid=e8c092b6-ea1e-49b4-86f2-ae6140f06f6f"},"vehicle_type_id":"4","last_reported":1747580910,"current_range_meters":12400,"station_id":"","pricing_plan_id":"cebpf4jnsgd1na2vs0mg"},{"bike_id":"f99bb5a1-bc27-48e4-9479-bc639abc4936","system_id":"levelo_inurba_marseille","lat":43.25503,"lon":5.37661,"is_reserved":false,"is_disabled":false,"rental_uris":{"android":"levelo://app?vid=f99bb5a1-bc27-48e4-9479-bc639abc4936","ios":"levelo://app?vid=f99bb5a1-bc27-48e4-9479-bc639abc4936"},"vehicle_type_id":"4","last_reported":1747580910,"current_range_meters":12400,"station_id":"ce4bhh12rcd13ifvqff0","pricing_plan_id":"cebpf4jnsgd1na2vs0mg"},{"bike_id":"5105b40d-837c-4ec7-8ab9-b4ec83adf99d","system_id":"levelo_inurba_marseille","lat":43.27905,"lon":5.38022,"is_reserved":false,"is_disabled":false,"rental_uris":{"android":"levelo://app?vid=5105b40d-837c-4ec7-8ab9-b4ec83adf99d","ios":"levelo://app?vid=5105b40d-837c-4ec7-8ab9-b4ec83adf99d"},"vehicle_type_id":"4","last_reported":1747580910,"current_range_meters":12400,"station_id":"ce4bhf92rcd13ifvqf50","pricing_plan_id":"cebpf4jnsgd1na2vs0mg"},{"bike_id":"3501d8c3-4199-44b7-94dc-1db196054935","system_id":"levelo_inurba_marseille","lat":43.29716,"lon":5.37695,"is_reserved":false,"is_disabled":false,"rental_uris":{"android":"levelo://app?vid=3501d8c3-4199-44b7-94dc-1db196054935","ios":"levelo://app?vid=3501d8c3-4199-44b7-94dc-1db196054935"},"vehicle_type_id":"4","last_reported":1747580910,"current_range_meters":12400,"station_id":"ce4bgkh2rcd13ifvqbl0","pricing_plan_id":"cebpf4jnsgd1na2vs0mg"},{"bike_id":"bbd18113-2297-4d4b-940a-d9fb02715649","system_id":"levelo_inurba_marseille","lat":43.2756,"lon":5.38436,"is_reserved":false,"is_disabled":false,"rental_uris":{"android":"levelo://app?vid=bbd18113-2297-4d4b-940a-d9fb02715649","ios":"levelo://app?vid=bbd18113-2297-4d4b-940a-d9fb02715649"},"vehicle_type_id":"4","last_reported":1747580910,"current_range_meters":12400,"station_id":"ce4bhh92rcd13ifvqfi0","pricing_plan_id":"cebpf4jnsgd1na2vs0mg"},{"bike_id":"6b3c83a7-57cd-4e1a-ab7a-04a797280114","system_id":"levelo_inurba_marseille","lat":43.2417,"lon":5.36395,"is_reserved":false,"is_disabled":false,"rental_uris":{"android":"levelo://app?vid=6b3c83a7-57cd-4e1a-ab7a-04a797280114","ios":"levelo://app?vid=6b3c83a7-57cd-4e1a-ab7a-04a797280114"},"vehicle_type_id":"4","last_reported":1747580910,"current_range_meters":12800,"station_id":"cpo36qri1sfpv3e86is0","pricing_plan_id":"cebpf4jnsgd1na2vs0mg"},{"bike_id":"67f72f62-eb9d-4994-bbcf-c10b28dd838c","system_id":"levelo_inurba_marseille","lat":43.26602,"lon":5.39329,"is_reserved":false,"is_disabled":false,"rental_uris":{"android":"levelo://app?vid=67f72f62-eb9d-4994-bbcf-c10b28dd838c","ios":"levelo://app?vid=67f72f62-eb9d-4994-bbcf-c10b28dd838c"},"vehicle_type_id":"4","last_reported":1747580910,"current_range_meters":12800,"station_id":"","pricing_plan_id":"cebpf4jnsgd1na2vs0mg"},{"bike_id":"bf51cd5f-4321-4268-a679-3afd39d51b9c","system_id":"levelo_inurba_marseille","lat":43.24653,"lon":5.38897,"is_reserved":false,"is_disabled":false,"rental_uris":{"android":"levelo://app?vid=bf51cd5f-4321-4268-a679-3afd39d51b9c","ios":"levelo://app?vid=bf51cd5f-4321-4268-a679-3afd39d51b9c"},"vehicle_type_id":"4","last_reported":1747580910,"current_range_meters":12800,"station_id":"ce4bhg12rcd13ifvqf60","pricing_plan_id":"cebpf4jnsgd1na2vs0mg"},{"bike_id":"3ecc3f18-dd22-40a9-9eaf-a5bd43df2c26","system_id":"levelo_inurba_marseille","lat":43.29786,"lon":5.38087,"is_reserved":false,"is_disabled":false,"rental_uris":{"android":"levelo://app?vid=3ecc3f18-dd22-40a9-9eaf-a5bd43df2c26","ios":"levelo://app?vid=3ecc3f18-dd22-40a9-9eaf-a5bd43df2c26"},"vehicle_type_id":"4","last_reported":1747580910,"current_range_meters":12800,"station_id":"ce4bgip2rcd13ifvqbb0","pricing_plan_id":"cebpf4jnsgd1na2vs0mg"},{"bike_id":"0c9fcf35-1b15-47eb-b8aa-9788bf52e7ed","system_id":"levelo_inurba_marseille","lat":43.28618,"lon":5.35111,"is_reserved":false,"is_disabled":false,"rental_uris":{"android":"levelo://app?vid=0c9fcf35-1b15-47eb-b8aa-9788bf52e7ed","ios":"levelo://app?vid=0c9fcf35-1b15-47eb-b8aa-9788bf52e7ed"},"vehicle_type_id":"4","last_reported":1747580910,"current_range_meters":12800,"station_id":"ce4bhch2rcd13ifvqeug","pricing_plan_id":"cebpf4jnsgd1na2vs0mg"},{"bike_id":"278ccf48-bc40-40a2-9e40-44c6a4e1f787","system_id":"levelo_inurba_marseille","lat":43.308083,"lon":5.369827,"is_reserved":false,"is_disabled":false,"rental_uris":{"android":"levelo://app?vid=278ccf48-bc40-40a2-9e40-44c6a4e1f787","ios":"levelo://app?vid=278ccf48-bc40-40a2-9e40-44c6a4e1f787"},"vehicle_type_id":"4","last_reported":1747580910,"current_range_meters":12800,"station_id":"","pricing_plan_id":"cebpf4jnsgd1na2vs0mg"},{"bike_id":"46ed484d-99a7-48ea-898e-207b8952d94d","system_id":"levelo_inurba_marseille","lat":43.28724,"lon":5.36095,"is_reserved":false,"is_disabled":false,"rental_uris":{"android":"levelo://app?vid=46ed484d-99a7-48ea-898e-207b8952d94d","ios":"levelo://app?vid=46ed484d-99a7-48ea-898e-207b8952d94d"},"vehicle_type_id":"4","last_reported":1747580910,"current_range_meters":13600,"station_id":"cki0cbj6b192h4jlfktg","pricing_plan_id":"cebpf4jnsgd1na2vs0mg"},{"bike_id":"d8da70fb-a079-460a-9e23-65ed45fe0088","system_id":"levelo_inurba_marseille","lat":43.25513,"lon":5.37665,"is_reserved":false,"is_disabled":true,"rental_uris":{"android":"levelo://app?vid=d8da70fb-a079-460a-9e23-65ed45fe0088","ios":"levelo://app?vid=d8da70fb-a079-460a-9e23-65ed45fe0088"},"vehicle_type_id":"4","last_reported":1747580910,"current_range_meters":13600,"station_id":"ce4bhh12rcd13ifvqff0","pricing_plan_id":"cebpf4jnsgd1na2vs0mg"},{"bike_id":"1215982b-8895-4447-970f-897b3363f1d6","system_id":"levelo_inurba_marseille","lat":43.26567,"lon":5.3901,"is_reserved":false,"is_disabled":false,"rental_uris":{"android":"levelo://app?vid=1215982b-8895-4447-970f-897b3363f1d6","ios":"levelo://app?vid=1215982b-8895-4447-970f-897b3363f1d6"},"vehicle_type_id":"4","last_reported":1747580910,"current_range_meters":13600,"station_id":"ce4bhe12rcd13ifvqf30","pricing_plan_id":"cebpf4jnsgd1na2vs0mg"},{"bike_id":"16a4defe-1a97-44e0-8f46-0eb094805817","system_id":"levelo_inurba_marseille","lat":43.25506,"lon":5.37641,"is_reserved":false,"is_disabled":false,"rental_uris":{"android":"levelo://app?vid=16a4defe-1a97-44e0-8f46-0eb094805817","ios":"levelo://app?vid=16a4defe-1a97-44e0-8f46-0eb094805817"},"vehicle_type_id":"4","last_reported":1747580910,"current_range_meters":13600,"station_id":"ce4bhh12rcd13ifvqff0","pricing_plan_id":"cebpf4jnsgd1na2vs0mg"},{"bike_id":"51736835-8128-4840-b526-bf33d386a6e7","system_id":"levelo_inurba_marseille","lat":43.299045,"lon":5.43661,"is_reserved":false,"is_disabled":true,"rental_uris":{"android":"levelo://app?vid=51736835-8128-4840-b526-bf33d386a6e7","ios":"levelo://app?vid=51736835-8128-4840-b526-bf33d386a6e7"},"vehicle_type_id":"4","last_reported":1747580910,"current_range_meters":13600,"station_id":"ce4bhpp2rcd13ifvqhfg","pricing_plan_id":"cebpf4jnsgd1na2vs0mg"},{"bike_id":"814e2930-a412-47af-849d-26da2abc07f6","system_id":"levelo_inurba_marseille","lat":43.2785,"lon":5.40745,"is_reserved":false,"is_disabled":true,"rental_uris":{"android":"levelo://app?vid=814e2930-a412-47af-849d-26da2abc07f6","ios":"levelo://app?vid=814e2930-a412-47af-849d-26da2abc07f6"},"vehicle_type_id":"4","last_reported":1747580910,"current_range_meters":13600,"station_id":"ce4bhnh2rcd13ifvqgtg","pricing_plan_id":"cebpf4jnsgd1na2vs0mg"},{"bike_id":"12c4d802-2c6a-4c71-888e-000ffe312a3f","system_id":"levelo_inurba_marseille","lat":43.32357,"lon":5.3674,"is_reserved":false,"is_disabled":false,"rental_uris":{"android":"levelo://app?vid=12c4d802-2c6a-4c71-888e-000ffe312a3f","ios":"levelo://app?vid=12c4d802-2c6a-4c71-888e-000ffe312a3f"},"vehicle_type_id":"4","last_reported":1747580910,"current_range_meters":14000,"station_id":"ce4bhsh2rcd13ifvqi2g","pricing_plan_id":"cebpf4jnsgd1na2vs0mg"},{"bike_id":"4d00d398-9473-4d2a-94bf-d8290a32630a","system_id":"levelo_inurba_marseille","lat":43.276679,"lon":5.38868,"is_reserved":false,"is_disabled":false,"rental_uris":{"android":"levelo://app?vid=4d00d398-9473-4d2a-94bf-d8290a32630a","ios":"levelo://app?vid=4d00d398-9473-4d2a-94bf-d8290a32630a"},"vehicle_type_id":"4","last_reported":1747580910,"current_range_meters":13600,"station_id":"ce4bhi12rcd13ifvqfo0","pricing_plan_id":"cebpf4jnsgd1na2vs0mg"},{"bike_id":"168ff632-117e-4c12-8961-89fb008f2faf","system_id":"levelo_inurba_marseille","lat":43.27216,"lon":5.39183,"is_reserved":false,"is_disabled":true,"rental_uris":{"android":"levelo://app?vid=168ff632-117e-4c12-8961-89fb008f2faf","ios":"levelo://app?vid=168ff632-117e-4c12-8961-89fb008f2faf"},"vehicle_type_id":"4","last_reported":1747580910,"current_range_meters":14400,"station_id":"ce4bhhp2rcd13ifvqfm0","pricing_plan_id":"cebpf4jnsgd1na2vs0mg"},{"bike_id":"f382231e-ff6f-4281-8b87-17f66e993321","system_id":"levelo_inurba_marseille","lat":43.23193,"lon":5.35548,"is_reserved":false,"is_disabled":false,"rental_uris":{"android":"levelo://app?vid=f382231e-ff6f-4281-8b87-17f66e993321","ios":"levelo://app?vid=f382231e-ff6f-4281-8b87-17f66e993321"},"vehicle_type_id":"4","last_reported":1747580910,"current_range_meters":14400,"station_id":"ce4bhu92rcd13ifvqi70","pricing_plan_id":"cebpf4jnsgd1na2vs0mg"},{"bike_id":"18d96083-1e6e-4eaa-9615-bd6570645e73","system_id":"levelo_inurba_marseille","lat":43.28358,"lon":5.38103,"is_reserved":false,"is_disabled":false,"rental_uris":{"android":"levelo://app?vid=18d96083-1e6e-4eaa-9615-bd6570645e73","ios":"levelo://app?vid=18d96083-1e6e-4eaa-9615-bd6570645e73"},"vehicle_type_id":"4","last_reported":1747580910,"current_range_meters":14000,"station_id":"ce4bh412rcd13ifvqdr0","pricing_plan_id":"cebpf4jnsgd1na2vs0mg"},{"bike_id":"4e226aff-cee9-43f3-800d-074a07184a90","system_id":"levelo_inurba_marseille","lat":43.32285,"lon":5.3831,"is_reserved":false,"is_disabled":false,"rental_uris":{"android":"levelo://app?vid=4e226aff-cee9-43f3-800d-074a07184a90","ios":"levelo://app?vid=4e226aff-cee9-43f3-800d-074a07184a90"},"vehicle_type_id":"4","last_reported":1747580910,"current_range_meters":14400,"station_id":"ce4bhr12rcd13ifvqhqg","pricing_plan_id":"cebpf4jnsgd1na2vs0mg"},{"bike_id":"10071844-5528-4b4d-88d0-d94a3c2a9c07","system_id":"levelo_inurba_marseille","lat":43.27817,"lon":5.4072,"is_reserved":false,"is_disabled":false,"rental_uris":{"android":"levelo://app?vid=10071844-5528-4b4d-88d0-d94a3c2a9c07","ios":"levelo://app?vid=10071844-5528-4b4d-88d0-d94a3c2a9c07"},"vehicle_type_id":"4","last_reported":1747580910,"current_range_meters":14000,"station_id":"ce4bhnh2rcd13ifvqgtg","pricing_plan_id":"cebpf4jnsgd1na2vs0mg"},{"bike_id":"8168b9c6-58c4-496a-b0dc-780b8d87c03f","system_id":"levelo_inurba_marseille","lat":43.29263,"lon":5.37619,"is_reserved":false,"is_disabled":false,"rental_uris":{"android":"levelo://app?vid=8168b9c6-58c4-496a-b0dc-780b8d87c03f","ios":"levelo://app?vid=8168b9c6-58c4-496a-b0dc-780b8d87c03f"},"vehicle_type_id":"4","last_reported":1747580910,"current_range_meters":14400,"station_id":"ce4bgi12rcd13ifvqb80","pricing_plan_id":"cebpf4jnsgd1na2vs0mg"},{"bike_id":"33fcd34d-24bc-4dcf-91c5-6b01f589ab2e","system_id":"levelo_inurba_marseille","lat":43.24089,"lon":5.3774,"is_reserved":false,"is_disabled":false,"rental_uris":{"android":"levelo://app?vid=33fcd34d-24bc-4dcf-91c5-6b01f589ab2e","ios":"levelo://app?vid=33fcd34d-24bc-4dcf-91c5-6b01f589ab2e"},"vehicle_type_id":"4","last_reported":1747580910,"current_range_meters":14400,"station_id":"ce4bhnp2rcd13ifvqgvg","pricing_plan_id":"cebpf4jnsgd1na2vs0mg"},{"bike_id":"ed34fad4-c48e-4c1a-b9b1-8eb1cd77d573","system_id":"levelo_inurba_marseille","lat":43.30922,"lon":5.38651,"is_reserved":false,"is_disabled":false,"rental_uris":{"android":"levelo://app?vid=ed34fad4-c48e-4c1a-b9b1-8eb1cd77d573","ios":"levelo://app?vid=ed34fad4-c48e-4c1a-b9b1-8eb1cd77d573"},"vehicle_type_id":"4","last_reported":1747580910,"current_range_meters":14400,"station_id":"ce4bgv12rcd13ifvqcp0","pricing_plan_id":"cebpf4jnsgd1na2vs0mg"},{"bike_id":"2d43dba1-6ff7-4289-91c8-c617d5aac932","system_id":"levelo_inurba_marseille","lat":43.295718,"lon":5.374923,"is_reserved":false,"is_disabled":true,"rental_uris":{"android":"levelo://app?vid=2d43dba1-6ff7-4289-91c8-c617d5aac932","ios":"levelo://app?vid=2d43dba1-6ff7-4289-91c8-c617d5aac932"},"vehicle_type_id":"4","last_reported":1747580910,"current_range_meters":14800,"station_id":"ce4bgh92rcd13ifvqb50","pricing_plan_id":"cebpf4jnsgd1na2vs0mg"},{"bike_id":"189a713e-40df-42c7-9ec0-0d37fa7fe358","system_id":"levelo_inurba_marseille","lat":43.24996,"lon":5.3893,"is_reserved":false,"is_disabled":false,"rental_uris":{"android":"levelo://app?vid=189a713e-40df-42c7-9ec0-0d37fa7fe358","ios":"levelo://app?vid=189a713e-40df-42c7-9ec0-0d37fa7fe358"},"vehicle_type_id":"4","last_reported":1747580910,"current_range_meters":14400,"station_id":"ce4bhgp2rcd13ifvqfd0","pricing_plan_id":"cebpf4jnsgd1na2vs0mg"},{"bike_id":"c89d71af-54ef-4650-b07d-92c5fdeff357","system_id":"levelo_inurba_marseille","lat":43.26807,"lon":5.40271,"is_reserved":false,"is_disabled":false,"rental_uris":{"android":"levelo://app?vid=c89d71af-54ef-4650-b07d-92c5fdeff357","ios":"levelo://app?vid=c89d71af-54ef-4650-b07d-92c5fdeff357"},"vehicle_type_id":"4","last_reported":1747580910,"current_range_meters":14800,"station_id":"ce501612rcd8frsf0b60","pricing_plan_id":"cebpf4jnsgd1na2vs0mg"},{"bike_id":"bf2b2bfb-9733-4bda-908d-03391ae976cc","system_id":"levelo_inurba_marseille","lat":43.31189,"lon":5.41625,"is_reserved":false,"is_disabled":false,"rental_uris":{"android":"levelo://app?vid=bf2b2bfb-9733-4bda-908d-03391ae976cc","ios":"levelo://app?vid=bf2b2bfb-9733-4bda-908d-03391ae976cc"},"vehicle_type_id":"4","last_reported":1747580910,"current_range_meters":14800,"station_id":"","pricing_plan_id":"cebpf4jnsgd1na2vs0mg"},{"bike_id":"f0e132cf-91c0-4bbd-95f6-c58ec1763709","system_id":"levelo_inurba_marseille","lat":43.21193,"lon":5.3508,"is_reserved":false,"is_disabled":false,"rental_uris":{"android":"levelo://app?vid=f0e132cf-91c0-4bbd-95f6-c58ec1763709","ios":"levelo://app?vid=f0e132cf-91c0-4bbd-95f6-c58ec1763709"},"vehicle_type_id":"4","last_reported":1747580910,"current_range_meters":14800,"station_id":"st_cvj6sg6p6f1abm77japg","pricing_plan_id":"cebpf4jnsgd1na2vs0mg"},{"bike_id":"48a296bf-5e70-4d7c-a839-4c9a4b0f2c19","system_id":"levelo_inurba_marseille","lat":43.23188,"lon":5.40011,"is_reserved":false,"is_disabled":false,"rental_uris":{"android":"levelo://app?vid=48a296bf-5e70-4d7c-a839-4c9a4b0f2c19","ios":"levelo://app?vid=48a296bf-5e70-4d7c-a839-4c9a4b0f2c19"},"vehicle_type_id":"4","last_reported":1747580910,"current_range_meters":14800,"station_id":"ce4bhn12rcd13ifvqgqg","pricing_plan_id":"cebpf4jnsgd1na2vs0mg"},{"bike_id":"d295307c-767f-4f36-aee3-d0b7d293831a","system_id":"levelo_inurba_marseille","lat":43.29419,"lon":5.3863,"is_reserved":false,"is_disabled":false,"rental_uris":{"android":"levelo://app?vid=d295307c-767f-4f36-aee3-d0b7d293831a","ios":"levelo://app?vid=d295307c-767f-4f36-aee3-d0b7d293831a"},"vehicle_type_id":"4","last_reported":1747580910,"current_range_meters":14800,"station_id":"ce4bh2h2rcd13ifvqdh0","pricing_plan_id":"cebpf4jnsgd1na2vs0mg"},{"bike_id":"cfe86049-352f-45a7-8e93-8cdb004adc11","system_id":"levelo_inurba_marseille","lat":43.24075,"lon":5.37762,"is_reserved":false,"is_disabled":false,"rental_uris":{"android":"levelo://app?vid=cfe86049-352f-45a7-8e93-8cdb004adc11","ios":"levelo://app?vid=cfe86049-352f-45a7-8e93-8cdb004adc11"},"vehicle_type_id":"4","last_reported":1747580910,"current_range_meters":15200,"station_id":"ce4bhnp2rcd13ifvqgvg","pricing_plan_id":"cebpf4jnsgd1na2vs0mg"},{"bike_id":"ddec238a-7408-4678-bece-e5082fd5159d","system_id":"levelo_inurba_marseille","lat":43.287147,"lon":5.379435,"is_reserved":false,"is_disabled":false,"rental_uris":{"android":"levelo://app?vid=ddec238a-7408-4678-bece-e5082fd5159d","ios":"levelo://app?vid=ddec238a-7408-4678-bece-e5082fd5159d"},"vehicle_type_id":"4","last_reported":1747580910,"current_range_meters":14800,"station_id":"ce4bh9p2rcd13ifvqec0","pricing_plan_id":"cebpf4jnsgd1na2vs0mg"},{"bike_id":"b96a4e7c-0de7-41da-b086-8b5a8e70a687","system_id":"levelo_inurba_marseille","lat":43.27199,"lon":5.39206,"is_reserved":false,"is_disabled":true,"rental_uris":{"android":"levelo://app?vid=b96a4e7c-0de7-41da-b086-8b5a8e70a687","ios":"levelo://app?vid=b96a4e7c-0de7-41da-b086-8b5a8e70a687"},"vehicle_type_id":"4","last_reported":1747580910,"current_range_meters":15200,"station_id":"ce4bhhp2rcd13ifvqfm0","pricing_plan_id":"cebpf4jnsgd1na2vs0mg"},{"bike_id":"a675f4e5-fc13-43cf-92f6-6acfa57913c0","system_id":"levelo_inurba_marseille","lat":43.29039,"lon":5.38167,"is_reserved":false,"is_disabled":true,"rental_uris":{"android":"levelo://app?vid=a675f4e5-fc13-43cf-92f6-6acfa57913c0","ios":"levelo://app?vid=a675f4e5-fc13-43cf-92f6-6acfa57913c0"},"vehicle_type_id":"4","last_reported":1747580910,"current_range_meters":15200,"station_id":"ce4bh4p2rcd13ifvqe1g","pricing_plan_id":"cebpf4jnsgd1na2vs0mg"},{"bike_id":"3a773113-3b0e-4f0e-bd65-dcbd721f3d8b","system_id":"levelo_inurba_marseille","lat":43.28033,"lon":5.3694,"is_reserved":false,"is_disabled":false,"rental_uris":{"android":"levelo://app?vid=3a773113-3b0e-4f0e-bd65-dcbd721f3d8b","ios":"levelo://app?vid=3a773113-3b0e-4f0e-bd65-dcbd721f3d8b"},"vehicle_type_id":"4","last_reported":1747580910,"current_range_meters":15200,"station_id":"ce4bha12rcd13ifvqef0","pricing_plan_id":"cebpf4jnsgd1na2vs0mg"},{"bike_id":"831c9db4-0ff2-47fd-9906-a15bea8601e6","system_id":"levelo_inurba_marseille","lat":43.24808,"lon":5.37477,"is_reserved":false,"is_disabled":false,"rental_uris":{"android":"levelo://app?vid=831c9db4-0ff2-47fd-9906-a15bea8601e6","ios":"levelo://app?vid=831c9db4-0ff2-47fd-9906-a15bea8601e6"},"vehicle_type_id":"4","last_reported":1747580910,"current_range_meters":15200,"station_id":"ce4bhgh2rcd13ifvqfb0","pricing_plan_id":"cebpf4jnsgd1na2vs0mg"},{"bike_id":"1bbca78a-c83f-4de6-934f-aa529128ce36","system_id":"levelo_inurba_marseille","lat":43.241666,"lon":5.363911,"is_reserved":false,"is_disabled":false,"rental_uris":{"android":"levelo://app?vid=1bbca78a-c83f-4de6-934f-aa529128ce36","ios":"levelo://app?vid=1bbca78a-c83f-4de6-934f-aa529128ce36"},"vehicle_type_id":"4","last_reported":1747580910,"current_range_meters":15200,"station_id":"cpo36qri1sfpv3e86is0","pricing_plan_id":"cebpf4jnsgd1na2vs0mg"},{"bike_id":"b917d5e8-5ba3-4281-a45b-0a1908463d58","system_id":"levelo_inurba_marseille","lat":43.24159,"lon":5.39743,"is_reserved":false,"is_disabled":false,"rental_uris":{"android":"levelo://app?vid=b917d5e8-5ba3-4281-a45b-0a1908463d58","ios":"levelo://app?vid=b917d5e8-5ba3-4281-a45b-0a1908463d58"},"vehicle_type_id":"4","last_reported":1747580910,"current_range_meters":15200,"station_id":"ce4bhn12rcd13ifvqgpg","pricing_plan_id":"cebpf4jnsgd1na2vs0mg"},{"bike_id":"86603db7-b462-4e72-8622-a2dee8bb2920","system_id":"levelo_inurba_marseille","lat":43.337444,"lon":5.374475,"is_reserved":false,"is_disabled":false,"rental_uris":{"android":"levelo://app?vid=86603db7-b462-4e72-8622-a2dee8bb2920","ios":"levelo://app?vid=86603db7-b462-4e72-8622-a2dee8bb2920"},"vehicle_type_id":"4","last_reported":1747580910,"current_range_meters":15200,"station_id":"","pricing_plan_id":"cebpf4jnsgd1na2vs0mg"},{"bike_id":"19456222-7d38-48cf-a950-06daadd07927","system_id":"levelo_inurba_marseille","lat":43.25031,"lon":5.37577,"is_reserved":false,"is_disabled":false,"rental_uris":{"android":"levelo://app?vid=19456222-7d38-48cf-a950-06daadd07927","ios":"levelo://app?vid=19456222-7d38-48cf-a950-06daadd07927"},"vehicle_type_id":"4","last_reported":1747580910,"current_range_meters":16000,"station_id":"","pricing_plan_id":"cebpf4jnsgd1na2vs0mg"},{"bike_id":"cdfb4351-aaad-47d6-bdff-ee83c6c51072","system_id":"levelo_inurba_marseille","lat":43.27811,"lon":5.407132,"is_reserved":false,"is_disabled":false,"rental_uris":{"android":"levelo://app?vid=cdfb4351-aaad-47d6-bdff-ee83c6c51072","ios":"levelo://app?vid=cdfb4351-aaad-47d6-bdff-ee83c6c51072"},"vehicle_type_id":"4","last_reported":1747580910,"current_range_meters":16000,"station_id":"ce4bhnh2rcd13ifvqgtg","pricing_plan_id":"cebpf4jnsgd1na2vs0mg"},{"bike_id":"bcbdbd69-7be8-42f8-a855-a4358565de8f","system_id":"levelo_inurba_marseille","lat":43.27752,"lon":5.41419,"is_reserved":false,"is_disabled":false,"rental_uris":{"android":"levelo://app?vid=bcbdbd69-7be8-42f8-a855-a4358565de8f","ios":"levelo://app?vid=bcbdbd69-7be8-42f8-a855-a4358565de8f"},"vehicle_type_id":"4","last_reported":1747580910,"current_range_meters":16000,"station_id":"","pricing_plan_id":"cebpf4jnsgd1na2vs0mg"},{"bike_id":"7e85683c-0527-4a85-9ab8-35d06ff2f9ad","system_id":"levelo_inurba_marseille","lat":43.294248,"lon":5.386084,"is_reserved":false,"is_disabled":true,"rental_uris":{"android":"levelo://app?vid=7e85683c-0527-4a85-9ab8-35d06ff2f9ad","ios":"levelo://app?vid=7e85683c-0527-4a85-9ab8-35d06ff2f9ad"},"vehicle_type_id":"4","last_reported":1747580910,"current_range_meters":16000,"station_id":"ce4bh2h2rcd13ifvqdh0","pricing_plan_id":"cebpf4jnsgd1na2vs0mg"},{"bike_id":"0076bd73-0f9a-4075-84ce-656354aae323","system_id":"levelo_inurba_marseille","lat":43.24662,"lon":5.3816,"is_reserved":false,"is_disabled":false,"rental_uris":{"android":"levelo://app?vid=0076bd73-0f9a-4075-84ce-656354aae323","ios":"levelo://app?vid=0076bd73-0f9a-4075-84ce-656354aae323"},"vehicle_type_id":"4","last_reported":1747580910,"current_range_meters":16000,"station_id":"ce4bhih2rcd13ifvqfr0","pricing_plan_id":"cebpf4jnsgd1na2vs0mg"},{"bike_id":"ddd4b635-a9b7-4bb8-a716-ca3e148a2b25","system_id":"levelo_inurba_marseille","lat":43.28416,"lon":5.34997,"is_reserved":false,"is_disabled":false,"rental_uris":{"android":"levelo://app?vid=ddd4b635-a9b7-4bb8-a716-ca3e148a2b25","ios":"levelo://app?vid=ddd4b635-a9b7-4bb8-a716-ca3e148a2b25"},"vehicle_type_id":"4","last_reported":1747580910,"current_range_meters":16000,"station_id":"ce4bhbh2rcd13ifvqepg","pricing_plan_id":"cebpf4jnsgd1na2vs0mg"},{"bike_id":"6bf6ef34-621c-45ed-8550-fc1739953ee4","system_id":"levelo_inurba_marseille","lat":43.25501,"lon":5.37648,"is_reserved":false,"is_disabled":false,"rental_uris":{"android":"levelo://app?vid=6bf6ef34-621c-45ed-8550-fc1739953ee4","ios":"levelo://app?vid=6bf6ef34-621c-45ed-8550-fc1739953ee4"},"vehicle_type_id":"4","last_reported":1747580910,"current_range_meters":16000,"station_id":"ce4bhh12rcd13ifvqff0","pricing_plan_id":"cebpf4jnsgd1na2vs0mg"},{"bike_id":"16a9ddfa-550f-4b9b-a2e4-fa256732f274","system_id":"levelo_inurba_marseille","lat":43.23061,"lon":5.35489,"is_reserved":false,"is_disabled":false,"rental_uris":{"android":"levelo://app?vid=16a9ddfa-550f-4b9b-a2e4-fa256732f274","ios":"levelo://app?vid=16a9ddfa-550f-4b9b-a2e4-fa256732f274"},"vehicle_type_id":"4","last_reported":1747580910,"current_range_meters":16400,"station_id":"cpo3342slgdg3j2ifvpg","pricing_plan_id":"cebpf4jnsgd1na2vs0mg"},{"bike_id":"117c2a8c-f63e-4eed-8dd4-34324b87f297","system_id":"levelo_inurba_marseille","lat":43.31182,"lon":5.38721,"is_reserved":false,"is_disabled":false,"rental_uris":{"android":"levelo://app?vid=117c2a8c-f63e-4eed-8dd4-34324b87f297","ios":"levelo://app?vid=117c2a8c-f63e-4eed-8dd4-34324b87f297"},"vehicle_type_id":"4","last_reported":1747580910,"current_range_meters":16400,"station_id":"ce4bgv12rcd13ifvqcp0","pricing_plan_id":"cebpf4jnsgd1na2vs0mg"},{"bike_id":"118ffda2-14be-46a6-aa4c-cb7b3ba55c89","system_id":"levelo_inurba_marseille","lat":43.28932,"lon":5.38412,"is_reserved":false,"is_disabled":false,"rental_uris":{"android":"levelo://app?vid=118ffda2-14be-46a6-aa4c-cb7b3ba55c89","ios":"levelo://app?vid=118ffda2-14be-46a6-aa4c-cb7b3ba55c89"},"vehicle_type_id":"4","last_reported":1747580910,"current_range_meters":16000,"station_id":"ce4bh612rcd13ifvqe6g","pricing_plan_id":"cebpf4jnsgd1na2vs0mg"},{"bike_id":"cbf22af3-6c8f-4023-8971-3961263cafe8","system_id":"levelo_inurba_marseille","lat":43.28694,"lon":5.37384,"is_reserved":false,"is_disabled":true,"rental_uris":{"android":"levelo://app?vid=cbf22af3-6c8f-4023-8971-3961263cafe8","ios":"levelo://app?vid=cbf22af3-6c8f-4023-8971-3961263cafe8"},"vehicle_type_id":"4","last_reported":1747580910,"current_range_meters":16400,"station_id":"ce4bh3p2rcd13ifvqdq0","pricing_plan_id":"cebpf4jnsgd1na2vs0mg"},{"bike_id":"49cb24d2-9a1c-4a64-9161-5bfbb6ecbaa3","system_id":"levelo_inurba_marseille","lat":43.29917,"lon":5.37492,"is_reserved":false,"is_disabled":false,"rental_uris":{"android":"levelo://app?vid=49cb24d2-9a1c-4a64-9161-5bfbb6ecbaa3","ios":"levelo://app?vid=49cb24d2-9a1c-4a64-9161-5bfbb6ecbaa3"},"vehicle_type_id":"4","last_reported":1747580910,"current_range_meters":16400,"station_id":"ce4bgjh2rcd13ifvqbg0","pricing_plan_id":"cebpf4jnsgd1na2vs0mg"},{"bike_id":"2b49843a-17fe-43c1-a40e-86484b35c82c","system_id":"levelo_inurba_marseille","lat":43.27361,"lon":5.36233,"is_reserved":false,"is_disabled":false,"rental_uris":{"android":"levelo://app?vid=2b49843a-17fe-43c1-a40e-86484b35c82c","ios":"levelo://app?vid=2b49843a-17fe-43c1-a40e-86484b35c82c"},"vehicle_type_id":"4","last_reported":1747580910,"current_range_meters":16400,"station_id":"ce4bhbh2rcd13ifvqeo0","pricing_plan_id":"cebpf4jnsgd1na2vs0mg"},{"bike_id":"26ae3f71-446b-4d48-9715-d0cb78472fbf","system_id":"levelo_inurba_marseille","lat":43.31139,"lon":5.37003,"is_reserved":false,"is_disabled":false,"rental_uris":{"android":"levelo://app?vid=26ae3f71-446b-4d48-9715-d0cb78472fbf","ios":"levelo://app?vid=26ae3f71-446b-4d48-9715-d0cb78472fbf"},"vehicle_type_id":"4","last_reported":1747580910,"current_range_meters":16400,"station_id":"","pricing_plan_id":"cebpf4jnsgd1na2vs0mg"},{"bike_id":"e4e62141-acc5-43cb-9b05-d9a28611aacc","system_id":"levelo_inurba_marseille","lat":43.24172,"lon":5.36416,"is_reserved":false,"is_disabled":false,"rental_uris":{"android":"levelo://app?vid=e4e62141-acc5-43cb-9b05-d9a28611aacc","ios":"levelo://app?vid=e4e62141-acc5-43cb-9b05-d9a28611aacc"},"vehicle_type_id":"4","last_reported":1747580910,"current_range_meters":16400,"station_id":"cpo36qri1sfpv3e86is0","pricing_plan_id":"cebpf4jnsgd1na2vs0mg"},{"bike_id":"9e87bae7-57cf-41ac-ba9e-c3a18a504ad3","system_id":"levelo_inurba_marseille","lat":43.29549,"lon":5.37567,"is_reserved":false,"is_disabled":false,"rental_uris":{"android":"levelo://app?vid=9e87bae7-57cf-41ac-ba9e-c3a18a504ad3","ios":"levelo://app?vid=9e87bae7-57cf-41ac-ba9e-c3a18a504ad3"},"vehicle_type_id":"4","last_reported":1747580910,"current_range_meters":16400,"station_id":"ce4bgh92rcd13ifvqb50","pricing_plan_id":"cebpf4jnsgd1na2vs0mg"},{"bike_id":"3a022379-4c59-4d24-a1d2-b19883255fbc","system_id":"levelo_inurba_marseille","lat":43.23196,"lon":5.35559,"is_reserved":false,"is_disabled":false,"rental_uris":{"android":"levelo://app?vid=3a022379-4c59-4d24-a1d2-b19883255fbc","ios":"levelo://app?vid=3a022379-4c59-4d24-a1d2-b19883255fbc"},"vehicle_type_id":"4","last_reported":1747580910,"current_range_meters":16400,"station_id":"ce4bhu92rcd13ifvqi70","pricing_plan_id":"cebpf4jnsgd1na2vs0mg"},{"bike_id":"a95e2d0e-37ed-4ddf-9cac-836639f74ee0","system_id":"levelo_inurba_marseille","lat":43.27993,"lon":5.40016,"is_reserved":false,"is_disabled":false,"rental_uris":{"android":"levelo://app?vid=a95e2d0e-37ed-4ddf-9cac-836639f74ee0","ios":"levelo://app?vid=a95e2d0e-37ed-4ddf-9cac-836639f74ee0"},"vehicle_type_id":"4","last_reported":1747580910,"current_range_meters":16400,"station_id":"ce4bho92rcd13ifvqh4g","pricing_plan_id":"cebpf4jnsgd1na2vs0mg"},{"bike_id":"c7499386-dc2a-4a4c-830d-bea3ba4afc63","system_id":"levelo_inurba_marseille","lat":43.29797,"lon":5.38134,"is_reserved":false,"is_disabled":true,"rental_uris":{"android":"levelo://app?vid=c7499386-dc2a-4a4c-830d-bea3ba4afc63","ios":"levelo://app?vid=c7499386-dc2a-4a4c-830d-bea3ba4afc63"},"vehicle_type_id":"4","last_reported":1747580910,"current_range_meters":16800,"station_id":"ce4bgip2rcd13ifvqbb0","pricing_plan_id":"cebpf4jnsgd1na2vs0mg"},