{"last_updated":1771359903,"ttl":60,"version":"2.2","data":{"bikes":[{"bike_id":"9b7f7732-1691-4a0c-bc4f-a0818e3781d5","system_id":"levelo_inurba_marseille","lat":43.29869,"lon":5.39355,"is_reserved":false,"is_disabled":true,"rental_uris":{"android":"levelo://app?vid=9b7f7732-1691-4a0c-bc4f-a0818e3781d5","ios":"levelo://app?vid=9b7f7732-1691-4a0c-bc4f-a0818e3781d5"},"vehicle_type_id":"4","last_reported":1771359903,"current_range_meters":2000,"station_id":"chh1huq6cuj3fo74tm60","pricing_plan_id":"cebpf4jnsgd1na2vs0mg"},{"bike_id":"0dec7a6e-29d0-41f4-a0f3-1dcc86f38028","system_id":"levelo_inurba_marseille","lat":43.24958,"lon":5.40502,"is_reserved":false,"is_disabled":false,"rental_uris":{"android":"levelo://app?vid=0dec7a6e-29d0-41f4-a0f3-1dcc86f38028","ios":"levelo://app?vid=0dec7a6e-29d0-41f4-a0f3-1dcc86f38028"},"vehicle_type_id":"4","last_reported":1771359903,"current_range_meters":28800,"station_id":"st_d2ngiaodas8pm72gd1h0","pricing_plan_id":"cebpf4jnsgd1na2vs0mg"},{"bike_id":"f0250fd5-2cc4-45b4-b499-6e9c3a1128cf","system_id":"levelo_inurba_marseille","lat":43.29096,"lon":5.38161,"is_reserved":false,"is_disabled":false,"rental_uris":{"android":"levelo://app?vid=f0250fd5-2cc4-45b4-b499-6e9c3a1128cf","ios":"levelo://app?vid=f0250fd5-2cc4-45b4-b499-6e9c3a1128cf"},"vehicle_type_id":"4","last_reported":1771359903,"current_range_meters":12800,"station_id":"ce4bh512rcd13ifvqe2g","pricing_plan_id":"cebpf4jnsgd1na2vs0mg"},{"bike_id":"d5c39038-a196-442c-a8de-b272561ff450","system_id":"levelo_inurba_marseille","lat":43.31216,"lon":5.36843,"is_reserved":false,"is_disabled":false,"rental_uris":{"android":"levelo://app?vid=d5c39038-a196-442c-a8de-b272561ff450","ios":"levelo://app?vid=d5c39038-a196-442c-a8de-b272561ff450"},"vehicle_type_id":"4","last_reported":1771359903,"current_range_meters":13600,"station_id":"ce4bgl92rcd13ifvqbq0","pricing_plan_id":"cebpf4jnsgd1na2vs0mg"},{"bike_id":"9e80a46a-e212-4568-b8f2-e7bfcbbc6fb2","system_id":"levelo_inurba_marseille","lat":43.33156,"lon":5.37682,"is_reserved":false,"is_disabled":false,"rental_uris":{"android":"levelo://app?vid=9e80a46a-e212-4568-b8f2-e7bfcbbc6fb2","ios":"levelo://app?vid=9e80a46a-e212-4568-b8f2-e7bfcbbc6fb2"},"vehicle_type_id":"4","last_reported":1771359903,"current_range_meters":27600,"station_id":"st_d46cu089ee8s73dldbu0","pricing_plan_id":"cebpf4jnsgd1na2vs0mg"},{"bike_id":"06a35ccd-b33f-4049-bbfa-98f79e3425d6","system_id":"levelo_inurba_marseille","lat":43.26229,"lon":5.40453,"is_reserved":false,"is_disabled":false,"rental_uris":{"android":"levelo://app?vid=06a35ccd-b33f-4049-bbfa-98f79e3425d6","ios":"levelo://app?vid=06a35ccd-b33f-4049-bbfa-98f79e3425d6"},"vehicle_type_id":"4","last_reported":1771359903,"current_range_meters":20000,"station_id":"ce4bhmh2rcd13ifvqgmg","pricing_plan_id":"cebpf4jnsgd1na2vs0mg"},{"bike_id":"ee54c607-6e00-4039-ab4a-07f8b3f1b720","system_id":"levelo_inurba_marseille","lat":43.29599,"lon":5.38095,"is_reserved":false,"is_disabled":false,"rental_uris":{"android":"levelo://app?vid=ee54c607-6e00-4039-ab4a-07f8b3f1b720","ios":"levelo://app?vid=ee54c607-6e00-4039-ab4a-07f8b3f1b720"},"vehicle_type_id":"4","last_reported":1771359903,"current_range_meters":22400,"station_id":"ce4bgl12rcd13ifvqbo0","pricing_plan_id":"cebpf4jnsgd1na2vs0mg"},{"bike_id":"ca208522-c5c5-415c-9069-124a5d2f7bd4","system_id":"levelo_inurba_marseille","lat":43.24552,"lon":5.39536,"is_reserved":false,"is_disabled":false,"rental_uris":{"android":"levelo://app?vid=ca208522-c5c5-415c-9069-124a5d2f7bd4","ios":"levelo://app?vid=ca208522-c5c5-415c-9069-124a5d2f7bd4"},"vehicle_type_id":"4","last_reported":1771359903,"current_range_meters":30800,"station_id":"ce4bhlp2rcd13ifvqgjg","pricing_plan_id":"cebpf4jnsgd1na2vs0mg"},{"bike_id":"402492b2-75b7-4a30-b15f-baf2edef3968","system_id":"levelo_inurba_marseille","lat":43.26549,"lon":5.373,"is_reserved":false,"is_disabled":true,"rental_uris":{"android":"levelo://app?vid=402492b2-75b7-4a30-b15f-baf2edef3968","ios":"levelo://app?vid=402492b2-75b7-4a30-b15f-baf2edef3968"},"vehicle_type_id":"4","last_reported":1771359903,"current_range_meters":37600,"station_id":"ce4bhg12rcd13ifvqf70","pricing_plan_id":"cebpf4jnsgd1na2vs0mg"},{"bike_id":"572bc761-8879-44f9-beaf-5779abd95762","system_id":"levelo_inurba_marseille","lat":43.26069,"lon":5.39413,"is_reserved":false,"is_disabled":false,"rental_uris":{"android":"levelo://app?vid=572bc761-8879-44f9-beaf-5779abd95762","ios":"levelo://app?vid=572bc761-8879-44f9-beaf-5779abd95762"},"vehicle_type_id":"4","last_reported":1771359903,"current_range_meters":9600,"station_id":"ce4bhh92rcd13ifvqfj0","pricing_plan_id":"cebpf4jnsgd1na2vs0mg"},{"bike_id":"5a983a63-0def-4441-a187-04ff64118d4b","system_id":"levelo_inurba_marseille","lat":43.304207,"lon":5.412811,"is_reserved":false,"is_disabled":false,"rental_uris":{"android":"levelo://app?vid=5a983a63-0def-4441-a187-04ff64118d4b","ios":"levelo://app?vid=5a983a63-0def-4441-a187-04ff64118d4b"},"vehicle_type_id":"4","last_reported":1771359903,"current_range_meters":6800,"station_id":"ce4bhop2rcd13ifvqh8g","pricing_plan_id":"cebpf4jnsgd1na2vs0mg"},{"bike_id":"a378116d-7a7e-4011-b826-d27e4ca1e68f","system_id":"levelo_inurba_marseille","lat":43.2886,"lon":5.35863,"is_reserved":false,"is_disabled":false,"rental_uris":{"android":"levelo://app?vid=a378116d-7a7e-4011-b826-d27e4ca1e68f","ios":"levelo://app?vid=a378116d-7a7e-4011-b826-d27e4ca1e68f"},"vehicle_type_id":"4","last_reported":1771359903,"current_range_meters":32400,"station_id":"","pricing_plan_id":"cebpf4jnsgd1na2vs0mg"},{"bike_id":"39d0bc65-34ab-4b0d-bbad-9e272a43d3c2","system_id":"levelo_inurba_marseille","lat":43.30149,"lon":5.38774,"is_reserved":false,"is_disabled":false,"rental_uris":{"android":"levelo://app?vid=39d0bc65-34ab-4b0d-bbad-9e272a43d3c2","ios":"levelo://app?vid=39d0bc65-34ab-4b0d-bbad-9e272a43d3c2"},"vehicle_type_id":"4","last_reported":1771359903,"current_range_meters":6800,"station_id":"ce4bghh2rcd13ifvqb60","pricing_plan_id":"cebpf4jnsgd1na2vs0mg"},{"bike_id":"4f42c9b4-3bfa-4479-9222-0d4d275eb4a4","system_id":"levelo_inurba_marseille","lat":43.24395,"lon":5.37073,"is_reserved":false,"is_disabled":false,"rental_uris":{"android":"levelo://app?vid=4f42c9b4-3bfa-4479-9222-0d4d275eb4a4","ios":"levelo://app?vid=4f42c9b4-3bfa-4479-9222-0d4d275eb4a4"},"vehicle_type_id":"4","last_reported":1771359903,"current_range_meters":10000,"station_id":"ce4bhhh2rcd13ifvqfk0","pricing_plan_id":"cebpf4jnsgd1na2vs0mg"},{"bike_id":"fed31f42-65a1-4438-a376-04752a11ed35","system_id":"levelo_inurba_marseille","lat":43.29806,"lon":5.37093,"is_reserved":false,"is_disabled":false,"rental_uris":{"android":"levelo://app?vid=fed31f42-65a1-4438-a376-04752a11ed35","ios":"levelo://app?vid=fed31f42-65a1-4438-a376-04752a11ed35"},"vehicle_type_id":"4","last_reported":1771359903,"current_range_meters":19200,"station_id":"ce4bgop2rcd13ifvqc1g","pricing_plan_id":"cebpf4jnsgd1na2vs0mg"},{"bike_id":"dd7633b9-0cfb-4351-9b88-59e9f0bb3e60","system_id":"levelo_inurba_marseille","lat":43.2952,"lon":5.39047,"is_reserved":false,"is_disabled":false,"rental_uris":{"android":"levelo://app?vid=dd7633b9-0cfb-4351-9b88-59e9f0bb3e60","ios":"levelo://app?vid=dd7633b9-0cfb-4351-9b88-59e9f0bb3e60"},"vehicle_type_id":"4","last_reported":1771359903,"current_range_meters":8000,"station_id":"ce4bh3p2rcd13ifvqdp0","pricing_plan_id":"cebpf4jnsgd1na2vs0mg"},{"bike_id":"45c678c1-7b9b-4a93-a038-ef2c1a60194d","system_id":"levelo_inurba_marseille","lat":43.31167,"lon":5.36813,"is_reserved":false,"is_disabled":false,"rental_uris":{"android":"levelo://app?vid=45c678c1-7b9b-4a93-a038-ef2c1a60194d","ios":"levelo://app?vid=45c678c1-7b9b-4a93-a038-ef2c1a60194d"},"vehicle_type_id":"4","last_reported":1771359903,"current_range_meters":34000,"station_id":"ce4bgl92rcd13ifvqbq0","pricing_plan_id":"cebpf4jnsgd1na2vs0mg"},{"bike_id":"0ee84456-b561-44d6-9de8-8dd933fbade9","system_id":"levelo_inurba_marseille","lat":43.28934,"lon":5.36374,"is_reserved":false,"is_disabled":false,"rental_uris":{"android":"levelo://app?vid=0ee84456-b561-44d6-9de8-8dd933fbade9","ios":"levelo://app?vid=0ee84456-b561-44d6-9de8-8dd933fbade9"},"vehicle_type_id":"4","last_reported":1771359903,"current_range_meters":39200,"station_id":"ce4bhc92rcd13ifvqetg","pricing_plan_id":"cebpf4jnsgd1na2vs0mg"},{"bike_id":"632b83d1-a455-4605-8c59-bc2093bb83c1","system_id":"levelo_inurba_marseille","lat":43.29532,"lon":5.39435,"is_reserved":false,"is_disabled":false,"rental_uris":{"android":"levelo://app?vid=632b83d1-a455-4605-8c59-bc2093bb83c1","ios":"levelo://app?vid=632b83d1-a455-4605-8c59-bc2093bb83c1"},"vehicle_type_id":"4","last_reported":1771359903,"current_range_meters":30400,"station_id":"ce4bh292rcd13ifvqdf0","pricing_plan_id":"cebpf4jnsgd1na2vs0mg"},{"bike_id":"b16b6d76-9c13-4277-91b0-a5dc345d4f57","system_id":"levelo_inurba_marseille","lat":43.29794,"lon":5.404,"is_reserved":false,"is_disabled":false,"rental_uris":{"android":"levelo://app?vid=b16b6d76-9c13-4277-91b0-a5dc345d4f57","ios":"levelo://app?vid=b16b6d76-9c13-4277-91b0-a5dc345d4f57"},"vehicle_type_id":"4","last_reported":1771359903,"current_range_meters":30000,"station_id":"ce4bh112rcd13ifvqd90","pricing_plan_id":"cebpf4jnsgd1na2vs0mg"},{"bike_id":"06fbad56-b200-43dd-8bf6-f0b5d190c345","system_id":"levelo_inurba_marseille","lat":43.28357,"lon":5.38098,"is_reserved":false,"is_disabled":false,"rental_uris":{"android":"levelo://app?vid=06fbad56-b200-43dd-8bf6-f0b5d190c345","ios":"levelo://app?vid=06fbad56-b200-43dd-8bf6-f0b5d190c345"},"vehicle_type_id":"4","last_reported":1771359903,"current_range_meters":40000,"station_id":"ce4bh412rcd13ifvqdr0","pricing_plan_id":"cebpf4jnsgd1na2vs0mg"},{"bike_id":"77981940-8b3f-4695-8477-b34f59e0613e","system_id":"levelo_inurba_marseille","lat":43.31913,"lon":5.40741,"is_reserved":false,"is_disabled":false,"rental_uris":{"android":"levelo://app?vid=77981940-8b3f-4695-8477-b34f59e0613e","ios":"levelo://app?vid=77981940-8b3f-4695-8477-b34f59e0613e"},"vehicle_type_id":"4","last_reported":1771359903,"current_range_meters":30800,"station_id":"ce4bhq12rcd13ifvqhig","pricing_plan_id":"cebpf4jnsgd1na2vs0mg"},{"bike_id":"252ffab4-b7b6-4e0c-9da0-6b22d38b30ab","system_id":"levelo_inurba_marseille","lat":43.29518,"lon":5.39415,"is_reserved":false,"is_disabled":false,"rental_uris":{"android":"levelo://app?vid=252ffab4-b7b6-4e0c-9da0-6b22d38b30ab","ios":"levelo://app?vid=252ffab4-b7b6-4e0c-9da0-6b22d38b30ab"},"vehicle_type_id":"4","last_reported":1771359903,"current_range_meters":8800,"station_id":"ce4bh292rcd13ifvqdf0","pricing_plan_id":"cebpf4jnsgd1na2vs0mg"},{"bike_id":"4fe7dfed-728c-4d67-8f14-2b0427547e43","system_id":"levelo_inurba_marseille","lat":43.28942,"lon":5.36647,"is_reserved":false,"is_disabled":false,"rental_uris":{"android":"levelo://app?vid=4fe7dfed-728c-4d67-8f14-2b0427547e43","ios":"levelo://app?vid=4fe7dfed-728c-4d67-8f14-2b0427547e43"},"vehicle_type_id":"4","last_reported":1771359903,"current_range_meters":34000,"station_id":"ce4bhap2rcd13ifvqek0","pricing_plan_id":"cebpf4jnsgd1na2vs0mg"},{"bike_id":"523be3a1-7aac-4998-b646-37ab41bb0d4f","system_id":"levelo_inurba_marseille","lat":43.278275,"lon":5.407254,"is_reserved":false,"is_disabled":false,"rental_uris":{"android":"levelo://app?vid=523be3a1-7aac-4998-b646-37ab41bb0d4f","ios":"levelo://app?vid=523be3a1-7aac-4998-b646-37ab41bb0d4f"},"vehicle_type_id":"4","last_reported":1771359903,"current_range_meters":29600,"station_id":"ce4bhnh2rcd13ifvqgtg","pricing_plan_id":"cebpf4jnsgd1na2vs0mg"},{"bike_id":"5bf765cc-0b8f-4289-8567-040e97902325","system_id":"levelo_inurba_marseille","lat":43.30801,"lon":5.38163,"is_reserved":false,"is_disabled":false,"rental_uris":{"android":"levelo://app?vid=5bf765cc-0b8f-4289-8567-040e97902325","ios":"levelo://app?vid=5bf765cc-0b8f-4289-8567-040e97902325"},"vehicle_type_id":"4","last_reported":1771359903,"current_range_meters":19600,"station_id":"ce4bgt12rcd13ifvqce0","pricing_plan_id":"cebpf4jnsgd1na2vs0mg"},{"bike_id":"9680f0f0-6b88-4d74-9f8e-bfcff8f9ee10","system_id":"levelo_inurba_marseille","lat":43.29333,"lon":5.37216,"is_reserved":false,"is_disabled":false,"rental_uris":{"android":"levelo://app?vid=9680f0f0-6b88-4d74-9f8e-bfcff8f9ee10","ios":"levelo://app?vid=9680f0f0-6b88-4d74-9f8e-bfcff8f9ee10"},"vehicle_type_id":"4","last_reported":1771359903,"current_range_meters":38800,"station_id":"ce4bgh92rcd13ifvqb40","pricing_plan_id":"cebpf4jnsgd1na2vs0mg"},{"bike_id":"282dbedf-0523-49c3-b1d1-8b4c40d39507","system_id":"levelo_inurba_marseille","lat":43.29519,"lon":5.39411,"is_reserved":false,"is_disabled":false,"rental_uris":{"android":"levelo://app?vid=282dbedf-0523-49c3-b1d1-8b4c40d39507","ios":"levelo://app?vid=282dbedf-0523-49c3-b1d1-8b4c40d39507"},"vehicle_type_id":"4","last_reported":1771359903,"current_range_meters":27200,"station_id":"ce4bh292rcd13ifvqdf0","pricing_plan_id":"cebpf4jnsgd1na2vs0mg"},{"bike_id":"67bb091a-4272-4395-a3f1-8278fd4c1692","system_id":"levelo_inurba_marseille","lat":43.30442,"lon":5.38893,"is_reserved":false,"is_disabled":false,"rental_uris":{"android":"levelo://app?vid=67bb091a-4272-4395-a3f1-8278fd4c1692","ios":"levelo://app?vid=67bb091a-4272-4395-a3f1-8278fd4c1692"},"vehicle_type_id":"4","last_reported":1771359903,"current_range_meters":32800,"station_id":"ce4bgk12rcd13ifvqbi0","pricing_plan_id":"cebpf4jnsgd1na2vs0mg"},{"bike_id":"bade6b24-73d5-47df-8808-1e7c1a6f2206","system_id":"levelo_inurba_marseille","lat":43.29629,"lon":5.38103,"is_reserved":false,"is_disabled":false,"rental_uris":{"android":"levelo://app?vid=bade6b24-73d5-47df-8808-1e7c1a6f2206","ios":"levelo://app?vid=bade6b24-73d5-47df-8808-1e7c1a6f2206"},"vehicle_type_id":"4","last_reported":1771359903,"current_range_meters":35200,"station_id":"ce4bgl12rcd13ifvqbo0","pricing_plan_id":"cebpf4jnsgd1na2vs0mg"},{"bike_id":"13a92af8-e043-4e9c-b17f-e15ce8758a34","system_id":"levelo_inurba_marseille","lat":43.25109,"lon":5.40321,"is_reserved":false,"is_disabled":false,"rental_uris":{"android":"levelo://app?vid=13a92af8-e043-4e9c-b17f-e15ce8758a34","ios":"levelo://app?vid=13a92af8-e043-4e9c-b17f-e15ce8758a34"},"vehicle_type_id":"4","last_reported":1771359903,"current_range_meters":38000,"station_id":"ce4bhlh2rcd13ifvqgig","pricing_plan_id":"cebpf4jnsgd1na2vs0mg"},{"bike_id":"e3ac6f9c-8fbb-476b-90d6-33def770eb60","system_id":"levelo_inurba_marseille","lat":43.28608,"lon":5.39876,"is_reserved":false,"is_disabled":false,"rental_uris":{"android":"levelo://app?vid=e3ac6f9c-8fbb-476b-90d6-33def770eb60","ios":"levelo://app?vid=e3ac6f9c-8fbb-476b-90d6-33def770eb60"},"vehicle_type_id":"4","last_reported":1771359903,"current_range_meters":20000,"station_id":"st_d4a7ka997mjs738ck50g","pricing_plan_id":"cebpf4jnsgd1na2vs0mg"},{"bike_id":"6941152a-dfab-47b9-8222-02d328385b37","system_id":"levelo_inurba_marseille","lat":43.29274,"lon":5.38441,"is_reserved":false,"is_disabled":false,"rental_uris":{"android":"levelo://app?vid=6941152a-dfab-47b9-8222-02d328385b37","ios":"levelo://app?vid=6941152a-dfab-47b9-8222-02d328385b37"},"vehicle_type_id":"4","last_reported":1771359903,"current_range_meters":22400,"station_id":"ce4bh692rcd13ifvqea0","pricing_plan_id":"cebpf4jnsgd1na2vs0mg"},{"bike_id":"620af758-20cb-4e27-ac3f-3d767ee9e2c0","system_id":"levelo_inurba_marseille","lat":43.29258,"lon":5.38424,"is_reserved":false,"is_disabled":false,"rental_uris":{"android":"levelo://app?vid=620af758-20cb-4e27-ac3f-3d767ee9e2c0","ios":"levelo://app?vid=620af758-20cb-4e27-ac3f-3d767ee9e2c0"},"vehicle_type_id":"4","last_reported":1771359903,"current_range_meters":33200,"station_id":"ce4bh692rcd13ifvqea0","pricing_plan_id":"cebpf4jnsgd1na2vs0mg"},{"bike_id":"04307d66-1f7c-4a0b-9a4c-94ccb476c8c8","system_id":"levelo_inurba_marseille","lat":43.29541,"lon":5.38503,"is_reserved":false,"is_disabled":false,"rental_uris":{"android":"levelo://app?vid=04307d66-1f7c-4a0b-9a4c-94ccb476c8c8","ios":"levelo://app?vid=04307d66-1f7c-4a0b-9a4c-94ccb476c8c8"},"vehicle_type_id":"4","last_reported":1771359903,"current_range_meters":7200,"station_id":"ce4bgih2rcd13ifvqba0","pricing_plan_id":"cebpf4jnsgd1na2vs0mg"},{"bike_id":"2e8b44d4-9fc8-424e-86fe-539bcb5c6ec0","system_id":"levelo_inurba_marseille","lat":43.30366,"lon":5.419,"is_reserved":false,"is_disabled":false,"rental_uris":{"android":"levelo://app?vid=2e8b44d4-9fc8-424e-86fe-539bcb5c6ec0","ios":"levelo://app?vid=2e8b44d4-9fc8-424e-86fe-539bcb5c6ec0"},"vehicle_type_id":"4","last_reported":1771359903,"current_range_meters":16000,"station_id":"ce4bhop2rcd13ifvqh7g","pricing_plan_id":"cebpf4jnsgd1na2vs0mg"},{"bike_id":"91e18b06-e43f-4689-81f7-7af2dc71414d","system_id":"levelo_inurba_marseille","lat":43.26486,"lon":5.39554,"is_reserved":false,"is_disabled":false,"rental_uris":{"android":"levelo://app?vid=91e18b06-e43f-4689-81f7-7af2dc71414d","ios":"levelo://app?vid=91e18b06-e43f-4689-81f7-7af2dc71414d"},"vehicle_type_id":"4","last_reported":1771359903,"current_range_meters":36000,"station_id":"ce4bhi12rcd13ifvqfq0","pricing_plan_id":"cebpf4jnsgd1na2vs0mg"},{"bike_id":"6de5e299-d1ca-4f6f-bb0e-37f0d2361727","system_id":"levelo_inurba_marseille","lat":43.28841,"lon":5.35872,"is_reserved":false,"is_disabled":false,"rental_uris":{"android":"levelo://app?vid=6de5e299-d1ca-4f6f-bb0e-37f0d2361727","ios":"levelo://app?vid=6de5e299-d1ca-4f6f-bb0e-37f0d2361727"},"vehicle_type_id":"4","last_reported":1771359903,"current_range_meters":38400,"station_id":"ce4bhb12rcd13ifvqem0","pricing_plan_id":"cebpf4jnsgd1na2vs0mg"},{"bike_id":"0f39b697-4a2b-43a3-ada4-ce8c43776e1f","system_id":"levelo_inurba_marseille","lat":43.31238,"lon":5.36827,"is_reserved":false,"is_disabled":false,"rental_uris":{"android":"levelo://app?vid=0f39b697-4a2b-43a3-ada4-ce8c43776e1f","ios":"levelo://app?vid=0f39b697-4a2b-43a3-ada4-ce8c43776e1f"},"vehicle_type_id":"4","last_reported":1771359903,"current_range_meters":16000,"station_id":"ce4bgl92rcd13ifvqbq0","pricing_plan_id":"cebpf4jnsgd1na2vs0mg"},{"bike_id":"76a0d4aa-0887-4be6-bfc2-d5259dc7e99e","system_id":"levelo_inurba_marseille","lat":43.29224,"lon":5.36061,"is_reserved":false,"is_disabled":false,"rental_uris":{"android":"levelo://app?vid=76a0d4aa-0887-4be6-bfc2-d5259dc7e99e","ios":"levelo://app?vid=76a0d4aa-0887-4be6-bfc2-d5259dc7e99e"},"vehicle_type_id":"4","last_reported":1771359903,"current_range_meters":39200,"station_id":"ce4bhbh2rcd13ifvqeqg","pricing_plan_id":"cebpf4jnsgd1na2vs0mg"},{"bike_id":"ec532e3d-01fc-41fe-bfbc-45c5b470be82","system_id":"levelo_inurba_marseille","lat":43.25115,"lon":5.40292,"is_reserved":false,"is_disabled":false,"rental_uris":{"android":"levelo://app?vid=ec532e3d-01fc-41fe-bfbc-45c5b470be82","ios":"levelo://app?vid=ec532e3d-01fc-41fe-bfbc-45c5b470be82"},"vehicle_type_id":"4","last_reported":1771359903,"current_range_meters":29600,"station_id":"ce4bhlh2rcd13ifvqgig","pricing_plan_id":"cebpf4jnsgd1na2vs0mg"},{"bike_id":"52dbfc0c-75ab-451e-bcf0-017cc52f57b4","system_id":"levelo_inurba_marseille","lat":43.30092,"lon":5.39094,"is_reserved":false,"is_disabled":false,"rental_uris":{"android":"levelo://app?vid=52dbfc0c-75ab-451e-bcf0-017cc52f57b4","ios":"levelo://app?vid=52dbfc0c-75ab-451e-bcf0-017cc52f57b4"},"vehicle_type_id":"4","last_reported":1771359903,"current_range_meters":35200,"station_id":"ce4bh192rcd13ifvqdb0","pricing_plan_id":"cebpf4jnsgd1na2vs0mg"},{"bike_id":"c73347ca-cc14-4483-8b47-9a48e9728c50","system_id":"levelo_inurba_marseille","lat":43.29535,"lon":5.37507,"is_reserved":false,"is_disabled":false,"rental_uris":{"android":"levelo://app?vid=c73347ca-cc14-4483-8b47-9a48e9728c50","ios":"levelo://app?vid=c73347ca-cc14-4483-8b47-9a48e9728c50"},"vehicle_type_id":"4","last_reported":1771359903,"current_range_meters":36800,"station_id":"ce4bgkp2rcd13ifvqbmg","pricing_plan_id":"cebpf4jnsgd1na2vs0mg"},{"bike_id":"cb91b214-7a23-4a3b-bcc3-fae72a1d3b02","system_id":"levelo_inurba_marseille","lat":43.261979,"lon":5.404363,"is_reserved":false,"is_disabled":false,"rental_uris":{"android":"levelo://app?vid=cb91b214-7a23-4a3b-bcc3-fae72a1d3b02","ios":"levelo://app?vid=cb91b214-7a23-4a3b-bcc3-fae72a1d3b02"},"vehicle_type_id":"4","last_reported":1771359903,"current_range_meters":4800,"station_id":"ce4bhmh2rcd13ifvqgmg","pricing_plan_id":"cebpf4jnsgd1na2vs0mg"},{"bike_id":"a297b937-d94a-41b7-a7fa-274c5de42c2e","system_id":"levelo_inurba_marseille","lat":43.2649,"lon":5.39554,"is_reserved":false,"is_disabled":false,"rental_uris":{"android":"levelo://app?vid=a297b937-d94a-41b7-a7fa-274c5de42c2e","ios":"levelo://app?vid=a297b937-d94a-41b7-a7fa-274c5de42c2e"},"vehicle_type_id":"4","last_reported":1771359903,"current_range_meters":35200,"station_id":"ce4bhi12rcd13ifvqfq0","pricing_plan_id":"cebpf4jnsgd1na2vs0mg"},{"bike_id":"550eff93-0876-42bc-b35d-34db5e5290ce","system_id":"levelo_inurba_marseille","lat":43.26076,"lon":5.39429,"is_reserved":false,"is_disabled":true,"rental_uris":{"android":"levelo://app?vid=550eff93-0876-42bc-b35d-34db5e5290ce","ios":"levelo://app?vid=550eff93-0876-42bc-b35d-34db5e5290ce"},"vehicle_type_id":"4","last_reported":1771359903,"current_range_meters":8400,"station_id":"ce4bhh92rcd13ifvqfj0","pricing_plan_id":"cebpf4jnsgd1na2vs0mg"},{"bike_id":"ef3f0443-e181-4ab7-b489-4a9a20005b24","system_id":"levelo_inurba_marseille","lat":43.30157,"lon":5.39907,"is_reserved":false,"is_disabled":false,"rental_uris":{"android":"levelo://app?vid=ef3f0443-e181-4ab7-b489-4a9a20005b24","ios":"levelo://app?vid=ef3f0443-e181-4ab7-b489-4a9a20005b24"},"vehicle_type_id":"4","last_reported":1771359903,"current_range_meters":35600,"station_id":"ce4bh0h2rcd13ifvqd40","pricing_plan_id":"cebpf4jnsgd1na2vs0mg"},{"bike_id":"08be4522-7bfe-4a4e-a14f-3f053ff22c46","system_id":"levelo_inurba_marseille","lat":43.299944,"lon":5.385498,"is_reserved":false,"is_disabled":false,"rental_uris":{"android":"levelo://app?vid=08be4522-7bfe-4a4e-a14f-3f053ff22c46","ios":"levelo://app?vid=08be4522-7bfe-4a4e-a14f-3f053ff22c46"},"vehicle_type_id":"4","last_reported":1771359903,"current_range_meters":39200,"station_id":"","pricing_plan_id":"cebpf4jnsgd1na2vs0mg"},{"bike_id":"5d6be8ea-44f1-4b2e-80b5-f19f2036681d","system_id":"levelo_inurba_marseille","lat":43.295217,"lon":5.393967,"is_reserved":false,"is_disabled":false,"rental_uris":{"android":"levelo://app?vid=5d6be8ea-44f1-4b2e-80b5-f19f2036681d","ios":"levelo://app?vid=5d6be8ea-44f1-4b2e-80b5-f19f2036681d"},"vehicle_type_id":"4","last_reported":1771359903,"current_range_meters":35600,"station_id":"ce4bh292rcd13ifvqdf0","pricing_plan_id":"cebpf4jnsgd1na2vs0mg"},{"bike_id":"e308d050-502a-44ad-8fb8-6a23ebc18376","system_id":"levelo_inurba_marseille","lat":43.29227,"lon":5.36063,"is_reserved":false,"is_disabled":false,"rental_uris":{"android":"levelo://app?vid=e308d050-502a-44ad-8fb8-6a23ebc18376","ios":"levelo://app?vid=e308d050-502a-44ad-8fb8-6a23ebc18376"},"vehicle_type_id":"4","last_reported":1771359903,"current_range_meters":26000,"station_id":"ce4bhbh2rcd13ifvqeqg","pricing_plan_id":"cebpf4jnsgd1na2vs0mg"},{"bike_id":"9a0b105c-51c2-4394-93c8-b3bf166943bb","system_id":"levelo_inurba_marseille","lat":43.27181,"lon":5.4099,"is_reserved":false,"is_disabled":false,"rental_uris":{"android":"levelo://app?vid=9a0b105c-51c2-4394-93c8-b3bf166943bb","ios":"levelo://app?vid=9a0b105c-51c2-4394-93c8-b3bf166943bb"},"vehicle_type_id":"4","last_reported":1771359903,"current_range_meters":31200,"station_id":"ce4bhl12rcd13ifvqgf0","pricing_plan_id":"cebpf4jnsgd1na2vs0mg"},{"bike_id":"f58a2514-9f6d-4f60-9291-e9b3221c1f37","system_id":"levelo_inurba_marseille","lat":43.29548,"lon":5.39056,"is_reserved":false,"is_disabled":false,"rental_uris":{"android":"levelo://app?vid=f58a2514-9f6d-4f60-9291-e9b3221c1f37","ios":"levelo://app?vid=f58a2514-9f6d-4f60-9291-e9b3221c1f37"},"vehicle_type_id":"4","last_reported":1771359903,"current_range_meters":8400,"station_id":"ce4bh3p2rcd13ifvqdp0","pricing_plan_id":"cebpf4jnsgd1na2vs0mg"},{"bike_id":"5a965df6-6bde-443d-bd53-103df330df07","system_id":"levelo_inurba_marseille","lat":43.33759,"lon":5.37449,"is_reserved":false,"is_disabled":false,"rental_uris":{"android":"levelo://app?vid=5a965df6-6bde-443d-bd53-103df330df07","ios":"levelo://app?vid=5a965df6-6bde-443d-bd53-103df330df07"},"vehicle_type_id":"4","last_reported":1771359903,"current_range_meters":38000,"station_id":"","pricing_plan_id":"cebpf4jnsgd1na2vs0mg"},{"bike_id":"3b5fd088-aea8-4a4d-a72a-cd569f27b2cf","system_id":"levelo_inurba_marseille","lat":43.31087,"lon":5.38641,"is_reserved":false,"is_disabled":false,"rental_uris":{"android":"levelo://app?vid=3b5fd088-aea8-4a4d-a72a-cd569f27b2cf","ios":"levelo://app?vid=3b5fd088-aea8-4a4d-a72a-cd569f27b2cf"},"vehicle_type_id":"4","last_reported":1771359903,"current_range_meters":24800,"station_id":"","pricing_plan_id":"cebpf4jnsgd1na2vs0mg"},{"bike_id":"7ae2f520-3f6d-4d15-803f-7620186a5e30","system_id":"levelo_inurba_marseille","lat":43.29221,"lon":5.36082,"is_reserved":false,"is_disabled":false,"rental_uris":{"android":"levelo://app?vid=7ae2f520-3f6d-4d15-803f-7620186a5e30","ios":"levelo://app?vid=7ae2f520-3f6d-4d15-803f-7620186a5e30"},"vehicle_type_id":"4","last_reported":1771359903,"current_range_meters":39200,"station_id":"ce4bhbh2rcd13ifvqeqg","pricing_plan_id":"cebpf4jnsgd1na2vs0mg"},{"bike_id":"bd2e0b30-7eff-4350-9215-ff4d3f7250a7","system_id":"levelo_inurba_marseille","lat":43.308898,"lon":5.396488,"is_reserved":false,"is_disabled":false,"rental_uris":{"android":"levelo://app?vid=bd2e0b30-7eff-4350-9215-ff4d3f7250a7","ios":"levelo://app?vid=bd2e0b30-7eff-4350-9215-ff4d3f7250a7"},"vehicle_type_id":"4","last_reported":1771359903,"current_range_meters":16400,"station_id":"ce4bh012rcd13ifvqcv0","pricing_plan_id":"cebpf4jnsgd1na2vs0mg"},{"bike_id":"e041f392-b8c5-44a1-8028-4931d6269d88","system_id":"levelo_inurba_marseille","lat":43.29316,"lon":5.40931,"is_reserved":false,"is_disabled":false,"rental_uris":{"android":"levelo://app?vid=e041f392-b8c5-44a1-8028-4931d6269d88","ios":"levelo://app?vid=e041f392-b8c5-44a1-8028-4931d6269d88"},"vehicle_type_id":"4","last_reported":1771359903,"current_range_meters":8000,"station_id":"","pricing_plan_id":"cebpf4jnsgd1na2vs0mg"},{"bike_id":"41db3726-51fa-41d4-90c8-4a07475978f2","system_id":"levelo_inurba_marseille","lat":43.29709,"lon":5.36607,"is_reserved":false,"is_disabled":false,"rental_uris":{"android":"levelo://app?vid=41db3726-51fa-41d4-90c8-4a07475978f2","ios":"levelo://app?vid=41db3726-51fa-41d4-90c8-4a07475978f2"},"vehicle_type_id":"4","last_reported":1771359903,"current_range_meters":12800,"station_id":"ce4bgn12rcd13ifvqbt0","pricing_plan_id":"cebpf4jnsgd1na2vs0mg"},{"bike_id":"c6257056-1773-40b3-8420-fe95746c06e4","system_id":"levelo_inurba_marseille","lat":43.2953,"lon":5.38522,"is_reserved":false,"is_disabled":false,"rental_uris":{"android":"levelo://app?vid=c6257056-1773-40b3-8420-fe95746c06e4","ios":"levelo://app?vid=c6257056-1773-40b3-8420-fe95746c06e4"},"vehicle_type_id":"4","last_reported":1771359903,"current_range_meters":13600,"station_id":"ce4bgih2rcd13ifvqba0","pricing_plan_id":"cebpf4jnsgd1na2vs0mg"},{"bike_id":"6e1b6725-bd2a-450f-8fbb-87285b7c6526","system_id":"levelo_inurba_marseille","lat":43.24165,"lon":5.36405,"is_reserved":false,"is_disabled":false,"rental_uris":{"android":"levelo://app?vid=6e1b6725-bd2a-450f-8fbb-87285b7c6526","ios":"levelo://app?vid=6e1b6725-bd2a-450f-8fbb-87285b7c6526"},"vehicle_type_id":"4","last_reported":1771359903,"current_range_meters":2800,"station_id":"cpo36qri1sfpv3e86is0","pricing_plan_id":"cebpf4jnsgd1na2vs0mg"},{"bike_id":"95904b6e-2009-48fa-862a-1b6fa5c38934","system_id":"levelo_inurba_marseille","lat":43.31113,"lon":5.42484,"is_reserved":false,"is_disabled":false,"rental_uris":{"android":"levelo://app?vid=95904b6e-2009-48fa-862a-1b6fa5c38934","ios":"levelo://app?vid=95904b6e-2009-48fa-862a-1b6fa5c38934"},"vehicle_type_id":"4","last_reported":1771359903,"current_range_meters":38400,"station_id":"ce4bhp92rcd13ifvqhag","pricing_plan_id":"cebpf4jnsgd1na2vs0mg"},{"bike_id":"ac6d08ac-f8ef-4d34-8662-b1862842c3e3","system_id":"levelo_inurba_marseille","lat":43.27498,"lon":5.42451,"is_reserved":false,"is_disabled":false,"rental_uris":{"android":"levelo://app?vid=ac6d08ac-f8ef-4d34-8662-b1862842c3e3","ios":"levelo://app?vid=ac6d08ac-f8ef-4d34-8662-b1862842c3e3"},"vehicle_type_id":"4","last_reported":1771359903,"current_range_meters":16400,"station_id":"ce4bhn92rcd13ifvqgrg","pricing_plan_id":"cebpf4jnsgd1na2vs0mg"},{"bike_id":"0d23b456-724b-4079-b11e-9aa74649509e","system_id":"levelo_inurba_marseille","lat":43.28842,"lon":5.3931,"is_reserved":false,"is_disabled":false,"rental_uris":{"android":"levelo://app?vid=0d23b456-724b-4079-b11e-9aa74649509e","ios":"levelo://app?vid=0d23b456-724b-4079-b11e-9aa74649509e"},"vehicle_type_id":"4","last_reported":1771359903,"current_range_meters":34800,"station_id":"ce4bh2p2rcd13ifvqdi0","pricing_plan_id":"cebpf4jnsgd1na2vs0mg"},{"bike_id":"9b132a11-5853-4bf4-9d46-e54d41ccb5d0","system_id":"levelo_inurba_marseille","lat":43.26219,"lon":5.40469,"is_reserved":false,"is_disabled":false,"rental_uris":{"android":"levelo://app?vid=9b132a11-5853-4bf4-9d46-e54d41ccb5d0","ios":"levelo://app?vid=9b132a11-5853-4bf4-9d46-e54d41ccb5d0"},"vehicle_type_id":"4","last_reported":1771359903,"current_range_meters":31200,"station_id":"ce4bhmh2rcd13ifvqgmg","pricing_plan_id":"cebpf4jnsgd1na2vs0mg"},{"bike_id":"5d163bc2-8174-495c-b234-639c4a69ac92","system_id":"levelo_inurba_marseille","lat":43.31122,"lon":5.37783,"is_reserved":false,"is_disabled":false,"rental_uris":{"android":"levelo://app?vid=5d163bc2-8174-495c-b234-639c4a69ac92","ios":"levelo://app?vid=5d163bc2-8174-495c-b234-639c4a69ac92"},"vehicle_type_id":"4","last_reported":1771359903,"current_range_meters":38800,"station_id":"ce4bgt92rcd13ifvqcg0","pricing_plan_id":"cebpf4jnsgd1na2vs0mg"},{"bike_id":"061ee33a-0cb8-48bc-a843-c564ef436c43","system_id":"levelo_inurba_marseille","lat":43.28147,"lon":5.42648,"is_reserved":false,"is_disabled":false,"rental_uris":{"android":"levelo://app?vid=061ee33a-0cb8-48bc-a843-c564ef436c43","ios":"levelo://app?vid=061ee33a-0cb8-48bc-a843-c564ef436c43"},"vehicle_type_id":"4","last_reported":1771359903,"current_range_meters":38400,"station_id":"ce4bhnh2rcd13ifvqgug","pricing_plan_id":"cebpf4jnsgd1na2vs0mg"},{"bike_id":"5b8de0cc-7d3e-4222-8509-d21d6ce44619","system_id":"levelo_inurba_marseille","lat":43.246409,"lon":5.431413,"is_reserved":false,"is_disabled":false,"rental_uris":{"android":"levelo://app?vid=5b8de0cc-7d3e-4222-8509-d21d6ce44619","ios":"levelo://app?vid=5b8de0cc-7d3e-4222-8509-d21d6ce44619"},"vehicle_type_id":"4","last_reported":1771359903,"current_range_meters":11600,"station_id":"st_d2m6c4gdas8pm72e190g","pricing_plan_id":"cebpf4jnsgd1na2vs0mg"},{"bike_id":"86192d04-a141-409d-b724-3e354a3ed317","system_id":"levelo_inurba_marseille","lat":43.30957,"lon":5.38357,"is_reserved":false,"is_disabled":false,"rental_uris":{"android":"levelo://app?vid=86192d04-a141-409d-b724-3e354a3ed317","ios":"levelo://app?vid=86192d04-a141-409d-b724-3e354a3ed317"},"vehicle_type_id":"4","last_reported":1771359903,"current_range_meters":6000,"station_id":"","pricing_plan_id":"cebpf4jnsgd1na2vs0mg"},{"bike_id":"7f7e6064-6c05-4e1f-a4b0-120e50364b3a","system_id":"levelo_inurba_marseille","lat":43.26077,"lon":5.39404,"is_reserved":false,"is_disabled":false,"rental_uris":{"android":"levelo://app?vid=7f7e6064-6c05-4e1f-a4b0-120e50364b3a","ios":"levelo://app?vid=7f7e6064-6c05-4e1f-a4b0-120e50364b3a"},"vehicle_type_id":"4","last_reported":1771359903,"current_range_meters":28400,"station_id":"ce4bhh92rcd13ifvqfj0","pricing_plan_id":"cebpf4jnsgd1na2vs0mg"},{"bike_id":"a2e5bf71-7c3d-47d2-a17c-d169a49e878b","system_id":"levelo_inurba_marseille","lat":43.29641,"lon":5.40598,"is_reserved":false,"is_disabled":false,"rental_uris":{"android":"levelo://app?vid=a2e5bf71-7c3d-47d2-a17c-d169a49e878b","ios":"levelo://app?vid=a2e5bf71-7c3d-47d2-a17c-d169a49e878b"},"vehicle_type_id":"4","last_reported":1771359903,"current_range_meters":36400,"station_id":"ce4bh0h2rcd13ifvqd60","pricing_plan_id":"cebpf4jnsgd1na2vs0mg"},{"bike_id":"71d8f09f-3c65-4fba-a72d-01b5fd7ccd01","system_id":"levelo_inurba_marseille","lat":43.23039,"lon":5.40295,"is_reserved":false,"is_disabled":false,"rental_uris":{"android":"levelo://app?vid=71d8f09f-3c65-4fba-a72d-01b5fd7ccd01","ios":"levelo://app?vid=71d8f09f-3c65-4fba-a72d-01b5fd7ccd01"},"vehicle_type_id":"4","last_reported":1771359903,"current_range_meters":28000,"station_id":"","pricing_plan_id":"cebpf4jnsgd1na2vs0mg"},{"bike_id":"6bb36a9f-067d-4eef-9d07-1ddb3347be78","system_id":"levelo_inurba_marseille","lat":43.29006,"lon":5.38117,"is_reserved":false,"is_disabled":false,"rental_uris":{"android":"levelo://app?vid=6bb36a9f-067d-4eef-9d07-1ddb3347be78","ios":"levelo://app?vid=6bb36a9f-067d-4eef-9d07-1ddb3347be78"},"vehicle_type_id":"4","last_reported":1771359903,"current_range_meters":37600,"station_id":"ce4bh4p2rcd13ifvqe1g","pricing_plan_id":"cebpf4jnsgd1na2vs0mg"},{"bike_id":"6f566a9d-10ed-406d-af83-64e27e638094","system_id":"levelo_inurba_marseille","lat":43.30135,"lon":5.39863,"is_reserved":false,"is_disabled":false,"rental_uris":{"android":"levelo://app?vid=6f566a9d-10ed-406d-af83-64e27e638094","ios":"levelo://app?vid=6f566a9d-10ed-406d-af83-64e27e638094"},"vehicle_type_id":"4","last_reported":1771359903,"current_range_meters":4400,"station_id":"ce4bh0h2rcd13ifvqd40","pricing_plan_id":"cebpf4jnsgd1na2vs0mg"},{"bike_id":"459af572-5c73-4d66-a7b6-54d1719e2d1f","system_id":"levelo_inurba_marseille","lat":43.31181,"lon":5.36772,"is_reserved":false,"is_disabled":false,"rental_uris":{"android":"levelo://app?vid=459af572-5c73-4d66-a7b6-54d1719e2d1f","ios":"levelo://app?vid=459af572-5c73-4d66-a7b6-54d1719e2d1f"},"vehicle_type_id":"4","last_reported":1771359903,"current_range_meters":37600,"station_id":"","pricing_plan_id":"cebpf4jnsgd1na2vs0mg"},{"bike_id":"ececbe0e-0e34-4d8d-94e2-d6a8f1b03bbe","system_id":"levelo_inurba_marseille","lat":43.33181,"lon":5.37686,"is_reserved":false,"is_disabled":false,"rental_uris":{"android":"levelo://app?vid=ececbe0e-0e34-4d8d-94e2-d6a8f1b03bbe","ios":"levelo://app?vid=ececbe0e-0e34-4d8d-94e2-d6a8f1b03bbe"},"vehicle_type_id":"4","last_reported":1771359903,"current_range_meters":36800,"station_id":"st_d46cu089ee8s73dldbu0","pricing_plan_id":"cebpf4jnsgd1na2vs0mg"},{"bike_id":"d9414eea-4822-4c71-bae1-8fc190606b9b","system_id":"levelo_inurba_marseille","lat":43.2868,"lon":5.35521,"is_reserved":false,"is_disabled":true,"rental_uris":{"android":"levelo://app?vid=d9414eea-4822-4c71-bae1-8fc190606b9b","ios":"levelo://app?vid=d9414eea-4822-4c71-bae1-8fc190606b9b"},"vehicle_type_id":"4","last_reported":1771359903,"current_range_meters":37600,"station_id":"","pricing_plan_id":"cebpf4jnsgd1na2vs0mg"},{"bike_id":"fc522677-07d6-4e90-979c-17c8f21c8c74","system_id":"levelo_inurba_marseille","lat":43.29528,"lon":5.37541,"is_reserved":false,"is_disabled":false,"rental_uris":{"android":"levelo://app?vid=fc522677-07d6-4e90-979c-17c8f21c8c74","ios":"levelo://app?vid=fc522677-07d6-4e90-979c-17c8f21c8c74"},"vehicle_type_id":"4","last_reported":1771359903,"current_range_meters":8800,"station_id":"ce4bgkp2rcd13ifvqbmg","pricing_plan_id":"cebpf4jnsgd1na2vs0mg"},{"bike_id":"0b80e1be-8f2b-4513-82b3-2450c7c69a23","system_id":"levelo_inurba_marseille","lat":43.29181,"lon":5.37214,"is_reserved":false,"is_disabled":false,"rental_uris":{"android":"levelo://app?vid=0b80e1be-8f2b-4513-82b3-2450c7c69a23","ios":"levelo://app?vid=0b80e1be-8f2b-4513-82b3-2450c7c69a23"},"vehicle_type_id":"4","last_reported":1771359903,"current_range_meters":34800,"station_id":"ce4bha92rcd13ifvqeh0","pricing_plan_id":"cebpf4jnsgd1na2vs0mg"},{"bike_id":"4fffa687-113e-4c17-9149-88fa57491723","system_id":"levelo_inurba_marseille","lat":43.28612,"lon":5.35119,"is_reserved":false,"is_disabled":false,"rental_uris":{"android":"levelo://app?vid=4fffa687-113e-4c17-9149-88fa57491723","ios":"levelo://app?vid=4fffa687-113e-4c17-9149-88fa57491723"},"vehicle_type_id":"4","last_reported":1771359903,"current_range_meters":19600,"station_id":"ce4bhch2rcd13ifvqeug","pricing_plan_id":"cebpf4jnsgd1na2vs0mg"},{"bike_id":"e1973e49-c22d-4cfc-9fd1-01bb239b8af6","system_id":"levelo_inurba_marseille","lat":43.27456,"lon":5.42463,"is_reserved":false,"is_disabled":false,"rental_uris":{"android":"levelo://app?vid=e1973e49-c22d-4cfc-9fd1-01bb239b8af6","ios":"levelo://app?vid=e1973e49-c22d-4cfc-9fd1-01bb239b8af6"},"vehicle_type_id":"4","last_reported":1771359903,"current_range_meters":10000,"station_id":"","pricing_plan_id":"cebpf4jnsgd1na2vs0mg"},{"bike_id":"82cea78d-13cb-47cb-bf53-d4e236e14283","system_id":"levelo_inurba_marseille","lat":43.302,"lon":5.39471,"is_reserved":false,"is_disabled":false,"rental_uris":{"android":"levelo://app?vid=82cea78d-13cb-47cb-bf53-d4e236e14283","ios":"levelo://app?vid=82cea78d-13cb-47cb-bf53-d4e236e14283"},"vehicle_type_id":"4","last_reported":1771359903,"current_range_meters":24400,"station_id":"ce4bh0p2rcd13ifvqd70","pricing_plan_id":"cebpf4jnsgd1na2vs0mg"},{"bike_id":"1312c14b-ab8b-4ffa-81c7-391d6629d841","system_id":"levelo_inurba_marseille","lat":43.29039,"lon":5.38149,"is_reserved":false,"is_disabled":false,"rental_uris":{"android":"levelo://app?vid=1312c14b-ab8b-4ffa-81c7-391d6629d841","ios":"levelo://app?vid=1312c14b-ab8b-4ffa-81c7-391d6629d841"},"vehicle_type_id":"4","last_reported":1771359903,"current_range_meters":39200,"station_id":"ce4bh4p2rcd13ifvqe1g","pricing_plan_id":"cebpf4jnsgd1na2vs0mg"},{"bike_id":"d97537ae-36ee-4f17-b523-a6c7d44c7ba4","system_id":"levelo_inurba_marseille","lat":43.28658,"lon":5.36353,"is_reserved":false,"is_disabled":false,"rental_uris":{"android":"levelo://app?vid=d97537ae-36ee-4f17-b523-a6c7d44c7ba4","ios":"levelo://app?vid=d97537ae-36ee-4f17-b523-a6c7d44c7ba4"},"vehicle_type_id":"4","last_reported":1771359903,"current_range_meters":37600,"station_id":"ce4bhah2rcd13ifvqej0","pricing_plan_id":"cebpf4jnsgd1na2vs0mg"},{"bike_id":"252b9549-a329-4719-8fa9-46cd4e11de92","system_id":"levelo_inurba_marseille","lat":43.303314,"lon":5.402649,"is_reserved":false,"is_disabled":false,"rental_uris":{"android":"levelo://app?vid=252b9549-a329-4719-8fa9-46cd4e11de92","ios":"levelo://app?vid=252b9549-a329-4719-8fa9-46cd4e11de92"},"vehicle_type_id":"4","last_reported":1771359903,"current_range_meters":10800,"station_id":"","pricing_plan_id":"cebpf4jnsgd1na2vs0mg"},{"bike_id":"19646293-cfd9-4b47-83b4-12ec7e7f9547","system_id":"levelo_inurba_marseille","lat":43.23046,"lon":5.35536,"is_reserved":false,"is_disabled":false,"rental_uris":{"android":"levelo://app?vid=19646293-cfd9-4b47-83b4-12ec7e7f9547","ios":"levelo://app?vid=19646293-cfd9-4b47-83b4-12ec7e7f9547"},"vehicle_type_id":"4","last_reported":1771359903,"current_range_meters":39200,"station_id":"cpo3342slgdg3j2ifvpg","pricing_plan_id":"cebpf4jnsgd1na2vs0mg"},{"bike_id":"4fe1486c-d131-4c1a-b65b-ae3c2f4a4045","system_id":"levelo_inurba_marseille","lat":43.29606,"lon":5.38112,"is_reserved":false,"is_disabled":false,"rental_uris":{"android":"levelo://app?vid=4fe1486c-d131-4c1a-b65b-ae3c2f4a4045","ios":"levelo://app?vid=4fe1486c-d131-4c1a-b65b-ae3c2f4a4045"},"vehicle_type_id":"4","last_reported":1771359903,"current_range_meters":38400,"station_id":"ce4bgl12rcd13ifvqbo0","pricing_plan_id":"cebpf4jnsgd1na2vs0mg"},{"bike_id":"2378b382-40a9-4c25-b5e5-863cfb124533","system_id":"levelo_inurba_marseille","lat":43.24821,"lon":5.37429,"is_reserved":false,"is_disabled":false,"rental_uris":{"android":"levelo://app?vid=2378b382-40a9-4c25-b5e5-863cfb124533","ios":"levelo://app?vid=2378b382-40a9-4c25-b5e5-863cfb124533"},"vehicle_type_id":"4","last_reported":1771359903,"current_range_meters":39200,"station_id":"ce4bhgh2rcd13ifvqfb0","pricing_plan_id":"cebpf4jnsgd1na2vs0mg"},{"bike_id":"806ea4e8-cc70-4baf-a5d9-7617dfd81486","system_id":"levelo_inurba_marseille","lat":43.313652,"lon":5.36703,"is_reserved":false,"is_disabled":true,"rental_uris":{"android":"levelo://app?vid=806ea4e8-cc70-4baf-a5d9-7617dfd81486","ios":"levelo://app?vid=806ea4e8-cc70-4baf-a5d9-7617dfd81486"},"vehicle_type_id":"4","last_reported":1771359903,"current_range_meters":30000,"station_id":"ce4bgrh2rcd13ifvqc8g","pricing_plan_id":"cebpf4jnsgd1na2vs0mg"},{"bike_id":"5fe132fc-2d78-405f-b38f-5bde934a2713","system_id":"levelo_inurba_marseille","lat":43.27815,"lon":5.40725,"is_reserved":false,"is_disabled":false,"rental_uris":{"android":"levelo://app?vid=5fe132fc-2d78-405f-b38f-5bde934a2713","ios":"levelo://app?vid=5fe132fc-2d78-405f-b38f-5bde934a2713"},"vehicle_type_id":"4","last_reported":1771359903,"current_range_meters":19600,"station_id":"ce4bhnh2rcd13ifvqgtg","pricing_plan_id":"cebpf4jnsgd1na2vs0mg"},{"bike_id":"57d39c93-89e8-44cb-bfc5-1cb21d4ac583","system_id":"levelo_inurba_marseille","lat":43.28717,"lon":5.39981,"is_reserved":false,"is_disabled":false,"rental_uris":{"android":"levelo://app?vid=57d39c93-89e8-44cb-bfc5-1cb21d4ac583","ios":"levelo://app?vid=57d39c93-89e8-44cb-bfc5-1cb21d4ac583"},"vehicle_type_id":"4","last_reported":1771359903,"current_range_meters":26800,"station_id":"ce4bho92rcd13ifvqh3g","pricing_plan_id":"cebpf4jnsgd1na2vs0mg"},{"bike_id":"4ae54365-08a4-4214-90ef-eb3c127f344d","system_id":"levelo_inurba_marseille","lat":43.25122,"lon":5.403194,"is_reserved":false,"is_disabled":false,"rental_uris":{"android":"levelo://app?vid=4ae54365-08a4-4214-90ef-eb3c127f344d","ios":"levelo://app?vid=4ae54365-08a4-4214-90ef-eb3c127f344d"},"vehicle_type_id":"4","last_reported":1771359903,"current_range_meters":38400,"station_id":"ce4bhlh2rcd13ifvqgig","pricing_plan_id":"cebpf4jnsgd1na2vs0mg"},{"bike_id":"38035274-1c3e-4698-9764-fe0351f002bc","system_id":"levelo_inurba_marseille","lat":43.28428,"lon":5.34994,"is_reserved":false,"is_disabled":false,"rental_uris":{"android":"levelo://app?vid=38035274-1c3e-4698-9764-fe0351f002bc","ios":"levelo://app?vid=38035274-1c3e-4698-9764-fe0351f002bc"},"vehicle_type_id":"4","last_reported":1771359903,"current_range_meters":22000,"station_id":"ce4bhbh2rcd13ifvqepg","pricing_plan_id":"cebpf4jnsgd1na2vs0mg"},{"bike_id":"5cf34e17-6234-42d4-b0cc-647bc7c6ce27","system_id":"levelo_inurba_marseille","lat":43.31889,"lon":5.40728,"is_reserved":false,"is_disabled":false,"rental_uris":{"android":"levelo://app?vid=5cf34e17-6234-42d4-b0cc-647bc7c6ce27","ios":"levelo://app?vid=5cf34e17-6234-42d4-b0cc-647bc7c6ce27"},"vehicle_type_id":"4","last_reported":1771359903,"current_range_meters":39200,"station_id":"ce4bhq12rcd13ifvqhig","pricing_plan_id":"cebpf4jnsgd1na2vs0mg"},{"bike_id":"0c1481f4-3fb3-4fb6-b890-f767c7cf1052","system_id":"levelo_inurba_marseille","lat":43.23197,"lon":5.39964,"is_reserved":false,"is_disabled":false,"rental_uris":{"android":"levelo://app?vid=0c1481f4-3fb3-4fb6-b890-f767c7cf1052","ios":"levelo://app?vid=0c1481f4-3fb3-4fb6-b890-f767c7cf1052"},"vehicle_type_id":"4","last_reported":1771359903,"current_range_meters":8800,"station_id":"ce4bhn12rcd13ifvqgqg","pricing_plan_id":"cebpf4jnsgd1na2vs0mg"},{"bike_id":"233d0435-985b-4801-a8e5-aec49fd54c71","system_id":"levelo_inurba_marseille","lat":43.29729,"lon":5.36678,"is_reserved":false,"is_disabled":false,"rental_uris":{"android":"levelo://app?vid=233d0435-985b-4801-a8e5-aec49fd54c71","ios":"levelo://app?vid=233d0435-985b-4801-a8e5-aec49fd54c71"},"vehicle_type_id":"4","last_reported":1771359903,"current_range_meters":16800,"station_id":"","pricing_plan_id":"cebpf4jnsgd1na2vs0mg"},{"bike_id":"de548fdd-4d75-45d0-98b5-bf7935d8a529","system_id":"levelo_inurba_marseille","lat":43.295546,"lon":5.374167,"is_reserved":false,"is_disabled":false,"rental_uris":{"android":"levelo://app?vid=de548fdd-4d75-45d0-98b5-bf7935d8a529","ios":"levelo://app?vid=de548fdd-4d75-45d0-98b5-bf7935d8a529"},"vehicle_type_id":"4","last_reported":1771359903,"current_range_meters":10000,"station_id":"ce4bgr92rcd13ifvqc7g","pricing_plan_id":"cebpf4jnsgd1na2vs0mg"},{"bike_id":"4477481c-6ee7-4b64-a85c-b50b2241d99a","system_id":"levelo_inurba_marseille","lat":43.24404,"lon":5.37073,"is_reserved":false,"is_disabled":false,"rental_uris":{"android":"levelo://app?vid=4477481c-6ee7-4b64-a85c-b50b2241d99a","ios":"levelo://app?vid=4477481c-6ee7-4b64-a85c-b50b2241d99a"},"vehicle_type_id":"4","last_reported":1771359903,"current_range_meters":24800,"station_id":"ce4bhhh2rcd13ifvqfk0","pricing_plan_id":"cebpf4jnsgd1na2vs0mg"},{"bike_id":"2acdd632-5939-4755-8df5-db0e237b99fb","system_id":"levelo_inurba_marseille","lat":43.26568,"lon":5.40329,"is_reserved":false,"is_disabled":false,"rental_uris":{"android":"levelo://app?vid=2acdd632-5939-4755-8df5-db0e237b99fb","ios":"levelo://app?vid=2acdd632-5939-4755-8df5-db0e237b99fb"},"vehicle_type_id":"4","last_reported":1771359903,"current_range_meters":25200,"station_id":"ce4bhmp2rcd13ifvqgng","pricing_plan_id":"cebpf4jnsgd1na2vs0mg"},{"bike_id":"24cb7b6e-2362-46af-8f1a-97e7727b6c72","system_id":"levelo_inurba_marseille","lat":43.25592,"lon":5.38225,"is_reserved":false,"is_disabled":false,"rental_uris":{"android":"levelo://app?vid=24cb7b6e-2362-46af-8f1a-97e7727b6c72","ios":"levelo://app?vid=24cb7b6e-2362-46af-8f1a-97e7727b6c72"},"vehicle_type_id":"4","last_reported":1771359903,"current_range_meters":21600,"station_id":"ce4bhih2rcd13ifvqfs0","pricing_plan_id":"cebpf4jnsgd1na2vs0mg"},{"bike_id":"154563d7-c416-4fa7-a542-c2fa7f9eacbc","system_id":"levelo_inurba_marseille","lat":43.284764,"lon":5.484031,"is_reserved":false,"is_disabled":false,"rental_uris":{"android":"levelo://app?vid=154563d7-c416-4fa7-a542-c2fa7f9eacbc","ios":"levelo://app?vid=154563d7-c416-4fa7-a542-c2fa7f9eacbc"},"vehicle_type_id":"4","last_reported":1771359903,"current_range_meters":30000,"station_id":"","pricing_plan_id":"cebpf4jnsgd1na2vs0mg"},{"bike_id":"7d58deb0-d3df-4cba-b032-66e10c7a0925","system_id":"levelo_inurba_marseille","lat":43.2481,"lon":5.37451,"is_reserved":false,"is_disabled":false,"rental_uris":{"android":"levelo://app?vid=7d58deb0-d3df-4cba-b032-66e10c7a0925","ios":"levelo://app?vid=7d58deb0-d3df-4cba-b032-66e10c7a0925"},"vehicle_type_id":"4","last_reported":1771359903,"current_range_meters":30800,"station_id":"ce4bhgh2rcd13ifvqfb0","pricing_plan_id":"cebpf4jnsgd1na2vs0mg"},{"bike_id":"0b24c99d-cb7f-4b2e-b2f3-b1cb63edb789","system_id":"levelo_inurba_marseille","lat":43.29525,"lon":5.39058,"is_reserved":false,"is_disabled":false,"rental_uris":{"android":"levelo://app?vid=0b24c99d-cb7f-4b2e-b2f3-b1cb63edb789","ios":"levelo://app?vid=0b24c99d-cb7f-4b2e-b2f3-b1cb63edb789"},"vehicle_type_id":"4","last_reported":1771359903,"current_range_meters":11200,"station_id":"ce4bh3p2rcd13ifvqdp0","pricing_plan_id":"cebpf4jnsgd1na2vs0mg"},{"bike_id":"b20b74a5-2b7e-49d3-ae44-1cf4c91f5db3","system_id":"levelo_inurba_marseille","lat":43.22558,"lon":5.41634,"is_reserved":false,"is_disabled":false,"rental_uris":{"android":"levelo://app?vid=b20b74a5-2b7e-49d3-ae44-1cf4c91f5db3","ios":"levelo://app?vid=b20b74a5-2b7e-49d3-ae44-1cf4c91f5db3"},"vehicle_type_id":"4","last_reported":1771359903,"current_range_meters":4800,"station_id":"st_d2o4gvlbi1j2169b742g","pricing_plan_id":"cebpf4jnsgd1na2vs0mg"},{"bike_id":"2e62e3c6-0b27-4130-bb68-0925f0a95e9a","system_id":"levelo_inurba_marseille","lat":43.27315,"lon":5.39065,"is_reserved":false,"is_disabled":true,"rental_uris":{"android":"levelo://app?vid=2e62e3c6-0b27-4130-bb68-0925f0a95e9a","ios":"levelo://app?vid=2e62e3c6-0b27-4130-bb68-0925f0a95e9a"},"vehicle_type_id":"4","last_reported":1771359903,"current_range_meters":32800,"station_id":"ce4bhgp2rcd13ifvqfe0","pricing_plan_id":"cebpf4jnsgd1na2vs0mg"},{"bike_id":"220cefcc-9413-4a04-8be2-d38b460fccf6","system_id":"levelo_inurba_marseille","lat":43.26488,"lon":5.39567,"is_reserved":false,"is_disabled":false,"rental_uris":{"android":"levelo://app?vid=220cefcc-9413-4a04-8be2-d38b460fccf6","ios":"levelo://app?vid=220cefcc-9413-4a04-8be2-d38b460fccf6"},"vehicle_type_id":"4","last_reported":1771359903,"current_range_meters":32000,"station_id":"ce4bhi12rcd13ifvqfq0","pricing_plan_id":"cebpf4jnsgd1na2vs0mg"},{"bike_id":"016e4389-a149-4190-8f7a-e29c62519426","system_id":"levelo_inurba_marseille","lat":43.31078,"lon":5.42444,"is_reserved":false,"is_disabled":false,"rental_uris":{"android":"levelo://app?vid=016e4389-a149-4190-8f7a-e29c62519426","ios":"levelo://app?vid=016e4389-a149-4190-8f7a-e29c62519426"},"vehicle_type_id":"4","last_reported":1771359903,"current_range_meters":24000,"station_id":"ce4bhp92rcd13ifvqhag","pricing_plan_id":"cebpf4jnsgd1na2vs0mg"},{"bike_id":"d541d312-8957-468f-98f5-5438278aaf0a","system_id":"levelo_inurba_marseille","lat":43.30306,"lon":5.36886,"is_reserved":false,"is_disabled":false,"rental_uris":{"android":"levelo://app?vid=d541d312-8957-468f-98f5-5438278aaf0a","ios":"levelo://app?vid=d541d312-8957-468f-98f5-5438278aaf0a"},"vehicle_type_id":"4","last_reported":1771359903,"current_range_meters":22800,"station_id":"ce4bgqh2rcd13ifvqc5g","pricing_plan_id":"cebpf4jnsgd1na2vs0mg"},{"bike_id":"dcfc4996-4d68-4874-bf59-5ac226b21e31","system_id":"levelo_inurba_marseille","lat":43.29181,"lon":5.35813,"is_reserved":false,"is_disabled":false,"rental_uris":{"android":"levelo://app?vid=dcfc4996-4d68-4874-bf59-5ac226b21e31","ios":"levelo://app?vid=dcfc4996-4d68-4874-bf59-5ac226b21e31"},"vehicle_type_id":"4","last_reported":1771359903,"current_range_meters":36800,"station_id":"ce4bhb12rcd13ifvqel0","pricing_plan_id":"cebpf4jnsgd1na2vs0mg"},{"bike_id":"e9be978a-fe42-4e37-8c73-6b487f73cb3e","system_id":"levelo_inurba_marseille","lat":43.29624,"lon":5.38103,"is_reserved":false,"is_disabled":false,"rental_uris":{"android":"levelo://app?vid=e9be978a-fe42-4e37-8c73-6b487f73cb3e","ios":"levelo://app?vid=e9be978a-fe42-4e37-8c73-6b487f73cb3e"},"vehicle_type_id":"4","last_reported":1771359903,"current_range_meters":35200,"station_id":"ce4bgl12rcd13ifvqbo0","pricing_plan_id":"cebpf4jnsgd1na2vs0mg"},{"bike_id":"ae856a39-f29a-4e7b-92fd-4cf9b8e26220","system_id":"levelo_inurba_marseille","lat":43.28488,"lon":5.38415,"is_reserved":false,"is_disabled":false,"rental_uris":{"android":"levelo://app?vid=ae856a39-f29a-4e7b-92fd-4cf9b8e26220","ios":"levelo://app?vid=ae856a39-f29a-4e7b-92fd-4cf9b8e26220"},"vehicle_type_id":"4","last_reported":1771359903,"current_range_meters":39200,"station_id":"ce4bh512rcd13ifvqe3g","pricing_plan_id":"cebpf4jnsgd1na2vs0mg"},{"bike_id":"d2caf9d8-1a11-4658-97a9-300561939203","system_id":"levelo_inurba_marseille","lat":43.22925,"lon":5.35399,"is_reserved":false,"is_disabled":false,"rental_uris":{"android":"levelo://app?vid=d2caf9d8-1a11-4658-97a9-300561939203","ios":"levelo://app?vid=d2caf9d8-1a11-4658-97a9-300561939203"},"vehicle_type_id":"4","last_reported":1771359903,"current_range_meters":35600,"station_id":"cpo3532slgdg3j2ikp40","pricing_plan_id":"cebpf4jnsgd1na2vs0mg"},{"bike_id":"f24fb0ee-87d2-499a-896b-a0906dffe0dd","system_id":"levelo_inurba_marseille","lat":43.29596,"lon":5.36745,"is_reserved":false,"is_disabled":false,"rental_uris":{"android":"levelo://app?vid=f24fb0ee-87d2-499a-896b-a0906dffe0dd","ios":"levelo://app?vid=f24fb0ee-87d2-499a-896b-a0906dffe0dd"},"vehicle_type_id":"4","last_reported":1771359903,"current_range_meters":3600,"station_id":"ce4bgph2rcd13ifvqc2g","pricing_plan_id":"cebpf4jnsgd1na2vs0mg"},{"bike_id":"9e38c52b-b45e-465e-8696-7afaa81d5820","system_id":"levelo_inurba_marseille","lat":43.25582,"lon":5.38242,"is_reserved":false,"is_disabled":false,"rental_uris":{"android":"levelo://app?vid=9e38c52b-b45e-465e-8696-7afaa81d5820","ios":"levelo://app?vid=9e38c52b-b45e-465e-8696-7afaa81d5820"},"vehicle_type_id":"4","last_reported":1771359903,"current_range_meters":33600,"station_id":"ce4bhih2rcd13ifvqfs0","pricing_plan_id":"cebpf4jnsgd1na2vs0mg"},{"bike_id":"1de97570-ae76-4d69-959d-68b6161997f7","system_id":"levelo_inurba_marseille","lat":43.26516,"lon":5.39545,"is_reserved":false,"is_disabled":false,"rental_uris":{"android":"levelo://app?vid=1de97570-ae76-4d69-959d-68b6161997f7","ios":"levelo://app?vid=1de97570-ae76-4d69-959d-68b6161997f7"},"vehicle_type_id":"4","last_reported":1771359903,"current_range_meters":40000,"station_id":"ce4bhi12rcd13ifvqfq0","pricing_plan_id":"cebpf4jnsgd1na2vs0mg"},{"bike_id":"3b41e299-098a-4799-95cd-1d1c98eef8e8","system_id":"levelo_inurba_marseille","lat":43.31089,"lon":5.37174,"is_reserved":false,"is_disabled":true,"rental_uris":{"android":"levelo://app?vid=3b41e299-098a-4799-95cd-1d1c98eef8e8","ios":"levelo://app?vid=3b41e299-098a-4799-95cd-1d1c98eef8e8"},"vehicle_type_id":"4","last_reported":1771359903,"current_range_meters":38800,"station_id":"st_d4kl2rp97mjs73e7tdfg","pricing_plan_id":"cebpf4jnsgd1na2vs0mg"},{"bike_id":"4c4b2d38-e0cd-4075-84ef-befc377b3c30","system_id":"levelo_inurba_marseille","lat":43.23215,"lon":5.39969,"is_reserved":false,"is_disabled":false,"rental_uris":{"android":"levelo://app?vid=4c4b2d38-e0cd-4075-84ef-befc377b3c30","ios":"levelo://app?vid=4c4b2d38-e0cd-4075-84ef-befc377b3c30"},"vehicle_type_id":"4","last_reported":1771359903,"current_range_meters":22400,"station_id":"ce4bhn12rcd13ifvqgqg","pricing_plan_id":"cebpf4jnsgd1na2vs0mg"},{"bike_id":"606a7fcb-ce29-477b-8d59-53b44ec79503","system_id":"levelo_inurba_marseille","lat":43.28353,"lon":5.38108,"is_reserved":false,"is_disabled":false,"rental_uris":{"android":"levelo://app?vid=606a7fcb-ce29-477b-8d59-53b44ec79503","ios":"levelo://app?vid=606a7fcb-ce29-477b-8d59-53b44ec79503"},"vehicle_type_id":"4","last_reported":1771359903,"current_range_meters":36000,"station_id":"ce4bh412rcd13ifvqdr0","pricing_plan_id":"cebpf4jnsgd1na2vs0mg"},{"bike_id":"d45a74d6-b2fb-4c09-b189-6500a31116a6","system_id":"levelo_inurba_marseille","lat":43.2978,"lon":5.39358,"is_reserved":false,"is_disabled":false,"rental_uris":{"android":"levelo://app?vid=d45a74d6-b2fb-4c09-b189-6500a31116a6","ios":"levelo://app?vid=d45a74d6-b2fb-4c09-b189-6500a31116a6"},"vehicle_type_id":"4","last_reported":1771359903,"current_range_meters":26800,"station_id":"chh1huq6cuj3fo74tm60","pricing_plan_id":"cebpf4jnsgd1na2vs0mg"},{"bike_id":"38c77bad-2974-430e-b0cc-cadbbf837617","system_id":"levelo_inurba_marseille","lat":43.284757,"lon":5.483999,"is_reserved":false,"is_disabled":false,"rental_uris":{"android":"levelo://app?vid=38c77bad-2974-430e-b0cc-cadbbf837617","ios":"levelo://app?vid=38c77bad-2974-430e-b0cc-cadbbf837617"},"vehicle_type_id":"4","last_reported":1771359903,"current_range_meters":17200,"station_id":"","pricing_plan_id":"cebpf4jnsgd1na2vs0mg"},{"bike_id":"4aa80c02-2128-444f-a9a4-268d19aa2420","system_id":"levelo_inurba_marseille","lat":43.24471,"lon":5.42531,"is_reserved":false,"is_disabled":false,"rental_uris":{"android":"levelo://app?vid=4aa80c02-2128-444f-a9a4-268d19aa2420","ios":"levelo://app?vid=4aa80c02-2128-444f-a9a4-268d19aa2420"},"vehicle_type_id":"4","last_reported":1771359903,"current_range_meters":22800,"station_id":"st_d4a3vfp97mjs738cd8kg","pricing_plan_id":"cebpf4jnsgd1na2vs0mg"},{"bike_id":"8e8da903-a03d-40a0-811b-498a57902980","system_id":"levelo_inurba_marseille","lat":43.2957,"lon":5.39976,"is_reserved":false,"is_disabled":false,"rental_uris":{"android":"levelo://app?vid=8e8da903-a03d-40a0-811b-498a57902980","ios":"levelo://app?vid=8e8da903-a03d-40a0-811b-498a57902980"},"vehicle_type_id":"4","last_reported":1771359903,"current_range_meters":32800,"station_id":"ce4bh312rcd13ifvqdj0","pricing_plan_id":"cebpf4jnsgd1na2vs0mg"},{"bike_id":"22d1bb3b-f1af-43f7-bfee-dba1d668695b","system_id":"levelo_inurba_marseille","lat":43.26568,"lon":5.39005,"is_reserved":false,"is_disabled":false,"rental_uris":{"android":"levelo://app?vid=22d1bb3b-f1af-43f7-bfee-dba1d668695b","ios":"levelo://app?vid=22d1bb3b-f1af-43f7-bfee-dba1d668695b"},"vehicle_type_id":"4","last_reported":1771359903,"current_range_meters":16800,"station_id":"ce4bhe12rcd13ifvqf30","pricing_plan_id":"cebpf4jnsgd1na2vs0mg"},{"bike_id":"b1b97095-599c-4f9a-a098-49f06d4d9de4","system_id":"levelo_inurba_marseille","lat":43.31599,"lon":5.38749,"is_reserved":false,"is_disabled":false,"rental_uris":{"android":"levelo://app?vid=b1b97095-599c-4f9a-a098-49f06d4d9de4","ios":"levelo://app?vid=b1b97095-599c-4f9a-a098-49f06d4d9de4"},"vehicle_type_id":"4","last_reported":1771359903,"current_range_meters":6000,"station_id":"","pricing_plan_id":"cebpf4jnsgd1na2vs0mg"},{"bike_id":"68274cbd-590c-45aa-9a28-61b725a4285b","system_id":"levelo_inurba_marseille","lat":43.24169,"lon":5.36418,"is_reserved":false,"is_disabled":true,"rental_uris":{"android":"levelo://app?vid=68274cbd-590c-45aa-9a28-61b725a4285b","ios":"levelo://app?vid=68274cbd-590c-45aa-9a28-61b725a4285b"},"vehicle_type_id":"4","last_reported":1771359903,"current_range_meters":22000,"station_id":"cpo36qri1sfpv3e86is0","pricing_plan_id":"cebpf4jnsgd1na2vs0mg"},{"bike_id":"58108626-63f7-4df8-b035-98e7008616ae","system_id":"levelo_inurba_marseille","lat":43.29253,"lon":5.38449,"is_reserved":false,"is_disabled":false,"rental_uris":{"android":"levelo://app?vid=58108626-63f7-4df8-b035-98e7008616ae","ios":"levelo://app?vid=58108626-63f7-4df8-b035-98e7008616ae"},"vehicle_type_id":"4","last_reported":1771359903,"current_range_meters":18000,"station_id":"ce4bh692rcd13ifvqea0","pricing_plan_id":"cebpf4jnsgd1na2vs0mg"},{"bike_id":"40eeeab4-41c7-4c71-8808-5d3468b1f11d","system_id":"levelo_inurba_marseille","lat":43.2872,"lon":5.37916,"is_reserved":false,"is_disabled":false,"rental_uris":{"android":"levelo://app?vid=40eeeab4-41c7-4c71-8808-5d3468b1f11d","ios":"levelo://app?vid=40eeeab4-41c7-4c71-8808-5d3468b1f11d"},"vehicle_type_id":"4","last_reported":1771359903,"current_range_meters":11600,"station_id":"ce4bh9p2rcd13ifvqec0","pricing_plan_id":"cebpf4jnsgd1na2vs0mg"},{"bike_id":"6519ffcc-e63c-44b1-aec4-9b1a3b8e7dba","system_id":"levelo_inurba_marseille","lat":43.25578,"lon":5.3824,"is_reserved":false,"is_disabled":false,"rental_uris":{"android":"levelo://app?vid=6519ffcc-e63c-44b1-aec4-9b1a3b8e7dba","ios":"levelo://app?vid=6519ffcc-e63c-44b1-aec4-9b1a3b8e7dba"},"vehicle_type_id":"4","last_reported":1771359903,"current_range_meters":28400,"station_id":"ce4bhih2rcd13ifvqfs0","pricing_plan_id":"cebpf4jnsgd1na2vs0mg"},{"bike_id":"1ce24394-305c-4488-b178-aa7abf68971e","system_id":"levelo_inurba_marseille","lat":43.27379,"lon":5.36252,"is_reserved":false,"is_disabled":false,"rental_uris":{"android":"levelo://app?vid=1ce24394-305c-4488-b178-aa7abf68971e","ios":"levelo://app?vid=1ce24394-305c-4488-b178-aa7abf68971e"},"vehicle_type_id":"4","last_reported":1771359903,"current_range_meters":17200,"station_id":"ce4bhbh2rcd13ifvqeo0","pricing_plan_id":"cebpf4jnsgd1na2vs0mg"},{"bike_id":"62fa60e4-871f-4c91-8a1a-bd1faf4d3dcb","system_id":"levelo_inurba_marseille","lat":43.29518,"lon":5.37513,"is_reserved":false,"is_disabled":false,"rental_uris":{"android":"levelo://app?vid=62fa60e4-871f-4c91-8a1a-bd1faf4d3dcb","ios":"levelo://app?vid=62fa60e4-871f-4c91-8a1a-bd1faf4d3dcb"},"vehicle_type_id":"4","last_reported":1771359903,"current_range_meters":22800,"station_id":"ce4bgkp2rcd13ifvqbmg","pricing_plan_id":"cebpf4jnsgd1na2vs0mg"},{"bike_id":"73ca6e34-d057-4fe3-9b77-caa0c62686b4","system_id":"levelo_inurba_marseille","lat":43.30336,"lon":5.40477,"is_reserved":false,"is_disabled":false,"rental_uris":{"android":"levelo://app?vid=73ca6e34-d057-4fe3-9b77-caa0c62686b4","ios":"levelo://app?vid=73ca6e34-d057-4fe3-9b77-caa0c62686b4"},"vehicle_type_id":"4","last_reported":1771359903,"current_range_meters":29600,"station_id":"ce4bh012rcd13ifvqd10","pricing_plan_id":"cebpf4jnsgd1na2vs0mg"},{"bike_id":"43ee0588-c27a-4ccf-a93d-19fae64c8940","system_id":"levelo_inurba_marseille","lat":43.26067,"lon":5.3937,"is_reserved":false,"is_disabled":false,"rental_uris":{"android":"levelo://app?vid=43ee0588-c27a-4ccf-a93d-19fae64c8940","ios":"levelo://app?vid=43ee0588-c27a-4ccf-a93d-19fae64c8940"},"vehicle_type_id":"4","last_reported":1771359903,"current_range_meters":39200,"station_id":"ce4bhh92rcd13ifvqfj0","pricing_plan_id":"cebpf4jnsgd1na2vs0mg"},{"bike_id":"51856490-b1ea-41ec-b7e3-1417d88d36a2","system_id":"levelo_inurba_marseille","lat":43.25094,"lon":5.39492,"is_reserved":false,"is_disabled":false,"rental_uris":{"android":"levelo://app?vid=51856490-b1ea-41ec-b7e3-1417d88d36a2","ios":"levelo://app?vid=51856490-b1ea-41ec-b7e3-1417d88d36a2"},"vehicle_type_id":"4","last_reported":1771359903,"current_range_meters":39200,"station_id":"ce4bhm12rcd13ifvqgkg","pricing_plan_id":"cebpf4jnsgd1na2vs0mg"},{"bike_id":"e9991c87-6785-4dbb-814f-912667b2e07d","system_id":"levelo_inurba_marseille","lat":43.270703,"lon":5.42271,"is_reserved":false,"is_disabled":false,"rental_uris":{"android":"levelo://app?vid=e9991c87-6785-4dbb-814f-912667b2e07d","ios":"levelo://app?vid=e9991c87-6785-4dbb-814f-912667b2e07d"},"vehicle_type_id":"4","last_reported":1771359903,"current_range_meters":40000,"station_id":"ce4bhk92rcd13ifvqgb0","pricing_plan_id":"cebpf4jnsgd1na2vs0mg"},{"bike_id":"fb477532-a37b-427f-996e-162bf3bef713","system_id":"levelo_inurba_marseille","lat":43.29003,"lon":5.38138,"is_reserved":false,"is_disabled":false,"rental_uris":{"android":"levelo://app?vid=fb477532-a37b-427f-996e-162bf3bef713","ios":"levelo://app?vid=fb477532-a37b-427f-996e-162bf3bef713"},"vehicle_type_id":"4","last_reported":1771359903,"current_range_meters":28400,"station_id":"ce4bh4p2rcd13ifvqe1g","pricing_plan_id":"cebpf4jnsgd1na2vs0mg"},{"bike_id":"62c4ee00-00d3-4573-89db-bcd49a4e4fd7","system_id":"levelo_inurba_marseille","lat":43.270734,"lon":5.422846,"is_reserved":false,"is_disabled":false,"rental_uris":{"android":"levelo://app?vid=62c4ee00-00d3-4573-89db-bcd49a4e4fd7","ios":"levelo://app?vid=62c4ee00-00d3-4573-89db-bcd49a4e4fd7"},"vehicle_type_id":"4","last_reported":1771359903,"current_range_meters":35600,"station_id":"ce4bhk92rcd13ifvqgb0","pricing_plan_id":"cebpf4jnsgd1na2vs0mg"},{"bike_id":"eee86da4-3e34-439e-b8c9-f79c4c504015","system_id":"levelo_inurba_marseille","lat":43.29573,"lon":5.37536,"is_reserved":false,"is_disabled":false,"rental_uris":{"android":"levelo://app?vid=eee86da4-3e34-439e-b8c9-f79c4c504015","ios":"levelo://app?vid=eee86da4-3e34-439e-b8c9-f79c4c504015"},"vehicle_type_id":"4","last_reported":1771359903,"current_range_meters":26800,"station_id":"ce4bgh92rcd13ifvqb50","pricing_plan_id":"cebpf4jnsgd1na2vs0mg"},{"bike_id":"b0ec81ff-dda6-4283-8aeb-3f480899c63f","system_id":"levelo_inurba_marseille","lat":43.290328,"lon":5.386333,"is_reserved":false,"is_disabled":false,"rental_uris":{"android":"levelo://app?vid=b0ec81ff-dda6-4283-8aeb-3f480899c63f","ios":"levelo://app?vid=b0ec81ff-dda6-4283-8aeb-3f480899c63f"},"vehicle_type_id":"4","last_reported":1771359903,"current_range_meters":39200,"station_id":"ce4bh4p2rcd13ifvqe0g","pricing_plan_id":"cebpf4jnsgd1na2vs0mg"},{"bike_id":"0cfceae5-a32b-4c1f-b802-b5e4660a01e1","system_id":"levelo_inurba_marseille","lat":43.28888,"lon":5.35859,"is_reserved":false,"is_disabled":false,"rental_uris":{"android":"levelo://app?vid=0cfceae5-a32b-4c1f-b802-b5e4660a01e1","ios":"levelo://app?vid=0cfceae5-a32b-4c1f-b802-b5e4660a01e1"},"vehicle_type_id":"4","last_reported":1771359903,"current_range_meters":37600,"station_id":"ce4bhb12rcd13ifvqem0","pricing_plan_id":"cebpf4jnsgd1na2vs0mg"},{"bike_id":"d5fe3e37-6d89-4e6d-b318-54196ffd1123","system_id":"levelo_inurba_marseille","lat":43.289828,"lon":5.387531,"is_reserved":false,"is_disabled":false,"rental_uris":{"android":"levelo://app?vid=d5fe3e37-6d89-4e6d-b318-54196ffd1123","ios":"levelo://app?vid=d5fe3e37-6d89-4e6d-b318-54196ffd1123"},"vehicle_type_id":"4","last_reported":1771359903,"current_range_meters":4000,"station_id":"","pricing_plan_id":"cebpf4jnsgd1na2vs0mg"},{"bike_id":"fd120410-c4a6-4872-a15e-73e33a0c8e13","system_id":"levelo_inurba_marseille","lat":43.28009,"lon":5.36938,"is_reserved":false,"is_disabled":false,"rental_uris":{"android":"levelo://app?vid=fd120410-c4a6-4872-a15e-73e33a0c8e13","ios":"levelo://app?vid=fd120410-c4a6-4872-a15e-73e33a0c8e13"},"vehicle_type_id":"4","last_reported":1771359903,"current_range_meters":30000,"station_id":"ce4bha12rcd13ifvqef0","pricing_plan_id":"cebpf4jnsgd1na2vs0mg"},{"bike_id":"6874a728-2036-45e6-b6c2-69ff6fd8b41b","system_id":"levelo_inurba_marseille","lat":43.26509,"lon":5.39541,"is_reserved":false,"is_disabled":false,"rental_uris":{"android":"levelo://app?vid=6874a728-2036-45e6-b6c2-69ff6fd8b41b","ios":"levelo://app?vid=6874a728-2036-45e6-b6c2-69ff6fd8b41b"},"vehicle_type_id":"4","last_reported":1771359903,"current_range_meters":17200,"station_id":"ce4bhi12rcd13ifvqfq0","pricing_plan_id":"cebpf4jnsgd1na2vs0mg"},{"bike_id":"c17f44cd-8a4b-4c4e-90da-1b538fcc39f6","system_id":"levelo_inurba_marseille","lat":43.297003,"lon":5.376916,"is_reserved":false,"is_disabled":false,"rental_uris":{"android":"levelo://app?vid=c17f44cd-8a4b-4c4e-90da-1b538fcc39f6","ios":"levelo://app?vid=c17f44cd-8a4b-4c4e-90da-1b538fcc39f6"},"vehicle_type_id":"4","last_reported":1771359903,"current_range_meters":33200,"station_id":"ce4bh4p2rcd13ifvqe1g","pricing_plan_id":"cebpf4jnsgd1na2vs0mg"},{"bike_id":"5c72476a-9212-4c44-ab1d-c5117cf2ed5f","system_id":"levelo_inurba_marseille","lat":43.33541,"lon":5.37459,"is_reserved":false,"is_disabled":false,"rental_uris":{"android":"levelo://app?vid=5c72476a-9212-4c44-ab1d-c5117cf2ed5f","ios":"levelo://app?vid=5c72476a-9212-4c44-ab1d-c5117cf2ed5f"},"vehicle_type_id":"4","last_reported":1771359903,"current_range_meters":27600,"station_id":"st_d46tts09ee8s73dlu43g","pricing_plan_id":"cebpf4jnsgd1na2vs0mg"},{"bike_id":"dbdd8196-53c1-4d97-97e1-f913d3089af2","system_id":"levelo_inurba_marseille","lat":43.29041,"lon":5.38609,"is_reserved":false,"is_disabled":false,"rental_uris":{"android":"levelo://app?vid=dbdd8196-53c1-4d97-97e1-f913d3089af2","ios":"levelo://app?vid=dbdd8196-53c1-4d97-97e1-f913d3089af2"},"vehicle_type_id":"4","last_reported":1771359903,"current_range_meters":14000,"station_id":"ce4bh4p2rcd13ifvqe0g","pricing_plan_id":"cebpf4jnsgd1na2vs0mg"},{"bike_id":"fc01cc9d-533a-4c48-813b-04abe2bf0ba6","system_id":"levelo_inurba_marseille","lat":43.29763,"lon":5.42785,"is_reserved":false,"is_disabled":false,"rental_uris":{"android":"levelo://app?vid=fc01cc9d-533a-4c48-813b-04abe2bf0ba6","ios":"levelo://app?vid=fc01cc9d-533a-4c48-813b-04abe2bf0ba6"},"vehicle_type_id":"4","last_reported":1771359903,"current_range_meters":34000,"station_id":"st_d3md5207bmas73dh9klg","pricing_plan_id":"cebpf4jnsgd1na2vs0mg"},{"bike_id":"24e98e5d-096e-4b5b-a836-ec8cf23bd5a0","system_id":"levelo_inurba_marseille","lat":43.24828,"lon":5.37428,"is_reserved":false,"is_disabled":false,"rental_uris":{"android":"levelo://app?vid=24e98e5d-096e-4b5b-a836-ec8cf23bd5a0","ios":"levelo://app?vid=24e98e5d-096e-4b5b-a836-ec8cf23bd5a0"},"vehicle_type_id":"4","last_reported":1771359903,"current_range_meters":22800,"station_id":"ce4bhgh2rcd13ifvqfb0","pricing_plan_id":"cebpf4jnsgd1na2vs0mg"},{"bike_id":"53aa1b58-0cf2-4281-8aca-5dbc346c9e9e","system_id":"levelo_inurba_marseille","lat":43.28001,"lon":5.4167,"is_reserved":false,"is_disabled":false,"rental_uris":{"android":"levelo://app?vid=53aa1b58-0cf2-4281-8aca-5dbc346c9e9e","ios":"levelo://app?vid=53aa1b58-0cf2-4281-8aca-5dbc346c9e9e"},"vehicle_type_id":"4","last_reported":1771359903,"current_range_meters":10000,"station_id":"ce4bho12rcd13ifvqh1g","pricing_plan_id":"cebpf4jnsgd1na2vs0mg"},{"bike_id":"819da65f-4600-4ae7-b59f-7223a1bca979","system_id":"levelo_inurba_marseille","lat":43.24812,"lon":5.37463,"is_reserved":false,"is_disabled":false,"rental_uris":{"android":"levelo://app?vid=819da65f-4600-4ae7-b59f-7223a1bca979","ios":"levelo://app?vid=819da65f-4600-4ae7-b59f-7223a1bca979"},"vehicle_type_id":"4","last_reported":1771359903,"current_range_meters":39200,"station_id":"ce4bhgh2rcd13ifvqfb0","pricing_plan_id":"cebpf4jnsgd1na2vs0mg"},{"bike_id":"c6b89208-df95-4016-b6a6-e7860bb27cba","system_id":"levelo_inurba_marseille","lat":43.33557,"lon":5.37474,"is_reserved":false,"is_disabled":false,"rental_uris":{"android":"levelo://app?vid=c6b89208-df95-4016-b6a6-e7860bb27cba","ios":"levelo://app?vid=c6b89208-df95-4016-b6a6-e7860bb27cba"},"vehicle_type_id":"4","last_reported":1771359903,"current_range_meters":27600,"station_id":"st_d46tts09ee8s73dlu43g","pricing_plan_id":"cebpf4jnsgd1na2vs0mg"},{"bike_id":"ebf533ed-0e3f-4d9c-b63c-501b6b712c63","system_id":"levelo_inurba_marseille","lat":43.29903,"lon":5.39737,"is_reserved":false,"is_disabled":false,"rental_uris":{"android":"levelo://app?vid=ebf533ed-0e3f-4d9c-b63c-501b6b712c63","ios":"levelo://app?vid=ebf533ed-0e3f-4d9c-b63c-501b6b712c63"},"vehicle_type_id":"4","last_reported":1771359903,"current_range_meters":15200,"station_id":"ce4bh0h2rcd13ifvqd50","pricing_plan_id":"cebpf4jnsgd1na2vs0mg"},{"bike_id":"e0fe6c86-69d9-4bdb-96be-fbef68d2b285","system_id":"levelo_inurba_marseille","lat":43.28449,"lon":5.38378,"is_reserved":false,"is_disabled":false,"rental_uris":{"android":"levelo://app?vid=e0fe6c86-69d9-4bdb-96be-fbef68d2b285","ios":"levelo://app?vid=e0fe6c86-69d9-4bdb-96be-fbef68d2b285"},"vehicle_type_id":"4","last_reported":1771359903,"current_range_meters":4400,"station_id":"ce4bh512rcd13ifvqe3g","pricing_plan_id":"cebpf4jnsgd1na2vs0mg"},{"bike_id":"cba59a9d-c58d-4a67-a69b-b0c3f03357f2","system_id":"levelo_inurba_marseille","lat":43.33125,"lon":5.39271,"is_reserved":false,"is_disabled":false,"rental_uris":{"android":"levelo://app?vid=cba59a9d-c58d-4a67-a69b-b0c3f03357f2","ios":"levelo://app?vid=cba59a9d-c58d-4a67-a69b-b0c3f03357f2"},"vehicle_type_id":"4","last_reported":1771359903,"current_range_meters":19600,"station_id":"","pricing_plan_id":"cebpf4jnsgd1na2vs0mg"},{"bike_id":"0d56c936-b384-4851-bbb5-943b49818f15","system_id":"levelo_inurba_marseille","lat":43.28616,"lon":5.35097,"is_reserved":false,"is_disabled":false,"rental_uris":{"android":"levelo://app?vid=0d56c936-b384-4851-bbb5-943b49818f15","ios":"levelo://app?vid=0d56c936-b384-4851-bbb5-943b49818f15"},"vehicle_type_id":"4","last_reported":1771359903,"current_range_meters":11200,"station_id":"ce4bhch2rcd13ifvqeug","pricing_plan_id":"cebpf4jnsgd1na2vs0mg"},{"bike_id":"37e06210-33d1-49b6-b4b7-edff021bda30","system_id":"levelo_inurba_marseille","lat":43.32112,"lon":5.36804,"is_reserved":false,"is_disabled":false,"rental_uris":{"android":"levelo://app?vid=37e06210-33d1-49b6-b4b7-edff021bda30","ios":"levelo://app?vid=37e06210-33d1-49b6-b4b7-edff021bda30"},"vehicle_type_id":"4","last_reported":1771359903,"current_range_meters":22000,"station_id":"ce4bhrh2rcd13ifvqhug","pricing_plan_id":"cebpf4jnsgd1na2vs0mg"},{"bike_id":"6e31aed5-b016-4873-b3e5-55d6cf695abd","system_id":"levelo_inurba_marseille","lat":43.26958,"lon":5.38645,"is_reserved":false,"is_disabled":false,"rental_uris":{"android":"levelo://app?vid=6e31aed5-b016-4873-b3e5-55d6cf695abd","ios":"levelo://app?vid=6e31aed5-b016-4873-b3e5-55d6cf695abd"},"vehicle_type_id":"4","last_reported":1771359903,"current_range_meters":16400,"station_id":"ce4bhh92rcd13ifvqfh0","pricing_plan_id":"cebpf4jnsgd1na2vs0mg"},{"bike_id":"9cb74265-5de6-40fe-bfec-dbba4c0edacf","system_id":"levelo_inurba_marseille","lat":43.24665,"lon":5.3813,"is_reserved":false,"is_disabled":false,"rental_uris":{"android":"levelo://app?vid=9cb74265-5de6-40fe-bfec-dbba4c0edacf","ios":"levelo://app?vid=9cb74265-5de6-40fe-bfec-dbba4c0edacf"},"vehicle_type_id":"4","last_reported":1771359903,"current_range_meters":14400,"station_id":"ce4bhih2rcd13ifvqfr0","pricing_plan_id":"cebpf4jnsgd1na2vs0mg"},{"bike_id":"ec723023-d52e-4e05-836a-9da1981ac6c3","system_id":"levelo_inurba_marseille","lat":43.28597,"lon":5.35086,"is_reserved":false,"is_disabled":false,"rental_uris":{"android":"levelo://app?vid=ec723023-d52e-4e05-836a-9da1981ac6c3","ios":"levelo://app?vid=ec723023-d52e-4e05-836a-9da1981ac6c3"},"vehicle_type_id":"4","last_reported":1771359903,"current_range_meters":36000,"station_id":"ce4bhch2rcd13ifvqeug","pricing_plan_id":"cebpf4jnsgd1na2vs0mg"},{"bike_id":"f6bf3518-3b06-47db-9306-b57fa2414892","system_id":"levelo_inurba_marseille","lat":43.29012,"lon":5.38125,"is_reserved":false,"is_disabled":false,"rental_uris":{"android":"levelo://app?vid=f6bf3518-3b06-47db-9306-b57fa2414892","ios":"levelo://app?vid=f6bf3518-3b06-47db-9306-b57fa2414892"},"vehicle_type_id":"4","last_reported":1771359903,"current_range_meters":19200,"station_id":"ce4bh4p2rcd13ifvqe1g","pricing_plan_id":"cebpf4jnsgd1na2vs0mg"},{"bike_id":"2a84dada-a119-4dd5-a0a1-9644ad5b9ada","system_id":"levelo_inurba_marseille","lat":43.23966,"lon":5.3664,"is_reserved":false,"is_disabled":false,"rental_uris":{"android":"levelo://app?vid=2a84dada-a119-4dd5-a0a1-9644ad5b9ada","ios":"levelo://app?vid=2a84dada-a119-4dd5-a0a1-9644ad5b9ada"},"vehicle_type_id":"4","last_reported":1771359903,"current_range_meters":3200,"station_id":"ce4bhi12rcd13ifvqfp0","pricing_plan_id":"cebpf4jnsgd1na2vs0mg"},{"bike_id":"979867e6-f531-4279-b2b8-099588a9201e","system_id":"levelo_inurba_marseille","lat":43.25098,"lon":5.39508,"is_reserved":false,"is_disabled":false,"rental_uris":{"android":"levelo://app?vid=979867e6-f531-4279-b2b8-099588a9201e","ios":"levelo://app?vid=979867e6-f531-4279-b2b8-099588a9201e"},"vehicle_type_id":"4","last_reported":1771359903,"current_range_meters":4000,"station_id":"ce4bhm12rcd13ifvqgkg","pricing_plan_id":"cebpf4jnsgd1na2vs0mg"},{"bike_id":"ad6d85d6-789c-4fb5-b702-1313a4cd817f","system_id":"levelo_inurba_marseille","lat":43.33518,"lon":5.37509,"is_reserved":false,"is_disabled":false,"rental_uris":{"android":"levelo://app?vid=ad6d85d6-789c-4fb5-b702-1313a4cd817f","ios":"levelo://app?vid=ad6d85d6-789c-4fb5-b702-1313a4cd817f"},"vehicle_type_id":"4","last_reported":1771359903,"current_range_meters":17200,"station_id":"","pricing_plan_id":"cebpf4jnsgd1na2vs0mg"},{"bike_id":"2205f806-2b4e-4d2e-9a52-ff5479da41b9","system_id":"levelo_inurba_marseille","lat":43.22924,"lon":5.35397,"is_reserved":false,"is_disabled":false,"rental_uris":{"android":"levelo://app?vid=2205f806-2b4e-4d2e-9a52-ff5479da41b9","ios":"levelo://app?vid=2205f806-2b4e-4d2e-9a52-ff5479da41b9"},"vehicle_type_id":"4","last_reported":1771359903,"current_range_meters":12800,"station_id":"cpo3532slgdg3j2ikp40","pricing_plan_id":"cebpf4jnsgd1na2vs0mg"},{"bike_id":"4ba95c3b-c026-4c62-8562-d1a9d931cdb5","system_id":"levelo_inurba_marseille","lat":43.25337,"lon":5.42173,"is_reserved":false,"is_disabled":false,"rental_uris":{"android":"levelo://app?vid=4ba95c3b-c026-4c62-8562-d1a9d931cdb5","ios":"levelo://app?vid=4ba95c3b-c026-4c62-8562-d1a9d931cdb5"},"vehicle_type_id":"4","last_reported":1771359903,"current_range_meters":27600,"station_id":"st_d2m65c5bi1j21697t3ng","pricing_plan_id":"cebpf4jnsgd1na2vs0mg"},{"bike_id":"36f301fb-c160-4225-9a43-f57e64075002","system_id":"levelo_inurba_marseille","lat":43.305502,"lon":5.365259,"is_reserved":false,"is_disabled":false,"rental_uris":{"android":"levelo://app?vid=36f301fb-c160-4225-9a43-f57e64075002","ios":"levelo://app?vid=36f301fb-c160-4225-9a43-f57e64075002"},"vehicle_type_id":"4","last_reported":1771359903,"current_range_meters":12400,"station_id":"ce4bgs12rcd13ifvqcag","pricing_plan_id":"cebpf4jnsgd1na2vs0mg"},{"bike_id":"99ec35f0-e147-4ca4-ac89-90348b5d45a6","system_id":"levelo_inurba_marseille","lat":43.23195,"lon":5.35552,"is_reserved":false,"is_disabled":false,"rental_uris":{"android":"levelo://app?vid=99ec35f0-e147-4ca4-ac89-90348b5d45a6","ios":"levelo://app?vid=99ec35f0-e147-4ca4-ac89-90348b5d45a6"},"vehicle_type_id":"4","last_reported":1771359903,"current_range_meters":8400,"station_id":"ce4bhu92rcd13ifvqi70","pricing_plan_id":"cebpf4jnsgd1na2vs0mg"},{"bike_id":"85f01765-5f38-432e-984a-21b4c8ec9fb7","system_id":"levelo_inurba_marseille","lat":43.29958,"lon":5.38479,"is_reserved":false,"is_disabled":false,"rental_uris":{"android":"levelo://app?vid=85f01765-5f38-432e-984a-21b4c8ec9fb7","ios":"levelo://app?vid=85f01765-5f38-432e-984a-21b4c8ec9fb7"},"vehicle_type_id":"4","last_reported":1771359903,"current_range_meters":27600,"station_id":"ce4bgj92rcd13ifvqbd0","pricing_plan_id":"cebpf4jnsgd1na2vs0mg"},{"bike_id":"3b4af1bd-7155-46cc-bbe4-71c75df76dd2","system_id":"levelo_inurba_marseille","lat":43.25742,"lon":5.41029,"is_reserved":false,"is_disabled":false,"rental_uris":{"android":"levelo://app?vid=3b4af1bd-7155-46cc-bbe4-71c75df76dd2","ios":"levelo://app?vid=3b4af1bd-7155-46cc-bbe4-71c75df76dd2"},"vehicle_type_id":"4","last_reported":1771359903,"current_range_meters":30000,"station_id":"ce4bhkp2rcd13ifvqgd0","pricing_plan_id":"cebpf4jnsgd1na2vs0mg"},{"bike_id":"46f832db-6db1-4193-9443-e88fffb4a52a","system_id":"levelo_inurba_marseille","lat":43.30941,"lon":5.40141,"is_reserved":false,"is_disabled":false,"rental_uris":{"android":"levelo://app?vid=46f832db-6db1-4193-9443-e88fffb4a52a","ios":"levelo://app?vid=46f832db-6db1-4193-9443-e88fffb4a52a"},"vehicle_type_id":"4","last_reported":1771359903,"current_range_meters":27200,"station_id":"ce4bgvp2rcd13ifvqct0","pricing_plan_id":"cebpf4jnsgd1na2vs0mg"},{"bike_id":"4eab0a12-2f3c-439d-a674-9e7f25cace4a","system_id":"levelo_inurba_marseille","lat":43.31281,"lon":5.40171,"is_reserved":false,"is_disabled":false,"rental_uris":{"android":"levelo://app?vid=4eab0a12-2f3c-439d-a674-9e7f25cace4a","ios":"levelo://app?vid=4eab0a12-2f3c-439d-a674-9e7f25cace4a"},"vehicle_type_id":"4","last_reported":1771359903,"current_range_meters":6800,"station_id":"ce4bh092rcd13ifvqd30","pricing_plan_id":"cebpf4jnsgd1na2vs0mg"},{"bike_id":"cff4a59b-4a5f-4b9f-813d-63f325141d2d","system_id":"levelo_inurba_marseille","lat":43.24936,"lon":5.40489,"is_reserved":false,"is_disabled":false,"rental_uris":{"android":"levelo://app?vid=cff4a59b-4a5f-4b9f-813d-63f325141d2d","ios":"levelo://app?vid=cff4a59b-4a5f-4b9f-813d-63f325141d2d"},"vehicle_type_id":"4","last_reported":1771359903,"current_range_meters":28000,"station_id":"st_d2ngiaodas8pm72gd1h0","pricing_plan_id":"cebpf4jnsgd1na2vs0mg"},{"bike_id":"d800483e-e4b5-4dba-b8af-f5caf11048b6","system_id":"levelo_inurba_marseille","lat":43.298206,"lon":5.440637,"is_reserved":false,"is_disabled":false,"rental_uris":{"android":"levelo://app?vid=d800483e-e4b5-4dba-b8af-f5caf11048b6","ios":"levelo://app?vid=d800483e-e4b5-4dba-b8af-f5caf11048b6"},"vehicle_type_id":"4","last_reported":1771359903,"current_range_meters":26000,"station_id":"st_d3jp68qikq2c7381ktn0","pricing_plan_id":"cebpf4jnsgd1na2vs0mg"},{"bike_id":"810b45c1-5945-4742-896a-5d291fa10e02","system_id":"levelo_inurba_marseille","lat":43.29252,"lon":5.3844,"is_reserved":false,"is_disabled":false,"rental_uris":{"android":"levelo://app?vid=810b45c1-5945-4742-896a-5d291fa10e02","ios":"levelo://app?vid=810b45c1-5945-4742-896a-5d291fa10e02"},"vehicle_type_id":"4","last_reported":1771359903,"current_range_meters":18000,"station_id":"ce4bh692rcd13ifvqea0","pricing_plan_id":"cebpf4jnsgd1na2vs0mg"},{"bike_id":"c18896dc-dcd6-4005-80ac-fa6ffb39ee8f","system_id":"levelo_inurba_marseille","lat":43.27058,"lon":5.40272,"is_reserved":false,"is_disabled":true,"rental_uris":{"android":"levelo://app?vid=c18896dc-dcd6-4005-80ac-fa6ffb39ee8f","ios":"levelo://app?vid=c18896dc-dcd6-4005-80ac-fa6ffb39ee8f"},"vehicle_type_id":"4","last_reported":1771359903,"current_range_meters":32400,"station_id":"ce4bhk92rcd13ifvqgc0","pricing_plan_id":"cebpf4jnsgd1na2vs0mg"},{"bike_id":"a4b28a58-8d4a-4dd2-9c19-faca83eb0428","system_id":"levelo_inurba_marseille","lat":43.29356,"lon":5.37852,"is_reserved":false,"is_disabled":false,"rental_uris":{"android":"levelo://app?vid=a4b28a58-8d4a-4dd2-9c19-faca83eb0428","ios":"levelo://app?vid=a4b28a58-8d4a-4dd2-9c19-faca83eb0428"},"vehicle_type_id":"4","last_reported":1771359903,"current_range_meters":38400,"station_id":"ce4bgjh2rcd13ifvqbf0","pricing_plan_id":"cebpf4jnsgd1na2vs0mg"},{"bike_id":"bd7ab447-da9f-4a0e-a8cf-f8397aa89d64","system_id":"levelo_inurba_marseille","lat":43.29541,"lon":5.37488,"is_reserved":false,"is_disabled":false,"rental_uris":{"android":"levelo://app?vid=bd7ab447-da9f-4a0e-a8cf-f8397aa89d64","ios":"levelo://app?vid=bd7ab447-da9f-4a0e-a8cf-f8397aa89d64"},"vehicle_type_id":"4","last_reported":1771359903,"current_range_meters":24000,"station_id":"ce4bgkp2rcd13ifvqbmg","pricing_plan_id":"cebpf4jnsgd1na2vs0mg"},{"bike_id":"15e1fc28-99d6-43c7-9f32-04379b96a74d","system_id":"levelo_inurba_marseille","lat":43.30147,"lon":5.38772,"is_reserved":false,"is_disabled":false,"rental_uris":{"android":"levelo://app?vid=15e1fc28-99d6-43c7-9f32-04379b96a74d","ios":"levelo://app?vid=15e1fc28-99d6-43c7-9f32-04379b96a74d"},"vehicle_type_id":"4","last_reported":1771359903,"current_range_meters":25600,"station_id":"ce4bghh2rcd13ifvqb60","pricing_plan_id":"cebpf4jnsgd1na2vs0mg"},{"bike_id":"fafd63cc-2841-4f45-9878-ea3ea32210ac","system_id":"levelo_inurba_marseille","lat":43.29627,"lon":5.4397,"is_reserved":false,"is_disabled":false,"rental_uris":{"android":"levelo://app?vid=fafd63cc-2841-4f45-9878-ea3ea32210ac","ios":"levelo://app?vid=fafd63cc-2841-4f45-9878-ea3ea32210ac"},"vehicle_type_id":"4","last_reported":1771359903,"current_range_meters":20800,"station_id":"","pricing_plan_id":"cebpf4jnsgd1na2vs0mg"},{"bike_id":"94be7206-4019-4e13-8173-32e2b499366b","system_id":"levelo_inurba_marseille","lat":43.27997,"lon":5.41663,"is_reserved":false,"is_disabled":false,"rental_uris":{"android":"levelo://app?vid=94be7206-4019-4e13-8173-32e2b499366b","ios":"levelo://app?vid=94be7206-4019-4e13-8173-32e2b499366b"},"vehicle_type_id":"4","last_reported":1771359903,"current_range_meters":11200,"station_id":"ce4bho12rcd13ifvqh1g","pricing_plan_id":"cebpf4jnsgd1na2vs0mg"},{"bike_id":"eab8cb56-68e9-4a88-85f7-973918fac48b","system_id":"levelo_inurba_marseille","lat":43.28664,"lon":5.38676,"is_reserved":false,"is_disabled":false,"rental_uris":{"android":"levelo://app?vid=eab8cb56-68e9-4a88-85f7-973918fac48b","ios":"levelo://app?vid=eab8cb56-68e9-4a88-85f7-973918fac48b"},"vehicle_type_id":"4","last_reported":1771359903,"current_range_meters":24800,"station_id":"ce4bh492rcd13ifvqdug","pricing_plan_id":"cebpf4jnsgd1na2vs0mg"},{"bike_id":"5fe0ea20-36a5-4e78-a8d5-548aefdf5520","system_id":"levelo_inurba_marseille","lat":43.30197,"lon":5.36624,"is_reserved":false,"is_disabled":false,"rental_uris":{"android":"levelo://app?vid=5fe0ea20-36a5-4e78-a8d5-548aefdf5520","ios":"levelo://app?vid=5fe0ea20-36a5-4e78-a8d5-548aefdf5520"},"vehicle_type_id":"4","last_reported":1771359903,"current_range_meters":14000,"station_id":"ce4bgrh2rcd13ifvqc8g","pricing_plan_id":"cebpf4jnsgd1na2vs0mg"},{"bike_id":"ae9a6d79-5477-4af8-ad9f-16f95c8d4a62","system_id":"levelo_inurba_marseille","lat":43.29097,"lon":5.3814,"is_reserved":false,"is_disabled":false,"rental_uris":{"android":"levelo://app?vid=ae9a6d79-5477-4af8-ad9f-16f95c8d4a62","ios":"levelo://app?vid=ae9a6d79-5477-4af8-ad9f-16f95c8d4a62"},"vehicle_type_id":"4","last_reported":1771359903,"current_range_meters":17200,"station_id":"ce4bh512rcd13ifvqe2g","pricing_plan_id":"cebpf4jnsgd1na2vs0mg"},{"bike_id":"091c26ef-a67a-48f4-8694-33aea309e055","system_id":"levelo_inurba_marseille","lat":43.25736,"lon":5.41128,"is_reserved":false,"is_disabled":false,"rental_uris":{"android":"levelo://app?vid=091c26ef-a67a-48f4-8694-33aea309e055","ios":"levelo://app?vid=091c26ef-a67a-48f4-8694-33aea309e055"},"vehicle_type_id":"4","last_reported":1771359903,"current_range_meters":37600,"station_id":"ce4bhkp2rcd13ifvqgd0","pricing_plan_id":"cebpf4jnsgd1na2vs0mg"},{"bike_id":"a6a81681-4b6a-4b37-a5f2-d092bfb159e0","system_id":"levelo_inurba_marseille","lat":43.26082,"lon":5.39465,"is_reserved":false,"is_disabled":false,"rental_uris":{"android":"levelo://app?vid=a6a81681-4b6a-4b37-a5f2-d092bfb159e0","ios":"levelo://app?vid=a6a81681-4b6a-4b37-a5f2-d092bfb159e0"},"vehicle_type_id":"4","last_reported":1771359903,"current_range_meters":37600,"station_id":"","pricing_plan_id":"cebpf4jnsgd1na2vs0mg"},{"bike_id":"a422cbe2-1485-4885-a94e-b526b365eac4","system_id":"levelo_inurba_marseille","lat":43.27999,"lon":5.38756,"is_reserved":false,"is_disabled":true,"rental_uris":{"android":"levelo://app?vid=a422cbe2-1485-4885-a94e-b526b365eac4","ios":"levelo://app?vid=a422cbe2-1485-4885-a94e-b526b365eac4"},"vehicle_type_id":"4","last_reported":1771359903,"current_range_meters":18800,"station_id":"ce4bhg12rcd13ifvqf80","pricing_plan_id":"cebpf4jnsgd1na2vs0mg"},{"bike_id":"d0addae8-3758-4956-867d-9e2fdb78dcfb","system_id":"levelo_inurba_marseille","lat":43.24651,"lon":5.389,"is_reserved":false,"is_disabled":false,"rental_uris":{"android":"levelo://app?vid=d0addae8-3758-4956-867d-9e2fdb78dcfb","ios":"levelo://app?vid=d0addae8-3758-4956-867d-9e2fdb78dcfb"},"vehicle_type_id":"4","last_reported":1771359903,"current_range_meters":18000,"station_id":"ce4bhg12rcd13ifvqf60","pricing_plan_id":"cebpf4jnsgd1na2vs0mg"},{"bike_id":"d5de7bd4-eba0-4aa4-9d8e-a352a4b87ba2","system_id":"levelo_inurba_marseille","lat":43.29521,"lon":5.3785,"is_reserved":false,"is_disabled":false,"rental_uris":{"android":"levelo://app?vid=d5de7bd4-eba0-4aa4-9d8e-a352a4b87ba2","ios":"levelo://app?vid=d5de7bd4-eba0-4aa4-9d8e-a352a4b87ba2"},"vehicle_type_id":"4","last_reported":1771359903,"current_range_meters":34800,"station_id":"","pricing_plan_id":"cebpf4jnsgd1na2vs0mg"},{"bike_id":"75d7ae73-fb00-4d37-81ab-7e01ef083d2d","system_id":"levelo_inurba_marseille","lat":43.25319,"lon":5.42135,"is_reserved":false,"is_disabled":false,"rental_uris":{"android":"levelo://app?vid=75d7ae73-fb00-4d37-81ab-7e01ef083d2d","ios":"levelo://app?vid=75d7ae73-fb00-4d37-81ab-7e01ef083d2d"},"vehicle_type_id":"4","last_reported":1771359903,"current_range_meters":8400,"station_id":"st_d2m65c5bi1j21697t3ng","pricing_plan_id":"cebpf4jnsgd1na2vs0mg"},{"bike_id":"e9be80b4-7a2c-4bb2-8baa-f182f64dba9a","system_id":"levelo_inurba_marseille","lat":43.29885,"lon":5.39731,"is_reserved":false,"is_disabled":false,"rental_uris":{"android":"levelo://app?vid=e9be80b4-7a2c-4bb2-8baa-f182f64dba9a","ios":"levelo://app?vid=e9be80b4-7a2c-4bb2-8baa-f182f64dba9a"},"vehicle_type_id":"4","last_reported":1771359903,"current_range_meters":10800,"station_id":"ce4bh0h2rcd13ifvqd50","pricing_plan_id":"cebpf4jnsgd1na2vs0mg"},{"bike_id":"ac064fc2-6573-4a40-910b-f16cb9a30d31","system_id":"levelo_inurba_marseille","lat":43.29561,"lon":5.38509,"is_reserved":false,"is_disabled":false,"rental_uris":{"android":"levelo://app?vid=ac064fc2-6573-4a40-910b-f16cb9a30d31","ios":"levelo://app?vid=ac064fc2-6573-4a40-910b-f16cb9a30d31"},"vehicle_type_id":"4","last_reported":1771359903,"current_range_meters":38000,"station_id":"","pricing_plan_id":"cebpf4jnsgd1na2vs0mg"},{"bike_id":"52822dfb-05a3-4831-b448-ea2d23feb569","system_id":"levelo_inurba_marseille","lat":43.295374,"lon":5.385406,"is_reserved":false,"is_disabled":false,"rental_uris":{"android":"levelo://app?vid=52822dfb-05a3-4831-b448-ea2d23feb569","ios":"levelo://app?vid=52822dfb-05a3-4831-b448-ea2d23feb569"},"vehicle_type_id":"4","last_reported":1771359903,"current_range_meters":14400,"station_id":"ce4bgih2rcd13ifvqba0","pricing_plan_id":"cebpf4jnsgd1na2vs0mg"},{"bike_id":"740f8f2e-710e-4b2e-8ba1-0f60d50869bd","system_id":"levelo_inurba_marseille","lat":43.28734,"lon":5.36113,"is_reserved":false,"is_disabled":false,"rental_uris":{"android":"levelo://app?vid=740f8f2e-710e-4b2e-8ba1-0f60d50869bd","ios":"levelo://app?vid=740f8f2e-710e-4b2e-8ba1-0f60d50869bd"},"vehicle_type_id":"4","last_reported":1771359903,"current_range_meters":18000,"station_id":"cki0cbj6b192h4jlfktg","pricing_plan_id":"cebpf4jnsgd1na2vs0mg"},{"bike_id":"e9749b0e-def4-4ccd-a6ad-31e91d22746a","system_id":"levelo_inurba_marseille","lat":43.26215,"lon":5.40452,"is_reserved":false,"is_disabled":false,"rental_uris":{"android":"levelo://app?vid=e9749b0e-def4-4ccd-a6ad-31e91d22746a","ios":"levelo://app?vid=e9749b0e-def4-4ccd-a6ad-31e91d22746a"},"vehicle_type_id":"4","last_reported":1771359903,"current_range_meters":30000,"station_id":"ce4bhmh2rcd13ifvqgmg","pricing_plan_id":"cebpf4jnsgd1na2vs0mg"},{"bike_id":"62e692db-f7dc-4aa5-abd5-05a186ddbe25","system_id":"levelo_inurba_marseille","lat":43.29156,"lon":5.37169,"is_reserved":false,"is_disabled":false,"rental_uris":{"android":"levelo://app?vid=62e692db-f7dc-4aa5-abd5-05a186ddbe25","ios":"levelo://app?vid=62e692db-f7dc-4aa5-abd5-05a186ddbe25"},"vehicle_type_id":"4","last_reported":1771359903,"current_range_meters":26000,"station_id":"ce4bha92rcd13ifvqeh0","pricing_plan_id":"cebpf4jnsgd1na2vs0mg"},{"bike_id":"c62c8bb8-5105-49ac-b6a0-75ac314fbf1f","system_id":"levelo_inurba_marseille","lat":43.29822,"lon":5.44075,"is_reserved":false,"is_disabled":false,"rental_uris":{"android":"levelo://app?vid=c62c8bb8-5105-49ac-b6a0-75ac314fbf1f","ios":"levelo://app?vid=c62c8bb8-5105-49ac-b6a0-75ac314fbf1f"},"vehicle_type_id":"4","last_reported":1771359903,"current_range_meters":8000,"station_id":"st_d3jp68qikq2c7381ktn0","pricing_plan_id":"cebpf4jnsgd1na2vs0mg"},{"bike_id":"fd96f353-138d-45da-bff2-6a987a2e0b7b","system_id":"levelo_inurba_marseille","lat":43.29345,"lon":5.37871,"is_reserved":false,"is_disabled":false,"rental_uris":{"android":"levelo://app?vid=fd96f353-138d-45da-bff2-6a987a2e0b7b","ios":"levelo://app?vid=fd96f353-138d-45da-bff2-6a987a2e0b7b"},"vehicle_type_id":"4","last_reported":1771359903,"current_range_meters":38400,"station_id":"ce4bgjh2rcd13ifvqbf0","pricing_plan_id":"cebpf4jnsgd1na2vs0mg"},{"bike_id":"7f8ec848-8645-4d0d-a741-bb2ba6ea7af2","system_id":"levelo_inurba_marseille","lat":43.253463,"lon":5.42182,"is_reserved":false,"is_disabled":false,"rental_uris":{"android":"levelo://app?vid=7f8ec848-8645-4d0d-a741-bb2ba6ea7af2","ios":"levelo://app?vid=7f8ec848-8645-4d0d-a741-bb2ba6ea7af2"},"vehicle_type_id":"4","last_reported":1771359903,"current_range_meters":6800,"station_id":"st_d2m65c5bi1j21697t3ng","pricing_plan_id":"cebpf4jnsgd1na2vs0mg"},{"bike_id":"ba560cac-91c1-471a-aa80-443b30117879","system_id":"levelo_inurba_marseille","lat":43.29246,"lon":5.38441,"is_reserved":false,"is_disabled":false,"rental_uris":{"android":"levelo://app?vid=ba560cac-91c1-471a-aa80-443b30117879","ios":"levelo://app?vid=ba560cac-91c1-471a-aa80-443b30117879"},"vehicle_type_id":"4","last_reported":1771359903,"current_range_meters":39200,"station_id":"ce4bh692rcd13ifvqea0","pricing_plan_id":"cebpf4jnsgd1na2vs0mg"},{"bike_id":"38c30afd-bece-416e-933d-1a2e080dab16","system_id":"levelo_inurba_marseille","lat":43.23253,"lon":5.35531,"is_reserved":false,"is_disabled":false,"rental_uris":{"android":"levelo://app?vid=38c30afd-bece-416e-933d-1a2e080dab16","ios":"levelo://app?vid=38c30afd-bece-416e-933d-1a2e080dab16"},"vehicle_type_id":"4","last_reported":1771359903,"current_range_meters":22800,"station_id":"","pricing_plan_id":"cebpf4jnsgd1na2vs0mg"},{"bike_id":"3f6e6d5b-9c66-4d26-b0b8-f270d679b2a6","system_id":"levelo_inurba_marseille","lat":43.2852,"lon":5.48434,"is_reserved":false,"is_disabled":false,"rental_uris":{"android":"levelo://app?vid=3f6e6d5b-9c66-4d26-b0b8-f270d679b2a6","ios":"levelo://app?vid=3f6e6d5b-9c66-4d26-b0b8-f270d679b2a6"},"vehicle_type_id":"4","last_reported":1771359903,"current_range_meters":8000,"station_id":"st_d3svhcjqgbts73a3dn0g","pricing_plan_id":"cebpf4jnsgd1na2vs0mg"},{"bike_id":"4371905c-f4ad-4a9c-ad81-c2e7501470ec","system_id":"levelo_inurba_marseille","lat":43.27893,"lon":5.37995,"is_reserved":false,"is_disabled":false,"rental_uris":{"android":"levelo://app?vid=4371905c-f4ad-4a9c-ad81-c2e7501470ec","ios":"levelo://app?vid=4371905c-f4ad-4a9c-ad81-c2e7501470ec"},"vehicle_type_id":"4","last_reported":1771359903,"current_range_meters":33200,"station_id":"ce4bhf92rcd13ifvqf50","pricing_plan_id":"cebpf4jnsgd1na2vs0mg"},{"bike_id":"6204de4e-c2ca-41d8-8d5f-db2ef75c6e2c","system_id":"levelo_inurba_marseille","lat":43.30393,"lon":5.3892,"is_reserved":false,"is_disabled":false,"rental_uris":{"android":"levelo://app?vid=6204de4e-c2ca-41d8-8d5f-db2ef75c6e2c","ios":"levelo://app?vid=6204de4e-c2ca-41d8-8d5f-db2ef75c6e2c"},"vehicle_type_id":"4","last_reported":1771359903,"current_range_meters":10000,"station_id":"ce4bgk12rcd13ifvqbi0","pricing_plan_id":"cebpf4jnsgd1na2vs0mg"},{"bike_id":"8afbe5f1-e31f-497c-82ed-db86cdcdec29","system_id":"levelo_inurba_marseille","lat":43.33764,"lon":5.3744,"is_reserved":false,"is_disabled":false,"rental_uris":{"android":"levelo://app?vid=8afbe5f1-e31f-497c-82ed-db86cdcdec29","ios":"levelo://app?vid=8afbe5f1-e31f-497c-82ed-db86cdcdec29"},"vehicle_type_id":"4","last_reported":1771359903,"current_range_meters":24000,"station_id":"","pricing_plan_id":"cebpf4jnsgd1na2vs0mg"},{"bike_id":"1b60499d-1ad5-4151-a6be-cac165979eda","system_id":"levelo_inurba_marseille","lat":43.29901,"lon":5.39767,"is_reserved":false,"is_disabled":false,"rental_uris":{"android":"levelo://app?vid=1b60499d-1ad5-4151-a6be-cac165979eda","ios":"levelo://app?vid=1b60499d-1ad5-4151-a6be-cac165979eda"},"vehicle_type_id":"4","last_reported":1771359903,"current_range_meters":36400,"station_id":"","pricing_plan_id":"cebpf4jnsgd1na2vs0mg"},{"bike_id":"bf763d5f-3925-4930-9d6b-2b57c49f4d4c","system_id":"levelo_inurba_marseille","lat":43.23178,"lon":5.43701,"is_reserved":false,"is_disabled":true,"rental_uris":{"android":"levelo://app?vid=bf763d5f-3925-4930-9d6b-2b57c49f4d4c","ios":"levelo://app?vid=bf763d5f-3925-4930-9d6b-2b57c49f4d4c"},"vehicle_type_id":"4","last_reported":1771359903,"current_range_meters":39200,"station_id":"ce4bhmp2rcd13ifvqgog","pricing_plan_id":"cebpf4jnsgd1na2vs0mg"},{"bike_id":"32964fb5-6dca-474a-8574-fca984f5340f","system_id":"levelo_inurba_marseille","lat":43.24076,"lon":5.3775,"is_reserved":false,"is_disabled":false,"rental_uris":{"android":"levelo://app?vid=32964fb5-6dca-474a-8574-fca984f5340f","ios":"levelo://app?vid=32964fb5-6dca-474a-8574-fca984f5340f"},"vehicle_type_id":"4","last_reported":1771359903,"current_range_meters":38800,"station_id":"ce4bhnp2rcd13ifvqgvg","pricing_plan_id":"cebpf4jnsgd1na2vs0mg"},{"bike_id":"cf657348-7d1b-4093-a144-9f75124506c9","system_id":"levelo_inurba_marseille","lat":43.28849,"lon":5.35872,"is_reserved":false,"is_disabled":false,"rental_uris":{"android":"levelo://app?vid=cf657348-7d1b-4093-a144-9f75124506c9","ios":"levelo://app?vid=cf657348-7d1b-4093-a144-9f75124506c9"},"vehicle_type_id":"4","last_reported":1771359903,"current_range_meters":22000,"station_id":"ce4bhb12rcd13ifvqem0","pricing_plan_id":"cebpf4jnsgd1na2vs0mg"},{"bike_id":"283791dc-d214-48e3-8f4f-83169ba6e613","system_id":"levelo_inurba_marseille","lat":43.30151,"lon":5.39902,"is_reserved":false,"is_disabled":false,"rental_uris":{"android":"levelo://app?vid=283791dc-d214-48e3-8f4f-83169ba6e613","ios":"levelo://app?vid=283791dc-d214-48e3-8f4f-83169ba6e613"},"vehicle_type_id":"4","last_reported":1771359903,"current_range_meters":27600,"station_id":"ce4bh0h2rcd13ifvqd40","pricing_plan_id":"cebpf4jnsgd1na2vs0mg"},{"bike_id":"2328bb42-38da-434f-9da6-21140eda5f58","system_id":"levelo_inurba_marseille","lat":43.29021,"lon":5.38557,"is_reserved":false,"is_disabled":false,"rental_uris":{"android":"levelo://app?vid=2328bb42-38da-434f-9da6-21140eda5f58","ios":"levelo://app?vid=2328bb42-38da-434f-9da6-21140eda5f58"},"vehicle_type_id":"4","last_reported":1771359903,"current_range_meters":39200,"station_id":"ce4bh4p2rcd13ifvqe0g","pricing_plan_id":"cebpf4jnsgd1na2vs0mg"},{"bike_id":"1dd48f8f-cb6b-4d62-b8e8-350c6ef9d882","system_id":"levelo_inurba_marseille","lat":43.28045,"lon":5.36966,"is_reserved":false,"is_disabled":false,"rental_uris":{"android":"levelo://app?vid=1dd48f8f-cb6b-4d62-b8e8-350c6ef9d882","ios":"levelo://app?vid=1dd48f8f-cb6b-4d62-b8e8-350c6ef9d882"},"vehicle_type_id":"4","last_reported":1771359903,"current_range_meters":14800,"station_id":"ce4bha12rcd13ifvqef0","pricing_plan_id":"cebpf4jnsgd1na2vs0mg"},{"bike_id":"3ee955de-ebfc-4597-9214-e3fb8357ac34","system_id":"levelo_inurba_marseille","lat":43.29005,"lon":5.35621,"is_reserved":false,"is_disabled":false,"rental_uris":{"android":"levelo://app?vid=3ee955de-ebfc-4597-9214-e3fb8357ac34","ios":"levelo://app?vid=3ee955de-ebfc-4597-9214-e3fb8357ac34"},"vehicle_type_id":"4","last_reported":1771359903,"current_range_meters":27200,"station_id":"ce4bhb92rcd13ifvqen0","pricing_plan_id":"cebpf4jnsgd1na2vs0mg"},{"bike_id":"545dc8fc-3d05-4488-8a11-59bac457030f","system_id":"levelo_inurba_marseille","lat":43.2962,"lon":5.38115,"is_reserved":false,"is_disabled":false,"rental_uris":{"android":"levelo://app?vid=545dc8fc-3d05-4488-8a11-59bac457030f","ios":"levelo://app?vid=545dc8fc-3d05-4488-8a11-59bac457030f"},"vehicle_type_id":"4","last_reported":1771359903,"current_range_meters":26000,"station_id":"ce4bgl12rcd13ifvqbo0","pricing_plan_id":"cebpf4jnsgd1na2vs0mg"},{"bike_id":"4c414910-202a-4e84-8e4b-c0f0a3714b59","system_id":"levelo_inurba_marseille","lat":43.29532,"lon":5.38552,"is_reserved":false,"is_disabled":false,"rental_uris":{"android":"levelo://app?vid=4c414910-202a-4e84-8e4b-c0f0a3714b59","ios":"levelo://app?vid=4c414910-202a-4e84-8e4b-c0f0a3714b59"},"vehicle_type_id":"4","last_reported":1771359903,"current_range_meters":20000,"station_id":"ce4bgih2rcd13ifvqba0","pricing_plan_id":"cebpf4jnsgd1na2vs0mg"},{"bike_id":"8aaaaffc-4fd7-41b9-b4d1-8ec182d0d63d","system_id":"levelo_inurba_marseille","lat":43.3171,"lon":5.43711,"is_reserved":false,"is_disabled":false,"rental_uris":{"android":"levelo://app?vid=8aaaaffc-4fd7-41b9-b4d1-8ec182d0d63d","ios":"levelo://app?vid=8aaaaffc-4fd7-41b9-b4d1-8ec182d0d63d"},"vehicle_type_id":"4","last_reported":1771359903,"current_range_meters":21600,"station_id":"ce4bhp92rcd13ifvqhcg","pricing_plan_id":"cebpf4jnsgd1na2vs0mg"},{"bike_id":"6e9dbbc0-aa6c-4868-b06c-e7eaa68c09c7","system_id":"levelo_inurba_marseille","lat":43.24583,"lon":5.3955,"is_reserved":false,"is_disabled":false,"rental_uris":{"android":"levelo://app?vid=6e9dbbc0-aa6c-4868-b06c-e7eaa68c09c7","ios":"levelo://app?vid=6e9dbbc0-aa6c-4868-b06c-e7eaa68c09c7"},"vehicle_type_id":"4","last_reported":1771359903,"current_range_meters":33600,"station_id":"ce4bhlp2rcd13ifvqgjg","pricing_plan_id":"cebpf4jnsgd1na2vs0mg"},{"bike_id":"21a18c0d-55fa-4b63-ada7-1905ba4ecfca","system_id":"levelo_inurba_marseille","lat":43.29874,"lon":5.39793,"is_reserved":false,"is_disabled":false,"rental_uris":{"android":"levelo://app?vid=21a18c0d-55fa-4b63-ada7-1905ba4ecfca","ios":"levelo://app?vid=21a18c0d-55fa-4b63-ada7-1905ba4ecfca"},"vehicle_type_id":"4","last_reported":1771359903,"current_range_meters":35200,"station_id":"","pricing_plan_id":"cebpf4jnsgd1na2vs0mg"},{"bike_id":"38a515da-b3af-456b-adac-2db7213d87ac","system_id":"levelo_inurba_marseille","lat":43.28607,"lon":5.35114,"is_reserved":false,"is_disabled":false,"rental_uris":{"android":"levelo://app?vid=38a515da-b3af-456b-adac-2db7213d87ac","ios":"levelo://app?vid=38a515da-b3af-456b-adac-2db7213d87ac"},"vehicle_type_id":"4","last_reported":1771359903,"current_range_meters":20400,"station_id":"ce4bhch2rcd13ifvqeug","pricing_plan_id":"cebpf4jnsgd1na2vs0mg"},{"bike_id":"1bc89d59-7663-4055-a749-a3705a48a821","system_id":"levelo_inurba_marseille","lat":43.27977,"lon":5.41663,"is_reserved":false,"is_disabled":false,"rental_uris":{"android":"levelo://app?vid=1bc89d59-7663-4055-a749-a3705a48a821","ios":"levelo://app?vid=1bc89d59-7663-4055-a749-a3705a48a821"},"vehicle_type_id":"4","last_reported":1771359903,"current_range_meters":18000,"station_id":"ce4bho12rcd13ifvqh1g","pricing_plan_id":"cebpf4jnsgd1na2vs0mg"},{"bike_id":"e258fda4-3785-4057-8fa8-e490a690f392","system_id":"levelo_inurba_marseille","lat":43.30647,"lon":5.37226,"is_reserved":false,"is_disabled":false,"rental_uris":{"android":"levelo://app?vid=e258fda4-3785-4057-8fa8-e490a690f392","ios":"levelo://app?vid=e258fda4-3785-4057-8fa8-e490a690f392"},"vehicle_type_id":"4","last_reported":1771359903,"current_range_meters":32000,"station_id":"ce4bgqh2rcd13ifvqc4g","pricing_plan_id":"cebpf4jnsgd1na2vs0mg"},{"bike_id":"dbfe7d62-69bb-4b6f-b279-e02fb0b739a5","system_id":"levelo_inurba_marseille","lat":43.31261,"lon":5.36877,"is_reserved":false,"is_disabled":false,"rental_uris":{"android":"levelo://app?vid=dbfe7d62-69bb-4b6f-b279-e02fb0b739a5","ios":"levelo://app?vid=dbfe7d62-69bb-4b6f-b279-e02fb0b739a5"},"vehicle_type_id":"4","last_reported":1771359903,"current_range_meters":19600,"station_id":"ce4bgl92rcd13ifvqbq0","pricing_plan_id":"cebpf4jnsgd1na2vs0mg"},{"bike_id":"2d305240-72a3-4635-bf71-c7972180459f","system_id":"levelo_inurba_marseille","lat":43.26963,"lon":5.38616,"is_reserved":false,"is_disabled":false,"rental_uris":{"android":"levelo://app?vid=2d305240-72a3-4635-bf71-c7972180459f","ios":"levelo://app?vid=2d305240-72a3-4635-bf71-c7972180459f"},