{"last_updated":1708455915,"ttl":30,"version":"2.2","data":{"bikes":[{"bike_id":"4364f1e2-3635-4926-9306-3c3246ad3b9a","system_id":"levelo_inurba_marseille","lat":43.312239,"lon":5.368562,"is_reserved":false,"is_disabled":false,"rental_uris":{"android":"levelo://app?vid=4364f1e2-3635-4926-9306-3c3246ad3b9a","ios":"levelo://app?vid=4364f1e2-3635-4926-9306-3c3246ad3b9a"},"vehicle_type_id":"4","last_reported":1708455915,"current_range_meters":0,"station_id":"ce4bgl92rcd13ifvqbq0","pricing_plan_id":"cebpf4jnsgd1na2vs0mg"},{"bike_id":"665894b3-510e-4222-9a1d-53dc332cf922","system_id":"levelo_inurba_marseille","lat":43.309034,"lon":5.371783,"is_reserved":false,"is_disabled":false,"rental_uris":{"android":"levelo://app?vid=665894b3-510e-4222-9a1d-53dc332cf922","ios":"levelo://app?vid=665894b3-510e-4222-9a1d-53dc332cf922"},"vehicle_type_id":"4","last_reported":1708455915,"current_range_meters":25600,"station_id":"ce4bguh2rcd13ifvqckg","pricing_plan_id":"cebpf4jnsgd1na2vs0mg"},{"bike_id":"be3a83f9-0921-4630-8939-75a215d5bf8a","system_id":"levelo_inurba_marseille","lat":43.305714,"lon":5.365633,"is_reserved":false,"is_disabled":false,"rental_uris":{"android":"levelo://app?vid=be3a83f9-0921-4630-8939-75a215d5bf8a","ios":"levelo://app?vid=be3a83f9-0921-4630-8939-75a215d5bf8a"},"vehicle_type_id":"4","last_reported":1708455915,"current_range_meters":4000,"station_id":"ce4bgs12rcd13ifvqcag","pricing_plan_id":"cebpf4jnsgd1na2vs0mg"},{"bike_id":"230a6557-6e0e-4ffc-9a00-291801600c26","system_id":"levelo_inurba_marseille","lat":43.305714,"lon":5.365633,"is_reserved":false,"is_disabled":false,"rental_uris":{"android":"levelo://app?vid=230a6557-6e0e-4ffc-9a00-291801600c26","ios":"levelo://app?vid=230a6557-6e0e-4ffc-9a00-291801600c26"},"vehicle_type_id":"4","last_reported":1708455915,"current_range_meters":6000,"station_id":"ce4bgs12rcd13ifvqcag","pricing_plan_id":"cebpf4jnsgd1na2vs0mg"},{"bike_id":"f96f7e9f-fe7d-421f-a7a8-5503d5beb04c","system_id":"levelo_inurba_marseille","lat":43.305706,"lon":5.365654,"is_reserved":false,"is_disabled":false,"rental_uris":{"android":"levelo://app?vid=f96f7e9f-fe7d-421f-a7a8-5503d5beb04c","ios":"levelo://app?vid=f96f7e9f-fe7d-421f-a7a8-5503d5beb04c"},"vehicle_type_id":"4","last_reported":1708455915,"current_range_meters":20400,"station_id":"ce4bgs12rcd13ifvqcag","pricing_plan_id":"cebpf4jnsgd1na2vs0mg"},{"bike_id":"35d45378-0a0a-40a1-bd3d-57dbcd86c35a","system_id":"levelo_inurba_marseille","lat":43.305918,"lon":5.372085,"is_reserved":false,"is_disabled":false,"rental_uris":{"android":"levelo://app?vid=35d45378-0a0a-40a1-bd3d-57dbcd86c35a","ios":"levelo://app?vid=35d45378-0a0a-40a1-bd3d-57dbcd86c35a"},"vehicle_type_id":"4","last_reported":1708455915,"current_range_meters":6400,"station_id":"ce4bgqh2rcd13ifvqc4g","pricing_plan_id":"cebpf4jnsgd1na2vs0mg"},{"bike_id":"40476d4f-13c1-4f4a-b1b4-bc023a4e8111","system_id":"levelo_inurba_marseille","lat":43.311125,"lon":5.377624,"is_reserved":false,"is_disabled":false,"rental_uris":{"android":"levelo://app?vid=40476d4f-13c1-4f4a-b1b4-bc023a4e8111","ios":"levelo://app?vid=40476d4f-13c1-4f4a-b1b4-bc023a4e8111"},"vehicle_type_id":"4","last_reported":1708455915,"current_range_meters":2400,"station_id":"ce4bgt92rcd13ifvqcg0","pricing_plan_id":"cebpf4jnsgd1na2vs0mg"},{"bike_id":"dc22c28f-522a-4fb4-b7ab-c6251b90de82","system_id":"levelo_inurba_marseille","lat":43.31654,"lon":5.37675,"is_reserved":false,"is_disabled":false,"rental_uris":{"android":"levelo://app?vid=dc22c28f-522a-4fb4-b7ab-c6251b90de82","ios":"levelo://app?vid=dc22c28f-522a-4fb4-b7ab-c6251b90de82"},"vehicle_type_id":"4","last_reported":1708455915,"current_range_meters":30400,"station_id":"","pricing_plan_id":"cebpf4jnsgd1na2vs0mg"},{"bike_id":"ca2667da-3495-4d2a-aaad-581383e9babc","system_id":"levelo_inurba_marseille","lat":43.307945,"lon":5.376487,"is_reserved":false,"is_disabled":false,"rental_uris":{"android":"levelo://app?vid=ca2667da-3495-4d2a-aaad-581383e9babc","ios":"levelo://app?vid=ca2667da-3495-4d2a-aaad-581383e9babc"},"vehicle_type_id":"4","last_reported":1708455915,"current_range_meters":2000,"station_id":"ce4bgv92rcd13ifvqcq0","pricing_plan_id":"cebpf4jnsgd1na2vs0mg"},{"bike_id":"cb90e8e7-4466-4658-a3a5-2f0c185a42c7","system_id":"levelo_inurba_marseille","lat":43.307945,"lon":5.376487,"is_reserved":false,"is_disabled":false,"rental_uris":{"android":"levelo://app?vid=cb90e8e7-4466-4658-a3a5-2f0c185a42c7","ios":"levelo://app?vid=cb90e8e7-4466-4658-a3a5-2f0c185a42c7"},"vehicle_type_id":"4","last_reported":1708455915,"current_range_meters":18800,"station_id":"ce4bgv92rcd13ifvqcq0","pricing_plan_id":"cebpf4jnsgd1na2vs0mg"},{"bike_id":"40bca534-1261-408c-8fdc-ff384f0356f3","system_id":"levelo_inurba_marseille","lat":43.307945,"lon":5.376487,"is_reserved":false,"is_disabled":false,"rental_uris":{"android":"levelo://app?vid=40bca534-1261-408c-8fdc-ff384f0356f3","ios":"levelo://app?vid=40bca534-1261-408c-8fdc-ff384f0356f3"},"vehicle_type_id":"4","last_reported":1708455915,"current_range_meters":20800,"station_id":"ce4bgv92rcd13ifvqcq0","pricing_plan_id":"cebpf4jnsgd1na2vs0mg"},{"bike_id":"ff739a30-12ec-409d-a367-1f89226ee0c7","system_id":"levelo_inurba_marseille","lat":43.307945,"lon":5.376487,"is_reserved":false,"is_disabled":false,"rental_uris":{"android":"levelo://app?vid=ff739a30-12ec-409d-a367-1f89226ee0c7","ios":"levelo://app?vid=ff739a30-12ec-409d-a367-1f89226ee0c7"},"vehicle_type_id":"4","last_reported":1708455915,"current_range_meters":24000,"station_id":"ce4bgv92rcd13ifvqcq0","pricing_plan_id":"cebpf4jnsgd1na2vs0mg"},{"bike_id":"04b797ba-8a9b-4a74-afb6-13c636f569b5","system_id":"levelo_inurba_marseille","lat":43.317075,"lon":5.377367,"is_reserved":false,"is_disabled":false,"rental_uris":{"android":"levelo://app?vid=04b797ba-8a9b-4a74-afb6-13c636f569b5","ios":"levelo://app?vid=04b797ba-8a9b-4a74-afb6-13c636f569b5"},"vehicle_type_id":"4","last_reported":1708455915,"current_range_meters":2800,"station_id":"ce4bgth2rcd13ifvqch0","pricing_plan_id":"cebpf4jnsgd1na2vs0mg"},{"bike_id":"c7084a34-df4c-476a-a442-9e632d7f09f6","system_id":"levelo_inurba_marseille","lat":43.3114,"lon":5.37887,"is_reserved":false,"is_disabled":false,"rental_uris":{"android":"levelo://app?vid=c7084a34-df4c-476a-a442-9e632d7f09f6","ios":"levelo://app?vid=c7084a34-df4c-476a-a442-9e632d7f09f6"},"vehicle_type_id":"4","last_reported":1708455915,"current_range_meters":17600,"station_id":"","pricing_plan_id":"cebpf4jnsgd1na2vs0mg"},{"bike_id":"f2dfa75f-eb4e-4f9c-9729-85a59db10d6c","system_id":"levelo_inurba_marseille","lat":43.31713,"lon":5.37745,"is_reserved":false,"is_disabled":false,"rental_uris":{"android":"levelo://app?vid=f2dfa75f-eb4e-4f9c-9729-85a59db10d6c","ios":"levelo://app?vid=f2dfa75f-eb4e-4f9c-9729-85a59db10d6c"},"vehicle_type_id":"4","last_reported":1708455915,"current_range_meters":800,"station_id":"","pricing_plan_id":"cebpf4jnsgd1na2vs0mg"},{"bike_id":"427d533f-9192-4182-bf5c-e6326b664a68","system_id":"levelo_inurba_marseille","lat":43.303046,"lon":5.368981,"is_reserved":false,"is_disabled":false,"rental_uris":{"android":"levelo://app?vid=427d533f-9192-4182-bf5c-e6326b664a68","ios":"levelo://app?vid=427d533f-9192-4182-bf5c-e6326b664a68"},"vehicle_type_id":"4","last_reported":1708455915,"current_range_meters":11200,"station_id":"ce4bgqh2rcd13ifvqc5g","pricing_plan_id":"cebpf4jnsgd1na2vs0mg"},{"bike_id":"94ae8494-8bb2-483e-92bf-9005062d9857","system_id":"levelo_inurba_marseille","lat":43.30304,"lon":5.368987,"is_reserved":false,"is_disabled":false,"rental_uris":{"android":"levelo://app?vid=94ae8494-8bb2-483e-92bf-9005062d9857","ios":"levelo://app?vid=94ae8494-8bb2-483e-92bf-9005062d9857"},"vehicle_type_id":"4","last_reported":1708455915,"current_range_meters":0,"station_id":"ce4bgqh2rcd13ifvqc5g","pricing_plan_id":"cebpf4jnsgd1na2vs0mg"},{"bike_id":"2ff35440-3b2f-4172-9972-edd29bd4e715","system_id":"levelo_inurba_marseille","lat":43.303046,"lon":5.368981,"is_reserved":false,"is_disabled":false,"rental_uris":{"android":"levelo://app?vid=2ff35440-3b2f-4172-9972-edd29bd4e715","ios":"levelo://app?vid=2ff35440-3b2f-4172-9972-edd29bd4e715"},"vehicle_type_id":"4","last_reported":1708455915,"current_range_meters":5200,"station_id":"ce4bgqh2rcd13ifvqc5g","pricing_plan_id":"cebpf4jnsgd1na2vs0mg"},{"bike_id":"a8da9c64-ff44-452d-a385-0c6903f4db99","system_id":"levelo_inurba_marseille","lat":43.31536,"lon":5.3803,"is_reserved":false,"is_disabled":false,"rental_uris":{"android":"levelo://app?vid=a8da9c64-ff44-452d-a385-0c6903f4db99","ios":"levelo://app?vid=a8da9c64-ff44-452d-a385-0c6903f4db99"},"vehicle_type_id":"4","last_reported":1708455915,"current_range_meters":10400,"station_id":"ce4bhsp2rcd13ifvqi50","pricing_plan_id":"cebpf4jnsgd1na2vs0mg"},{"bike_id":"afdf3eb2-f042-4544-adbc-cff11f923ba3","system_id":"levelo_inurba_marseille","lat":43.315293,"lon":5.380349,"is_reserved":false,"is_disabled":false,"rental_uris":{"android":"levelo://app?vid=afdf3eb2-f042-4544-adbc-cff11f923ba3","ios":"levelo://app?vid=afdf3eb2-f042-4544-adbc-cff11f923ba3"},"vehicle_type_id":"4","last_reported":1708455915,"current_range_meters":3600,"station_id":"ce4bhsp2rcd13ifvqi50","pricing_plan_id":"cebpf4jnsgd1na2vs0mg"},{"bike_id":"3bb26bcd-7259-47e9-9a17-9790eae67fe2","system_id":"levelo_inurba_marseille","lat":43.301939,"lon":5.366286,"is_reserved":false,"is_disabled":false,"rental_uris":{"android":"levelo://app?vid=3bb26bcd-7259-47e9-9a17-9790eae67fe2","ios":"levelo://app?vid=3bb26bcd-7259-47e9-9a17-9790eae67fe2"},"vehicle_type_id":"4","last_reported":1708455915,"current_range_meters":30800,"station_id":"ce4bgrh2rcd13ifvqc8g","pricing_plan_id":"cebpf4jnsgd1na2vs0mg"},{"bike_id":"5ffce833-1244-441b-aee7-350d46efd83a","system_id":"levelo_inurba_marseille","lat":43.304606,"lon":5.379026,"is_reserved":false,"is_disabled":false,"rental_uris":{"android":"levelo://app?vid=5ffce833-1244-441b-aee7-350d46efd83a","ios":"levelo://app?vid=5ffce833-1244-441b-aee7-350d46efd83a"},"vehicle_type_id":"4","last_reported":1708455915,"current_range_meters":10000,"station_id":"ce4bgup2rcd13ifvqcn0","pricing_plan_id":"cebpf4jnsgd1na2vs0mg"},{"bike_id":"787b97fd-3045-418a-93db-948f0d624107","system_id":"levelo_inurba_marseille","lat":43.324771,"lon":5.36557,"is_reserved":false,"is_disabled":false,"rental_uris":{"android":"levelo://app?vid=787b97fd-3045-418a-93db-948f0d624107","ios":"levelo://app?vid=787b97fd-3045-418a-93db-948f0d624107"},"vehicle_type_id":"4","last_reported":1708455915,"current_range_meters":18000,"station_id":"ce4bhs12rcd13ifvqhvg","pricing_plan_id":"cebpf4jnsgd1na2vs0mg"},{"bike_id":"4cd60cd3-101b-4a05-9703-76840434a255","system_id":"levelo_inurba_marseille","lat":43.324771,"lon":5.36557,"is_reserved":false,"is_disabled":false,"rental_uris":{"android":"levelo://app?vid=4cd60cd3-101b-4a05-9703-76840434a255","ios":"levelo://app?vid=4cd60cd3-101b-4a05-9703-76840434a255"},"vehicle_type_id":"4","last_reported":1708455915,"current_range_meters":24400,"station_id":"ce4bhs12rcd13ifvqhvg","pricing_plan_id":"cebpf4jnsgd1na2vs0mg"},{"bike_id":"2a251856-e1b8-4c18-a0a0-94a2c0abc5e4","system_id":"levelo_inurba_marseille","lat":43.324771,"lon":5.36557,"is_reserved":false,"is_disabled":false,"rental_uris":{"android":"levelo://app?vid=2a251856-e1b8-4c18-a0a0-94a2c0abc5e4","ios":"levelo://app?vid=2a251856-e1b8-4c18-a0a0-94a2c0abc5e4"},"vehicle_type_id":"4","last_reported":1708455915,"current_range_meters":29200,"station_id":"ce4bhs12rcd13ifvqhvg","pricing_plan_id":"cebpf4jnsgd1na2vs0mg"},{"bike_id":"5f3727da-be6d-4245-8b7a-5c108328736b","system_id":"levelo_inurba_marseille","lat":43.324771,"lon":5.36557,"is_reserved":false,"is_disabled":false,"rental_uris":{"android":"levelo://app?vid=5f3727da-be6d-4245-8b7a-5c108328736b","ios":"levelo://app?vid=5f3727da-be6d-4245-8b7a-5c108328736b"},"vehicle_type_id":"4","last_reported":1708455915,"current_range_meters":0,"station_id":"ce4bhs12rcd13ifvqhvg","pricing_plan_id":"cebpf4jnsgd1na2vs0mg"},{"bike_id":"cda8eb5b-2134-4fe4-b0ac-1209e0bbc329","system_id":"levelo_inurba_marseille","lat":43.324771,"lon":5.36557,"is_reserved":false,"is_disabled":false,"rental_uris":{"android":"levelo://app?vid=cda8eb5b-2134-4fe4-b0ac-1209e0bbc329","ios":"levelo://app?vid=cda8eb5b-2134-4fe4-b0ac-1209e0bbc329"},"vehicle_type_id":"4","last_reported":1708455915,"current_range_meters":16800,"station_id":"ce4bhs12rcd13ifvqhvg","pricing_plan_id":"cebpf4jnsgd1na2vs0mg"},{"bike_id":"caaf26f8-fbed-445b-be7b-3ecf625cc521","system_id":"levelo_inurba_marseille","lat":43.324771,"lon":5.36557,"is_reserved":false,"is_disabled":false,"rental_uris":{"android":"levelo://app?vid=caaf26f8-fbed-445b-be7b-3ecf625cc521","ios":"levelo://app?vid=caaf26f8-fbed-445b-be7b-3ecf625cc521"},"vehicle_type_id":"4","last_reported":1708455915,"current_range_meters":29600,"station_id":"ce4bhs12rcd13ifvqhvg","pricing_plan_id":"cebpf4jnsgd1na2vs0mg"},{"bike_id":"28ac92c8-3492-4bb4-bfaf-10fd4ee37ea4","system_id":"levelo_inurba_marseille","lat":43.319935,"lon":5.381699,"is_reserved":false,"is_disabled":false,"rental_uris":{"android":"levelo://app?vid=28ac92c8-3492-4bb4-bfaf-10fd4ee37ea4","ios":"levelo://app?vid=28ac92c8-3492-4bb4-bfaf-10fd4ee37ea4"},"vehicle_type_id":"4","last_reported":1708455915,"current_range_meters":0,"station_id":"ce4bhr12rcd13ifvqhpg","pricing_plan_id":"cebpf4jnsgd1na2vs0mg"},{"bike_id":"71aefc01-5c84-43c5-9ff2-653f0c93be49","system_id":"levelo_inurba_marseille","lat":43.319935,"lon":5.381699,"is_reserved":false,"is_disabled":false,"rental_uris":{"android":"levelo://app?vid=71aefc01-5c84-43c5-9ff2-653f0c93be49","ios":"levelo://app?vid=71aefc01-5c84-43c5-9ff2-653f0c93be49"},"vehicle_type_id":"4","last_reported":1708455915,"current_range_meters":12400,"station_id":"ce4bhr12rcd13ifvqhpg","pricing_plan_id":"cebpf4jnsgd1na2vs0mg"},{"bike_id":"fa74ca84-175e-486c-a29b-18a75d0e7172","system_id":"levelo_inurba_marseille","lat":43.319935,"lon":5.381699,"is_reserved":false,"is_disabled":false,"rental_uris":{"android":"levelo://app?vid=fa74ca84-175e-486c-a29b-18a75d0e7172","ios":"levelo://app?vid=fa74ca84-175e-486c-a29b-18a75d0e7172"},"vehicle_type_id":"4","last_reported":1708455915,"current_range_meters":400,"station_id":"ce4bhr12rcd13ifvqhpg","pricing_plan_id":"cebpf4jnsgd1na2vs0mg"},{"bike_id":"4da0bc28-1f1b-4133-aeb1-e5fa264d8ee7","system_id":"levelo_inurba_marseille","lat":43.31549,"lon":5.3845,"is_reserved":false,"is_disabled":false,"rental_uris":{"android":"levelo://app?vid=4da0bc28-1f1b-4133-aeb1-e5fa264d8ee7","ios":"levelo://app?vid=4da0bc28-1f1b-4133-aeb1-e5fa264d8ee7"},"vehicle_type_id":"4","last_reported":1708455915,"current_range_meters":22000,"station_id":"","pricing_plan_id":"cebpf4jnsgd1na2vs0mg"},{"bike_id":"342e505e-2165-4d72-a238-1e7c766c4edc","system_id":"levelo_inurba_marseille","lat":43.313571,"lon":5.384829,"is_reserved":false,"is_disabled":false,"rental_uris":{"android":"levelo://app?vid=342e505e-2165-4d72-a238-1e7c766c4edc","ios":"levelo://app?vid=342e505e-2165-4d72-a238-1e7c766c4edc"},"vehicle_type_id":"4","last_reported":1708455915,"current_range_meters":12400,"station_id":"ce4bgt92rcd13ifvqcf0","pricing_plan_id":"cebpf4jnsgd1na2vs0mg"},{"bike_id":"4cdefe9d-ff2d-4de4-954b-c2ed552147e9","system_id":"levelo_inurba_marseille","lat":43.313571,"lon":5.384829,"is_reserved":false,"is_disabled":false,"rental_uris":{"android":"levelo://app?vid=4cdefe9d-ff2d-4de4-954b-c2ed552147e9","ios":"levelo://app?vid=4cdefe9d-ff2d-4de4-954b-c2ed552147e9"},"vehicle_type_id":"4","last_reported":1708455915,"current_range_meters":8800,"station_id":"ce4bgt92rcd13ifvqcf0","pricing_plan_id":"cebpf4jnsgd1na2vs0mg"},{"bike_id":"000a80ac-2a92-406f-8597-2675a2aa0744","system_id":"levelo_inurba_marseille","lat":43.313571,"lon":5.384829,"is_reserved":false,"is_disabled":false,"rental_uris":{"android":"levelo://app?vid=000a80ac-2a92-406f-8597-2675a2aa0744","ios":"levelo://app?vid=000a80ac-2a92-406f-8597-2675a2aa0744"},"vehicle_type_id":"4","last_reported":1708455915,"current_range_meters":16000,"station_id":"ce4bgt92rcd13ifvqcf0","pricing_plan_id":"cebpf4jnsgd1na2vs0mg"},{"bike_id":"f4bee53d-a74d-48d5-957c-a931d02520ed","system_id":"levelo_inurba_marseille","lat":43.31362,"lon":5.38497,"is_reserved":false,"is_disabled":false,"rental_uris":{"android":"levelo://app?vid=f4bee53d-a74d-48d5-957c-a931d02520ed","ios":"levelo://app?vid=f4bee53d-a74d-48d5-957c-a931d02520ed"},"vehicle_type_id":"4","last_reported":1708455915,"current_range_meters":14800,"station_id":"ce4bgt92rcd13ifvqcf0","pricing_plan_id":"cebpf4jnsgd1na2vs0mg"},{"bike_id":"44009f75-4b92-44b9-b40c-40086f71eea2","system_id":"levelo_inurba_marseille","lat":43.313571,"lon":5.384829,"is_reserved":false,"is_disabled":false,"rental_uris":{"android":"levelo://app?vid=44009f75-4b92-44b9-b40c-40086f71eea2","ios":"levelo://app?vid=44009f75-4b92-44b9-b40c-40086f71eea2"},"vehicle_type_id":"4","last_reported":1708455915,"current_range_meters":20000,"station_id":"ce4bgt92rcd13ifvqcf0","pricing_plan_id":"cebpf4jnsgd1na2vs0mg"},{"bike_id":"e84fc7d6-07df-433b-b01d-4ca053bde8a4","system_id":"levelo_inurba_marseille","lat":43.299209,"lon":5.365547,"is_reserved":false,"is_disabled":false,"rental_uris":{"android":"levelo://app?vid=e84fc7d6-07df-433b-b01d-4ca053bde8a4","ios":"levelo://app?vid=e84fc7d6-07df-433b-b01d-4ca053bde8a4"},"vehicle_type_id":"4","last_reported":1708455915,"current_range_meters":2800,"station_id":"ce4bgm92rcd13ifvqbr0","pricing_plan_id":"cebpf4jnsgd1na2vs0mg"},{"bike_id":"36344a10-2f0f-4873-9438-9f4d7af8bdf7","system_id":"levelo_inurba_marseille","lat":43.298433,"lon":5.362774,"is_reserved":false,"is_disabled":false,"rental_uris":{"android":"levelo://app?vid=36344a10-2f0f-4873-9438-9f4d7af8bdf7","ios":"levelo://app?vid=36344a10-2f0f-4873-9438-9f4d7af8bdf7"},"vehicle_type_id":"4","last_reported":1708455915,"current_range_meters":8000,"station_id":"ce4bgpp2rcd13ifvqc3g","pricing_plan_id":"cebpf4jnsgd1na2vs0mg"},{"bike_id":"4ecacf22-73e0-432f-97d4-5ca0570b3054","system_id":"levelo_inurba_marseille","lat":43.305364,"lon":5.384119,"is_reserved":false,"is_disabled":false,"rental_uris":{"android":"levelo://app?vid=4ecacf22-73e0-432f-97d4-5ca0570b3054","ios":"levelo://app?vid=4ecacf22-73e0-432f-97d4-5ca0570b3054"},"vehicle_type_id":"4","last_reported":1708455915,"current_range_meters":6000,"station_id":"ce4bgg92rcd13ifvqb30","pricing_plan_id":"cebpf4jnsgd1na2vs0mg"},{"bike_id":"322c0e55-54ea-42aa-8dde-5981617fa37c","system_id":"levelo_inurba_marseille","lat":43.305364,"lon":5.384119,"is_reserved":false,"is_disabled":false,"rental_uris":{"android":"levelo://app?vid=322c0e55-54ea-42aa-8dde-5981617fa37c","ios":"levelo://app?vid=322c0e55-54ea-42aa-8dde-5981617fa37c"},"vehicle_type_id":"4","last_reported":1708455915,"current_range_meters":13600,"station_id":"ce4bgg92rcd13ifvqb30","pricing_plan_id":"cebpf4jnsgd1na2vs0mg"},{"bike_id":"52e8dfce-f974-4cfb-86f5-8b0e5ce17349","system_id":"levelo_inurba_marseille","lat":43.299243,"lon":5.37481,"is_reserved":false,"is_disabled":false,"rental_uris":{"android":"levelo://app?vid=52e8dfce-f974-4cfb-86f5-8b0e5ce17349","ios":"levelo://app?vid=52e8dfce-f974-4cfb-86f5-8b0e5ce17349"},"vehicle_type_id":"4","last_reported":1708455915,"current_range_meters":16800,"station_id":"ce4bgjh2rcd13ifvqbg0","pricing_plan_id":"cebpf4jnsgd1na2vs0mg"},{"bike_id":"731a4165-3807-4677-9a7d-01c23b35c3c0","system_id":"levelo_inurba_marseille","lat":43.299243,"lon":5.37481,"is_reserved":false,"is_disabled":false,"rental_uris":{"android":"levelo://app?vid=731a4165-3807-4677-9a7d-01c23b35c3c0","ios":"levelo://app?vid=731a4165-3807-4677-9a7d-01c23b35c3c0"},"vehicle_type_id":"4","last_reported":1708455915,"current_range_meters":11200,"station_id":"ce4bgjh2rcd13ifvqbg0","pricing_plan_id":"cebpf4jnsgd1na2vs0mg"},{"bike_id":"203eebfe-de03-486b-9bf5-db92b13c2e90","system_id":"levelo_inurba_marseille","lat":43.299164,"lon":5.374694,"is_reserved":false,"is_disabled":false,"rental_uris":{"android":"levelo://app?vid=203eebfe-de03-486b-9bf5-db92b13c2e90","ios":"levelo://app?vid=203eebfe-de03-486b-9bf5-db92b13c2e90"},"vehicle_type_id":"4","last_reported":1708455915,"current_range_meters":14000,"station_id":"ce4bgjh2rcd13ifvqbg0","pricing_plan_id":"cebpf4jnsgd1na2vs0mg"},{"bike_id":"d5047c1e-31ac-451f-b07c-763b8cd2da95","system_id":"levelo_inurba_marseille","lat":43.299243,"lon":5.37481,"is_reserved":false,"is_disabled":false,"rental_uris":{"android":"levelo://app?vid=d5047c1e-31ac-451f-b07c-763b8cd2da95","ios":"levelo://app?vid=d5047c1e-31ac-451f-b07c-763b8cd2da95"},"vehicle_type_id":"4","last_reported":1708455915,"current_range_meters":11200,"station_id":"ce4bgjh2rcd13ifvqbg0","pricing_plan_id":"cebpf4jnsgd1na2vs0mg"},{"bike_id":"f6a86732-d769-4a07-8a0f-0c7f0b7570df","system_id":"levelo_inurba_marseille","lat":43.311722,"lon":5.387247,"is_reserved":false,"is_disabled":false,"rental_uris":{"android":"levelo://app?vid=f6a86732-d769-4a07-8a0f-0c7f0b7570df","ios":"levelo://app?vid=f6a86732-d769-4a07-8a0f-0c7f0b7570df"},"vehicle_type_id":"4","last_reported":1708455915,"current_range_meters":9600,"station_id":"ce4bgv12rcd13ifvqcp0","pricing_plan_id":"cebpf4jnsgd1na2vs0mg"},{"bike_id":"c1b5dcc0-df4a-46a8-a4b5-dd678b05fa97","system_id":"levelo_inurba_marseille","lat":43.31161,"lon":5.38721,"is_reserved":false,"is_disabled":false,"rental_uris":{"android":"levelo://app?vid=c1b5dcc0-df4a-46a8-a4b5-dd678b05fa97","ios":"levelo://app?vid=c1b5dcc0-df4a-46a8-a4b5-dd678b05fa97"},"vehicle_type_id":"4","last_reported":1708455915,"current_range_meters":16800,"station_id":"","pricing_plan_id":"cebpf4jnsgd1na2vs0mg"},{"bike_id":"014e6201-5eb4-4816-b122-eb312f93fe18","system_id":"levelo_inurba_marseille","lat":43.311722,"lon":5.387247,"is_reserved":false,"is_disabled":false,"rental_uris":{"android":"levelo://app?vid=014e6201-5eb4-4816-b122-eb312f93fe18","ios":"levelo://app?vid=014e6201-5eb4-4816-b122-eb312f93fe18"},"vehicle_type_id":"4","last_reported":1708455915,"current_range_meters":7200,"station_id":"ce4bgv12rcd13ifvqcp0","pricing_plan_id":"cebpf4jnsgd1na2vs0mg"},{"bike_id":"098eaae3-c91c-4c4e-9a14-70e940012909","system_id":"levelo_inurba_marseille","lat":43.29806,"lon":5.36216,"is_reserved":false,"is_disabled":false,"rental_uris":{"android":"levelo://app?vid=098eaae3-c91c-4c4e-9a14-70e940012909","ios":"levelo://app?vid=098eaae3-c91c-4c4e-9a14-70e940012909"},"vehicle_type_id":"4","last_reported":1708455915,"current_range_meters":21200,"station_id":"","pricing_plan_id":"cebpf4jnsgd1na2vs0mg"},{"bike_id":"3ef6b703-e056-421a-9179-5e7d94b25453","system_id":"levelo_inurba_marseille","lat":43.322897,"lon":5.382607,"is_reserved":false,"is_disabled":false,"rental_uris":{"android":"levelo://app?vid=3ef6b703-e056-421a-9179-5e7d94b25453","ios":"levelo://app?vid=3ef6b703-e056-421a-9179-5e7d94b25453"},"vehicle_type_id":"4","last_reported":1708455915,"current_range_meters":24000,"station_id":"ce4bhr12rcd13ifvqhqg","pricing_plan_id":"cebpf4jnsgd1na2vs0mg"},{"bike_id":"79b54601-dd27-44fc-91ca-5befd5594d9b","system_id":"levelo_inurba_marseille","lat":43.322872,"lon":5.382756,"is_reserved":false,"is_disabled":false,"rental_uris":{"android":"levelo://app?vid=79b54601-dd27-44fc-91ca-5befd5594d9b","ios":"levelo://app?vid=79b54601-dd27-44fc-91ca-5befd5594d9b"},"vehicle_type_id":"4","last_reported":1708455915,"current_range_meters":30000,"station_id":"ce4bhr12rcd13ifvqhqg","pricing_plan_id":"cebpf4jnsgd1na2vs0mg"},{"bike_id":"25fc5026-6ec5-4002-b696-3e1c3a41c330","system_id":"levelo_inurba_marseille","lat":43.32287,"lon":5.38279,"is_reserved":false,"is_disabled":false,"rental_uris":{"android":"levelo://app?vid=25fc5026-6ec5-4002-b696-3e1c3a41c330","ios":"levelo://app?vid=25fc5026-6ec5-4002-b696-3e1c3a41c330"},"vehicle_type_id":"4","last_reported":1708455915,"current_range_meters":6800,"station_id":"ce4bhr12rcd13ifvqhqg","pricing_plan_id":"cebpf4jnsgd1na2vs0mg"},{"bike_id":"419e5e65-8914-492a-915e-6b25ee3b2f17","system_id":"levelo_inurba_marseille","lat":43.296131,"lon":5.370791,"is_reserved":false,"is_disabled":false,"rental_uris":{"android":"levelo://app?vid=419e5e65-8914-492a-915e-6b25ee3b2f17","ios":"levelo://app?vid=419e5e65-8914-492a-915e-6b25ee3b2f17"},"vehicle_type_id":"4","last_reported":1708455915,"current_range_meters":14800,"station_id":"ce4bgnh2rcd13ifvqc0g","pricing_plan_id":"cebpf4jnsgd1na2vs0mg"},{"bike_id":"26ce4e48-2661-4738-b213-f791955d2c90","system_id":"levelo_inurba_marseille","lat":43.309589,"lon":5.390258,"is_reserved":false,"is_disabled":false,"rental_uris":{"android":"levelo://app?vid=26ce4e48-2661-4738-b213-f791955d2c90","ios":"levelo://app?vid=26ce4e48-2661-4738-b213-f791955d2c90"},"vehicle_type_id":"4","last_reported":1708455915,"current_range_meters":11600,"station_id":"ce4bgup2rcd13ifvqco0","pricing_plan_id":"cebpf4jnsgd1na2vs0mg"},{"bike_id":"3ca9016f-8209-488e-9b22-82bee209bf82","system_id":"levelo_inurba_marseille","lat":43.299028,"lon":5.381509,"is_reserved":false,"is_disabled":false,"rental_uris":{"android":"levelo://app?vid=3ca9016f-8209-488e-9b22-82bee209bf82","ios":"levelo://app?vid=3ca9016f-8209-488e-9b22-82bee209bf82"},"vehicle_type_id":"4","last_reported":1708455915,"current_range_meters":15600,"station_id":"ce4bgj12rcd13ifvqbc0","pricing_plan_id":"cebpf4jnsgd1na2vs0mg"},{"bike_id":"c645a06f-8daa-44f7-acec-6d3d9a264b55","system_id":"levelo_inurba_marseille","lat":43.317557,"lon":5.390173,"is_reserved":false,"is_disabled":false,"rental_uris":{"android":"levelo://app?vid=c645a06f-8daa-44f7-acec-6d3d9a264b55","ios":"levelo://app?vid=c645a06f-8daa-44f7-acec-6d3d9a264b55"},"vehicle_type_id":"4","last_reported":1708455915,"current_range_meters":5600,"station_id":"ce4bhqp2rcd13ifvqhng","pricing_plan_id":"cebpf4jnsgd1na2vs0mg"},{"bike_id":"d6e2bc02-57e3-487e-896f-1135c0ee3fc2","system_id":"levelo_inurba_marseille","lat":43.31758,"lon":5.39015,"is_reserved":false,"is_disabled":false,"rental_uris":{"android":"levelo://app?vid=d6e2bc02-57e3-487e-896f-1135c0ee3fc2","ios":"levelo://app?vid=d6e2bc02-57e3-487e-896f-1135c0ee3fc2"},"vehicle_type_id":"4","last_reported":1708455915,"current_range_meters":0,"station_id":"ce4bhqp2rcd13ifvqhng","pricing_plan_id":"cebpf4jnsgd1na2vs0mg"},{"bike_id":"d8e199a1-664b-4dd0-82eb-aea7c746ff0e","system_id":"levelo_inurba_marseille","lat":43.317557,"lon":5.390173,"is_reserved":false,"is_disabled":false,"rental_uris":{"android":"levelo://app?vid=d8e199a1-664b-4dd0-82eb-aea7c746ff0e","ios":"levelo://app?vid=d8e199a1-664b-4dd0-82eb-aea7c746ff0e"},"vehicle_type_id":"4","last_reported":1708455915,"current_range_meters":14800,"station_id":"ce4bhqp2rcd13ifvqhng","pricing_plan_id":"cebpf4jnsgd1na2vs0mg"},{"bike_id":"709449f5-e857-471f-a017-038efc025a48","system_id":"levelo_inurba_marseille","lat":43.31758,"lon":5.39016,"is_reserved":false,"is_disabled":false,"rental_uris":{"android":"levelo://app?vid=709449f5-e857-471f-a017-038efc025a48","ios":"levelo://app?vid=709449f5-e857-471f-a017-038efc025a48"},"vehicle_type_id":"4","last_reported":1708455915,"current_range_meters":3600,"station_id":"ce4bhqp2rcd13ifvqhng","pricing_plan_id":"cebpf4jnsgd1na2vs0mg"},{"bike_id":"f2c79383-5542-4aa7-9295-3bc848714849","system_id":"levelo_inurba_marseille","lat":43.29801,"lon":5.380916,"is_reserved":false,"is_disabled":false,"rental_uris":{"android":"levelo://app?vid=f2c79383-5542-4aa7-9295-3bc848714849","ios":"levelo://app?vid=f2c79383-5542-4aa7-9295-3bc848714849"},"vehicle_type_id":"4","last_reported":1708455915,"current_range_meters":0,"station_id":"ce4bgip2rcd13ifvqbb0","pricing_plan_id":"cebpf4jnsgd1na2vs0mg"},{"bike_id":"16ca8510-f581-4415-9c33-359a38105faf","system_id":"levelo_inurba_marseille","lat":43.298037,"lon":5.381066,"is_reserved":false,"is_disabled":false,"rental_uris":{"android":"levelo://app?vid=16ca8510-f581-4415-9c33-359a38105faf","ios":"levelo://app?vid=16ca8510-f581-4415-9c33-359a38105faf"},"vehicle_type_id":"4","last_reported":1708455915,"current_range_meters":24800,"station_id":"ce4bgip2rcd13ifvqbb0","pricing_plan_id":"cebpf4jnsgd1na2vs0mg"},{"bike_id":"3947b5e6-1f48-4138-b915-543c192eee53","system_id":"levelo_inurba_marseille","lat":43.296263,"lon":5.377094,"is_reserved":false,"is_disabled":false,"rental_uris":{"android":"levelo://app?vid=3947b5e6-1f48-4138-b915-543c192eee53","ios":"levelo://app?vid=3947b5e6-1f48-4138-b915-543c192eee53"},"vehicle_type_id":"4","last_reported":1708455915,"current_range_meters":3200,"station_id":"ce4bgi92rcd13ifvqb90","pricing_plan_id":"cebpf4jnsgd1na2vs0mg"},{"bike_id":"7e1d2f4e-e71b-4dc1-8196-1f3ea2880a1c","system_id":"levelo_inurba_marseille","lat":43.29792,"lon":5.38099,"is_reserved":false,"is_disabled":false,"rental_uris":{"android":"levelo://app?vid=7e1d2f4e-e71b-4dc1-8196-1f3ea2880a1c","ios":"levelo://app?vid=7e1d2f4e-e71b-4dc1-8196-1f3ea2880a1c"},"vehicle_type_id":"4","last_reported":1708455915,"current_range_meters":0,"station_id":"ce4bgip2rcd13ifvqbb0","pricing_plan_id":"cebpf4jnsgd1na2vs0mg"},{"bike_id":"375ee5c9-5c14-4f48-be6a-b932c5a9ed78","system_id":"levelo_inurba_marseille","lat":43.304274,"lon":5.388873,"is_reserved":false,"is_disabled":false,"rental_uris":{"android":"levelo://app?vid=375ee5c9-5c14-4f48-be6a-b932c5a9ed78","ios":"levelo://app?vid=375ee5c9-5c14-4f48-be6a-b932c5a9ed78"},"vehicle_type_id":"4","last_reported":1708455915,"current_range_meters":5200,"station_id":"ce4bgk12rcd13ifvqbi0","pricing_plan_id":"cebpf4jnsgd1na2vs0mg"},{"bike_id":"cae02a93-f365-474f-b894-136e008ac31d","system_id":"levelo_inurba_marseille","lat":43.304278,"lon":5.388868,"is_reserved":false,"is_disabled":false,"rental_uris":{"android":"levelo://app?vid=cae02a93-f365-474f-b894-136e008ac31d","ios":"levelo://app?vid=cae02a93-f365-474f-b894-136e008ac31d"},"vehicle_type_id":"4","last_reported":1708455915,"current_range_meters":18800,"station_id":"ce4bgk12rcd13ifvqbi0","pricing_plan_id":"cebpf4jnsgd1na2vs0mg"},{"bike_id":"a92139b8-416b-4c3c-8dd5-06f5fdb7742d","system_id":"levelo_inurba_marseille","lat":43.295279,"lon":5.375048,"is_reserved":false,"is_disabled":false,"rental_uris":{"android":"levelo://app?vid=a92139b8-416b-4c3c-8dd5-06f5fdb7742d","ios":"levelo://app?vid=a92139b8-416b-4c3c-8dd5-06f5fdb7742d"},"vehicle_type_id":"4","last_reported":1708455915,"current_range_meters":24400,"station_id":"ce4bgkp2rcd13ifvqbmg","pricing_plan_id":"cebpf4jnsgd1na2vs0mg"},{"bike_id":"0027059a-e008-4086-a6c5-e02277b17bfe","system_id":"levelo_inurba_marseille","lat":43.29979,"lon":5.38478,"is_reserved":false,"is_disabled":false,"rental_uris":{"android":"levelo://app?vid=0027059a-e008-4086-a6c5-e02277b17bfe","ios":"levelo://app?vid=0027059a-e008-4086-a6c5-e02277b17bfe"},"vehicle_type_id":"4","last_reported":1708455915,"current_range_meters":22800,"station_id":"ce4bgj92rcd13ifvqbd0","pricing_plan_id":"cebpf4jnsgd1na2vs0mg"},{"bike_id":"3dab5d92-f509-4fb3-bb91-13475edbad85","system_id":"levelo_inurba_marseille","lat":43.299707,"lon":5.384859,"is_reserved":false,"is_disabled":false,"rental_uris":{"android":"levelo://app?vid=3dab5d92-f509-4fb3-bb91-13475edbad85","ios":"levelo://app?vid=3dab5d92-f509-4fb3-bb91-13475edbad85"},"vehicle_type_id":"4","last_reported":1708455915,"current_range_meters":21200,"station_id":"ce4bgj92rcd13ifvqbd0","pricing_plan_id":"cebpf4jnsgd1na2vs0mg"},{"bike_id":"6634de38-65ea-4afe-b13e-66a1637fc955","system_id":"levelo_inurba_marseille","lat":43.29981,"lon":5.38487,"is_reserved":false,"is_disabled":false,"rental_uris":{"android":"levelo://app?vid=6634de38-65ea-4afe-b13e-66a1637fc955","ios":"levelo://app?vid=6634de38-65ea-4afe-b13e-66a1637fc955"},"vehicle_type_id":"4","last_reported":1708455915,"current_range_meters":0,"station_id":"ce4bgj92rcd13ifvqbd0","pricing_plan_id":"cebpf4jnsgd1na2vs0mg"},{"bike_id":"e6a0e90a-fe29-402b-9a33-2ab11ae6c8bf","system_id":"levelo_inurba_marseille","lat":43.29973,"lon":5.38491,"is_reserved":false,"is_disabled":false,"rental_uris":{"android":"levelo://app?vid=e6a0e90a-fe29-402b-9a33-2ab11ae6c8bf","ios":"levelo://app?vid=e6a0e90a-fe29-402b-9a33-2ab11ae6c8bf"},"vehicle_type_id":"4","last_reported":1708455915,"current_range_meters":4800,"station_id":"ce4bgj92rcd13ifvqbd0","pricing_plan_id":"cebpf4jnsgd1na2vs0mg"},{"bike_id":"83aa9c5f-9886-4dbc-8583-29aa502ca8fa","system_id":"levelo_inurba_marseille","lat":43.29969,"lon":5.38489,"is_reserved":false,"is_disabled":false,"rental_uris":{"android":"levelo://app?vid=83aa9c5f-9886-4dbc-8583-29aa502ca8fa","ios":"levelo://app?vid=83aa9c5f-9886-4dbc-8583-29aa502ca8fa"},"vehicle_type_id":"4","last_reported":1708455915,"current_range_meters":27600,"station_id":"ce4bgj92rcd13ifvqbd0","pricing_plan_id":"cebpf4jnsgd1na2vs0mg"},{"bike_id":"b160e9cf-bcdb-477e-bb15-daa7e1ca0434","system_id":"levelo_inurba_marseille","lat":43.299724,"lon":5.384848,"is_reserved":false,"is_disabled":false,"rental_uris":{"android":"levelo://app?vid=b160e9cf-bcdb-477e-bb15-daa7e1ca0434","ios":"levelo://app?vid=b160e9cf-bcdb-477e-bb15-daa7e1ca0434"},"vehicle_type_id":"4","last_reported":1708455915,"current_range_meters":12000,"station_id":"ce4bgj92rcd13ifvqbd0","pricing_plan_id":"cebpf4jnsgd1na2vs0mg"},{"bike_id":"668c6e2e-a966-4b6b-a3e7-54fd978c50f4","system_id":"levelo_inurba_marseille","lat":43.299707,"lon":5.384859,"is_reserved":false,"is_disabled":false,"rental_uris":{"android":"levelo://app?vid=668c6e2e-a966-4b6b-a3e7-54fd978c50f4","ios":"levelo://app?vid=668c6e2e-a966-4b6b-a3e7-54fd978c50f4"},"vehicle_type_id":"4","last_reported":1708455915,"current_range_meters":19600,"station_id":"ce4bgj92rcd13ifvqbd0","pricing_plan_id":"cebpf4jnsgd1na2vs0mg"},{"bike_id":"0c208a44-6fea-4c2a-bc82-a1309c550fe3","system_id":"levelo_inurba_marseille","lat":43.299717,"lon":5.384845,"is_reserved":false,"is_disabled":false,"rental_uris":{"android":"levelo://app?vid=0c208a44-6fea-4c2a-bc82-a1309c550fe3","ios":"levelo://app?vid=0c208a44-6fea-4c2a-bc82-a1309c550fe3"},"vehicle_type_id":"4","last_reported":1708455915,"current_range_meters":1600,"station_id":"ce4bgj92rcd13ifvqbd0","pricing_plan_id":"cebpf4jnsgd1na2vs0mg"},{"bike_id":"ffa3a922-4c5d-4a9c-9e91-ae0166b49b2d","system_id":"levelo_inurba_marseille","lat":43.30124,"lon":5.38797,"is_reserved":false,"is_disabled":false,"rental_uris":{"android":"levelo://app?vid=ffa3a922-4c5d-4a9c-9e91-ae0166b49b2d","ios":"levelo://app?vid=ffa3a922-4c5d-4a9c-9e91-ae0166b49b2d"},"vehicle_type_id":"4","last_reported":1708455915,"current_range_meters":10400,"station_id":"","pricing_plan_id":"cebpf4jnsgd1na2vs0mg"},{"bike_id":"0605d24d-f576-4560-a092-4bccfadc3a33","system_id":"levelo_inurba_marseille","lat":43.32367,"lon":5.388836,"is_reserved":false,"is_disabled":false,"rental_uris":{"android":"levelo://app?vid=0605d24d-f576-4560-a092-4bccfadc3a33","ios":"levelo://app?vid=0605d24d-f576-4560-a092-4bccfadc3a33"},"vehicle_type_id":"4","last_reported":1708455915,"current_range_meters":9200,"station_id":"ce4bhqp2rcd13ifvqhog","pricing_plan_id":"cebpf4jnsgd1na2vs0mg"},{"bike_id":"f6d70e1a-28a8-4fd6-82cd-ab78aeaef9da","system_id":"levelo_inurba_marseille","lat":43.32367,"lon":5.388836,"is_reserved":false,"is_disabled":false,"rental_uris":{"android":"levelo://app?vid=f6d70e1a-28a8-4fd6-82cd-ab78aeaef9da","ios":"levelo://app?vid=f6d70e1a-28a8-4fd6-82cd-ab78aeaef9da"},"vehicle_type_id":"4","last_reported":1708455915,"current_range_meters":27200,"station_id":"ce4bhqp2rcd13ifvqhog","pricing_plan_id":"cebpf4jnsgd1na2vs0mg"},{"bike_id":"146e877e-91b7-4571-b34e-bca68e9e556b","system_id":"levelo_inurba_marseille","lat":43.32367,"lon":5.388836,"is_reserved":false,"is_disabled":false,"rental_uris":{"android":"levelo://app?vid=146e877e-91b7-4571-b34e-bca68e9e556b","ios":"levelo://app?vid=146e877e-91b7-4571-b34e-bca68e9e556b"},"vehicle_type_id":"4","last_reported":1708455915,"current_range_meters":24800,"station_id":"ce4bhqp2rcd13ifvqhog","pricing_plan_id":"cebpf4jnsgd1na2vs0mg"},{"bike_id":"7671d002-68d4-4024-8203-235f9470c257","system_id":"levelo_inurba_marseille","lat":43.32367,"lon":5.388836,"is_reserved":false,"is_disabled":false,"rental_uris":{"android":"levelo://app?vid=7671d002-68d4-4024-8203-235f9470c257","ios":"levelo://app?vid=7671d002-68d4-4024-8203-235f9470c257"},"vehicle_type_id":"4","last_reported":1708455915,"current_range_meters":18800,"station_id":"ce4bhqp2rcd13ifvqhog","pricing_plan_id":"cebpf4jnsgd1na2vs0mg"},{"bike_id":"9f42b2b5-3f7d-42d5-814e-67c0cde8758f","system_id":"levelo_inurba_marseille","lat":43.29602,"lon":5.381084,"is_reserved":false,"is_disabled":false,"rental_uris":{"android":"levelo://app?vid=9f42b2b5-3f7d-42d5-814e-67c0cde8758f","ios":"levelo://app?vid=9f42b2b5-3f7d-42d5-814e-67c0cde8758f"},"vehicle_type_id":"4","last_reported":1708455915,"current_range_meters":27200,"station_id":"ce4bgl12rcd13ifvqbo0","pricing_plan_id":"cebpf4jnsgd1na2vs0mg"},{"bike_id":"6060bfbc-5b16-43c5-90c9-35d90c797363","system_id":"levelo_inurba_marseille","lat":43.29606,"lon":5.38103,"is_reserved":false,"is_disabled":false,"rental_uris":{"android":"levelo://app?vid=6060bfbc-5b16-43c5-90c9-35d90c797363","ios":"levelo://app?vid=6060bfbc-5b16-43c5-90c9-35d90c797363"},"vehicle_type_id":"4","last_reported":1708455915,"current_range_meters":1200,"station_id":"ce4bgl12rcd13ifvqbo0","pricing_plan_id":"cebpf4jnsgd1na2vs0mg"},{"bike_id":"55a606fa-2a79-446f-abb1-ef2fb6f246d7","system_id":"levelo_inurba_marseille","lat":43.29597,"lon":5.38104,"is_reserved":false,"is_disabled":false,"rental_uris":{"android":"levelo://app?vid=55a606fa-2a79-446f-abb1-ef2fb6f246d7","ios":"levelo://app?vid=55a606fa-2a79-446f-abb1-ef2fb6f246d7"},"vehicle_type_id":"4","last_reported":1708455915,"current_range_meters":2000,"station_id":"ce4bgl12rcd13ifvqbo0","pricing_plan_id":"cebpf4jnsgd1na2vs0mg"},{"bike_id":"fb3f2a20-7773-4b63-b664-812e0773acab","system_id":"levelo_inurba_marseille","lat":43.29602,"lon":5.381084,"is_reserved":false,"is_disabled":false,"rental_uris":{"android":"levelo://app?vid=fb3f2a20-7773-4b63-b664-812e0773acab","ios":"levelo://app?vid=fb3f2a20-7773-4b63-b664-812e0773acab"},"vehicle_type_id":"4","last_reported":1708455915,"current_range_meters":7200,"station_id":"ce4bgl12rcd13ifvqbo0","pricing_plan_id":"cebpf4jnsgd1na2vs0mg"},{"bike_id":"c3f469e6-84e9-45fb-a0a2-e3eb6e18f05a","system_id":"levelo_inurba_marseille","lat":43.293259,"lon":5.371586,"is_reserved":false,"is_disabled":false,"rental_uris":{"android":"levelo://app?vid=c3f469e6-84e9-45fb-a0a2-e3eb6e18f05a","ios":"levelo://app?vid=c3f469e6-84e9-45fb-a0a2-e3eb6e18f05a"},"vehicle_type_id":"4","last_reported":1708455915,"current_range_meters":11200,"station_id":"ce4bgh92rcd13ifvqb40","pricing_plan_id":"cebpf4jnsgd1na2vs0mg"},{"bike_id":"7f4b6f5f-7e5f-414a-b1ee-1d586d0410bf","system_id":"levelo_inurba_marseille","lat":43.292749,"lon":5.368398,"is_reserved":false,"is_disabled":false,"rental_uris":{"android":"levelo://app?vid=7f4b6f5f-7e5f-414a-b1ee-1d586d0410bf","ios":"levelo://app?vid=7f4b6f5f-7e5f-414a-b1ee-1d586d0410bf"},"vehicle_type_id":"4","last_reported":1708455915,"current_range_meters":0,"station_id":"ce4bhbp2rcd13ifvqesg","pricing_plan_id":"cebpf4jnsgd1na2vs0mg"},{"bike_id":"41196f64-9c75-48a1-99e3-9eec0c523bec","system_id":"levelo_inurba_marseille","lat":43.292749,"lon":5.368398,"is_reserved":false,"is_disabled":false,"rental_uris":{"android":"levelo://app?vid=41196f64-9c75-48a1-99e3-9eec0c523bec","ios":"levelo://app?vid=41196f64-9c75-48a1-99e3-9eec0c523bec"},"vehicle_type_id":"4","last_reported":1708455915,"current_range_meters":0,"station_id":"ce4bhbp2rcd13ifvqesg","pricing_plan_id":"cebpf4jnsgd1na2vs0mg"},{"bike_id":"3d1400e7-40bc-4b35-9131-78c7b78eb703","system_id":"levelo_inurba_marseille","lat":43.305994,"lon":5.393687,"is_reserved":false,"is_disabled":false,"rental_uris":{"android":"levelo://app?vid=3d1400e7-40bc-4b35-9131-78c7b78eb703","ios":"levelo://app?vid=3d1400e7-40bc-4b35-9131-78c7b78eb703"},"vehicle_type_id":"4","last_reported":1708455915,"current_range_meters":10400,"station_id":"ce4bh0p2rcd13ifvqd80","pricing_plan_id":"cebpf4jnsgd1na2vs0mg"},{"bike_id":"535e9f15-cd62-44fd-9985-ea36bf0bb509","system_id":"levelo_inurba_marseille","lat":43.303002,"lon":5.392142,"is_reserved":false,"is_disabled":false,"rental_uris":{"android":"levelo://app?vid=535e9f15-cd62-44fd-9985-ea36bf0bb509","ios":"levelo://app?vid=535e9f15-cd62-44fd-9985-ea36bf0bb509"},"vehicle_type_id":"4","last_reported":1708455915,"current_range_meters":12800,"station_id":"ce4bgkh2rcd13ifvqbk0","pricing_plan_id":"cebpf4jnsgd1na2vs0mg"},{"bike_id":"b9c3b8d8-0aea-4986-a06f-d9c079da22e1","system_id":"levelo_inurba_marseille","lat":43.302992,"lon":5.392136,"is_reserved":false,"is_disabled":false,"rental_uris":{"android":"levelo://app?vid=b9c3b8d8-0aea-4986-a06f-d9c079da22e1","ios":"levelo://app?vid=b9c3b8d8-0aea-4986-a06f-d9c079da22e1"},"vehicle_type_id":"4","last_reported":1708455915,"current_range_meters":0,"station_id":"ce4bgkh2rcd13ifvqbk0","pricing_plan_id":"cebpf4jnsgd1na2vs0mg"},{"bike_id":"2c0631dd-90bc-4e0f-88e7-2d4f809ebdf3","system_id":"levelo_inurba_marseille","lat":43.30304,"lon":5.39214,"is_reserved":false,"is_disabled":false,"rental_uris":{"android":"levelo://app?vid=2c0631dd-90bc-4e0f-88e7-2d4f809ebdf3","ios":"levelo://app?vid=2c0631dd-90bc-4e0f-88e7-2d4f809ebdf3"},"vehicle_type_id":"4","last_reported":1708455915,"current_range_meters":0,"station_id":"ce4bgkh2rcd13ifvqbk0","pricing_plan_id":"cebpf4jnsgd1na2vs0mg"},{"bike_id":"c9833bc7-8284-4ba9-8cbf-e8a36d410e2a","system_id":"levelo_inurba_marseille","lat":43.3029,"lon":5.39208,"is_reserved":false,"is_disabled":false,"rental_uris":{"android":"levelo://app?vid=c9833bc7-8284-4ba9-8cbf-e8a36d410e2a","ios":"levelo://app?vid=c9833bc7-8284-4ba9-8cbf-e8a36d410e2a"},"vehicle_type_id":"4","last_reported":1708455915,"current_range_meters":11600,"station_id":"ce4bgkh2rcd13ifvqbk0","pricing_plan_id":"cebpf4jnsgd1na2vs0mg"},{"bike_id":"f575c977-2f4d-4d2a-aaa4-9c77b8a7fbff","system_id":"levelo_inurba_marseille","lat":43.303,"lon":5.39218,"is_reserved":false,"is_disabled":false,"rental_uris":{"android":"levelo://app?vid=f575c977-2f4d-4d2a-aaa4-9c77b8a7fbff","ios":"levelo://app?vid=f575c977-2f4d-4d2a-aaa4-9c77b8a7fbff"},"vehicle_type_id":"4","last_reported":1708455915,"current_range_meters":0,"station_id":"ce4bgkh2rcd13ifvqbk0","pricing_plan_id":"cebpf4jnsgd1na2vs0mg"},{"bike_id":"ee1583c1-60a9-478d-8c61-dabafb3106f8","system_id":"levelo_inurba_marseille","lat":43.2936,"lon":5.37835,"is_reserved":false,"is_disabled":false,"rental_uris":{"android":"levelo://app?vid=ee1583c1-60a9-478d-8c61-dabafb3106f8","ios":"levelo://app?vid=ee1583c1-60a9-478d-8c61-dabafb3106f8"},"vehicle_type_id":"4","last_reported":1708455915,"current_range_meters":0,"station_id":"ce4bgjh2rcd13ifvqbf0","pricing_plan_id":"cebpf4jnsgd1na2vs0mg"},{"bike_id":"ced04b86-ef37-48ff-8101-83188245b1bb","system_id":"levelo_inurba_marseille","lat":43.29368,"lon":5.378588,"is_reserved":false,"is_disabled":false,"rental_uris":{"android":"levelo://app?vid=ced04b86-ef37-48ff-8101-83188245b1bb","ios":"levelo://app?vid=ced04b86-ef37-48ff-8101-83188245b1bb"},"vehicle_type_id":"4","last_reported":1708455915,"current_range_meters":0,"station_id":"","pricing_plan_id":"cebpf4jnsgd1na2vs0mg"},{"bike_id":"b8146bd2-0c9b-4652-9cd9-1af91fc7c18a","system_id":"levelo_inurba_marseille","lat":43.300852,"lon":5.390859,"is_reserved":false,"is_disabled":false,"rental_uris":{"android":"levelo://app?vid=b8146bd2-0c9b-4652-9cd9-1af91fc7c18a","ios":"levelo://app?vid=b8146bd2-0c9b-4652-9cd9-1af91fc7c18a"},"vehicle_type_id":"4","last_reported":1708455915,"current_range_meters":15600,"station_id":"ce4bh192rcd13ifvqdb0","pricing_plan_id":"cebpf4jnsgd1na2vs0mg"},{"bike_id":"7cd994ca-3bb5-42a6-b020-b086847a1c71","system_id":"levelo_inurba_marseille","lat":43.298764,"lon":5.388973,"is_reserved":false,"is_disabled":false,"rental_uris":{"android":"levelo://app?vid=7cd994ca-3bb5-42a6-b020-b086847a1c71","ios":"levelo://app?vid=7cd994ca-3bb5-42a6-b020-b086847a1c71"},"vehicle_type_id":"4","last_reported":1708455915,"current_range_meters":26000,"station_id":"ce4bh392rcd13ifvqdl0","pricing_plan_id":"cebpf4jnsgd1na2vs0mg"},{"bike_id":"4f11681f-e276-4b03-8e44-28ff1ab196b9","system_id":"levelo_inurba_marseille","lat":43.298764,"lon":5.388973,"is_reserved":false,"is_disabled":false,"rental_uris":{"android":"levelo://app?vid=4f11681f-e276-4b03-8e44-28ff1ab196b9","ios":"levelo://app?vid=4f11681f-e276-4b03-8e44-28ff1ab196b9"},"vehicle_type_id":"4","last_reported":1708455915,"current_range_meters":23200,"station_id":"ce4bh392rcd13ifvqdl0","pricing_plan_id":"cebpf4jnsgd1na2vs0mg"},{"bike_id":"855ac862-eadc-4106-994e-0826df01c293","system_id":"levelo_inurba_marseille","lat":43.298764,"lon":5.388973,"is_reserved":false,"is_disabled":false,"rental_uris":{"android":"levelo://app?vid=855ac862-eadc-4106-994e-0826df01c293","ios":"levelo://app?vid=855ac862-eadc-4106-994e-0826df01c293"},"vehicle_type_id":"4","last_reported":1708455915,"current_range_meters":22800,"station_id":"ce4bh392rcd13ifvqdl0","pricing_plan_id":"cebpf4jnsgd1na2vs0mg"},{"bike_id":"592c8551-e0f3-4efb-bf27-e001406eca21","system_id":"levelo_inurba_marseille","lat":43.298764,"lon":5.388973,"is_reserved":false,"is_disabled":false,"rental_uris":{"android":"levelo://app?vid=592c8551-e0f3-4efb-bf27-e001406eca21","ios":"levelo://app?vid=592c8551-e0f3-4efb-bf27-e001406eca21"},"vehicle_type_id":"4","last_reported":1708455915,"current_range_meters":29200,"station_id":"ce4bh392rcd13ifvqdl0","pricing_plan_id":"cebpf4jnsgd1na2vs0mg"},{"bike_id":"f9bcf501-906f-43e0-abd3-c82357ee91ae","system_id":"levelo_inurba_marseille","lat":43.29167,"lon":5.37154,"is_reserved":false,"is_disabled":false,"rental_uris":{"android":"levelo://app?vid=f9bcf501-906f-43e0-abd3-c82357ee91ae","ios":"levelo://app?vid=f9bcf501-906f-43e0-abd3-c82357ee91ae"},"vehicle_type_id":"4","last_reported":1708455915,"current_range_meters":11600,"station_id":"ce4bha92rcd13ifvqeh0","pricing_plan_id":"cebpf4jnsgd1na2vs0mg"},{"bike_id":"194021fa-1a8b-49cf-9462-17b488b37e0b","system_id":"levelo_inurba_marseille","lat":43.291675,"lon":5.371583,"is_reserved":false,"is_disabled":false,"rental_uris":{"android":"levelo://app?vid=194021fa-1a8b-49cf-9462-17b488b37e0b","ios":"levelo://app?vid=194021fa-1a8b-49cf-9462-17b488b37e0b"},"vehicle_type_id":"4","last_reported":1708455915,"current_range_meters":10400,"station_id":"ce4bha92rcd13ifvqeh0","pricing_plan_id":"cebpf4jnsgd1na2vs0mg"},{"bike_id":"d88190b8-4702-457e-a3ee-cfa38b0672f5","system_id":"levelo_inurba_marseille","lat":43.291675,"lon":5.371583,"is_reserved":false,"is_disabled":false,"rental_uris":{"android":"levelo://app?vid=d88190b8-4702-457e-a3ee-cfa38b0672f5","ios":"levelo://app?vid=d88190b8-4702-457e-a3ee-cfa38b0672f5"},"vehicle_type_id":"4","last_reported":1708455915,"current_range_meters":20000,"station_id":"ce4bha92rcd13ifvqeh0","pricing_plan_id":"cebpf4jnsgd1na2vs0mg"},{"bike_id":"765449de-58c6-4f90-a1b4-945058e069da","system_id":"levelo_inurba_marseille","lat":43.291675,"lon":5.371583,"is_reserved":false,"is_disabled":false,"rental_uris":{"android":"levelo://app?vid=765449de-58c6-4f90-a1b4-945058e069da","ios":"levelo://app?vid=765449de-58c6-4f90-a1b4-945058e069da"},"vehicle_type_id":"4","last_reported":1708455915,"current_range_meters":24800,"station_id":"ce4bha92rcd13ifvqeh0","pricing_plan_id":"cebpf4jnsgd1na2vs0mg"},{"bike_id":"c55bb9fa-251d-4027-8a30-91628bdd200e","system_id":"levelo_inurba_marseille","lat":43.298764,"lon":5.388973,"is_reserved":false,"is_disabled":false,"rental_uris":{"android":"levelo://app?vid=c55bb9fa-251d-4027-8a30-91628bdd200e","ios":"levelo://app?vid=c55bb9fa-251d-4027-8a30-91628bdd200e"},"vehicle_type_id":"4","last_reported":1708455915,"current_range_meters":12800,"station_id":"ce4bh392rcd13ifvqdl0","pricing_plan_id":"cebpf4jnsgd1na2vs0mg"},{"bike_id":"b782c8fb-b173-4ae2-ab58-7ac2dc909c73","system_id":"levelo_inurba_marseille","lat":43.2936,"lon":5.37835,"is_reserved":false,"is_disabled":false,"rental_uris":{"android":"levelo://app?vid=b782c8fb-b173-4ae2-ab58-7ac2dc909c73","ios":"levelo://app?vid=b782c8fb-b173-4ae2-ab58-7ac2dc909c73"},"vehicle_type_id":"4","last_reported":1708455915,"current_range_meters":24000,"station_id":"ce4bgjh2rcd13ifvqbf0","pricing_plan_id":"cebpf4jnsgd1na2vs0mg"},{"bike_id":"c7675864-b47b-4d37-a757-396a5e51116a","system_id":"levelo_inurba_marseille","lat":43.313291,"lon":5.396838,"is_reserved":false,"is_disabled":false,"rental_uris":{"android":"levelo://app?vid=c7675864-b47b-4d37-a757-396a5e51116a","ios":"levelo://app?vid=c7675864-b47b-4d37-a757-396a5e51116a"},"vehicle_type_id":"4","last_reported":1708455915,"current_range_meters":30800,"station_id":"ce4bgvp2rcd13ifvqcu0","pricing_plan_id":"cebpf4jnsgd1na2vs0mg"},{"bike_id":"34a78d8f-16a7-48c2-9f83-7a325f0f9681","system_id":"levelo_inurba_marseille","lat":43.313291,"lon":5.396838,"is_reserved":false,"is_disabled":false,"rental_uris":{"android":"levelo://app?vid=34a78d8f-16a7-48c2-9f83-7a325f0f9681","ios":"levelo://app?vid=34a78d8f-16a7-48c2-9f83-7a325f0f9681"},"vehicle_type_id":"4","last_reported":1708455915,"current_range_meters":22400,"station_id":"ce4bgvp2rcd13ifvqcu0","pricing_plan_id":"cebpf4jnsgd1na2vs0mg"},{"bike_id":"2b106bd7-e21c-45a9-813b-570f2f32c230","system_id":"levelo_inurba_marseille","lat":43.313291,"lon":5.396838,"is_reserved":false,"is_disabled":false,"rental_uris":{"android":"levelo://app?vid=2b106bd7-e21c-45a9-813b-570f2f32c230","ios":"levelo://app?vid=2b106bd7-e21c-45a9-813b-570f2f32c230"},"vehicle_type_id":"4","last_reported":1708455915,"current_range_meters":16000,"station_id":"ce4bgvp2rcd13ifvqcu0","pricing_plan_id":"cebpf4jnsgd1na2vs0mg"},{"bike_id":"a5266621-0c3a-4158-86f7-d67d0628c575","system_id":"levelo_inurba_marseille","lat":43.313291,"lon":5.396838,"is_reserved":false,"is_disabled":false,"rental_uris":{"android":"levelo://app?vid=a5266621-0c3a-4158-86f7-d67d0628c575","ios":"levelo://app?vid=a5266621-0c3a-4158-86f7-d67d0628c575"},"vehicle_type_id":"4","last_reported":1708455915,"current_range_meters":13600,"station_id":"ce4bgvp2rcd13ifvqcu0","pricing_plan_id":"cebpf4jnsgd1na2vs0mg"},{"bike_id":"a18a8e53-a21d-4f1c-b971-a459b3adfcde","system_id":"levelo_inurba_marseille","lat":43.313291,"lon":5.396838,"is_reserved":false,"is_disabled":false,"rental_uris":{"android":"levelo://app?vid=a18a8e53-a21d-4f1c-b971-a459b3adfcde","ios":"levelo://app?vid=a18a8e53-a21d-4f1c-b971-a459b3adfcde"},"vehicle_type_id":"4","last_reported":1708455915,"current_range_meters":8400,"station_id":"ce4bgvp2rcd13ifvqcu0","pricing_plan_id":"cebpf4jnsgd1na2vs0mg"},{"bike_id":"7a0398e1-3895-40a6-9cc4-11ace95086c3","system_id":"levelo_inurba_marseille","lat":43.313291,"lon":5.396838,"is_reserved":false,"is_disabled":false,"rental_uris":{"android":"levelo://app?vid=7a0398e1-3895-40a6-9cc4-11ace95086c3","ios":"levelo://app?vid=7a0398e1-3895-40a6-9cc4-11ace95086c3"},"vehicle_type_id":"4","last_reported":1708455915,"current_range_meters":21600,"station_id":"ce4bgvp2rcd13ifvqcu0","pricing_plan_id":"cebpf4jnsgd1na2vs0mg"},{"bike_id":"b254b897-3e14-4b27-8ae8-379a3ddebe36","system_id":"levelo_inurba_marseille","lat":43.313291,"lon":5.396838,"is_reserved":false,"is_disabled":false,"rental_uris":{"android":"levelo://app?vid=b254b897-3e14-4b27-8ae8-379a3ddebe36","ios":"levelo://app?vid=b254b897-3e14-4b27-8ae8-379a3ddebe36"},"vehicle_type_id":"4","last_reported":1708455915,"current_range_meters":6800,"station_id":"ce4bgvp2rcd13ifvqcu0","pricing_plan_id":"cebpf4jnsgd1na2vs0mg"},{"bike_id":"a763196a-cb78-4f6f-9286-5291ab84bfdc","system_id":"levelo_inurba_marseille","lat":43.313291,"lon":5.396838,"is_reserved":false,"is_disabled":false,"rental_uris":{"android":"levelo://app?vid=a763196a-cb78-4f6f-9286-5291ab84bfdc","ios":"levelo://app?vid=a763196a-cb78-4f6f-9286-5291ab84bfdc"},"vehicle_type_id":"4","last_reported":1708455915,"current_range_meters":24000,"station_id":"ce4bgvp2rcd13ifvqcu0","pricing_plan_id":"cebpf4jnsgd1na2vs0mg"},{"bike_id":"5ea256f7-79fa-451a-8ab5-05cb3615da89","system_id":"levelo_inurba_marseille","lat":43.313291,"lon":5.396838,"is_reserved":false,"is_disabled":false,"rental_uris":{"android":"levelo://app?vid=5ea256f7-79fa-451a-8ab5-05cb3615da89","ios":"levelo://app?vid=5ea256f7-79fa-451a-8ab5-05cb3615da89"},"vehicle_type_id":"4","last_reported":1708455915,"current_range_meters":7600,"station_id":"ce4bgvp2rcd13ifvqcu0","pricing_plan_id":"cebpf4jnsgd1na2vs0mg"},{"bike_id":"1c8e05e1-50a2-495d-b73e-83b1c65be716","system_id":"levelo_inurba_marseille","lat":43.313291,"lon":5.396838,"is_reserved":false,"is_disabled":false,"rental_uris":{"android":"levelo://app?vid=1c8e05e1-50a2-495d-b73e-83b1c65be716","ios":"levelo://app?vid=1c8e05e1-50a2-495d-b73e-83b1c65be716"},"vehicle_type_id":"4","last_reported":1708455915,"current_range_meters":7200,"station_id":"ce4bgvp2rcd13ifvqcu0","pricing_plan_id":"cebpf4jnsgd1na2vs0mg"},{"bike_id":"448fb62e-c2c5-4c37-902c-0b0394426dad","system_id":"levelo_inurba_marseille","lat":43.309038,"lon":5.396546,"is_reserved":false,"is_disabled":false,"rental_uris":{"android":"levelo://app?vid=448fb62e-c2c5-4c37-902c-0b0394426dad","ios":"levelo://app?vid=448fb62e-c2c5-4c37-902c-0b0394426dad"},"vehicle_type_id":"4","last_reported":1708455915,"current_range_meters":18800,"station_id":"ce4bh012rcd13ifvqcv0","pricing_plan_id":"cebpf4jnsgd1na2vs0mg"},{"bike_id":"44ee7ac5-6398-4e31-bfea-488afc00b53f","system_id":"levelo_inurba_marseille","lat":43.309047,"lon":5.396551,"is_reserved":false,"is_disabled":false,"rental_uris":{"android":"levelo://app?vid=44ee7ac5-6398-4e31-bfea-488afc00b53f","ios":"levelo://app?vid=44ee7ac5-6398-4e31-bfea-488afc00b53f"},"vehicle_type_id":"4","last_reported":1708455915,"current_range_meters":17600,"station_id":"ce4bh012rcd13ifvqcv0","pricing_plan_id":"cebpf4jnsgd1na2vs0mg"},{"bike_id":"613bf604-d8d9-4ffb-89ae-506cd677d251","system_id":"levelo_inurba_marseille","lat":43.29184,"lon":5.35794,"is_reserved":false,"is_disabled":false,"rental_uris":{"android":"levelo://app?vid=613bf604-d8d9-4ffb-89ae-506cd677d251","ios":"levelo://app?vid=613bf604-d8d9-4ffb-89ae-506cd677d251"},"vehicle_type_id":"4","last_reported":1708455915,"current_range_meters":26400,"station_id":"ce4bhb12rcd13ifvqel0","pricing_plan_id":"cebpf4jnsgd1na2vs0mg"},{"bike_id":"f0f7ee2c-61d6-4acb-ba5a-3a1da6d482d6","system_id":"levelo_inurba_marseille","lat":43.29531,"lon":5.38538,"is_reserved":false,"is_disabled":false,"rental_uris":{"android":"levelo://app?vid=f0f7ee2c-61d6-4acb-ba5a-3a1da6d482d6","ios":"levelo://app?vid=f0f7ee2c-61d6-4acb-ba5a-3a1da6d482d6"},"vehicle_type_id":"4","last_reported":1708455915,"current_range_meters":21600,"station_id":"ce4bgih2rcd13ifvqba0","pricing_plan_id":"cebpf4jnsgd1na2vs0mg"},{"bike_id":"eede4189-8500-446d-a0f6-360faad9081d","system_id":"levelo_inurba_marseille","lat":43.29533,"lon":5.38543,"is_reserved":false,"is_disabled":false,"rental_uris":{"android":"levelo://app?vid=eede4189-8500-446d-a0f6-360faad9081d","ios":"levelo://app?vid=eede4189-8500-446d-a0f6-360faad9081d"},"vehicle_type_id":"4","last_reported":1708455915,"current_range_meters":8400,"station_id":"ce4bgih2rcd13ifvqba0","pricing_plan_id":"cebpf4jnsgd1na2vs0mg"},{"bike_id":"a58c8f17-7fde-4074-aef5-26dca2e9eef8","system_id":"levelo_inurba_marseille","lat":43.295343,"lon":5.385472,"is_reserved":false,"is_disabled":false,"rental_uris":{"android":"levelo://app?vid=a58c8f17-7fde-4074-aef5-26dca2e9eef8","ios":"levelo://app?vid=a58c8f17-7fde-4074-aef5-26dca2e9eef8"},"vehicle_type_id":"4","last_reported":1708455915,"current_range_meters":24800,"station_id":"ce4bgih2rcd13ifvqba0","pricing_plan_id":"cebpf4jnsgd1na2vs0mg"},{"bike_id":"36607efb-c0a1-4051-a6b4-5203efe2ed28","system_id":"levelo_inurba_marseille","lat":43.29529,"lon":5.38544,"is_reserved":false,"is_disabled":false,"rental_uris":{"android":"levelo://app?vid=36607efb-c0a1-4051-a6b4-5203efe2ed28","ios":"levelo://app?vid=36607efb-c0a1-4051-a6b4-5203efe2ed28"},"vehicle_type_id":"4","last_reported":1708455915,"current_range_meters":0,"station_id":"ce4bgih2rcd13ifvqba0","pricing_plan_id":"cebpf4jnsgd1na2vs0mg"},{"bike_id":"3f0e6286-6696-4eaf-b63e-5d71e22415d6","system_id":"levelo_inurba_marseille","lat":43.29529,"lon":5.385581,"is_reserved":false,"is_disabled":false,"rental_uris":{"android":"levelo://app?vid=3f0e6286-6696-4eaf-b63e-5d71e22415d6","ios":"levelo://app?vid=3f0e6286-6696-4eaf-b63e-5d71e22415d6"},"vehicle_type_id":"4","last_reported":1708455915,"current_range_meters":0,"station_id":"ce4bgih2rcd13ifvqba0","pricing_plan_id":"cebpf4jnsgd1na2vs0mg"},{"bike_id":"b8019874-8cdc-46f8-b265-a34c353b356f","system_id":"levelo_inurba_marseille","lat":43.302008,"lon":5.394694,"is_reserved":false,"is_disabled":false,"rental_uris":{"android":"levelo://app?vid=b8019874-8cdc-46f8-b265-a34c353b356f","ios":"levelo://app?vid=b8019874-8cdc-46f8-b265-a34c353b356f"},"vehicle_type_id":"4","last_reported":1708455915,"current_range_meters":0,"station_id":"ce4bh0p2rcd13ifvqd70","pricing_plan_id":"cebpf4jnsgd1na2vs0mg"},{"bike_id":"11e75439-0608-4dc7-b736-35c651d34ca3","system_id":"levelo_inurba_marseille","lat":43.29525,"lon":5.38541,"is_reserved":false,"is_disabled":false,"rental_uris":{"android":"levelo://app?vid=11e75439-0608-4dc7-b736-35c651d34ca3","ios":"levelo://app?vid=11e75439-0608-4dc7-b736-35c651d34ca3"},"vehicle_type_id":"4","last_reported":1708455915,"current_range_meters":8000,"station_id":"ce4bgih2rcd13ifvqba0","pricing_plan_id":"cebpf4jnsgd1na2vs0mg"},{"bike_id":"4ec7dc53-5a0a-4f4f-bbc5-a58d6335c317","system_id":"levelo_inurba_marseille","lat":43.29526,"lon":5.38544,"is_reserved":false,"is_disabled":false,"rental_uris":{"android":"levelo://app?vid=4ec7dc53-5a0a-4f4f-bbc5-a58d6335c317","ios":"levelo://app?vid=4ec7dc53-5a0a-4f4f-bbc5-a58d6335c317"},"vehicle_type_id":"4","last_reported":1708455915,"current_range_meters":25200,"station_id":"ce4bgih2rcd13ifvqba0","pricing_plan_id":"cebpf4jnsgd1na2vs0mg"},{"bike_id":"8fd64954-2b88-4e62-916e-5a54c2246f3a","system_id":"levelo_inurba_marseille","lat":43.29529,"lon":5.385581,"is_reserved":false,"is_disabled":false,"rental_uris":{"android":"levelo://app?vid=8fd64954-2b88-4e62-916e-5a54c2246f3a","ios":"levelo://app?vid=8fd64954-2b88-4e62-916e-5a54c2246f3a"},"vehicle_type_id":"4","last_reported":1708455915,"current_range_meters":26400,"station_id":"ce4bgih2rcd13ifvqba0","pricing_plan_id":"cebpf4jnsgd1na2vs0mg"},{"bike_id":"cd32698e-ed83-4593-81f6-9a86f0ff361c","system_id":"levelo_inurba_marseille","lat":43.290779,"lon":5.371482,"is_reserved":false,"is_disabled":false,"rental_uris":{"android":"levelo://app?vid=cd32698e-ed83-4593-81f6-9a86f0ff361c","ios":"levelo://app?vid=cd32698e-ed83-4593-81f6-9a86f0ff361c"},"vehicle_type_id":"4","last_reported":1708455915,"current_range_meters":4800,"station_id":"ce4bh5p2rcd13ifvqe4g","pricing_plan_id":"cebpf4jnsgd1na2vs0mg"},{"bike_id":"aa9c07fe-10a9-4245-9189-1d91e672967f","system_id":"levelo_inurba_marseille","lat":43.290779,"lon":5.371482,"is_reserved":false,"is_disabled":false,"rental_uris":{"android":"levelo://app?vid=aa9c07fe-10a9-4245-9189-1d91e672967f","ios":"levelo://app?vid=aa9c07fe-10a9-4245-9189-1d91e672967f"},"vehicle_type_id":"4","last_reported":1708455915,"current_range_meters":4000,"station_id":"ce4bh5p2rcd13ifvqe4g","pricing_plan_id":"cebpf4jnsgd1na2vs0mg"},{"bike_id":"7b82f3d4-4b3c-4c54-9784-2ffc4347110c","system_id":"levelo_inurba_marseille","lat":43.290624,"lon":5.359245,"is_reserved":false,"is_disabled":false,"rental_uris":{"android":"levelo://app?vid=7b82f3d4-4b3c-4c54-9784-2ffc4347110c","ios":"levelo://app?vid=7b82f3d4-4b3c-4c54-9784-2ffc4347110c"},"vehicle_type_id":"4","last_reported":1708455915,"current_range_meters":12000,"station_id":"ce4bha92rcd13ifvqeg0","pricing_plan_id":"cebpf4jnsgd1na2vs0mg"},{"bike_id":"c1f65b97-9c61-469d-9aa4-6563f8210b26","system_id":"levelo_inurba_marseille","lat":43.302008,"lon":5.394694,"is_reserved":false,"is_disabled":false,"rental_uris":{"android":"levelo://app?vid=c1f65b97-9c61-469d-9aa4-6563f8210b26","ios":"levelo://app?vid=c1f65b97-9c61-469d-9aa4-6563f8210b26"},"vehicle_type_id":"4","last_reported":1708455915,"current_range_meters":6400,"station_id":"ce4bh0p2rcd13ifvqd70","pricing_plan_id":"cebpf4jnsgd1na2vs0mg"},{"bike_id":"20bc340f-40b8-42ba-ac8d-08dd3d7db221","system_id":"levelo_inurba_marseille","lat":43.302008,"lon":5.394694,"is_reserved":false,"is_disabled":false,"rental_uris":{"android":"levelo://app?vid=20bc340f-40b8-42ba-ac8d-08dd3d7db221","ios":"levelo://app?vid=20bc340f-40b8-42ba-ac8d-08dd3d7db221"},"vehicle_type_id":"4","last_reported":1708455915,"current_range_meters":0,"station_id":"ce4bh0p2rcd13ifvqd70","pricing_plan_id":"cebpf4jnsgd1na2vs0mg"},{"bike_id":"b27814c7-35cd-4ed7-b5e4-7963d5efaff4","system_id":"levelo_inurba_marseille","lat":43.289184,"lon":5.366408,"is_reserved":false,"is_disabled":false,"rental_uris":{"android":"levelo://app?vid=b27814c7-35cd-4ed7-b5e4-7963d5efaff4","ios":"levelo://app?vid=b27814c7-35cd-4ed7-b5e4-7963d5efaff4"},"vehicle_type_id":"4","last_reported":1708455915,"current_range_meters":16800,"station_id":"ce4bhap2rcd13ifvqek0","pricing_plan_id":"cebpf4jnsgd1na2vs0mg"},{"bike_id":"0959b3c1-686d-4c14-a9e7-d1bb7eda1d4a","system_id":"levelo_inurba_marseille","lat":43.290631,"lon":5.359244,"is_reserved":false,"is_disabled":false,"rental_uris":{"android":"levelo://app?vid=0959b3c1-686d-4c14-a9e7-d1bb7eda1d4a","ios":"levelo://app?vid=0959b3c1-686d-4c14-a9e7-d1bb7eda1d4a"},"vehicle_type_id":"4","last_reported":1708455915,"current_range_meters":6800,"station_id":"ce4bha92rcd13ifvqeg0","pricing_plan_id":"cebpf4jnsgd1na2vs0mg"},{"bike_id":"32ef0ffa-02f6-4a8c-bd18-c19897952339","system_id":"levelo_inurba_marseille","lat":43.290624,"lon":5.359245,"is_reserved":false,"is_disabled":false,"rental_uris":{"android":"levelo://app?vid=32ef0ffa-02f6-4a8c-bd18-c19897952339","ios":"levelo://app?vid=32ef0ffa-02f6-4a8c-bd18-c19897952339"},"vehicle_type_id":"4","last_reported":1708455915,"current_range_meters":9200,"station_id":"ce4bha92rcd13ifvqeg0","pricing_plan_id":"cebpf4jnsgd1na2vs0mg"},{"bike_id":"30216e87-afbb-42a3-915c-1fd682c741c3","system_id":"levelo_inurba_marseille","lat":43.290631,"lon":5.359244,"is_reserved":false,"is_disabled":false,"rental_uris":{"android":"levelo://app?vid=30216e87-afbb-42a3-915c-1fd682c741c3","ios":"levelo://app?vid=30216e87-afbb-42a3-915c-1fd682c741c3"},"vehicle_type_id":"4","last_reported":1708455915,"current_range_meters":2800,"station_id":"ce4bha92rcd13ifvqeg0","pricing_plan_id":"cebpf4jnsgd1na2vs0mg"},{"bike_id":"4d3489e5-b4e9-4a3c-b5fc-b63cbc0f5b0a","system_id":"levelo_inurba_marseille","lat":43.292724,"lon":5.401131,"is_reserved":false,"is_disabled":false,"rental_uris":{"android":"levelo://app?vid=4d3489e5-b4e9-4a3c-b5fc-b63cbc0f5b0a","ios":"levelo://app?vid=4d3489e5-b4e9-4a3c-b5fc-b63cbc0f5b0a"},"vehicle_type_id":"4","last_reported":1708455915,"current_range_meters":27600,"station_id":"ce4bh312rcd13ifvqdk0","pricing_plan_id":"cebpf4jnsgd1na2vs0mg"},{"bike_id":"d072e81a-e5de-42ef-a6fd-d6c16349536d","system_id":"levelo_inurba_marseille","lat":43.290624,"lon":5.359245,"is_reserved":false,"is_disabled":false,"rental_uris":{"android":"levelo://app?vid=d072e81a-e5de-42ef-a6fd-d6c16349536d","ios":"levelo://app?vid=d072e81a-e5de-42ef-a6fd-d6c16349536d"},"vehicle_type_id":"4","last_reported":1708455915,"current_range_meters":24000,"station_id":"ce4bha92rcd13ifvqeg0","pricing_plan_id":"cebpf4jnsgd1na2vs0mg"},{"bike_id":"abff4a3f-811f-4675-8d9c-d5fe6e6e18a3","system_id":"levelo_inurba_marseille","lat":43.290624,"lon":5.359245,"is_reserved":false,"is_disabled":false,"rental_uris":{"android":"levelo://app?vid=abff4a3f-811f-4675-8d9c-d5fe6e6e18a3","ios":"levelo://app?vid=abff4a3f-811f-4675-8d9c-d5fe6e6e18a3"},"vehicle_type_id":"4","last_reported":1708455915,"current_range_meters":0,"station_id":"ce4bha92rcd13ifvqeg0","pricing_plan_id":"cebpf4jnsgd1na2vs0mg"},{"bike_id":"7282281d-8b02-465b-89bd-8e2fbba0a9b3","system_id":"levelo_inurba_marseille","lat":43.29424,"lon":5.38618,"is_reserved":false,"is_disabled":false,"rental_uris":{"android":"levelo://app?vid=7282281d-8b02-465b-89bd-8e2fbba0a9b3","ios":"levelo://app?vid=7282281d-8b02-465b-89bd-8e2fbba0a9b3"},"vehicle_type_id":"4","last_reported":1708455915,"current_range_meters":1200,"station_id":"ce4bh2h2rcd13ifvqdh0","pricing_plan_id":"cebpf4jnsgd1na2vs0mg"},{"bike_id":"54a858ad-1b77-4a11-be07-775f73315aff","system_id":"levelo_inurba_marseille","lat":43.29423,"lon":5.3862,"is_reserved":false,"is_disabled":false,"rental_uris":{"android":"levelo://app?vid=54a858ad-1b77-4a11-be07-775f73315aff","ios":"levelo://app?vid=54a858ad-1b77-4a11-be07-775f73315aff"},"vehicle_type_id":"4","last_reported":1708455915,"current_range_meters":6000,"station_id":"ce4bh2h2rcd13ifvqdh0","pricing_plan_id":"cebpf4jnsgd1na2vs0mg"},{"bike_id":"13f45049-baf6-4109-89f2-1670df8338a4","system_id":"levelo_inurba_marseille","lat":43.294162,"lon":5.386292,"is_reserved":false,"is_disabled":false,"rental_uris":{"android":"levelo://app?vid=13f45049-baf6-4109-89f2-1670df8338a4","ios":"levelo://app?vid=13f45049-baf6-4109-89f2-1670df8338a4"},"vehicle_type_id":"4","last_reported":1708455915,"current_range_meters":10400,"station_id":"ce4bh2h2rcd13ifvqdh0","pricing_plan_id":"cebpf4jnsgd1na2vs0mg"},{"bike_id":"57e68ce6-bfa8-4b78-b73e-98d3434bfcc9","system_id":"levelo_inurba_marseille","lat":43.290327,"lon":5.375711,"is_reserved":false,"is_disabled":false,"rental_uris":{"android":"levelo://app?vid=57e68ce6-bfa8-4b78-b73e-98d3434bfcc9","ios":"levelo://app?vid=57e68ce6-bfa8-4b78-b73e-98d3434bfcc9"},"vehicle_type_id":"4","last_reported":1708455915,"current_range_meters":0,"station_id":"ce4bh692rcd13ifvqe90","pricing_plan_id":"cebpf4jnsgd1na2vs0mg"},{"bike_id":"06897156-ae11-4780-ad8c-3337154b91c7","system_id":"levelo_inurba_marseille","lat":43.294162,"lon":5.386292,"is_reserved":false,"is_disabled":false,"rental_uris":{"android":"levelo://app?vid=06897156-ae11-4780-ad8c-3337154b91c7","ios":"levelo://app?vid=06897156-ae11-4780-ad8c-3337154b91c7"},"vehicle_type_id":"4","last_reported":1708455915,"current_range_meters":20400,"station_id":"ce4bh2h2rcd13ifvqdh0","pricing_plan_id":"cebpf4jnsgd1na2vs0mg"},{"bike_id":"f9b9363a-7103-4b92-9158-6a2d2e433e98","system_id":"levelo_inurba_marseille","lat":43.294153,"lon":5.386305,"is_reserved":false,"is_disabled":false,"rental_uris":{"android":"levelo://app?vid=f9b9363a-7103-4b92-9158-6a2d2e433e98","ios":"levelo://app?vid=f9b9363a-7103-4b92-9158-6a2d2e433e98"},"vehicle_type_id":"4","last_reported":1708455915,"current_range_meters":24800,"station_id":"ce4bh2h2rcd13ifvqdh0","pricing_plan_id":"cebpf4jnsgd1na2vs0mg"},{"bike_id":"adf275c2-a739-462c-8090-ca64582d0597","system_id":"levelo_inurba_marseille","lat":43.294162,"lon":5.386292,"is_reserved":false,"is_disabled":false,"rental_uris":{"android":"levelo://app?vid=adf275c2-a739-462c-8090-ca64582d0597","ios":"levelo://app?vid=adf275c2-a739-462c-8090-ca64582d0597"},"vehicle_type_id":"4","last_reported":1708455915,"current_range_meters":2000,"station_id":"ce4bh2h2rcd13ifvqdh0","pricing_plan_id":"cebpf4jnsgd1na2vs0mg"},{"bike_id":"32460105-5833-4e67-a671-b5b491b43784","system_id":"levelo_inurba_marseille","lat":43.294153,"lon":5.386305,"is_reserved":false,"is_disabled":false,"rental_uris":{"android":"levelo://app?vid=32460105-5833-4e67-a671-b5b491b43784","ios":"levelo://app?vid=32460105-5833-4e67-a671-b5b491b43784"},"vehicle_type_id":"4","last_reported":1708455915,"current_range_meters":8000,"station_id":"ce4bh2h2rcd13ifvqdh0","pricing_plan_id":"cebpf4jnsgd1na2vs0mg"},{"bike_id":"a4f5a9e1-aa22-4948-9d3a-20493a7c9964","system_id":"levelo_inurba_marseille","lat":43.294153,"lon":5.386305,"is_reserved":false,"is_disabled":false,"rental_uris":{"android":"levelo://app?vid=a4f5a9e1-aa22-4948-9d3a-20493a7c9964","ios":"levelo://app?vid=a4f5a9e1-aa22-4948-9d3a-20493a7c9964"},"vehicle_type_id":"4","last_reported":1708455915,"current_range_meters":0,"station_id":"ce4bh2h2rcd13ifvqdh0","pricing_plan_id":"cebpf4jnsgd1na2vs0mg"},{"bike_id":"cab739b2-ff10-48d1-930c-9a302712067a","system_id":"levelo_inurba_marseille","lat":43.294153,"lon":5.386305,"is_reserved":false,"is_disabled":false,"rental_uris":{"android":"levelo://app?vid=cab739b2-ff10-48d1-930c-9a302712067a","ios":"levelo://app?vid=cab739b2-ff10-48d1-930c-9a302712067a"},"vehicle_type_id":"4","last_reported":1708455915,"current_range_meters":16800,"station_id":"ce4bh2h2rcd13ifvqdh0","pricing_plan_id":"cebpf4jnsgd1na2vs0mg"},{"bike_id":"28fcb6f6-86b5-4f22-9824-bd6ab244b9c2","system_id":"levelo_inurba_marseille","lat":43.294162,"lon":5.386292,"is_reserved":false,"is_disabled":false,"rental_uris":{"android":"levelo://app?vid=28fcb6f6-86b5-4f22-9824-bd6ab244b9c2","ios":"levelo://app?vid=28fcb6f6-86b5-4f22-9824-bd6ab244b9c2"},"vehicle_type_id":"4","last_reported":1708455915,"current_range_meters":2800,"station_id":"ce4bh2h2rcd13ifvqdh0","pricing_plan_id":"cebpf4jnsgd1na2vs0mg"},{"bike_id":"1d028265-abf0-4414-b84b-579aeb010eea","system_id":"levelo_inurba_marseille","lat":43.29419,"lon":5.38624,"is_reserved":false,"is_disabled":false,"rental_uris":{"android":"levelo://app?vid=1d028265-abf0-4414-b84b-579aeb010eea","ios":"levelo://app?vid=1d028265-abf0-4414-b84b-579aeb010eea"},"vehicle_type_id":"4","last_reported":1708455915,"current_range_meters":24800,"station_id":"ce4bh2h2rcd13ifvqdh0","pricing_plan_id":"cebpf4jnsgd1na2vs0mg"},{"bike_id":"a3938a4e-5203-462e-a63a-a95d67de13ab","system_id":"levelo_inurba_marseille","lat":43.294153,"lon":5.386305,"is_reserved":false,"is_disabled":false,"rental_uris":{"android":"levelo://app?vid=a3938a4e-5203-462e-a63a-a95d67de13ab","ios":"levelo://app?vid=a3938a4e-5203-462e-a63a-a95d67de13ab"},"vehicle_type_id":"4","last_reported":1708455915,"current_range_meters":0,"station_id":"ce4bh2h2rcd13ifvqdh0","pricing_plan_id":"cebpf4jnsgd1na2vs0mg"},{"bike_id":"005fdd80-937e-4af3-a054-9e285e795e72","system_id":"levelo_inurba_marseille","lat":43.294162,"lon":5.386292,"is_reserved":false,"is_disabled":false,"rental_uris":{"android":"levelo://app?vid=005fdd80-937e-4af3-a054-9e285e795e72","ios":"levelo://app?vid=005fdd80-937e-4af3-a054-9e285e795e72"},"vehicle_type_id":"4","last_reported":1708455915,"current_range_meters":23600,"station_id":"ce4bh2h2rcd13ifvqdh0","pricing_plan_id":"cebpf4jnsgd1na2vs0mg"},{"bike_id":"4b699efa-efd0-4163-b9f4-43dfdc983a33","system_id":"levelo_inurba_marseille","lat":43.289468,"lon":5.363719,"is_reserved":false,"is_disabled":false,"rental_uris":{"android":"levelo://app?vid=4b699efa-efd0-4163-b9f4-43dfdc983a33","ios":"levelo://app?vid=4b699efa-efd0-4163-b9f4-43dfdc983a33"},"vehicle_type_id":"4","last_reported":1708455915,"current_range_meters":0,"station_id":"ce4bhc92rcd13ifvqetg","pricing_plan_id":"cebpf4jnsgd1na2vs0mg"},{"bike_id":"c7a002ec-4ed9-465a-9b03-4309d606c548","system_id":"levelo_inurba_marseille","lat":43.294162,"lon":5.386292,"is_reserved":false,"is_disabled":false,"rental_uris":{"android":"levelo://app?vid=c7a002ec-4ed9-465a-9b03-4309d606c548","ios":"levelo://app?vid=c7a002ec-4ed9-465a-9b03-4309d606c548"},"vehicle_type_id":"4","last_reported":1708455915,"current_range_meters":9600,"station_id":"ce4bh2h2rcd13ifvqdh0","pricing_plan_id":"cebpf4jnsgd1na2vs0mg"},{"bike_id":"62a84fe4-7e1b-4526-8282-87d38c75be5c","system_id":"levelo_inurba_marseille","lat":43.289184,"lon":5.366408,"is_reserved":false,"is_disabled":false,"rental_uris":{"android":"levelo://app?vid=62a84fe4-7e1b-4526-8282-87d38c75be5c","ios":"levelo://app?vid=62a84fe4-7e1b-4526-8282-87d38c75be5c"},"vehicle_type_id":"4","last_reported":1708455915,"current_range_meters":23200,"station_id":"ce4bhap2rcd13ifvqek0","pricing_plan_id":"cebpf4jnsgd1na2vs0mg"},{"bike_id":"4b442917-8bdb-4e12-8092-641e177c619a","system_id":"levelo_inurba_marseille","lat":43.29028,"lon":5.37552,"is_reserved":false,"is_disabled":false,"rental_uris":{"android":"levelo://app?vid=4b442917-8bdb-4e12-8092-641e177c619a","ios":"levelo://app?vid=4b442917-8bdb-4e12-8092-641e177c619a"},"vehicle_type_id":"4","last_reported":1708455915,"current_range_meters":0,"station_id":"ce4bh692rcd13ifvqe90","pricing_plan_id":"cebpf4jnsgd1na2vs0mg"},{"bike_id":"51113752-a90e-41da-b880-2ff983bd46d7","system_id":"levelo_inurba_marseille","lat":43.294162,"lon":5.386292,"is_reserved":false,"is_disabled":false,"rental_uris":{"android":"levelo://app?vid=51113752-a90e-41da-b880-2ff983bd46d7","ios":"levelo://app?vid=51113752-a90e-41da-b880-2ff983bd46d7"},"vehicle_type_id":"4","last_reported":1708455915,"current_range_meters":0,"station_id":"ce4bh2h2rcd13ifvqdh0","pricing_plan_id":"cebpf4jnsgd1na2vs0mg"},{"bike_id":"7910332d-ac7b-43b8-8058-fdde510f2567","system_id":"levelo_inurba_marseille","lat":43.289184,"lon":5.366408,"is_reserved":false,"is_disabled":false,"rental_uris":{"android":"levelo://app?vid=7910332d-ac7b-43b8-8058-fdde510f2567","ios":"levelo://app?vid=7910332d-ac7b-43b8-8058-fdde510f2567"},"vehicle_type_id":"4","last_reported":1708455915,"current_range_meters":25600,"station_id":"ce4bhap2rcd13ifvqek0","pricing_plan_id":"cebpf4jnsgd1na2vs0mg"},{"bike_id":"1d43233c-17b6-4748-a648-5e023fcc1d42","system_id":"levelo_inurba_marseille","lat":43.28939,"lon":5.36632,"is_reserved":false,"is_disabled":false,"rental_uris":{"android":"levelo://app?vid=1d43233c-17b6-4748-a648-5e023fcc1d42","ios":"levelo://app?vid=1d43233c-17b6-4748-a648-5e023fcc1d42"},"vehicle_type_id":"4","last_reported":1708455915,"current_range_meters":15600,"station_id":"ce4bhap2rcd13ifvqek0","pricing_plan_id":"cebpf4jnsgd1na2vs0mg"},{"bike_id":"92150c0f-e6ef-463a-b481-8690065b9573","system_id":"levelo_inurba_marseille","lat":43.289184,"lon":5.366408,"is_reserved":false,"is_disabled":false,"rental_uris":{"android":"levelo://app?vid=92150c0f-e6ef-463a-b481-8690065b9573","ios":"levelo://app?vid=92150c0f-e6ef-463a-b481-8690065b9573"},"vehicle_type_id":"4","last_reported":1708455915,"current_range_meters":12400,"station_id":"ce4bhap2rcd13ifvqek0","pricing_plan_id":"cebpf4jnsgd1na2vs0mg"},{"bike_id":"f042441c-c342-4004-8fbb-fa7f4bb1b947","system_id":"levelo_inurba_marseille","lat":43.289184,"lon":5.366408,"is_reserved":false,"is_disabled":false,"rental_uris":{"android":"levelo://app?vid=f042441c-c342-4004-8fbb-fa7f4bb1b947","ios":"levelo://app?vid=f042441c-c342-4004-8fbb-fa7f4bb1b947"},"vehicle_type_id":"4","last_reported":1708455915,"current_range_meters":6800,"station_id":"ce4bhap2rcd13ifvqek0","pricing_plan_id":"cebpf4jnsgd1na2vs0mg"},{"bike_id":"fd43081d-44e8-45b2-831a-30b9e66eb2c9","system_id":"levelo_inurba_marseille","lat":43.28933,"lon":5.36634,"is_reserved":false,"is_disabled":false,"rental_uris":{"android":"levelo://app?vid=fd43081d-44e8-45b2-831a-30b9e66eb2c9","ios":"levelo://app?vid=fd43081d-44e8-45b2-831a-30b9e66eb2c9"},"vehicle_type_id":"4","last_reported":1708455915,"current_range_meters":30400,"station_id":"ce4bhap2rcd13ifvqek0","pricing_plan_id":"cebpf4jnsgd1na2vs0mg"},{"bike_id":"cd8c5505-08da-429c-b400-a8e8c822c7d6","system_id":"levelo_inurba_marseille","lat":43.28931,"lon":5.36637,"is_reserved":false,"is_disabled":false,"rental_uris":{"android":"levelo://app?vid=cd8c5505-08da-429c-b400-a8e8c822c7d6","ios":"levelo://app?vid=cd8c5505-08da-429c-b400-a8e8c822c7d6"},"vehicle_type_id":"4","last_reported":1708455915,"current_range_meters":5600,"station_id":"ce4bhap2rcd13ifvqek0","pricing_plan_id":"cebpf4jnsgd1na2vs0mg"},{"bike_id":"f2d2ae0b-eaf3-48a7-9fc0-1e7bd6f210bf","system_id":"levelo_inurba_marseille","lat":43.289468,"lon":5.363719,"is_reserved":false,"is_disabled":false,"rental_uris":{"android":"levelo://app?vid=f2d2ae0b-eaf3-48a7-9fc0-1e7bd6f210bf","ios":"levelo://app?vid=f2d2ae0b-eaf3-48a7-9fc0-1e7bd6f210bf"},"vehicle_type_id":"4","last_reported":1708455915,"current_range_meters":10000,"station_id":"ce4bhc92rcd13ifvqetg","pricing_plan_id":"cebpf4jnsgd1na2vs0mg"},{"bike_id":"a26f8d98-8830-4f56-a5d0-84ce0fd65ee7","system_id":"levelo_inurba_marseille","lat":43.302008,"lon":5.394694,"is_reserved":false,"is_disabled":false,"rental_uris":{"android":"levelo://app?vid=a26f8d98-8830-4f56-a5d0-84ce0fd65ee7","ios":"levelo://app?vid=a26f8d98-8830-4f56-a5d0-84ce0fd65ee7"},"vehicle_type_id":"4","last_reported":1708455915,"current_range_meters":9200,"station_id":"ce4bh0p2rcd13ifvqd70","pricing_plan_id":"cebpf4jnsgd1na2vs0mg"},{"bike_id":"44820202-426c-41fd-8f7b-1146d06a615e","system_id":"levelo_inurba_marseille","lat":43.29295,"lon":5.38467,"is_reserved":false,"is_disabled":false,"rental_uris":{"android":"levelo://app?vid=44820202-426c-41fd-8f7b-1146d06a615e","ios":"levelo://app?vid=44820202-426c-41fd-8f7b-1146d06a615e"},"vehicle_type_id":"4","last_reported":1708455915,"current_range_meters":5600,"station_id":"ce4bh692rcd13ifvqea0","pricing_plan_id":"cebpf4jnsgd1na2vs0mg"},{"bike_id":"ce98a232-f2df-4caa-ac44-5e4c1af2de41","system_id":"levelo_inurba_marseille","lat":43.29278,"lon":5.38446,"is_reserved":false,"is_disabled":false,"rental_uris":{"android":"levelo://app?vid=ce98a232-f2df-4caa-ac44-5e4c1af2de41","ios":"levelo://app?vid=ce98a232-f2df-4caa-ac44-5e4c1af2de41"},"vehicle_type_id":"4","last_reported":1708455915,"current_range_meters":4400,"station_id":"ce4bh692rcd13ifvqea0","pricing_plan_id":"cebpf4jnsgd1na2vs0mg"},{"bike_id":"ba08366c-f7aa-4d11-a110-9085dbf4ce4c","system_id":"levelo_inurba_marseille","lat":43.292642,"lon":5.384254,"is_reserved":false,"is_disabled":false,"rental_uris":{"android":"levelo://app?vid=ba08366c-f7aa-4d11-a110-9085dbf4ce4c","ios":"levelo://app?vid=ba08366c-f7aa-4d11-a110-9085dbf4ce4c"},"vehicle_type_id":"4","last_reported":1708455915,"current_range_meters":16400,"station_id":"ce4bh692rcd13ifvqea0","pricing_plan_id":"cebpf4jnsgd1na2vs0mg"},{"bike_id":"62fedc8d-0503-4d4b-b040-286e1835004c","system_id":"levelo_inurba_marseille","lat":43.29271,"lon":5.38437,"is_reserved":false,"is_disabled":false,"rental_uris":{"android":"levelo://app?vid=62fedc8d-0503-4d4b-b040-286e1835004c","ios":"levelo://app?vid=62fedc8d-0503-4d4b-b040-286e1835004c"},"vehicle_type_id":"4","last_reported":1708455915,"current_range_meters":12000,"station_id":"ce4bh692rcd13ifvqea0","pricing_plan_id":"cebpf4jnsgd1na2vs0mg"},{"bike_id":"3df7843d-e670-45a3-b768-8a7b4937bdf2","system_id":"levelo_inurba_marseille","lat":43.292694,"lon":5.384394,"is_reserved":false,"is_disabled":false,"rental_uris":{"android":"levelo://app?vid=3df7843d-e670-45a3-b768-8a7b4937bdf2","ios":"levelo://app?vid=3df7843d-e670-45a3-b768-8a7b4937bdf2"},"vehicle_type_id":"4","last_reported":1708455915,"current_range_meters":1200,"station_id":"ce4bh692rcd13ifvqea0","pricing_plan_id":"cebpf4jnsgd1na2vs0mg"},{"bike_id":"bae31b14-0ee2-4b7e-8457-225af4855ee4","system_id":"levelo_inurba_marseille","lat":43.29268,"lon":5.38439,"is_reserved":false,"is_disabled":false,"rental_uris":{"android":"levelo://app?vid=bae31b14-0ee2-4b7e-8457-225af4855ee4","ios":"levelo://app?vid=bae31b14-0ee2-4b7e-8457-225af4855ee4"},"vehicle_type_id":"4","last_reported":1708455915,"current_range_meters":0,"station_id":"ce4bh692rcd13ifvqea0","pricing_plan_id":"cebpf4jnsgd1na2vs0mg"},{"bike_id":"7f371267-7ed6-4052-8974-47647d6272f6","system_id":"levelo_inurba_marseille","lat":43.292687,"lon":5.384413,"is_reserved":false,"is_disabled":false,"rental_uris":{"android":"levelo://app?vid=7f371267-7ed6-4052-8974-47647d6272f6","ios":"levelo://app?vid=7f371267-7ed6-4052-8974-47647d6272f6"},"vehicle_type_id":"4","last_reported":1708455915,"current_range_meters":26000,"station_id":"ce4bh692rcd13ifvqea0","pricing_plan_id":"cebpf4jnsgd1na2vs0mg"},{"bike_id":"b921c74b-63a3-432a-8995-402c6dcee1b3","system_id":"levelo_inurba_marseille","lat":43.292642,"lon":5.384254,"is_reserved":false,"is_disabled":false,"rental_uris":{"android":"levelo://app?vid=b921c74b-63a3-432a-8995-402c6dcee1b3","ios":"levelo://app?vid=b921c74b-63a3-432a-8995-402c6dcee1b3"},"vehicle_type_id":"4","last_reported":1708455915,"current_range_meters":3200,"station_id":"ce4bh692rcd13ifvqea0","pricing_plan_id":"cebpf4jnsgd1na2vs0mg"},{"bike_id":"f7b806db-fd9e-4cf6-a3c2-4d65b88bb53f","system_id":"levelo_inurba_marseille","lat":43.29266,"lon":5.3844,"is_reserved":false,"is_disabled":false,"rental_uris":{"android":"levelo://app?vid=f7b806db-fd9e-4cf6-a3c2-4d65b88bb53f","ios":"levelo://app?vid=f7b806db-fd9e-4cf6-a3c2-4d65b88bb53f"},"vehicle_type_id":"4","last_reported":1708455915,"current_range_meters":26400,"station_id":"ce4bh692rcd13ifvqea0","pricing_plan_id":"cebpf4jnsgd1na2vs0mg"},{"bike_id":"77ebddb2-e905-4b16-84ae-779bb176bf9d","system_id":"levelo_inurba_marseille","lat":43.29267,"lon":5.38445,"is_reserved":false,"is_disabled":false,"rental_uris":{"android":"levelo://app?vid=77ebddb2-e905-4b16-84ae-779bb176bf9d","ios":"levelo://app?vid=77ebddb2-e905-4b16-84ae-779bb176bf9d"},"vehicle_type_id":"4","last_reported":1708455915,"current_range_meters":0,"station_id":"ce4bh692rcd13ifvqea0","pricing_plan_id":"cebpf4jnsgd1na2vs0mg"},{"bike_id":"8d930dc5-a5e6-4573-95e4-a40f5873ff00","system_id":"levelo_inurba_marseille","lat":43.29268,"lon":5.38449,"is_reserved":false,"is_disabled":false,"rental_uris":{"android":"levelo://app?vid=8d930dc5-a5e6-4573-95e4-a40f5873ff00","ios":"levelo://app?vid=8d930dc5-a5e6-4573-95e4-a40f5873ff00"},"vehicle_type_id":"4","last_reported":1708455915,"current_range_meters":13600,"station_id":"ce4bh692rcd13ifvqea0","pricing_plan_id":"cebpf4jnsgd1na2vs0mg"},{"bike_id":"f9bc3ae2-dc24-4d30-9898-6fb729fec99a","system_id":"levelo_inurba_marseille","lat":43.295196,"lon":5.39397,"is_reserved":false,"is_disabled":false,"rental_uris":{"android":"levelo://app?vid=f9bc3ae2-dc24-4d30-9898-6fb729fec99a","ios":"levelo://app?vid=f9bc3ae2-dc24-4d30-9898-6fb729fec99a"},"vehicle_type_id":"4","last_reported":1708455915,"current_range_meters":0,"station_id":"ce4bh292rcd13ifvqdf0","pricing_plan_id":"cebpf4jnsgd1na2vs0mg"},{"bike_id":"876a2874-ef5c-494d-81a1-7a05ffb17095","system_id":"levelo_inurba_marseille","lat":43.292642,"lon":5.384254,"is_reserved":false,"is_disabled":false,"rental_uris":{"android":"levelo://app?vid=876a2874-ef5c-494d-81a1-7a05ffb17095","ios":"levelo://app?vid=876a2874-ef5c-494d-81a1-7a05ffb17095"},"vehicle_type_id":"4","last_reported":1708455915,"current_range_meters":14400,"station_id":"ce4bh692rcd13ifvqea0","pricing_plan_id":"cebpf4jnsgd1na2vs0mg"},{"bike_id":"ed377c52-3a8c-44fa-819b-c38f0daec16d","system_id":"levelo_inurba_marseille","lat":43.29265,"lon":5.38447,"is_reserved":false,"is_disabled":false,"rental_uris":{"android":"levelo://app?vid=ed377c52-3a8c-44fa-819b-c38f0daec16d","ios":"levelo://app?vid=ed377c52-3a8c-44fa-819b-c38f0daec16d"},"vehicle_type_id":"4","last_reported":1708455915,"current_range_meters":0,"station_id":"ce4bh692rcd13ifvqea0","pricing_plan_id":"cebpf4jnsgd1na2vs0mg"},{"bike_id":"f0fa1561-40ca-4d5d-9cc4-221aecec844e","system_id":"levelo_inurba_marseille","lat":43.29263,"lon":5.38444,"is_reserved":false,"is_disabled":false,"rental_uris":{"android":"levelo://app?vid=f0fa1561-40ca-4d5d-9cc4-221aecec844e","ios":"levelo://app?vid=f0fa1561-40ca-4d5d-9cc4-221aecec844e"},"vehicle_type_id":"4","last_reported":1708455915,"current_range_meters":30400,"station_id":"ce4bh692rcd13ifvqea0","pricing_plan_id":"cebpf4jnsgd1na2vs0mg"},{"bike_id":"6b8df521-25e6-4bdb-b239-5dcbb85f9bbb","system_id":"levelo_inurba_marseille","lat":43.29263,"lon":5.3845,"is_reserved":false,"is_disabled":false,"rental_uris":{"android":"levelo://app?vid=6b8df521-25e6-4bdb-b239-5dcbb85f9bbb","ios":"levelo://app?vid=6b8df521-25e6-4bdb-b239-5dcbb85f9bbb"},"vehicle_type_id":"4","last_reported":1708455915,"current_range_meters":6800,"station_id":"ce4bh692rcd13ifvqea0","pricing_plan_id":"cebpf4jnsgd1na2vs0mg"},{"bike_id":"64c8a977-e817-4529-bbbf-d54830de4873","system_id":"levelo_inurba_marseille","lat":43.29103,"lon":5.38085,"is_reserved":false,"is_disabled":false,"rental_uris":{"android":"levelo://app?vid=64c8a977-e817-4529-bbbf-d54830de4873","ios":"levelo://app?vid=64c8a977-e817-4529-bbbf-d54830de4873"},"vehicle_type_id":"4","last_reported":1708455915,"current_range_meters":12000,"station_id":"","pricing_plan_id":"cebpf4jnsgd1na2vs0mg"},{"bike_id":"2d45692a-1bc7-4aa0-9ef7-dbf9ef09979c","system_id":"levelo_inurba_marseille","lat":43.290104,"lon":5.356111,"is_reserved":false,"is_disabled":false,"rental_uris":{"android":"levelo://app?vid=2d45692a-1bc7-4aa0-9ef7-dbf9ef09979c","ios":"levelo://app?vid=2d45692a-1bc7-4aa0-9ef7-dbf9ef09979c"},"vehicle_type_id":"4","last_reported":1708455915,"current_range_meters":24400,"station_id":"ce4bhb92rcd13ifvqen0","pricing_plan_id":"cebpf4jnsgd1na2vs0mg"},{"bike_id":"97d0c2ae-1d87-43ba-845e-74ab7249fbdd","system_id":"levelo_inurba_marseille","lat":43.29,"lon":5.35612,"is_reserved":false,"is_disabled":false,"rental_uris":{"android":"levelo://app?vid=97d0c2ae-1d87-43ba-845e-74ab7249fbdd","ios":"levelo://app?vid=97d0c2ae-1d87-43ba-845e-74ab7249fbdd"},"vehicle_type_id":"4","last_reported":1708455915,"current_range_meters":27600,"station_id":"ce4bhb92rcd13ifvqen0","pricing_plan_id":"cebpf4jnsgd1na2vs0mg"},{"bike_id":"05996169-4861-491c-a3cb-3e56df8155a2","system_id":"levelo_inurba_marseille","lat":43.290995,"lon":5.381361,"is_reserved":false,"is_disabled":false,"rental_uris":{"android":"levelo://app?vid=05996169-4861-491c-a3cb-3e56df8155a2","ios":"levelo://app?vid=05996169-4861-491c-a3cb-3e56df8155a2"},"vehicle_type_id":"4","last_reported":1708455915,"current_range_meters":18400,"station_id":"ce4bh512rcd13ifvqe2g","pricing_plan_id":"cebpf4jnsgd1na2vs0mg"},{"bike_id":"3e8be7c4-620b-4f08-bed5-2d91384f4994","system_id":"levelo_inurba_marseille","lat":43.290995,"lon":5.381361,"is_reserved":false,"is_disabled":false,"rental_uris":{"android":"levelo://app?vid=3e8be7c4-620b-4f08-bed5-2d91384f4994","ios":"levelo://app?vid=3e8be7c4-620b-4f08-bed5-2d91384f4994"},"vehicle_type_id":"4","last_reported":1708455915,"current_range_meters":0,"station_id":"ce4bh512rcd13ifvqe2g","pricing_plan_id":"cebpf4jnsgd1na2vs0mg"},{"bike_id":"707ec94e-001d-4ad2-ae12-2dc3205fea6e","system_id":"levelo_inurba_marseille","lat":43.290995,"lon":5.381361,"is_reserved":false,"is_disabled":false,"rental_uris":{"android":"levelo://app?vid=707ec94e-001d-4ad2-ae12-2dc3205fea6e","ios":"levelo://app?vid=707ec94e-001d-4ad2-ae12-2dc3205fea6e"},"vehicle_type_id":"4","last_reported":1708455915,"current_range_meters":17200,"station_id":"ce4bh512rcd13ifvqe2g","pricing_plan_id":"cebpf4jnsgd1na2vs0mg"},{"bike_id":"6703f306-f7e7-41b6-afa9-43fa3ec4826c","system_id":"levelo_inurba_marseille","lat":43.29789,"lon":5.39334,"is_reserved":false,"is_disabled":false,"rental_uris":{"android":"levelo://app?vid=6703f306-f7e7-41b6-afa9-43fa3ec4826c","ios":"levelo://app?vid=6703f306-f7e7-41b6-afa9-43fa3ec4826c"},"vehicle_type_id":"4","last_reported":1708455915,"current_range_meters":6000,"station_id":"chh1huq6cuj3fo74tm60","pricing_plan_id":"cebpf4jnsgd1na2vs0mg"},{"bike_id":"73e9c814-3e10-4cff-b075-ab4ca91587cb","system_id":"levelo_inurba_marseille","lat":43.29786,"lon":5.39337,"is_reserved":false,"is_disabled":false,"rental_uris":{"android":"levelo://app?vid=73e9c814-3e10-4cff-b075-ab4ca91587cb","ios":"levelo://app?vid=73e9c814-3e10-4cff-b075-ab4ca91587cb"},"vehicle_type_id":"4","last_reported":1708455915,"current_range_meters":11200,"station_id":"chh1huq6cuj3fo74tm60","pricing_plan_id":"cebpf4jnsgd1na2vs0mg"},{"bike_id":"d879b9ed-680d-4f43-a0b0-59142860b41d","system_id":"levelo_inurba_marseille","lat":43.295169,"lon":5.390426,"is_reserved":false,"is_disabled":false,"rental_uris":{"android":"levelo://app?vid=d879b9ed-680d-4f43-a0b0-59142860b41d","ios":"levelo://app?vid=d879b9ed-680d-4f43-a0b0-59142860b41d"},"vehicle_type_id":"4","last_reported":1708455915,"current_range_meters":25200,"station_id":"ce4bh3p2rcd13ifvqdp0","pricing_plan_id":"cebpf4jnsgd1na2vs0mg"},{"bike_id":"548bfde2-3722-4ede-8228-1fdfbe8a4414","system_id":"levelo_inurba_marseille","lat":43.297815,"lon":5.393548,"is_reserved":false,"is_disabled":false,"rental_uris":{"android":"levelo://app?vid=548bfde2-3722-4ede-8228-1fdfbe8a4414","ios":"levelo://app?vid=548bfde2-3722-4ede-8228-1fdfbe8a4414"},"vehicle_type_id":"4","last_reported":1708455915,"current_range_meters":2000,"station_id":"chh1huq6cuj3fo74tm60","pricing_plan_id":"cebpf4jnsgd1na2vs0mg"},{"bike_id":"b124f330-af79-4e08-bcbe-ef6d3048f514","system_id":"levelo_inurba_marseille","lat":43.330442,"lon":5.389148,"is_reserved":false,"is_disabled":false,"rental_uris":{"android":"levelo://app?vid=b124f330-af79-4e08-bcbe-ef6d3048f514","ios":"levelo://app?vid=b124f330-af79-4e08-bcbe-ef6d3048f514"},"vehicle_type_id":"4","last_reported":1708455915,"current_range_meters":7200,"station_id":"ce4bhr92rcd13ifvqhrg","pricing_plan_id":"cebpf4jnsgd1na2vs0mg"},{"bike_id":"0c66d45f-e5b6-46b6-b48d-4c2e169469d5","system_id":"levelo_inurba_marseille","lat":43.330442,"lon":5.389148,"is_reserved":false,"is_disabled":false,"rental_uris":{"android":"levelo://app?vid=0c66d45f-e5b6-46b6-b48d-4c2e169469d5","ios":"levelo://app?vid=0c66d45f-e5b6-46b6-b48d-4c2e169469d5"},"vehicle_type_id":"4","last_reported":1708455915,"current_range_meters":8400,"station_id":"ce4bhr92rcd13ifvqhrg","pricing_plan_id":"cebpf4jnsgd1na2vs0mg"},{"bike_id":"0459df7f-7184-4f83-9788-ed2d2abfbaaa","system_id":"levelo_inurba_marseille","lat":43.295169,"lon":5.390426,"is_reserved":false,"is_disabled":false,"rental_uris":{"android":"levelo://app?vid=0459df7f-7184-4f83-9788-ed2d2abfbaaa","ios":"levelo://app?vid=0459df7f-7184-4f83-9788-ed2d2abfbaaa"},"vehicle_type_id":"4","last_reported":1708455915,"current_range_meters":11600,"station_id":"ce4bh3p2rcd13ifvqdp0","pricing_plan_id":"cebpf4jnsgd1na2vs0mg"},{"bike_id":"4012e222-27fb-4df6-ab75-3051f919d866","system_id":"levelo_inurba_marseille","lat":43.295169,"lon":5.390426,"is_reserved":false,"is_disabled":false,"rental_uris":{"android":"levelo://app?vid=4012e222-27fb-4df6-ab75-3051f919d866","ios":"levelo://app?vid=4012e222-27fb-4df6-ab75-3051f919d866"},"vehicle_type_id":"4","last_reported":1708455915,"current_range_meters":19600,"station_id":"ce4bh3p2rcd13ifvqdp0","pricing_plan_id":"cebpf4jnsgd1na2vs0mg"},{"bike_id":"bcebede0-bf05-40e7-bc95-2f4df227eae9","system_id":"levelo_inurba_marseille","lat":43.330442,"lon":5.389148,"is_reserved":false,"is_disabled":false,"rental_uris":{"android":"levelo://app?vid=bcebede0-bf05-40e7-bc95-2f4df227eae9","ios":"levelo://app?vid=bcebede0-bf05-40e7-bc95-2f4df227eae9"},"vehicle_type_id":"4","last_reported":1708455915,"current_range_meters":5600,"station_id":"ce4bhr92rcd13ifvqhrg","pricing_plan_id":"cebpf4jnsgd1na2vs0mg"},{"bike_id":"a4f2e61f-fb62-4278-b6f8-aa1032f104d0","system_id":"levelo_inurba_marseille","lat":43.330442,"lon":5.389148,"is_reserved":false,"is_disabled":false,"rental_uris":{"android":"levelo://app?vid=a4f2e61f-fb62-4278-b6f8-aa1032f104d0","ios":"levelo://app?vid=a4f2e61f-fb62-4278-b6f8-aa1032f104d0"},"vehicle_type_id":"4","last_reported":1708455915,"current_range_meters":29600,"station_id":"ce4bhr92rcd13ifvqhrg","pricing_plan_id":"cebpf4jnsgd1na2vs0mg"},{"bike_id":"b855f4e0-242e-4f60-a12e-d72ff0cb4970","system_id":"levelo_inurba_marseille","lat":43.295169,"lon":5.390426,"is_reserved":false,"is_disabled":false,"rental_uris":{"android":"levelo://app?vid=b855f4e0-242e-4f60-a12e-d72ff0cb4970","ios":"levelo://app?vid=b855f4e0-242e-4f60-a12e-d72ff0cb4970"},"vehicle_type_id":"4","last_reported":1708455915,"current_range_meters":20800,"station_id":"ce4bh3p2rcd13ifvqdp0","pricing_plan_id":"cebpf4jnsgd1na2vs0mg"},{"bike_id":"88fc87fb-6700-4d16-b09d-92e2b1f2dc68","system_id":"levelo_inurba_marseille","lat":43.295169,"lon":5.390426,"is_reserved":false,"is_disabled":false,"rental_uris":{"android":"levelo://app?vid=88fc87fb-6700-4d16-b09d-92e2b1f2dc68","ios":"levelo://app?vid=88fc87fb-6700-4d16-b09d-92e2b1f2dc68"},"vehicle_type_id":"4","last_reported":1708455915,"current_range_meters":22000,"station_id":"ce4bh3p2rcd13ifvqdp0","pricing_plan_id":"cebpf4jnsgd1na2vs0mg"},{"bike_id":"e092d2e3-df5a-469e-88f9-f31dcc05708c","system_id":"levelo_inurba_marseille","lat":43.295169,"lon":5.390426,"is_reserved":false,"is_disabled":false,"rental_uris":{"android":"levelo://app?vid=e092d2e3-df5a-469e-88f9-f31dcc05708c","ios":"levelo://app?vid=e092d2e3-df5a-469e-88f9-f31dcc05708c"},"vehicle_type_id":"4","last_reported":1708455915,"current_range_meters":24800,"station_id":"ce4bh3p2rcd13ifvqdp0","pricing_plan_id":"cebpf4jnsgd1na2vs0mg"},{"bike_id":"5d2c44cc-09bc-44e8-be6a-fb2baef2bfa5","system_id":"levelo_inurba_marseille","lat":43.295169,"lon":5.390426,"is_reserved":false,"is_disabled":false,"rental_uris":{"android":"levelo://app?vid=5d2c44cc-09bc-44e8-be6a-fb2baef2bfa5","ios":"levelo://app?vid=5d2c44cc-09bc-44e8-be6a-fb2baef2bfa5"},"vehicle_type_id":"4","last_reported":1708455915,"current_range_meters":5200,"station_id":"ce4bh3p2rcd13ifvqdp0","pricing_plan_id":"cebpf4jnsgd1na2vs0mg"},{"bike_id":"e11fe814-f251-4cbe-ae8e-6ae2f9f8b167","system_id":"levelo_inurba_marseille","lat":43.28856,"lon":5.358371,"is_reserved":false,"is_disabled":false,"rental_uris":{"android":"levelo://app?vid=e11fe814-f251-4cbe-ae8e-6ae2f9f8b167","ios":"levelo://app?vid=e11fe814-f251-4cbe-ae8e-6ae2f9f8b167"},"vehicle_type_id":"4","last_reported":1708455915,"current_range_meters":0,"station_id":"ce4bhb12rcd13ifvqem0","pricing_plan_id":"cebpf4jnsgd1na2vs0mg"},{"bike_id":"59a0bb38-8063-4d53-a014-4c1875eaaaa0","system_id":"levelo_inurba_marseille","lat":43.2886,"lon":5.3588,"is_reserved":false,"is_disabled":false,"rental_uris":{"android":"levelo://app?vid=59a0bb38-8063-4d53-a014-4c1875eaaaa0","ios":"levelo://app?vid=59a0bb38-8063-4d53-a014-4c1875eaaaa0"},"vehicle_type_id":"4","last_reported":1708455915,"current_range_meters":19600,"station_id":"","pricing_plan_id":"cebpf4jnsgd1na2vs0mg"},{"bike_id":"1206e087-df6f-49ac-b3b5-b5e16d2f4c27","system_id":"levelo_inurba_marseille","lat":43.290779,"lon":5.371482,"is_reserved":false,"is_disabled":false,"rental_uris":{"android":"levelo://app?vid=1206e087-df6f-49ac-b3b5-b5e16d2f4c27","ios":"levelo://app?vid=1206e087-df6f-49ac-b3b5-b5e16d2f4c27"},"vehicle_type_id":"4","last_reported":1708455915,"current_range_meters":14000,"station_id":"ce4bh5p2rcd13ifvqe4g","pricing_plan_id":"cebpf4jnsgd1na2vs0mg"},{"bike_id":"c1468d7e-1f6b-4a4b-baf6-7dbfd34e7699","system_id":"levelo_inurba_marseille","lat":43.28856,"lon":5.358371,"is_reserved":false,"is_disabled":false,"rental_uris":{"android":"levelo://app?vid=c1468d7e-1f6b-4a4b-baf6-7dbfd34e7699","ios":"levelo://app?vid=c1468d7e-1f6b-4a4b-baf6-7dbfd34e7699"},"vehicle_type_id":"4","last_reported":1708455915,"current_range_meters":0,"station_id":"ce4bhb12rcd13ifvqem0","pricing_plan_id":"cebpf4jnsgd1na2vs0mg"},{"bike_id":"c02ebf22-4df4-4e2f-8f50-57679fd339ef","system_id":"levelo_inurba_marseille","lat":43.28856,"lon":5.358371,"is_reserved":false,"is_disabled":false,"rental_uris":{"android":"levelo://app?vid=c02ebf22-4df4-4e2f-8f50-57679fd339ef","ios":"levelo://app?vid=c02ebf22-4df4-4e2f-8f50-57679fd339ef"},"vehicle_type_id":"4","last_reported":1708455915,"current_range_meters":0,"station_id":"ce4bhb12rcd13ifvqem0","pricing_plan_id":"cebpf4jnsgd1na2vs0mg"},{"bike_id":"d6fb9fe8-277b-43ee-98fd-9e035619b886","system_id":"levelo_inurba_marseille","lat":43.28856,"lon":5.358371,"is_reserved":false,"is_disabled":false,"rental_uris":{"android":"levelo://app?vid=d6fb9fe8-277b-43ee-98fd-9e035619b886","ios":"levelo://app?vid=d6fb9fe8-277b-43ee-98fd-9e035619b886"},"vehicle_type_id":"4","last_reported":1708455915,"current_range_meters":3200,"station_id":"ce4bhb12rcd13ifvqem0","pricing_plan_id":"cebpf4jnsgd1na2vs0mg"},{"bike_id":"578a0353-9712-4729-952c-585c16d29e60","system_id":"levelo_inurba_marseille","lat":43.28856,"lon":5.358371,"is_reserved":false,"is_disabled":false,"rental_uris":{"android":"levelo://app?vid=578a0353-9712-4729-952c-585c16d29e60","ios":"levelo://app?vid=578a0353-9712-4729-952c-585c16d29e60"},"vehicle_type_id":"4","last_reported":1708455915,"current_range_meters":32000,"station_id":"ce4bhb12rcd13ifvqem0","pricing_plan_id":"cebpf4jnsgd1na2vs0mg"},{"bike_id":"4c1e26da-1daa-47cb-a1b0-68f224959241","system_id":"levelo_inurba_marseille","lat":43.28856,"lon":5.358371,"is_reserved":false,"is_disabled":false,"rental_uris":{"android":"levelo://app?vid=4c1e26da-1daa-47cb-a1b0-68f224959241","ios":"levelo://app?vid=4c1e26da-1daa-47cb-a1b0-68f224959241"},"vehicle_type_id":"4","last_reported":1708455915,"current_range_meters":31200,"station_id":"ce4bhb12rcd13ifvqem0","pricing_plan_id":"cebpf4jnsgd1na2vs0mg"},{"bike_id":"2063369d-60eb-4267-9bc0-ea9253b911fa","system_id":"levelo_inurba_marseille","lat":43.2885,"lon":5.35843,"is_reserved":false,"is_disabled":false,"rental_uris":{"android":"levelo://app?vid=2063369d-60eb-4267-9bc0-ea9253b911fa","ios":"levelo://app?vid=2063369d-60eb-4267-9bc0-ea9253b911fa"},"vehicle_type_id":"4","last_reported":1708455915,"current_range_meters":10400,"station_id":"","pricing_plan_id":"cebpf4jnsgd1na2vs0mg"},{"bike_id":"4e62f32a-2c8a-4791-9449-de28cfa118f6","system_id":"levelo_inurba_marseille","lat":43.308963,"lon":5.401044,"is_reserved":false,"is_disabled":false,"rental_uris":{"android":"levelo://app?vid=4e62f32a-2c8a-4791-9449-de28cfa118f6","ios":"levelo://app?vid=4e62f32a-2c8a-4791-9449-de28cfa118f6"},"vehicle_type_id":"4","last_reported":1708455915,"current_range_meters":0,"station_id":"ce4bgvp2rcd13ifvqct0","pricing_plan_id":"cebpf4jnsgd1na2vs0mg"},{"bike_id":"bec82039-cc62-4300-b183-3d33bcf980ef","system_id":"levelo_inurba_marseille","lat":43.313291,"lon":5.396838,"is_reserved":false,"is_disabled":false,"rental_uris":{"android":"levelo://app?vid=bec82039-cc62-4300-b183-3d33bcf980ef","ios":"levelo://app?vid=bec82039-cc62-4300-b183-3d33bcf980ef"},"vehicle_type_id":"4","last_reported":1708455915,"current_range_meters":6000,"station_id":"ce4bgvp2rcd13ifvqcu0","pricing_plan_id":"cebpf4jnsgd1na2vs0mg"},{"bike_id":"672af493-05ad-4417-a2af-b42054a8c83c","system_id":"levelo_inurba_marseille","lat":43.312609,"lon":5.401662,"is_reserved":false,"is_disabled":false,"rental_uris":{"android":"levelo://app?vid=672af493-05ad-4417-a2af-b42054a8c83c","ios":"levelo://app?vid=672af493-05ad-4417-a2af-b42054a8c83c"},"vehicle_type_id":"4","last_reported":1708455915,"current_range_meters":22400,"station_id":"ce4bh092rcd13ifvqd30","pricing_plan_id":"cebpf4jnsgd1na2vs0mg"},{"bike_id":"d70e5a3e-0393-4b8d-b6ed-e215b1d2851f","system_id":"levelo_inurba_marseille","lat":43.312609,"lon":5.401662,"is_reserved":false,"is_disabled":false,"rental_uris":{"android":"levelo://app?vid=d70e5a3e-0393-4b8d-b6ed-e215b1d2851f","ios":"levelo://app?vid=d70e5a3e-0393-4b8d-b6ed-e215b1d2851f"},"vehicle_type_id":"4","last_reported":1708455915,"current_range_meters":9200,"station_id":"ce4bh092rcd13ifvqd30","pricing_plan_id":"cebpf4jnsgd1na2vs0mg"},{"bike_id":"a1b3d539-33d5-4ed4-ab44-8001749e5b82","system_id":"levelo_inurba_marseille","lat":43.312609,"lon":5.401662,"is_reserved":false,"is_disabled":false,"rental_uris":{"android":"levelo://app?vid=a1b3d539-33d5-4ed4-ab44-8001749e5b82","ios":"levelo://app?vid=a1b3d539-33d5-4ed4-ab44-8001749e5b82"},"vehicle_type_id":"4","last_reported":1708455915,"current_range_meters":0,"station_id":"ce4bh092rcd13ifvqd30","pricing_plan_id":"cebpf4jnsgd1na2vs0mg"},{"bike_id":"e75b5b35-9d60-44b2-ace0-a6b67ad4cb52","system_id":"levelo_inurba_marseille","lat":43.30927,"lon":5.40137,"is_reserved":false,"is_disabled":false,"rental_uris":{"android":"levelo://app?vid=e75b5b35-9d60-44b2-ace0-a6b67ad4cb52","ios":"levelo://app?vid=e75b5b35-9d60-44b2-ace0-a6b67ad4cb52"},"vehicle_type_id":"4","last_reported":1708455915,"current_range_meters":0,"station_id":"ce4bgvp2rcd13ifvqct0","pricing_plan_id":"cebpf4jnsgd1na2vs0mg"},{"bike_id":"bee98f28-a687-44a1-a0fc-44985e86dc27","system_id":"levelo_inurba_marseille","lat":43.337432,"lon":5.374541,"is_reserved":false,"is_disabled":false,"rental_uris":{"android":"levelo://app?vid=bee98f28-a687-44a1-a0fc-44985e86dc27","ios":"levelo://app?vid=bee98f28-a687-44a1-a0fc-44985e86dc27"},"vehicle_type_id":"4","last_reported":1708455915,"current_range_meters":10800,"station_id":"","pricing_plan_id":"cebpf4jnsgd1na2vs0mg"},{"bike_id":"e1726f1c-77c6-4491-81b3-079d34c506c9","system_id":"levelo_inurba_marseille","lat":43.3126,"lon":5.40172,"is_reserved":false,"is_disabled":false,"rental_uris":{"android":"levelo://app?vid=e1726f1c-77c6-4491-81b3-079d34c506c9","ios":"levelo://app?vid=e1726f1c-77c6-4491-81b3-079d34c506c9"},"vehicle_type_id":"4","last_reported":1708455915,"current_range_meters":8000,"station_id":"ce4bh092rcd13ifvqd30","pricing_plan_id":"cebpf4jnsgd1na2vs0mg"},