{"last_updated":1761952208,"ttl":60,"version":"2.2","data":{"bikes":[{"bike_id":"502d8826-83c4-45cd-b1be-c0ab97727776","system_id":"levelo_inurba_marseille","lat":43.3373,"lon":5.39171,"is_reserved":false,"is_disabled":false,"rental_uris":{"android":"levelo://app?vid=502d8826-83c4-45cd-b1be-c0ab97727776","ios":"levelo://app?vid=502d8826-83c4-45cd-b1be-c0ab97727776"},"vehicle_type_id":"4","last_reported":1761952208,"current_range_meters":2800,"station_id":"ce4bhr92rcd13ifvqhsg","pricing_plan_id":"cebpf4jnsgd1na2vs0mg"},{"bike_id":"1bdb0524-fd2f-434a-9e83-4b7a1a09b5bb","system_id":"levelo_inurba_marseille","lat":43.33393,"lon":5.41115,"is_reserved":false,"is_disabled":false,"rental_uris":{"android":"levelo://app?vid=1bdb0524-fd2f-434a-9e83-4b7a1a09b5bb","ios":"levelo://app?vid=1bdb0524-fd2f-434a-9e83-4b7a1a09b5bb"},"vehicle_type_id":"4","last_reported":1761952208,"current_range_meters":3200,"station_id":"","pricing_plan_id":"cebpf4jnsgd1na2vs0mg"},{"bike_id":"102debe8-d8ff-44e6-be22-080165e1ba68","system_id":"levelo_inurba_marseille","lat":43.25085,"lon":5.39525,"is_reserved":false,"is_disabled":false,"rental_uris":{"android":"levelo://app?vid=102debe8-d8ff-44e6-be22-080165e1ba68","ios":"levelo://app?vid=102debe8-d8ff-44e6-be22-080165e1ba68"},"vehicle_type_id":"4","last_reported":1761952208,"current_range_meters":3600,"station_id":"ce4bhm12rcd13ifvqgkg","pricing_plan_id":"cebpf4jnsgd1na2vs0mg"},{"bike_id":"6032e9a3-05bc-4c59-a7d2-37baf1d98d69","system_id":"levelo_inurba_marseille","lat":43.29364,"lon":5.378542,"is_reserved":false,"is_disabled":false,"rental_uris":{"android":"levelo://app?vid=6032e9a3-05bc-4c59-a7d2-37baf1d98d69","ios":"levelo://app?vid=6032e9a3-05bc-4c59-a7d2-37baf1d98d69"},"vehicle_type_id":"4","last_reported":1761952208,"current_range_meters":3600,"station_id":"ce4bgjh2rcd13ifvqbf0","pricing_plan_id":"cebpf4jnsgd1na2vs0mg"},{"bike_id":"cf4ba23f-9617-43bd-ac37-ea96c2071e9b","system_id":"levelo_inurba_marseille","lat":43.25494,"lon":5.3765,"is_reserved":false,"is_disabled":false,"rental_uris":{"android":"levelo://app?vid=cf4ba23f-9617-43bd-ac37-ea96c2071e9b","ios":"levelo://app?vid=cf4ba23f-9617-43bd-ac37-ea96c2071e9b"},"vehicle_type_id":"4","last_reported":1761952208,"current_range_meters":4000,"station_id":"ce4bhh12rcd13ifvqff0","pricing_plan_id":"cebpf4jnsgd1na2vs0mg"},{"bike_id":"7429e722-0140-4583-bd6d-6fc4e8aad56b","system_id":"levelo_inurba_marseille","lat":43.30543,"lon":5.37071,"is_reserved":false,"is_disabled":false,"rental_uris":{"android":"levelo://app?vid=7429e722-0140-4583-bd6d-6fc4e8aad56b","ios":"levelo://app?vid=7429e722-0140-4583-bd6d-6fc4e8aad56b"},"vehicle_type_id":"4","last_reported":1761952208,"current_range_meters":4400,"station_id":"","pricing_plan_id":"cebpf4jnsgd1na2vs0mg"},{"bike_id":"a1b2b467-58ec-47b6-8410-1aab28c2ee00","system_id":"levelo_inurba_marseille","lat":43.28616,"lon":5.37061,"is_reserved":false,"is_disabled":false,"rental_uris":{"android":"levelo://app?vid=a1b2b467-58ec-47b6-8410-1aab28c2ee00","ios":"levelo://app?vid=a1b2b467-58ec-47b6-8410-1aab28c2ee00"},"vehicle_type_id":"4","last_reported":1761952208,"current_range_meters":4400,"station_id":"ce4bht12rcd13ifvqi60","pricing_plan_id":"cebpf4jnsgd1na2vs0mg"},{"bike_id":"353707cb-ee13-454e-93fa-cd045a63e5fb","system_id":"levelo_inurba_marseille","lat":43.285741,"lon":5.370908,"is_reserved":false,"is_disabled":false,"rental_uris":{"android":"levelo://app?vid=353707cb-ee13-454e-93fa-cd045a63e5fb","ios":"levelo://app?vid=353707cb-ee13-454e-93fa-cd045a63e5fb"},"vehicle_type_id":"4","last_reported":1761952208,"current_range_meters":4800,"station_id":"ce4bht12rcd13ifvqi60","pricing_plan_id":"cebpf4jnsgd1na2vs0mg"},{"bike_id":"9f08df02-a31e-46d7-a066-a283aa932760","system_id":"levelo_inurba_marseille","lat":43.30599,"lon":5.37225,"is_reserved":false,"is_disabled":false,"rental_uris":{"android":"levelo://app?vid=9f08df02-a31e-46d7-a066-a283aa932760","ios":"levelo://app?vid=9f08df02-a31e-46d7-a066-a283aa932760"},"vehicle_type_id":"4","last_reported":1761952208,"current_range_meters":4800,"station_id":"ce4bgqh2rcd13ifvqc4g","pricing_plan_id":"cebpf4jnsgd1na2vs0mg"},{"bike_id":"c7ea5888-7f66-47f4-a6a1-ae83301520e6","system_id":"levelo_inurba_marseille","lat":43.28613,"lon":5.35097,"is_reserved":false,"is_disabled":false,"rental_uris":{"android":"levelo://app?vid=c7ea5888-7f66-47f4-a6a1-ae83301520e6","ios":"levelo://app?vid=c7ea5888-7f66-47f4-a6a1-ae83301520e6"},"vehicle_type_id":"4","last_reported":1761952208,"current_range_meters":4800,"station_id":"ce4bhch2rcd13ifvqeug","pricing_plan_id":"cebpf4jnsgd1na2vs0mg"},{"bike_id":"6357b643-31fd-4ce9-bf78-eb6c2df213a2","system_id":"levelo_inurba_marseille","lat":43.29535,"lon":5.3902,"is_reserved":false,"is_disabled":false,"rental_uris":{"android":"levelo://app?vid=6357b643-31fd-4ce9-bf78-eb6c2df213a2","ios":"levelo://app?vid=6357b643-31fd-4ce9-bf78-eb6c2df213a2"},"vehicle_type_id":"4","last_reported":1761952208,"current_range_meters":5600,"station_id":"","pricing_plan_id":"cebpf4jnsgd1na2vs0mg"},{"bike_id":"6fff56e2-dc33-4322-9554-e738206d1bc0","system_id":"levelo_inurba_marseille","lat":43.21222,"lon":5.35063,"is_reserved":false,"is_disabled":false,"rental_uris":{"android":"levelo://app?vid=6fff56e2-dc33-4322-9554-e738206d1bc0","ios":"levelo://app?vid=6fff56e2-dc33-4322-9554-e738206d1bc0"},"vehicle_type_id":"4","last_reported":1761952208,"current_range_meters":5600,"station_id":"st_cvj6sg6p6f1abm77japg","pricing_plan_id":"cebpf4jnsgd1na2vs0mg"},{"bike_id":"94c4116b-3d46-4503-ad13-11e4a7c4d39b","system_id":"levelo_inurba_marseille","lat":43.27989,"lon":5.41666,"is_reserved":false,"is_disabled":false,"rental_uris":{"android":"levelo://app?vid=94c4116b-3d46-4503-ad13-11e4a7c4d39b","ios":"levelo://app?vid=94c4116b-3d46-4503-ad13-11e4a7c4d39b"},"vehicle_type_id":"4","last_reported":1761952208,"current_range_meters":5600,"station_id":"ce4bho12rcd13ifvqh1g","pricing_plan_id":"cebpf4jnsgd1na2vs0mg"},{"bike_id":"cf23487d-e129-4524-afd6-124971a910ea","system_id":"levelo_inurba_marseille","lat":43.27942,"lon":5.4106,"is_reserved":false,"is_disabled":true,"rental_uris":{"android":"levelo://app?vid=cf23487d-e129-4524-afd6-124971a910ea","ios":"levelo://app?vid=cf23487d-e129-4524-afd6-124971a910ea"},"vehicle_type_id":"4","last_reported":1761952208,"current_range_meters":5600,"station_id":"ce4bhnp2rcd13ifvqh0g","pricing_plan_id":"cebpf4jnsgd1na2vs0mg"},{"bike_id":"8fb0c123-10e2-45f5-a587-0a049f2a834f","system_id":"levelo_inurba_marseille","lat":43.24072,"lon":5.37761,"is_reserved":false,"is_disabled":false,"rental_uris":{"android":"levelo://app?vid=8fb0c123-10e2-45f5-a587-0a049f2a834f","ios":"levelo://app?vid=8fb0c123-10e2-45f5-a587-0a049f2a834f"},"vehicle_type_id":"4","last_reported":1761952208,"current_range_meters":5600,"station_id":"ce4bhnp2rcd13ifvqgvg","pricing_plan_id":"cebpf4jnsgd1na2vs0mg"},{"bike_id":"4ea5c8d3-596b-4c15-9f77-2d54d14bff42","system_id":"levelo_inurba_marseille","lat":43.29875,"lon":5.3844,"is_reserved":false,"is_disabled":false,"rental_uris":{"android":"levelo://app?vid=4ea5c8d3-596b-4c15-9f77-2d54d14bff42","ios":"levelo://app?vid=4ea5c8d3-596b-4c15-9f77-2d54d14bff42"},"vehicle_type_id":"4","last_reported":1761952208,"current_range_meters":6000,"station_id":"","pricing_plan_id":"cebpf4jnsgd1na2vs0mg"},{"bike_id":"a314cfed-1518-4479-8498-8182e483bfa7","system_id":"levelo_inurba_marseille","lat":43.273193,"lon":5.390762,"is_reserved":false,"is_disabled":false,"rental_uris":{"android":"levelo://app?vid=a314cfed-1518-4479-8498-8182e483bfa7","ios":"levelo://app?vid=a314cfed-1518-4479-8498-8182e483bfa7"},"vehicle_type_id":"4","last_reported":1761952208,"current_range_meters":6000,"station_id":"ce4bhgp2rcd13ifvqfe0","pricing_plan_id":"cebpf4jnsgd1na2vs0mg"},{"bike_id":"3f9d89b0-a3c3-4b72-9969-08e348af8256","system_id":"levelo_inurba_marseille","lat":43.29808,"lon":5.40255,"is_reserved":false,"is_disabled":false,"rental_uris":{"android":"levelo://app?vid=3f9d89b0-a3c3-4b72-9969-08e348af8256","ios":"levelo://app?vid=3f9d89b0-a3c3-4b72-9969-08e348af8256"},"vehicle_type_id":"4","last_reported":1761952208,"current_range_meters":6000,"station_id":"","pricing_plan_id":"cebpf4jnsgd1na2vs0mg"},{"bike_id":"9ccb6269-2e6c-4679-9727-d864bdd790d5","system_id":"levelo_inurba_marseille","lat":43.26554,"lon":5.37294,"is_reserved":false,"is_disabled":false,"rental_uris":{"android":"levelo://app?vid=9ccb6269-2e6c-4679-9727-d864bdd790d5","ios":"levelo://app?vid=9ccb6269-2e6c-4679-9727-d864bdd790d5"},"vehicle_type_id":"4","last_reported":1761952208,"current_range_meters":6400,"station_id":"ce4bhg12rcd13ifvqf70","pricing_plan_id":"cebpf4jnsgd1na2vs0mg"},{"bike_id":"9133d1d7-6aa9-4ded-bb99-33995b35ba4c","system_id":"levelo_inurba_marseille","lat":43.310743,"lon":5.383563,"is_reserved":false,"is_disabled":false,"rental_uris":{"android":"levelo://app?vid=9133d1d7-6aa9-4ded-bb99-33995b35ba4c","ios":"levelo://app?vid=9133d1d7-6aa9-4ded-bb99-33995b35ba4c"},"vehicle_type_id":"4","last_reported":1761952208,"current_range_meters":6400,"station_id":"ce4bgv92rcd13ifvqcr0","pricing_plan_id":"cebpf4jnsgd1na2vs0mg"},{"bike_id":"327c32fa-9803-4dfd-84b9-fe7d048539c4","system_id":"levelo_inurba_marseille","lat":43.33722,"lon":5.3919,"is_reserved":false,"is_disabled":false,"rental_uris":{"android":"levelo://app?vid=327c32fa-9803-4dfd-84b9-fe7d048539c4","ios":"levelo://app?vid=327c32fa-9803-4dfd-84b9-fe7d048539c4"},"vehicle_type_id":"4","last_reported":1761952208,"current_range_meters":6400,"station_id":"ce4bhr92rcd13ifvqhsg","pricing_plan_id":"cebpf4jnsgd1na2vs0mg"},{"bike_id":"da503111-5feb-4a8e-b697-ab299317bc1a","system_id":"levelo_inurba_marseille","lat":43.28522,"lon":5.36666,"is_reserved":false,"is_disabled":false,"rental_uris":{"android":"levelo://app?vid=da503111-5feb-4a8e-b697-ab299317bc1a","ios":"levelo://app?vid=da503111-5feb-4a8e-b697-ab299317bc1a"},"vehicle_type_id":"4","last_reported":1761952208,"current_range_meters":6800,"station_id":"","pricing_plan_id":"cebpf4jnsgd1na2vs0mg"},{"bike_id":"b190f1fd-7f83-49e9-853d-1dab375c2c63","system_id":"levelo_inurba_marseille","lat":43.25136,"lon":5.37535,"is_reserved":false,"is_disabled":false,"rental_uris":{"android":"levelo://app?vid=b190f1fd-7f83-49e9-853d-1dab375c2c63","ios":"levelo://app?vid=b190f1fd-7f83-49e9-853d-1dab375c2c63"},"vehicle_type_id":"4","last_reported":1761952208,"current_range_meters":6800,"station_id":"","pricing_plan_id":"cebpf4jnsgd1na2vs0mg"},{"bike_id":"afd3bf2e-00d1-41f8-ad90-f5c852d4383e","system_id":"levelo_inurba_marseille","lat":43.25324,"lon":5.42175,"is_reserved":false,"is_disabled":false,"rental_uris":{"android":"levelo://app?vid=afd3bf2e-00d1-41f8-ad90-f5c852d4383e","ios":"levelo://app?vid=afd3bf2e-00d1-41f8-ad90-f5c852d4383e"},"vehicle_type_id":"4","last_reported":1761952208,"current_range_meters":7200,"station_id":"st_d2m65c5bi1j21697t3ng","pricing_plan_id":"cebpf4jnsgd1na2vs0mg"},{"bike_id":"06ee2874-047a-4149-9f23-079278a8b813","system_id":"levelo_inurba_marseille","lat":43.28933,"lon":5.36641,"is_reserved":false,"is_disabled":false,"rental_uris":{"android":"levelo://app?vid=06ee2874-047a-4149-9f23-079278a8b813","ios":"levelo://app?vid=06ee2874-047a-4149-9f23-079278a8b813"},"vehicle_type_id":"4","last_reported":1761952208,"current_range_meters":7200,"station_id":"ce4bhap2rcd13ifvqek0","pricing_plan_id":"cebpf4jnsgd1na2vs0mg"},{"bike_id":"688e0991-23bb-4f67-a97d-b9bb7704a66a","system_id":"levelo_inurba_marseille","lat":43.29255,"lon":5.39101,"is_reserved":false,"is_disabled":false,"rental_uris":{"android":"levelo://app?vid=688e0991-23bb-4f67-a97d-b9bb7704a66a","ios":"levelo://app?vid=688e0991-23bb-4f67-a97d-b9bb7704a66a"},"vehicle_type_id":"4","last_reported":1761952208,"current_range_meters":7200,"station_id":"","pricing_plan_id":"cebpf4jnsgd1na2vs0mg"},{"bike_id":"c4aa9d59-3ee0-47ad-afd6-964ca21413f9","system_id":"levelo_inurba_marseille","lat":43.29178,"lon":5.35629,"is_reserved":false,"is_disabled":false,"rental_uris":{"android":"levelo://app?vid=c4aa9d59-3ee0-47ad-afd6-964ca21413f9","ios":"levelo://app?vid=c4aa9d59-3ee0-47ad-afd6-964ca21413f9"},"vehicle_type_id":"4","last_reported":1761952208,"current_range_meters":7200,"station_id":"","pricing_plan_id":"cebpf4jnsgd1na2vs0mg"},{"bike_id":"30709d40-76b1-4569-a50a-58431b14b00e","system_id":"levelo_inurba_marseille","lat":43.25509,"lon":5.37652,"is_reserved":false,"is_disabled":false,"rental_uris":{"android":"levelo://app?vid=30709d40-76b1-4569-a50a-58431b14b00e","ios":"levelo://app?vid=30709d40-76b1-4569-a50a-58431b14b00e"},"vehicle_type_id":"4","last_reported":1761952208,"current_range_meters":8000,"station_id":"ce4bhh12rcd13ifvqff0","pricing_plan_id":"cebpf4jnsgd1na2vs0mg"},{"bike_id":"4605b908-9b97-4f52-bf86-714389a43d8a","system_id":"levelo_inurba_marseille","lat":43.26558,"lon":5.37287,"is_reserved":false,"is_disabled":false,"rental_uris":{"android":"levelo://app?vid=4605b908-9b97-4f52-bf86-714389a43d8a","ios":"levelo://app?vid=4605b908-9b97-4f52-bf86-714389a43d8a"},"vehicle_type_id":"4","last_reported":1761952208,"current_range_meters":8000,"station_id":"ce4bhg12rcd13ifvqf70","pricing_plan_id":"cebpf4jnsgd1na2vs0mg"},{"bike_id":"dbbf01d5-146c-4703-b0d4-a6fb876476cb","system_id":"levelo_inurba_marseille","lat":43.21192,"lon":5.35072,"is_reserved":false,"is_disabled":false,"rental_uris":{"android":"levelo://app?vid=dbbf01d5-146c-4703-b0d4-a6fb876476cb","ios":"levelo://app?vid=dbbf01d5-146c-4703-b0d4-a6fb876476cb"},"vehicle_type_id":"4","last_reported":1761952208,"current_range_meters":8000,"station_id":"st_cvj6sg6p6f1abm77japg","pricing_plan_id":"cebpf4jnsgd1na2vs0mg"},{"bike_id":"e17c31b8-c0cd-4c6e-bdf9-6644a8ff85e2","system_id":"levelo_inurba_marseille","lat":43.29597,"lon":5.38085,"is_reserved":false,"is_disabled":true,"rental_uris":{"android":"levelo://app?vid=e17c31b8-c0cd-4c6e-bdf9-6644a8ff85e2","ios":"levelo://app?vid=e17c31b8-c0cd-4c6e-bdf9-6644a8ff85e2"},"vehicle_type_id":"4","last_reported":1761952208,"current_range_meters":8000,"station_id":"ce4bgl12rcd13ifvqbo0","pricing_plan_id":"cebpf4jnsgd1na2vs0mg"},{"bike_id":"66b192e4-88cc-42ca-82f0-bd6cfdcbe93e","system_id":"levelo_inurba_marseille","lat":43.29037,"lon":5.39961,"is_reserved":false,"is_disabled":false,"rental_uris":{"android":"levelo://app?vid=66b192e4-88cc-42ca-82f0-bd6cfdcbe93e","ios":"levelo://app?vid=66b192e4-88cc-42ca-82f0-bd6cfdcbe93e"},"vehicle_type_id":"4","last_reported":1761952208,"current_range_meters":8400,"station_id":"ce4bh392rcd13ifvqdm0","pricing_plan_id":"cebpf4jnsgd1na2vs0mg"},{"bike_id":"3dab03ab-b250-4b40-b286-0668266ab52e","system_id":"levelo_inurba_marseille","lat":43.28863,"lon":5.42527,"is_reserved":false,"is_disabled":false,"rental_uris":{"android":"levelo://app?vid=3dab03ab-b250-4b40-b286-0668266ab52e","ios":"levelo://app?vid=3dab03ab-b250-4b40-b286-0668266ab52e"},"vehicle_type_id":"4","last_reported":1761952208,"current_range_meters":8400,"station_id":"st_d3b462108ojc7389ooeg","pricing_plan_id":"cebpf4jnsgd1na2vs0mg"},{"bike_id":"30f8d4da-2955-4a11-b85b-69a98c0ba00e","system_id":"levelo_inurba_marseille","lat":43.24813,"lon":5.37456,"is_reserved":false,"is_disabled":false,"rental_uris":{"android":"levelo://app?vid=30f8d4da-2955-4a11-b85b-69a98c0ba00e","ios":"levelo://app?vid=30f8d4da-2955-4a11-b85b-69a98c0ba00e"},"vehicle_type_id":"4","last_reported":1761952208,"current_range_meters":8400,"station_id":"ce4bhgh2rcd13ifvqfb0","pricing_plan_id":"cebpf4jnsgd1na2vs0mg"},{"bike_id":"a18dbf48-2c4d-4fa4-a4c5-c9871d73c9a0","system_id":"levelo_inurba_marseille","lat":43.301994,"lon":5.383462,"is_reserved":false,"is_disabled":false,"rental_uris":{"android":"levelo://app?vid=a18dbf48-2c4d-4fa4-a4c5-c9871d73c9a0","ios":"levelo://app?vid=a18dbf48-2c4d-4fa4-a4c5-c9871d73c9a0"},"vehicle_type_id":"4","last_reported":1761952208,"current_range_meters":8400,"station_id":"ce4bgup2rcd13ifvqcn0","pricing_plan_id":"cebpf4jnsgd1na2vs0mg"},{"bike_id":"94174092-9b6d-46e9-983e-bf71025b5112","system_id":"levelo_inurba_marseille","lat":43.27917,"lon":5.39583,"is_reserved":false,"is_disabled":false,"rental_uris":{"android":"levelo://app?vid=94174092-9b6d-46e9-983e-bf71025b5112","ios":"levelo://app?vid=94174092-9b6d-46e9-983e-bf71025b5112"},"vehicle_type_id":"4","last_reported":1761952208,"current_range_meters":8400,"station_id":"ce4bhf92rcd13ifvqf40","pricing_plan_id":"cebpf4jnsgd1na2vs0mg"},{"bike_id":"d99505fe-d7a7-4e44-b7f5-f0065cd01a03","system_id":"levelo_inurba_marseille","lat":43.33388,"lon":5.42916,"is_reserved":false,"is_disabled":false,"rental_uris":{"android":"levelo://app?vid=d99505fe-d7a7-4e44-b7f5-f0065cd01a03","ios":"levelo://app?vid=d99505fe-d7a7-4e44-b7f5-f0065cd01a03"},"vehicle_type_id":"4","last_reported":1761952208,"current_range_meters":8800,"station_id":"","pricing_plan_id":"cebpf4jnsgd1na2vs0mg"},{"bike_id":"9b93b5e1-c939-4745-bf85-2d21945442dc","system_id":"levelo_inurba_marseille","lat":43.29995,"lon":5.36413,"is_reserved":false,"is_disabled":false,"rental_uris":{"android":"levelo://app?vid=9b93b5e1-c939-4745-bf85-2d21945442dc","ios":"levelo://app?vid=9b93b5e1-c939-4745-bf85-2d21945442dc"},"vehicle_type_id":"4","last_reported":1761952208,"current_range_meters":8800,"station_id":"","pricing_plan_id":"cebpf4jnsgd1na2vs0mg"},{"bike_id":"25357b7d-0ed7-41a6-ae72-c8d1515068ab","system_id":"levelo_inurba_marseille","lat":43.25496,"lon":5.37647,"is_reserved":false,"is_disabled":false,"rental_uris":{"android":"levelo://app?vid=25357b7d-0ed7-41a6-ae72-c8d1515068ab","ios":"levelo://app?vid=25357b7d-0ed7-41a6-ae72-c8d1515068ab"},"vehicle_type_id":"4","last_reported":1761952208,"current_range_meters":8800,"station_id":"ce4bhh12rcd13ifvqff0","pricing_plan_id":"cebpf4jnsgd1na2vs0mg"},{"bike_id":"a8a9c0cd-4608-4387-8078-d11714d7ed15","system_id":"levelo_inurba_marseille","lat":43.290772,"lon":5.355878,"is_reserved":false,"is_disabled":false,"rental_uris":{"android":"levelo://app?vid=a8a9c0cd-4608-4387-8078-d11714d7ed15","ios":"levelo://app?vid=a8a9c0cd-4608-4387-8078-d11714d7ed15"},"vehicle_type_id":"4","last_reported":1761952208,"current_range_meters":8800,"station_id":"ce4bhbh2rcd13ifvqeqg","pricing_plan_id":"cebpf4jnsgd1na2vs0mg"},{"bike_id":"b7bf08da-3155-4ebd-90f6-2c65138a1e9a","system_id":"levelo_inurba_marseille","lat":43.21185,"lon":5.35065,"is_reserved":false,"is_disabled":false,"rental_uris":{"android":"levelo://app?vid=b7bf08da-3155-4ebd-90f6-2c65138a1e9a","ios":"levelo://app?vid=b7bf08da-3155-4ebd-90f6-2c65138a1e9a"},"vehicle_type_id":"4","last_reported":1761952208,"current_range_meters":8800,"station_id":"st_cvj6sg6p6f1abm77japg","pricing_plan_id":"cebpf4jnsgd1na2vs0mg"},{"bike_id":"dbf4c10e-4bbe-4047-8630-d133799e5e34","system_id":"levelo_inurba_marseille","lat":43.26556,"lon":5.37284,"is_reserved":false,"is_disabled":false,"rental_uris":{"android":"levelo://app?vid=dbf4c10e-4bbe-4047-8630-d133799e5e34","ios":"levelo://app?vid=dbf4c10e-4bbe-4047-8630-d133799e5e34"},"vehicle_type_id":"4","last_reported":1761952208,"current_range_meters":9200,"station_id":"ce4bhg12rcd13ifvqf70","pricing_plan_id":"cebpf4jnsgd1na2vs0mg"},{"bike_id":"2e3cb1b8-545e-45f8-aeb5-41b1046279b2","system_id":"levelo_inurba_marseille","lat":43.270567,"lon":5.402616,"is_reserved":false,"is_disabled":false,"rental_uris":{"android":"levelo://app?vid=2e3cb1b8-545e-45f8-aeb5-41b1046279b2","ios":"levelo://app?vid=2e3cb1b8-545e-45f8-aeb5-41b1046279b2"},"vehicle_type_id":"4","last_reported":1761952208,"current_range_meters":9200,"station_id":"ce4bhk92rcd13ifvqgc0","pricing_plan_id":"cebpf4jnsgd1na2vs0mg"},{"bike_id":"e76fe3b3-fa5f-40f9-a6dc-97efdccbd5d7","system_id":"levelo_inurba_marseille","lat":43.27209,"lon":5.39189,"is_reserved":false,"is_disabled":false,"rental_uris":{"android":"levelo://app?vid=e76fe3b3-fa5f-40f9-a6dc-97efdccbd5d7","ios":"levelo://app?vid=e76fe3b3-fa5f-40f9-a6dc-97efdccbd5d7"},"vehicle_type_id":"4","last_reported":1761952208,"current_range_meters":9200,"station_id":"ce4bhhp2rcd13ifvqfm0","pricing_plan_id":"cebpf4jnsgd1na2vs0mg"},{"bike_id":"daadb3f8-5114-4334-b2b3-8a9b109e0220","system_id":"levelo_inurba_marseille","lat":43.25003,"lon":5.38928,"is_reserved":false,"is_disabled":false,"rental_uris":{"android":"levelo://app?vid=daadb3f8-5114-4334-b2b3-8a9b109e0220","ios":"levelo://app?vid=daadb3f8-5114-4334-b2b3-8a9b109e0220"},"vehicle_type_id":"4","last_reported":1761952208,"current_range_meters":9200,"station_id":"ce4bhgp2rcd13ifvqfd0","pricing_plan_id":"cebpf4jnsgd1na2vs0mg"},{"bike_id":"4792c131-c83a-438f-a048-e5e71de1e6dd","system_id":"levelo_inurba_marseille","lat":43.2904,"lon":5.37575,"is_reserved":false,"is_disabled":false,"rental_uris":{"android":"levelo://app?vid=4792c131-c83a-438f-a048-e5e71de1e6dd","ios":"levelo://app?vid=4792c131-c83a-438f-a048-e5e71de1e6dd"},"vehicle_type_id":"4","last_reported":1761952208,"current_range_meters":9600,"station_id":"ce4bh692rcd13ifvqe90","pricing_plan_id":"cebpf4jnsgd1na2vs0mg"},{"bike_id":"ce031dcb-7e28-4ac4-b4fc-db4a2653c5fa","system_id":"levelo_inurba_marseille","lat":43.27204,"lon":5.39193,"is_reserved":false,"is_disabled":false,"rental_uris":{"android":"levelo://app?vid=ce031dcb-7e28-4ac4-b4fc-db4a2653c5fa","ios":"levelo://app?vid=ce031dcb-7e28-4ac4-b4fc-db4a2653c5fa"},"vehicle_type_id":"4","last_reported":1761952208,"current_range_meters":9600,"station_id":"ce4bhhp2rcd13ifvqfm0","pricing_plan_id":"cebpf4jnsgd1na2vs0mg"},{"bike_id":"1084a660-17ab-4f95-aae6-f83ec7e7e912","system_id":"levelo_inurba_marseille","lat":43.25513,"lon":5.37657,"is_reserved":false,"is_disabled":false,"rental_uris":{"android":"levelo://app?vid=1084a660-17ab-4f95-aae6-f83ec7e7e912","ios":"levelo://app?vid=1084a660-17ab-4f95-aae6-f83ec7e7e912"},"vehicle_type_id":"4","last_reported":1761952208,"current_range_meters":10000,"station_id":"ce4bhh12rcd13ifvqff0","pricing_plan_id":"cebpf4jnsgd1na2vs0mg"},{"bike_id":"17145337-1bd5-49e4-a4ec-e3fbcb2b543a","system_id":"levelo_inurba_marseille","lat":43.25491,"lon":5.3766,"is_reserved":false,"is_disabled":false,"rental_uris":{"android":"levelo://app?vid=17145337-1bd5-49e4-a4ec-e3fbcb2b543a","ios":"levelo://app?vid=17145337-1bd5-49e4-a4ec-e3fbcb2b543a"},"vehicle_type_id":"4","last_reported":1761952208,"current_range_meters":10000,"station_id":"ce4bhh12rcd13ifvqff0","pricing_plan_id":"cebpf4jnsgd1na2vs0mg"},{"bike_id":"70b7527d-67eb-4818-84c6-51aae343ca97","system_id":"levelo_inurba_marseille","lat":43.28479,"lon":5.48404,"is_reserved":false,"is_disabled":false,"rental_uris":{"android":"levelo://app?vid=70b7527d-67eb-4818-84c6-51aae343ca97","ios":"levelo://app?vid=70b7527d-67eb-4818-84c6-51aae343ca97"},"vehicle_type_id":"4","last_reported":1761952208,"current_range_meters":10000,"station_id":"st_d3svhcjqgbts73a3dn0g","pricing_plan_id":"cebpf4jnsgd1na2vs0mg"},{"bike_id":"a56a8a64-8aaf-4f2b-9086-ab5ca516b670","system_id":"levelo_inurba_marseille","lat":43.2466,"lon":5.38157,"is_reserved":false,"is_disabled":false,"rental_uris":{"android":"levelo://app?vid=a56a8a64-8aaf-4f2b-9086-ab5ca516b670","ios":"levelo://app?vid=a56a8a64-8aaf-4f2b-9086-ab5ca516b670"},"vehicle_type_id":"4","last_reported":1761952208,"current_range_meters":10800,"station_id":"ce4bhih2rcd13ifvqfr0","pricing_plan_id":"cebpf4jnsgd1na2vs0mg"},{"bike_id":"e2264d1f-351a-444d-ab54-dd0c0baccee2","system_id":"levelo_inurba_marseille","lat":43.29551,"lon":5.42294,"is_reserved":false,"is_disabled":false,"rental_uris":{"android":"levelo://app?vid=e2264d1f-351a-444d-ab54-dd0c0baccee2","ios":"levelo://app?vid=e2264d1f-351a-444d-ab54-dd0c0baccee2"},"vehicle_type_id":"4","last_reported":1761952208,"current_range_meters":10800,"station_id":"ce4bhph2rcd13ifvqhdg","pricing_plan_id":"cebpf4jnsgd1na2vs0mg"},{"bike_id":"1213ff01-604d-4b83-b3a2-60440c4b245e","system_id":"levelo_inurba_marseille","lat":43.2377,"lon":5.3663,"is_reserved":false,"is_disabled":false,"rental_uris":{"android":"levelo://app?vid=1213ff01-604d-4b83-b3a2-60440c4b245e","ios":"levelo://app?vid=1213ff01-604d-4b83-b3a2-60440c4b245e"},"vehicle_type_id":"4","last_reported":1761952208,"current_range_meters":10800,"station_id":"st_d3nk18o9ro0c73en2l3g","pricing_plan_id":"cebpf4jnsgd1na2vs0mg"},{"bike_id":"1531ae83-4bfa-49de-b759-9eb8564be043","system_id":"levelo_inurba_marseille","lat":43.25109,"lon":5.40334,"is_reserved":false,"is_disabled":false,"rental_uris":{"android":"levelo://app?vid=1531ae83-4bfa-49de-b759-9eb8564be043","ios":"levelo://app?vid=1531ae83-4bfa-49de-b759-9eb8564be043"},"vehicle_type_id":"4","last_reported":1761952208,"current_range_meters":10800,"station_id":"ce4bhlh2rcd13ifvqgig","pricing_plan_id":"cebpf4jnsgd1na2vs0mg"},{"bike_id":"d63fb2cb-114d-4869-9f29-20e8f96a4fca","system_id":"levelo_inurba_marseille","lat":43.254902,"lon":5.376492,"is_reserved":false,"is_disabled":false,"rental_uris":{"android":"levelo://app?vid=d63fb2cb-114d-4869-9f29-20e8f96a4fca","ios":"levelo://app?vid=d63fb2cb-114d-4869-9f29-20e8f96a4fca"},"vehicle_type_id":"4","last_reported":1761952208,"current_range_meters":10800,"station_id":"ce4bhh12rcd13ifvqff0","pricing_plan_id":"cebpf4jnsgd1na2vs0mg"},{"bike_id":"df87f0c2-4d4f-4e68-8a2b-3150d17edb80","system_id":"levelo_inurba_marseille","lat":43.29268,"lon":5.38439,"is_reserved":false,"is_disabled":false,"rental_uris":{"android":"levelo://app?vid=df87f0c2-4d4f-4e68-8a2b-3150d17edb80","ios":"levelo://app?vid=df87f0c2-4d4f-4e68-8a2b-3150d17edb80"},"vehicle_type_id":"4","last_reported":1761952208,"current_range_meters":11200,"station_id":"ce4bh692rcd13ifvqea0","pricing_plan_id":"cebpf4jnsgd1na2vs0mg"},{"bike_id":"96ad2f8e-1ff0-415a-a84a-9186f2a5baf6","system_id":"levelo_inurba_marseille","lat":43.29606,"lon":5.37672,"is_reserved":false,"is_disabled":false,"rental_uris":{"android":"levelo://app?vid=96ad2f8e-1ff0-415a-a84a-9186f2a5baf6","ios":"levelo://app?vid=96ad2f8e-1ff0-415a-a84a-9186f2a5baf6"},"vehicle_type_id":"4","last_reported":1761952208,"current_range_meters":11200,"station_id":"ce4bgi12rcd13ifvqb80","pricing_plan_id":"cebpf4jnsgd1na2vs0mg"},{"bike_id":"e79b259c-121f-4efb-80f6-5f13e51f5ed4","system_id":"levelo_inurba_marseille","lat":43.31118,"lon":5.37766,"is_reserved":false,"is_disabled":false,"rental_uris":{"android":"levelo://app?vid=e79b259c-121f-4efb-80f6-5f13e51f5ed4","ios":"levelo://app?vid=e79b259c-121f-4efb-80f6-5f13e51f5ed4"},"vehicle_type_id":"4","last_reported":1761952208,"current_range_meters":11200,"station_id":"ce4bgt92rcd13ifvqcg0","pricing_plan_id":"cebpf4jnsgd1na2vs0mg"},{"bike_id":"b9931242-1b8c-426a-8566-929713d74d0b","system_id":"levelo_inurba_marseille","lat":43.29277,"lon":5.38447,"is_reserved":false,"is_disabled":false,"rental_uris":{"android":"levelo://app?vid=b9931242-1b8c-426a-8566-929713d74d0b","ios":"levelo://app?vid=b9931242-1b8c-426a-8566-929713d74d0b"},"vehicle_type_id":"4","last_reported":1761952208,"current_range_meters":11600,"station_id":"ce4bh692rcd13ifvqea0","pricing_plan_id":"cebpf4jnsgd1na2vs0mg"},{"bike_id":"7f09a132-d41e-48be-af37-157ccfd26cff","system_id":"levelo_inurba_marseille","lat":43.29535,"lon":5.38537,"is_reserved":false,"is_disabled":false,"rental_uris":{"android":"levelo://app?vid=7f09a132-d41e-48be-af37-157ccfd26cff","ios":"levelo://app?vid=7f09a132-d41e-48be-af37-157ccfd26cff"},"vehicle_type_id":"4","last_reported":1761952208,"current_range_meters":11600,"station_id":"ce4bgih2rcd13ifvqba0","pricing_plan_id":"cebpf4jnsgd1na2vs0mg"},{"bike_id":"2dd22429-1897-4373-b3cf-5ec6fec6bf40","system_id":"levelo_inurba_marseille","lat":43.31387,"lon":5.38508,"is_reserved":false,"is_disabled":false,"rental_uris":{"android":"levelo://app?vid=2dd22429-1897-4373-b3cf-5ec6fec6bf40","ios":"levelo://app?vid=2dd22429-1897-4373-b3cf-5ec6fec6bf40"},"vehicle_type_id":"4","last_reported":1761952208,"current_range_meters":11600,"station_id":"ce4bgt92rcd13ifvqcf0","pricing_plan_id":"cebpf4jnsgd1na2vs0mg"},{"bike_id":"bfea6413-afbc-4cd0-a1c3-3175840c533c","system_id":"levelo_inurba_marseille","lat":43.295319,"lon":5.39099,"is_reserved":false,"is_disabled":false,"rental_uris":{"android":"levelo://app?vid=bfea6413-afbc-4cd0-a1c3-3175840c533c","ios":"levelo://app?vid=bfea6413-afbc-4cd0-a1c3-3175840c533c"},"vehicle_type_id":"4","last_reported":1761952208,"current_range_meters":11600,"station_id":"","pricing_plan_id":"cebpf4jnsgd1na2vs0mg"},{"bike_id":"22a1d899-ecc1-4a63-b9cd-830fba2caf10","system_id":"levelo_inurba_marseille","lat":43.23184,"lon":5.39981,"is_reserved":false,"is_disabled":false,"rental_uris":{"android":"levelo://app?vid=22a1d899-ecc1-4a63-b9cd-830fba2caf10","ios":"levelo://app?vid=22a1d899-ecc1-4a63-b9cd-830fba2caf10"},"vehicle_type_id":"4","last_reported":1761952208,"current_range_meters":11600,"station_id":"ce4bhn12rcd13ifvqgqg","pricing_plan_id":"cebpf4jnsgd1na2vs0mg"},{"bike_id":"3b0ed919-3f15-4150-9bb7-c2e454e63927","system_id":"levelo_inurba_marseille","lat":43.246623,"lon":5.381663,"is_reserved":false,"is_disabled":false,"rental_uris":{"android":"levelo://app?vid=3b0ed919-3f15-4150-9bb7-c2e454e63927","ios":"levelo://app?vid=3b0ed919-3f15-4150-9bb7-c2e454e63927"},"vehicle_type_id":"4","last_reported":1761952208,"current_range_meters":11600,"station_id":"ce4bhih2rcd13ifvqfr0","pricing_plan_id":"cebpf4jnsgd1na2vs0mg"},{"bike_id":"877c48c7-c03d-44f7-a6bf-ad3067265568","system_id":"levelo_inurba_marseille","lat":43.29265,"lon":5.38408,"is_reserved":false,"is_disabled":false,"rental_uris":{"android":"levelo://app?vid=877c48c7-c03d-44f7-a6bf-ad3067265568","ios":"levelo://app?vid=877c48c7-c03d-44f7-a6bf-ad3067265568"},"vehicle_type_id":"4","last_reported":1761952208,"current_range_meters":12000,"station_id":"ce4bh692rcd13ifvqea0","pricing_plan_id":"cebpf4jnsgd1na2vs0mg"},{"bike_id":"42e986d2-36be-4b0e-87e8-71dc3f97c04d","system_id":"levelo_inurba_marseille","lat":43.24654,"lon":5.38165,"is_reserved":false,"is_disabled":false,"rental_uris":{"android":"levelo://app?vid=42e986d2-36be-4b0e-87e8-71dc3f97c04d","ios":"levelo://app?vid=42e986d2-36be-4b0e-87e8-71dc3f97c04d"},"vehicle_type_id":"4","last_reported":1761952208,"current_range_meters":12000,"station_id":"ce4bhih2rcd13ifvqfr0","pricing_plan_id":"cebpf4jnsgd1na2vs0mg"},{"bike_id":"a4dac4fa-66e6-48be-a654-6e17cdc7ca0b","system_id":"levelo_inurba_marseille","lat":43.337571,"lon":5.374323,"is_reserved":false,"is_disabled":false,"rental_uris":{"android":"levelo://app?vid=a4dac4fa-66e6-48be-a654-6e17cdc7ca0b","ios":"levelo://app?vid=a4dac4fa-66e6-48be-a654-6e17cdc7ca0b"},"vehicle_type_id":"4","last_reported":1761952208,"current_range_meters":12000,"station_id":"","pricing_plan_id":"cebpf4jnsgd1na2vs0mg"},{"bike_id":"ea3147bb-7ca4-4c18-bdcb-946e81a537ff","system_id":"levelo_inurba_marseille","lat":43.27429,"lon":5.39418,"is_reserved":false,"is_disabled":false,"rental_uris":{"android":"levelo://app?vid=ea3147bb-7ca4-4c18-bdcb-946e81a537ff","ios":"levelo://app?vid=ea3147bb-7ca4-4c18-bdcb-946e81a537ff"},"vehicle_type_id":"4","last_reported":1761952208,"current_range_meters":12000,"station_id":"ce4bhdp2rcd13ifvqf20","pricing_plan_id":"cebpf4jnsgd1na2vs0mg"},{"bike_id":"c642da5d-ef15-4287-ad0f-a746b900e290","system_id":"levelo_inurba_marseille","lat":43.255,"lon":5.376492,"is_reserved":false,"is_disabled":false,"rental_uris":{"android":"levelo://app?vid=c642da5d-ef15-4287-ad0f-a746b900e290","ios":"levelo://app?vid=c642da5d-ef15-4287-ad0f-a746b900e290"},"vehicle_type_id":"4","last_reported":1761952208,"current_range_meters":12000,"station_id":"ce4bhh12rcd13ifvqff0","pricing_plan_id":"cebpf4jnsgd1na2vs0mg"},{"bike_id":"f71afa96-ae6f-49a1-b300-a49ff4213441","system_id":"levelo_inurba_marseille","lat":43.336094,"lon":5.410368,"is_reserved":false,"is_disabled":false,"rental_uris":{"android":"levelo://app?vid=f71afa96-ae6f-49a1-b300-a49ff4213441","ios":"levelo://app?vid=f71afa96-ae6f-49a1-b300-a49ff4213441"},"vehicle_type_id":"4","last_reported":1761952208,"current_range_meters":12000,"station_id":"ce4bhqh2rcd13ifvqhmg","pricing_plan_id":"cebpf4jnsgd1na2vs0mg"},{"bike_id":"dbc66b64-d1e0-45c2-aff9-267d5460544d","system_id":"levelo_inurba_marseille","lat":43.28702,"lon":5.3999,"is_reserved":false,"is_disabled":false,"rental_uris":{"android":"levelo://app?vid=dbc66b64-d1e0-45c2-aff9-267d5460544d","ios":"levelo://app?vid=dbc66b64-d1e0-45c2-aff9-267d5460544d"},"vehicle_type_id":"4","last_reported":1761952208,"current_range_meters":12400,"station_id":"ce4bho92rcd13ifvqh3g","pricing_plan_id":"cebpf4jnsgd1na2vs0mg"},{"bike_id":"745abb82-a14b-4704-a874-4f2291079f40","system_id":"levelo_inurba_marseille","lat":43.308032,"lon":5.381536,"is_reserved":false,"is_disabled":false,"rental_uris":{"android":"levelo://app?vid=745abb82-a14b-4704-a874-4f2291079f40","ios":"levelo://app?vid=745abb82-a14b-4704-a874-4f2291079f40"},"vehicle_type_id":"4","last_reported":1761952208,"current_range_meters":12400,"station_id":"ce4bgt12rcd13ifvqce0","pricing_plan_id":"cebpf4jnsgd1na2vs0mg"},{"bike_id":"3e2d4b33-c489-414d-901a-32eac6807f84","system_id":"levelo_inurba_marseille","lat":43.29529,"lon":5.38544,"is_reserved":false,"is_disabled":false,"rental_uris":{"android":"levelo://app?vid=3e2d4b33-c489-414d-901a-32eac6807f84","ios":"levelo://app?vid=3e2d4b33-c489-414d-901a-32eac6807f84"},"vehicle_type_id":"4","last_reported":1761952208,"current_range_meters":12400,"station_id":"ce4bgih2rcd13ifvqba0","pricing_plan_id":"cebpf4jnsgd1na2vs0mg"},{"bike_id":"d6c56db3-aec5-49fd-a6f6-0b9a32ee2b77","system_id":"levelo_inurba_marseille","lat":43.26547,"lon":5.39048,"is_reserved":false,"is_disabled":false,"rental_uris":{"android":"levelo://app?vid=d6c56db3-aec5-49fd-a6f6-0b9a32ee2b77","ios":"levelo://app?vid=d6c56db3-aec5-49fd-a6f6-0b9a32ee2b77"},"vehicle_type_id":"4","last_reported":1761952208,"current_range_meters":12400,"station_id":"ce4bhe12rcd13ifvqf30","pricing_plan_id":"cebpf4jnsgd1na2vs0mg"},{"bike_id":"a4411a31-dc75-48de-8b4a-eee0e7dbe4d1","system_id":"levelo_inurba_marseille","lat":43.28165,"lon":5.42604,"is_reserved":false,"is_disabled":false,"rental_uris":{"android":"levelo://app?vid=a4411a31-dc75-48de-8b4a-eee0e7dbe4d1","ios":"levelo://app?vid=a4411a31-dc75-48de-8b4a-eee0e7dbe4d1"},"vehicle_type_id":"4","last_reported":1761952208,"current_range_meters":12400,"station_id":"ce4bhnh2rcd13ifvqgug","pricing_plan_id":"cebpf4jnsgd1na2vs0mg"},{"bike_id":"74b15735-564b-4f09-952a-ba8cccb96884","system_id":"levelo_inurba_marseille","lat":43.30926,"lon":5.40143,"is_reserved":false,"is_disabled":false,"rental_uris":{"android":"levelo://app?vid=74b15735-564b-4f09-952a-ba8cccb96884","ios":"levelo://app?vid=74b15735-564b-4f09-952a-ba8cccb96884"},"vehicle_type_id":"4","last_reported":1761952208,"current_range_meters":12400,"station_id":"","pricing_plan_id":"cebpf4jnsgd1na2vs0mg"},{"bike_id":"6cd59db7-cb12-4301-8385-22b87d7a5cfd","system_id":"levelo_inurba_marseille","lat":43.28537,"lon":5.44084,"is_reserved":false,"is_disabled":false,"rental_uris":{"android":"levelo://app?vid=6cd59db7-cb12-4301-8385-22b87d7a5cfd","ios":"levelo://app?vid=6cd59db7-cb12-4301-8385-22b87d7a5cfd"},"vehicle_type_id":"4","last_reported":1761952208,"current_range_meters":12800,"station_id":"st_d3j3df2ikq2c7380ej80","pricing_plan_id":"cebpf4jnsgd1na2vs0mg"},{"bike_id":"3a8851b0-bea2-4b80-afc7-0c6751111e32","system_id":"levelo_inurba_marseille","lat":43.28877,"lon":5.42525,"is_reserved":false,"is_disabled":false,"rental_uris":{"android":"levelo://app?vid=3a8851b0-bea2-4b80-afc7-0c6751111e32","ios":"levelo://app?vid=3a8851b0-bea2-4b80-afc7-0c6751111e32"},"vehicle_type_id":"4","last_reported":1761952208,"current_range_meters":12800,"station_id":"st_d3b462108ojc7389ooeg","pricing_plan_id":"cebpf4jnsgd1na2vs0mg"},{"bike_id":"aad6a064-c048-4ba9-a156-1745b89548aa","system_id":"levelo_inurba_marseille","lat":43.283138,"lon":5.410963,"is_reserved":false,"is_disabled":false,"rental_uris":{"android":"levelo://app?vid=aad6a064-c048-4ba9-a156-1745b89548aa","ios":"levelo://app?vid=aad6a064-c048-4ba9-a156-1745b89548aa"},"vehicle_type_id":"4","last_reported":1761952208,"current_range_meters":12800,"station_id":"","pricing_plan_id":"cebpf4jnsgd1na2vs0mg"},{"bike_id":"a74ca4e6-9019-4ce4-a364-7a22bd8e206a","system_id":"levelo_inurba_marseille","lat":43.26505,"lon":5.38517,"is_reserved":false,"is_disabled":false,"rental_uris":{"android":"levelo://app?vid=a74ca4e6-9019-4ce4-a364-7a22bd8e206a","ios":"levelo://app?vid=a74ca4e6-9019-4ce4-a364-7a22bd8e206a"},"vehicle_type_id":"4","last_reported":1761952208,"current_range_meters":12800,"station_id":"","pricing_plan_id":"cebpf4jnsgd1na2vs0mg"},{"bike_id":"bce353ec-384f-4035-9ce8-b371ae5b6a88","system_id":"levelo_inurba_marseille","lat":43.25584,"lon":5.38235,"is_reserved":false,"is_disabled":false,"rental_uris":{"android":"levelo://app?vid=bce353ec-384f-4035-9ce8-b371ae5b6a88","ios":"levelo://app?vid=bce353ec-384f-4035-9ce8-b371ae5b6a88"},"vehicle_type_id":"4","last_reported":1761952208,"current_range_meters":12800,"station_id":"ce4bhih2rcd13ifvqfs0","pricing_plan_id":"cebpf4jnsgd1na2vs0mg"},{"bike_id":"dacea13e-ff7f-4447-9d68-7558315e0463","system_id":"levelo_inurba_marseille","lat":43.30427,"lon":5.36753,"is_reserved":false,"is_disabled":false,"rental_uris":{"android":"levelo://app?vid=dacea13e-ff7f-4447-9d68-7558315e0463","ios":"levelo://app?vid=dacea13e-ff7f-4447-9d68-7558315e0463"},"vehicle_type_id":"4","last_reported":1761952208,"current_range_meters":12800,"station_id":"","pricing_plan_id":"cebpf4jnsgd1na2vs0mg"},{"bike_id":"aad731fe-f402-47a2-a9e2-d1ab53621c21","system_id":"levelo_inurba_marseille","lat":43.237856,"lon":5.366308,"is_reserved":false,"is_disabled":false,"rental_uris":{"android":"levelo://app?vid=aad731fe-f402-47a2-a9e2-d1ab53621c21","ios":"levelo://app?vid=aad731fe-f402-47a2-a9e2-d1ab53621c21"},"vehicle_type_id":"4","last_reported":1761952208,"current_range_meters":13600,"station_id":"st_d3nk18o9ro0c73en2l3g","pricing_plan_id":"cebpf4jnsgd1na2vs0mg"},{"bike_id":"17c4d6b8-072b-4aea-994a-596dd01ada9d","system_id":"levelo_inurba_marseille","lat":43.29023,"lon":5.38644,"is_reserved":false,"is_disabled":false,"rental_uris":{"android":"levelo://app?vid=17c4d6b8-072b-4aea-994a-596dd01ada9d","ios":"levelo://app?vid=17c4d6b8-072b-4aea-994a-596dd01ada9d"},"vehicle_type_id":"4","last_reported":1761952208,"current_range_meters":13600,"station_id":"ce4bh4p2rcd13ifvqe0g","pricing_plan_id":"cebpf4jnsgd1na2vs0mg"},{"bike_id":"d3b96a45-0c36-482a-b421-c63df9f9d284","system_id":"levelo_inurba_marseille","lat":43.29251,"lon":5.38435,"is_reserved":false,"is_disabled":false,"rental_uris":{"android":"levelo://app?vid=d3b96a45-0c36-482a-b421-c63df9f9d284","ios":"levelo://app?vid=d3b96a45-0c36-482a-b421-c63df9f9d284"},"vehicle_type_id":"4","last_reported":1761952208,"current_range_meters":13600,"station_id":"ce4bh692rcd13ifvqea0","pricing_plan_id":"cebpf4jnsgd1na2vs0mg"},{"bike_id":"455f34a8-58e4-4acc-b2e9-e37e3f8ee341","system_id":"levelo_inurba_marseille","lat":43.29543,"lon":5.38546,"is_reserved":false,"is_disabled":false,"rental_uris":{"android":"levelo://app?vid=455f34a8-58e4-4acc-b2e9-e37e3f8ee341","ios":"levelo://app?vid=455f34a8-58e4-4acc-b2e9-e37e3f8ee341"},"vehicle_type_id":"4","last_reported":1761952208,"current_range_meters":13600,"station_id":"ce4bgih2rcd13ifvqba0","pricing_plan_id":"cebpf4jnsgd1na2vs0mg"},{"bike_id":"5346ff16-2e80-4a98-a541-5ac3f4542916","system_id":"levelo_inurba_marseille","lat":43.28669,"lon":5.36353,"is_reserved":false,"is_disabled":false,"rental_uris":{"android":"levelo://app?vid=5346ff16-2e80-4a98-a541-5ac3f4542916","ios":"levelo://app?vid=5346ff16-2e80-4a98-a541-5ac3f4542916"},"vehicle_type_id":"4","last_reported":1761952208,"current_range_meters":14000,"station_id":"ce4bhah2rcd13ifvqej0","pricing_plan_id":"cebpf4jnsgd1na2vs0mg"},{"bike_id":"9cb7d9c2-d5d9-4ccc-93c2-e46515812c41","system_id":"levelo_inurba_marseille","lat":43.29557,"lon":5.38523,"is_reserved":false,"is_disabled":false,"rental_uris":{"android":"levelo://app?vid=9cb7d9c2-d5d9-4ccc-93c2-e46515812c41","ios":"levelo://app?vid=9cb7d9c2-d5d9-4ccc-93c2-e46515812c41"},"vehicle_type_id":"4","last_reported":1761952208,"current_range_meters":14000,"station_id":"ce4bgih2rcd13ifvqba0","pricing_plan_id":"cebpf4jnsgd1na2vs0mg"},{"bike_id":"3ead910e-6d20-43ff-b430-acaa82febea4","system_id":"levelo_inurba_marseille","lat":43.293374,"lon":5.371627,"is_reserved":false,"is_disabled":false,"rental_uris":{"android":"levelo://app?vid=3ead910e-6d20-43ff-b430-acaa82febea4","ios":"levelo://app?vid=3ead910e-6d20-43ff-b430-acaa82febea4"},"vehicle_type_id":"4","last_reported":1761952208,"current_range_meters":14000,"station_id":"ce4bgh92rcd13ifvqb40","pricing_plan_id":"cebpf4jnsgd1na2vs0mg"},{"bike_id":"a1c166ae-c81a-490e-ac0b-24b4b30fd03e","system_id":"levelo_inurba_marseille","lat":43.25496,"lon":5.37644,"is_reserved":false,"is_disabled":false,"rental_uris":{"android":"levelo://app?vid=a1c166ae-c81a-490e-ac0b-24b4b30fd03e","ios":"levelo://app?vid=a1c166ae-c81a-490e-ac0b-24b4b30fd03e"},"vehicle_type_id":"4","last_reported":1761952208,"current_range_meters":14000,"station_id":"ce4bhh12rcd13ifvqff0","pricing_plan_id":"cebpf4jnsgd1na2vs0mg"},{"bike_id":"9c245696-f9bb-4e6b-b021-1e0fc5e14885","system_id":"levelo_inurba_marseille","lat":43.29241,"lon":5.38451,"is_reserved":false,"is_disabled":false,"rental_uris":{"android":"levelo://app?vid=9c245696-f9bb-4e6b-b021-1e0fc5e14885","ios":"levelo://app?vid=9c245696-f9bb-4e6b-b021-1e0fc5e14885"},"vehicle_type_id":"4","last_reported":1761952208,"current_range_meters":14000,"station_id":"ce4bh692rcd13ifvqea0","pricing_plan_id":"cebpf4jnsgd1na2vs0mg"},{"bike_id":"52b117f2-4c01-4f66-887d-006722496528","system_id":"levelo_inurba_marseille","lat":43.30861,"lon":5.37169,"is_reserved":false,"is_disabled":false,"rental_uris":{"android":"levelo://app?vid=52b117f2-4c01-4f66-887d-006722496528","ios":"levelo://app?vid=52b117f2-4c01-4f66-887d-006722496528"},"vehicle_type_id":"4","last_reported":1761952208,"current_range_meters":14000,"station_id":"ce4bguh2rcd13ifvqckg","pricing_plan_id":"cebpf4jnsgd1na2vs0mg"},{"bike_id":"4681f6f6-c5c4-4cc0-901d-70a6197caa3a","system_id":"levelo_inurba_marseille","lat":43.28623,"lon":5.35113,"is_reserved":false,"is_disabled":false,"rental_uris":{"android":"levelo://app?vid=4681f6f6-c5c4-4cc0-901d-70a6197caa3a","ios":"levelo://app?vid=4681f6f6-c5c4-4cc0-901d-70a6197caa3a"},"vehicle_type_id":"4","last_reported":1761952208,"current_range_meters":14000,"station_id":"ce4bhch2rcd13ifvqeug","pricing_plan_id":"cebpf4jnsgd1na2vs0mg"},{"bike_id":"fd4ce9f4-b592-4cc5-acf9-1c794ff3f3cd","system_id":"levelo_inurba_marseille","lat":43.279388,"lon":5.410454,"is_reserved":false,"is_disabled":false,"rental_uris":{"android":"levelo://app?vid=fd4ce9f4-b592-4cc5-acf9-1c794ff3f3cd","ios":"levelo://app?vid=fd4ce9f4-b592-4cc5-acf9-1c794ff3f3cd"},"vehicle_type_id":"4","last_reported":1761952208,"current_range_meters":14000,"station_id":"ce4bhnp2rcd13ifvqh0g","pricing_plan_id":"cebpf4jnsgd1na2vs0mg"},{"bike_id":"8af50f59-99ab-4eb1-9462-3633f4920544","system_id":"levelo_inurba_marseille","lat":43.28416,"lon":5.37506,"is_reserved":false,"is_disabled":false,"rental_uris":{"android":"levelo://app?vid=8af50f59-99ab-4eb1-9462-3633f4920544","ios":"levelo://app?vid=8af50f59-99ab-4eb1-9462-3633f4920544"},"vehicle_type_id":"4","last_reported":1761952208,"current_range_meters":14000,"station_id":"ce4bh412rcd13ifvqds0","pricing_plan_id":"cebpf4jnsgd1na2vs0mg"},{"bike_id":"4b2ce2fc-5f7c-4682-afd1-1adea0fa8ae2","system_id":"levelo_inurba_marseille","lat":43.31077,"lon":5.38338,"is_reserved":false,"is_disabled":false,"rental_uris":{"android":"levelo://app?vid=4b2ce2fc-5f7c-4682-afd1-1adea0fa8ae2","ios":"levelo://app?vid=4b2ce2fc-5f7c-4682-afd1-1adea0fa8ae2"},"vehicle_type_id":"4","last_reported":1761952208,"current_range_meters":14000,"station_id":"ce4bgv92rcd13ifvqcr0","pricing_plan_id":"cebpf4jnsgd1na2vs0mg"},{"bike_id":"3e0ee96b-8fbf-40c7-b23e-bbfbbf69c224","system_id":"levelo_inurba_marseille","lat":43.28532,"lon":5.4409,"is_reserved":false,"is_disabled":false,"rental_uris":{"android":"levelo://app?vid=3e0ee96b-8fbf-40c7-b23e-bbfbbf69c224","ios":"levelo://app?vid=3e0ee96b-8fbf-40c7-b23e-bbfbbf69c224"},"vehicle_type_id":"4","last_reported":1761952208,"current_range_meters":14000,"station_id":"st_d3j3df2ikq2c7380ej80","pricing_plan_id":"cebpf4jnsgd1na2vs0mg"},{"bike_id":"f7875f71-f31e-4cd8-8bb6-696e589aa640","system_id":"levelo_inurba_marseille","lat":43.25545,"lon":5.376645,"is_reserved":false,"is_disabled":false,"rental_uris":{"android":"levelo://app?vid=f7875f71-f31e-4cd8-8bb6-696e589aa640","ios":"levelo://app?vid=f7875f71-f31e-4cd8-8bb6-696e589aa640"},"vehicle_type_id":"4","last_reported":1761952208,"current_range_meters":14000,"station_id":"ce4bgi12rcd13ifvqb70","pricing_plan_id":"cebpf4jnsgd1na2vs0mg"},{"bike_id":"b2ce8e73-e59b-4d30-b8e2-e59e2e1e3b22","system_id":"levelo_inurba_marseille","lat":43.33775,"lon":5.37482,"is_reserved":false,"is_disabled":false,"rental_uris":{"android":"levelo://app?vid=b2ce8e73-e59b-4d30-b8e2-e59e2e1e3b22","ios":"levelo://app?vid=b2ce8e73-e59b-4d30-b8e2-e59e2e1e3b22"},"vehicle_type_id":"4","last_reported":1761952208,"current_range_meters":14400,"station_id":"","pricing_plan_id":"cebpf4jnsgd1na2vs0mg"},{"bike_id":"94c918a0-928f-4f78-b027-257262dbcd9c","system_id":"levelo_inurba_marseille","lat":43.25492,"lon":5.37646,"is_reserved":false,"is_disabled":false,"rental_uris":{"android":"levelo://app?vid=94c918a0-928f-4f78-b027-257262dbcd9c","ios":"levelo://app?vid=94c918a0-928f-4f78-b027-257262dbcd9c"},"vehicle_type_id":"4","last_reported":1761952208,"current_range_meters":14400,"station_id":"ce4bhh12rcd13ifvqff0","pricing_plan_id":"cebpf4jnsgd1na2vs0mg"},{"bike_id":"b9539262-b1f1-4c7b-9c53-f2bfb0687a1c","system_id":"levelo_inurba_marseille","lat":43.25506,"lon":5.37649,"is_reserved":false,"is_disabled":false,"rental_uris":{"android":"levelo://app?vid=b9539262-b1f1-4c7b-9c53-f2bfb0687a1c","ios":"levelo://app?vid=b9539262-b1f1-4c7b-9c53-f2bfb0687a1c"},"vehicle_type_id":"4","last_reported":1761952208,"current_range_meters":14400,"station_id":"ce4bhh12rcd13ifvqff0","pricing_plan_id":"cebpf4jnsgd1na2vs0mg"},{"bike_id":"8d9efc2a-db1a-4723-8af2-02ab45edd0ec","system_id":"levelo_inurba_marseille","lat":43.28231,"lon":5.39066,"is_reserved":false,"is_disabled":false,"rental_uris":{"android":"levelo://app?vid=8d9efc2a-db1a-4723-8af2-02ab45edd0ec","ios":"levelo://app?vid=8d9efc2a-db1a-4723-8af2-02ab45edd0ec"},"vehicle_type_id":"4","last_reported":1761952208,"current_range_meters":14400,"station_id":"ce4bhn92rcd13ifvqgsg","pricing_plan_id":"cebpf4jnsgd1na2vs0mg"},{"bike_id":"675148fe-099e-4822-8776-58b414b0d79f","system_id":"levelo_inurba_marseille","lat":43.31178,"lon":5.38722,"is_reserved":false,"is_disabled":false,"rental_uris":{"android":"levelo://app?vid=675148fe-099e-4822-8776-58b414b0d79f","ios":"levelo://app?vid=675148fe-099e-4822-8776-58b414b0d79f"},"vehicle_type_id":"4","last_reported":1761952208,"current_range_meters":14400,"station_id":"ce4bgv12rcd13ifvqcp0","pricing_plan_id":"cebpf4jnsgd1na2vs0mg"},{"bike_id":"2bcd5ca5-3175-4358-b15a-0460870c3eeb","system_id":"levelo_inurba_marseille","lat":43.30241,"lon":5.40068,"is_reserved":false,"is_disabled":false,"rental_uris":{"android":"levelo://app?vid=2bcd5ca5-3175-4358-b15a-0460870c3eeb","ios":"levelo://app?vid=2bcd5ca5-3175-4358-b15a-0460870c3eeb"},"vehicle_type_id":"4","last_reported":1761952208,"current_range_meters":14400,"station_id":"ce4bgvh2rcd13ifvqcs0","pricing_plan_id":"cebpf4jnsgd1na2vs0mg"},{"bike_id":"b82f481c-17e5-4a3c-9f47-f1f7b37bbfaf","system_id":"levelo_inurba_marseille","lat":43.29261,"lon":5.38435,"is_reserved":false,"is_disabled":false,"rental_uris":{"android":"levelo://app?vid=b82f481c-17e5-4a3c-9f47-f1f7b37bbfaf","ios":"levelo://app?vid=b82f481c-17e5-4a3c-9f47-f1f7b37bbfaf"},"vehicle_type_id":"4","last_reported":1761952208,"current_range_meters":14400,"station_id":"ce4bh692rcd13ifvqea0","pricing_plan_id":"cebpf4jnsgd1na2vs0mg"},{"bike_id":"6e85c13b-dae4-4e6f-b00d-e8db3c1184f0","system_id":"levelo_inurba_marseille","lat":43.27217,"lon":5.39184,"is_reserved":false,"is_disabled":false,"rental_uris":{"android":"levelo://app?vid=6e85c13b-dae4-4e6f-b00d-e8db3c1184f0","ios":"levelo://app?vid=6e85c13b-dae4-4e6f-b00d-e8db3c1184f0"},"vehicle_type_id":"4","last_reported":1761952208,"current_range_meters":14800,"station_id":"ce4bhhp2rcd13ifvqfm0","pricing_plan_id":"cebpf4jnsgd1na2vs0mg"},{"bike_id":"b1e81361-2b17-4ef1-8a58-6def5753471b","system_id":"levelo_inurba_marseille","lat":43.33753,"lon":5.37484,"is_reserved":false,"is_disabled":false,"rental_uris":{"android":"levelo://app?vid=b1e81361-2b17-4ef1-8a58-6def5753471b","ios":"levelo://app?vid=b1e81361-2b17-4ef1-8a58-6def5753471b"},"vehicle_type_id":"4","last_reported":1761952208,"current_range_meters":14800,"station_id":"","pricing_plan_id":"cebpf4jnsgd1na2vs0mg"},{"bike_id":"cedcc2a6-5b10-44bb-bd7a-210e8dda107e","system_id":"levelo_inurba_marseille","lat":43.288147,"lon":5.391652,"is_reserved":false,"is_disabled":false,"rental_uris":{"android":"levelo://app?vid=cedcc2a6-5b10-44bb-bd7a-210e8dda107e","ios":"levelo://app?vid=cedcc2a6-5b10-44bb-bd7a-210e8dda107e"},"vehicle_type_id":"4","last_reported":1761952208,"current_range_meters":15200,"station_id":"","pricing_plan_id":"cebpf4jnsgd1na2vs0mg"},{"bike_id":"8e61a1b0-b51e-4808-89e8-bacdad2c9db4","system_id":"levelo_inurba_marseille","lat":43.27567,"lon":5.38427,"is_reserved":false,"is_disabled":false,"rental_uris":{"android":"levelo://app?vid=8e61a1b0-b51e-4808-89e8-bacdad2c9db4","ios":"levelo://app?vid=8e61a1b0-b51e-4808-89e8-bacdad2c9db4"},"vehicle_type_id":"4","last_reported":1761952208,"current_range_meters":15200,"station_id":"ce4bhh92rcd13ifvqfi0","pricing_plan_id":"cebpf4jnsgd1na2vs0mg"},{"bike_id":"bfc82e72-9c79-45c9-abc5-9f0f0b9628b2","system_id":"levelo_inurba_marseille","lat":43.27366,"lon":5.3624,"is_reserved":false,"is_disabled":false,"rental_uris":{"android":"levelo://app?vid=bfc82e72-9c79-45c9-abc5-9f0f0b9628b2","ios":"levelo://app?vid=bfc82e72-9c79-45c9-abc5-9f0f0b9628b2"},"vehicle_type_id":"4","last_reported":1761952208,"current_range_meters":15200,"station_id":"ce4bhbh2rcd13ifvqeo0","pricing_plan_id":"cebpf4jnsgd1na2vs0mg"},{"bike_id":"b8260940-1349-485d-9243-33fa537b4fce","system_id":"levelo_inurba_marseille","lat":43.27944,"lon":5.41046,"is_reserved":false,"is_disabled":false,"rental_uris":{"android":"levelo://app?vid=b8260940-1349-485d-9243-33fa537b4fce","ios":"levelo://app?vid=b8260940-1349-485d-9243-33fa537b4fce"},"vehicle_type_id":"4","last_reported":1761952208,"current_range_meters":15200,"station_id":"ce4bhnp2rcd13ifvqh0g","pricing_plan_id":"cebpf4jnsgd1na2vs0mg"},{"bike_id":"c43da4ca-4a27-413f-8de1-73fb68abccf6","system_id":"levelo_inurba_marseille","lat":43.28,"lon":5.40003,"is_reserved":false,"is_disabled":false,"rental_uris":{"android":"levelo://app?vid=c43da4ca-4a27-413f-8de1-73fb68abccf6","ios":"levelo://app?vid=c43da4ca-4a27-413f-8de1-73fb68abccf6"},"vehicle_type_id":"4","last_reported":1761952208,"current_range_meters":15200,"station_id":"ce4bho92rcd13ifvqh4g","pricing_plan_id":"cebpf4jnsgd1na2vs0mg"},{"bike_id":"fa52b98a-3e77-4132-ba69-7c45a193d403","system_id":"levelo_inurba_marseille","lat":43.28852,"lon":5.35861,"is_reserved":false,"is_disabled":false,"rental_uris":{"android":"levelo://app?vid=fa52b98a-3e77-4132-ba69-7c45a193d403","ios":"levelo://app?vid=fa52b98a-3e77-4132-ba69-7c45a193d403"},"vehicle_type_id":"4","last_reported":1761952208,"current_range_meters":15200,"station_id":"ce4bhb12rcd13ifvqem0","pricing_plan_id":"cebpf4jnsgd1na2vs0mg"},{"bike_id":"f13402d6-bcfe-43c6-9455-f54d46eee62e","system_id":"levelo_inurba_marseille","lat":43.30438,"lon":5.36732,"is_reserved":false,"is_disabled":false,"rental_uris":{"android":"levelo://app?vid=f13402d6-bcfe-43c6-9455-f54d46eee62e","ios":"levelo://app?vid=f13402d6-bcfe-43c6-9455-f54d46eee62e"},"vehicle_type_id":"4","last_reported":1761952208,"current_range_meters":15200,"station_id":"","pricing_plan_id":"cebpf4jnsgd1na2vs0mg"},{"bike_id":"6df5d1b3-a573-47f0-acd9-dcc1039518a8","system_id":"levelo_inurba_marseille","lat":43.27934,"lon":5.41055,"is_reserved":false,"is_disabled":false,"rental_uris":{"android":"levelo://app?vid=6df5d1b3-a573-47f0-acd9-dcc1039518a8","ios":"levelo://app?vid=6df5d1b3-a573-47f0-acd9-dcc1039518a8"},"vehicle_type_id":"4","last_reported":1761952208,"current_range_meters":15200,"station_id":"ce4bhnp2rcd13ifvqh0g","pricing_plan_id":"cebpf4jnsgd1na2vs0mg"},{"bike_id":"97d1ad7e-8f67-49ed-a615-7f17b033b756","system_id":"levelo_inurba_marseille","lat":43.25478,"lon":5.37627,"is_reserved":false,"is_disabled":false,"rental_uris":{"android":"levelo://app?vid=97d1ad7e-8f67-49ed-a615-7f17b033b756","ios":"levelo://app?vid=97d1ad7e-8f67-49ed-a615-7f17b033b756"},"vehicle_type_id":"4","last_reported":1761952208,"current_range_meters":16000,"station_id":"ce4bhh12rcd13ifvqff0","pricing_plan_id":"cebpf4jnsgd1na2vs0mg"},{"bike_id":"28c9d997-cca9-49dc-96d3-51265ef62041","system_id":"levelo_inurba_marseille","lat":43.29022,"lon":5.38631,"is_reserved":false,"is_disabled":false,"rental_uris":{"android":"levelo://app?vid=28c9d997-cca9-49dc-96d3-51265ef62041","ios":"levelo://app?vid=28c9d997-cca9-49dc-96d3-51265ef62041"},"vehicle_type_id":"4","last_reported":1761952208,"current_range_meters":16000,"station_id":"ce4bh4p2rcd13ifvqe0g","pricing_plan_id":"cebpf4jnsgd1na2vs0mg"},{"bike_id":"d611cc2e-fa16-4137-960b-362eb109def4","system_id":"levelo_inurba_marseille","lat":43.286638,"lon":5.363431,"is_reserved":false,"is_disabled":false,"rental_uris":{"android":"levelo://app?vid=d611cc2e-fa16-4137-960b-362eb109def4","ios":"levelo://app?vid=d611cc2e-fa16-4137-960b-362eb109def4"},"vehicle_type_id":"4","last_reported":1761952208,"current_range_meters":16000,"station_id":"ce4bhah2rcd13ifvqej0","pricing_plan_id":"cebpf4jnsgd1na2vs0mg"},{"bike_id":"e97bd841-a757-4f02-af2a-2c6920cfa105","system_id":"levelo_inurba_marseille","lat":43.28157,"lon":5.42642,"is_reserved":false,"is_disabled":false,"rental_uris":{"android":"levelo://app?vid=e97bd841-a757-4f02-af2a-2c6920cfa105","ios":"levelo://app?vid=e97bd841-a757-4f02-af2a-2c6920cfa105"},"vehicle_type_id":"4","last_reported":1761952208,"current_range_meters":16000,"station_id":"ce4bhnh2rcd13ifvqgug","pricing_plan_id":"cebpf4jnsgd1na2vs0mg"},{"bike_id":"472a1028-9e29-4e6f-b089-eae1dc72cf56","system_id":"levelo_inurba_marseille","lat":43.23067,"lon":5.35496,"is_reserved":false,"is_disabled":false,"rental_uris":{"android":"levelo://app?vid=472a1028-9e29-4e6f-b089-eae1dc72cf56","ios":"levelo://app?vid=472a1028-9e29-4e6f-b089-eae1dc72cf56"},"vehicle_type_id":"4","last_reported":1761952208,"current_range_meters":16000,"station_id":"cpo3342slgdg3j2ifvpg","pricing_plan_id":"cebpf4jnsgd1na2vs0mg"},{"bike_id":"eb02f1d7-6a87-4a9b-b883-8c3856f0895a","system_id":"levelo_inurba_marseille","lat":43.30415,"lon":5.36795,"is_reserved":false,"is_disabled":false,"rental_uris":{"android":"levelo://app?vid=eb02f1d7-6a87-4a9b-b883-8c3856f0895a","ios":"levelo://app?vid=eb02f1d7-6a87-4a9b-b883-8c3856f0895a"},"vehicle_type_id":"4","last_reported":1761952208,"current_range_meters":16000,"station_id":"","pricing_plan_id":"cebpf4jnsgd1na2vs0mg"},{"bike_id":"c2807477-fd8d-44ed-9bdc-b3f90f0cbde0","system_id":"levelo_inurba_marseille","lat":43.31872,"lon":5.3999,"is_reserved":false,"is_disabled":false,"rental_uris":{"android":"levelo://app?vid=c2807477-fd8d-44ed-9bdc-b3f90f0cbde0","ios":"levelo://app?vid=c2807477-fd8d-44ed-9bdc-b3f90f0cbde0"},"vehicle_type_id":"4","last_reported":1761952208,"current_range_meters":16000,"station_id":"","pricing_plan_id":"cebpf4jnsgd1na2vs0mg"},{"bike_id":"ec7c64f8-4e82-4d51-a8c3-f78f89ef54ff","system_id":"levelo_inurba_marseille","lat":43.24997,"lon":5.38932,"is_reserved":false,"is_disabled":false,"rental_uris":{"android":"levelo://app?vid=ec7c64f8-4e82-4d51-a8c3-f78f89ef54ff","ios":"levelo://app?vid=ec7c64f8-4e82-4d51-a8c3-f78f89ef54ff"},"vehicle_type_id":"4","last_reported":1761952208,"current_range_meters":16000,"station_id":"ce4bhgp2rcd13ifvqfd0","pricing_plan_id":"cebpf4jnsgd1na2vs0mg"},{"bike_id":"1154c99b-9abe-48ee-9c86-9f7f2588ac0a","system_id":"levelo_inurba_marseille","lat":43.29533,"lon":5.38536,"is_reserved":false,"is_disabled":false,"rental_uris":{"android":"levelo://app?vid=1154c99b-9abe-48ee-9c86-9f7f2588ac0a","ios":"levelo://app?vid=1154c99b-9abe-48ee-9c86-9f7f2588ac0a"},"vehicle_type_id":"4","last_reported":1761952208,"current_range_meters":16400,"station_id":"ce4bgih2rcd13ifvqba0","pricing_plan_id":"cebpf4jnsgd1na2vs0mg"},{"bike_id":"cd34d17f-3532-46cd-94d6-9f325351c996","system_id":"levelo_inurba_marseille","lat":43.26565,"lon":5.40324,"is_reserved":false,"is_disabled":false,"rental_uris":{"android":"levelo://app?vid=cd34d17f-3532-46cd-94d6-9f325351c996","ios":"levelo://app?vid=cd34d17f-3532-46cd-94d6-9f325351c996"},"vehicle_type_id":"4","last_reported":1761952208,"current_range_meters":16400,"station_id":"ce4bhmp2rcd13ifvqgng","pricing_plan_id":"cebpf4jnsgd1na2vs0mg"},{"bike_id":"51c02004-b7af-4fea-b0a6-0669e7b94d3c","system_id":"levelo_inurba_marseille","lat":43.336,"lon":5.41004,"is_reserved":false,"is_disabled":false,"rental_uris":{"android":"levelo://app?vid=51c02004-b7af-4fea-b0a6-0669e7b94d3c","ios":"levelo://app?vid=51c02004-b7af-4fea-b0a6-0669e7b94d3c"},"vehicle_type_id":"4","last_reported":1761952208,"current_range_meters":16400,"station_id":"ce4bhqh2rcd13ifvqhmg","pricing_plan_id":"cebpf4jnsgd1na2vs0mg"},{"bike_id":"e04f332d-b41c-47fd-b12f-6fdc7d63f429","system_id":"levelo_inurba_marseille","lat":43.30843,"lon":5.38294,"is_reserved":false,"is_disabled":false,"rental_uris":{"android":"levelo://app?vid=e04f332d-b41c-47fd-b12f-6fdc7d63f429","ios":"levelo://app?vid=e04f332d-b41c-47fd-b12f-6fdc7d63f429"},"vehicle_type_id":"4","last_reported":1761952208,"current_range_meters":16400,"station_id":"","pricing_plan_id":"cebpf4jnsgd1na2vs0mg"},{"bike_id":"ced8b747-e5ab-4e7a-b1f4-22a1ebc20f6f","system_id":"levelo_inurba_marseille","lat":43.30777,"lon":5.37653,"is_reserved":false,"is_disabled":true,"rental_uris":{"android":"levelo://app?vid=ced8b747-e5ab-4e7a-b1f4-22a1ebc20f6f","ios":"levelo://app?vid=ced8b747-e5ab-4e7a-b1f4-22a1ebc20f6f"},"vehicle_type_id":"4","last_reported":1761952208,"current_range_meters":16400,"station_id":"ce4bgv92rcd13ifvqcq0","pricing_plan_id":"cebpf4jnsgd1na2vs0mg"},{"bike_id":"ae3598c3-d5d8-4133-922b-9187802cb4d8","system_id":"levelo_inurba_marseille","lat":43.321104,"lon":5.367649,"is_reserved":false,"is_disabled":false,"rental_uris":{"android":"levelo://app?vid=ae3598c3-d5d8-4133-922b-9187802cb4d8","ios":"levelo://app?vid=ae3598c3-d5d8-4133-922b-9187802cb4d8"},"vehicle_type_id":"4","last_reported":1761952208,"current_range_meters":16400,"station_id":"ce4bhrh2rcd13ifvqhug","pricing_plan_id":"cebpf4jnsgd1na2vs0mg"},{"bike_id":"cdd112f3-6912-49dd-9e7f-dbb25c44d0bb","system_id":"levelo_inurba_marseille","lat":43.29758,"lon":5.42781,"is_reserved":false,"is_disabled":false,"rental_uris":{"android":"levelo://app?vid=cdd112f3-6912-49dd-9e7f-dbb25c44d0bb","ios":"levelo://app?vid=cdd112f3-6912-49dd-9e7f-dbb25c44d0bb"},"vehicle_type_id":"4","last_reported":1761952208,"current_range_meters":16800,"station_id":"st_d3md5207bmas73dh9klg","pricing_plan_id":"cebpf4jnsgd1na2vs0mg"},{"bike_id":"c7066394-68c9-496b-a4dd-a8339b8e9bd2","system_id":"levelo_inurba_marseille","lat":43.29016,"lon":5.38633,"is_reserved":false,"is_disabled":false,"rental_uris":{"android":"levelo://app?vid=c7066394-68c9-496b-a4dd-a8339b8e9bd2","ios":"levelo://app?vid=c7066394-68c9-496b-a4dd-a8339b8e9bd2"},"vehicle_type_id":"4","last_reported":1761952208,"current_range_meters":16800,"station_id":"ce4bh4p2rcd13ifvqe0g","pricing_plan_id":"cebpf4jnsgd1na2vs0mg"},{"bike_id":"68dfe5bf-96d8-40ed-a701-d1cafa21ceb7","system_id":"levelo_inurba_marseille","lat":43.3056,"lon":5.38939,"is_reserved":false,"is_disabled":false,"rental_uris":{"android":"levelo://app?vid=68dfe5bf-96d8-40ed-a701-d1cafa21ceb7","ios":"levelo://app?vid=68dfe5bf-96d8-40ed-a701-d1cafa21ceb7"},"vehicle_type_id":"4","last_reported":1761952208,"current_range_meters":16800,"station_id":"ce4bgk12rcd13ifvqbi0","pricing_plan_id":"cebpf4jnsgd1na2vs0mg"},{"bike_id":"6da830a8-111a-4fc5-a34c-ced64d9d2dc3","system_id":"levelo_inurba_marseille","lat":43.306,"lon":5.39362,"is_reserved":false,"is_disabled":true,"rental_uris":{"android":"levelo://app?vid=6da830a8-111a-4fc5-a34c-ced64d9d2dc3","ios":"levelo://app?vid=6da830a8-111a-4fc5-a34c-ced64d9d2dc3"},"vehicle_type_id":"4","last_reported":1761952208,"current_range_meters":16800,"station_id":"ce4bh0p2rcd13ifvqd80","pricing_plan_id":"cebpf4jnsgd1na2vs0mg"},{"bike_id":"c04ea6ec-c85d-4b9a-aa74-f0de2415a6d2","system_id":"levelo_inurba_marseille","lat":43.31541,"lon":5.38368,"is_reserved":false,"is_disabled":false,"rental_uris":{"android":"levelo://app?vid=c04ea6ec-c85d-4b9a-aa74-f0de2415a6d2","ios":"levelo://app?vid=c04ea6ec-c85d-4b9a-aa74-f0de2415a6d2"},"vehicle_type_id":"4","last_reported":1761952208,"current_range_meters":16800,"station_id":"","pricing_plan_id":"cebpf4jnsgd1na2vs0mg"},{"bike_id":"fbcc5886-69e3-488f-96fd-e45314a075e6","system_id":"levelo_inurba_marseille","lat":43.28857,"lon":5.42509,"is_reserved":false,"is_disabled":false,"rental_uris":{"android":"levelo://app?vid=fbcc5886-69e3-488f-96fd-e45314a075e6","ios":"levelo://app?vid=fbcc5886-69e3-488f-96fd-e45314a075e6"},"vehicle_type_id":"4","last_reported":1761952208,"current_range_meters":16800,"station_id":"st_d3b462108ojc7389ooeg","pricing_plan_id":"cebpf4jnsgd1na2vs0mg"},{"bike_id":"c76830e6-114f-45ff-84fb-e34e729d6ec7","system_id":"levelo_inurba_marseille","lat":43.250017,"lon":5.389262,"is_reserved":false,"is_disabled":false,"rental_uris":{"android":"levelo://app?vid=c76830e6-114f-45ff-84fb-e34e729d6ec7","ios":"levelo://app?vid=c76830e6-114f-45ff-84fb-e34e729d6ec7"},"vehicle_type_id":"4","last_reported":1761952208,"current_range_meters":16800,"station_id":"ce4bhgp2rcd13ifvqfd0","pricing_plan_id":"cebpf4jnsgd1na2vs0mg"},{"bike_id":"7a9e1e86-52dc-42e4-a53b-236a591ba00d","system_id":"levelo_inurba_marseille","lat":43.28802,"lon":5.36403,"is_reserved":false,"is_disabled":false,"rental_uris":{"android":"levelo://app?vid=7a9e1e86-52dc-42e4-a53b-236a591ba00d","ios":"levelo://app?vid=7a9e1e86-52dc-42e4-a53b-236a591ba00d"},"vehicle_type_id":"4","last_reported":1761952208,"current_range_meters":17200,"station_id":"","pricing_plan_id":"cebpf4jnsgd1na2vs0mg"},{"bike_id":"6f80f8fd-7496-4ff3-bb03-3764934848bd","system_id":"levelo_inurba_marseille","lat":43.27809,"lon":5.40712,"is_reserved":false,"is_disabled":false,"rental_uris":{"android":"levelo://app?vid=6f80f8fd-7496-4ff3-bb03-3764934848bd","ios":"levelo://app?vid=6f80f8fd-7496-4ff3-bb03-3764934848bd"},"vehicle_type_id":"4","last_reported":1761952208,"current_range_meters":17200,"station_id":"ce4bhnh2rcd13ifvqgtg","pricing_plan_id":"cebpf4jnsgd1na2vs0mg"},{"bike_id":"b5d155e9-fd81-4342-b256-9708b9ea7ded","system_id":"levelo_inurba_marseille","lat":43.31178,"lon":5.38725,"is_reserved":false,"is_disabled":false,"rental_uris":{"android":"levelo://app?vid=b5d155e9-fd81-4342-b256-9708b9ea7ded","ios":"levelo://app?vid=b5d155e9-fd81-4342-b256-9708b9ea7ded"},"vehicle_type_id":"4","last_reported":1761952208,"current_range_meters":17200,"station_id":"ce4bgv12rcd13ifvqcp0","pricing_plan_id":"cebpf4jnsgd1na2vs0mg"},{"bike_id":"3708e1d2-c0c2-45b9-9650-3c749e33056e","system_id":"levelo_inurba_marseille","lat":43.25081,"lon":5.39499,"is_reserved":false,"is_disabled":false,"rental_uris":{"android":"levelo://app?vid=3708e1d2-c0c2-45b9-9650-3c749e33056e","ios":"levelo://app?vid=3708e1d2-c0c2-45b9-9650-3c749e33056e"},"vehicle_type_id":"4","last_reported":1761952208,"current_range_meters":17200,"station_id":"ce4bhm12rcd13ifvqgkg","pricing_plan_id":"cebpf4jnsgd1na2vs0mg"},{"bike_id":"561ab8f4-c5ea-4cdd-9bb9-614d402551f8","system_id":"levelo_inurba_marseille","lat":43.28414,"lon":5.37516,"is_reserved":false,"is_disabled":false,"rental_uris":{"android":"levelo://app?vid=561ab8f4-c5ea-4cdd-9bb9-614d402551f8","ios":"levelo://app?vid=561ab8f4-c5ea-4cdd-9bb9-614d402551f8"},"vehicle_type_id":"4","last_reported":1761952208,"current_range_meters":17200,"station_id":"ce4bh412rcd13ifvqds0","pricing_plan_id":"cebpf4jnsgd1na2vs0mg"},{"bike_id":"4038460d-daa8-4775-baf8-68f1b7b83ef2","system_id":"levelo_inurba_marseille","lat":43.29042,"lon":5.39965,"is_reserved":false,"is_disabled":false,"rental_uris":{"android":"levelo://app?vid=4038460d-daa8-4775-baf8-68f1b7b83ef2","ios":"levelo://app?vid=4038460d-daa8-4775-baf8-68f1b7b83ef2"},"vehicle_type_id":"4","last_reported":1761952208,"current_range_meters":17200,"station_id":"ce4bh392rcd13ifvqdm0","pricing_plan_id":"cebpf4jnsgd1na2vs0mg"},{"bike_id":"0b951a33-8ea4-4d55-9b90-e84b0ed21ff0","system_id":"levelo_inurba_marseille","lat":43.29244,"lon":5.38428,"is_reserved":false,"is_disabled":true,"rental_uris":{"android":"levelo://app?vid=0b951a33-8ea4-4d55-9b90-e84b0ed21ff0","ios":"levelo://app?vid=0b951a33-8ea4-4d55-9b90-e84b0ed21ff0"},"vehicle_type_id":"4","last_reported":1761952208,"current_range_meters":17600,"station_id":"ce4bh692rcd13ifvqea0","pricing_plan_id":"cebpf4jnsgd1na2vs0mg"},{"bike_id":"f4589041-f9a1-491a-8fcf-31939b20fa5a","system_id":"levelo_inurba_marseille","lat":43.27209,"lon":5.39179,"is_reserved":false,"is_disabled":false,"rental_uris":{"android":"levelo://app?vid=f4589041-f9a1-491a-8fcf-31939b20fa5a","ios":"levelo://app?vid=f4589041-f9a1-491a-8fcf-31939b20fa5a"},"vehicle_type_id":"4","last_reported":1761952208,"current_range_meters":17600,"station_id":"ce4bhhp2rcd13ifvqfm0","pricing_plan_id":"cebpf4jnsgd1na2vs0mg"},{"bike_id":"c3de4193-b30f-4c53-a743-4e3a738e9dde","system_id":"levelo_inurba_marseille","lat":43.26712,"lon":5.38257,"is_reserved":false,"is_disabled":false,"rental_uris":{"android":"levelo://app?vid=c3de4193-b30f-4c53-a743-4e3a738e9dde","ios":"levelo://app?vid=c3de4193-b30f-4c53-a743-4e3a738e9dde"},"vehicle_type_id":"4","last_reported":1761952208,"current_range_meters":17600,"station_id":"ce4bhg92rcd13ifvqf90","pricing_plan_id":"cebpf4jnsgd1na2vs0mg"},{"bike_id":"0c3bfe72-1bfa-4fe4-8ec1-abc531b0b6c5","system_id":"levelo_inurba_marseille","lat":43.26559,"lon":5.3728,"is_reserved":false,"is_disabled":true,"rental_uris":{"android":"levelo://app?vid=0c3bfe72-1bfa-4fe4-8ec1-abc531b0b6c5","ios":"levelo://app?vid=0c3bfe72-1bfa-4fe4-8ec1-abc531b0b6c5"},"vehicle_type_id":"4","last_reported":1761952208,"current_range_meters":17600,"station_id":"ce4bhg12rcd13ifvqf70","pricing_plan_id":"cebpf4jnsgd1na2vs0mg"},{"bike_id":"252ff558-e70b-4ae0-9044-acc668b445bb","system_id":"levelo_inurba_marseille","lat":43.21181,"lon":5.35082,"is_reserved":false,"is_disabled":false,"rental_uris":{"android":"levelo://app?vid=252ff558-e70b-4ae0-9044-acc668b445bb","ios":"levelo://app?vid=252ff558-e70b-4ae0-9044-acc668b445bb"},"vehicle_type_id":"4","last_reported":1761952208,"current_range_meters":17600,"station_id":"st_cvj6sg6p6f1abm77japg","pricing_plan_id":"cebpf4jnsgd1na2vs0mg"},{"bike_id":"f9a376bb-e16d-419c-884a-492ffebe4f2f","system_id":"levelo_inurba_marseille","lat":43.2534,"lon":5.42178,"is_reserved":false,"is_disabled":false,"rental_uris":{"android":"levelo://app?vid=f9a376bb-e16d-419c-884a-492ffebe4f2f","ios":"levelo://app?vid=f9a376bb-e16d-419c-884a-492ffebe4f2f"},"vehicle_type_id":"4","last_reported":1761952208,"current_range_meters":17600,"station_id":"st_d2m65c5bi1j21697t3ng","pricing_plan_id":"cebpf4jnsgd1na2vs0mg"},{"bike_id":"7a40df5c-50cc-4a80-bd27-e690d1783ee8","system_id":"levelo_inurba_marseille","lat":43.32112,"lon":5.36777,"is_reserved":false,"is_disabled":false,"rental_uris":{"android":"levelo://app?vid=7a40df5c-50cc-4a80-bd27-e690d1783ee8","ios":"levelo://app?vid=7a40df5c-50cc-4a80-bd27-e690d1783ee8"},"vehicle_type_id":"4","last_reported":1761952208,"current_range_meters":17600,"station_id":"ce4bhrh2rcd13ifvqhug","pricing_plan_id":"cebpf4jnsgd1na2vs0mg"},{"bike_id":"d452d34c-d4bc-48b1-a676-b04c892b33ad","system_id":"levelo_inurba_marseille","lat":43.2954,"lon":5.38539,"is_reserved":false,"is_disabled":false,"rental_uris":{"android":"levelo://app?vid=d452d34c-d4bc-48b1-a676-b04c892b33ad","ios":"levelo://app?vid=d452d34c-d4bc-48b1-a676-b04c892b33ad"},"vehicle_type_id":"4","last_reported":1761952208,"current_range_meters":17600,"station_id":"ce4bgih2rcd13ifvqba0","pricing_plan_id":"cebpf4jnsgd1na2vs0mg"},{"bike_id":"bfd47976-4b12-4a3a-abee-96cc29a7d071","system_id":"levelo_inurba_marseille","lat":43.29455,"lon":5.43309,"is_reserved":false,"is_disabled":false,"rental_uris":{"android":"levelo://app?vid=bfd47976-4b12-4a3a-abee-96cc29a7d071","ios":"levelo://app?vid=bfd47976-4b12-4a3a-abee-96cc29a7d071"},"vehicle_type_id":"4","last_reported":1761952208,"current_range_meters":18000,"station_id":"st_d3j5ugp08ojc73fj9d10","pricing_plan_id":"cebpf4jnsgd1na2vs0mg"},{"bike_id":"e3fb49f5-399b-4d6f-8db8-5b0bff4d385f","system_id":"levelo_inurba_marseille","lat":43.33774,"lon":5.37422,"is_reserved":false,"is_disabled":false,"rental_uris":{"android":"levelo://app?vid=e3fb49f5-399b-4d6f-8db8-5b0bff4d385f","ios":"levelo://app?vid=e3fb49f5-399b-4d6f-8db8-5b0bff4d385f"},"vehicle_type_id":"4","last_reported":1761952208,"current_range_meters":18000,"station_id":"ce4bh612rcd13ifvqe6g","pricing_plan_id":"cebpf4jnsgd1na2vs0mg"},{"bike_id":"f8840158-3c1d-490b-81e4-a560dcb65e09","system_id":"levelo_inurba_marseille","lat":43.24674,"lon":5.38171,"is_reserved":false,"is_disabled":false,"rental_uris":{"android":"levelo://app?vid=f8840158-3c1d-490b-81e4-a560dcb65e09","ios":"levelo://app?vid=f8840158-3c1d-490b-81e4-a560dcb65e09"},"vehicle_type_id":"4","last_reported":1761952208,"current_range_meters":18000,"station_id":"ce4bhih2rcd13ifvqfr0","pricing_plan_id":"cebpf4jnsgd1na2vs0mg"},{"bike_id":"0089665c-d050-4f0d-8d27-e9a6af9208fc","system_id":"levelo_inurba_marseille","lat":43.3019,"lon":5.38076,"is_reserved":false,"is_disabled":false,"rental_uris":{"android":"levelo://app?vid=0089665c-d050-4f0d-8d27-e9a6af9208fc","ios":"levelo://app?vid=0089665c-d050-4f0d-8d27-e9a6af9208fc"},"vehicle_type_id":"4","last_reported":1761952208,"current_range_meters":18000,"station_id":"","pricing_plan_id":"cebpf4jnsgd1na2vs0mg"},{"bike_id":"ce9e01d9-8460-4f66-9227-c5e036b7af2a","system_id":"levelo_inurba_marseille","lat":43.24671,"lon":5.38166,"is_reserved":false,"is_disabled":false,"rental_uris":{"android":"levelo://app?vid=ce9e01d9-8460-4f66-9227-c5e036b7af2a","ios":"levelo://app?vid=ce9e01d9-8460-4f66-9227-c5e036b7af2a"},"vehicle_type_id":"4","last_reported":1761952208,"current_range_meters":18000,"station_id":"ce4bhih2rcd13ifvqfr0","pricing_plan_id":"cebpf4jnsgd1na2vs0mg"},{"bike_id":"073cea40-86e7-4c96-a7c3-2239c8214c9c","system_id":"levelo_inurba_marseille","lat":43.30426,"lon":5.36764,"is_reserved":false,"is_disabled":false,"rental_uris":{"android":"levelo://app?vid=073cea40-86e7-4c96-a7c3-2239c8214c9c","ios":"levelo://app?vid=073cea40-86e7-4c96-a7c3-2239c8214c9c"},"vehicle_type_id":"4","last_reported":1761952208,"current_range_meters":18000,"station_id":"","pricing_plan_id":"cebpf4jnsgd1na2vs0mg"},{"bike_id":"f4c38a56-4a35-49a9-bdea-5d14ae1ba768","system_id":"levelo_inurba_marseille","lat":43.29755,"lon":5.4279,"is_reserved":false,"is_disabled":false,"rental_uris":{"android":"levelo://app?vid=f4c38a56-4a35-49a9-bdea-5d14ae1ba768","ios":"levelo://app?vid=f4c38a56-4a35-49a9-bdea-5d14ae1ba768"},"vehicle_type_id":"4","last_reported":1761952208,"current_range_meters":18800,"station_id":"st_d3md5207bmas73dh9klg","pricing_plan_id":"cebpf4jnsgd1na2vs0mg"},{"bike_id":"94084d75-b1ec-4cf5-8736-b1d0c7eed7ce","system_id":"levelo_inurba_marseille","lat":43.33024,"lon":5.39041,"is_reserved":false,"is_disabled":false,"rental_uris":{"android":"levelo://app?vid=94084d75-b1ec-4cf5-8736-b1d0c7eed7ce","ios":"levelo://app?vid=94084d75-b1ec-4cf5-8736-b1d0c7eed7ce"},"vehicle_type_id":"4","last_reported":1761952208,"current_range_meters":18800,"station_id":"ce4bhr92rcd13ifvqhrg","pricing_plan_id":"cebpf4jnsgd1na2vs0mg"},{"bike_id":"32632625-b281-4348-990f-071d78c42b84","system_id":"levelo_inurba_marseille","lat":43.26569,"lon":5.39014,"is_reserved":false,"is_disabled":false,"rental_uris":{"android":"levelo://app?vid=32632625-b281-4348-990f-071d78c42b84","ios":"levelo://app?vid=32632625-b281-4348-990f-071d78c42b84"},"vehicle_type_id":"4","last_reported":1761952208,"current_range_meters":18800,"station_id":"","pricing_plan_id":"cebpf4jnsgd1na2vs0mg"},{"bike_id":"e3ef3d09-361a-4912-8cea-2a659dc7108c","system_id":"levelo_inurba_marseille","lat":43.29272,"lon":5.38443,"is_reserved":false,"is_disabled":false,"rental_uris":{"android":"levelo://app?vid=e3ef3d09-361a-4912-8cea-2a659dc7108c","ios":"levelo://app?vid=e3ef3d09-361a-4912-8cea-2a659dc7108c"},"vehicle_type_id":"4","last_reported":1761952208,"current_range_meters":18800,"station_id":"ce4bh692rcd13ifvqea0","pricing_plan_id":"cebpf4jnsgd1na2vs0mg"},{"bike_id":"1890bbeb-77ac-41df-a454-721e3ae1b52c","system_id":"levelo_inurba_marseille","lat":43.31372,"lon":5.38491,"is_reserved":false,"is_disabled":false,"rental_uris":{"android":"levelo://app?vid=1890bbeb-77ac-41df-a454-721e3ae1b52c","ios":"levelo://app?vid=1890bbeb-77ac-41df-a454-721e3ae1b52c"},"vehicle_type_id":"4","last_reported":1761952208,"current_range_meters":18800,"station_id":"ce4bgt92rcd13ifvqcf0","pricing_plan_id":"cebpf4jnsgd1na2vs0mg"},{"bike_id":"41598790-345d-414f-9e87-720cb432f278","system_id":"levelo_inurba_marseille","lat":43.29477,"lon":5.36227,"is_reserved":false,"is_disabled":false,"rental_uris":{"android":"levelo://app?vid=41598790-345d-414f-9e87-720cb432f278","ios":"levelo://app?vid=41598790-345d-414f-9e87-720cb432f278"},"vehicle_type_id":"4","last_reported":1761952208,"current_range_meters":18800,"station_id":"","pricing_plan_id":"cebpf4jnsgd1na2vs0mg"},{"bike_id":"79d8b3b6-c5b5-4c63-a70d-f2f0f7ebf257","system_id":"levelo_inurba_marseille","lat":43.302703,"lon":5.402511,"is_reserved":false,"is_disabled":false,"rental_uris":{"android":"levelo://app?vid=79d8b3b6-c5b5-4c63-a70d-f2f0f7ebf257","ios":"levelo://app?vid=79d8b3b6-c5b5-4c63-a70d-f2f0f7ebf257"},"vehicle_type_id":"4","last_reported":1761952208,"current_range_meters":18800,"station_id":"ce4bh012rcd13ifvqd10","pricing_plan_id":"cebpf4jnsgd1na2vs0mg"},{"bike_id":"9ee030a8-2096-47dc-9a00-9b0afd75e3d0","system_id":"levelo_inurba_marseille","lat":43.32669,"lon":5.41005,"is_reserved":false,"is_disabled":false,"rental_uris":{"android":"levelo://app?vid=9ee030a8-2096-47dc-9a00-9b0afd75e3d0","ios":"levelo://app?vid=9ee030a8-2096-47dc-9a00-9b0afd75e3d0"},"vehicle_type_id":"4","last_reported":1761952208,"current_range_meters":18800,"station_id":"ce4bhpp2rcd13ifvqhgg","pricing_plan_id":"cebpf4jnsgd1na2vs0mg"},{"bike_id":"50c2c89c-4a9b-41f6-af05-b4e430e07029","system_id":"levelo_inurba_marseille","lat":43.24641,"lon":5.43135,"is_reserved":false,"is_disabled":false,"rental_uris":{"android":"levelo://app?vid=50c2c89c-4a9b-41f6-af05-b4e430e07029","ios":"levelo://app?vid=50c2c89c-4a9b-41f6-af05-b4e430e07029"},"vehicle_type_id":"4","last_reported":1761952208,"current_range_meters":18800,"station_id":"st_d2m6c4gdas8pm72e190g","pricing_plan_id":"cebpf4jnsgd1na2vs0mg"},{"bike_id":"cc0d6697-bf7c-4001-828f-c5cf42c80c59","system_id":"levelo_inurba_marseille","lat":43.21212,"lon":5.35031,"is_reserved":false,"is_disabled":false,"rental_uris":{"android":"levelo://app?vid=cc0d6697-bf7c-4001-828f-c5cf42c80c59","ios":"levelo://app?vid=cc0d6697-bf7c-4001-828f-c5cf42c80c59"},"vehicle_type_id":"4","last_reported":1761952208,"current_range_meters":18800,"station_id":"","pricing_plan_id":"cebpf4jnsgd1na2vs0mg"},{"bike_id":"52b04612-cd38-411f-a68e-6bb9cb24a90a","system_id":"levelo_inurba_marseille","lat":43.24177,"lon":5.3639,"is_reserved":false,"is_disabled":false,"rental_uris":{"android":"levelo://app?vid=52b04612-cd38-411f-a68e-6bb9cb24a90a","ios":"levelo://app?vid=52b04612-cd38-411f-a68e-6bb9cb24a90a"},"vehicle_type_id":"4","last_reported":1761952208,"current_range_meters":19200,"station_id":"cpo36qri1sfpv3e86is0","pricing_plan_id":"cebpf4jnsgd1na2vs0mg"},{"bike_id":"a5cb859b-d1f6-4546-b44d-58f2af5faab8","system_id":"levelo_inurba_marseille","lat":43.30166,"lon":5.38108,"is_reserved":false,"is_disabled":true,"rental_uris":{"android":"levelo://app?vid=a5cb859b-d1f6-4546-b44d-58f2af5faab8","ios":"levelo://app?vid=a5cb859b-d1f6-4546-b44d-58f2af5faab8"},"vehicle_type_id":"4","last_reported":1761952208,"current_range_meters":19200,"station_id":"ce4bgjp2rcd13ifvqbh0","pricing_plan_id":"cebpf4jnsgd1na2vs0mg"},{"bike_id":"ab970699-388e-42be-adbb-ca8b6cb83043","system_id":"levelo_inurba_marseille","lat":43.2737,"lon":5.36263,"is_reserved":false,"is_disabled":false,"rental_uris":{"android":"levelo://app?vid=ab970699-388e-42be-adbb-ca8b6cb83043","ios":"levelo://app?vid=ab970699-388e-42be-adbb-ca8b6cb83043"},"vehicle_type_id":"4","last_reported":1761952208,"current_range_meters":19200,"station_id":"ce4bhbh2rcd13ifvqeo0","pricing_plan_id":"cebpf4jnsgd1na2vs0mg"},{"bike_id":"b4a09c0d-7b1e-4054-98f9-e5bf1a00e19e","system_id":"levelo_inurba_marseille","lat":43.30498,"lon":5.36612,"is_reserved":false,"is_disabled":false,"rental_uris":{"android":"levelo://app?vid=b4a09c0d-7b1e-4054-98f9-e5bf1a00e19e","ios":"levelo://app?vid=b4a09c0d-7b1e-4054-98f9-e5bf1a00e19e"},"vehicle_type_id":"4","last_reported":1761952208,"current_range_meters":19200,"station_id":"","pricing_plan_id":"cebpf4jnsgd1na2vs0mg"},{"bike_id":"6a9c5843-8d5b-4406-a4e5-3da020ba8416","system_id":"levelo_inurba_marseille","lat":43.30797,"lon":5.3814,"is_reserved":false,"is_disabled":false,"rental_uris":{"android":"levelo://app?vid=6a9c5843-8d5b-4406-a4e5-3da020ba8416","ios":"levelo://app?vid=6a9c5843-8d5b-4406-a4e5-3da020ba8416"},"vehicle_type_id":"4","last_reported":1761952208,"current_range_meters":19200,"station_id":"ce4bgt12rcd13ifvqce0","pricing_plan_id":"cebpf4jnsgd1na2vs0mg"},{"bike_id":"7c19b7e9-393b-4fa2-b057-4dd7dff08f6d","system_id":"levelo_inurba_marseille","lat":43.21171,"lon":5.35114,"is_reserved":false,"is_disabled":false,"rental_uris":{"android":"levelo://app?vid=7c19b7e9-393b-4fa2-b057-4dd7dff08f6d","ios":"levelo://app?vid=7c19b7e9-393b-4fa2-b057-4dd7dff08f6d"},"vehicle_type_id":"4","last_reported":1761952208,"current_range_meters":19200,"station_id":"st_cvj6sg6p6f1abm77japg","pricing_plan_id":"cebpf4jnsgd1na2vs0mg"},{"bike_id":"1d29646a-da1f-4f66-b008-0838ffb2fa84","system_id":"levelo_inurba_marseille","lat":43.30009,"lon":5.3722,"is_reserved":false,"is_disabled":false,"rental_uris":{"android":"levelo://app?vid=1d29646a-da1f-4f66-b008-0838ffb2fa84","ios":"levelo://app?vid=1d29646a-da1f-4f66-b008-0838ffb2fa84"},"vehicle_type_id":"4","last_reported":1761952208,"current_range_meters":19200,"station_id":"","pricing_plan_id":"cebpf4jnsgd1na2vs0mg"},{"bike_id":"23a3e0bb-dabb-4740-a641-7db3be8a8c83","system_id":"levelo_inurba_marseille","lat":43.25513,"lon":5.37647,"is_reserved":false,"is_disabled":false,"rental_uris":{"android":"levelo://app?vid=23a3e0bb-dabb-4740-a641-7db3be8a8c83","ios":"levelo://app?vid=23a3e0bb-dabb-4740-a641-7db3be8a8c83"},"vehicle_type_id":"4","last_reported":1761952208,"current_range_meters":19600,"station_id":"ce4bhh12rcd13ifvqff0","pricing_plan_id":"cebpf4jnsgd1na2vs0mg"},{"bike_id":"1510912d-5500-4029-8c52-09b2dbc632be","system_id":"levelo_inurba_marseille","lat":43.29444,"lon":5.40129,"is_reserved":false,"is_disabled":true,"rental_uris":{"android":"levelo://app?vid=1510912d-5500-4029-8c52-09b2dbc632be","ios":"levelo://app?vid=1510912d-5500-4029-8c52-09b2dbc632be"},"vehicle_type_id":"4","last_reported":1761952208,"current_range_meters":19600,"station_id":"","pricing_plan_id":"cebpf4jnsgd1na2vs0mg"},{"bike_id":"e0de6d7b-607c-464b-b377-7df5f2e43785","system_id":"levelo_inurba_marseille","lat":43.24699,"lon":5.39284,"is_reserved":false,"is_disabled":false,"rental_uris":{"android":"levelo://app?vid=e0de6d7b-607c-464b-b377-7df5f2e43785","ios":"levelo://app?vid=e0de6d7b-607c-464b-b377-7df5f2e43785"},"vehicle_type_id":"4","last_reported":1761952208,"current_range_meters":19600,"station_id":"","pricing_plan_id":"cebpf4jnsgd1na2vs0mg"},{"bike_id":"1d337185-ebd0-4ef3-bc77-95fec0dd2985","system_id":"levelo_inurba_marseille","lat":43.28933,"lon":5.36406,"is_reserved":false,"is_disabled":false,"rental_uris":{"android":"levelo://app?vid=1d337185-ebd0-4ef3-bc77-95fec0dd2985","ios":"levelo://app?vid=1d337185-ebd0-4ef3-bc77-95fec0dd2985"},"vehicle_type_id":"4","last_reported":1761952208,"current_range_meters":19600,"station_id":"ce4bhc92rcd13ifvqetg","pricing_plan_id":"cebpf4jnsgd1na2vs0mg"},{"bike_id":"ca1c6f85-d443-4313-a831-599c357916ba","system_id":"levelo_inurba_marseille","lat":43.323567,"lon":5.36758,"is_reserved":false,"is_disabled":false,"rental_uris":{"android":"levelo://app?vid=ca1c6f85-d443-4313-a831-599c357916ba","ios":"levelo://app?vid=ca1c6f85-d443-4313-a831-599c357916ba"},"vehicle_type_id":"4","last_reported":1761952208,"current_range_meters":19600,"station_id":"","pricing_plan_id":"cebpf4jnsgd1na2vs0mg"},{"bike_id":"7776d34e-6db1-4a95-b64a-dfa1faf6c280","system_id":"levelo_inurba_marseille","lat":43.30202,"lon":5.36981,"is_reserved":false,"is_disabled":false,"rental_uris":{"android":"levelo://app?vid=7776d34e-6db1-4a95-b64a-dfa1faf6c280","ios":"levelo://app?vid=7776d34e-6db1-4a95-b64a-dfa1faf6c280"},"vehicle_type_id":"4","last_reported":1761952208,"current_range_meters":19600,"station_id":"","pricing_plan_id":"cebpf4jnsgd1na2vs0mg"},{"bike_id":"578a57cc-dd8f-4b86-9eea-c52481c8e90f","system_id":"levelo_inurba_marseille","lat":43.21205,"lon":5.35096,"is_reserved":false,"is_disabled":false,"rental_uris":{"android":"levelo://app?vid=578a57cc-dd8f-4b86-9eea-c52481c8e90f","ios":"levelo://app?vid=578a57cc-dd8f-4b86-9eea-c52481c8e90f"},"vehicle_type_id":"4","last_reported":1761952208,"current_range_meters":19600,"station_id":"st_cvj6sg6p6f1abm77japg","pricing_plan_id":"cebpf4jnsgd1na2vs0mg"},{"bike_id":"c311d06a-36a2-4cf8-97af-3971cfd0603c","system_id":"levelo_inurba_marseille","lat":43.2784,"lon":5.39557,"is_reserved":false,"is_disabled":false,"rental_uris":{"android":"levelo://app?vid=c311d06a-36a2-4cf8-97af-3971cfd0603c","ios":"levelo://app?vid=c311d06a-36a2-4cf8-97af-3971cfd0603c"},"vehicle_type_id":"4","last_reported":1761952208,"current_range_meters":19600,"station_id":"","pricing_plan_id":"cebpf4jnsgd1na2vs0mg"},{"bike_id":"ad47e8a7-19ac-4368-818a-a9786b9ed0dd","system_id":"levelo_inurba_marseille","lat":43.27508,"lon":5.42458,"is_reserved":false,"is_disabled":false,"rental_uris":{"android":"levelo://app?vid=ad47e8a7-19ac-4368-818a-a9786b9ed0dd","ios":"levelo://app?vid=ad47e8a7-19ac-4368-818a-a9786b9ed0dd"},"vehicle_type_id":"4","last_reported":1761952208,"current_range_meters":19600,"station_id":"ce4bhn92rcd13ifvqgrg","pricing_plan_id":"cebpf4jnsgd1na2vs0mg"},{"bike_id":"a73a24c3-2218-4652-a302-2ad81b7034ad","system_id":"levelo_inurba_marseille","lat":43.31832,"lon":5.38779,"is_reserved":false,"is_disabled":false,"rental_uris":{"android":"levelo://app?vid=a73a24c3-2218-4652-a302-2ad81b7034ad","ios":"levelo://app?vid=a73a24c3-2218-4652-a302-2ad81b7034ad"},"vehicle_type_id":"4","last_reported":1761952208,"current_range_meters":19600,"station_id":"","pricing_plan_id":"cebpf4jnsgd1na2vs0mg"},{"bike_id":"d58685c4-2f93-4838-8db2-61dd6f706e79","system_id":"levelo_inurba_marseille","lat":43.30773,"lon":5.37649,"is_reserved":false,"is_disabled":false,"rental_uris":{"android":"levelo://app?vid=d58685c4-2f93-4838-8db2-61dd6f706e79","ios":"levelo://app?vid=d58685c4-2f93-4838-8db2-61dd6f706e79"},"vehicle_type_id":"4","last_reported":1761952208,"current_range_meters":19600,"station_id":"ce4bgv92rcd13ifvqcq0","pricing_plan_id":"cebpf4jnsgd1na2vs0mg"},{"bike_id":"ba541a52-7e4e-4241-9791-ae6f1fb03dcd","system_id":"levelo_inurba_marseille","lat":43.31989,"lon":5.41594,"is_reserved":false,"is_disabled":false,"rental_uris":{"android":"levelo://app?vid=ba541a52-7e4e-4241-9791-ae6f1fb03dcd","ios":"levelo://app?vid=ba541a52-7e4e-4241-9791-ae6f1fb03dcd"},"vehicle_type_id":"4","last_reported":1761952208,"current_range_meters":19600,"station_id":"","pricing_plan_id":"cebpf4jnsgd1na2vs0mg"},{"bike_id":"c7d57f9b-8ba9-4435-ac3b-54d333c0b4c7","system_id":"levelo_inurba_marseille","lat":43.32351,"lon":5.36733,"is_reserved":false,"is_disabled":false,"rental_uris":{"android":"levelo://app?vid=c7d57f9b-8ba9-4435-ac3b-54d333c0b4c7","ios":"levelo://app?vid=c7d57f9b-8ba9-4435-ac3b-54d333c0b4c7"},"vehicle_type_id":"4","last_reported":1761952208,"current_range_meters":20000,"station_id":"ce4bhsh2rcd13ifvqi2g","pricing_plan_id":"cebpf4jnsgd1na2vs0mg"},{"bike_id":"565cc599-e2e4-4d0e-aef3-effc6ee3ffe7","system_id":"levelo_inurba_marseille","lat":43.27927,"lon":5.41036,"is_reserved":false,"is_disabled":false,"rental_uris":{"android":"levelo://app?vid=565cc599-e2e4-4d0e-aef3-effc6ee3ffe7","ios":"levelo://app?vid=565cc599-e2e4-4d0e-aef3-effc6ee3ffe7"},"vehicle_type_id":"4","last_reported":1761952208,"current_range_meters":20000,"station_id":"ce4bhnp2rcd13ifvqh0g","pricing_plan_id":"cebpf4jnsgd1na2vs0mg"},{"bike_id":"3e72ad9b-1df3-453b-a71b-774c46542379","system_id":"levelo_inurba_marseille","lat":43.23187,"lon":5.39966,"is_reserved":false,"is_disabled":false,"rental_uris":{"android":"levelo://app?vid=3e72ad9b-1df3-453b-a71b-774c46542379","ios":"levelo://app?vid=3e72ad9b-1df3-453b-a71b-774c46542379"},"vehicle_type_id":"4","last_reported":1761952208,"current_range_meters":20000,"station_id":"ce4bhn12rcd13ifvqgqg","pricing_plan_id":"cebpf4jnsgd1na2vs0mg"},{"bike_id":"5f6c0a8d-e2ad-48fd-b50a-a8d4b3fee249","system_id":"levelo_inurba_marseille","lat":43.3137,"lon":5.39714,"is_reserved":false,"is_disabled":false,"rental_uris":{"android":"levelo://app?vid=5f6c0a8d-e2ad-48fd-b50a-a8d4b3fee249","ios":"levelo://app?vid=5f6c0a8d-e2ad-48fd-b50a-a8d4b3fee249"},"vehicle_type_id":"4","last_reported":1761952208,"current_range_meters":20000,"station_id":"","pricing_plan_id":"cebpf4jnsgd1na2vs0mg"},{"bike_id":"43e39b34-0d45-4809-ba82-b8a88ed669c9","system_id":"levelo_inurba_marseille","lat":43.299737,"lon":5.371836,"is_reserved":false,"is_disabled":false,"rental_uris":{"android":"levelo://app?vid=43e39b34-0d45-4809-ba82-b8a88ed669c9","ios":"levelo://app?vid=43e39b34-0d45-4809-ba82-b8a88ed669c9"},"vehicle_type_id":"4","last_reported":1761952208,"current_range_meters":20000,"station_id":"ce4bgr92rcd13ifvqc7g","pricing_plan_id":"cebpf4jnsgd1na2vs0mg"},{"bike_id":"6ed35159-3be2-4bda-bd2a-442bc863eea1","system_id":"levelo_inurba_marseille","lat":43.24166,"lon":5.39734,"is_reserved":false,"is_disabled":false,"rental_uris":{"android":"levelo://app?vid=6ed35159-3be2-4bda-bd2a-442bc863eea1","ios":"levelo://app?vid=6ed35159-3be2-4bda-bd2a-442bc863eea1"},"vehicle_type_id":"4","last_reported":1761952208,"current_range_meters":20000,"station_id":"ce4bhn12rcd13ifvqgpg","pricing_plan_id":"cebpf4jnsgd1na2vs0mg"},{"bike_id":"a37c4baf-d413-4495-b904-664f6d824310","system_id":"levelo_inurba_marseille","lat":43.31173,"lon":5.38708,"is_reserved":false,"is_disabled":false,"rental_uris":{"android":"levelo://app?vid=a37c4baf-d413-4495-b904-664f6d824310","ios":"levelo://app?vid=a37c4baf-d413-4495-b904-664f6d824310"},"vehicle_type_id":"4","last_reported":1761952208,"current_range_meters":20000,"station_id":"ce4bgv12rcd13ifvqcp0","pricing_plan_id":"cebpf4jnsgd1na2vs0mg"},{"bike_id":"a88c0b3b-374f-4852-9490-eff627f91ef1","system_id":"levelo_inurba_marseille","lat":43.23184,"lon":5.39985,"is_reserved":false,"is_disabled":false,"rental_uris":{"android":"levelo://app?vid=a88c0b3b-374f-4852-9490-eff627f91ef1","ios":"levelo://app?vid=a88c0b3b-374f-4852-9490-eff627f91ef1"},"vehicle_type_id":"4","last_reported":1761952208,"current_range_meters":20400,"station_id":"ce4bhn12rcd13ifvqgqg","pricing_plan_id":"cebpf4jnsgd1na2vs0mg"},{"bike_id":"c7fe3ba2-6abe-4c3f-8a47-fe682384a126","system_id":"levelo_inurba_marseille","lat":43.28372,"lon":5.3862,"is_reserved":false,"is_disabled":false,"rental_uris":{"android":"levelo://app?vid=c7fe3ba2-6abe-4c3f-8a47-fe682384a126","ios":"levelo://app?vid=c7fe3ba2-6abe-4c3f-8a47-fe682384a126"},"vehicle_type_id":"4","last_reported":1761952208,"current_range_meters":20400,"station_id":"ce4bh492rcd13ifvqdvg","pricing_plan_id":"cebpf4jnsgd1na2vs0mg"},{"bike_id":"79c3e17b-6b52-40f3-829f-6b443681b1d3","system_id":"levelo_inurba_marseille","lat":43.28115,"lon":5.39664,"is_reserved":false,"is_disabled":false,"rental_uris":{"android":"levelo://app?vid=79c3e17b-6b52-40f3-829f-6b443681b1d3","ios":"levelo://app?vid=79c3e17b-6b52-40f3-829f-6b443681b1d3"},"vehicle_type_id":"4","last_reported":1761952208,"current_range_meters":20400,"station_id":"ce4bho12rcd13ifvqh2g","pricing_plan_id":"cebpf4jnsgd1na2vs0mg"},{"bike_id":"1af74fe3-6ad6-4b8f-af9a-1a1810def892","system_id":"levelo_inurba_marseille","lat":43.281553,"lon":5.426471,"is_reserved":false,"is_disabled":false,"rental_uris":{"android":"levelo://app?vid=1af74fe3-6ad6-4b8f-af9a-1a1810def892","ios":"levelo://app?vid=1af74fe3-6ad6-4b8f-af9a-1a1810def892"},"vehicle_type_id":"4","last_reported":1761952208,"current_range_meters":20400,"station_id":"ce4bhnh2rcd13ifvqgug","pricing_plan_id":"cebpf4jnsgd1na2vs0mg"},{"bike_id":"137b611e-0d30-42e5-bd0e-4ca1b1f19b3a","system_id":"levelo_inurba_marseille","lat":43.27994,"lon":5.39996,"is_reserved":false,"is_disabled":false,"rental_uris":{"android":"levelo://app?vid=137b611e-0d30-42e5-bd0e-4ca1b1f19b3a","ios":"levelo://app?vid=137b611e-0d30-42e5-bd0e-4ca1b1f19b3a"},"vehicle_type_id":"4","last_reported":1761952208,"current_range_meters":20400,"station_id":"ce4bho92rcd13ifvqh4g","pricing_plan_id":"cebpf4jnsgd1na2vs0mg"},{"bike_id":"5e0687e5-beff-4736-a118-bfd0074fe4d3","system_id":"levelo_inurba_marseille","lat":43.24807,"lon":5.37455,"is_reserved":false,"is_disabled":false,"rental_uris":{"android":"levelo://app?vid=5e0687e5-beff-4736-a118-bfd0074fe4d3","ios":"levelo://app?vid=5e0687e5-beff-4736-a118-bfd0074fe4d3"},"vehicle_type_id":"4","last_reported":1761952208,"current_range_meters":20400,"station_id":"ce4bhgh2rcd13ifvqfb0","pricing_plan_id":"cebpf4jnsgd1na2vs0mg"},{"bike_id":"f3e5222c-7ada-4918-9b4c-96d186d994da","system_id":"levelo_inurba_marseille","lat":43.31166,"lon":5.38713,"is_reserved":false,"is_disabled":false,"rental_uris":{"android":"levelo://app?vid=f3e5222c-7ada-4918-9b4c-96d186d994da","ios":"levelo://app?vid=f3e5222c-7ada-4918-9b4c-96d186d994da"},"vehicle_type_id":"4","last_reported":1761952208,"current_range_meters":20400,"station_id":"ce4bgv12rcd13ifvqcp0","pricing_plan_id":"cebpf4jnsgd1na2vs0mg"},{"bike_id":"7b0eaa70-7657-4098-8e47-f6fae1ad1d21","system_id":"levelo_inurba_marseille","lat":43.25858,"lon":5.3992,"is_reserved":false,"is_disabled":false,"rental_uris":{"android":"levelo://app?vid=7b0eaa70-7657-4098-8e47-f6fae1ad1d21","ios":"levelo://app?vid=7b0eaa70-7657-4098-8e47-f6fae1ad1d21"},"vehicle_type_id":"4","last_reported":1761952208,"current_range_meters":20400,"station_id":"ce4bhl92rcd13ifvqghg","pricing_plan_id":"cebpf4jnsgd1na2vs0mg"},{"bike_id":"0ba23429-63a1-4bec-b3e7-5de07e9ce257","system_id":"levelo_inurba_marseille","lat":43.32654,"lon":5.40997,"is_reserved":false,"is_disabled":false,"rental_uris":{"android":"levelo://app?vid=0ba23429-63a1-4bec-b3e7-5de07e9ce257","ios":"levelo://app?vid=0ba23429-63a1-4bec-b3e7-5de07e9ce257"},"vehicle_type_id":"4","last_reported":1761952208,"current_range_meters":20400,"station_id":"ce4bhpp2rcd13ifvqhgg","pricing_plan_id":"cebpf4jnsgd1na2vs0mg"},{"bike_id":"2a32e756-8076-4328-a472-196c9c9d4e25","system_id":"levelo_inurba_marseille","lat":43.28606,"lon":5.37068,"is_reserved":false,"is_disabled":false,"rental_uris":{"android":"levelo://app?vid=2a32e756-8076-4328-a472-196c9c9d4e25","ios":"levelo://app?vid=2a32e756-8076-4328-a472-196c9c9d4e25"},"vehicle_type_id":"4","last_reported":1761952208,"current_range_meters":20400,"station_id":"ce4bht12rcd13ifvqi60","pricing_plan_id":"cebpf4jnsgd1na2vs0mg"},{"bike_id":"baac65c3-b3b0-465b-81d8-77cf747e3890","system_id":"levelo_inurba_marseille","lat":43.23145,"lon":5.43716,"is_reserved":false,"is_disabled":false,"rental_uris":{"android":"levelo://app?vid=baac65c3-b3b0-465b-81d8-77cf747e3890","ios":"levelo://app?vid=baac65c3-b3b0-465b-81d8-77cf747e3890"},"vehicle_type_id":"4","last_reported":1761952208,"current_range_meters":20400,"station_id":"ce4bhmp2rcd13ifvqgog","pricing_plan_id":"cebpf4jnsgd1na2vs0mg"},{"bike_id":"84f1bfac-8d21-499b-b8e1-fdc8049e10ac","system_id":"levelo_inurba_marseille","lat":43.31269,"lon":5.37756,"is_reserved":false,"is_disabled":false,"rental_uris":{"android":"levelo://app?vid=84f1bfac-8d21-499b-b8e1-fdc8049e10ac","ios":"levelo://app?vid=84f1bfac-8d21-499b-b8e1-fdc8049e10ac"},"vehicle_type_id":"4","last_reported":1761952208,"current_range_meters":20800,"station_id":"","pricing_plan_id":"cebpf4jnsgd1na2vs0mg"},{"bike_id":"708ba87a-b6fe-412b-b52f-b23f135c4cda","system_id":"levelo_inurba_marseille","lat":43.26806,"lon":5.40253,"is_reserved":false,"is_disabled":false,"rental_uris":{"android":"levelo://app?vid=708ba87a-b6fe-412b-b52f-b23f135c4cda","ios":"levelo://app?vid=708ba87a-b6fe-412b-b52f-b23f135c4cda"},"vehicle_type_id":"4","last_reported":1761952208,"current_range_meters":20800,"station_id":"ce501612rcd8frsf0b60","pricing_plan_id":"cebpf4jnsgd1na2vs0mg"},{"bike_id":"00ab1c5f-431d-4d34-80a0-929f00594bde","system_id":"levelo_inurba_marseille","lat":43.307987,"lon":5.38156,"is_reserved":false,"is_disabled":false,"rental_uris":{"android":"levelo://app?vid=00ab1c5f-431d-4d34-80a0-929f00594bde","ios":"levelo://app?vid=00ab1c5f-431d-4d34-80a0-929f00594bde"},"vehicle_type_id":"4","last_reported":1761952208,"current_range_meters":20800,"station_id":"ce4bgt12rcd13ifvqce0","pricing_plan_id":"cebpf4jnsgd1na2vs0mg"},{"bike_id":"6cdd2d31-7a50-4066-9776-30f793653d6a","system_id":"levelo_inurba_marseille","lat":43.24638,"lon":5.43126,"is_reserved":false,"is_disabled":false,"rental_uris":{"android":"levelo://app?vid=6cdd2d31-7a50-4066-9776-30f793653d6a","ios":"levelo://app?vid=6cdd2d31-7a50-4066-9776-30f793653d6a"},"vehicle_type_id":"4","last_reported":1761952208,"current_range_meters":20800,"station_id":"st_d2m6c4gdas8pm72e190g","pricing_plan_id":"cebpf4jnsgd1na2vs0mg"},{"bike_id":"c1fe96cb-2690-42c6-a697-9f633d501439","system_id":"levelo_inurba_marseille","lat":43.27564,"lon":5.38437,"is_reserved":false,"is_disabled":false,"rental_uris":{"android":"levelo://app?vid=c1fe96cb-2690-42c6-a697-9f633d501439","ios":"levelo://app?vid=c1fe96cb-2690-42c6-a697-9f633d501439"},"vehicle_type_id":"4","last_reported":1761952208,"current_range_meters":20800,"station_id":"ce4bhh92rcd13ifvqfi0","pricing_plan_id":"cebpf4jnsgd1na2vs0mg"},{"bike_id":"253c421a-fae4-4d30-8859-e42eeb73feae","system_id":"levelo_inurba_marseille","lat":43.29538,"lon":5.38547,"is_reserved":false,"is_disabled":false,"rental_uris":{"android":"levelo://app?vid=253c421a-fae4-4d30-8859-e42eeb73feae","ios":"levelo://app?vid=253c421a-fae4-4d30-8859-e42eeb73feae"},"vehicle_type_id":"4","last_reported":1761952208,"current_range_meters":21600,"station_id":"ce4bgih2rcd13ifvqba0","pricing_plan_id":"cebpf4jnsgd1na2vs0mg"},{"bike_id":"961a6a6c-cf0f-4bc3-a24a-d4cb0f887ae2","system_id":"levelo_inurba_marseille","lat":43.27205,"lon":5.39187,"is_reserved":false,"is_disabled":false,"rental_uris":{"android":"levelo://app?vid=961a6a6c-cf0f-4bc3-a24a-d4cb0f887ae2","ios":"levelo://app?vid=961a6a6c-cf0f-4bc3-a24a-d4cb0f887ae2"},"vehicle_type_id":"4","last_reported":1761952208,"current_range_meters":21600,"station_id":"ce4bhhp2rcd13ifvqfm0","pricing_plan_id":"cebpf4jnsgd1na2vs0mg"},{"bike_id":"f9d3749d-81f8-4965-9439-d4590d5836d3","system_id":"levelo_inurba_marseille","lat":43.29183,"lon":5.37132,"is_reserved":false,"is_disabled":false,"rental_uris":{"android":"levelo://app?vid=f9d3749d-81f8-4965-9439-d4590d5836d3","ios":"levelo://app?vid=f9d3749d-81f8-4965-9439-d4590d5836d3"},"vehicle_type_id":"4","last_reported":1761952208,"current_range_meters":21600,"station_id":"ce4bha92rcd13ifvqeh0","pricing_plan_id":"cebpf4jnsgd1na2vs0mg"},{"bike_id":"480a2ab3-b87f-445f-80a9-e18b14daa708","system_id":"levelo_inurba_marseille","lat":43.317104,"lon":5.377472,"is_reserved":false,"is_disabled":false,"rental_uris":{"android":"levelo://app?vid=480a2ab3-b87f-445f-80a9-e18b14daa708","ios":"levelo://app?vid=480a2ab3-b87f-445f-80a9-e18b14daa708"},"vehicle_type_id":"4","last_reported":1761952208,"current_range_meters":21600,"station_id":"ce4bgth2rcd13ifvqch0","pricing_plan_id":"cebpf4jnsgd1na2vs0mg"},{"bike_id":"6a01678e-8a66-42b3-857a-d0d19cdfd138","system_id":"levelo_inurba_marseille","lat":43.29286,"lon":5.3842,"is_reserved":false,"is_disabled":false,"rental_uris":{"android":"levelo://app?vid=6a01678e-8a66-42b3-857a-d0d19cdfd138","ios":"levelo://app?vid=6a01678e-8a66-42b3-857a-d0d19cdfd138"},"vehicle_type_id":"4","last_reported":1761952208,"current_range_meters":21600,"station_id":"ce4bh692rcd13ifvqea0","pricing_plan_id":"cebpf4jnsgd1na2vs0mg"},{"bike_id":"08037484-2e43-4611-bc42-d9bfff471eb5","system_id":"levelo_inurba_marseille","lat":43.288575,"lon":5.358448,"is_reserved":false,"is_disabled":false,"rental_uris":{"android":"levelo://app?vid=08037484-2e43-4611-bc42-d9bfff471eb5","ios":"levelo://app?vid=08037484-2e43-4611-bc42-d9bfff471eb5"},"vehicle_type_id":"4","last_reported":1761952208,"current_range_meters":21600,"station_id":"ce4bh3p2rcd13ifvqdq0","pricing_plan_id":"cebpf4jnsgd1na2vs0mg"},{"bike_id":"607374f0-509b-4412-8daa-530dd3d7dfc5","system_id":"levelo_inurba_marseille","lat":43.28613,"lon":5.351,"is_reserved":false,"is_disabled":false,"rental_uris":{"android":"levelo://app?vid=607374f0-509b-4412-8daa-530dd3d7dfc5","ios":"levelo://app?vid=607374f0-509b-4412-8daa-530dd3d7dfc5"},"vehicle_type_id":"4","last_reported":1761952208,"current_range_meters":21600,"station_id":"ce4bhch2rcd13ifvqeug","pricing_plan_id":"cebpf4jnsgd1na2vs0mg"},{"bike_id":"9c225f78-e17f-4cae-a67b-5ed0204af86b","system_id":"levelo_inurba_marseille","lat":43.2823,"lon":5.3906,"is_reserved":false,"is_disabled":false,"rental_uris":{"android":"levelo://app?vid=9c225f78-e17f-4cae-a67b-5ed0204af86b","ios":"levelo://app?vid=9c225f78-e17f-4cae-a67b-5ed0204af86b"},"vehicle_type_id":"4","last_reported":1761952208,"current_range_meters":21600,"station_id":"ce4bhn92rcd13ifvqgsg","pricing_plan_id":"cebpf4jnsgd1na2vs0mg"},{"bike_id":"6c093f0b-299c-40d8-aa71-c942300a8ab8","system_id":"levelo_inurba_marseille","lat":43.28169,"lon":5.42615,"is_reserved":false,"is_disabled":false,"rental_uris":{"android":"levelo://app?vid=6c093f0b-299c-40d8-aa71-c942300a8ab8","ios":"levelo://app?vid=6c093f0b-299c-40d8-aa71-c942300a8ab8"},"vehicle_type_id":"4","last_reported":1761952208,"current_range_meters":21600,"station_id":"ce4bhnh2rcd13ifvqgug","pricing_plan_id":"cebpf4jnsgd1na2vs0mg"},{"bike_id":"44e53ec5-3e49-426a-9e60-936fc2458c7b","system_id":"levelo_inurba_marseille","lat":43.25725,"lon":5.41112,"is_reserved":false,"is_disabled":false,"rental_uris":{"android":"levelo://app?vid=44e53ec5-3e49-426a-9e60-936fc2458c7b","ios":"levelo://app?vid=44e53ec5-3e49-426a-9e60-936fc2458c7b"},"vehicle_type_id":"4","last_reported":1761952208,"current_range_meters":22000,"station_id":"ce4bhkp2rcd13ifvqgd0","pricing_plan_id":"cebpf4jnsgd1na2vs0mg"},{"bike_id":"fd2a3e15-d6ed-4064-b7e2-d83799925ad0","system_id":"levelo_inurba_marseille","lat":43.29759,"lon":5.42776,"is_reserved":false,"is_disabled":false,"rental_uris":{"android":"levelo://app?vid=fd2a3e15-d6ed-4064-b7e2-d83799925ad0","ios":"levelo://app?vid=fd2a3e15-d6ed-4064-b7e2-d83799925ad0"},"vehicle_type_id":"4","last_reported":1761952208,"current_range_meters":22000,"station_id":"st_d3md5207bmas73dh9klg","pricing_plan_id":"cebpf4jnsgd1na2vs0mg"},{"bike_id":"72667045-b816-48de-95ee-6e55de9900ca","system_id":"levelo_inurba_marseille","lat":43.25113,"lon":5.40324,"is_reserved":false,"is_disabled":true,"rental_uris":{"android":"levelo://app?vid=72667045-b816-48de-95ee-6e55de9900ca","ios":"levelo://app?vid=72667045-b816-48de-95ee-6e55de9900ca"},"vehicle_type_id":"4","last_reported":1761952208,"current_range_meters":22000,"station_id":"ce4bhlh2rcd13ifvqgig","pricing_plan_id":"cebpf4jnsgd1na2vs0mg"},