{"last_updated":1746735092,"ttl":60,"version":"2.2","data":{"bikes":[{"bike_id":"2ee86048-0f6a-499d-ad06-b1ad0531e9d0","system_id":"levelo_inurba_marseille","lat":43.291126,"lon":5.38774,"is_reserved":false,"is_disabled":false,"rental_uris":{"android":"levelo://app?vid=2ee86048-0f6a-499d-ad06-b1ad0531e9d0","ios":"levelo://app?vid=2ee86048-0f6a-499d-ad06-b1ad0531e9d0"},"vehicle_type_id":"4","last_reported":1746735092,"current_range_meters":2800,"station_id":"ce4bh2h2rcd13ifvqdh0","pricing_plan_id":"cebpf4jnsgd1na2vs0mg"},{"bike_id":"6faafe5b-0283-4308-86b6-6a9233481921","system_id":"levelo_inurba_marseille","lat":43.28612,"lon":5.351011,"is_reserved":false,"is_disabled":true,"rental_uris":{"android":"levelo://app?vid=6faafe5b-0283-4308-86b6-6a9233481921","ios":"levelo://app?vid=6faafe5b-0283-4308-86b6-6a9233481921"},"vehicle_type_id":"4","last_reported":1746735092,"current_range_meters":2800,"station_id":"ce4bhch2rcd13ifvqeug","pricing_plan_id":"cebpf4jnsgd1na2vs0mg"},{"bike_id":"430f8c4d-ccbf-4a31-aebb-ef9fe312738a","system_id":"levelo_inurba_marseille","lat":43.29303,"lon":5.37465,"is_reserved":false,"is_disabled":false,"rental_uris":{"android":"levelo://app?vid=430f8c4d-ccbf-4a31-aebb-ef9fe312738a","ios":"levelo://app?vid=430f8c4d-ccbf-4a31-aebb-ef9fe312738a"},"vehicle_type_id":"4","last_reported":1746735092,"current_range_meters":2800,"station_id":"ce4bgi12rcd13ifvqb70","pricing_plan_id":"cebpf4jnsgd1na2vs0mg"},{"bike_id":"f5986ef2-6242-4420-bd26-56a6f072f0b8","system_id":"levelo_inurba_marseille","lat":43.29297,"lon":5.37469,"is_reserved":false,"is_disabled":false,"rental_uris":{"android":"levelo://app?vid=f5986ef2-6242-4420-bd26-56a6f072f0b8","ios":"levelo://app?vid=f5986ef2-6242-4420-bd26-56a6f072f0b8"},"vehicle_type_id":"4","last_reported":1746735092,"current_range_meters":2800,"station_id":"ce4bgi12rcd13ifvqb70","pricing_plan_id":"cebpf4jnsgd1na2vs0mg"},{"bike_id":"f355ef7d-ddc6-4ed6-b604-3aa234bfbb3c","system_id":"levelo_inurba_marseille","lat":43.30472,"lon":5.37906,"is_reserved":false,"is_disabled":true,"rental_uris":{"android":"levelo://app?vid=f355ef7d-ddc6-4ed6-b604-3aa234bfbb3c","ios":"levelo://app?vid=f355ef7d-ddc6-4ed6-b604-3aa234bfbb3c"},"vehicle_type_id":"4","last_reported":1746735092,"current_range_meters":3200,"station_id":"ce4bgup2rcd13ifvqcn0","pricing_plan_id":"cebpf4jnsgd1na2vs0mg"},{"bike_id":"102c40eb-2bdc-4b4a-b223-840fecf9cd0b","system_id":"levelo_inurba_marseille","lat":43.31713,"lon":5.40455,"is_reserved":false,"is_disabled":false,"rental_uris":{"android":"levelo://app?vid=102c40eb-2bdc-4b4a-b223-840fecf9cd0b","ios":"levelo://app?vid=102c40eb-2bdc-4b4a-b223-840fecf9cd0b"},"vehicle_type_id":"4","last_reported":1746735092,"current_range_meters":3200,"station_id":"ce4bh012rcd13ifvqd00","pricing_plan_id":"cebpf4jnsgd1na2vs0mg"},{"bike_id":"ae9f78e0-e1ce-4fe2-b041-480e07a87d07","system_id":"levelo_inurba_marseille","lat":43.30539,"lon":5.36731,"is_reserved":false,"is_disabled":false,"rental_uris":{"android":"levelo://app?vid=ae9f78e0-e1ce-4fe2-b041-480e07a87d07","ios":"levelo://app?vid=ae9f78e0-e1ce-4fe2-b041-480e07a87d07"},"vehicle_type_id":"4","last_reported":1746735092,"current_range_meters":3200,"station_id":"ce4bgrp2rcd13ifvqc9g","pricing_plan_id":"cebpf4jnsgd1na2vs0mg"},{"bike_id":"a81cd161-2b96-4494-8c20-66fe458655ec","system_id":"levelo_inurba_marseille","lat":43.30164,"lon":5.36974,"is_reserved":false,"is_disabled":false,"rental_uris":{"android":"levelo://app?vid=a81cd161-2b96-4494-8c20-66fe458655ec","ios":"levelo://app?vid=a81cd161-2b96-4494-8c20-66fe458655ec"},"vehicle_type_id":"4","last_reported":1746735092,"current_range_meters":3200,"station_id":"ce4bgr92rcd13ifvqc7g","pricing_plan_id":"cebpf4jnsgd1na2vs0mg"},{"bike_id":"690fd055-2eba-4d8f-9e9a-1f65e8e15c59","system_id":"levelo_inurba_marseille","lat":43.29534,"lon":5.38537,"is_reserved":false,"is_disabled":true,"rental_uris":{"android":"levelo://app?vid=690fd055-2eba-4d8f-9e9a-1f65e8e15c59","ios":"levelo://app?vid=690fd055-2eba-4d8f-9e9a-1f65e8e15c59"},"vehicle_type_id":"4","last_reported":1746735092,"current_range_meters":3200,"station_id":"ce4bgih2rcd13ifvqba0","pricing_plan_id":"cebpf4jnsgd1na2vs0mg"},{"bike_id":"b9c60a44-4131-4217-94a1-7cc1ea177f6f","system_id":"levelo_inurba_marseille","lat":43.28456,"lon":5.35897,"is_reserved":false,"is_disabled":false,"rental_uris":{"android":"levelo://app?vid=b9c60a44-4131-4217-94a1-7cc1ea177f6f","ios":"levelo://app?vid=b9c60a44-4131-4217-94a1-7cc1ea177f6f"},"vehicle_type_id":"4","last_reported":1746735092,"current_range_meters":3200,"station_id":"ce4bhah2rcd13ifvqei0","pricing_plan_id":"cebpf4jnsgd1na2vs0mg"},{"bike_id":"77f1eaeb-03d6-4e75-ac76-2654f73a481c","system_id":"levelo_inurba_marseille","lat":43.30791,"lon":5.3816,"is_reserved":false,"is_disabled":false,"rental_uris":{"android":"levelo://app?vid=77f1eaeb-03d6-4e75-ac76-2654f73a481c","ios":"levelo://app?vid=77f1eaeb-03d6-4e75-ac76-2654f73a481c"},"vehicle_type_id":"4","last_reported":1746735092,"current_range_meters":3200,"station_id":"ce4bgt12rcd13ifvqce0","pricing_plan_id":"cebpf4jnsgd1na2vs0mg"},{"bike_id":"1f76f24d-1c69-4614-8a3b-481bfabc2bf3","system_id":"levelo_inurba_marseille","lat":43.295266,"lon":5.385296,"is_reserved":false,"is_disabled":false,"rental_uris":{"android":"levelo://app?vid=1f76f24d-1c69-4614-8a3b-481bfabc2bf3","ios":"levelo://app?vid=1f76f24d-1c69-4614-8a3b-481bfabc2bf3"},"vehicle_type_id":"4","last_reported":1746735092,"current_range_meters":3600,"station_id":"ce4bgih2rcd13ifvqba0","pricing_plan_id":"cebpf4jnsgd1na2vs0mg"},{"bike_id":"030e24d1-109b-4585-a3a0-5076daa9373e","system_id":"levelo_inurba_marseille","lat":43.27175,"lon":5.40996,"is_reserved":false,"is_disabled":false,"rental_uris":{"android":"levelo://app?vid=030e24d1-109b-4585-a3a0-5076daa9373e","ios":"levelo://app?vid=030e24d1-109b-4585-a3a0-5076daa9373e"},"vehicle_type_id":"4","last_reported":1746735092,"current_range_meters":3600,"station_id":"ce4bhl12rcd13ifvqgf0","pricing_plan_id":"cebpf4jnsgd1na2vs0mg"},{"bike_id":"cec1d2b0-dfbd-4d3e-9d2d-85d70b60e3b0","system_id":"levelo_inurba_marseille","lat":43.30527,"lon":5.36724,"is_reserved":false,"is_disabled":false,"rental_uris":{"android":"levelo://app?vid=cec1d2b0-dfbd-4d3e-9d2d-85d70b60e3b0","ios":"levelo://app?vid=cec1d2b0-dfbd-4d3e-9d2d-85d70b60e3b0"},"vehicle_type_id":"4","last_reported":1746735092,"current_range_meters":4000,"station_id":"ce4bgrp2rcd13ifvqc9g","pricing_plan_id":"cebpf4jnsgd1na2vs0mg"},{"bike_id":"6a52aa50-28d9-4b5f-be91-502b974f50e0","system_id":"levelo_inurba_marseille","lat":43.24802,"lon":5.37459,"is_reserved":false,"is_disabled":false,"rental_uris":{"android":"levelo://app?vid=6a52aa50-28d9-4b5f-be91-502b974f50e0","ios":"levelo://app?vid=6a52aa50-28d9-4b5f-be91-502b974f50e0"},"vehicle_type_id":"4","last_reported":1746735092,"current_range_meters":4000,"station_id":"ce4bhgh2rcd13ifvqfb0","pricing_plan_id":"cebpf4jnsgd1na2vs0mg"},{"bike_id":"38da6858-516f-472e-a948-b43e828fd49c","system_id":"levelo_inurba_marseille","lat":43.29577,"lon":5.36739,"is_reserved":false,"is_disabled":false,"rental_uris":{"android":"levelo://app?vid=38da6858-516f-472e-a948-b43e828fd49c","ios":"levelo://app?vid=38da6858-516f-472e-a948-b43e828fd49c"},"vehicle_type_id":"4","last_reported":1746735092,"current_range_meters":4400,"station_id":"ce4bgph2rcd13ifvqc2g","pricing_plan_id":"cebpf4jnsgd1na2vs0mg"},{"bike_id":"4322f38a-e4ff-4f28-bbba-4a31bac23a3b","system_id":"levelo_inurba_marseille","lat":43.27942,"lon":5.41043,"is_reserved":false,"is_disabled":false,"rental_uris":{"android":"levelo://app?vid=4322f38a-e4ff-4f28-bbba-4a31bac23a3b","ios":"levelo://app?vid=4322f38a-e4ff-4f28-bbba-4a31bac23a3b"},"vehicle_type_id":"4","last_reported":1746735092,"current_range_meters":4800,"station_id":"ce4bhnp2rcd13ifvqh0g","pricing_plan_id":"cebpf4jnsgd1na2vs0mg"},{"bike_id":"a79fd215-c7a5-4be8-aa6d-3ccdb09f4996","system_id":"levelo_inurba_marseille","lat":43.27073,"lon":5.42275,"is_reserved":false,"is_disabled":false,"rental_uris":{"android":"levelo://app?vid=a79fd215-c7a5-4be8-aa6d-3ccdb09f4996","ios":"levelo://app?vid=a79fd215-c7a5-4be8-aa6d-3ccdb09f4996"},"vehicle_type_id":"4","last_reported":1746735092,"current_range_meters":4800,"station_id":"ce4bhk92rcd13ifvqgb0","pricing_plan_id":"cebpf4jnsgd1na2vs0mg"},{"bike_id":"fcb394d1-cb0a-4bbb-8465-4395b990deb3","system_id":"levelo_inurba_marseille","lat":43.30797,"lon":5.38176,"is_reserved":false,"is_disabled":false,"rental_uris":{"android":"levelo://app?vid=fcb394d1-cb0a-4bbb-8465-4395b990deb3","ios":"levelo://app?vid=fcb394d1-cb0a-4bbb-8465-4395b990deb3"},"vehicle_type_id":"4","last_reported":1746735092,"current_range_meters":4800,"station_id":"ce4bgt12rcd13ifvqce0","pricing_plan_id":"cebpf4jnsgd1na2vs0mg"},{"bike_id":"6ab49f27-7c64-44ad-8725-e098aa7a433a","system_id":"levelo_inurba_marseille","lat":43.30931,"lon":5.40158,"is_reserved":false,"is_disabled":false,"rental_uris":{"android":"levelo://app?vid=6ab49f27-7c64-44ad-8725-e098aa7a433a","ios":"levelo://app?vid=6ab49f27-7c64-44ad-8725-e098aa7a433a"},"vehicle_type_id":"4","last_reported":1746735092,"current_range_meters":4800,"station_id":"ce4bgvp2rcd13ifvqct0","pricing_plan_id":"cebpf4jnsgd1na2vs0mg"},{"bike_id":"fbe938ec-d988-4d34-9384-8009a8f9bbf7","system_id":"levelo_inurba_marseille","lat":43.31484,"lon":5.37309,"is_reserved":false,"is_disabled":false,"rental_uris":{"android":"levelo://app?vid=fbe938ec-d988-4d34-9384-8009a8f9bbf7","ios":"levelo://app?vid=fbe938ec-d988-4d34-9384-8009a8f9bbf7"},"vehicle_type_id":"4","last_reported":1746735092,"current_range_meters":5600,"station_id":"ce4bgt12rcd13ifvqcd0","pricing_plan_id":"cebpf4jnsgd1na2vs0mg"},{"bike_id":"eca06480-a153-4d72-8bbd-ca789ec2792e","system_id":"levelo_inurba_marseille","lat":43.28375,"lon":5.38636,"is_reserved":false,"is_disabled":false,"rental_uris":{"android":"levelo://app?vid=eca06480-a153-4d72-8bbd-ca789ec2792e","ios":"levelo://app?vid=eca06480-a153-4d72-8bbd-ca789ec2792e"},"vehicle_type_id":"4","last_reported":1746735092,"current_range_meters":5600,"station_id":"ce4bh492rcd13ifvqdvg","pricing_plan_id":"cebpf4jnsgd1na2vs0mg"},{"bike_id":"c95c73fa-fa1b-4f8a-b605-b98e12633f82","system_id":"levelo_inurba_marseille","lat":43.28976,"lon":5.37848,"is_reserved":false,"is_disabled":false,"rental_uris":{"android":"levelo://app?vid=c95c73fa-fa1b-4f8a-b605-b98e12633f82","ios":"levelo://app?vid=c95c73fa-fa1b-4f8a-b605-b98e12633f82"},"vehicle_type_id":"4","last_reported":1746735092,"current_range_meters":5600,"station_id":"ce4bh9p2rcd13ifvqed0","pricing_plan_id":"cebpf4jnsgd1na2vs0mg"},{"bike_id":"645c5e89-a6ce-4c06-bbaa-31dca4510601","system_id":"levelo_inurba_marseille","lat":43.31115,"lon":5.37781,"is_reserved":false,"is_disabled":false,"rental_uris":{"android":"levelo://app?vid=645c5e89-a6ce-4c06-bbaa-31dca4510601","ios":"levelo://app?vid=645c5e89-a6ce-4c06-bbaa-31dca4510601"},"vehicle_type_id":"4","last_reported":1746735092,"current_range_meters":5600,"station_id":"ce4bgt92rcd13ifvqcg0","pricing_plan_id":"cebpf4jnsgd1na2vs0mg"},{"bike_id":"00138ee9-dd3d-4b66-85a7-f8ff69dd7e90","system_id":"levelo_inurba_marseille","lat":43.284848,"lon":5.385702,"is_reserved":false,"is_disabled":false,"rental_uris":{"android":"levelo://app?vid=00138ee9-dd3d-4b66-85a7-f8ff69dd7e90","ios":"levelo://app?vid=00138ee9-dd3d-4b66-85a7-f8ff69dd7e90"},"vehicle_type_id":"4","last_reported":1746735092,"current_range_meters":5600,"station_id":"ce4bh8p2rcd13ifvqeb0","pricing_plan_id":"cebpf4jnsgd1na2vs0mg"},{"bike_id":"9c2fca7c-9339-463e-95e2-ab5bc3feb18b","system_id":"levelo_inurba_marseille","lat":43.30584,"lon":5.392909,"is_reserved":false,"is_disabled":false,"rental_uris":{"android":"levelo://app?vid=9c2fca7c-9339-463e-95e2-ab5bc3feb18b","ios":"levelo://app?vid=9c2fca7c-9339-463e-95e2-ab5bc3feb18b"},"vehicle_type_id":"4","last_reported":1746735092,"current_range_meters":5600,"station_id":"ce4bh0p2rcd13ifvqd80","pricing_plan_id":"cebpf4jnsgd1na2vs0mg"},{"bike_id":"f929f3ea-f039-44dc-b765-0386579e8828","system_id":"levelo_inurba_marseille","lat":43.279401,"lon":5.410446,"is_reserved":false,"is_disabled":false,"rental_uris":{"android":"levelo://app?vid=f929f3ea-f039-44dc-b765-0386579e8828","ios":"levelo://app?vid=f929f3ea-f039-44dc-b765-0386579e8828"},"vehicle_type_id":"4","last_reported":1746735092,"current_range_meters":5600,"station_id":"ce4bhnp2rcd13ifvqh0g","pricing_plan_id":"cebpf4jnsgd1na2vs0mg"},{"bike_id":"63707718-642f-4e97-990d-b3182e27a6ae","system_id":"levelo_inurba_marseille","lat":43.27501,"lon":5.42457,"is_reserved":false,"is_disabled":false,"rental_uris":{"android":"levelo://app?vid=63707718-642f-4e97-990d-b3182e27a6ae","ios":"levelo://app?vid=63707718-642f-4e97-990d-b3182e27a6ae"},"vehicle_type_id":"4","last_reported":1746735092,"current_range_meters":6000,"station_id":"ce4bhn92rcd13ifvqgrg","pricing_plan_id":"cebpf4jnsgd1na2vs0mg"},{"bike_id":"b7bdbe3a-b7ec-4256-908f-dfa71835a5d1","system_id":"levelo_inurba_marseille","lat":43.29907,"lon":5.3815,"is_reserved":false,"is_disabled":false,"rental_uris":{"android":"levelo://app?vid=b7bdbe3a-b7ec-4256-908f-dfa71835a5d1","ios":"levelo://app?vid=b7bdbe3a-b7ec-4256-908f-dfa71835a5d1"},"vehicle_type_id":"4","last_reported":1746735092,"current_range_meters":6000,"station_id":"ce4bgj12rcd13ifvqbc0","pricing_plan_id":"cebpf4jnsgd1na2vs0mg"},{"bike_id":"b7e44cf3-d956-41e4-b6ab-77875cc1ec7e","system_id":"levelo_inurba_marseille","lat":43.24809,"lon":5.37459,"is_reserved":false,"is_disabled":false,"rental_uris":{"android":"levelo://app?vid=b7e44cf3-d956-41e4-b6ab-77875cc1ec7e","ios":"levelo://app?vid=b7e44cf3-d956-41e4-b6ab-77875cc1ec7e"},"vehicle_type_id":"4","last_reported":1746735092,"current_range_meters":6400,"station_id":"ce4bhgh2rcd13ifvqfb0","pricing_plan_id":"cebpf4jnsgd1na2vs0mg"},{"bike_id":"c2ae3b84-37d0-4caa-8579-d67ca2c29763","system_id":"levelo_inurba_marseille","lat":43.2959,"lon":5.381053,"is_reserved":false,"is_disabled":false,"rental_uris":{"android":"levelo://app?vid=c2ae3b84-37d0-4caa-8579-d67ca2c29763","ios":"levelo://app?vid=c2ae3b84-37d0-4caa-8579-d67ca2c29763"},"vehicle_type_id":"4","last_reported":1746735092,"current_range_meters":6400,"station_id":"ce4bgl12rcd13ifvqbo0","pricing_plan_id":"cebpf4jnsgd1na2vs0mg"},{"bike_id":"c7ad7e88-08ac-4497-9526-f8c84a4764f6","system_id":"levelo_inurba_marseille","lat":43.292847,"lon":5.40123,"is_reserved":false,"is_disabled":false,"rental_uris":{"android":"levelo://app?vid=c7ad7e88-08ac-4497-9526-f8c84a4764f6","ios":"levelo://app?vid=c7ad7e88-08ac-4497-9526-f8c84a4764f6"},"vehicle_type_id":"4","last_reported":1746735092,"current_range_meters":6400,"station_id":"ce4bh312rcd13ifvqdk0","pricing_plan_id":"cebpf4jnsgd1na2vs0mg"},{"bike_id":"14e638c3-6ba0-4ad0-8ab0-153f53fa1fbe","system_id":"levelo_inurba_marseille","lat":43.22942,"lon":5.35404,"is_reserved":false,"is_disabled":false,"rental_uris":{"android":"levelo://app?vid=14e638c3-6ba0-4ad0-8ab0-153f53fa1fbe","ios":"levelo://app?vid=14e638c3-6ba0-4ad0-8ab0-153f53fa1fbe"},"vehicle_type_id":"4","last_reported":1746735092,"current_range_meters":6400,"station_id":"cpo3532slgdg3j2ikp40","pricing_plan_id":"cebpf4jnsgd1na2vs0mg"},{"bike_id":"5e3e9c41-b24c-46f0-b957-f5ee0edb0006","system_id":"levelo_inurba_marseille","lat":43.29526,"lon":5.38545,"is_reserved":false,"is_disabled":false,"rental_uris":{"android":"levelo://app?vid=5e3e9c41-b24c-46f0-b957-f5ee0edb0006","ios":"levelo://app?vid=5e3e9c41-b24c-46f0-b957-f5ee0edb0006"},"vehicle_type_id":"4","last_reported":1746735092,"current_range_meters":6400,"station_id":"ce4bgih2rcd13ifvqba0","pricing_plan_id":"cebpf4jnsgd1na2vs0mg"},{"bike_id":"97ef78a8-68f7-40b9-b76a-781f25298c8e","system_id":"levelo_inurba_marseille","lat":43.30788,"lon":5.3764,"is_reserved":false,"is_disabled":false,"rental_uris":{"android":"levelo://app?vid=97ef78a8-68f7-40b9-b76a-781f25298c8e","ios":"levelo://app?vid=97ef78a8-68f7-40b9-b76a-781f25298c8e"},"vehicle_type_id":"4","last_reported":1746735092,"current_range_meters":6400,"station_id":"ce4bgv92rcd13ifvqcq0","pricing_plan_id":"cebpf4jnsgd1na2vs0mg"},{"bike_id":"30a57150-f7d3-44ff-a719-985e18fc9a3a","system_id":"levelo_inurba_marseille","lat":43.31111,"lon":5.37769,"is_reserved":false,"is_disabled":false,"rental_uris":{"android":"levelo://app?vid=30a57150-f7d3-44ff-a719-985e18fc9a3a","ios":"levelo://app?vid=30a57150-f7d3-44ff-a719-985e18fc9a3a"},"vehicle_type_id":"4","last_reported":1746735092,"current_range_meters":6800,"station_id":"ce4bgt92rcd13ifvqcg0","pricing_plan_id":"cebpf4jnsgd1na2vs0mg"},{"bike_id":"80ef03a8-aa11-4394-9cc9-03d856796fd8","system_id":"levelo_inurba_marseille","lat":43.25724,"lon":5.41113,"is_reserved":false,"is_disabled":false,"rental_uris":{"android":"levelo://app?vid=80ef03a8-aa11-4394-9cc9-03d856796fd8","ios":"levelo://app?vid=80ef03a8-aa11-4394-9cc9-03d856796fd8"},"vehicle_type_id":"4","last_reported":1746735092,"current_range_meters":6800,"station_id":"ce4bhkp2rcd13ifvqgd0","pricing_plan_id":"cebpf4jnsgd1na2vs0mg"},{"bike_id":"c91b378d-26a5-4ed8-99d4-6b3ec43dd75e","system_id":"levelo_inurba_marseille","lat":43.240849,"lon":5.377411,"is_reserved":false,"is_disabled":false,"rental_uris":{"android":"levelo://app?vid=c91b378d-26a5-4ed8-99d4-6b3ec43dd75e","ios":"levelo://app?vid=c91b378d-26a5-4ed8-99d4-6b3ec43dd75e"},"vehicle_type_id":"4","last_reported":1746735092,"current_range_meters":7200,"station_id":"ce4bhnp2rcd13ifvqgvg","pricing_plan_id":"cebpf4jnsgd1na2vs0mg"},{"bike_id":"cce70185-f372-4ffd-b50a-cac4592c090d","system_id":"levelo_inurba_marseille","lat":43.28712,"lon":5.39996,"is_reserved":false,"is_disabled":false,"rental_uris":{"android":"levelo://app?vid=cce70185-f372-4ffd-b50a-cac4592c090d","ios":"levelo://app?vid=cce70185-f372-4ffd-b50a-cac4592c090d"},"vehicle_type_id":"4","last_reported":1746735092,"current_range_meters":7200,"station_id":"ce4bho92rcd13ifvqh3g","pricing_plan_id":"cebpf4jnsgd1na2vs0mg"},{"bike_id":"0fa405ef-f2a1-4358-a5cb-30616e61cbea","system_id":"levelo_inurba_marseille","lat":43.29288,"lon":5.40116,"is_reserved":false,"is_disabled":false,"rental_uris":{"android":"levelo://app?vid=0fa405ef-f2a1-4358-a5cb-30616e61cbea","ios":"levelo://app?vid=0fa405ef-f2a1-4358-a5cb-30616e61cbea"},"vehicle_type_id":"4","last_reported":1746735092,"current_range_meters":7200,"station_id":"ce4bh312rcd13ifvqdk0","pricing_plan_id":"cebpf4jnsgd1na2vs0mg"},{"bike_id":"32177595-d9a1-4788-a257-808878a65913","system_id":"levelo_inurba_marseille","lat":43.29917,"lon":5.38135,"is_reserved":false,"is_disabled":false,"rental_uris":{"android":"levelo://app?vid=32177595-d9a1-4788-a257-808878a65913","ios":"levelo://app?vid=32177595-d9a1-4788-a257-808878a65913"},"vehicle_type_id":"4","last_reported":1746735092,"current_range_meters":7200,"station_id":"ce4bgj12rcd13ifvqbc0","pricing_plan_id":"cebpf4jnsgd1na2vs0mg"},{"bike_id":"bfed9438-7e8f-4f83-941f-bf3236fec546","system_id":"levelo_inurba_marseille","lat":43.24803,"lon":5.37452,"is_reserved":false,"is_disabled":false,"rental_uris":{"android":"levelo://app?vid=bfed9438-7e8f-4f83-941f-bf3236fec546","ios":"levelo://app?vid=bfed9438-7e8f-4f83-941f-bf3236fec546"},"vehicle_type_id":"4","last_reported":1746735092,"current_range_meters":7200,"station_id":"ce4bhgh2rcd13ifvqfb0","pricing_plan_id":"cebpf4jnsgd1na2vs0mg"},{"bike_id":"af8098d2-c64a-48bb-a3dc-66801914b455","system_id":"levelo_inurba_marseille","lat":43.29195,"lon":5.39317,"is_reserved":false,"is_disabled":false,"rental_uris":{"android":"levelo://app?vid=af8098d2-c64a-48bb-a3dc-66801914b455","ios":"levelo://app?vid=af8098d2-c64a-48bb-a3dc-66801914b455"},"vehicle_type_id":"4","last_reported":1746735092,"current_range_meters":7200,"station_id":"ce4bh192rcd13ifvqdd0","pricing_plan_id":"cebpf4jnsgd1na2vs0mg"},{"bike_id":"341f6043-e914-44c4-896b-32102a500281","system_id":"levelo_inurba_marseille","lat":43.31501,"lon":5.37297,"is_reserved":false,"is_disabled":false,"rental_uris":{"android":"levelo://app?vid=341f6043-e914-44c4-896b-32102a500281","ios":"levelo://app?vid=341f6043-e914-44c4-896b-32102a500281"},"vehicle_type_id":"4","last_reported":1746735092,"current_range_meters":8000,"station_id":"ce4bgt12rcd13ifvqcd0","pricing_plan_id":"cebpf4jnsgd1na2vs0mg"},{"bike_id":"aa89676c-c163-4eed-bd75-e97636d45dfd","system_id":"levelo_inurba_marseille","lat":43.24653,"lon":5.38903,"is_reserved":false,"is_disabled":false,"rental_uris":{"android":"levelo://app?vid=aa89676c-c163-4eed-bd75-e97636d45dfd","ios":"levelo://app?vid=aa89676c-c163-4eed-bd75-e97636d45dfd"},"vehicle_type_id":"4","last_reported":1746735092,"current_range_meters":8000,"station_id":"ce4bhg12rcd13ifvqf60","pricing_plan_id":"cebpf4jnsgd1na2vs0mg"},{"bike_id":"6db4395f-0fa5-4f3b-9010-25c1f38ad472","system_id":"levelo_inurba_marseille","lat":43.29636,"lon":5.40596,"is_reserved":false,"is_disabled":false,"rental_uris":{"android":"levelo://app?vid=6db4395f-0fa5-4f3b-9010-25c1f38ad472","ios":"levelo://app?vid=6db4395f-0fa5-4f3b-9010-25c1f38ad472"},"vehicle_type_id":"4","last_reported":1746735092,"current_range_meters":8000,"station_id":"ce4bh0h2rcd13ifvqd60","pricing_plan_id":"cebpf4jnsgd1na2vs0mg"},{"bike_id":"1e06feab-b735-4aef-9424-548d2d230046","system_id":"levelo_inurba_marseille","lat":43.28717,"lon":5.3794,"is_reserved":false,"is_disabled":false,"rental_uris":{"android":"levelo://app?vid=1e06feab-b735-4aef-9424-548d2d230046","ios":"levelo://app?vid=1e06feab-b735-4aef-9424-548d2d230046"},"vehicle_type_id":"4","last_reported":1746735092,"current_range_meters":8000,"station_id":"ce4bh9p2rcd13ifvqec0","pricing_plan_id":"cebpf4jnsgd1na2vs0mg"},{"bike_id":"b15fe93b-1059-4d75-abd3-040e349ce402","system_id":"levelo_inurba_marseille","lat":43.30126,"lon":5.37017,"is_reserved":false,"is_disabled":false,"rental_uris":{"android":"levelo://app?vid=b15fe93b-1059-4d75-abd3-040e349ce402","ios":"levelo://app?vid=b15fe93b-1059-4d75-abd3-040e349ce402"},"vehicle_type_id":"4","last_reported":1746735092,"current_range_meters":8000,"station_id":"","pricing_plan_id":"cebpf4jnsgd1na2vs0mg"},{"bike_id":"4ce41b83-5b77-466b-b6c0-11554a39e9a6","system_id":"levelo_inurba_marseille","lat":43.29441,"lon":5.3976,"is_reserved":false,"is_disabled":true,"rental_uris":{"android":"levelo://app?vid=4ce41b83-5b77-466b-b6c0-11554a39e9a6","ios":"levelo://app?vid=4ce41b83-5b77-466b-b6c0-11554a39e9a6"},"vehicle_type_id":"4","last_reported":1746735092,"current_range_meters":8000,"station_id":"ce4bh3h2rcd13ifvqdo0","pricing_plan_id":"cebpf4jnsgd1na2vs0mg"},{"bike_id":"a8a7df6f-f8e3-4734-ab5d-2b344ff8e98b","system_id":"levelo_inurba_marseille","lat":43.28351,"lon":5.38107,"is_reserved":false,"is_disabled":false,"rental_uris":{"android":"levelo://app?vid=a8a7df6f-f8e3-4734-ab5d-2b344ff8e98b","ios":"levelo://app?vid=a8a7df6f-f8e3-4734-ab5d-2b344ff8e98b"},"vehicle_type_id":"4","last_reported":1746735092,"current_range_meters":8000,"station_id":"ce4bh412rcd13ifvqdr0","pricing_plan_id":"cebpf4jnsgd1na2vs0mg"},{"bike_id":"11f2f90e-07ea-45fc-bea7-59b140809475","system_id":"levelo_inurba_marseille","lat":43.28479,"lon":5.38561,"is_reserved":false,"is_disabled":false,"rental_uris":{"android":"levelo://app?vid=11f2f90e-07ea-45fc-bea7-59b140809475","ios":"levelo://app?vid=11f2f90e-07ea-45fc-bea7-59b140809475"},"vehicle_type_id":"4","last_reported":1746735092,"current_range_meters":8000,"station_id":"ce4bh8p2rcd13ifvqeb0","pricing_plan_id":"cebpf4jnsgd1na2vs0mg"},{"bike_id":"93126291-f22a-443c-8cc3-8510e6bc4581","system_id":"levelo_inurba_marseille","lat":43.250226,"lon":5.392789,"is_reserved":false,"is_disabled":false,"rental_uris":{"android":"levelo://app?vid=93126291-f22a-443c-8cc3-8510e6bc4581","ios":"levelo://app?vid=93126291-f22a-443c-8cc3-8510e6bc4581"},"vehicle_type_id":"4","last_reported":1746735092,"current_range_meters":8400,"station_id":"ce4bhm12rcd13ifvqgkg","pricing_plan_id":"cebpf4jnsgd1na2vs0mg"},{"bike_id":"453376e7-6c16-4a64-9b33-56d0fa26b2f7","system_id":"levelo_inurba_marseille","lat":43.29596,"lon":5.38108,"is_reserved":false,"is_disabled":false,"rental_uris":{"android":"levelo://app?vid=453376e7-6c16-4a64-9b33-56d0fa26b2f7","ios":"levelo://app?vid=453376e7-6c16-4a64-9b33-56d0fa26b2f7"},"vehicle_type_id":"4","last_reported":1746735092,"current_range_meters":8400,"station_id":"ce4bgl12rcd13ifvqbo0","pricing_plan_id":"cebpf4jnsgd1na2vs0mg"},{"bike_id":"ca3dca7a-5aef-4cff-aa22-36e56e91f31f","system_id":"levelo_inurba_marseille","lat":43.30786,"lon":5.37654,"is_reserved":false,"is_disabled":false,"rental_uris":{"android":"levelo://app?vid=ca3dca7a-5aef-4cff-aa22-36e56e91f31f","ios":"levelo://app?vid=ca3dca7a-5aef-4cff-aa22-36e56e91f31f"},"vehicle_type_id":"4","last_reported":1746735092,"current_range_meters":8400,"station_id":"ce4bgv92rcd13ifvqcq0","pricing_plan_id":"cebpf4jnsgd1na2vs0mg"},{"bike_id":"1d8de8cd-13dc-4c82-8486-ad3c0692640a","system_id":"levelo_inurba_marseille","lat":43.32551,"lon":5.41469,"is_reserved":false,"is_disabled":false,"rental_uris":{"android":"levelo://app?vid=1d8de8cd-13dc-4c82-8486-ad3c0692640a","ios":"levelo://app?vid=1d8de8cd-13dc-4c82-8486-ad3c0692640a"},"vehicle_type_id":"4","last_reported":1746735092,"current_range_meters":8400,"station_id":"ce4bhq12rcd13ifvqhhg","pricing_plan_id":"cebpf4jnsgd1na2vs0mg"},{"bike_id":"4ae7a83c-4508-4420-bdfc-fc011c19b67a","system_id":"levelo_inurba_marseille","lat":43.33771,"lon":5.37469,"is_reserved":false,"is_disabled":false,"rental_uris":{"android":"levelo://app?vid=4ae7a83c-4508-4420-bdfc-fc011c19b67a","ios":"levelo://app?vid=4ae7a83c-4508-4420-bdfc-fc011c19b67a"},"vehicle_type_id":"4","last_reported":1746735092,"current_range_meters":8400,"station_id":"","pricing_plan_id":"cebpf4jnsgd1na2vs0mg"},{"bike_id":"1f281ed5-8e05-43ba-b583-cf4e73bd4cb4","system_id":"levelo_inurba_marseille","lat":43.32112,"lon":5.367776,"is_reserved":false,"is_disabled":false,"rental_uris":{"android":"levelo://app?vid=1f281ed5-8e05-43ba-b583-cf4e73bd4cb4","ios":"levelo://app?vid=1f281ed5-8e05-43ba-b583-cf4e73bd4cb4"},"vehicle_type_id":"4","last_reported":1746735092,"current_range_meters":8400,"station_id":"ce4bhrh2rcd13ifvqhug","pricing_plan_id":"cebpf4jnsgd1na2vs0mg"},{"bike_id":"3380be41-5609-4f83-92ea-376897d27f4f","system_id":"levelo_inurba_marseille","lat":43.23183,"lon":5.39993,"is_reserved":false,"is_disabled":false,"rental_uris":{"android":"levelo://app?vid=3380be41-5609-4f83-92ea-376897d27f4f","ios":"levelo://app?vid=3380be41-5609-4f83-92ea-376897d27f4f"},"vehicle_type_id":"4","last_reported":1746735092,"current_range_meters":8400,"station_id":"ce4bhn12rcd13ifvqgqg","pricing_plan_id":"cebpf4jnsgd1na2vs0mg"},{"bike_id":"94548bbc-0565-40b2-9e19-d4d8f4a3e175","system_id":"levelo_inurba_marseille","lat":43.23194,"lon":5.35584,"is_reserved":false,"is_disabled":true,"rental_uris":{"android":"levelo://app?vid=94548bbc-0565-40b2-9e19-d4d8f4a3e175","ios":"levelo://app?vid=94548bbc-0565-40b2-9e19-d4d8f4a3e175"},"vehicle_type_id":"4","last_reported":1746735092,"current_range_meters":8800,"station_id":"ce4bhu92rcd13ifvqi70","pricing_plan_id":"cebpf4jnsgd1na2vs0mg"},{"bike_id":"8b698a34-fbf5-484e-9ecb-26e22393bc90","system_id":"levelo_inurba_marseille","lat":43.3304,"lon":5.390384,"is_reserved":false,"is_disabled":false,"rental_uris":{"android":"levelo://app?vid=8b698a34-fbf5-484e-9ecb-26e22393bc90","ios":"levelo://app?vid=8b698a34-fbf5-484e-9ecb-26e22393bc90"},"vehicle_type_id":"4","last_reported":1746735092,"current_range_meters":8800,"station_id":"ce4bhr92rcd13ifvqhrg","pricing_plan_id":"cebpf4jnsgd1na2vs0mg"},{"bike_id":"916d67d8-ccd1-41b8-923b-e1ce6259ee20","system_id":"levelo_inurba_marseille","lat":43.30755,"lon":5.37446,"is_reserved":false,"is_disabled":false,"rental_uris":{"android":"levelo://app?vid=916d67d8-ccd1-41b8-923b-e1ce6259ee20","ios":"levelo://app?vid=916d67d8-ccd1-41b8-923b-e1ce6259ee20"},"vehicle_type_id":"4","last_reported":1746735092,"current_range_meters":8800,"station_id":"","pricing_plan_id":"cebpf4jnsgd1na2vs0mg"},{"bike_id":"c43ed3ca-340d-43d7-8ad5-7e6b2386ac59","system_id":"levelo_inurba_marseille","lat":43.29897,"lon":5.436653,"is_reserved":false,"is_disabled":false,"rental_uris":{"android":"levelo://app?vid=c43ed3ca-340d-43d7-8ad5-7e6b2386ac59","ios":"levelo://app?vid=c43ed3ca-340d-43d7-8ad5-7e6b2386ac59"},"vehicle_type_id":"4","last_reported":1746735092,"current_range_meters":8800,"station_id":"ce4bhpp2rcd13ifvqhfg","pricing_plan_id":"cebpf4jnsgd1na2vs0mg"},{"bike_id":"176526a6-428c-4c3b-a62a-4a4369a49a1a","system_id":"levelo_inurba_marseille","lat":43.27374,"lon":5.3626,"is_reserved":false,"is_disabled":false,"rental_uris":{"android":"levelo://app?vid=176526a6-428c-4c3b-a62a-4a4369a49a1a","ios":"levelo://app?vid=176526a6-428c-4c3b-a62a-4a4369a49a1a"},"vehicle_type_id":"4","last_reported":1746735092,"current_range_meters":8800,"station_id":"ce4bhbh2rcd13ifvqeo0","pricing_plan_id":"cebpf4jnsgd1na2vs0mg"},{"bike_id":"b1122fe1-b543-4ed1-b486-253ab14ce85c","system_id":"levelo_inurba_marseille","lat":43.30433,"lon":5.39745,"is_reserved":false,"is_disabled":false,"rental_uris":{"android":"levelo://app?vid=b1122fe1-b543-4ed1-b486-253ab14ce85c","ios":"levelo://app?vid=b1122fe1-b543-4ed1-b486-253ab14ce85c"},"vehicle_type_id":"4","last_reported":1746735092,"current_range_meters":8800,"station_id":"ce4bh092rcd13ifvqd20","pricing_plan_id":"cebpf4jnsgd1na2vs0mg"},{"bike_id":"e9027ed5-cc10-44a7-8b6f-aeacc09540d4","system_id":"levelo_inurba_marseille","lat":43.30877,"lon":5.37204,"is_reserved":false,"is_disabled":false,"rental_uris":{"android":"levelo://app?vid=e9027ed5-cc10-44a7-8b6f-aeacc09540d4","ios":"levelo://app?vid=e9027ed5-cc10-44a7-8b6f-aeacc09540d4"},"vehicle_type_id":"4","last_reported":1746735092,"current_range_meters":9200,"station_id":"ce4bguh2rcd13ifvqckg","pricing_plan_id":"cebpf4jnsgd1na2vs0mg"},{"bike_id":"1485c8fb-27a0-490e-a27c-c7d045fabf27","system_id":"levelo_inurba_marseille","lat":43.29414,"lon":5.38611,"is_reserved":false,"is_disabled":true,"rental_uris":{"android":"levelo://app?vid=1485c8fb-27a0-490e-a27c-c7d045fabf27","ios":"levelo://app?vid=1485c8fb-27a0-490e-a27c-c7d045fabf27"},"vehicle_type_id":"4","last_reported":1746735092,"current_range_meters":9200,"station_id":"ce4bh2h2rcd13ifvqdh0","pricing_plan_id":"cebpf4jnsgd1na2vs0mg"},{"bike_id":"b5b3790b-2da8-434f-add0-73a7b0e604a8","system_id":"levelo_inurba_marseille","lat":43.29266,"lon":5.38438,"is_reserved":false,"is_disabled":false,"rental_uris":{"android":"levelo://app?vid=b5b3790b-2da8-434f-add0-73a7b0e604a8","ios":"levelo://app?vid=b5b3790b-2da8-434f-add0-73a7b0e604a8"},"vehicle_type_id":"4","last_reported":1746735092,"current_range_meters":9200,"station_id":"ce4bh692rcd13ifvqea0","pricing_plan_id":"cebpf4jnsgd1na2vs0mg"},{"bike_id":"dbfc55be-6ebe-436f-baee-d77aec7f0156","system_id":"levelo_inurba_marseille","lat":43.285481,"lon":5.38387,"is_reserved":false,"is_disabled":false,"rental_uris":{"android":"levelo://app?vid=dbfc55be-6ebe-436f-baee-d77aec7f0156","ios":"levelo://app?vid=dbfc55be-6ebe-436f-baee-d77aec7f0156"},"vehicle_type_id":"4","last_reported":1746735092,"current_range_meters":9200,"station_id":"ce4bhg12rcd13ifvqf80","pricing_plan_id":"cebpf4jnsgd1na2vs0mg"},{"bike_id":"35f36335-51c7-48bf-a321-437e1aea77da","system_id":"levelo_inurba_marseille","lat":43.32381,"lon":5.36748,"is_reserved":false,"is_disabled":false,"rental_uris":{"android":"levelo://app?vid=35f36335-51c7-48bf-a321-437e1aea77da","ios":"levelo://app?vid=35f36335-51c7-48bf-a321-437e1aea77da"},"vehicle_type_id":"4","last_reported":1746735092,"current_range_meters":9200,"station_id":"ce4bhsh2rcd13ifvqi2g","pricing_plan_id":"cebpf4jnsgd1na2vs0mg"},{"bike_id":"fd991be1-d3a7-48e9-af71-ab1504a07e0f","system_id":"levelo_inurba_marseille","lat":43.23188,"lon":5.39992,"is_reserved":false,"is_disabled":false,"rental_uris":{"android":"levelo://app?vid=fd991be1-d3a7-48e9-af71-ab1504a07e0f","ios":"levelo://app?vid=fd991be1-d3a7-48e9-af71-ab1504a07e0f"},"vehicle_type_id":"4","last_reported":1746735092,"current_range_meters":9200,"station_id":"ce4bhn12rcd13ifvqgqg","pricing_plan_id":"cebpf4jnsgd1na2vs0mg"},{"bike_id":"4b55cb69-087f-4ac8-aec8-33ebaad80586","system_id":"levelo_inurba_marseille","lat":43.32544,"lon":5.41427,"is_reserved":false,"is_disabled":false,"rental_uris":{"android":"levelo://app?vid=4b55cb69-087f-4ac8-aec8-33ebaad80586","ios":"levelo://app?vid=4b55cb69-087f-4ac8-aec8-33ebaad80586"},"vehicle_type_id":"4","last_reported":1746735092,"current_range_meters":9200,"station_id":"ce4bhq12rcd13ifvqhhg","pricing_plan_id":"cebpf4jnsgd1na2vs0mg"},{"bike_id":"83df5a3b-bee4-43c2-ab66-5cdd05e18bbc","system_id":"levelo_inurba_marseille","lat":43.29283,"lon":5.36826,"is_reserved":false,"is_disabled":true,"rental_uris":{"android":"levelo://app?vid=83df5a3b-bee4-43c2-ab66-5cdd05e18bbc","ios":"levelo://app?vid=83df5a3b-bee4-43c2-ab66-5cdd05e18bbc"},"vehicle_type_id":"4","last_reported":1746735092,"current_range_meters":10000,"station_id":"ce4bhbp2rcd13ifvqesg","pricing_plan_id":"cebpf4jnsgd1na2vs0mg"},{"bike_id":"38d6076f-3cd5-47e1-88e6-eafeef6afe79","system_id":"levelo_inurba_marseille","lat":43.29434,"lon":5.38613,"is_reserved":false,"is_disabled":false,"rental_uris":{"android":"levelo://app?vid=38d6076f-3cd5-47e1-88e6-eafeef6afe79","ios":"levelo://app?vid=38d6076f-3cd5-47e1-88e6-eafeef6afe79"},"vehicle_type_id":"4","last_reported":1746735092,"current_range_meters":9600,"station_id":"ce4bh2h2rcd13ifvqdh0","pricing_plan_id":"cebpf4jnsgd1na2vs0mg"},{"bike_id":"6bd0238f-e645-45c7-965c-c4bc5564ea2d","system_id":"levelo_inurba_marseille","lat":43.27992,"lon":5.40015,"is_reserved":false,"is_disabled":false,"rental_uris":{"android":"levelo://app?vid=6bd0238f-e645-45c7-965c-c4bc5564ea2d","ios":"levelo://app?vid=6bd0238f-e645-45c7-965c-c4bc5564ea2d"},"vehicle_type_id":"4","last_reported":1746735092,"current_range_meters":9600,"station_id":"ce4bho92rcd13ifvqh4g","pricing_plan_id":"cebpf4jnsgd1na2vs0mg"},{"bike_id":"4def5167-24f6-4ef4-8868-e54215a8a1c6","system_id":"levelo_inurba_marseille","lat":43.299622,"lon":5.384939,"is_reserved":false,"is_disabled":false,"rental_uris":{"android":"levelo://app?vid=4def5167-24f6-4ef4-8868-e54215a8a1c6","ios":"levelo://app?vid=4def5167-24f6-4ef4-8868-e54215a8a1c6"},"vehicle_type_id":"4","last_reported":1746735092,"current_range_meters":9600,"station_id":"ce4bgj92rcd13ifvqbd0","pricing_plan_id":"cebpf4jnsgd1na2vs0mg"},{"bike_id":"33e6a7ca-4870-4d87-87e5-a5d74b0a3b2b","system_id":"levelo_inurba_marseille","lat":43.31712,"lon":5.43707,"is_reserved":false,"is_disabled":false,"rental_uris":{"android":"levelo://app?vid=33e6a7ca-4870-4d87-87e5-a5d74b0a3b2b","ios":"levelo://app?vid=33e6a7ca-4870-4d87-87e5-a5d74b0a3b2b"},"vehicle_type_id":"4","last_reported":1746735092,"current_range_meters":9600,"station_id":"ce4bhp92rcd13ifvqhcg","pricing_plan_id":"cebpf4jnsgd1na2vs0mg"},{"bike_id":"20ddfa52-8c31-4ffc-908f-641568713649","system_id":"levelo_inurba_marseille","lat":43.28563,"lon":5.39509,"is_reserved":false,"is_disabled":false,"rental_uris":{"android":"levelo://app?vid=20ddfa52-8c31-4ffc-908f-641568713649","ios":"levelo://app?vid=20ddfa52-8c31-4ffc-908f-641568713649"},"vehicle_type_id":"4","last_reported":1746735092,"current_range_meters":10000,"station_id":"ce4bh292rcd13ifvqdg0","pricing_plan_id":"cebpf4jnsgd1na2vs0mg"},{"bike_id":"caf43b67-4807-45fd-9e16-b2032d3b9cd9","system_id":"levelo_inurba_marseille","lat":43.29264,"lon":5.38443,"is_reserved":false,"is_disabled":false,"rental_uris":{"android":"levelo://app?vid=caf43b67-4807-45fd-9e16-b2032d3b9cd9","ios":"levelo://app?vid=caf43b67-4807-45fd-9e16-b2032d3b9cd9"},"vehicle_type_id":"4","last_reported":1746735092,"current_range_meters":10000,"station_id":"ce4bh692rcd13ifvqea0","pricing_plan_id":"cebpf4jnsgd1na2vs0mg"},{"bike_id":"35e8d545-8f0a-4b08-81d3-1acb9b10f3ac","system_id":"levelo_inurba_marseille","lat":43.21748,"lon":5.346017,"is_reserved":false,"is_disabled":false,"rental_uris":{"android":"levelo://app?vid=35e8d545-8f0a-4b08-81d3-1acb9b10f3ac","ios":"levelo://app?vid=35e8d545-8f0a-4b08-81d3-1acb9b10f3ac"},"vehicle_type_id":"4","last_reported":1746735092,"current_range_meters":10000,"station_id":"","pricing_plan_id":"cebpf4jnsgd1na2vs0mg"},{"bike_id":"f0d52ae6-b65f-4e03-bd61-07644c3060da","system_id":"levelo_inurba_marseille","lat":43.28938,"lon":5.36641,"is_reserved":false,"is_disabled":false,"rental_uris":{"android":"levelo://app?vid=f0d52ae6-b65f-4e03-bd61-07644c3060da","ios":"levelo://app?vid=f0d52ae6-b65f-4e03-bd61-07644c3060da"},"vehicle_type_id":"4","last_reported":1746735092,"current_range_meters":10000,"station_id":"ce4bhap2rcd13ifvqek0","pricing_plan_id":"cebpf4jnsgd1na2vs0mg"},{"bike_id":"e42642af-5e5a-45c9-a05a-7ea534fac2b4","system_id":"levelo_inurba_marseille","lat":43.29028,"lon":5.38628,"is_reserved":false,"is_disabled":false,"rental_uris":{"android":"levelo://app?vid=e42642af-5e5a-45c9-a05a-7ea534fac2b4","ios":"levelo://app?vid=e42642af-5e5a-45c9-a05a-7ea534fac2b4"},"vehicle_type_id":"4","last_reported":1746735092,"current_range_meters":10000,"station_id":"ce4bh4p2rcd13ifvqe0g","pricing_plan_id":"cebpf4jnsgd1na2vs0mg"},{"bike_id":"a6a803b8-d564-46cd-8193-b355a05541b4","system_id":"levelo_inurba_marseille","lat":43.30294,"lon":5.39226,"is_reserved":false,"is_disabled":false,"rental_uris":{"android":"levelo://app?vid=a6a803b8-d564-46cd-8193-b355a05541b4","ios":"levelo://app?vid=a6a803b8-d564-46cd-8193-b355a05541b4"},"vehicle_type_id":"4","last_reported":1746735092,"current_range_meters":10000,"station_id":"ce4bgkh2rcd13ifvqbk0","pricing_plan_id":"cebpf4jnsgd1na2vs0mg"},{"bike_id":"19b45e3f-d900-400c-9769-d614930467a5","system_id":"levelo_inurba_marseille","lat":43.30196,"lon":5.39463,"is_reserved":false,"is_disabled":false,"rental_uris":{"android":"levelo://app?vid=19b45e3f-d900-400c-9769-d614930467a5","ios":"levelo://app?vid=19b45e3f-d900-400c-9769-d614930467a5"},"vehicle_type_id":"4","last_reported":1746735092,"current_range_meters":10000,"station_id":"ce4bh0p2rcd13ifvqd70","pricing_plan_id":"cebpf4jnsgd1na2vs0mg"},{"bike_id":"318a3325-0524-4819-ac34-2f7d14feb61f","system_id":"levelo_inurba_marseille","lat":43.29097,"lon":5.38151,"is_reserved":false,"is_disabled":false,"rental_uris":{"android":"levelo://app?vid=318a3325-0524-4819-ac34-2f7d14feb61f","ios":"levelo://app?vid=318a3325-0524-4819-ac34-2f7d14feb61f"},"vehicle_type_id":"4","last_reported":1746735092,"current_range_meters":10000,"station_id":"ce4bh512rcd13ifvqe2g","pricing_plan_id":"cebpf4jnsgd1na2vs0mg"},{"bike_id":"809c8673-c032-46b9-aa07-62c38e26d44e","system_id":"levelo_inurba_marseille","lat":43.25053,"lon":5.38799,"is_reserved":false,"is_disabled":false,"rental_uris":{"android":"levelo://app?vid=809c8673-c032-46b9-aa07-62c38e26d44e","ios":"levelo://app?vid=809c8673-c032-46b9-aa07-62c38e26d44e"},"vehicle_type_id":"4","last_reported":1746735092,"current_range_meters":10800,"station_id":"","pricing_plan_id":"cebpf4jnsgd1na2vs0mg"},{"bike_id":"d406817b-9f7c-45f8-9507-864a72c19634","system_id":"levelo_inurba_marseille","lat":43.2408,"lon":5.37767,"is_reserved":false,"is_disabled":false,"rental_uris":{"android":"levelo://app?vid=d406817b-9f7c-45f8-9507-864a72c19634","ios":"levelo://app?vid=d406817b-9f7c-45f8-9507-864a72c19634"},"vehicle_type_id":"4","last_reported":1746735092,"current_range_meters":10800,"station_id":"ce4bhnp2rcd13ifvqgvg","pricing_plan_id":"cebpf4jnsgd1na2vs0mg"},{"bike_id":"7d79cb93-b45b-41c7-b737-8fceef5b7d27","system_id":"levelo_inurba_marseille","lat":43.3032,"lon":5.36891,"is_reserved":false,"is_disabled":false,"rental_uris":{"android":"levelo://app?vid=7d79cb93-b45b-41c7-b737-8fceef5b7d27","ios":"levelo://app?vid=7d79cb93-b45b-41c7-b737-8fceef5b7d27"},"vehicle_type_id":"4","last_reported":1746735092,"current_range_meters":10800,"station_id":"ce4bgqh2rcd13ifvqc5g","pricing_plan_id":"cebpf4jnsgd1na2vs0mg"},{"bike_id":"f120d21a-e8b7-4a7d-9101-a0caddc6c675","system_id":"levelo_inurba_marseille","lat":43.30352,"lon":5.41882,"is_reserved":false,"is_disabled":false,"rental_uris":{"android":"levelo://app?vid=f120d21a-e8b7-4a7d-9101-a0caddc6c675","ios":"levelo://app?vid=f120d21a-e8b7-4a7d-9101-a0caddc6c675"},"vehicle_type_id":"4","last_reported":1746735092,"current_range_meters":10800,"station_id":"ce4bhop2rcd13ifvqh7g","pricing_plan_id":"cebpf4jnsgd1na2vs0mg"},{"bike_id":"5ced2160-2ae3-4aa2-bd38-fd9fa1f6ba37","system_id":"levelo_inurba_marseille","lat":43.28656,"lon":5.3637,"is_reserved":false,"is_disabled":false,"rental_uris":{"android":"levelo://app?vid=5ced2160-2ae3-4aa2-bd38-fd9fa1f6ba37","ios":"levelo://app?vid=5ced2160-2ae3-4aa2-bd38-fd9fa1f6ba37"},"vehicle_type_id":"4","last_reported":1746735092,"current_range_meters":10800,"station_id":"ce4bhah2rcd13ifvqej0","pricing_plan_id":"cebpf4jnsgd1na2vs0mg"},{"bike_id":"ceb0bf9d-2d8e-4a3b-a48f-e5632f73d0ee","system_id":"levelo_inurba_marseille","lat":43.30806,"lon":5.43526,"is_reserved":false,"is_disabled":false,"rental_uris":{"android":"levelo://app?vid=ceb0bf9d-2d8e-4a3b-a48f-e5632f73d0ee","ios":"levelo://app?vid=ceb0bf9d-2d8e-4a3b-a48f-e5632f73d0ee"},"vehicle_type_id":"4","last_reported":1746735092,"current_range_meters":10800,"station_id":"ce4bhph2rcd13ifvqheg","pricing_plan_id":"cebpf4jnsgd1na2vs0mg"},{"bike_id":"0c15ccb4-dd7c-4172-8764-a05afe9d1a34","system_id":"levelo_inurba_marseille","lat":43.28952,"lon":5.36626,"is_reserved":false,"is_disabled":true,"rental_uris":{"android":"levelo://app?vid=0c15ccb4-dd7c-4172-8764-a05afe9d1a34","ios":"levelo://app?vid=0c15ccb4-dd7c-4172-8764-a05afe9d1a34"},"vehicle_type_id":"4","last_reported":1746735092,"current_range_meters":10800,"station_id":"ce4bhap2rcd13ifvqek0","pricing_plan_id":"cebpf4jnsgd1na2vs0mg"},{"bike_id":"0e483b47-eb5f-4964-bb13-e520bcea7745","system_id":"levelo_inurba_marseille","lat":43.28613,"lon":5.37054,"is_reserved":false,"is_disabled":false,"rental_uris":{"android":"levelo://app?vid=0e483b47-eb5f-4964-bb13-e520bcea7745","ios":"levelo://app?vid=0e483b47-eb5f-4964-bb13-e520bcea7745"},"vehicle_type_id":"4","last_reported":1746735092,"current_range_meters":10800,"station_id":"ce4bht12rcd13ifvqi60","pricing_plan_id":"cebpf4jnsgd1na2vs0mg"},{"bike_id":"e2ea8909-e8b5-4408-967d-39cf7d3f0577","system_id":"levelo_inurba_marseille","lat":43.24805,"lon":5.37457,"is_reserved":false,"is_disabled":false,"rental_uris":{"android":"levelo://app?vid=e2ea8909-e8b5-4408-967d-39cf7d3f0577","ios":"levelo://app?vid=e2ea8909-e8b5-4408-967d-39cf7d3f0577"},"vehicle_type_id":"4","last_reported":1746735092,"current_range_meters":10800,"station_id":"ce4bhgh2rcd13ifvqfb0","pricing_plan_id":"cebpf4jnsgd1na2vs0mg"},{"bike_id":"6254403d-37a1-4fdb-9fec-0d2826aea1dd","system_id":"levelo_inurba_marseille","lat":43.29969,"lon":5.38485,"is_reserved":false,"is_disabled":false,"rental_uris":{"android":"levelo://app?vid=6254403d-37a1-4fdb-9fec-0d2826aea1dd","ios":"levelo://app?vid=6254403d-37a1-4fdb-9fec-0d2826aea1dd"},"vehicle_type_id":"4","last_reported":1746735092,"current_range_meters":11200,"station_id":"ce4bgj92rcd13ifvqbd0","pricing_plan_id":"cebpf4jnsgd1na2vs0mg"},{"bike_id":"0d07215e-9a68-4f91-9948-ec95957d03a2","system_id":"levelo_inurba_marseille","lat":43.29541,"lon":5.38541,"is_reserved":false,"is_disabled":false,"rental_uris":{"android":"levelo://app?vid=0d07215e-9a68-4f91-9948-ec95957d03a2","ios":"levelo://app?vid=0d07215e-9a68-4f91-9948-ec95957d03a2"},"vehicle_type_id":"4","last_reported":1746735092,"current_range_meters":11200,"station_id":"ce4bgih2rcd13ifvqba0","pricing_plan_id":"cebpf4jnsgd1na2vs0mg"},{"bike_id":"3b8f8001-60e9-436a-a4e7-0be41f13e9a4","system_id":"levelo_inurba_marseille","lat":43.30885,"lon":5.39633,"is_reserved":false,"is_disabled":false,"rental_uris":{"android":"levelo://app?vid=3b8f8001-60e9-436a-a4e7-0be41f13e9a4","ios":"levelo://app?vid=3b8f8001-60e9-436a-a4e7-0be41f13e9a4"},"vehicle_type_id":"4","last_reported":1746735092,"current_range_meters":11200,"station_id":"ce4bh012rcd13ifvqcv0","pricing_plan_id":"cebpf4jnsgd1na2vs0mg"},{"bike_id":"caf9033d-5f00-49c3-b1ee-1328b62008dc","system_id":"levelo_inurba_marseille","lat":43.33599,"lon":5.42809,"is_reserved":false,"is_disabled":false,"rental_uris":{"android":"levelo://app?vid=caf9033d-5f00-49c3-b1ee-1328b62008dc","ios":"levelo://app?vid=caf9033d-5f00-49c3-b1ee-1328b62008dc"},"vehicle_type_id":"4","last_reported":1746735092,"current_range_meters":11200,"station_id":"","pricing_plan_id":"cebpf4jnsgd1na2vs0mg"},{"bike_id":"0d74ed16-c80b-4e36-b661-d5d21cbaa14d","system_id":"levelo_inurba_marseille","lat":43.29255,"lon":5.37622,"is_reserved":false,"is_disabled":false,"rental_uris":{"android":"levelo://app?vid=0d74ed16-c80b-4e36-b661-d5d21cbaa14d","ios":"levelo://app?vid=0d74ed16-c80b-4e36-b661-d5d21cbaa14d"},"vehicle_type_id":"4","last_reported":1746735092,"current_range_meters":11200,"station_id":"ce4bgi12rcd13ifvqb80","pricing_plan_id":"cebpf4jnsgd1na2vs0mg"},{"bike_id":"670b3881-33f6-40e8-b842-7eaf30c6924b","system_id":"levelo_inurba_marseille","lat":43.284332,"lon":5.391843,"is_reserved":false,"is_disabled":false,"rental_uris":{"android":"levelo://app?vid=670b3881-33f6-40e8-b842-7eaf30c6924b","ios":"levelo://app?vid=670b3881-33f6-40e8-b842-7eaf30c6924b"},"vehicle_type_id":"4","last_reported":1746735092,"current_range_meters":11200,"station_id":"ce4bhoh2rcd13ifvqh5g","pricing_plan_id":"cebpf4jnsgd1na2vs0mg"},{"bike_id":"6971f759-8594-489e-a8f6-9153c9a9c438","system_id":"levelo_inurba_marseille","lat":43.27691,"lon":5.41961,"is_reserved":false,"is_disabled":false,"rental_uris":{"android":"levelo://app?vid=6971f759-8594-489e-a8f6-9153c9a9c438","ios":"levelo://app?vid=6971f759-8594-489e-a8f6-9153c9a9c438"},"vehicle_type_id":"4","last_reported":1746735092,"current_range_meters":11200,"station_id":"","pricing_plan_id":"cebpf4jnsgd1na2vs0mg"},{"bike_id":"75a25dcb-2f4a-4e01-a08b-3bd74f98a3ef","system_id":"levelo_inurba_marseille","lat":43.2903,"lon":5.38644,"is_reserved":false,"is_disabled":false,"rental_uris":{"android":"levelo://app?vid=75a25dcb-2f4a-4e01-a08b-3bd74f98a3ef","ios":"levelo://app?vid=75a25dcb-2f4a-4e01-a08b-3bd74f98a3ef"},"vehicle_type_id":"4","last_reported":1746735092,"current_range_meters":11200,"station_id":"ce4bh4p2rcd13ifvqe0g","pricing_plan_id":"cebpf4jnsgd1na2vs0mg"},{"bike_id":"ded8612e-711d-40ca-9ab1-869f52835937","system_id":"levelo_inurba_marseille","lat":43.32916,"lon":5.38042,"is_reserved":false,"is_disabled":false,"rental_uris":{"android":"levelo://app?vid=ded8612e-711d-40ca-9ab1-869f52835937","ios":"levelo://app?vid=ded8612e-711d-40ca-9ab1-869f52835937"},"vehicle_type_id":"4","last_reported":1746735092,"current_range_meters":11600,"station_id":"","pricing_plan_id":"cebpf4jnsgd1na2vs0mg"},{"bike_id":"2a4cb9e4-2125-44f7-9718-7ee02a235fcf","system_id":"levelo_inurba_marseille","lat":43.28451,"lon":5.39199,"is_reserved":false,"is_disabled":false,"rental_uris":{"android":"levelo://app?vid=2a4cb9e4-2125-44f7-9718-7ee02a235fcf","ios":"levelo://app?vid=2a4cb9e4-2125-44f7-9718-7ee02a235fcf"},"vehicle_type_id":"4","last_reported":1746735092,"current_range_meters":11600,"station_id":"ce4bhoh2rcd13ifvqh5g","pricing_plan_id":"cebpf4jnsgd1na2vs0mg"},{"bike_id":"4d9a3290-ea8f-4667-9bc3-49d7ee0315f2","system_id":"levelo_inurba_marseille","lat":43.28038,"lon":5.36943,"is_reserved":false,"is_disabled":false,"rental_uris":{"android":"levelo://app?vid=4d9a3290-ea8f-4667-9bc3-49d7ee0315f2","ios":"levelo://app?vid=4d9a3290-ea8f-4667-9bc3-49d7ee0315f2"},"vehicle_type_id":"4","last_reported":1746735092,"current_range_meters":11600,"station_id":"ce4bha12rcd13ifvqef0","pricing_plan_id":"cebpf4jnsgd1na2vs0mg"},{"bike_id":"52f31297-a3eb-4366-be2d-7d6eccf4cdbf","system_id":"levelo_inurba_marseille","lat":43.29806,"lon":5.40407,"is_reserved":false,"is_disabled":false,"rental_uris":{"android":"levelo://app?vid=52f31297-a3eb-4366-be2d-7d6eccf4cdbf","ios":"levelo://app?vid=52f31297-a3eb-4366-be2d-7d6eccf4cdbf"},"vehicle_type_id":"4","last_reported":1746735092,"current_range_meters":11600,"station_id":"ce4bh112rcd13ifvqd90","pricing_plan_id":"cebpf4jnsgd1na2vs0mg"},{"bike_id":"b31a37d4-32bc-4201-9546-3b8be6093d7d","system_id":"levelo_inurba_marseille","lat":43.32361,"lon":5.36747,"is_reserved":false,"is_disabled":false,"rental_uris":{"android":"levelo://app?vid=b31a37d4-32bc-4201-9546-3b8be6093d7d","ios":"levelo://app?vid=b31a37d4-32bc-4201-9546-3b8be6093d7d"},"vehicle_type_id":"4","last_reported":1746735092,"current_range_meters":14000,"station_id":"ce4bhsh2rcd13ifvqi2g","pricing_plan_id":"cebpf4jnsgd1na2vs0mg"},{"bike_id":"a11d56dd-2ff2-4e88-9197-b1ce2dda01fd","system_id":"levelo_inurba_marseille","lat":43.30328,"lon":5.40443,"is_reserved":false,"is_disabled":false,"rental_uris":{"android":"levelo://app?vid=a11d56dd-2ff2-4e88-9197-b1ce2dda01fd","ios":"levelo://app?vid=a11d56dd-2ff2-4e88-9197-b1ce2dda01fd"},"vehicle_type_id":"4","last_reported":1746735092,"current_range_meters":12000,"station_id":"ce4bh012rcd13ifvqd10","pricing_plan_id":"cebpf4jnsgd1na2vs0mg"},{"bike_id":"36671980-e086-4a5e-ba83-d6788a761960","system_id":"levelo_inurba_marseille","lat":43.24181,"lon":5.3973,"is_reserved":false,"is_disabled":false,"rental_uris":{"android":"levelo://app?vid=36671980-e086-4a5e-ba83-d6788a761960","ios":"levelo://app?vid=36671980-e086-4a5e-ba83-d6788a761960"},"vehicle_type_id":"4","last_reported":1746735092,"current_range_meters":12000,"station_id":"ce4bhn12rcd13ifvqgpg","pricing_plan_id":"cebpf4jnsgd1na2vs0mg"},{"bike_id":"211f64bf-a703-4d2b-939e-a3896381b902","system_id":"levelo_inurba_marseille","lat":43.25726,"lon":5.41113,"is_reserved":false,"is_disabled":false,"rental_uris":{"android":"levelo://app?vid=211f64bf-a703-4d2b-939e-a3896381b902","ios":"levelo://app?vid=211f64bf-a703-4d2b-939e-a3896381b902"},"vehicle_type_id":"4","last_reported":1746735092,"current_range_meters":12000,"station_id":"ce4bhkp2rcd13ifvqgd0","pricing_plan_id":"cebpf4jnsgd1na2vs0mg"},{"bike_id":"4c94911e-03ab-45c0-8698-a46cda31a6c2","system_id":"levelo_inurba_marseille","lat":43.29564,"lon":5.37537,"is_reserved":false,"is_disabled":false,"rental_uris":{"android":"levelo://app?vid=4c94911e-03ab-45c0-8698-a46cda31a6c2","ios":"levelo://app?vid=4c94911e-03ab-45c0-8698-a46cda31a6c2"},"vehicle_type_id":"4","last_reported":1746735092,"current_range_meters":12000,"station_id":"ce4bgh92rcd13ifvqb50","pricing_plan_id":"cebpf4jnsgd1na2vs0mg"},{"bike_id":"7e699623-9ac4-4a0f-8e0e-3645bac122df","system_id":"levelo_inurba_marseille","lat":43.29527,"lon":5.394,"is_reserved":false,"is_disabled":false,"rental_uris":{"android":"levelo://app?vid=7e699623-9ac4-4a0f-8e0e-3645bac122df","ios":"levelo://app?vid=7e699623-9ac4-4a0f-8e0e-3645bac122df"},"vehicle_type_id":"4","last_reported":1746735092,"current_range_meters":12000,"station_id":"ce4bh292rcd13ifvqdf0","pricing_plan_id":"cebpf4jnsgd1na2vs0mg"},{"bike_id":"e71cb7e4-311c-42cd-946a-acbf71c259f6","system_id":"levelo_inurba_marseille","lat":43.30962,"lon":5.39058,"is_reserved":false,"is_disabled":false,"rental_uris":{"android":"levelo://app?vid=e71cb7e4-311c-42cd-946a-acbf71c259f6","ios":"levelo://app?vid=e71cb7e4-311c-42cd-946a-acbf71c259f6"},"vehicle_type_id":"4","last_reported":1746735092,"current_range_meters":12000,"station_id":"ce4bgup2rcd13ifvqco0","pricing_plan_id":"cebpf4jnsgd1na2vs0mg"},{"bike_id":"d9ba293b-e719-4ff0-adfb-8ba143900604","system_id":"levelo_inurba_marseille","lat":43.292572,"lon":5.384075,"is_reserved":false,"is_disabled":false,"rental_uris":{"android":"levelo://app?vid=d9ba293b-e719-4ff0-adfb-8ba143900604","ios":"levelo://app?vid=d9ba293b-e719-4ff0-adfb-8ba143900604"},"vehicle_type_id":"4","last_reported":1746735092,"current_range_meters":12000,"station_id":"","pricing_plan_id":"cebpf4jnsgd1na2vs0mg"},{"bike_id":"de013846-7e78-425a-b5a3-0246b87234d1","system_id":"levelo_inurba_marseille","lat":43.27057,"lon":5.40256,"is_reserved":false,"is_disabled":false,"rental_uris":{"android":"levelo://app?vid=de013846-7e78-425a-b5a3-0246b87234d1","ios":"levelo://app?vid=de013846-7e78-425a-b5a3-0246b87234d1"},"vehicle_type_id":"4","last_reported":1746735092,"current_range_meters":12000,"station_id":"ce4bhk92rcd13ifvqgc0","pricing_plan_id":"cebpf4jnsgd1na2vs0mg"},{"bike_id":"ff47c92b-db73-42bd-99d4-eeb774bdf3be","system_id":"levelo_inurba_marseille","lat":43.31075,"lon":5.38354,"is_reserved":false,"is_disabled":true,"rental_uris":{"android":"levelo://app?vid=ff47c92b-db73-42bd-99d4-eeb774bdf3be","ios":"levelo://app?vid=ff47c92b-db73-42bd-99d4-eeb774bdf3be"},"vehicle_type_id":"4","last_reported":1746735092,"current_range_meters":12000,"station_id":"ce4bgv92rcd13ifvqcr0","pricing_plan_id":"cebpf4jnsgd1na2vs0mg"},{"bike_id":"caccb556-2ad0-45b8-84b8-819024dd44e6","system_id":"levelo_inurba_marseille","lat":43.29776,"lon":5.368,"is_reserved":false,"is_disabled":false,"rental_uris":{"android":"levelo://app?vid=caccb556-2ad0-45b8-84b8-819024dd44e6","ios":"levelo://app?vid=caccb556-2ad0-45b8-84b8-819024dd44e6"},"vehicle_type_id":"4","last_reported":1746735092,"current_range_meters":12400,"station_id":"","pricing_plan_id":"cebpf4jnsgd1na2vs0mg"},{"bike_id":"6a8c5da2-a17a-424b-a635-5d30466a4e42","system_id":"levelo_inurba_marseille","lat":43.295503,"lon":5.374262,"is_reserved":false,"is_disabled":false,"rental_uris":{"android":"levelo://app?vid=6a8c5da2-a17a-424b-a635-5d30466a4e42","ios":"levelo://app?vid=6a8c5da2-a17a-424b-a635-5d30466a4e42"},"vehicle_type_id":"4","last_reported":1746735092,"current_range_meters":12400,"station_id":"ce4bgkp2rcd13ifvqbmg","pricing_plan_id":"cebpf4jnsgd1na2vs0mg"},{"bike_id":"f4928b6a-3b6f-4b42-b199-710e9a5157e1","system_id":"levelo_inurba_marseille","lat":43.29262,"lon":5.38435,"is_reserved":false,"is_disabled":false,"rental_uris":{"android":"levelo://app?vid=f4928b6a-3b6f-4b42-b199-710e9a5157e1","ios":"levelo://app?vid=f4928b6a-3b6f-4b42-b199-710e9a5157e1"},"vehicle_type_id":"4","last_reported":1746735092,"current_range_meters":12400,"station_id":"ce4bh692rcd13ifvqea0","pricing_plan_id":"cebpf4jnsgd1na2vs0mg"},{"bike_id":"bf2bbac1-597b-4c47-abea-a0395d249249","system_id":"levelo_inurba_marseille","lat":43.24805,"lon":5.37456,"is_reserved":false,"is_disabled":false,"rental_uris":{"android":"levelo://app?vid=bf2bbac1-597b-4c47-abea-a0395d249249","ios":"levelo://app?vid=bf2bbac1-597b-4c47-abea-a0395d249249"},"vehicle_type_id":"4","last_reported":1746735092,"current_range_meters":12400,"station_id":"ce4bhgh2rcd13ifvqfb0","pricing_plan_id":"cebpf4jnsgd1na2vs0mg"},{"bike_id":"c4eb2598-4a24-456f-8837-c6f00a71189c","system_id":"levelo_inurba_marseille","lat":43.29579,"lon":5.37523,"is_reserved":false,"is_disabled":false,"rental_uris":{"android":"levelo://app?vid=c4eb2598-4a24-456f-8837-c6f00a71189c","ios":"levelo://app?vid=c4eb2598-4a24-456f-8837-c6f00a71189c"},"vehicle_type_id":"4","last_reported":1746735092,"current_range_meters":12400,"station_id":"ce4bgh92rcd13ifvqb50","pricing_plan_id":"cebpf4jnsgd1na2vs0mg"},{"bike_id":"f4d194c2-e60b-41be-8588-bbfddaed3c88","system_id":"levelo_inurba_marseille","lat":43.29421,"lon":5.38628,"is_reserved":false,"is_disabled":false,"rental_uris":{"android":"levelo://app?vid=f4d194c2-e60b-41be-8588-bbfddaed3c88","ios":"levelo://app?vid=f4d194c2-e60b-41be-8588-bbfddaed3c88"},"vehicle_type_id":"4","last_reported":1746735092,"current_range_meters":12400,"station_id":"ce4bh2h2rcd13ifvqdh0","pricing_plan_id":"cebpf4jnsgd1na2vs0mg"},{"bike_id":"a2309e80-b2ba-42c9-9c60-147f0babf9f9","system_id":"levelo_inurba_marseille","lat":43.30834,"lon":5.37046,"is_reserved":false,"is_disabled":false,"rental_uris":{"android":"levelo://app?vid=a2309e80-b2ba-42c9-9c60-147f0babf9f9","ios":"levelo://app?vid=a2309e80-b2ba-42c9-9c60-147f0babf9f9"},"vehicle_type_id":"4","last_reported":1746735092,"current_range_meters":12800,"station_id":"","pricing_plan_id":"cebpf4jnsgd1na2vs0mg"},{"bike_id":"89f953df-2061-408d-8f0d-6a2938e5443a","system_id":"levelo_inurba_marseille","lat":43.23671,"lon":5.4036,"is_reserved":false,"is_disabled":false,"rental_uris":{"android":"levelo://app?vid=89f953df-2061-408d-8f0d-6a2938e5443a","ios":"levelo://app?vid=89f953df-2061-408d-8f0d-6a2938e5443a"},"vehicle_type_id":"4","last_reported":1746735092,"current_range_meters":12800,"station_id":"","pricing_plan_id":"cebpf4jnsgd1na2vs0mg"},{"bike_id":"df65eb14-d74a-45ba-ac4c-380129c3227b","system_id":"levelo_inurba_marseille","lat":43.29629,"lon":5.40605,"is_reserved":false,"is_disabled":false,"rental_uris":{"android":"levelo://app?vid=df65eb14-d74a-45ba-ac4c-380129c3227b","ios":"levelo://app?vid=df65eb14-d74a-45ba-ac4c-380129c3227b"},"vehicle_type_id":"4","last_reported":1746735092,"current_range_meters":12800,"station_id":"ce4bh0h2rcd13ifvqd60","pricing_plan_id":"cebpf4jnsgd1na2vs0mg"},{"bike_id":"367903dc-4a93-47fe-aa81-5390fa3b5d3d","system_id":"levelo_inurba_marseille","lat":43.3032,"lon":5.4044,"is_reserved":false,"is_disabled":false,"rental_uris":{"android":"levelo://app?vid=367903dc-4a93-47fe-aa81-5390fa3b5d3d","ios":"levelo://app?vid=367903dc-4a93-47fe-aa81-5390fa3b5d3d"},"vehicle_type_id":"4","last_reported":1746735092,"current_range_meters":12800,"station_id":"ce4bh012rcd13ifvqd10","pricing_plan_id":"cebpf4jnsgd1na2vs0mg"},{"bike_id":"b3a3e640-75b8-45d7-985f-fba84c7bb172","system_id":"levelo_inurba_marseille","lat":43.29882,"lon":5.38897,"is_reserved":false,"is_disabled":false,"rental_uris":{"android":"levelo://app?vid=b3a3e640-75b8-45d7-985f-fba84c7bb172","ios":"levelo://app?vid=b3a3e640-75b8-45d7-985f-fba84c7bb172"},"vehicle_type_id":"4","last_reported":1746735092,"current_range_meters":12800,"station_id":"ce4bh392rcd13ifvqdl0","pricing_plan_id":"cebpf4jnsgd1na2vs0mg"},{"bike_id":"7e9c9eb7-363c-4d4d-b3dd-d3836107cb0e","system_id":"levelo_inurba_marseille","lat":43.299837,"lon":5.371797,"is_reserved":false,"is_disabled":false,"rental_uris":{"android":"levelo://app?vid=7e9c9eb7-363c-4d4d-b3dd-d3836107cb0e","ios":"levelo://app?vid=7e9c9eb7-363c-4d4d-b3dd-d3836107cb0e"},"vehicle_type_id":"4","last_reported":1746735092,"current_range_meters":13600,"station_id":"ce4bgr92rcd13ifvqc7g","pricing_plan_id":"cebpf4jnsgd1na2vs0mg"},{"bike_id":"15c659ca-432a-4c12-9254-ab0262d3eeda","system_id":"levelo_inurba_marseille","lat":43.23197,"lon":5.39953,"is_reserved":false,"is_disabled":false,"rental_uris":{"android":"levelo://app?vid=15c659ca-432a-4c12-9254-ab0262d3eeda","ios":"levelo://app?vid=15c659ca-432a-4c12-9254-ab0262d3eeda"},"vehicle_type_id":"4","last_reported":1746735092,"current_range_meters":13600,"station_id":"ce4bhn12rcd13ifvqgqg","pricing_plan_id":"cebpf4jnsgd1na2vs0mg"},{"bike_id":"c37757a3-6ce5-4c99-b134-5be7632adddc","system_id":"levelo_inurba_marseille","lat":43.29286,"lon":5.40125,"is_reserved":false,"is_disabled":false,"rental_uris":{"android":"levelo://app?vid=c37757a3-6ce5-4c99-b134-5be7632adddc","ios":"levelo://app?vid=c37757a3-6ce5-4c99-b134-5be7632adddc"},"vehicle_type_id":"4","last_reported":1746735092,"current_range_meters":13600,"station_id":"ce4bh312rcd13ifvqdk0","pricing_plan_id":"cebpf4jnsgd1na2vs0mg"},{"bike_id":"67ec731b-84e5-49af-96a7-2577c389fd51","system_id":"levelo_inurba_marseille","lat":43.29599,"lon":5.38069,"is_reserved":false,"is_disabled":false,"rental_uris":{"android":"levelo://app?vid=67ec731b-84e5-49af-96a7-2577c389fd51","ios":"levelo://app?vid=67ec731b-84e5-49af-96a7-2577c389fd51"},"vehicle_type_id":"4","last_reported":1746735092,"current_range_meters":13600,"station_id":"ce4bgl12rcd13ifvqbo0","pricing_plan_id":"cebpf4jnsgd1na2vs0mg"},{"bike_id":"c2a29da0-9ef9-431e-bd8b-bd1a2a8fc9c0","system_id":"levelo_inurba_marseille","lat":43.24677,"lon":5.38155,"is_reserved":false,"is_disabled":false,"rental_uris":{"android":"levelo://app?vid=c2a29da0-9ef9-431e-bd8b-bd1a2a8fc9c0","ios":"levelo://app?vid=c2a29da0-9ef9-431e-bd8b-bd1a2a8fc9c0"},"vehicle_type_id":"4","last_reported":1746735092,"current_range_meters":13600,"station_id":"ce4bhih2rcd13ifvqfr0","pricing_plan_id":"cebpf4jnsgd1na2vs0mg"},{"bike_id":"e6282093-23fb-41a9-859d-c0d9ad966535","system_id":"levelo_inurba_marseille","lat":43.31573,"lon":5.38254,"is_reserved":false,"is_disabled":false,"rental_uris":{"android":"levelo://app?vid=e6282093-23fb-41a9-859d-c0d9ad966535","ios":"levelo://app?vid=e6282093-23fb-41a9-859d-c0d9ad966535"},"vehicle_type_id":"4","last_reported":1746735092,"current_range_meters":13600,"station_id":"","pricing_plan_id":"cebpf4jnsgd1na2vs0mg"},{"bike_id":"5e4980f5-4a5e-4dd2-84e5-00cf593a2f81","system_id":"levelo_inurba_marseille","lat":43.31752,"lon":5.39022,"is_reserved":false,"is_disabled":false,"rental_uris":{"android":"levelo://app?vid=5e4980f5-4a5e-4dd2-84e5-00cf593a2f81","ios":"levelo://app?vid=5e4980f5-4a5e-4dd2-84e5-00cf593a2f81"},"vehicle_type_id":"4","last_reported":1746735092,"current_range_meters":13600,"station_id":"ce4bhqp2rcd13ifvqhng","pricing_plan_id":"cebpf4jnsgd1na2vs0mg"},{"bike_id":"6fe4edd0-5f22-45d0-9b9f-de7ebc144107","system_id":"levelo_inurba_marseille","lat":43.28037,"lon":5.36934,"is_reserved":false,"is_disabled":true,"rental_uris":{"android":"levelo://app?vid=6fe4edd0-5f22-45d0-9b9f-de7ebc144107","ios":"levelo://app?vid=6fe4edd0-5f22-45d0-9b9f-de7ebc144107"},"vehicle_type_id":"4","last_reported":1746735092,"current_range_meters":13600,"station_id":"ce4bha12rcd13ifvqef0","pricing_plan_id":"cebpf4jnsgd1na2vs0mg"},{"bike_id":"11db7af6-89d5-41b0-861b-4762dc88b9ce","system_id":"levelo_inurba_marseille","lat":43.33605,"lon":5.41028,"is_reserved":false,"is_disabled":false,"rental_uris":{"android":"levelo://app?vid=11db7af6-89d5-41b0-861b-4762dc88b9ce","ios":"levelo://app?vid=11db7af6-89d5-41b0-861b-4762dc88b9ce"},"vehicle_type_id":"4","last_reported":1746735092,"current_range_meters":14000,"station_id":"ce4bhqh2rcd13ifvqhmg","pricing_plan_id":"cebpf4jnsgd1na2vs0mg"},{"bike_id":"2a7c3d64-e85b-4d21-83fc-024aff1c303c","system_id":"levelo_inurba_marseille","lat":43.29265,"lon":5.38452,"is_reserved":false,"is_disabled":false,"rental_uris":{"android":"levelo://app?vid=2a7c3d64-e85b-4d21-83fc-024aff1c303c","ios":"levelo://app?vid=2a7c3d64-e85b-4d21-83fc-024aff1c303c"},"vehicle_type_id":"4","last_reported":1746735092,"current_range_meters":14000,"station_id":"ce4bh692rcd13ifvqea0","pricing_plan_id":"cebpf4jnsgd1na2vs0mg"},{"bike_id":"f72abe5a-72e2-4b02-9a78-329b03b29a0e","system_id":"levelo_inurba_marseille","lat":43.28669,"lon":5.38666,"is_reserved":false,"is_disabled":false,"rental_uris":{"android":"levelo://app?vid=f72abe5a-72e2-4b02-9a78-329b03b29a0e","ios":"levelo://app?vid=f72abe5a-72e2-4b02-9a78-329b03b29a0e"},"vehicle_type_id":"4","last_reported":1746735092,"current_range_meters":14000,"station_id":"ce4bh492rcd13ifvqdug","pricing_plan_id":"cebpf4jnsgd1na2vs0mg"},{"bike_id":"21c17f45-e4b9-407f-9d57-3eab1d63d70a","system_id":"levelo_inurba_marseille","lat":43.31121,"lon":5.37778,"is_reserved":false,"is_disabled":false,"rental_uris":{"android":"levelo://app?vid=21c17f45-e4b9-407f-9d57-3eab1d63d70a","ios":"levelo://app?vid=21c17f45-e4b9-407f-9d57-3eab1d63d70a"},"vehicle_type_id":"4","last_reported":1746735092,"current_range_meters":14000,"station_id":"ce4bgt92rcd13ifvqcg0","pricing_plan_id":"cebpf4jnsgd1na2vs0mg"},{"bike_id":"0a0b07b7-7f42-4606-9b7d-75387fa83a22","system_id":"levelo_inurba_marseille","lat":43.24806,"lon":5.374581,"is_reserved":false,"is_disabled":false,"rental_uris":{"android":"levelo://app?vid=0a0b07b7-7f42-4606-9b7d-75387fa83a22","ios":"levelo://app?vid=0a0b07b7-7f42-4606-9b7d-75387fa83a22"},"vehicle_type_id":"4","last_reported":1746735092,"current_range_meters":14000,"station_id":"ce4bhgh2rcd13ifvqfb0","pricing_plan_id":"cebpf4jnsgd1na2vs0mg"},{"bike_id":"5671a842-8d51-46b5-a438-1d54fb65dc22","system_id":"levelo_inurba_marseille","lat":43.29893,"lon":5.43669,"is_reserved":false,"is_disabled":false,"rental_uris":{"android":"levelo://app?vid=5671a842-8d51-46b5-a438-1d54fb65dc22","ios":"levelo://app?vid=5671a842-8d51-46b5-a438-1d54fb65dc22"},"vehicle_type_id":"4","last_reported":1746735092,"current_range_meters":14400,"station_id":"ce4bhpp2rcd13ifvqhfg","pricing_plan_id":"cebpf4jnsgd1na2vs0mg"},{"bike_id":"0a3f35bb-50ff-40de-a557-5e4cd0283fd9","system_id":"levelo_inurba_marseille","lat":43.29263,"lon":5.38462,"is_reserved":false,"is_disabled":false,"rental_uris":{"android":"levelo://app?vid=0a3f35bb-50ff-40de-a557-5e4cd0283fd9","ios":"levelo://app?vid=0a3f35bb-50ff-40de-a557-5e4cd0283fd9"},"vehicle_type_id":"4","last_reported":1746735092,"current_range_meters":14400,"station_id":"ce4bh692rcd13ifvqea0","pricing_plan_id":"cebpf4jnsgd1na2vs0mg"},{"bike_id":"0477dad0-94d6-4f77-9e04-54115d8ec573","system_id":"levelo_inurba_marseille","lat":43.30318,"lon":5.40435,"is_reserved":false,"is_disabled":false,"rental_uris":{"android":"levelo://app?vid=0477dad0-94d6-4f77-9e04-54115d8ec573","ios":"levelo://app?vid=0477dad0-94d6-4f77-9e04-54115d8ec573"},"vehicle_type_id":"4","last_reported":1746735092,"current_range_meters":14400,"station_id":"ce4bh012rcd13ifvqd10","pricing_plan_id":"cebpf4jnsgd1na2vs0mg"},{"bike_id":"05e169c8-08d5-44b5-9784-46b2f0634ecd","system_id":"levelo_inurba_marseille","lat":43.29008,"lon":5.35606,"is_reserved":false,"is_disabled":false,"rental_uris":{"android":"levelo://app?vid=05e169c8-08d5-44b5-9784-46b2f0634ecd","ios":"levelo://app?vid=05e169c8-08d5-44b5-9784-46b2f0634ecd"},"vehicle_type_id":"4","last_reported":1746735092,"current_range_meters":14400,"station_id":"ce4bhb92rcd13ifvqen0","pricing_plan_id":"cebpf4jnsgd1na2vs0mg"},{"bike_id":"c42d0137-01db-4e02-8a6e-f9af61ad1319","system_id":"levelo_inurba_marseille","lat":43.314859,"lon":5.373049,"is_reserved":false,"is_disabled":false,"rental_uris":{"android":"levelo://app?vid=c42d0137-01db-4e02-8a6e-f9af61ad1319","ios":"levelo://app?vid=c42d0137-01db-4e02-8a6e-f9af61ad1319"},"vehicle_type_id":"4","last_reported":1746735092,"current_range_meters":14400,"station_id":"ce4bgt12rcd13ifvqcd0","pricing_plan_id":"cebpf4jnsgd1na2vs0mg"},{"bike_id":"9962b8cb-c94d-4a94-804b-a946a3138815","system_id":"levelo_inurba_marseille","lat":43.31295,"lon":5.37324,"is_reserved":false,"is_disabled":false,"rental_uris":{"android":"levelo://app?vid=9962b8cb-c94d-4a94-804b-a946a3138815","ios":"levelo://app?vid=9962b8cb-c94d-4a94-804b-a946a3138815"},"vehicle_type_id":"4","last_reported":1746735092,"current_range_meters":14800,"station_id":"","pricing_plan_id":"cebpf4jnsgd1na2vs0mg"},{"bike_id":"cacec4d0-2192-4d88-9d0c-fda2092e1840","system_id":"levelo_inurba_marseille","lat":43.28408,"lon":5.37533,"is_reserved":false,"is_disabled":true,"rental_uris":{"android":"levelo://app?vid=cacec4d0-2192-4d88-9d0c-fda2092e1840","ios":"levelo://app?vid=cacec4d0-2192-4d88-9d0c-fda2092e1840"},"vehicle_type_id":"4","last_reported":1746735092,"current_range_meters":14800,"station_id":"ce4bh412rcd13ifvqds0","pricing_plan_id":"cebpf4jnsgd1na2vs0mg"},{"bike_id":"049dee66-f320-4a39-90d5-cac240a0fc35","system_id":"levelo_inurba_marseille","lat":43.27077,"lon":5.42276,"is_reserved":false,"is_disabled":false,"rental_uris":{"android":"levelo://app?vid=049dee66-f320-4a39-90d5-cac240a0fc35","ios":"levelo://app?vid=049dee66-f320-4a39-90d5-cac240a0fc35"},"vehicle_type_id":"4","last_reported":1746735092,"current_range_meters":14800,"station_id":"ce4bhk92rcd13ifvqgb0","pricing_plan_id":"cebpf4jnsgd1na2vs0mg"},{"bike_id":"3d1ff81c-73a8-4288-8074-fc685f59a72f","system_id":"levelo_inurba_marseille","lat":43.28935,"lon":5.36646,"is_reserved":false,"is_disabled":false,"rental_uris":{"android":"levelo://app?vid=3d1ff81c-73a8-4288-8074-fc685f59a72f","ios":"levelo://app?vid=3d1ff81c-73a8-4288-8074-fc685f59a72f"},"vehicle_type_id":"4","last_reported":1746735092,"current_range_meters":14800,"station_id":"ce4bhap2rcd13ifvqek0","pricing_plan_id":"cebpf4jnsgd1na2vs0mg"},{"bike_id":"772e63dd-73ed-4ad8-bbc6-f53cc71bfe9a","system_id":"levelo_inurba_marseille","lat":43.279771,"lon":5.387114,"is_reserved":false,"is_disabled":false,"rental_uris":{"android":"levelo://app?vid=772e63dd-73ed-4ad8-bbc6-f53cc71bfe9a","ios":"levelo://app?vid=772e63dd-73ed-4ad8-bbc6-f53cc71bfe9a"},"vehicle_type_id":"4","last_reported":1746735092,"current_range_meters":14800,"station_id":"ce4bhg12rcd13ifvqf80","pricing_plan_id":"cebpf4jnsgd1na2vs0mg"},{"bike_id":"06654f1e-ed75-4ab7-9d49-95769f2e65af","system_id":"levelo_inurba_marseille","lat":43.21763,"lon":5.346,"is_reserved":false,"is_disabled":false,"rental_uris":{"android":"levelo://app?vid=06654f1e-ed75-4ab7-9d49-95769f2e65af","ios":"levelo://app?vid=06654f1e-ed75-4ab7-9d49-95769f2e65af"},"vehicle_type_id":"4","last_reported":1746735092,"current_range_meters":15200,"station_id":"st_cvj6r9ubvosntc0bgbag","pricing_plan_id":"cebpf4jnsgd1na2vs0mg"},{"bike_id":"716d91a3-a59a-46e6-98c4-2cfe3178f38c","system_id":"levelo_inurba_marseille","lat":43.31764,"lon":5.39017,"is_reserved":false,"is_disabled":false,"rental_uris":{"android":"levelo://app?vid=716d91a3-a59a-46e6-98c4-2cfe3178f38c","ios":"levelo://app?vid=716d91a3-a59a-46e6-98c4-2cfe3178f38c"},"vehicle_type_id":"4","last_reported":1746735092,"current_range_meters":15200,"station_id":"ce4bhqp2rcd13ifvqhng","pricing_plan_id":"cebpf4jnsgd1na2vs0mg"},{"bike_id":"b0c54ead-2c9a-4d45-904a-5e1b9abf7338","system_id":"levelo_inurba_marseille","lat":43.27911,"lon":5.44071,"is_reserved":false,"is_disabled":false,"rental_uris":{"android":"levelo://app?vid=b0c54ead-2c9a-4d45-904a-5e1b9abf7338","ios":"levelo://app?vid=b0c54ead-2c9a-4d45-904a-5e1b9abf7338"},"vehicle_type_id":"4","last_reported":1746735092,"current_range_meters":15200,"station_id":"","pricing_plan_id":"cebpf4jnsgd1na2vs0mg"},{"bike_id":"0f6d8315-f668-403d-a54c-7ca5961a7dc7","system_id":"levelo_inurba_marseille","lat":43.30317,"lon":5.40445,"is_reserved":false,"is_disabled":false,"rental_uris":{"android":"levelo://app?vid=0f6d8315-f668-403d-a54c-7ca5961a7dc7","ios":"levelo://app?vid=0f6d8315-f668-403d-a54c-7ca5961a7dc7"},"vehicle_type_id":"4","last_reported":1746735092,"current_range_meters":15200,"station_id":"ce4bh012rcd13ifvqd10","pricing_plan_id":"cebpf4jnsgd1na2vs0mg"},{"bike_id":"aa9efa03-cc53-44a8-824d-3c1ca27b5373","system_id":"levelo_inurba_marseille","lat":43.29282,"lon":5.40112,"is_reserved":false,"is_disabled":false,"rental_uris":{"android":"levelo://app?vid=aa9efa03-cc53-44a8-824d-3c1ca27b5373","ios":"levelo://app?vid=aa9efa03-cc53-44a8-824d-3c1ca27b5373"},"vehicle_type_id":"4","last_reported":1746735092,"current_range_meters":16000,"station_id":"ce4bh312rcd13ifvqdk0","pricing_plan_id":"cebpf4jnsgd1na2vs0mg"},{"bike_id":"cb5516a2-bf11-4920-8aa3-25f69e624855","system_id":"levelo_inurba_marseille","lat":43.2961,"lon":5.37734,"is_reserved":false,"is_disabled":false,"rental_uris":{"android":"levelo://app?vid=cb5516a2-bf11-4920-8aa3-25f69e624855","ios":"levelo://app?vid=cb5516a2-bf11-4920-8aa3-25f69e624855"},"vehicle_type_id":"4","last_reported":1746735092,"current_range_meters":16000,"station_id":"ce4bgi92rcd13ifvqb90","pricing_plan_id":"cebpf4jnsgd1na2vs0mg"},{"bike_id":"86c53ec4-7ea9-4f42-ad35-0a03f05f161c","system_id":"levelo_inurba_marseille","lat":43.25718,"lon":5.41117,"is_reserved":false,"is_disabled":false,"rental_uris":{"android":"levelo://app?vid=86c53ec4-7ea9-4f42-ad35-0a03f05f161c","ios":"levelo://app?vid=86c53ec4-7ea9-4f42-ad35-0a03f05f161c"},"vehicle_type_id":"4","last_reported":1746735092,"current_range_meters":16000,"station_id":"ce4bhkp2rcd13ifvqgd0","pricing_plan_id":"cebpf4jnsgd1na2vs0mg"},{"bike_id":"057fc800-9f9b-44e6-8681-ad898305eaf8","system_id":"levelo_inurba_marseille","lat":43.31992,"lon":5.38168,"is_reserved":false,"is_disabled":false,"rental_uris":{"android":"levelo://app?vid=057fc800-9f9b-44e6-8681-ad898305eaf8","ios":"levelo://app?vid=057fc800-9f9b-44e6-8681-ad898305eaf8"},"vehicle_type_id":"4","last_reported":1746735092,"current_range_meters":16000,"station_id":"ce4bhr12rcd13ifvqhpg","pricing_plan_id":"cebpf4jnsgd1na2vs0mg"},{"bike_id":"3b583762-3555-444f-85a5-15e3518d9107","system_id":"levelo_inurba_marseille","lat":43.30325,"lon":5.40459,"is_reserved":false,"is_disabled":false,"rental_uris":{"android":"levelo://app?vid=3b583762-3555-444f-85a5-15e3518d9107","ios":"levelo://app?vid=3b583762-3555-444f-85a5-15e3518d9107"},"vehicle_type_id":"4","last_reported":1746735092,"current_range_meters":16000,"station_id":"ce4bh012rcd13ifvqd10","pricing_plan_id":"cebpf4jnsgd1na2vs0mg"},{"bike_id":"886fb474-0ae7-49b8-bcde-a600f0eeff88","system_id":"levelo_inurba_marseille","lat":43.30144,"lon":5.38065,"is_reserved":false,"is_disabled":false,"rental_uris":{"android":"levelo://app?vid=886fb474-0ae7-49b8-bcde-a600f0eeff88","ios":"levelo://app?vid=886fb474-0ae7-49b8-bcde-a600f0eeff88"},"vehicle_type_id":"4","last_reported":1746735092,"current_range_meters":16000,"station_id":"ce4bgjp2rcd13ifvqbh0","pricing_plan_id":"cebpf4jnsgd1na2vs0mg"},{"bike_id":"8003133d-4f16-480b-a00f-f8b759ba4ae8","system_id":"levelo_inurba_marseille","lat":43.27577,"lon":5.38407,"is_reserved":false,"is_disabled":false,"rental_uris":{"android":"levelo://app?vid=8003133d-4f16-480b-a00f-f8b759ba4ae8","ios":"levelo://app?vid=8003133d-4f16-480b-a00f-f8b759ba4ae8"},"vehicle_type_id":"4","last_reported":1746735092,"current_range_meters":16400,"station_id":"ce4bhh92rcd13ifvqfi0","pricing_plan_id":"cebpf4jnsgd1na2vs0mg"},{"bike_id":"0b8a58cc-84ce-4893-ace4-6001974b3519","system_id":"levelo_inurba_marseille","lat":43.30427,"lon":5.38909,"is_reserved":false,"is_disabled":true,"rental_uris":{"android":"levelo://app?vid=0b8a58cc-84ce-4893-ace4-6001974b3519","ios":"levelo://app?vid=0b8a58cc-84ce-4893-ace4-6001974b3519"},"vehicle_type_id":"4","last_reported":1746735092,"current_range_meters":16400,"station_id":"ce4bgk12rcd13ifvqbi0","pricing_plan_id":"cebpf4jnsgd1na2vs0mg"},{"bike_id":"dbaca5f7-d391-43f2-9a29-0ce92bb9092b","system_id":"levelo_inurba_marseille","lat":43.28732,"lon":5.37925,"is_reserved":false,"is_disabled":false,"rental_uris":{"android":"levelo://app?vid=dbaca5f7-d391-43f2-9a29-0ce92bb9092b","ios":"levelo://app?vid=dbaca5f7-d391-43f2-9a29-0ce92bb9092b"},"vehicle_type_id":"4","last_reported":1746735092,"current_range_meters":16400,"station_id":"ce4bh9p2rcd13ifvqec0","pricing_plan_id":"cebpf4jnsgd1na2vs0mg"},{"bike_id":"3032996a-f32c-4e36-8739-39873a15af8d","system_id":"levelo_inurba_marseille","lat":43.28723,"lon":5.39961,"is_reserved":false,"is_disabled":false,"rental_uris":{"android":"levelo://app?vid=3032996a-f32c-4e36-8739-39873a15af8d","ios":"levelo://app?vid=3032996a-f32c-4e36-8739-39873a15af8d"},"vehicle_type_id":"4","last_reported":1746735092,"current_range_meters":16400,"station_id":"ce4bho92rcd13ifvqh3g","pricing_plan_id":"cebpf4jnsgd1na2vs0mg"},{"bike_id":"b91b7593-12d6-4810-8c65-7be6afca8112","system_id":"levelo_inurba_marseille","lat":43.31763,"lon":5.39015,"is_reserved":false,"is_disabled":false,"rental_uris":{"android":"levelo://app?vid=b91b7593-12d6-4810-8c65-7be6afca8112","ios":"levelo://app?vid=b91b7593-12d6-4810-8c65-7be6afca8112"},"vehicle_type_id":"4","last_reported":1746735092,"current_range_meters":16400,"station_id":"ce4bhqp2rcd13ifvqhng","pricing_plan_id":"cebpf4jnsgd1na2vs0mg"},{"bike_id":"18a346d6-23ec-4a9e-b6db-63b2c969f5fa","system_id":"levelo_inurba_marseille","lat":43.31766,"lon":5.39021,"is_reserved":false,"is_disabled":false,"rental_uris":{"android":"levelo://app?vid=18a346d6-23ec-4a9e-b6db-63b2c969f5fa","ios":"levelo://app?vid=18a346d6-23ec-4a9e-b6db-63b2c969f5fa"},"vehicle_type_id":"4","last_reported":1746735092,"current_range_meters":16800,"station_id":"ce4bhqp2rcd13ifvqhng","pricing_plan_id":"cebpf4jnsgd1na2vs0mg"},{"bike_id":"2e719a53-5bb7-4e06-8c27-2cf0eae6c9f7","system_id":"levelo_inurba_marseille","lat":43.292724,"lon":5.401114,"is_reserved":false,"is_disabled":true,"rental_uris":{"android":"levelo://app?vid=2e719a53-5bb7-4e06-8c27-2cf0eae6c9f7","ios":"levelo://app?vid=2e719a53-5bb7-4e06-8c27-2cf0eae6c9f7"},"vehicle_type_id":"4","last_reported":1746735092,"current_range_meters":16800,"station_id":"ce4bh312rcd13ifvqdk0","pricing_plan_id":"cebpf4jnsgd1na2vs0mg"},{"bike_id":"d40294b7-faac-4173-bbbc-0ab2f66be5af","system_id":"levelo_inurba_marseille","lat":43.2318,"lon":5.3999,"is_reserved":false,"is_disabled":false,"rental_uris":{"android":"levelo://app?vid=d40294b7-faac-4173-bbbc-0ab2f66be5af","ios":"levelo://app?vid=d40294b7-faac-4173-bbbc-0ab2f66be5af"},"vehicle_type_id":"4","last_reported":1746735092,"current_range_meters":16800,"station_id":"ce4bhn12rcd13ifvqgqg","pricing_plan_id":"cebpf4jnsgd1na2vs0mg"},{"bike_id":"c722c223-14b6-485b-b0f8-43e43ea9db4c","system_id":"levelo_inurba_marseille","lat":43.29935,"lon":5.36534,"is_reserved":false,"is_disabled":false,"rental_uris":{"android":"levelo://app?vid=c722c223-14b6-485b-b0f8-43e43ea9db4c","ios":"levelo://app?vid=c722c223-14b6-485b-b0f8-43e43ea9db4c"},"vehicle_type_id":"4","last_reported":1746735092,"current_range_meters":16800,"station_id":"ce4bgm92rcd13ifvqbr0","pricing_plan_id":"cebpf4jnsgd1na2vs0mg"},{"bike_id":"ccf62313-6c7d-4d79-a5d7-ce161920e475","system_id":"levelo_inurba_marseille","lat":43.323635,"lon":5.367645,"is_reserved":false,"is_disabled":false,"rental_uris":{"android":"levelo://app?vid=ccf62313-6c7d-4d79-a5d7-ce161920e475","ios":"levelo://app?vid=ccf62313-6c7d-4d79-a5d7-ce161920e475"},"vehicle_type_id":"4","last_reported":1746735092,"current_range_meters":16800,"station_id":"ce4bhsh2rcd13ifvqi2g","pricing_plan_id":"cebpf4jnsgd1na2vs0mg"},{"bike_id":"8c4278dc-d95a-4ecb-9c26-06017a4b34c1","system_id":"levelo_inurba_marseille","lat":43.29046,"lon":5.37557,"is_reserved":false,"is_disabled":false,"rental_uris":{"android":"levelo://app?vid=8c4278dc-d95a-4ecb-9c26-06017a4b34c1","ios":"levelo://app?vid=8c4278dc-d95a-4ecb-9c26-06017a4b34c1"},"vehicle_type_id":"4","last_reported":1746735092,"current_range_meters":16800,"station_id":"ce4bh692rcd13ifvqe90","pricing_plan_id":"cebpf4jnsgd1na2vs0mg"},{"bike_id":"fcb56575-5e69-4e07-9685-d64c79311893","system_id":"levelo_inurba_marseille","lat":43.31309,"lon":5.39713,"is_reserved":false,"is_disabled":false,"rental_uris":{"android":"levelo://app?vid=fcb56575-5e69-4e07-9685-d64c79311893","ios":"levelo://app?vid=fcb56575-5e69-4e07-9685-d64c79311893"},"vehicle_type_id":"4","last_reported":1746735092,"current_range_meters":16800,"station_id":"ce4bgvp2rcd13ifvqcu0","pricing_plan_id":"cebpf4jnsgd1na2vs0mg"},{"bike_id":"59c9eee2-2711-40e5-ad57-f78d6a66b9e3","system_id":"levelo_inurba_marseille","lat":43.25944,"lon":5.40907,"is_reserved":false,"is_disabled":false,"rental_uris":{"android":"levelo://app?vid=59c9eee2-2711-40e5-ad57-f78d6a66b9e3","ios":"levelo://app?vid=59c9eee2-2711-40e5-ad57-f78d6a66b9e3"},"vehicle_type_id":"4","last_reported":1746735092,"current_range_meters":17200,"station_id":"ce4bhm92rcd13ifvqglg","pricing_plan_id":"cebpf4jnsgd1na2vs0mg"},{"bike_id":"45e5dcb4-87b4-45ee-93e6-47b13952a011","system_id":"levelo_inurba_marseille","lat":43.31493,"lon":5.37313,"is_reserved":false,"is_disabled":false,"rental_uris":{"android":"levelo://app?vid=45e5dcb4-87b4-45ee-93e6-47b13952a011","ios":"levelo://app?vid=45e5dcb4-87b4-45ee-93e6-47b13952a011"},"vehicle_type_id":"4","last_reported":1746735092,"current_range_meters":17200,"station_id":"ce4bgt12rcd13ifvqcd0","pricing_plan_id":"cebpf4jnsgd1na2vs0mg"},{"bike_id":"f428a50c-52eb-4ab9-b6e9-2208c30341d6","system_id":"levelo_inurba_marseille","lat":43.28149,"lon":5.42649,"is_reserved":false,"is_disabled":false,"rental_uris":{"android":"levelo://app?vid=f428a50c-52eb-4ab9-b6e9-2208c30341d6","ios":"levelo://app?vid=f428a50c-52eb-4ab9-b6e9-2208c30341d6"},"vehicle_type_id":"4","last_reported":1746735092,"current_range_meters":17200,"station_id":"ce4bhnh2rcd13ifvqgug","pricing_plan_id":"cebpf4jnsgd1na2vs0mg"},{"bike_id":"6e36e4f7-d945-4d49-a41c-9b0e5ac258fd","system_id":"levelo_inurba_marseille","lat":43.29972,"lon":5.37193,"is_reserved":false,"is_disabled":false,"rental_uris":{"android":"levelo://app?vid=6e36e4f7-d945-4d49-a41c-9b0e5ac258fd","ios":"levelo://app?vid=6e36e4f7-d945-4d49-a41c-9b0e5ac258fd"},"vehicle_type_id":"4","last_reported":1746735092,"current_range_meters":17600,"station_id":"ce4bgr92rcd13ifvqc7g","pricing_plan_id":"cebpf4jnsgd1na2vs0mg"},{"bike_id":"1eae8875-97d6-4285-b520-c6c5b7bd55e5","system_id":"levelo_inurba_marseille","lat":43.29712,"lon":5.36624,"is_reserved":false,"is_disabled":true,"rental_uris":{"android":"levelo://app?vid=1eae8875-97d6-4285-b520-c6c5b7bd55e5","ios":"levelo://app?vid=1eae8875-97d6-4285-b520-c6c5b7bd55e5"},"vehicle_type_id":"4","last_reported":1746735092,"current_range_meters":17600,"station_id":"ce4bgn12rcd13ifvqbt0","pricing_plan_id":"cebpf4jnsgd1na2vs0mg"},{"bike_id":"3d1b69ec-901e-41c9-b962-04dc7be98976","system_id":"levelo_inurba_marseille","lat":43.32597,"lon":5.36418,"is_reserved":false,"is_disabled":false,"rental_uris":{"android":"levelo://app?vid=3d1b69ec-901e-41c9-b962-04dc7be98976","ios":"levelo://app?vid=3d1b69ec-901e-41c9-b962-04dc7be98976"},"vehicle_type_id":"4","last_reported":1746735092,"current_range_meters":17600,"station_id":"","pricing_plan_id":"cebpf4jnsgd1na2vs0mg"},{"bike_id":"e7b3db5e-5a0c-4e3b-8c7f-75793bbbfdde","system_id":"levelo_inurba_marseille","lat":43.29419,"lon":5.38622,"is_reserved":false,"is_disabled":true,"rental_uris":{"android":"levelo://app?vid=e7b3db5e-5a0c-4e3b-8c7f-75793bbbfdde","ios":"levelo://app?vid=e7b3db5e-5a0c-4e3b-8c7f-75793bbbfdde"},"vehicle_type_id":"4","last_reported":1746735092,"current_range_meters":17600,"station_id":"ce4bh2h2rcd13ifvqdh0","pricing_plan_id":"cebpf4jnsgd1na2vs0mg"},{"bike_id":"cf504049-f826-4d8f-a326-421a710b2f8c","system_id":"levelo_inurba_marseille","lat":43.3118,"lon":5.387,"is_reserved":false,"is_disabled":false,"rental_uris":{"android":"levelo://app?vid=cf504049-f826-4d8f-a326-421a710b2f8c","ios":"levelo://app?vid=cf504049-f826-4d8f-a326-421a710b2f8c"},"vehicle_type_id":"4","last_reported":1746735092,"current_range_meters":17600,"station_id":"ce4bgv12rcd13ifvqcp0","pricing_plan_id":"cebpf4jnsgd1na2vs0mg"},{"bike_id":"dd05ef55-0387-4fd2-a5b9-e7d9788117ef","system_id":"levelo_inurba_marseille","lat":43.26074,"lon":5.39403,"is_reserved":false,"is_disabled":false,"rental_uris":{"android":"levelo://app?vid=dd05ef55-0387-4fd2-a5b9-e7d9788117ef","ios":"levelo://app?vid=dd05ef55-0387-4fd2-a5b9-e7d9788117ef"},"vehicle_type_id":"4","last_reported":1746735092,"current_range_meters":17600,"station_id":"ce4bhh92rcd13ifvqfj0","pricing_plan_id":"cebpf4jnsgd1na2vs0mg"},{"bike_id":"2c5fb153-2d2a-4fe1-8a21-4290161ad984","system_id":"levelo_inurba_marseille","lat":43.314904,"lon":5.373064,"is_reserved":false,"is_disabled":false,"rental_uris":{"android":"levelo://app?vid=2c5fb153-2d2a-4fe1-8a21-4290161ad984","ios":"levelo://app?vid=2c5fb153-2d2a-4fe1-8a21-4290161ad984"},"vehicle_type_id":"4","last_reported":1746735092,"current_range_meters":17600,"station_id":"ce4bgt12rcd13ifvqcd0","pricing_plan_id":"cebpf4jnsgd1na2vs0mg"},{"bike_id":"920e46da-4d6f-4ae7-b1f7-8a0212735ba3","system_id":"levelo_inurba_marseille","lat":43.2884,"lon":5.39318,"is_reserved":false,"is_disabled":false,"rental_uris":{"android":"levelo://app?vid=920e46da-4d6f-4ae7-b1f7-8a0212735ba3","ios":"levelo://app?vid=920e46da-4d6f-4ae7-b1f7-8a0212735ba3"},"vehicle_type_id":"4","last_reported":1746735092,"current_range_meters":17600,"station_id":"ce4bh2p2rcd13ifvqdi0","pricing_plan_id":"cebpf4jnsgd1na2vs0mg"},{"bike_id":"89a8647d-096e-483f-8bf6-67cbdf72afe2","system_id":"levelo_inurba_marseille","lat":43.2808,"lon":5.39661,"is_reserved":false,"is_disabled":false,"rental_uris":{"android":"levelo://app?vid=89a8647d-096e-483f-8bf6-67cbdf72afe2","ios":"levelo://app?vid=89a8647d-096e-483f-8bf6-67cbdf72afe2"},"vehicle_type_id":"4","last_reported":1746735092,"current_range_meters":18000,"station_id":"ce4bho12rcd13ifvqh2g","pricing_plan_id":"cebpf4jnsgd1na2vs0mg"},{"bike_id":"c397a909-5fb9-4b0b-a75b-14d18f03176a","system_id":"levelo_inurba_marseille","lat":43.30893,"lon":5.3963,"is_reserved":false,"is_disabled":false,"rental_uris":{"android":"levelo://app?vid=c397a909-5fb9-4b0b-a75b-14d18f03176a","ios":"levelo://app?vid=c397a909-5fb9-4b0b-a75b-14d18f03176a"},"vehicle_type_id":"4","last_reported":1746735092,"current_range_meters":18000,"station_id":"ce4bh012rcd13ifvqcv0","pricing_plan_id":"cebpf4jnsgd1na2vs0mg"},{"bike_id":"90aaaa1b-dccc-4168-b363-d25c9c0459cf","system_id":"levelo_inurba_marseille","lat":43.32367,"lon":5.38887,"is_reserved":false,"is_disabled":false,"rental_uris":{"android":"levelo://app?vid=90aaaa1b-dccc-4168-b363-d25c9c0459cf","ios":"levelo://app?vid=90aaaa1b-dccc-4168-b363-d25c9c0459cf"},"vehicle_type_id":"4","last_reported":1746735092,"current_range_meters":18000,"station_id":"ce4bhqp2rcd13ifvqhog","pricing_plan_id":"cebpf4jnsgd1na2vs0mg"},{"bike_id":"985fe6f6-e64b-4952-a852-c75bf770834c","system_id":"levelo_inurba_marseille","lat":43.31692,"lon":5.40474,"is_reserved":false,"is_disabled":false,"rental_uris":{"android":"levelo://app?vid=985fe6f6-e64b-4952-a852-c75bf770834c","ios":"levelo://app?vid=985fe6f6-e64b-4952-a852-c75bf770834c"},"vehicle_type_id":"4","last_reported":1746735092,"current_range_meters":18000,"station_id":"ce4bh012rcd13ifvqd00","pricing_plan_id":"cebpf4jnsgd1na2vs0mg"},{"bike_id":"690ff1b4-1f5f-447c-9e42-37154315eff9","system_id":"levelo_inurba_marseille","lat":43.28841,"lon":5.35863,"is_reserved":false,"is_disabled":false,"rental_uris":{"android":"levelo://app?vid=690ff1b4-1f5f-447c-9e42-37154315eff9","ios":"levelo://app?vid=690ff1b4-1f5f-447c-9e42-37154315eff9"},"vehicle_type_id":"4","last_reported":1746735092,"current_range_meters":18000,"station_id":"ce4bhb12rcd13ifvqem0","pricing_plan_id":"cebpf4jnsgd1na2vs0mg"},{"bike_id":"f6f38ed0-e159-427c-936e-d1d704219efb","system_id":"levelo_inurba_marseille","lat":43.30893,"lon":5.39646,"is_reserved":false,"is_disabled":false,"rental_uris":{"android":"levelo://app?vid=f6f38ed0-e159-427c-936e-d1d704219efb","ios":"levelo://app?vid=f6f38ed0-e159-427c-936e-d1d704219efb"},"vehicle_type_id":"4","last_reported":1746735092,"current_range_meters":18000,"station_id":"ce4bh012rcd13ifvqcv0","pricing_plan_id":"cebpf4jnsgd1na2vs0mg"},{"bike_id":"dcdbb441-b13f-4818-b966-ccbe08dbc7fa","system_id":"levelo_inurba_marseille","lat":43.24816,"lon":5.37437,"is_reserved":false,"is_disabled":false,"rental_uris":{"android":"levelo://app?vid=dcdbb441-b13f-4818-b966-ccbe08dbc7fa","ios":"levelo://app?vid=dcdbb441-b13f-4818-b966-ccbe08dbc7fa"},"vehicle_type_id":"4","last_reported":1746735092,"current_range_meters":18800,"station_id":"ce4bhgh2rcd13ifvqfb0","pricing_plan_id":"cebpf4jnsgd1na2vs0mg"},{"bike_id":"0cb542d0-661d-4a86-904d-249f6866850a","system_id":"levelo_inurba_marseille","lat":43.257001,"lon":5.41075,"is_reserved":false,"is_disabled":false,"rental_uris":{"android":"levelo://app?vid=0cb542d0-661d-4a86-904d-249f6866850a","ios":"levelo://app?vid=0cb542d0-661d-4a86-904d-249f6866850a"},"vehicle_type_id":"4","last_reported":1746735092,"current_range_meters":18800,"station_id":"ce4bhkp2rcd13ifvqgd0","pricing_plan_id":"cebpf4jnsgd1na2vs0mg"},{"bike_id":"ec0b9493-0d0e-4089-bfc7-297014a1dc7c","system_id":"levelo_inurba_marseille","lat":43.28155,"lon":5.42648,"is_reserved":false,"is_disabled":false,"rental_uris":{"android":"levelo://app?vid=ec0b9493-0d0e-4089-bfc7-297014a1dc7c","ios":"levelo://app?vid=ec0b9493-0d0e-4089-bfc7-297014a1dc7c"},"vehicle_type_id":"4","last_reported":1746735092,"current_range_meters":18800,"station_id":"ce4bhnh2rcd13ifvqgug","pricing_plan_id":"cebpf4jnsgd1na2vs0mg"},{"bike_id":"01ad4e7e-edac-4e3a-9af6-a5e9d23c9bb8","system_id":"levelo_inurba_marseille","lat":43.31076,"lon":5.38361,"is_reserved":false,"is_disabled":false,"rental_uris":{"android":"levelo://app?vid=01ad4e7e-edac-4e3a-9af6-a5e9d23c9bb8","ios":"levelo://app?vid=01ad4e7e-edac-4e3a-9af6-a5e9d23c9bb8"},"vehicle_type_id":"4","last_reported":1746735092,"current_range_meters":18800,"station_id":"ce4bgv92rcd13ifvqcr0","pricing_plan_id":"cebpf4jnsgd1na2vs0mg"},{"bike_id":"55a95d1c-f87e-471b-8e0e-5e38298a524e","system_id":"levelo_inurba_marseille","lat":43.3014,"lon":5.37429,"is_reserved":false,"is_disabled":false,"rental_uris":{"android":"levelo://app?vid=55a95d1c-f87e-471b-8e0e-5e38298a524e","ios":"levelo://app?vid=55a95d1c-f87e-471b-8e0e-5e38298a524e"},"vehicle_type_id":"4","last_reported":1746735092,"current_range_meters":19200,"station_id":"ce4bgs92rcd13ifvqcc0","pricing_plan_id":"cebpf4jnsgd1na2vs0mg"},{"bike_id":"5bd8de95-e2e1-4d9f-a05e-dc9712e39491","system_id":"levelo_inurba_marseille","lat":43.30148,"lon":5.38773,"is_reserved":false,"is_disabled":false,"rental_uris":{"android":"levelo://app?vid=5bd8de95-e2e1-4d9f-a05e-dc9712e39491","ios":"levelo://app?vid=5bd8de95-e2e1-4d9f-a05e-dc9712e39491"},"vehicle_type_id":"4","last_reported":1746735092,"current_range_meters":19200,"station_id":"ce4bghh2rcd13ifvqb60","pricing_plan_id":"cebpf4jnsgd1na2vs0mg"},{"bike_id":"214bdd82-36fc-4711-9744-b325ea4a11ae","system_id":"levelo_inurba_marseille","lat":43.29779,"lon":5.39336,"is_reserved":false,"is_disabled":false,"rental_uris":{"android":"levelo://app?vid=214bdd82-36fc-4711-9744-b325ea4a11ae","ios":"levelo://app?vid=214bdd82-36fc-4711-9744-b325ea4a11ae"},"vehicle_type_id":"4","last_reported":1746735092,"current_range_meters":19200,"station_id":"chh1huq6cuj3fo74tm60","pricing_plan_id":"cebpf4jnsgd1na2vs0mg"},{"bike_id":"b10ebc6b-f8da-48ed-9f8b-87863a46161e","system_id":"levelo_inurba_marseille","lat":43.28444,"lon":5.392081,"is_reserved":false,"is_disabled":false,"rental_uris":{"android":"levelo://app?vid=b10ebc6b-f8da-48ed-9f8b-87863a46161e","ios":"levelo://app?vid=b10ebc6b-f8da-48ed-9f8b-87863a46161e"},"vehicle_type_id":"4","last_reported":1746735092,"current_range_meters":19200,"station_id":"ce4bhoh2rcd13ifvqh5g","pricing_plan_id":"cebpf4jnsgd1na2vs0mg"},{"bike_id":"6c2e8f0c-3287-4e2a-a1fd-ae910ff387af","system_id":"levelo_inurba_marseille","lat":43.29611,"lon":5.37713,"is_reserved":false,"is_disabled":false,"rental_uris":{"android":"levelo://app?vid=6c2e8f0c-3287-4e2a-a1fd-ae910ff387af","ios":"levelo://app?vid=6c2e8f0c-3287-4e2a-a1fd-ae910ff387af"},"vehicle_type_id":"4","last_reported":1746735092,"current_range_meters":19200,"station_id":"ce4bgi92rcd13ifvqb90","pricing_plan_id":"cebpf4jnsgd1na2vs0mg"},{"bike_id":"3ddec5e8-9d48-4f1d-866c-2cb5c584adb4","system_id":"levelo_inurba_marseille","lat":43.28349,"lon":5.38707,"is_reserved":false,"is_disabled":false,"rental_uris":{"android":"levelo://app?vid=3ddec5e8-9d48-4f1d-866c-2cb5c584adb4","ios":"levelo://app?vid=3ddec5e8-9d48-4f1d-866c-2cb5c584adb4"},"vehicle_type_id":"4","last_reported":1746735092,"current_range_meters":19200,"station_id":"ce4bh492rcd13ifvqdvg","pricing_plan_id":"cebpf4jnsgd1na2vs0mg"},{"bike_id":"0ddbc89d-17e4-426d-8539-f3af2b22f6e9","system_id":"levelo_inurba_marseille","lat":43.27498,"lon":5.42449,"is_reserved":false,"is_disabled":false,"rental_uris":{"android":"levelo://app?vid=0ddbc89d-17e4-426d-8539-f3af2b22f6e9","ios":"levelo://app?vid=0ddbc89d-17e4-426d-8539-f3af2b22f6e9"},"vehicle_type_id":"4","last_reported":1746735092,"current_range_meters":19600,"station_id":"ce4bhn92rcd13ifvqgrg","pricing_plan_id":"cebpf4jnsgd1na2vs0mg"},{"bike_id":"c1041c9f-2085-470a-b13c-f88fd8323115","system_id":"levelo_inurba_marseille","lat":43.27761,"lon":5.38652,"is_reserved":false,"is_disabled":false,"rental_uris":{"android":"levelo://app?vid=c1041c9f-2085-470a-b13c-f88fd8323115","ios":"levelo://app?vid=c1041c9f-2085-470a-b13c-f88fd8323115"},"vehicle_type_id":"4","last_reported":1746735092,"current_range_meters":19600,"station_id":"","pricing_plan_id":"cebpf4jnsgd1na2vs0mg"},{"bike_id":"0bdcdff3-8294-49b9-80e9-145bbc1ad711","system_id":"levelo_inurba_marseille","lat":43.32253,"lon":5.36786,"is_reserved":false,"is_disabled":false,"rental_uris":{"android":"levelo://app?vid=0bdcdff3-8294-49b9-80e9-145bbc1ad711","ios":"levelo://app?vid=0bdcdff3-8294-49b9-80e9-145bbc1ad711"},"vehicle_type_id":"4","last_reported":1746735092,"current_range_meters":19600,"station_id":"","pricing_plan_id":"cebpf4jnsgd1na2vs0mg"},{"bike_id":"e9373e5e-35d2-468c-9317-3bfb0195ba95","system_id":"levelo_inurba_marseille","lat":43.29297,"lon":5.37462,"is_reserved":false,"is_disabled":false,"rental_uris":{"android":"levelo://app?vid=e9373e5e-35d2-468c-9317-3bfb0195ba95","ios":"levelo://app?vid=e9373e5e-35d2-468c-9317-3bfb0195ba95"},"vehicle_type_id":"4","last_reported":1746735092,"current_range_meters":19600,"station_id":"ce4bgi12rcd13ifvqb70","pricing_plan_id":"cebpf4jnsgd1na2vs0mg"},{"bike_id":"e3a9b663-80e1-4858-b608-7e2401ffe38e","system_id":"levelo_inurba_marseille","lat":43.29506,"lon":5.39405,"is_reserved":false,"is_disabled":false,"rental_uris":{"android":"levelo://app?vid=e3a9b663-80e1-4858-b608-7e2401ffe38e","ios":"levelo://app?vid=e3a9b663-80e1-4858-b608-7e2401ffe38e"},"vehicle_type_id":"4","last_reported":1746735092,"current_range_meters":19600,"station_id":"ce4bh292rcd13ifvqdf0","pricing_plan_id":"cebpf4jnsgd1na2vs0mg"},{"bike_id":"49ea43fd-5e18-47f3-9932-47beb07ae6ba","system_id":"levelo_inurba_marseille","lat":43.29269,"lon":5.38452,"is_reserved":false,"is_disabled":false,"rental_uris":{"android":"levelo://app?vid=49ea43fd-5e18-47f3-9932-47beb07ae6ba","ios":"levelo://app?vid=49ea43fd-5e18-47f3-9932-47beb07ae6ba"},"vehicle_type_id":"4","last_reported":1746735092,"current_range_meters":19600,"station_id":"ce4bh692rcd13ifvqea0","pricing_plan_id":"cebpf4jnsgd1na2vs0mg"},{"bike_id":"466dbdb3-1177-4eb2-9f09-f2c33bc85a8b","system_id":"levelo_inurba_marseille","lat":43.27907,"lon":5.3802,"is_reserved":false,"is_disabled":false,"rental_uris":{"android":"levelo://app?vid=466dbdb3-1177-4eb2-9f09-f2c33bc85a8b","ios":"levelo://app?vid=466dbdb3-1177-4eb2-9f09-f2c33bc85a8b"},"vehicle_type_id":"4","last_reported":1746735092,"current_range_meters":20000,"station_id":"ce4bhf92rcd13ifvqf50","pricing_plan_id":"cebpf4jnsgd1na2vs0mg"},{"bike_id":"148274b3-3d5b-45af-8ffb-5ad8dd9660a0","system_id":"levelo_inurba_marseille","lat":43.29966,"lon":5.38501,"is_reserved":false,"is_disabled":false,"rental_uris":{"android":"levelo://app?vid=148274b3-3d5b-45af-8ffb-5ad8dd9660a0","ios":"levelo://app?vid=148274b3-3d5b-45af-8ffb-5ad8dd9660a0"},"vehicle_type_id":"4","last_reported":1746735092,"current_range_meters":20000,"station_id":"ce4bgj92rcd13ifvqbd0","pricing_plan_id":"cebpf4jnsgd1na2vs0mg"},{"bike_id":"cfcdad2f-dedc-4a97-aa80-59081a565d4f","system_id":"levelo_inurba_marseille","lat":43.29373,"lon":5.37851,"is_reserved":false,"is_disabled":false,"rental_uris":{"android":"levelo://app?vid=cfcdad2f-dedc-4a97-aa80-59081a565d4f","ios":"levelo://app?vid=cfcdad2f-dedc-4a97-aa80-59081a565d4f"},"vehicle_type_id":"4","last_reported":1746735092,"current_range_meters":20000,"station_id":"ce4bgjh2rcd13ifvqbf0","pricing_plan_id":"cebpf4jnsgd1na2vs0mg"},{"bike_id":"60ea5b34-f890-45c8-8234-2141d8fe4778","system_id":"levelo_inurba_marseille","lat":43.25107,"lon":5.40323,"is_reserved":false,"is_disabled":false,"rental_uris":{"android":"levelo://app?vid=60ea5b34-f890-45c8-8234-2141d8fe4778","ios":"levelo://app?vid=60ea5b34-f890-45c8-8234-2141d8fe4778"},"vehicle_type_id":"4","last_reported":1746735092,"current_range_meters":20000,"station_id":"ce4bhlh2rcd13ifvqgig","pricing_plan_id":"cebpf4jnsgd1na2vs0mg"},{"bike_id":"28135ba9-1f8f-4610-853c-6b73185ebb8b","system_id":"levelo_inurba_marseille","lat":43.284841,"lon":5.384137,"is_reserved":false,"is_disabled":false,"rental_uris":{"android":"levelo://app?vid=28135ba9-1f8f-4610-853c-6b73185ebb8b","ios":"levelo://app?vid=28135ba9-1f8f-4610-853c-6b73185ebb8b"},"vehicle_type_id":"4","last_reported":1746735092,"current_range_meters":20000,"station_id":"ce4bho12rcd13ifvqh2g","pricing_plan_id":"cebpf4jnsgd1na2vs0mg"},{"bike_id":"577b6fa1-01aa-4b90-beb1-386dce7ef354","system_id":"levelo_inurba_marseille","lat":43.25941,"lon":5.40906,"is_reserved":false,"is_disabled":false,"rental_uris":{"android":"levelo://app?vid=577b6fa1-01aa-4b90-beb1-386dce7ef354","ios":"levelo://app?vid=577b6fa1-01aa-4b90-beb1-386dce7ef354"},"vehicle_type_id":"4","last_reported":1746735092,"current_range_meters":20000,"station_id":"ce4bhm92rcd13ifvqglg","pricing_plan_id":"cebpf4jnsgd1na2vs0mg"},{"bike_id":"b60b5e93-b865-43b2-b180-a882ab9cf56f","system_id":"levelo_inurba_marseille","lat":43.27974,"lon":5.38742,"is_reserved":false,"is_disabled":false,"rental_uris":{"android":"levelo://app?vid=b60b5e93-b865-43b2-b180-a882ab9cf56f","ios":"levelo://app?vid=b60b5e93-b865-43b2-b180-a882ab9cf56f"},"vehicle_type_id":"4","last_reported":1746735092,"current_range_meters":20000,"station_id":"ce4bhg12rcd13ifvqf80","pricing_plan_id":"cebpf4jnsgd1na2vs0mg"},{"bike_id":"79641e2f-a4a2-4481-a519-9a644c2bfcd9","system_id":"levelo_inurba_marseille","lat":43.28855,"lon":5.39317,"is_reserved":false,"is_disabled":false,"rental_uris":{"android":"levelo://app?vid=79641e2f-a4a2-4481-a519-9a644c2bfcd9","ios":"levelo://app?vid=79641e2f-a4a2-4481-a519-9a644c2bfcd9"},"vehicle_type_id":"4","last_reported":1746735092,"current_range_meters":20000,"station_id":"ce4bh2p2rcd13ifvqdi0","pricing_plan_id":"cebpf4jnsgd1na2vs0mg"},{"bike_id":"cbb45d8c-f14a-4433-94c2-f9c173fc22f3","system_id":"levelo_inurba_marseille","lat":43.29261,"lon":5.37661,"is_reserved":false,"is_disabled":false,"rental_uris":{"android":"levelo://app?vid=cbb45d8c-f14a-4433-94c2-f9c173fc22f3","ios":"levelo://app?vid=cbb45d8c-f14a-4433-94c2-f9c173fc22f3"},"vehicle_type_id":"4","last_reported":1746735092,"current_range_meters":20400,"station_id":"ce4bgi12rcd13ifvqb80","pricing_plan_id":"cebpf4jnsgd1na2vs0mg"},{"bike_id":"bbe81a6f-a912-4fae-a286-64792b6a574f","system_id":"levelo_inurba_marseille","lat":43.3107,"lon":5.38354,"is_reserved":false,"is_disabled":false,"rental_uris":{"android":"levelo://app?vid=bbe81a6f-a912-4fae-a286-64792b6a574f","ios":"levelo://app?vid=bbe81a6f-a912-4fae-a286-64792b6a574f"},"vehicle_type_id":"4","last_reported":1746735092,"current_range_meters":20400,"station_id":"ce4bgv92rcd13ifvqcr0","pricing_plan_id":"cebpf4jnsgd1na2vs0mg"},{"bike_id":"493253a9-56df-422d-9b81-13a98785202e","system_id":"levelo_inurba_marseille","lat":43.29967,"lon":5.38498,"is_reserved":false,"is_disabled":false,"rental_uris":{"android":"levelo://app?vid=493253a9-56df-422d-9b81-13a98785202e","ios":"levelo://app?vid=493253a9-56df-422d-9b81-13a98785202e"},"vehicle_type_id":"4","last_reported":1746735092,"current_range_meters":20400,"station_id":"ce4bgj92rcd13ifvqbd0","pricing_plan_id":"cebpf4jnsgd1na2vs0mg"},{"bike_id":"8e513055-65fa-4211-b0bf-2d1bba41504c","system_id":"levelo_inurba_marseille","lat":43.25723,"lon":5.41113,"is_reserved":false,"is_disabled":false,"rental_uris":{"android":"levelo://app?vid=8e513055-65fa-4211-b0bf-2d1bba41504c","ios":"levelo://app?vid=8e513055-65fa-4211-b0bf-2d1bba41504c"},"vehicle_type_id":"4","last_reported":1746735092,"current_range_meters":20400,"station_id":"ce4bhkp2rcd13ifvqgd0","pricing_plan_id":"cebpf4jnsgd1na2vs0mg"},{"bike_id":"1a265eb9-e499-4da7-8367-9a76df75535e","system_id":"levelo_inurba_marseille","lat":43.29915,"lon":5.37462,"is_reserved":false,"is_disabled":false,"rental_uris":{"android":"levelo://app?vid=1a265eb9-e499-4da7-8367-9a76df75535e","ios":"levelo://app?vid=1a265eb9-e499-4da7-8367-9a76df75535e"},"vehicle_type_id":"4","last_reported":1746735092,"current_range_meters":20400,"station_id":"ce4bgjh2rcd13ifvqbg0","pricing_plan_id":"cebpf4jnsgd1na2vs0mg"},{"bike_id":"a4c6a415-a8d3-413a-ba85-7cdbf624eae6","system_id":"levelo_inurba_marseille","lat":43.29192,"lon":5.39324,"is_reserved":false,"is_disabled":false,"rental_uris":{"android":"levelo://app?vid=a4c6a415-a8d3-413a-ba85-7cdbf624eae6","ios":"levelo://app?vid=a4c6a415-a8d3-413a-ba85-7cdbf624eae6"},"vehicle_type_id":"4","last_reported":1746735092,"current_range_meters":20800,"station_id":"ce4bh192rcd13ifvqdd0","pricing_plan_id":"cebpf4jnsgd1na2vs0mg"},{"bike_id":"643e628f-2c34-41db-bc2f-16588eb6abe8","system_id":"levelo_inurba_marseille","lat":43.28858,"lon":5.39307,"is_reserved":false,"is_disabled":false,"rental_uris":{"android":"levelo://app?vid=643e628f-2c34-41db-bc2f-16588eb6abe8","ios":"levelo://app?vid=643e628f-2c34-41db-bc2f-16588eb6abe8"},"vehicle_type_id":"4","last_reported":1746735092,"current_range_meters":20800,"station_id":"ce4bh2p2rcd13ifvqdi0","pricing_plan_id":"cebpf4jnsgd1na2vs0mg"},