{"last_updated":1687522450,"ttl":30,"version":"2.2","data":{"bikes":[{"bike_id":"d4332dc1-ca7f-47c1-8251-6fc28249a3b4","system_id":"levelo_inurba_marseille","lat":43.313391,"lon":5.36706,"is_reserved":false,"is_disabled":false,"rental_uris":{"android":"levelo://app?vid=d4332dc1-ca7f-47c1-8251-6fc28249a3b4","ios":"levelo://app?vid=d4332dc1-ca7f-47c1-8251-6fc28249a3b4"},"vehicle_type_id":"4","last_reported":1687522450,"current_range_meters":31200,"station_id":"ce4bgr92rcd13ifvqc6g","pricing_plan_id":"free"},{"bike_id":"6cbdde8f-ff1b-4f16-aa9f-df800779dfc2","system_id":"levelo_inurba_marseille","lat":43.313391,"lon":5.36706,"is_reserved":false,"is_disabled":false,"rental_uris":{"android":"levelo://app?vid=6cbdde8f-ff1b-4f16-aa9f-df800779dfc2","ios":"levelo://app?vid=6cbdde8f-ff1b-4f16-aa9f-df800779dfc2"},"vehicle_type_id":"4","last_reported":1687522450,"current_range_meters":31200,"station_id":"ce4bgr92rcd13ifvqc6g","pricing_plan_id":"free"},{"bike_id":"15c62054-955a-4820-982e-5c2322ea45bf","system_id":"levelo_inurba_marseille","lat":43.313391,"lon":5.36706,"is_reserved":false,"is_disabled":false,"rental_uris":{"android":"levelo://app?vid=15c62054-955a-4820-982e-5c2322ea45bf","ios":"levelo://app?vid=15c62054-955a-4820-982e-5c2322ea45bf"},"vehicle_type_id":"4","last_reported":1687522450,"current_range_meters":31200,"station_id":"ce4bgr92rcd13ifvqc6g","pricing_plan_id":"free"},{"bike_id":"0550341a-124c-4d98-bbe2-ecab3fc28f99","system_id":"levelo_inurba_marseille","lat":43.313391,"lon":5.36706,"is_reserved":false,"is_disabled":false,"rental_uris":{"android":"levelo://app?vid=0550341a-124c-4d98-bbe2-ecab3fc28f99","ios":"levelo://app?vid=0550341a-124c-4d98-bbe2-ecab3fc28f99"},"vehicle_type_id":"4","last_reported":1687522450,"current_range_meters":31200,"station_id":"ce4bgr92rcd13ifvqc6g","pricing_plan_id":"free"},{"bike_id":"cb389e92-8edb-4937-9215-9ac1fb6b80b8","system_id":"levelo_inurba_marseille","lat":43.313391,"lon":5.36706,"is_reserved":false,"is_disabled":false,"rental_uris":{"android":"levelo://app?vid=cb389e92-8edb-4937-9215-9ac1fb6b80b8","ios":"levelo://app?vid=cb389e92-8edb-4937-9215-9ac1fb6b80b8"},"vehicle_type_id":"4","last_reported":1687522450,"current_range_meters":29600,"station_id":"ce4bgr92rcd13ifvqc6g","pricing_plan_id":"free"},{"bike_id":"561dae15-b950-41f4-8280-62512ee198df","system_id":"levelo_inurba_marseille","lat":43.313391,"lon":5.36706,"is_reserved":false,"is_disabled":false,"rental_uris":{"android":"levelo://app?vid=561dae15-b950-41f4-8280-62512ee198df","ios":"levelo://app?vid=561dae15-b950-41f4-8280-62512ee198df"},"vehicle_type_id":"4","last_reported":1687522450,"current_range_meters":31200,"station_id":"ce4bgr92rcd13ifvqc6g","pricing_plan_id":"free"},{"bike_id":"e174d5f0-b6c8-4dda-a820-d2e61e69de13","system_id":"levelo_inurba_marseille","lat":43.31341,"lon":5.367098,"is_reserved":false,"is_disabled":false,"rental_uris":{"android":"levelo://app?vid=e174d5f0-b6c8-4dda-a820-d2e61e69de13","ios":"levelo://app?vid=e174d5f0-b6c8-4dda-a820-d2e61e69de13"},"vehicle_type_id":"4","last_reported":1687522450,"current_range_meters":31200,"station_id":"ce4bgr92rcd13ifvqc6g","pricing_plan_id":"free"},{"bike_id":"6af3ddd3-abe5-4014-930d-8bc2eb738f55","system_id":"levelo_inurba_marseille","lat":43.31367,"lon":5.36689,"is_reserved":false,"is_disabled":false,"rental_uris":{"android":"levelo://app?vid=6af3ddd3-abe5-4014-930d-8bc2eb738f55","ios":"levelo://app?vid=6af3ddd3-abe5-4014-930d-8bc2eb738f55"},"vehicle_type_id":"4","last_reported":1687522450,"current_range_meters":31200,"station_id":"","pricing_plan_id":"free"},{"bike_id":"4953f328-3844-4770-9687-adbaf569325c","system_id":"levelo_inurba_marseille","lat":43.31341,"lon":5.367098,"is_reserved":false,"is_disabled":false,"rental_uris":{"android":"levelo://app?vid=4953f328-3844-4770-9687-adbaf569325c","ios":"levelo://app?vid=4953f328-3844-4770-9687-adbaf569325c"},"vehicle_type_id":"4","last_reported":1687522450,"current_range_meters":31200,"station_id":"ce4bgr92rcd13ifvqc6g","pricing_plan_id":"free"},{"bike_id":"6f4d7d39-70c9-4f48-8419-65d9aad33622","system_id":"levelo_inurba_marseille","lat":43.31238,"lon":5.36847,"is_reserved":false,"is_disabled":false,"rental_uris":{"android":"levelo://app?vid=6f4d7d39-70c9-4f48-8419-65d9aad33622","ios":"levelo://app?vid=6f4d7d39-70c9-4f48-8419-65d9aad33622"},"vehicle_type_id":"4","last_reported":1687522450,"current_range_meters":31200,"station_id":"ce4bgl92rcd13ifvqbq0","pricing_plan_id":"free"},{"bike_id":"f10d6ac1-cbc6-4908-98c6-71a8ddfd4b39","system_id":"levelo_inurba_marseille","lat":43.31237,"lon":5.36852,"is_reserved":false,"is_disabled":false,"rental_uris":{"android":"levelo://app?vid=f10d6ac1-cbc6-4908-98c6-71a8ddfd4b39","ios":"levelo://app?vid=f10d6ac1-cbc6-4908-98c6-71a8ddfd4b39"},"vehicle_type_id":"4","last_reported":1687522450,"current_range_meters":31200,"station_id":"ce4bgl92rcd13ifvqbq0","pricing_plan_id":"free"},{"bike_id":"1a27a293-85bf-4819-8e0d-686fec16a498","system_id":"levelo_inurba_marseille","lat":43.309076,"lon":5.368465,"is_reserved":false,"is_disabled":false,"rental_uris":{"android":"levelo://app?vid=1a27a293-85bf-4819-8e0d-686fec16a498","ios":"levelo://app?vid=1a27a293-85bf-4819-8e0d-686fec16a498"},"vehicle_type_id":"4","last_reported":1687522450,"current_range_meters":31200,"station_id":"ce4bgn92rcd13ifvqbvg","pricing_plan_id":"free"},{"bike_id":"d118252d-c36d-4faa-8eab-1e1574b14ace","system_id":"levelo_inurba_marseille","lat":43.309076,"lon":5.368465,"is_reserved":false,"is_disabled":false,"rental_uris":{"android":"levelo://app?vid=d118252d-c36d-4faa-8eab-1e1574b14ace","ios":"levelo://app?vid=d118252d-c36d-4faa-8eab-1e1574b14ace"},"vehicle_type_id":"4","last_reported":1687522450,"current_range_meters":31200,"station_id":"ce4bgn92rcd13ifvqbvg","pricing_plan_id":"free"},{"bike_id":"72761e9b-040f-4e31-85bb-5f436a617878","system_id":"levelo_inurba_marseille","lat":43.309076,"lon":5.368465,"is_reserved":false,"is_disabled":false,"rental_uris":{"android":"levelo://app?vid=72761e9b-040f-4e31-85bb-5f436a617878","ios":"levelo://app?vid=72761e9b-040f-4e31-85bb-5f436a617878"},"vehicle_type_id":"4","last_reported":1687522450,"current_range_meters":28400,"station_id":"ce4bgn92rcd13ifvqbvg","pricing_plan_id":"free"},{"bike_id":"899b13f2-3e43-4514-9f9e-319edbe972f7","system_id":"levelo_inurba_marseille","lat":43.30911,"lon":5.3685,"is_reserved":false,"is_disabled":false,"rental_uris":{"android":"levelo://app?vid=899b13f2-3e43-4514-9f9e-319edbe972f7","ios":"levelo://app?vid=899b13f2-3e43-4514-9f9e-319edbe972f7"},"vehicle_type_id":"4","last_reported":1687522450,"current_range_meters":31200,"station_id":"ce4bgn92rcd13ifvqbvg","pricing_plan_id":"free"},{"bike_id":"a4d58fc5-8b5e-4d7a-920f-b76db7078089","system_id":"levelo_inurba_marseille","lat":43.309076,"lon":5.368465,"is_reserved":false,"is_disabled":false,"rental_uris":{"android":"levelo://app?vid=a4d58fc5-8b5e-4d7a-920f-b76db7078089","ios":"levelo://app?vid=a4d58fc5-8b5e-4d7a-920f-b76db7078089"},"vehicle_type_id":"4","last_reported":1687522450,"current_range_meters":19600,"station_id":"ce4bgn92rcd13ifvqbvg","pricing_plan_id":"free"},{"bike_id":"7de7ae25-c00c-4ca8-ab1d-0d4ad22dc68b","system_id":"levelo_inurba_marseille","lat":43.314811,"lon":5.373103,"is_reserved":false,"is_disabled":false,"rental_uris":{"android":"levelo://app?vid=7de7ae25-c00c-4ca8-ab1d-0d4ad22dc68b","ios":"levelo://app?vid=7de7ae25-c00c-4ca8-ab1d-0d4ad22dc68b"},"vehicle_type_id":"4","last_reported":1687522450,"current_range_meters":9600,"station_id":"ce4bgt12rcd13ifvqcd0","pricing_plan_id":"free"},{"bike_id":"12595b6d-4d14-4f13-8f65-dec5701dbca7","system_id":"levelo_inurba_marseille","lat":43.314811,"lon":5.373103,"is_reserved":false,"is_disabled":false,"rental_uris":{"android":"levelo://app?vid=12595b6d-4d14-4f13-8f65-dec5701dbca7","ios":"levelo://app?vid=12595b6d-4d14-4f13-8f65-dec5701dbca7"},"vehicle_type_id":"4","last_reported":1687522450,"current_range_meters":30800,"station_id":"ce4bgt12rcd13ifvqcd0","pricing_plan_id":"free"},{"bike_id":"d4e33be4-6fa4-4c63-b597-92bec5d28d48","system_id":"levelo_inurba_marseille","lat":43.314811,"lon":5.373104,"is_reserved":false,"is_disabled":false,"rental_uris":{"android":"levelo://app?vid=d4e33be4-6fa4-4c63-b597-92bec5d28d48","ios":"levelo://app?vid=d4e33be4-6fa4-4c63-b597-92bec5d28d48"},"vehicle_type_id":"4","last_reported":1687522450,"current_range_meters":21600,"station_id":"ce4bgt12rcd13ifvqcd0","pricing_plan_id":"free"},{"bike_id":"6a87d55e-7a93-4262-88c5-2dacba75dc4e","system_id":"levelo_inurba_marseille","lat":43.314811,"lon":5.373103,"is_reserved":false,"is_disabled":false,"rental_uris":{"android":"levelo://app?vid=6a87d55e-7a93-4262-88c5-2dacba75dc4e","ios":"levelo://app?vid=6a87d55e-7a93-4262-88c5-2dacba75dc4e"},"vehicle_type_id":"4","last_reported":1687522450,"current_range_meters":25200,"station_id":"ce4bgt12rcd13ifvqcd0","pricing_plan_id":"free"},{"bike_id":"4217bcba-f787-4282-ae79-76d1c0ce1559","system_id":"levelo_inurba_marseille","lat":43.30898,"lon":5.37189,"is_reserved":false,"is_disabled":false,"rental_uris":{"android":"levelo://app?vid=4217bcba-f787-4282-ae79-76d1c0ce1559","ios":"levelo://app?vid=4217bcba-f787-4282-ae79-76d1c0ce1559"},"vehicle_type_id":"4","last_reported":1687522450,"current_range_meters":26800,"station_id":"ce4bguh2rcd13ifvqckg","pricing_plan_id":"free"},{"bike_id":"e54b1d0b-0904-47a4-81ef-2b2c5f2ffad3","system_id":"levelo_inurba_marseille","lat":43.3054,"lon":5.3654,"is_reserved":false,"is_disabled":false,"rental_uris":{"android":"levelo://app?vid=e54b1d0b-0904-47a4-81ef-2b2c5f2ffad3","ios":"levelo://app?vid=e54b1d0b-0904-47a4-81ef-2b2c5f2ffad3"},"vehicle_type_id":"4","last_reported":1687522450,"current_range_meters":23600,"station_id":"ce4bgs12rcd13ifvqcag","pricing_plan_id":"free"},{"bike_id":"3b44faef-f8bd-4d2d-a926-304c4e8fc945","system_id":"levelo_inurba_marseille","lat":43.30538,"lon":5.36539,"is_reserved":false,"is_disabled":false,"rental_uris":{"android":"levelo://app?vid=3b44faef-f8bd-4d2d-a926-304c4e8fc945","ios":"levelo://app?vid=3b44faef-f8bd-4d2d-a926-304c4e8fc945"},"vehicle_type_id":"4","last_reported":1687522450,"current_range_meters":16000,"station_id":"ce4bgs12rcd13ifvqcag","pricing_plan_id":"free"},{"bike_id":"d5cb8af8-de12-43f7-a514-3c7f0b976d20","system_id":"levelo_inurba_marseille","lat":43.30529,"lon":5.3654,"is_reserved":false,"is_disabled":false,"rental_uris":{"android":"levelo://app?vid=d5cb8af8-de12-43f7-a514-3c7f0b976d20","ios":"levelo://app?vid=d5cb8af8-de12-43f7-a514-3c7f0b976d20"},"vehicle_type_id":"4","last_reported":1687522450,"current_range_meters":19600,"station_id":"","pricing_plan_id":"free"},{"bike_id":"81444bab-15b1-4302-bb4e-21dc2ef67885","system_id":"levelo_inurba_marseille","lat":43.30601,"lon":5.37215,"is_reserved":false,"is_disabled":false,"rental_uris":{"android":"levelo://app?vid=81444bab-15b1-4302-bb4e-21dc2ef67885","ios":"levelo://app?vid=81444bab-15b1-4302-bb4e-21dc2ef67885"},"vehicle_type_id":"4","last_reported":1687522450,"current_range_meters":3200,"station_id":"ce4bgqh2rcd13ifvqc4g","pricing_plan_id":"free"},{"bike_id":"5cb4bba3-23dc-41fd-9a0f-f3c1e0927c0b","system_id":"levelo_inurba_marseille","lat":43.311131,"lon":5.377651,"is_reserved":false,"is_disabled":false,"rental_uris":{"android":"levelo://app?vid=5cb4bba3-23dc-41fd-9a0f-f3c1e0927c0b","ios":"levelo://app?vid=5cb4bba3-23dc-41fd-9a0f-f3c1e0927c0b"},"vehicle_type_id":"4","last_reported":1687522450,"current_range_meters":21200,"station_id":"ce4bgt92rcd13ifvqcg0","pricing_plan_id":"free"},{"bike_id":"f3f8887a-324e-4e6a-b120-0579a34e689a","system_id":"levelo_inurba_marseille","lat":43.311131,"lon":5.377651,"is_reserved":false,"is_disabled":false,"rental_uris":{"android":"levelo://app?vid=f3f8887a-324e-4e6a-b120-0579a34e689a","ios":"levelo://app?vid=f3f8887a-324e-4e6a-b120-0579a34e689a"},"vehicle_type_id":"4","last_reported":1687522450,"current_range_meters":24400,"station_id":"ce4bgt92rcd13ifvqcg0","pricing_plan_id":"free"},{"bike_id":"2cebafeb-12a0-4cb6-83ce-4e34dcefc158","system_id":"levelo_inurba_marseille","lat":43.317075,"lon":5.377367,"is_reserved":false,"is_disabled":false,"rental_uris":{"android":"levelo://app?vid=2cebafeb-12a0-4cb6-83ce-4e34dcefc158","ios":"levelo://app?vid=2cebafeb-12a0-4cb6-83ce-4e34dcefc158"},"vehicle_type_id":"4","last_reported":1687522450,"current_range_meters":31200,"station_id":"ce4bgth2rcd13ifvqch0","pricing_plan_id":"free"},{"bike_id":"9228df72-f11a-4bc7-ae5a-091ca8c4bcc8","system_id":"levelo_inurba_marseille","lat":43.30289,"lon":5.36904,"is_reserved":false,"is_disabled":false,"rental_uris":{"android":"levelo://app?vid=9228df72-f11a-4bc7-ae5a-091ca8c4bcc8","ios":"levelo://app?vid=9228df72-f11a-4bc7-ae5a-091ca8c4bcc8"},"vehicle_type_id":"4","last_reported":1687522450,"current_range_meters":26000,"station_id":"ce4bgqh2rcd13ifvqc5g","pricing_plan_id":"free"},{"bike_id":"81b88133-480d-41c0-a6bd-4d98733e5f32","system_id":"levelo_inurba_marseille","lat":43.31528,"lon":5.38028,"is_reserved":false,"is_disabled":false,"rental_uris":{"android":"levelo://app?vid=81b88133-480d-41c0-a6bd-4d98733e5f32","ios":"levelo://app?vid=81b88133-480d-41c0-a6bd-4d98733e5f32"},"vehicle_type_id":"4","last_reported":1687522450,"current_range_meters":18000,"station_id":"ce4bhsp2rcd13ifvqi50","pricing_plan_id":"free"},{"bike_id":"0303a605-846e-4125-9b90-8749f55ccadb","system_id":"levelo_inurba_marseille","lat":43.30924,"lon":5.3799,"is_reserved":false,"is_disabled":false,"rental_uris":{"android":"levelo://app?vid=0303a605-846e-4125-9b90-8749f55ccadb","ios":"levelo://app?vid=0303a605-846e-4125-9b90-8749f55ccadb"},"vehicle_type_id":"4","last_reported":1687522450,"current_range_meters":24800,"station_id":"","pricing_plan_id":"free"},{"bike_id":"676544c1-d089-4ff3-ac82-440502e7e765","system_id":"levelo_inurba_marseille","lat":43.31535,"lon":5.38034,"is_reserved":false,"is_disabled":false,"rental_uris":{"android":"levelo://app?vid=676544c1-d089-4ff3-ac82-440502e7e765","ios":"levelo://app?vid=676544c1-d089-4ff3-ac82-440502e7e765"},"vehicle_type_id":"4","last_reported":1687522450,"current_range_meters":24400,"station_id":"ce4bhsp2rcd13ifvqi50","pricing_plan_id":"free"},{"bike_id":"7333842c-3fe4-432e-8cfc-b6ce4f0247a5","system_id":"levelo_inurba_marseille","lat":43.30236,"lon":5.36794,"is_reserved":false,"is_disabled":false,"rental_uris":{"android":"levelo://app?vid=7333842c-3fe4-432e-8cfc-b6ce4f0247a5","ios":"levelo://app?vid=7333842c-3fe4-432e-8cfc-b6ce4f0247a5"},"vehicle_type_id":"4","last_reported":1687522450,"current_range_meters":0,"station_id":"","pricing_plan_id":"free"},{"bike_id":"047317ca-484c-435e-86d8-e7649860cb9a","system_id":"levelo_inurba_marseille","lat":43.301939,"lon":5.366286,"is_reserved":false,"is_disabled":false,"rental_uris":{"android":"levelo://app?vid=047317ca-484c-435e-86d8-e7649860cb9a","ios":"levelo://app?vid=047317ca-484c-435e-86d8-e7649860cb9a"},"vehicle_type_id":"4","last_reported":1687522450,"current_range_meters":29200,"station_id":"ce4bgrh2rcd13ifvqc8g","pricing_plan_id":"free"},{"bike_id":"a5c7b714-78fc-48d2-93a1-59c4e49ae237","system_id":"levelo_inurba_marseille","lat":43.301939,"lon":5.366286,"is_reserved":false,"is_disabled":false,"rental_uris":{"android":"levelo://app?vid=a5c7b714-78fc-48d2-93a1-59c4e49ae237","ios":"levelo://app?vid=a5c7b714-78fc-48d2-93a1-59c4e49ae237"},"vehicle_type_id":"4","last_reported":1687522450,"current_range_meters":31200,"station_id":"ce4bgrh2rcd13ifvqc8g","pricing_plan_id":"free"},{"bike_id":"2658fb36-005d-489f-8117-d321c4736bf5","system_id":"levelo_inurba_marseille","lat":43.301939,"lon":5.366286,"is_reserved":false,"is_disabled":false,"rental_uris":{"android":"levelo://app?vid=2658fb36-005d-489f-8117-d321c4736bf5","ios":"levelo://app?vid=2658fb36-005d-489f-8117-d321c4736bf5"},"vehicle_type_id":"4","last_reported":1687522450,"current_range_meters":10000,"station_id":"ce4bgrh2rcd13ifvqc8g","pricing_plan_id":"free"},{"bike_id":"c98c824a-5a21-41d7-a2b3-cfad705b7985","system_id":"levelo_inurba_marseille","lat":43.292642,"lon":5.384254,"is_reserved":false,"is_disabled":false,"rental_uris":{"android":"levelo://app?vid=c98c824a-5a21-41d7-a2b3-cfad705b7985","ios":"levelo://app?vid=c98c824a-5a21-41d7-a2b3-cfad705b7985"},"vehicle_type_id":"4","last_reported":1687522450,"current_range_meters":0,"station_id":"ce4bh692rcd13ifvqea0","pricing_plan_id":"free"},{"bike_id":"918a0e42-7099-4109-8acb-c44fd443320a","system_id":"levelo_inurba_marseille","lat":43.308012,"lon":5.381511,"is_reserved":false,"is_disabled":false,"rental_uris":{"android":"levelo://app?vid=918a0e42-7099-4109-8acb-c44fd443320a","ios":"levelo://app?vid=918a0e42-7099-4109-8acb-c44fd443320a"},"vehicle_type_id":"4","last_reported":1687522450,"current_range_meters":29200,"station_id":"ce4bgt12rcd13ifvqce0","pricing_plan_id":"free"},{"bike_id":"646d666e-0ddf-4de3-b98b-ef183f517b50","system_id":"levelo_inurba_marseille","lat":43.308012,"lon":5.381511,"is_reserved":false,"is_disabled":false,"rental_uris":{"android":"levelo://app?vid=646d666e-0ddf-4de3-b98b-ef183f517b50","ios":"levelo://app?vid=646d666e-0ddf-4de3-b98b-ef183f517b50"},"vehicle_type_id":"4","last_reported":1687522450,"current_range_meters":9200,"station_id":"ce4bgt12rcd13ifvqce0","pricing_plan_id":"free"},{"bike_id":"d9bc1685-eca9-493b-b6c4-0e68fa5141c8","system_id":"levelo_inurba_marseille","lat":43.308012,"lon":5.381511,"is_reserved":false,"is_disabled":false,"rental_uris":{"android":"levelo://app?vid=d9bc1685-eca9-493b-b6c4-0e68fa5141c8","ios":"levelo://app?vid=d9bc1685-eca9-493b-b6c4-0e68fa5141c8"},"vehicle_type_id":"4","last_reported":1687522450,"current_range_meters":15600,"station_id":"ce4bgt12rcd13ifvqce0","pricing_plan_id":"free"},{"bike_id":"fc40407e-58ea-4053-a90c-d4c11008cda1","system_id":"levelo_inurba_marseille","lat":43.30395,"lon":5.3778,"is_reserved":false,"is_disabled":false,"rental_uris":{"android":"levelo://app?vid=fc40407e-58ea-4053-a90c-d4c11008cda1","ios":"levelo://app?vid=fc40407e-58ea-4053-a90c-d4c11008cda1"},"vehicle_type_id":"4","last_reported":1687522450,"current_range_meters":14400,"station_id":"","pricing_plan_id":"free"},{"bike_id":"9e6e4ef8-c4f4-4f6b-a949-78891bd3dc52","system_id":"levelo_inurba_marseille","lat":43.302784,"lon":5.377158,"is_reserved":false,"is_disabled":false,"rental_uris":{"android":"levelo://app?vid=9e6e4ef8-c4f4-4f6b-a949-78891bd3dc52","ios":"levelo://app?vid=9e6e4ef8-c4f4-4f6b-a949-78891bd3dc52"},"vehicle_type_id":"4","last_reported":1687522450,"current_range_meters":15200,"station_id":"ce4bguh2rcd13ifvqcj0","pricing_plan_id":"free"},{"bike_id":"43fc693e-f2a9-4aec-8fd9-d094bb02cb70","system_id":"levelo_inurba_marseille","lat":43.304606,"lon":5.379026,"is_reserved":false,"is_disabled":false,"rental_uris":{"android":"levelo://app?vid=43fc693e-f2a9-4aec-8fd9-d094bb02cb70","ios":"levelo://app?vid=43fc693e-f2a9-4aec-8fd9-d094bb02cb70"},"vehicle_type_id":"4","last_reported":1687522450,"current_range_meters":0,"station_id":"ce4bgup2rcd13ifvqcn0","pricing_plan_id":"free"},{"bike_id":"2791eb71-678a-4cc3-8ce6-a267f4c101f6","system_id":"levelo_inurba_marseille","lat":43.302784,"lon":5.377158,"is_reserved":false,"is_disabled":false,"rental_uris":{"android":"levelo://app?vid=2791eb71-678a-4cc3-8ce6-a267f4c101f6","ios":"levelo://app?vid=2791eb71-678a-4cc3-8ce6-a267f4c101f6"},"vehicle_type_id":"4","last_reported":1687522450,"current_range_meters":21600,"station_id":"ce4bguh2rcd13ifvqcj0","pricing_plan_id":"free"},{"bike_id":"1d2adaac-3972-44cb-9404-51d217174523","system_id":"levelo_inurba_marseille","lat":43.31012,"lon":5.38358,"is_reserved":false,"is_disabled":false,"rental_uris":{"android":"levelo://app?vid=1d2adaac-3972-44cb-9404-51d217174523","ios":"levelo://app?vid=1d2adaac-3972-44cb-9404-51d217174523"},"vehicle_type_id":"4","last_reported":1687522450,"current_range_meters":1200,"station_id":"ce4bgv12rcd13ifvqcp0","pricing_plan_id":"free"},{"bike_id":"28ba2094-12a2-4428-bed4-36a98f5eba00","system_id":"levelo_inurba_marseille","lat":43.30138,"lon":5.3741,"is_reserved":false,"is_disabled":false,"rental_uris":{"android":"levelo://app?vid=28ba2094-12a2-4428-bed4-36a98f5eba00","ios":"levelo://app?vid=28ba2094-12a2-4428-bed4-36a98f5eba00"},"vehicle_type_id":"4","last_reported":1687522450,"current_range_meters":31200,"station_id":"ce4bgs92rcd13ifvqcc0","pricing_plan_id":"free"},{"bike_id":"1790e8d3-363d-4e89-9f68-4e1078a53fe4","system_id":"levelo_inurba_marseille","lat":43.3014,"lon":5.37417,"is_reserved":false,"is_disabled":false,"rental_uris":{"android":"levelo://app?vid=1790e8d3-363d-4e89-9f68-4e1078a53fe4","ios":"levelo://app?vid=1790e8d3-363d-4e89-9f68-4e1078a53fe4"},"vehicle_type_id":"4","last_reported":1687522450,"current_range_meters":12000,"station_id":"ce4bgs92rcd13ifvqcc0","pricing_plan_id":"free"},{"bike_id":"7fc2e189-6db2-45a7-837d-e5050565ed73","system_id":"levelo_inurba_marseille","lat":43.302784,"lon":5.377158,"is_reserved":false,"is_disabled":false,"rental_uris":{"android":"levelo://app?vid=7fc2e189-6db2-45a7-837d-e5050565ed73","ios":"levelo://app?vid=7fc2e189-6db2-45a7-837d-e5050565ed73"},"vehicle_type_id":"4","last_reported":1687522450,"current_range_meters":18400,"station_id":"ce4bguh2rcd13ifvqcj0","pricing_plan_id":"free"},{"bike_id":"0b03bed2-85b6-43ba-8a36-33c78d25df6b","system_id":"levelo_inurba_marseille","lat":43.30695,"lon":5.38253,"is_reserved":false,"is_disabled":false,"rental_uris":{"android":"levelo://app?vid=0b03bed2-85b6-43ba-8a36-33c78d25df6b","ios":"levelo://app?vid=0b03bed2-85b6-43ba-8a36-33c78d25df6b"},"vehicle_type_id":"4","last_reported":1687522450,"current_range_meters":29600,"station_id":"","pricing_plan_id":"free"},{"bike_id":"401534d5-6681-4837-8f97-499cb4d5722a","system_id":"levelo_inurba_marseille","lat":43.300144,"lon":5.369806,"is_reserved":false,"is_disabled":false,"rental_uris":{"android":"levelo://app?vid=401534d5-6681-4837-8f97-499cb4d5722a","ios":"levelo://app?vid=401534d5-6681-4837-8f97-499cb4d5722a"},"vehicle_type_id":"4","last_reported":1687522450,"current_range_meters":4800,"station_id":"","pricing_plan_id":"free"},{"bike_id":"e4d7eebd-5ef2-464f-9dc4-487055b42fa4","system_id":"levelo_inurba_marseille","lat":43.319935,"lon":5.381699,"is_reserved":false,"is_disabled":false,"rental_uris":{"android":"levelo://app?vid=e4d7eebd-5ef2-464f-9dc4-487055b42fa4","ios":"levelo://app?vid=e4d7eebd-5ef2-464f-9dc4-487055b42fa4"},"vehicle_type_id":"4","last_reported":1687522450,"current_range_meters":23600,"station_id":"ce4bhr12rcd13ifvqhpg","pricing_plan_id":"free"},{"bike_id":"cc7ccaed-aeac-4fb6-a249-e3eec1cb8751","system_id":"levelo_inurba_marseille","lat":43.32227,"lon":5.379,"is_reserved":false,"is_disabled":false,"rental_uris":{"android":"levelo://app?vid=cc7ccaed-aeac-4fb6-a249-e3eec1cb8751","ios":"levelo://app?vid=cc7ccaed-aeac-4fb6-a249-e3eec1cb8751"},"vehicle_type_id":"4","last_reported":1687522450,"current_range_meters":27600,"station_id":"","pricing_plan_id":"free"},{"bike_id":"72f0d2f2-8dd3-4b7f-8424-d78a6f9a5dfa","system_id":"levelo_inurba_marseille","lat":43.313571,"lon":5.384829,"is_reserved":false,"is_disabled":false,"rental_uris":{"android":"levelo://app?vid=72f0d2f2-8dd3-4b7f-8424-d78a6f9a5dfa","ios":"levelo://app?vid=72f0d2f2-8dd3-4b7f-8424-d78a6f9a5dfa"},"vehicle_type_id":"4","last_reported":1687522450,"current_range_meters":8400,"station_id":"ce4bgt92rcd13ifvqcf0","pricing_plan_id":"free"},{"bike_id":"c2b60cf9-05e0-4e72-a5f5-d964ec295d8f","system_id":"levelo_inurba_marseille","lat":43.313571,"lon":5.384829,"is_reserved":false,"is_disabled":false,"rental_uris":{"android":"levelo://app?vid=c2b60cf9-05e0-4e72-a5f5-d964ec295d8f","ios":"levelo://app?vid=c2b60cf9-05e0-4e72-a5f5-d964ec295d8f"},"vehicle_type_id":"4","last_reported":1687522450,"current_range_meters":19200,"station_id":"ce4bgt92rcd13ifvqcf0","pricing_plan_id":"free"},{"bike_id":"94d75c80-2aeb-4d9f-b70f-4747abec3082","system_id":"levelo_inurba_marseille","lat":43.29954,"lon":5.36535,"is_reserved":false,"is_disabled":false,"rental_uris":{"android":"levelo://app?vid=94d75c80-2aeb-4d9f-b70f-4747abec3082","ios":"levelo://app?vid=94d75c80-2aeb-4d9f-b70f-4747abec3082"},"vehicle_type_id":"4","last_reported":1687522450,"current_range_meters":16000,"station_id":"","pricing_plan_id":"free"},{"bike_id":"5560cbc5-8702-45d2-a9a5-6a4adc8f605f","system_id":"levelo_inurba_marseille","lat":43.299222,"lon":5.365554,"is_reserved":false,"is_disabled":false,"rental_uris":{"android":"levelo://app?vid=5560cbc5-8702-45d2-a9a5-6a4adc8f605f","ios":"levelo://app?vid=5560cbc5-8702-45d2-a9a5-6a4adc8f605f"},"vehicle_type_id":"4","last_reported":1687522450,"current_range_meters":27600,"station_id":"ce4bgm92rcd13ifvqbr0","pricing_plan_id":"free"},{"bike_id":"249f3a92-b855-40b2-a47e-c79ddb144970","system_id":"levelo_inurba_marseille","lat":43.299222,"lon":5.365554,"is_reserved":false,"is_disabled":false,"rental_uris":{"android":"levelo://app?vid=249f3a92-b855-40b2-a47e-c79ddb144970","ios":"levelo://app?vid=249f3a92-b855-40b2-a47e-c79ddb144970"},"vehicle_type_id":"4","last_reported":1687522450,"current_range_meters":29200,"station_id":"ce4bgm92rcd13ifvqbr0","pricing_plan_id":"free"},{"bike_id":"89f2fc3a-f86b-453f-92b5-8532e896f254","system_id":"levelo_inurba_marseille","lat":43.298433,"lon":5.362774,"is_reserved":false,"is_disabled":false,"rental_uris":{"android":"levelo://app?vid=89f2fc3a-f86b-453f-92b5-8532e896f254","ios":"levelo://app?vid=89f2fc3a-f86b-453f-92b5-8532e896f254"},"vehicle_type_id":"4","last_reported":1687522450,"current_range_meters":19600,"station_id":"ce4bgpp2rcd13ifvqc3g","pricing_plan_id":"free"},{"bike_id":"90640572-000d-4dbc-b629-549f9df421b3","system_id":"levelo_inurba_marseille","lat":43.298433,"lon":5.362774,"is_reserved":false,"is_disabled":false,"rental_uris":{"android":"levelo://app?vid=90640572-000d-4dbc-b629-549f9df421b3","ios":"levelo://app?vid=90640572-000d-4dbc-b629-549f9df421b3"},"vehicle_type_id":"4","last_reported":1687522450,"current_range_meters":30400,"station_id":"ce4bgpp2rcd13ifvqc3g","pricing_plan_id":"free"},{"bike_id":"4e7495f9-16af-4ee3-b219-c26eab12e98e","system_id":"levelo_inurba_marseille","lat":43.298433,"lon":5.362774,"is_reserved":false,"is_disabled":false,"rental_uris":{"android":"levelo://app?vid=4e7495f9-16af-4ee3-b219-c26eab12e98e","ios":"levelo://app?vid=4e7495f9-16af-4ee3-b219-c26eab12e98e"},"vehicle_type_id":"4","last_reported":1687522450,"current_range_meters":31200,"station_id":"ce4bgpp2rcd13ifvqc3g","pricing_plan_id":"free"},{"bike_id":"21a75360-af6d-46f2-901d-018436b6c3fa","system_id":"levelo_inurba_marseille","lat":43.298433,"lon":5.362774,"is_reserved":false,"is_disabled":false,"rental_uris":{"android":"levelo://app?vid=21a75360-af6d-46f2-901d-018436b6c3fa","ios":"levelo://app?vid=21a75360-af6d-46f2-901d-018436b6c3fa"},"vehicle_type_id":"4","last_reported":1687522450,"current_range_meters":31200,"station_id":"ce4bgpp2rcd13ifvqc3g","pricing_plan_id":"free"},{"bike_id":"bb31172b-0a72-480f-898f-bdcadb8bbbf7","system_id":"levelo_inurba_marseille","lat":43.29849,"lon":5.3627,"is_reserved":false,"is_disabled":false,"rental_uris":{"android":"levelo://app?vid=bb31172b-0a72-480f-898f-bdcadb8bbbf7","ios":"levelo://app?vid=bb31172b-0a72-480f-898f-bdcadb8bbbf7"},"vehicle_type_id":"4","last_reported":1687522450,"current_range_meters":18000,"station_id":"ce4bgpp2rcd13ifvqc3g","pricing_plan_id":"free"},{"bike_id":"b28397cd-2f34-4e60-bc34-5d81bc2ae6b9","system_id":"levelo_inurba_marseille","lat":43.298433,"lon":5.362774,"is_reserved":false,"is_disabled":false,"rental_uris":{"android":"levelo://app?vid=b28397cd-2f34-4e60-bc34-5d81bc2ae6b9","ios":"levelo://app?vid=b28397cd-2f34-4e60-bc34-5d81bc2ae6b9"},"vehicle_type_id":"4","last_reported":1687522450,"current_range_meters":31200,"station_id":"ce4bgpp2rcd13ifvqc3g","pricing_plan_id":"free"},{"bike_id":"1e0736d2-0ba7-4299-bad7-03ddb0d462b4","system_id":"levelo_inurba_marseille","lat":43.298433,"lon":5.362774,"is_reserved":false,"is_disabled":false,"rental_uris":{"android":"levelo://app?vid=1e0736d2-0ba7-4299-bad7-03ddb0d462b4","ios":"levelo://app?vid=1e0736d2-0ba7-4299-bad7-03ddb0d462b4"},"vehicle_type_id":"4","last_reported":1687522450,"current_range_meters":31200,"station_id":"ce4bgpp2rcd13ifvqc3g","pricing_plan_id":"free"},{"bike_id":"daee3697-f4e8-4ace-b9e5-fd0e62b7d3cf","system_id":"levelo_inurba_marseille","lat":43.298433,"lon":5.362774,"is_reserved":false,"is_disabled":false,"rental_uris":{"android":"levelo://app?vid=daee3697-f4e8-4ace-b9e5-fd0e62b7d3cf","ios":"levelo://app?vid=daee3697-f4e8-4ace-b9e5-fd0e62b7d3cf"},"vehicle_type_id":"4","last_reported":1687522450,"current_range_meters":31200,"station_id":"ce4bgpp2rcd13ifvqc3g","pricing_plan_id":"free"},{"bike_id":"ba4d9968-1f3a-452c-b589-af62bf648fca","system_id":"levelo_inurba_marseille","lat":43.298433,"lon":5.362774,"is_reserved":false,"is_disabled":false,"rental_uris":{"android":"levelo://app?vid=ba4d9968-1f3a-452c-b589-af62bf648fca","ios":"levelo://app?vid=ba4d9968-1f3a-452c-b589-af62bf648fca"},"vehicle_type_id":"4","last_reported":1687522450,"current_range_meters":30000,"station_id":"ce4bgpp2rcd13ifvqc3g","pricing_plan_id":"free"},{"bike_id":"ef5b0099-3e29-493b-b215-04e3b14e60ee","system_id":"levelo_inurba_marseille","lat":43.298433,"lon":5.362774,"is_reserved":false,"is_disabled":false,"rental_uris":{"android":"levelo://app?vid=ef5b0099-3e29-493b-b215-04e3b14e60ee","ios":"levelo://app?vid=ef5b0099-3e29-493b-b215-04e3b14e60ee"},"vehicle_type_id":"4","last_reported":1687522450,"current_range_meters":31200,"station_id":"ce4bgpp2rcd13ifvqc3g","pricing_plan_id":"free"},{"bike_id":"62734ba8-d0f4-47ed-b765-84704c168f16","system_id":"levelo_inurba_marseille","lat":43.29842,"lon":5.36263,"is_reserved":false,"is_disabled":false,"rental_uris":{"android":"levelo://app?vid=62734ba8-d0f4-47ed-b765-84704c168f16","ios":"levelo://app?vid=62734ba8-d0f4-47ed-b765-84704c168f16"},"vehicle_type_id":"4","last_reported":1687522450,"current_range_meters":31200,"station_id":"ce4bgpp2rcd13ifvqc3g","pricing_plan_id":"free"},{"bike_id":"8926140c-b1ff-4a43-949f-3711fb8c2f53","system_id":"levelo_inurba_marseille","lat":43.29842,"lon":5.36263,"is_reserved":false,"is_disabled":false,"rental_uris":{"android":"levelo://app?vid=8926140c-b1ff-4a43-949f-3711fb8c2f53","ios":"levelo://app?vid=8926140c-b1ff-4a43-949f-3711fb8c2f53"},"vehicle_type_id":"4","last_reported":1687522450,"current_range_meters":31200,"station_id":"ce4bgpp2rcd13ifvqc3g","pricing_plan_id":"free"},{"bike_id":"141cc449-c93f-4ebd-9985-2aa40ba1af67","system_id":"levelo_inurba_marseille","lat":43.311722,"lon":5.387247,"is_reserved":false,"is_disabled":false,"rental_uris":{"android":"levelo://app?vid=141cc449-c93f-4ebd-9985-2aa40ba1af67","ios":"levelo://app?vid=141cc449-c93f-4ebd-9985-2aa40ba1af67"},"vehicle_type_id":"4","last_reported":1687522450,"current_range_meters":16400,"station_id":"ce4bgv12rcd13ifvqcp0","pricing_plan_id":"free"},{"bike_id":"034ad213-2d9d-4e98-a1bf-ca3d06865951","system_id":"levelo_inurba_marseille","lat":43.29841,"lon":5.36264,"is_reserved":false,"is_disabled":false,"rental_uris":{"android":"levelo://app?vid=034ad213-2d9d-4e98-a1bf-ca3d06865951","ios":"levelo://app?vid=034ad213-2d9d-4e98-a1bf-ca3d06865951"},"vehicle_type_id":"4","last_reported":1687522450,"current_range_meters":23600,"station_id":"ce4bgpp2rcd13ifvqc3g","pricing_plan_id":"free"},{"bike_id":"87bcdb89-84eb-4abd-82d8-6cb4e62fd6c3","system_id":"levelo_inurba_marseille","lat":43.29839,"lon":5.36263,"is_reserved":false,"is_disabled":false,"rental_uris":{"android":"levelo://app?vid=87bcdb89-84eb-4abd-82d8-6cb4e62fd6c3","ios":"levelo://app?vid=87bcdb89-84eb-4abd-82d8-6cb4e62fd6c3"},"vehicle_type_id":"4","last_reported":1687522450,"current_range_meters":19200,"station_id":"ce4bgpp2rcd13ifvqc3g","pricing_plan_id":"free"},{"bike_id":"8b79f336-2662-40f7-8921-ae84c83cb4a5","system_id":"levelo_inurba_marseille","lat":43.29839,"lon":5.36261,"is_reserved":false,"is_disabled":false,"rental_uris":{"android":"levelo://app?vid=8b79f336-2662-40f7-8921-ae84c83cb4a5","ios":"levelo://app?vid=8b79f336-2662-40f7-8921-ae84c83cb4a5"},"vehicle_type_id":"4","last_reported":1687522450,"current_range_meters":31200,"station_id":"ce4bgpp2rcd13ifvqc3g","pricing_plan_id":"free"},{"bike_id":"9e24d311-db25-46a4-b565-d03b152abf67","system_id":"levelo_inurba_marseille","lat":43.29839,"lon":5.36256,"is_reserved":false,"is_disabled":false,"rental_uris":{"android":"levelo://app?vid=9e24d311-db25-46a4-b565-d03b152abf67","ios":"levelo://app?vid=9e24d311-db25-46a4-b565-d03b152abf67"},"vehicle_type_id":"4","last_reported":1687522450,"current_range_meters":12400,"station_id":"ce4bgpp2rcd13ifvqc3g","pricing_plan_id":"free"},{"bike_id":"c09c5090-da81-4b8d-bacd-aff3a9182c8d","system_id":"levelo_inurba_marseille","lat":43.29837,"lon":5.36268,"is_reserved":false,"is_disabled":false,"rental_uris":{"android":"levelo://app?vid=c09c5090-da81-4b8d-bacd-aff3a9182c8d","ios":"levelo://app?vid=c09c5090-da81-4b8d-bacd-aff3a9182c8d"},"vehicle_type_id":"4","last_reported":1687522450,"current_range_meters":26800,"station_id":"ce4bgpp2rcd13ifvqc3g","pricing_plan_id":"free"},{"bike_id":"8ca2a6e2-deba-4f82-a5c0-43dcf1811432","system_id":"levelo_inurba_marseille","lat":43.29835,"lon":5.36265,"is_reserved":false,"is_disabled":false,"rental_uris":{"android":"levelo://app?vid=8ca2a6e2-deba-4f82-a5c0-43dcf1811432","ios":"levelo://app?vid=8ca2a6e2-deba-4f82-a5c0-43dcf1811432"},"vehicle_type_id":"4","last_reported":1687522450,"current_range_meters":25600,"station_id":"ce4bgpp2rcd13ifvqc3g","pricing_plan_id":"free"},{"bike_id":"879019b5-ec9e-4b33-ae3a-4c2eb7c839b6","system_id":"levelo_inurba_marseille","lat":43.299243,"lon":5.374807,"is_reserved":false,"is_disabled":false,"rental_uris":{"android":"levelo://app?vid=879019b5-ec9e-4b33-ae3a-4c2eb7c839b6","ios":"levelo://app?vid=879019b5-ec9e-4b33-ae3a-4c2eb7c839b6"},"vehicle_type_id":"4","last_reported":1687522450,"current_range_meters":16400,"station_id":"ce4bgjh2rcd13ifvqbg0","pricing_plan_id":"free"},{"bike_id":"63b4b4f8-b131-4a82-9307-d8ee861fa0c9","system_id":"levelo_inurba_marseille","lat":43.299243,"lon":5.37481,"is_reserved":false,"is_disabled":false,"rental_uris":{"android":"levelo://app?vid=63b4b4f8-b131-4a82-9307-d8ee861fa0c9","ios":"levelo://app?vid=63b4b4f8-b131-4a82-9307-d8ee861fa0c9"},"vehicle_type_id":"4","last_reported":1687522450,"current_range_meters":12400,"station_id":"ce4bgjh2rcd13ifvqbg0","pricing_plan_id":"free"},{"bike_id":"145ab329-0a44-4521-904a-2296cd342f44","system_id":"levelo_inurba_marseille","lat":43.299243,"lon":5.37481,"is_reserved":false,"is_disabled":false,"rental_uris":{"android":"levelo://app?vid=145ab329-0a44-4521-904a-2296cd342f44","ios":"levelo://app?vid=145ab329-0a44-4521-904a-2296cd342f44"},"vehicle_type_id":"4","last_reported":1687522450,"current_range_meters":0,"station_id":"ce4bgjh2rcd13ifvqbg0","pricing_plan_id":"free"},{"bike_id":"e1f96243-be10-4444-b051-0a8dd4d7bdcb","system_id":"levelo_inurba_marseille","lat":43.32826,"lon":5.36683,"is_reserved":false,"is_disabled":false,"rental_uris":{"android":"levelo://app?vid=e1f96243-be10-4444-b051-0a8dd4d7bdcb","ios":"levelo://app?vid=e1f96243-be10-4444-b051-0a8dd4d7bdcb"},"vehicle_type_id":"4","last_reported":1687522450,"current_range_meters":23200,"station_id":"ce4bhs92rcd13ifvqi0g","pricing_plan_id":"free"},{"bike_id":"41235149-f42e-4673-9d1a-055ac92c3df6","system_id":"levelo_inurba_marseille","lat":43.32828,"lon":5.36683,"is_reserved":false,"is_disabled":false,"rental_uris":{"android":"levelo://app?vid=41235149-f42e-4673-9d1a-055ac92c3df6","ios":"levelo://app?vid=41235149-f42e-4673-9d1a-055ac92c3df6"},"vehicle_type_id":"4","last_reported":1687522450,"current_range_meters":25600,"station_id":"ce4bhs92rcd13ifvqi0g","pricing_plan_id":"free"},{"bike_id":"90374857-a63d-4642-9017-e49bf86a7332","system_id":"levelo_inurba_marseille","lat":43.32832,"lon":5.36689,"is_reserved":false,"is_disabled":false,"rental_uris":{"android":"levelo://app?vid=90374857-a63d-4642-9017-e49bf86a7332","ios":"levelo://app?vid=90374857-a63d-4642-9017-e49bf86a7332"},"vehicle_type_id":"4","last_reported":1687522450,"current_range_meters":29200,"station_id":"ce4bhs92rcd13ifvqi0g","pricing_plan_id":"free"},{"bike_id":"f29725c6-87c0-4998-96d6-7b7afbecb764","system_id":"levelo_inurba_marseille","lat":43.32834,"lon":5.36686,"is_reserved":false,"is_disabled":false,"rental_uris":{"android":"levelo://app?vid=f29725c6-87c0-4998-96d6-7b7afbecb764","ios":"levelo://app?vid=f29725c6-87c0-4998-96d6-7b7afbecb764"},"vehicle_type_id":"4","last_reported":1687522450,"current_range_meters":800,"station_id":"ce4bhs92rcd13ifvqi0g","pricing_plan_id":"free"},{"bike_id":"32007623-af1f-4b13-99da-1a105ea60890","system_id":"levelo_inurba_marseille","lat":43.32834,"lon":5.36686,"is_reserved":false,"is_disabled":false,"rental_uris":{"android":"levelo://app?vid=32007623-af1f-4b13-99da-1a105ea60890","ios":"levelo://app?vid=32007623-af1f-4b13-99da-1a105ea60890"},"vehicle_type_id":"4","last_reported":1687522450,"current_range_meters":29600,"station_id":"ce4bhs92rcd13ifvqi0g","pricing_plan_id":"free"},{"bike_id":"c4f60ed7-c332-4b39-9e88-a3c76dafd1eb","system_id":"levelo_inurba_marseille","lat":43.32835,"lon":5.36687,"is_reserved":false,"is_disabled":false,"rental_uris":{"android":"levelo://app?vid=c4f60ed7-c332-4b39-9e88-a3c76dafd1eb","ios":"levelo://app?vid=c4f60ed7-c332-4b39-9e88-a3c76dafd1eb"},"vehicle_type_id":"4","last_reported":1687522450,"current_range_meters":18800,"station_id":"ce4bhs92rcd13ifvqi0g","pricing_plan_id":"free"},{"bike_id":"f728c3b2-ab54-40db-90d7-e81fe614bc75","system_id":"levelo_inurba_marseille","lat":43.297163,"lon":5.365866,"is_reserved":false,"is_disabled":false,"rental_uris":{"android":"levelo://app?vid=f728c3b2-ab54-40db-90d7-e81fe614bc75","ios":"levelo://app?vid=f728c3b2-ab54-40db-90d7-e81fe614bc75"},"vehicle_type_id":"4","last_reported":1687522450,"current_range_meters":2400,"station_id":"ce4bgn12rcd13ifvqbt0","pricing_plan_id":"free"},{"bike_id":"6b8c13bd-141d-4904-bfb1-fb35b67a363a","system_id":"levelo_inurba_marseille","lat":43.297163,"lon":5.365866,"is_reserved":false,"is_disabled":false,"rental_uris":{"android":"levelo://app?vid=6b8c13bd-141d-4904-bfb1-fb35b67a363a","ios":"levelo://app?vid=6b8c13bd-141d-4904-bfb1-fb35b67a363a"},"vehicle_type_id":"4","last_reported":1687522450,"current_range_meters":24800,"station_id":"ce4bgn12rcd13ifvqbt0","pricing_plan_id":"free"},{"bike_id":"d3319c22-50a6-42fc-846d-5b75a3100886","system_id":"levelo_inurba_marseille","lat":43.297163,"lon":5.365866,"is_reserved":false,"is_disabled":false,"rental_uris":{"android":"levelo://app?vid=d3319c22-50a6-42fc-846d-5b75a3100886","ios":"levelo://app?vid=d3319c22-50a6-42fc-846d-5b75a3100886"},"vehicle_type_id":"4","last_reported":1687522450,"current_range_meters":23200,"station_id":"ce4bgn12rcd13ifvqbt0","pricing_plan_id":"free"},{"bike_id":"d6aa4b8f-0fbd-492f-a726-f1b64033634e","system_id":"levelo_inurba_marseille","lat":43.29702,"lon":5.3641,"is_reserved":false,"is_disabled":false,"rental_uris":{"android":"levelo://app?vid=d6aa4b8f-0fbd-492f-a726-f1b64033634e","ios":"levelo://app?vid=d6aa4b8f-0fbd-492f-a726-f1b64033634e"},"vehicle_type_id":"4","last_reported":1687522450,"current_range_meters":10800,"station_id":"","pricing_plan_id":"free"},{"bike_id":"f348e5d0-9bba-4be5-a747-f40029c55da7","system_id":"levelo_inurba_marseille","lat":43.29689,"lon":5.37303,"is_reserved":false,"is_disabled":false,"rental_uris":{"android":"levelo://app?vid=f348e5d0-9bba-4be5-a747-f40029c55da7","ios":"levelo://app?vid=f348e5d0-9bba-4be5-a747-f40029c55da7"},"vehicle_type_id":"4","last_reported":1687522450,"current_range_meters":15600,"station_id":"ce4bgk12rcd13ifvqbj0","pricing_plan_id":"free"},{"bike_id":"2c0aa9fa-f6f5-4a64-985a-55aba9393856","system_id":"levelo_inurba_marseille","lat":43.29573,"lon":5.367355,"is_reserved":false,"is_disabled":false,"rental_uris":{"android":"levelo://app?vid=2c0aa9fa-f6f5-4a64-985a-55aba9393856","ios":"levelo://app?vid=2c0aa9fa-f6f5-4a64-985a-55aba9393856"},"vehicle_type_id":"4","last_reported":1687522450,"current_range_meters":21600,"station_id":"ce4bgph2rcd13ifvqc2g","pricing_plan_id":"free"},{"bike_id":"2f6d799e-04eb-44c2-b9b3-a07b09e7c0a7","system_id":"levelo_inurba_marseille","lat":43.29712,"lon":5.37689,"is_reserved":false,"is_disabled":false,"rental_uris":{"android":"levelo://app?vid=2f6d799e-04eb-44c2-b9b3-a07b09e7c0a7","ios":"levelo://app?vid=2f6d799e-04eb-44c2-b9b3-a07b09e7c0a7"},"vehicle_type_id":"4","last_reported":1687522450,"current_range_meters":14800,"station_id":"","pricing_plan_id":"free"},{"bike_id":"041bc147-ef2f-419b-bb81-deca3bdf89e2","system_id":"levelo_inurba_marseille","lat":43.29611,"lon":5.36046,"is_reserved":false,"is_disabled":false,"rental_uris":{"android":"levelo://app?vid=041bc147-ef2f-419b-bb81-deca3bdf89e2","ios":"levelo://app?vid=041bc147-ef2f-419b-bb81-deca3bdf89e2"},"vehicle_type_id":"4","last_reported":1687522450,"current_range_meters":10800,"station_id":"","pricing_plan_id":"free"},{"bike_id":"9c46eda4-ce28-4132-a992-9b4bc94941ea","system_id":"levelo_inurba_marseille","lat":43.31764,"lon":5.39008,"is_reserved":false,"is_disabled":false,"rental_uris":{"android":"levelo://app?vid=9c46eda4-ce28-4132-a992-9b4bc94941ea","ios":"levelo://app?vid=9c46eda4-ce28-4132-a992-9b4bc94941ea"},"vehicle_type_id":"4","last_reported":1687522450,"current_range_meters":9600,"station_id":"ce4bhqp2rcd13ifvqhng","pricing_plan_id":"free"},{"bike_id":"3c512352-c649-4d84-8868-fd3a8bfe1120","system_id":"levelo_inurba_marseille","lat":43.317557,"lon":5.390173,"is_reserved":false,"is_disabled":false,"rental_uris":{"android":"levelo://app?vid=3c512352-c649-4d84-8868-fd3a8bfe1120","ios":"levelo://app?vid=3c512352-c649-4d84-8868-fd3a8bfe1120"},"vehicle_type_id":"4","last_reported":1687522450,"current_range_meters":14800,"station_id":"ce4bhqp2rcd13ifvqhng","pricing_plan_id":"free"},{"bike_id":"a26b3693-5eee-4958-8ca8-8a69361289e6","system_id":"levelo_inurba_marseille","lat":43.317557,"lon":5.390173,"is_reserved":false,"is_disabled":false,"rental_uris":{"android":"levelo://app?vid=a26b3693-5eee-4958-8ca8-8a69361289e6","ios":"levelo://app?vid=a26b3693-5eee-4958-8ca8-8a69361289e6"},"vehicle_type_id":"4","last_reported":1687522450,"current_range_meters":16000,"station_id":"ce4bhqp2rcd13ifvqhng","pricing_plan_id":"free"},{"bike_id":"902424ba-dde0-4f56-9301-61e305f76d3d","system_id":"levelo_inurba_marseille","lat":43.296277,"lon":5.377108,"is_reserved":false,"is_disabled":false,"rental_uris":{"android":"levelo://app?vid=902424ba-dde0-4f56-9301-61e305f76d3d","ios":"levelo://app?vid=902424ba-dde0-4f56-9301-61e305f76d3d"},"vehicle_type_id":"4","last_reported":1687522450,"current_range_meters":5200,"station_id":"ce4bgi92rcd13ifvqb90","pricing_plan_id":"free"},{"bike_id":"d5c85424-39c5-4fe2-9517-46791fe9a29d","system_id":"levelo_inurba_marseille","lat":43.29618,"lon":5.37712,"is_reserved":false,"is_disabled":false,"rental_uris":{"android":"levelo://app?vid=d5c85424-39c5-4fe2-9517-46791fe9a29d","ios":"levelo://app?vid=d5c85424-39c5-4fe2-9517-46791fe9a29d"},"vehicle_type_id":"4","last_reported":1687522450,"current_range_meters":23200,"station_id":"ce4bgi92rcd13ifvqb90","pricing_plan_id":"free"},{"bike_id":"ccd926c3-ea7c-48b3-b8a0-de480266f2fd","system_id":"levelo_inurba_marseille","lat":43.29778,"lon":5.38142,"is_reserved":false,"is_disabled":false,"rental_uris":{"android":"levelo://app?vid=ccd926c3-ea7c-48b3-b8a0-de480266f2fd","ios":"levelo://app?vid=ccd926c3-ea7c-48b3-b8a0-de480266f2fd"},"vehicle_type_id":"4","last_reported":1687522450,"current_range_meters":8000,"station_id":"ce4bgip2rcd13ifvqbb0","pricing_plan_id":"free"},{"bike_id":"143326a6-53eb-4665-9561-3a6dd1e79f23","system_id":"levelo_inurba_marseille","lat":43.295279,"lon":5.375048,"is_reserved":false,"is_disabled":false,"rental_uris":{"android":"levelo://app?vid=143326a6-53eb-4665-9561-3a6dd1e79f23","ios":"levelo://app?vid=143326a6-53eb-4665-9561-3a6dd1e79f23"},"vehicle_type_id":"4","last_reported":1687522450,"current_range_meters":2800,"station_id":"ce4bgkp2rcd13ifvqbmg","pricing_plan_id":"free"},{"bike_id":"08a1ebcf-d9d6-40cd-9b63-5f63d7f96e32","system_id":"levelo_inurba_marseille","lat":43.295279,"lon":5.375048,"is_reserved":false,"is_disabled":false,"rental_uris":{"android":"levelo://app?vid=08a1ebcf-d9d6-40cd-9b63-5f63d7f96e32","ios":"levelo://app?vid=08a1ebcf-d9d6-40cd-9b63-5f63d7f96e32"},"vehicle_type_id":"4","last_reported":1687522450,"current_range_meters":12000,"station_id":"ce4bgkp2rcd13ifvqbmg","pricing_plan_id":"free"},{"bike_id":"dd08f181-4bc0-43a0-8dd4-8869f67b12a3","system_id":"levelo_inurba_marseille","lat":43.295279,"lon":5.375048,"is_reserved":false,"is_disabled":false,"rental_uris":{"android":"levelo://app?vid=dd08f181-4bc0-43a0-8dd4-8869f67b12a3","ios":"levelo://app?vid=dd08f181-4bc0-43a0-8dd4-8869f67b12a3"},"vehicle_type_id":"4","last_reported":1687522450,"current_range_meters":18400,"station_id":"ce4bgkp2rcd13ifvqbmg","pricing_plan_id":"free"},{"bike_id":"59cbccfc-ffd6-4bae-b1b9-861aa4cc2401","system_id":"levelo_inurba_marseille","lat":43.295279,"lon":5.375048,"is_reserved":false,"is_disabled":false,"rental_uris":{"android":"levelo://app?vid=59cbccfc-ffd6-4bae-b1b9-861aa4cc2401","ios":"levelo://app?vid=59cbccfc-ffd6-4bae-b1b9-861aa4cc2401"},"vehicle_type_id":"4","last_reported":1687522450,"current_range_meters":15600,"station_id":"ce4bgkp2rcd13ifvqbmg","pricing_plan_id":"free"},{"bike_id":"5ab80f25-acc4-4f9e-afe6-e6b09da12982","system_id":"levelo_inurba_marseille","lat":43.295279,"lon":5.375048,"is_reserved":false,"is_disabled":false,"rental_uris":{"android":"levelo://app?vid=5ab80f25-acc4-4f9e-afe6-e6b09da12982","ios":"levelo://app?vid=5ab80f25-acc4-4f9e-afe6-e6b09da12982"},"vehicle_type_id":"4","last_reported":1687522450,"current_range_meters":20400,"station_id":"ce4bgkp2rcd13ifvqbmg","pricing_plan_id":"free"},{"bike_id":"6aaa8d04-5cc6-4c8b-8b02-5a3244a44ca8","system_id":"levelo_inurba_marseille","lat":43.295279,"lon":5.375048,"is_reserved":false,"is_disabled":false,"rental_uris":{"android":"levelo://app?vid=6aaa8d04-5cc6-4c8b-8b02-5a3244a44ca8","ios":"levelo://app?vid=6aaa8d04-5cc6-4c8b-8b02-5a3244a44ca8"},"vehicle_type_id":"4","last_reported":1687522450,"current_range_meters":7200,"station_id":"ce4bgkp2rcd13ifvqbmg","pricing_plan_id":"free"},{"bike_id":"2afd9b60-44ef-4cc2-a4f4-72edbac4e2f0","system_id":"levelo_inurba_marseille","lat":43.32366,"lon":5.38868,"is_reserved":false,"is_disabled":false,"rental_uris":{"android":"levelo://app?vid=2afd9b60-44ef-4cc2-a4f4-72edbac4e2f0","ios":"levelo://app?vid=2afd9b60-44ef-4cc2-a4f4-72edbac4e2f0"},"vehicle_type_id":"4","last_reported":1687522450,"current_range_meters":27600,"station_id":"ce4bhqp2rcd13ifvqhog","pricing_plan_id":"free"},{"bike_id":"a4982143-2425-407a-81e3-fbbbd5897622","system_id":"levelo_inurba_marseille","lat":43.32362,"lon":5.38876,"is_reserved":false,"is_disabled":false,"rental_uris":{"android":"levelo://app?vid=a4982143-2425-407a-81e3-fbbbd5897622","ios":"levelo://app?vid=a4982143-2425-407a-81e3-fbbbd5897622"},"vehicle_type_id":"4","last_reported":1687522450,"current_range_meters":31200,"station_id":"ce4bhqp2rcd13ifvqhog","pricing_plan_id":"free"},{"bike_id":"254894fd-921b-4843-8363-286bd1ba7f1a","system_id":"levelo_inurba_marseille","lat":43.32367,"lon":5.38882,"is_reserved":false,"is_disabled":false,"rental_uris":{"android":"levelo://app?vid=254894fd-921b-4843-8363-286bd1ba7f1a","ios":"levelo://app?vid=254894fd-921b-4843-8363-286bd1ba7f1a"},"vehicle_type_id":"4","last_reported":1687522450,"current_range_meters":24000,"station_id":"ce4bhqp2rcd13ifvqhog","pricing_plan_id":"free"},{"bike_id":"ba9bcc13-30a6-41ee-ab87-c9d21de1e9f5","system_id":"levelo_inurba_marseille","lat":43.32367,"lon":5.388836,"is_reserved":false,"is_disabled":false,"rental_uris":{"android":"levelo://app?vid=ba9bcc13-30a6-41ee-ab87-c9d21de1e9f5","ios":"levelo://app?vid=ba9bcc13-30a6-41ee-ab87-c9d21de1e9f5"},"vehicle_type_id":"4","last_reported":1687522450,"current_range_meters":18000,"station_id":"ce4bhqp2rcd13ifvqhog","pricing_plan_id":"free"},{"bike_id":"5b87b361-6b4e-46cf-961c-0c4ce8ce5e46","system_id":"levelo_inurba_marseille","lat":43.293249,"lon":5.371578,"is_reserved":false,"is_disabled":false,"rental_uris":{"android":"levelo://app?vid=5b87b361-6b4e-46cf-961c-0c4ce8ce5e46","ios":"levelo://app?vid=5b87b361-6b4e-46cf-961c-0c4ce8ce5e46"},"vehicle_type_id":"4","last_reported":1687522450,"current_range_meters":30400,"station_id":"ce4bgh92rcd13ifvqb40","pricing_plan_id":"free"},{"bike_id":"dba03166-4898-4c31-96ff-6316b0791806","system_id":"levelo_inurba_marseille","lat":43.29301,"lon":5.37461,"is_reserved":false,"is_disabled":false,"rental_uris":{"android":"levelo://app?vid=dba03166-4898-4c31-96ff-6316b0791806","ios":"levelo://app?vid=dba03166-4898-4c31-96ff-6316b0791806"},"vehicle_type_id":"4","last_reported":1687522450,"current_range_meters":2000,"station_id":"ce4bgi12rcd13ifvqb70","pricing_plan_id":"free"},{"bike_id":"d176b7c3-1ce5-4df9-be1e-b9db05afc6d0","system_id":"levelo_inurba_marseille","lat":43.2936,"lon":5.37835,"is_reserved":false,"is_disabled":false,"rental_uris":{"android":"levelo://app?vid=d176b7c3-1ce5-4df9-be1e-b9db05afc6d0","ios":"levelo://app?vid=d176b7c3-1ce5-4df9-be1e-b9db05afc6d0"},"vehicle_type_id":"4","last_reported":1687522450,"current_range_meters":0,"station_id":"ce4bgjh2rcd13ifvqbf0","pricing_plan_id":"free"},{"bike_id":"c5ea50e9-940f-49f1-a3a5-74cf07903953","system_id":"levelo_inurba_marseille","lat":43.29352,"lon":5.37811,"is_reserved":false,"is_disabled":false,"rental_uris":{"android":"levelo://app?vid=c5ea50e9-940f-49f1-a3a5-74cf07903953","ios":"levelo://app?vid=c5ea50e9-940f-49f1-a3a5-74cf07903953"},"vehicle_type_id":"4","last_reported":1687522450,"current_range_meters":29200,"station_id":"ce4bgjh2rcd13ifvqbf0","pricing_plan_id":"free"},{"bike_id":"beb735cf-a4c5-4aa6-9a94-1a0136324104","system_id":"levelo_inurba_marseille","lat":43.292311,"lon":5.360731,"is_reserved":false,"is_disabled":false,"rental_uris":{"android":"levelo://app?vid=beb735cf-a4c5-4aa6-9a94-1a0136324104","ios":"levelo://app?vid=beb735cf-a4c5-4aa6-9a94-1a0136324104"},"vehicle_type_id":"4","last_reported":1687522450,"current_range_meters":4800,"station_id":"ce4bhbh2rcd13ifvqeqg","pricing_plan_id":"free"},{"bike_id":"116c0427-0fd4-4bbe-a7b2-b7f212897ad9","system_id":"levelo_inurba_marseille","lat":43.298764,"lon":5.388973,"is_reserved":false,"is_disabled":false,"rental_uris":{"android":"levelo://app?vid=116c0427-0fd4-4bbe-a7b2-b7f212897ad9","ios":"levelo://app?vid=116c0427-0fd4-4bbe-a7b2-b7f212897ad9"},"vehicle_type_id":"4","last_reported":1687522450,"current_range_meters":5600,"station_id":"ce4bh392rcd13ifvqdl0","pricing_plan_id":"free"},{"bike_id":"cca4cd47-60cc-4cbe-9706-b848f2f68f1e","system_id":"levelo_inurba_marseille","lat":43.300852,"lon":5.390859,"is_reserved":false,"is_disabled":false,"rental_uris":{"android":"levelo://app?vid=cca4cd47-60cc-4cbe-9706-b848f2f68f1e","ios":"levelo://app?vid=cca4cd47-60cc-4cbe-9706-b848f2f68f1e"},"vehicle_type_id":"4","last_reported":1687522450,"current_range_meters":20400,"station_id":"ce4bh192rcd13ifvqdb0","pricing_plan_id":"free"},{"bike_id":"a7f79ecf-6c9d-487a-b026-19774d849ed2","system_id":"levelo_inurba_marseille","lat":43.29266,"lon":5.37621,"is_reserved":false,"is_disabled":false,"rental_uris":{"android":"levelo://app?vid=a7f79ecf-6c9d-487a-b026-19774d849ed2","ios":"levelo://app?vid=a7f79ecf-6c9d-487a-b026-19774d849ed2"},"vehicle_type_id":"4","last_reported":1687522450,"current_range_meters":31200,"station_id":"ce4bgi12rcd13ifvqb80","pricing_plan_id":"free"},{"bike_id":"a82615fe-a9b4-4855-b1a4-351f8c75706d","system_id":"levelo_inurba_marseille","lat":43.292604,"lon":5.37621,"is_reserved":false,"is_disabled":false,"rental_uris":{"android":"levelo://app?vid=a82615fe-a9b4-4855-b1a4-351f8c75706d","ios":"levelo://app?vid=a82615fe-a9b4-4855-b1a4-351f8c75706d"},"vehicle_type_id":"4","last_reported":1687522450,"current_range_meters":30400,"station_id":"ce4bgi12rcd13ifvqb80","pricing_plan_id":"free"},{"bike_id":"99c2125e-7e79-4824-856d-10fd3d0cb8a0","system_id":"levelo_inurba_marseille","lat":43.29876,"lon":5.38909,"is_reserved":false,"is_disabled":false,"rental_uris":{"android":"levelo://app?vid=99c2125e-7e79-4824-856d-10fd3d0cb8a0","ios":"levelo://app?vid=99c2125e-7e79-4824-856d-10fd3d0cb8a0"},"vehicle_type_id":"4","last_reported":1687522450,"current_range_meters":18000,"station_id":"ce4bh392rcd13ifvqdl0","pricing_plan_id":"free"},{"bike_id":"54fda2f9-7b1a-4838-9b70-087d4101d0ae","system_id":"levelo_inurba_marseille","lat":43.3325,"lon":5.37934,"is_reserved":false,"is_disabled":false,"rental_uris":{"android":"levelo://app?vid=54fda2f9-7b1a-4838-9b70-087d4101d0ae","ios":"levelo://app?vid=54fda2f9-7b1a-4838-9b70-087d4101d0ae"},"vehicle_type_id":"4","last_reported":1687522450,"current_range_meters":3600,"station_id":"","pricing_plan_id":"free"},{"bike_id":"7c17ef5b-9e92-4def-9c20-9820e48fcfbf","system_id":"levelo_inurba_marseille","lat":43.309038,"lon":5.396546,"is_reserved":false,"is_disabled":false,"rental_uris":{"android":"levelo://app?vid=7c17ef5b-9e92-4def-9c20-9820e48fcfbf","ios":"levelo://app?vid=7c17ef5b-9e92-4def-9c20-9820e48fcfbf"},"vehicle_type_id":"4","last_reported":1687522450,"current_range_meters":14400,"station_id":"ce4bh012rcd13ifvqcv0","pricing_plan_id":"free"},{"bike_id":"4fc37f5c-dd5c-4842-a8a6-469765b213bd","system_id":"levelo_inurba_marseille","lat":43.29198,"lon":5.35789,"is_reserved":false,"is_disabled":false,"rental_uris":{"android":"levelo://app?vid=4fc37f5c-dd5c-4842-a8a6-469765b213bd","ios":"levelo://app?vid=4fc37f5c-dd5c-4842-a8a6-469765b213bd"},"vehicle_type_id":"4","last_reported":1687522450,"current_range_meters":10400,"station_id":"ce4bhb12rcd13ifvqel0","pricing_plan_id":"free"},{"bike_id":"56856140-a380-4b77-b446-c46352d2b8e2","system_id":"levelo_inurba_marseille","lat":43.313291,"lon":5.396838,"is_reserved":false,"is_disabled":false,"rental_uris":{"android":"levelo://app?vid=56856140-a380-4b77-b446-c46352d2b8e2","ios":"levelo://app?vid=56856140-a380-4b77-b446-c46352d2b8e2"},"vehicle_type_id":"4","last_reported":1687522450,"current_range_meters":2000,"station_id":"ce4bgvp2rcd13ifvqcu0","pricing_plan_id":"free"},{"bike_id":"f4681af6-5c17-4b4c-b716-08dcd94deec4","system_id":"levelo_inurba_marseille","lat":43.309038,"lon":5.396546,"is_reserved":false,"is_disabled":false,"rental_uris":{"android":"levelo://app?vid=f4681af6-5c17-4b4c-b716-08dcd94deec4","ios":"levelo://app?vid=f4681af6-5c17-4b4c-b716-08dcd94deec4"},"vehicle_type_id":"4","last_reported":1687522450,"current_range_meters":26800,"station_id":"ce4bh012rcd13ifvqcv0","pricing_plan_id":"free"},{"bike_id":"f0768ca5-39a7-44ea-a5f2-f8f796277562","system_id":"levelo_inurba_marseille","lat":43.309038,"lon":5.396546,"is_reserved":false,"is_disabled":false,"rental_uris":{"android":"levelo://app?vid=f0768ca5-39a7-44ea-a5f2-f8f796277562","ios":"levelo://app?vid=f0768ca5-39a7-44ea-a5f2-f8f796277562"},"vehicle_type_id":"4","last_reported":1687522450,"current_range_meters":1200,"station_id":"ce4bh012rcd13ifvqcv0","pricing_plan_id":"free"},{"bike_id":"8dc2f182-1384-42eb-a7ec-d5acec5d07e9","system_id":"levelo_inurba_marseille","lat":43.313291,"lon":5.396838,"is_reserved":false,"is_disabled":false,"rental_uris":{"android":"levelo://app?vid=8dc2f182-1384-42eb-a7ec-d5acec5d07e9","ios":"levelo://app?vid=8dc2f182-1384-42eb-a7ec-d5acec5d07e9"},"vehicle_type_id":"4","last_reported":1687522450,"current_range_meters":31200,"station_id":"ce4bgvp2rcd13ifvqcu0","pricing_plan_id":"free"},{"bike_id":"e68e36ff-6a0a-4647-91bc-0176c3de0845","system_id":"levelo_inurba_marseille","lat":43.29529,"lon":5.385581,"is_reserved":false,"is_disabled":false,"rental_uris":{"android":"levelo://app?vid=e68e36ff-6a0a-4647-91bc-0176c3de0845","ios":"levelo://app?vid=e68e36ff-6a0a-4647-91bc-0176c3de0845"},"vehicle_type_id":"4","last_reported":1687522450,"current_range_meters":12400,"station_id":"ce4bgih2rcd13ifvqba0","pricing_plan_id":"free"},{"bike_id":"bbc3a939-f887-40fd-8a20-02dc0a073808","system_id":"levelo_inurba_marseille","lat":43.2954,"lon":5.38546,"is_reserved":false,"is_disabled":false,"rental_uris":{"android":"levelo://app?vid=bbc3a939-f887-40fd-8a20-02dc0a073808","ios":"levelo://app?vid=bbc3a939-f887-40fd-8a20-02dc0a073808"},"vehicle_type_id":"4","last_reported":1687522450,"current_range_meters":30400,"station_id":"ce4bgih2rcd13ifvqba0","pricing_plan_id":"free"},{"bike_id":"36f23ad6-4b3c-462c-bd73-1d229ef8fb3d","system_id":"levelo_inurba_marseille","lat":43.29063,"lon":5.37167,"is_reserved":false,"is_disabled":false,"rental_uris":{"android":"levelo://app?vid=36f23ad6-4b3c-462c-bd73-1d229ef8fb3d","ios":"levelo://app?vid=36f23ad6-4b3c-462c-bd73-1d229ef8fb3d"},"vehicle_type_id":"4","last_reported":1687522450,"current_range_meters":31200,"station_id":"ce4bh5p2rcd13ifvqe4g","pricing_plan_id":"free"},{"bike_id":"6b92c83f-4d77-4af5-869b-f80b18b4a756","system_id":"levelo_inurba_marseille","lat":43.290779,"lon":5.371482,"is_reserved":false,"is_disabled":false,"rental_uris":{"android":"levelo://app?vid=6b92c83f-4d77-4af5-869b-f80b18b4a756","ios":"levelo://app?vid=6b92c83f-4d77-4af5-869b-f80b18b4a756"},"vehicle_type_id":"4","last_reported":1687522450,"current_range_meters":29200,"station_id":"ce4bh5p2rcd13ifvqe4g","pricing_plan_id":"free"},{"bike_id":"7a420e26-bc7b-42fc-bb1c-70b2def9a52d","system_id":"levelo_inurba_marseille","lat":43.290382,"lon":5.375604,"is_reserved":false,"is_disabled":false,"rental_uris":{"android":"levelo://app?vid=7a420e26-bc7b-42fc-bb1c-70b2def9a52d","ios":"levelo://app?vid=7a420e26-bc7b-42fc-bb1c-70b2def9a52d"},"vehicle_type_id":"4","last_reported":1687522450,"current_range_meters":24400,"station_id":"ce4bh692rcd13ifvqe90","pricing_plan_id":"free"},{"bike_id":"c6841d7d-4b52-4950-968c-c1d032310217","system_id":"levelo_inurba_marseille","lat":43.290327,"lon":5.375711,"is_reserved":false,"is_disabled":false,"rental_uris":{"android":"levelo://app?vid=c6841d7d-4b52-4950-968c-c1d032310217","ios":"levelo://app?vid=c6841d7d-4b52-4950-968c-c1d032310217"},"vehicle_type_id":"4","last_reported":1687522450,"current_range_meters":15600,"station_id":"ce4bh692rcd13ifvqe90","pricing_plan_id":"free"},{"bike_id":"20b2702a-2cf1-439f-b7da-41f192fa1a0a","system_id":"levelo_inurba_marseille","lat":43.29411,"lon":5.38614,"is_reserved":false,"is_disabled":false,"rental_uris":{"android":"levelo://app?vid=20b2702a-2cf1-439f-b7da-41f192fa1a0a","ios":"levelo://app?vid=20b2702a-2cf1-439f-b7da-41f192fa1a0a"},"vehicle_type_id":"4","last_reported":1687522450,"current_range_meters":23200,"station_id":"","pricing_plan_id":"free"},{"bike_id":"b5280599-f037-4813-97cf-c598efdfa51d","system_id":"levelo_inurba_marseille","lat":43.292644,"lon":5.384257,"is_reserved":false,"is_disabled":false,"rental_uris":{"android":"levelo://app?vid=b5280599-f037-4813-97cf-c598efdfa51d","ios":"levelo://app?vid=b5280599-f037-4813-97cf-c598efdfa51d"},"vehicle_type_id":"4","last_reported":1687522450,"current_range_meters":8800,"station_id":"ce4bh692rcd13ifvqea0","pricing_plan_id":"free"},{"bike_id":"e36874dc-7135-4ebc-b4cd-8f7cd3793fb7","system_id":"levelo_inurba_marseille","lat":43.30391,"lon":5.3972,"is_reserved":false,"is_disabled":false,"rental_uris":{"android":"levelo://app?vid=e36874dc-7135-4ebc-b4cd-8f7cd3793fb7","ios":"levelo://app?vid=e36874dc-7135-4ebc-b4cd-8f7cd3793fb7"},"vehicle_type_id":"4","last_reported":1687522450,"current_range_meters":27200,"station_id":"","pricing_plan_id":"free"},{"bike_id":"c725fcaa-ddf3-4f27-adad-282149dd2696","system_id":"levelo_inurba_marseille","lat":43.290103,"lon":5.356114,"is_reserved":false,"is_disabled":false,"rental_uris":{"android":"levelo://app?vid=c725fcaa-ddf3-4f27-adad-282149dd2696","ios":"levelo://app?vid=c725fcaa-ddf3-4f27-adad-282149dd2696"},"vehicle_type_id":"4","last_reported":1687522450,"current_range_meters":30400,"station_id":"ce4bhb92rcd13ifvqen0","pricing_plan_id":"free"},{"bike_id":"28c7dbbb-539c-4e0f-ae61-04dda52f6d09","system_id":"levelo_inurba_marseille","lat":43.33039,"lon":5.3892,"is_reserved":false,"is_disabled":false,"rental_uris":{"android":"levelo://app?vid=28c7dbbb-539c-4e0f-ae61-04dda52f6d09","ios":"levelo://app?vid=28c7dbbb-539c-4e0f-ae61-04dda52f6d09"},"vehicle_type_id":"4","last_reported":1687522450,"current_range_meters":21200,"station_id":"ce4bhr92rcd13ifvqhrg","pricing_plan_id":"free"},{"bike_id":"1df9609f-923e-428c-8578-f970672df507","system_id":"levelo_inurba_marseille","lat":43.33042,"lon":5.38916,"is_reserved":false,"is_disabled":false,"rental_uris":{"android":"levelo://app?vid=1df9609f-923e-428c-8578-f970672df507","ios":"levelo://app?vid=1df9609f-923e-428c-8578-f970672df507"},"vehicle_type_id":"4","last_reported":1687522450,"current_range_meters":20000,"station_id":"ce4bhr92rcd13ifvqhrg","pricing_plan_id":"free"},{"bike_id":"dcbeae36-e893-4c53-834e-933ca5889d3f","system_id":"levelo_inurba_marseille","lat":43.33042,"lon":5.3892,"is_reserved":false,"is_disabled":false,"rental_uris":{"android":"levelo://app?vid=dcbeae36-e893-4c53-834e-933ca5889d3f","ios":"levelo://app?vid=dcbeae36-e893-4c53-834e-933ca5889d3f"},"vehicle_type_id":"4","last_reported":1687522450,"current_range_meters":30000,"station_id":"ce4bhr92rcd13ifvqhrg","pricing_plan_id":"free"},{"bike_id":"e4f4d0dc-ede6-4dbb-9ce1-15ec8d5215f4","system_id":"levelo_inurba_marseille","lat":43.33044,"lon":5.3892,"is_reserved":false,"is_disabled":false,"rental_uris":{"android":"levelo://app?vid=e4f4d0dc-ede6-4dbb-9ce1-15ec8d5215f4","ios":"levelo://app?vid=e4f4d0dc-ede6-4dbb-9ce1-15ec8d5215f4"},"vehicle_type_id":"4","last_reported":1687522450,"current_range_meters":14400,"station_id":"ce4bhr92rcd13ifvqhrg","pricing_plan_id":"free"},{"bike_id":"b8d8195b-96f3-4a90-ac56-fcb41dc7c3cb","system_id":"levelo_inurba_marseille","lat":43.33046,"lon":5.38919,"is_reserved":false,"is_disabled":false,"rental_uris":{"android":"levelo://app?vid=b8d8195b-96f3-4a90-ac56-fcb41dc7c3cb","ios":"levelo://app?vid=b8d8195b-96f3-4a90-ac56-fcb41dc7c3cb"},"vehicle_type_id":"4","last_reported":1687522450,"current_range_meters":3200,"station_id":"ce4bhr92rcd13ifvqhrg","pricing_plan_id":"free"},{"bike_id":"de4a6415-7cce-4656-89ac-d7d4eaa645b3","system_id":"levelo_inurba_marseille","lat":43.33046,"lon":5.3892,"is_reserved":false,"is_disabled":false,"rental_uris":{"android":"levelo://app?vid=de4a6415-7cce-4656-89ac-d7d4eaa645b3","ios":"levelo://app?vid=de4a6415-7cce-4656-89ac-d7d4eaa645b3"},"vehicle_type_id":"4","last_reported":1687522450,"current_range_meters":15200,"station_id":"ce4bhr92rcd13ifvqhrg","pricing_plan_id":"free"},{"bike_id":"c73d2cc7-61ec-4fd2-a002-ffa050603a67","system_id":"levelo_inurba_marseille","lat":43.33043,"lon":5.38926,"is_reserved":false,"is_disabled":false,"rental_uris":{"android":"levelo://app?vid=c73d2cc7-61ec-4fd2-a002-ffa050603a67","ios":"levelo://app?vid=c73d2cc7-61ec-4fd2-a002-ffa050603a67"},"vehicle_type_id":"4","last_reported":1687522450,"current_range_meters":30000,"station_id":"ce4bhr92rcd13ifvqhrg","pricing_plan_id":"free"},{"bike_id":"0e663f63-f0ab-4c7f-8cf5-7c4d0aed6fca","system_id":"levelo_inurba_marseille","lat":43.290104,"lon":5.356111,"is_reserved":false,"is_disabled":false,"rental_uris":{"android":"levelo://app?vid=0e663f63-f0ab-4c7f-8cf5-7c4d0aed6fca","ios":"levelo://app?vid=0e663f63-f0ab-4c7f-8cf5-7c4d0aed6fca"},"vehicle_type_id":"4","last_reported":1687522450,"current_range_meters":10800,"station_id":"ce4bhb92rcd13ifvqen0","pricing_plan_id":"free"},{"bike_id":"27a5f79a-a611-49d2-97c9-3e321684525f","system_id":"levelo_inurba_marseille","lat":43.290104,"lon":5.356111,"is_reserved":false,"is_disabled":false,"rental_uris":{"android":"levelo://app?vid=27a5f79a-a611-49d2-97c9-3e321684525f","ios":"levelo://app?vid=27a5f79a-a611-49d2-97c9-3e321684525f"},"vehicle_type_id":"4","last_reported":1687522450,"current_range_meters":16800,"station_id":"ce4bhb92rcd13ifvqen0","pricing_plan_id":"free"},{"bike_id":"35306ed0-6dac-4839-ad8e-46989b631867","system_id":"levelo_inurba_marseille","lat":43.295169,"lon":5.390426,"is_reserved":false,"is_disabled":false,"rental_uris":{"android":"levelo://app?vid=35306ed0-6dac-4839-ad8e-46989b631867","ios":"levelo://app?vid=35306ed0-6dac-4839-ad8e-46989b631867"},"vehicle_type_id":"4","last_reported":1687522450,"current_range_meters":8000,"station_id":"ce4bh3p2rcd13ifvqdp0","pricing_plan_id":"free"},{"bike_id":"fab44dac-efe5-438a-beae-e0bd284f32c0","system_id":"levelo_inurba_marseille","lat":43.29036,"lon":5.38138,"is_reserved":false,"is_disabled":false,"rental_uris":{"android":"levelo://app?vid=fab44dac-efe5-438a-beae-e0bd284f32c0","ios":"levelo://app?vid=fab44dac-efe5-438a-beae-e0bd284f32c0"},"vehicle_type_id":"4","last_reported":1687522450,"current_range_meters":13200,"station_id":"ce4bh4p2rcd13ifvqe1g","pricing_plan_id":"free"},{"bike_id":"389879a6-40b4-4afc-94af-47c3f0abef73","system_id":"levelo_inurba_marseille","lat":43.2901,"lon":5.381269,"is_reserved":false,"is_disabled":false,"rental_uris":{"android":"levelo://app?vid=389879a6-40b4-4afc-94af-47c3f0abef73","ios":"levelo://app?vid=389879a6-40b4-4afc-94af-47c3f0abef73"},"vehicle_type_id":"4","last_reported":1687522450,"current_range_meters":0,"station_id":"ce4bh4p2rcd13ifvqe1g","pricing_plan_id":"free"},{"bike_id":"3e6c36a9-c406-43f5-8284-ce075c04fa95","system_id":"levelo_inurba_marseille","lat":43.2902,"lon":5.38135,"is_reserved":false,"is_disabled":false,"rental_uris":{"android":"levelo://app?vid=3e6c36a9-c406-43f5-8284-ce075c04fa95","ios":"levelo://app?vid=3e6c36a9-c406-43f5-8284-ce075c04fa95"},"vehicle_type_id":"4","last_reported":1687522450,"current_range_meters":24400,"station_id":"ce4bh4p2rcd13ifvqe1g","pricing_plan_id":"free"},{"bike_id":"195677d8-6d2f-4d28-a95e-1ac8e36ebf9a","system_id":"levelo_inurba_marseille","lat":43.28862,"lon":5.35854,"is_reserved":false,"is_disabled":false,"rental_uris":{"android":"levelo://app?vid=195677d8-6d2f-4d28-a95e-1ac8e36ebf9a","ios":"levelo://app?vid=195677d8-6d2f-4d28-a95e-1ac8e36ebf9a"},"vehicle_type_id":"4","last_reported":1687522450,"current_range_meters":31200,"station_id":"ce4bhb12rcd13ifvqem0","pricing_plan_id":"free"},{"bike_id":"32570eba-75f2-41c1-bcaa-18263fd800df","system_id":"levelo_inurba_marseille","lat":43.29011,"lon":5.38134,"is_reserved":false,"is_disabled":false,"rental_uris":{"android":"levelo://app?vid=32570eba-75f2-41c1-bcaa-18263fd800df","ios":"levelo://app?vid=32570eba-75f2-41c1-bcaa-18263fd800df"},"vehicle_type_id":"4","last_reported":1687522450,"current_range_meters":9200,"station_id":"ce4bh4p2rcd13ifvqe1g","pricing_plan_id":"free"},{"bike_id":"3f8a925a-6a54-4259-a38f-9cf091aab246","system_id":"levelo_inurba_marseille","lat":43.29263,"lon":5.38753,"is_reserved":false,"is_disabled":false,"rental_uris":{"android":"levelo://app?vid=3f8a925a-6a54-4259-a38f-9cf091aab246","ios":"levelo://app?vid=3f8a925a-6a54-4259-a38f-9cf091aab246"},"vehicle_type_id":"4","last_reported":1687522450,"current_range_meters":25600,"station_id":"","pricing_plan_id":"free"},{"bike_id":"9070b5ec-4993-4141-b20b-4b064af8c820","system_id":"levelo_inurba_marseille","lat":43.28919,"lon":5.35449,"is_reserved":false,"is_disabled":false,"rental_uris":{"android":"levelo://app?vid=9070b5ec-4993-4141-b20b-4b064af8c820","ios":"levelo://app?vid=9070b5ec-4993-4141-b20b-4b064af8c820"},"vehicle_type_id":"4","last_reported":1687522450,"current_range_meters":28400,"station_id":"ce4bhbh2rcd13ifvqepg","pricing_plan_id":"free"},{"bike_id":"8dbbf780-2000-40db-8a27-140279cb1255","system_id":"levelo_inurba_marseille","lat":43.309371,"lon":5.401449,"is_reserved":false,"is_disabled":false,"rental_uris":{"android":"levelo://app?vid=8dbbf780-2000-40db-8a27-140279cb1255","ios":"levelo://app?vid=8dbbf780-2000-40db-8a27-140279cb1255"},"vehicle_type_id":"4","last_reported":1687522450,"current_range_meters":18000,"station_id":"ce4bgvp2rcd13ifvqct0","pricing_plan_id":"free"},{"bike_id":"47d7b8fc-b045-49c9-ad70-c2a85ea60d7d","system_id":"levelo_inurba_marseille","lat":43.309371,"lon":5.401449,"is_reserved":false,"is_disabled":false,"rental_uris":{"android":"levelo://app?vid=47d7b8fc-b045-49c9-ad70-c2a85ea60d7d","ios":"levelo://app?vid=47d7b8fc-b045-49c9-ad70-c2a85ea60d7d"},"vehicle_type_id":"4","last_reported":1687522450,"current_range_meters":12800,"station_id":"ce4bgvp2rcd13ifvqct0","pricing_plan_id":"free"},{"bike_id":"fc3b0ac6-434b-486a-9b65-38ee565220ba","system_id":"levelo_inurba_marseille","lat":43.309371,"lon":5.401449,"is_reserved":false,"is_disabled":false,"rental_uris":{"android":"levelo://app?vid=fc3b0ac6-434b-486a-9b65-38ee565220ba","ios":"levelo://app?vid=fc3b0ac6-434b-486a-9b65-38ee565220ba"},"vehicle_type_id":"4","last_reported":1687522450,"current_range_meters":23200,"station_id":"ce4bgvp2rcd13ifvqct0","pricing_plan_id":"free"},{"bike_id":"2eef84a7-0ee5-4b67-8547-81021f73a966","system_id":"levelo_inurba_marseille","lat":43.29154,"lon":5.38601,"is_reserved":false,"is_disabled":false,"rental_uris":{"android":"levelo://app?vid=2eef84a7-0ee5-4b67-8547-81021f73a966","ios":"levelo://app?vid=2eef84a7-0ee5-4b67-8547-81021f73a966"},"vehicle_type_id":"4","last_reported":1687522450,"current_range_meters":20000,"station_id":"","pricing_plan_id":"free"},{"bike_id":"c180ae38-f769-441f-8a55-5a6e4930e6ad","system_id":"levelo_inurba_marseille","lat":43.3375,"lon":5.37439,"is_reserved":false,"is_disabled":false,"rental_uris":{"android":"levelo://app?vid=c180ae38-f769-441f-8a55-5a6e4930e6ad","ios":"levelo://app?vid=c180ae38-f769-441f-8a55-5a6e4930e6ad"},"vehicle_type_id":"4","last_reported":1687522450,"current_range_meters":27600,"station_id":"","pricing_plan_id":"free"},{"bike_id":"2cb5841e-cfd4-4329-9d4d-e35d1c08e5e2","system_id":"levelo_inurba_marseille","lat":43.33751,"lon":5.37444,"is_reserved":false,"is_disabled":false,"rental_uris":{"android":"levelo://app?vid=2cb5841e-cfd4-4329-9d4d-e35d1c08e5e2","ios":"levelo://app?vid=2cb5841e-cfd4-4329-9d4d-e35d1c08e5e2"},"vehicle_type_id":"4","last_reported":1687522450,"current_range_meters":24400,"station_id":"","pricing_plan_id":"free"},{"bike_id":"ec24c99d-4841-4106-a969-10a1f87f35d5","system_id":"levelo_inurba_marseille","lat":43.30935,"lon":5.40155,"is_reserved":false,"is_disabled":false,"rental_uris":{"android":"levelo://app?vid=ec24c99d-4841-4106-a969-10a1f87f35d5","ios":"levelo://app?vid=ec24c99d-4841-4106-a969-10a1f87f35d5"},"vehicle_type_id":"4","last_reported":1687522450,"current_range_meters":18400,"station_id":"ce4bgvp2rcd13ifvqct0","pricing_plan_id":"free"},{"bike_id":"71a50c1f-09f0-47f2-bd28-cfcd0711a6bd","system_id":"levelo_inurba_marseille","lat":43.33763,"lon":5.37435,"is_reserved":false,"is_disabled":false,"rental_uris":{"android":"levelo://app?vid=71a50c1f-09f0-47f2-bd28-cfcd0711a6bd","ios":"levelo://app?vid=71a50c1f-09f0-47f2-bd28-cfcd0711a6bd"},"vehicle_type_id":"4","last_reported":1687522450,"current_range_meters":30400,"station_id":"","pricing_plan_id":"free"},{"bike_id":"b0bd3bcb-bd35-4f75-8285-8f528f09b8d5","system_id":"levelo_inurba_marseille","lat":43.337784,"lon":5.374706,"is_reserved":false,"is_disabled":false,"rental_uris":{"android":"levelo://app?vid=b0bd3bcb-bd35-4f75-8285-8f528f09b8d5","ios":"levelo://app?vid=b0bd3bcb-bd35-4f75-8285-8f528f09b8d5"},"vehicle_type_id":"4","last_reported":1687522450,"current_range_meters":19600,"station_id":"","pricing_plan_id":"free"},{"bike_id":"fea3a389-d5ae-420c-ac73-d0a5334d3516","system_id":"levelo_inurba_marseille","lat":43.286593,"lon":5.363346,"is_reserved":false,"is_disabled":false,"rental_uris":{"android":"levelo://app?vid=fea3a389-d5ae-420c-ac73-d0a5334d3516","ios":"levelo://app?vid=fea3a389-d5ae-420c-ac73-d0a5334d3516"},"vehicle_type_id":"4","last_reported":1687522450,"current_range_meters":20400,"station_id":"ce4bhah2rcd13ifvqej0","pricing_plan_id":"free"},{"bike_id":"790341b8-c991-499e-b5ea-1b32de276526","system_id":"levelo_inurba_marseille","lat":43.298681,"lon":5.397225,"is_reserved":false,"is_disabled":false,"rental_uris":{"android":"levelo://app?vid=790341b8-c991-499e-b5ea-1b32de276526","ios":"levelo://app?vid=790341b8-c991-499e-b5ea-1b32de276526"},"vehicle_type_id":"4","last_reported":1687522450,"current_range_meters":19200,"station_id":"ce4bh0h2rcd13ifvqd50","pricing_plan_id":"free"},{"bike_id":"5c038a9c-124c-4716-a1c0-102c9af814be","system_id":"levelo_inurba_marseille","lat":43.286591,"lon":5.363346,"is_reserved":false,"is_disabled":false,"rental_uris":{"android":"levelo://app?vid=5c038a9c-124c-4716-a1c0-102c9af814be","ios":"levelo://app?vid=5c038a9c-124c-4716-a1c0-102c9af814be"},"vehicle_type_id":"4","last_reported":1687522450,"current_range_meters":0,"station_id":"ce4bhah2rcd13ifvqej0","pricing_plan_id":"free"},{"bike_id":"c7e6c586-f876-4574-8229-b6e69564ef40","system_id":"levelo_inurba_marseille","lat":43.290336,"lon":5.386425,"is_reserved":false,"is_disabled":false,"rental_uris":{"android":"levelo://app?vid=c7e6c586-f876-4574-8229-b6e69564ef40","ios":"levelo://app?vid=c7e6c586-f876-4574-8229-b6e69564ef40"},"vehicle_type_id":"4","last_reported":1687522450,"current_range_meters":27600,"station_id":"ce4bh4p2rcd13ifvqe0g","pricing_plan_id":"free"},{"bike_id":"3743bfed-61ae-4cb6-872e-bda49a176fed","system_id":"levelo_inurba_marseille","lat":43.30257,"lon":5.40079,"is_reserved":false,"is_disabled":false,"rental_uris":{"android":"levelo://app?vid=3743bfed-61ae-4cb6-872e-bda49a176fed","ios":"levelo://app?vid=3743bfed-61ae-4cb6-872e-bda49a176fed"},"vehicle_type_id":"4","last_reported":1687522450,"current_range_meters":29200,"station_id":"ce4bgvh2rcd13ifvqcs0","pricing_plan_id":"free"},{"bike_id":"2ae00855-b6ad-41ee-ae51-c541066a3f99","system_id":"levelo_inurba_marseille","lat":43.286039,"lon":5.370679,"is_reserved":false,"is_disabled":false,"rental_uris":{"android":"levelo://app?vid=2ae00855-b6ad-41ee-ae51-c541066a3f99","ios":"levelo://app?vid=2ae00855-b6ad-41ee-ae51-c541066a3f99"},"vehicle_type_id":"4","last_reported":1687522450,"current_range_meters":30400,"station_id":"ce4bht12rcd13ifvqi60","pricing_plan_id":"free"},{"bike_id":"9c61d523-82a5-44e7-9e87-c717b7519b89","system_id":"levelo_inurba_marseille","lat":43.286039,"lon":5.370679,"is_reserved":false,"is_disabled":false,"rental_uris":{"android":"levelo://app?vid=9c61d523-82a5-44e7-9e87-c717b7519b89","ios":"levelo://app?vid=9c61d523-82a5-44e7-9e87-c717b7519b89"},"vehicle_type_id":"4","last_reported":1687522450,"current_range_meters":28400,"station_id":"ce4bht12rcd13ifvqi60","pricing_plan_id":"free"},{"bike_id":"cc66a0a1-a8a8-47fc-a7eb-594354fac503","system_id":"levelo_inurba_marseille","lat":43.316517,"lon":5.404375,"is_reserved":false,"is_disabled":false,"rental_uris":{"android":"levelo://app?vid=cc66a0a1-a8a8-47fc-a7eb-594354fac503","ios":"levelo://app?vid=cc66a0a1-a8a8-47fc-a7eb-594354fac503"},"vehicle_type_id":"4","last_reported":1687522450,"current_range_meters":25200,"station_id":"ce4bh012rcd13ifvqd00","pricing_plan_id":"free"},{"bike_id":"5e3fdeb0-5c25-4a1f-995d-7845664fce03","system_id":"levelo_inurba_marseille","lat":43.316517,"lon":5.404375,"is_reserved":false,"is_disabled":false,"rental_uris":{"android":"levelo://app?vid=5e3fdeb0-5c25-4a1f-995d-7845664fce03","ios":"levelo://app?vid=5e3fdeb0-5c25-4a1f-995d-7845664fce03"},"vehicle_type_id":"4","last_reported":1687522450,"current_range_meters":8800,"station_id":"ce4bh012rcd13ifvqd00","pricing_plan_id":"free"},{"bike_id":"96f50bef-f79b-462a-831d-82603377a480","system_id":"levelo_inurba_marseille","lat":43.316517,"lon":5.404375,"is_reserved":false,"is_disabled":false,"rental_uris":{"android":"levelo://app?vid=96f50bef-f79b-462a-831d-82603377a480","ios":"levelo://app?vid=96f50bef-f79b-462a-831d-82603377a480"},"vehicle_type_id":"4","last_reported":1687522450,"current_range_meters":26000,"station_id":"ce4bh012rcd13ifvqd00","pricing_plan_id":"free"},{"bike_id":"0f58d6a3-474b-4c88-8e97-c26e2855ecc0","system_id":"levelo_inurba_marseille","lat":43.316517,"lon":5.404375,"is_reserved":false,"is_disabled":false,"rental_uris":{"android":"levelo://app?vid=0f58d6a3-474b-4c88-8e97-c26e2855ecc0","ios":"levelo://app?vid=0f58d6a3-474b-4c88-8e97-c26e2855ecc0"},"vehicle_type_id":"4","last_reported":1687522450,"current_range_meters":12400,"station_id":"ce4bh012rcd13ifvqd00","pricing_plan_id":"free"},{"bike_id":"dfaeee14-a289-4cfc-8bc4-4a3ed73188f2","system_id":"levelo_inurba_marseille","lat":43.316517,"lon":5.404375,"is_reserved":false,"is_disabled":false,"rental_uris":{"android":"levelo://app?vid=dfaeee14-a289-4cfc-8bc4-4a3ed73188f2","ios":"levelo://app?vid=dfaeee14-a289-4cfc-8bc4-4a3ed73188f2"},"vehicle_type_id":"4","last_reported":1687522450,"current_range_meters":23600,"station_id":"ce4bh012rcd13ifvqd00","pricing_plan_id":"free"},{"bike_id":"fc61c98d-03b2-44bd-bdb7-e336a4fd51b0","system_id":"levelo_inurba_marseille","lat":43.31609,"lon":5.40519,"is_reserved":false,"is_disabled":false,"rental_uris":{"android":"levelo://app?vid=fc61c98d-03b2-44bd-bdb7-e336a4fd51b0","ios":"levelo://app?vid=fc61c98d-03b2-44bd-bdb7-e336a4fd51b0"},"vehicle_type_id":"4","last_reported":1687522450,"current_range_meters":15200,"station_id":"","pricing_plan_id":"free"},{"bike_id":"4cb4b309-47e0-47cf-9aca-5f9753c3c5f4","system_id":"levelo_inurba_marseille","lat":43.291994,"lon":5.392907,"is_reserved":false,"is_disabled":false,"rental_uris":{"android":"levelo://app?vid=4cb4b309-47e0-47cf-9aca-5f9753c3c5f4","ios":"levelo://app?vid=4cb4b309-47e0-47cf-9aca-5f9753c3c5f4"},"vehicle_type_id":"4","last_reported":1687522450,"current_range_meters":7600,"station_id":"ce4bh192rcd13ifvqdd0","pricing_plan_id":"free"},{"bike_id":"1d80e2af-fc5c-40a3-b738-6d5f6ef07b3b","system_id":"levelo_inurba_marseille","lat":43.28553,"lon":5.3777,"is_reserved":false,"is_disabled":false,"rental_uris":{"android":"levelo://app?vid=1d80e2af-fc5c-40a3-b738-6d5f6ef07b3b","ios":"levelo://app?vid=1d80e2af-fc5c-40a3-b738-6d5f6ef07b3b"},"vehicle_type_id":"4","last_reported":1687522450,"current_range_meters":30400,"station_id":"","pricing_plan_id":"free"},{"bike_id":"a57136fa-8eb8-4583-9320-20cfa957445a","system_id":"levelo_inurba_marseille","lat":43.285856,"lon":5.350771,"is_reserved":false,"is_disabled":false,"rental_uris":{"android":"levelo://app?vid=a57136fa-8eb8-4583-9320-20cfa957445a","ios":"levelo://app?vid=a57136fa-8eb8-4583-9320-20cfa957445a"},"vehicle_type_id":"4","last_reported":1687522450,"current_range_meters":25600,"station_id":"ce4bhch2rcd13ifvqeug","pricing_plan_id":"free"},{"bike_id":"d813b3f4-3dc3-48a0-8a8a-5d421add3775","system_id":"levelo_inurba_marseille","lat":43.285848,"lon":5.350787,"is_reserved":false,"is_disabled":false,"rental_uris":{"android":"levelo://app?vid=d813b3f4-3dc3-48a0-8a8a-5d421add3775","ios":"levelo://app?vid=d813b3f4-3dc3-48a0-8a8a-5d421add3775"},"vehicle_type_id":"4","last_reported":1687522450,"current_range_meters":31600,"station_id":"ce4bhch2rcd13ifvqeug","pricing_plan_id":"free"},{"bike_id":"359f1d83-978d-4fe8-990e-b8205d0ae83a","system_id":"levelo_inurba_marseille","lat":43.285856,"lon":5.350771,"is_reserved":false,"is_disabled":false,"rental_uris":{"android":"levelo://app?vid=359f1d83-978d-4fe8-990e-b8205d0ae83a","ios":"levelo://app?vid=359f1d83-978d-4fe8-990e-b8205d0ae83a"},"vehicle_type_id":"4","last_reported":1687522450,"current_range_meters":31200,"station_id":"ce4bhch2rcd13ifvqeug","pricing_plan_id":"free"},{"bike_id":"4a49fd01-ac26-4ca2-8f85-47798a625390","system_id":"levelo_inurba_marseille","lat":43.285856,"lon":5.350771,"is_reserved":false,"is_disabled":false,"rental_uris":{"android":"levelo://app?vid=4a49fd01-ac26-4ca2-8f85-47798a625390","ios":"levelo://app?vid=4a49fd01-ac26-4ca2-8f85-47798a625390"},"vehicle_type_id":"4","last_reported":1687522450,"current_range_meters":800,"station_id":"ce4bhch2rcd13ifvqeug","pricing_plan_id":"free"},{"bike_id":"7bb5d3b6-0d6f-45b9-b442-bfca9fa3206e","system_id":"levelo_inurba_marseille","lat":43.285856,"lon":5.350771,"is_reserved":false,"is_disabled":false,"rental_uris":{"android":"levelo://app?vid=7bb5d3b6-0d6f-45b9-b442-bfca9fa3206e","ios":"levelo://app?vid=7bb5d3b6-0d6f-45b9-b442-bfca9fa3206e"},"vehicle_type_id":"4","last_reported":1687522450,"current_range_meters":30400,"station_id":"ce4bhch2rcd13ifvqeug","pricing_plan_id":"free"},{"bike_id":"31773a67-a98d-4552-9b3d-98ad3df9ceb2","system_id":"levelo_inurba_marseille","lat":43.285856,"lon":5.350771,"is_reserved":false,"is_disabled":false,"rental_uris":{"android":"levelo://app?vid=31773a67-a98d-4552-9b3d-98ad3df9ceb2","ios":"levelo://app?vid=31773a67-a98d-4552-9b3d-98ad3df9ceb2"},"vehicle_type_id":"4","last_reported":1687522450,"current_range_meters":22800,"station_id":"ce4bhch2rcd13ifvqeug","pricing_plan_id":"free"},{"bike_id":"d00addf9-3455-48d2-a208-51f28ff95d2f","system_id":"levelo_inurba_marseille","lat":43.285856,"lon":5.350771,"is_reserved":false,"is_disabled":false,"rental_uris":{"android":"levelo://app?vid=d00addf9-3455-48d2-a208-51f28ff95d2f","ios":"levelo://app?vid=d00addf9-3455-48d2-a208-51f28ff95d2f"},"vehicle_type_id":"4","last_reported":1687522450,"current_range_meters":0,"station_id":"ce4bhch2rcd13ifvqeug","pricing_plan_id":"free"},{"bike_id":"31b1934a-83ac-42b6-8eea-a8824d1048df","system_id":"levelo_inurba_marseille","lat":43.28676,"lon":5.38653,"is_reserved":false,"is_disabled":false,"rental_uris":{"android":"levelo://app?vid=31b1934a-83ac-42b6-8eea-a8824d1048df","ios":"levelo://app?vid=31b1934a-83ac-42b6-8eea-a8824d1048df"},"vehicle_type_id":"4","last_reported":1687522450,"current_range_meters":31200,"station_id":"ce4bh492rcd13ifvqdug","pricing_plan_id":"free"},{"bike_id":"f1143007-df06-4ca2-9520-1d6f824cdb2f","system_id":"levelo_inurba_marseille","lat":43.286595,"lon":5.386795,"is_reserved":false,"is_disabled":false,"rental_uris":{"android":"levelo://app?vid=f1143007-df06-4ca2-9520-1d6f824cdb2f","ios":"levelo://app?vid=f1143007-df06-4ca2-9520-1d6f824cdb2f"},"vehicle_type_id":"4","last_reported":1687522450,"current_range_meters":2000,"station_id":"ce4bh492rcd13ifvqdug","pricing_plan_id":"free"},{"bike_id":"4413f254-f987-4b8b-b5dd-4a830ccd4b99","system_id":"levelo_inurba_marseille","lat":43.323464,"lon":5.406297,"is_reserved":false,"is_disabled":false,"rental_uris":{"android":"levelo://app?vid=4413f254-f987-4b8b-b5dd-4a830ccd4b99","ios":"levelo://app?vid=4413f254-f987-4b8b-b5dd-4a830ccd4b99"},"vehicle_type_id":"4","last_reported":1687522450,"current_range_meters":18400,"station_id":"ce4bhq92rcd13ifvqhjg","pricing_plan_id":"free"},{"bike_id":"023e4546-4bbe-4579-9c25-eb0f80bbce2f","system_id":"levelo_inurba_marseille","lat":43.323464,"lon":5.406297,"is_reserved":false,"is_disabled":false,"rental_uris":{"android":"levelo://app?vid=023e4546-4bbe-4579-9c25-eb0f80bbce2f","ios":"levelo://app?vid=023e4546-4bbe-4579-9c25-eb0f80bbce2f"},"vehicle_type_id":"4","last_reported":1687522450,"current_range_meters":11200,"station_id":"ce4bhq92rcd13ifvqhjg","pricing_plan_id":"free"},{"bike_id":"e8556eb4-3ade-4dd7-8bae-89f0932c3983","system_id":"levelo_inurba_marseille","lat":43.323464,"lon":5.406297,"is_reserved":false,"is_disabled":false,"rental_uris":{"android":"levelo://app?vid=e8556eb4-3ade-4dd7-8bae-89f0932c3983","ios":"levelo://app?vid=e8556eb4-3ade-4dd7-8bae-89f0932c3983"},"vehicle_type_id":"4","last_reported":1687522450,"current_range_meters":26400,"station_id":"ce4bhq92rcd13ifvqhjg","pricing_plan_id":"free"},{"bike_id":"a54c5183-d12c-4b5d-b1a7-e6c2a62eb9b5","system_id":"levelo_inurba_marseille","lat":43.323464,"lon":5.406297,"is_reserved":false,"is_disabled":false,"rental_uris":{"android":"levelo://app?vid=a54c5183-d12c-4b5d-b1a7-e6c2a62eb9b5","ios":"levelo://app?vid=a54c5183-d12c-4b5d-b1a7-e6c2a62eb9b5"},"vehicle_type_id":"4","last_reported":1687522450,"current_range_meters":23200,"station_id":"ce4bhq92rcd13ifvqhjg","pricing_plan_id":"free"},{"bike_id":"af229005-9587-414b-85b0-c47170a4db02","system_id":"levelo_inurba_marseille","lat":43.323464,"lon":5.406297,"is_reserved":false,"is_disabled":false,"rental_uris":{"android":"levelo://app?vid=af229005-9587-414b-85b0-c47170a4db02","ios":"levelo://app?vid=af229005-9587-414b-85b0-c47170a4db02"},"vehicle_type_id":"4","last_reported":1687522450,"current_range_meters":31600,"station_id":"ce4bhq92rcd13ifvqhjg","pricing_plan_id":"free"},{"bike_id":"87a5776b-0848-44dd-9cd3-916b0569f09e","system_id":"levelo_inurba_marseille","lat":43.28467,"lon":5.38423,"is_reserved":false,"is_disabled":false,"rental_uris":{"android":"levelo://app?vid=87a5776b-0848-44dd-9cd3-916b0569f09e","ios":"levelo://app?vid=87a5776b-0848-44dd-9cd3-916b0569f09e"},"vehicle_type_id":"4","last_reported":1687522450,"current_range_meters":31200,"station_id":"ce4bh512rcd13ifvqe3g","pricing_plan_id":"free"},{"bike_id":"b4c950db-352f-4a1a-8e3c-c05101a6dad0","system_id":"levelo_inurba_marseille","lat":43.288501,"lon":5.393087,"is_reserved":false,"is_disabled":false,"rental_uris":{"android":"levelo://app?vid=b4c950db-352f-4a1a-8e3c-c05101a6dad0","ios":"levelo://app?vid=b4c950db-352f-4a1a-8e3c-c05101a6dad0"},"vehicle_type_id":"4","last_reported":1687522450,"current_range_meters":31200,"station_id":"ce4bh2p2rcd13ifvqdi0","pricing_plan_id":"free"},{"bike_id":"d7794388-932e-4da4-91d7-b4cb92d1f6f0","system_id":"levelo_inurba_marseille","lat":43.284219,"lon":5.3497,"is_reserved":false,"is_disabled":false,"rental_uris":{"android":"levelo://app?vid=d7794388-932e-4da4-91d7-b4cb92d1f6f0","ios":"levelo://app?vid=d7794388-932e-4da4-91d7-b4cb92d1f6f0"},"vehicle_type_id":"4","last_reported":1687522450,"current_range_meters":32000,"station_id":"ce4bhbh2rcd13ifvqepg","pricing_plan_id":"free"},{"bike_id":"2bbe2a9a-7c60-4436-9184-8527ed226eae","system_id":"levelo_inurba_marseille","lat":43.28431,"lon":5.34991,"is_reserved":false,"is_disabled":false,"rental_uris":{"android":"levelo://app?vid=2bbe2a9a-7c60-4436-9184-8527ed226eae","ios":"levelo://app?vid=2bbe2a9a-7c60-4436-9184-8527ed226eae"},"vehicle_type_id":"4","last_reported":1687522450,"current_range_meters":24800,"station_id":"ce4bhbh2rcd13ifvqepg","pricing_plan_id":"free"},{"bike_id":"6bc3c24b-2888-473a-afe2-b4cf73586357","system_id":"levelo_inurba_marseille","lat":43.284219,"lon":5.3497,"is_reserved":false,"is_disabled":false,"rental_uris":{"android":"levelo://app?vid=6bc3c24b-2888-473a-afe2-b4cf73586357","ios":"levelo://app?vid=6bc3c24b-2888-473a-afe2-b4cf73586357"},"vehicle_type_id":"4","last_reported":1687522450,"current_range_meters":16400,"station_id":"ce4bhbh2rcd13ifvqepg","pricing_plan_id":"free"},{"bike_id":"2041702f-d9ad-43de-b781-b01b85fcc79f","system_id":"levelo_inurba_marseille","lat":43.284219,"lon":5.3497,"is_reserved":false,"is_disabled":false,"rental_uris":{"android":"levelo://app?vid=2041702f-d9ad-43de-b781-b01b85fcc79f","ios":"levelo://app?vid=2041702f-d9ad-43de-b781-b01b85fcc79f"},"vehicle_type_id":"4","last_reported":1687522450,"current_range_meters":21600,"station_id":"ce4bhbh2rcd13ifvqepg","pricing_plan_id":"free"},{"bike_id":"21c36aa3-829d-486e-a2c8-5cb2cc3c357c","system_id":"levelo_inurba_marseille","lat":43.28426,"lon":5.34997,"is_reserved":false,"is_disabled":false,"rental_uris":{"android":"levelo://app?vid=21c36aa3-829d-486e-a2c8-5cb2cc3c357c","ios":"levelo://app?vid=21c36aa3-829d-486e-a2c8-5cb2cc3c357c"},"vehicle_type_id":"4","last_reported":1687522450,"current_range_meters":17600,"station_id":"ce4bhbh2rcd13ifvqepg","pricing_plan_id":"free"},{"bike_id":"2b9bc2ea-771b-457e-aa9b-329e484d1165","system_id":"levelo_inurba_marseille","lat":43.284219,"lon":5.3497,"is_reserved":false,"is_disabled":false,"rental_uris":{"android":"levelo://app?vid=2b9bc2ea-771b-457e-aa9b-329e484d1165","ios":"levelo://app?vid=2b9bc2ea-771b-457e-aa9b-329e484d1165"},"vehicle_type_id":"4","last_reported":1687522450,"current_range_meters":13200,"station_id":"ce4bhbh2rcd13ifvqepg","pricing_plan_id":"free"},{"bike_id":"5b5f07e8-e7c5-4caf-8fe2-96337408ac9a","system_id":"levelo_inurba_marseille","lat":43.284219,"lon":5.3497,"is_reserved":false,"is_disabled":false,"rental_uris":{"android":"levelo://app?vid=5b5f07e8-e7c5-4caf-8fe2-96337408ac9a","ios":"levelo://app?vid=5b5f07e8-e7c5-4caf-8fe2-96337408ac9a"},"vehicle_type_id":"4","last_reported":1687522450,"current_range_meters":19600,"station_id":"ce4bhbh2rcd13ifvqepg","pricing_plan_id":"free"},{"bike_id":"2e5ae21f-36d7-4ced-ad98-27c007e5192f","system_id":"levelo_inurba_marseille","lat":43.284219,"lon":5.3497,"is_reserved":false,"is_disabled":false,"rental_uris":{"android":"levelo://app?vid=2e5ae21f-36d7-4ced-ad98-27c007e5192f","ios":"levelo://app?vid=2e5ae21f-36d7-4ced-ad98-27c007e5192f"},"vehicle_type_id":"4","last_reported":1687522450,"current_range_meters":12000,"station_id":"ce4bhbh2rcd13ifvqepg","pricing_plan_id":"free"},{"bike_id":"dd742f8b-67c0-4825-b83a-d3326cb40fb2","system_id":"levelo_inurba_marseille","lat":43.28417,"lon":5.34989,"is_reserved":false,"is_disabled":false,"rental_uris":{"android":"levelo://app?vid=dd742f8b-67c0-4825-b83a-d3326cb40fb2","ios":"levelo://app?vid=dd742f8b-67c0-4825-b83a-d3326cb40fb2"},"vehicle_type_id":"4","last_reported":1687522450,"current_range_meters":27600,"station_id":"ce4bhbh2rcd13ifvqepg","pricing_plan_id":"free"},{"bike_id":"22f5e624-39af-4a83-8252-cf5f9e855a58","system_id":"levelo_inurba_marseille","lat":43.28416,"lon":5.3499,"is_reserved":false,"is_disabled":false,"rental_uris":{"android":"levelo://app?vid=22f5e624-39af-4a83-8252-cf5f9e855a58","ios":"levelo://app?vid=22f5e624-39af-4a83-8252-cf5f9e855a58"},"vehicle_type_id":"4","last_reported":1687522450,"current_range_meters":21200,"station_id":"ce4bhbh2rcd13ifvqepg","pricing_plan_id":"free"},{"bike_id":"8e9ceba5-d0ba-4232-ba7e-c87ca0dba1b5","system_id":"levelo_inurba_marseille","lat":43.284219,"lon":5.3497,"is_reserved":false,"is_disabled":false,"rental_uris":{"android":"levelo://app?vid=8e9ceba5-d0ba-4232-ba7e-c87ca0dba1b5","ios":"levelo://app?vid=8e9ceba5-d0ba-4232-ba7e-c87ca0dba1b5"},"vehicle_type_id":"4","last_reported":1687522450,"current_range_meters":28400,"station_id":"ce4bhbh2rcd13ifvqepg","pricing_plan_id":"free"},{"bike_id":"df92cf6f-d3fa-4ecc-ab43-8cc5a0e2f7f9","system_id":"levelo_inurba_marseille","lat":43.28415,"lon":5.34977,"is_reserved":false,"is_disabled":false,"rental_uris":{"android":"levelo://app?vid=df92cf6f-d3fa-4ecc-ab43-8cc5a0e2f7f9","ios":"levelo://app?vid=df92cf6f-d3fa-4ecc-ab43-8cc5a0e2f7f9"},"vehicle_type_id":"4","last_reported":1687522450,"current_range_meters":22400,"station_id":"ce4bhbh2rcd13ifvqepg","pricing_plan_id":"free"},{"bike_id":"3a6da90d-0be9-46fb-b14f-e2b7a187c192","system_id":"levelo_inurba_marseille","lat":43.284219,"lon":5.3497,"is_reserved":false,"is_disabled":false,"rental_uris":{"android":"levelo://app?vid=3a6da90d-0be9-46fb-b14f-e2b7a187c192","ios":"levelo://app?vid=3a6da90d-0be9-46fb-b14f-e2b7a187c192"},"vehicle_type_id":"4","last_reported":1687522450,"current_range_meters":19600,"station_id":"ce4bhbh2rcd13ifvqepg","pricing_plan_id":"free"},{"bike_id":"540f18b9-471c-40fe-9ce4-fdffdde8d005","system_id":"levelo_inurba_marseille","lat":43.28415,"lon":5.34968,"is_reserved":false,"is_disabled":false,"rental_uris":{"android":"levelo://app?vid=540f18b9-471c-40fe-9ce4-fdffdde8d005","ios":"levelo://app?vid=540f18b9-471c-40fe-9ce4-fdffdde8d005"},"vehicle_type_id":"4","last_reported":1687522450,"current_range_meters":30400,"station_id":"ce4bhbh2rcd13ifvqepg","pricing_plan_id":"free"},{"bike_id":"24dd11c6-e384-4d7b-a502-d02762964927","system_id":"levelo_inurba_marseille","lat":43.28411,"lon":5.34979,"is_reserved":false,"is_disabled":false,"rental_uris":{"android":"levelo://app?vid=24dd11c6-e384-4d7b-a502-d02762964927","ios":"levelo://app?vid=24dd11c6-e384-4d7b-a502-d02762964927"},"vehicle_type_id":"4","last_reported":1687522450,"current_range_meters":7600,"station_id":"ce4bhbh2rcd13ifvqepg","pricing_plan_id":"free"},{"bike_id":"4d307267-f393-4f09-876a-7789d580be36","system_id":"levelo_inurba_marseille","lat":43.28407,"lon":5.34986,"is_reserved":false,"is_disabled":false,"rental_uris":{"android":"levelo://app?vid=4d307267-f393-4f09-876a-7789d580be36","ios":"levelo://app?vid=4d307267-f393-4f09-876a-7789d580be36"},"vehicle_type_id":"4","last_reported":1687522450,"current_range_meters":19200,"station_id":"ce4bhbh2rcd13ifvqepg","pricing_plan_id":"free"},{"bike_id":"050fb729-29cb-4b46-a988-0360d0f8d9e6","system_id":"levelo_inurba_marseille","lat":43.28412,"lon":5.34969,"is_reserved":false,"is_disabled":false,"rental_uris":{"android":"levelo://app?vid=050fb729-29cb-4b46-a988-0360d0f8d9e6","ios":"levelo://app?vid=050fb729-29cb-4b46-a988-0360d0f8d9e6"},"vehicle_type_id":"4","last_reported":1687522450,"current_range_meters":22800,"station_id":"ce4bhbh2rcd13ifvqepg","pricing_plan_id":"free"},{"bike_id":"3db759c3-3846-4d27-bb54-063e42af2141","system_id":"levelo_inurba_marseille","lat":43.284219,"lon":5.3497,"is_reserved":false,"is_disabled":false,"rental_uris":{"android":"levelo://app?vid=3db759c3-3846-4d27-bb54-063e42af2141","ios":"levelo://app?vid=3db759c3-3846-4d27-bb54-063e42af2141"},"vehicle_type_id":"4","last_reported":1687522450,"current_range_meters":29200,"station_id":"ce4bhbh2rcd13ifvqepg","pricing_plan_id":"free"},{"bike_id":"eefc3dcd-e74d-4dd0-9890-d17d6bb2673a","system_id":"levelo_inurba_marseille","lat":43.282754,"lon":5.350519,"is_reserved":false,"is_disabled":false,"rental_uris":{"android":"levelo://app?vid=eefc3dcd-e74d-4dd0-9890-d17d6bb2673a","ios":"levelo://app?vid=eefc3dcd-e74d-4dd0-9890-d17d6bb2673a"},"vehicle_type_id":"4","last_reported":1687522450,"current_range_meters":29200,"station_id":"ce4bhbp2rcd13ifvqerg","pricing_plan_id":"free"},{"bike_id":"3d68665e-840d-4f24-a9b4-d394671c717d","system_id":"levelo_inurba_marseille","lat":43.282754,"lon":5.350519,"is_reserved":false,"is_disabled":false,"rental_uris":{"android":"levelo://app?vid=3d68665e-840d-4f24-a9b4-d394671c717d","ios":"levelo://app?vid=3d68665e-840d-4f24-a9b4-d394671c717d"},"vehicle_type_id":"4","last_reported":1687522450,"current_range_meters":23200,"station_id":"ce4bhbp2rcd13ifvqerg","pricing_plan_id":"free"},{"bike_id":"e46dd339-6bcb-4b11-a17b-03c650854a37","system_id":"levelo_inurba_marseille","lat":43.28275,"lon":5.35075,"is_reserved":false,"is_disabled":false,"rental_uris":{"android":"levelo://app?vid=e46dd339-6bcb-4b11-a17b-03c650854a37","ios":"levelo://app?vid=e46dd339-6bcb-4b11-a17b-03c650854a37"},"vehicle_type_id":"4","last_reported":1687522450,"current_range_meters":24000,"station_id":"ce4bhbp2rcd13ifvqerg","pricing_plan_id":"free"},{"bike_id":"2fcd9d08-9c65-42de-bb23-e7b2c2d01414","system_id":"levelo_inurba_marseille","lat":43.282744,"lon":5.350533,"is_reserved":false,"is_disabled":false,"rental_uris":{"android":"levelo://app?vid=2fcd9d08-9c65-42de-bb23-e7b2c2d01414","ios":"levelo://app?vid=2fcd9d08-9c65-42de-bb23-e7b2c2d01414"},"vehicle_type_id":"4","last_reported":1687522450,"current_range_meters":30400,"station_id":"ce4bhbp2rcd13ifvqerg","pricing_plan_id":"free"},{"bike_id":"69c55371-d10e-40bf-bbe7-d57ba96af34e","system_id":"levelo_inurba_marseille","lat":43.282754,"lon":5.350519,"is_reserved":false,"is_disabled":false,"rental_uris":{"android":"levelo://app?vid=69c55371-d10e-40bf-bbe7-d57ba96af34e","ios":"levelo://app?vid=69c55371-d10e-40bf-bbe7-d57ba96af34e"},"vehicle_type_id":"4","last_reported":1687522450,"current_range_meters":31200,"station_id":"ce4bhbp2rcd13ifvqerg","pricing_plan_id":"free"},{"bike_id":"b71ee3cf-6bab-41a9-a90d-3560633a1a5b","system_id":"levelo_inurba_marseille","lat":43.282754,"lon":5.350519,"is_reserved":false,"is_disabled":false,"rental_uris":{"android":"levelo://app?vid=b71ee3cf-6bab-41a9-a90d-3560633a1a5b","ios":"levelo://app?vid=b71ee3cf-6bab-41a9-a90d-3560633a1a5b"},"vehicle_type_id":"4","last_reported":1687522450,"current_range_meters":30400,"station_id":"ce4bhbp2rcd13ifvqerg","pricing_plan_id":"free"},{"bike_id":"9b9c38da-8980-4036-a865-baecdf11ed23","system_id":"levelo_inurba_marseille","lat":43.282744,"lon":5.350533,"is_reserved":false,"is_disabled":false,"rental_uris":{"android":"levelo://app?vid=9b9c38da-8980-4036-a865-baecdf11ed23","ios":"levelo://app?vid=9b9c38da-8980-4036-a865-baecdf11ed23"},"vehicle_type_id":"4","last_reported":1687522450,"current_range_meters":26400,"station_id":"ce4bhbp2rcd13ifvqerg","pricing_plan_id":"free"},{"bike_id":"f53dd7ea-55ea-43dd-a2b6-e96827261836","system_id":"levelo_inurba_marseille","lat":43.282744,"lon":5.350533,"is_reserved":false,"is_disabled":false,"rental_uris":{"android":"levelo://app?vid=f53dd7ea-55ea-43dd-a2b6-e96827261836","ios":"levelo://app?vid=f53dd7ea-55ea-43dd-a2b6-e96827261836"},"vehicle_type_id":"4","last_reported":1687522450,"current_range_meters":15200,"station_id":"ce4bhbp2rcd13ifvqerg","pricing_plan_id":"free"},{"bike_id":"61a08000-16db-4594-90f8-b5a5dbdce4cb","system_id":"levelo_inurba_marseille","lat":43.282744,"lon":5.350533,"is_reserved":false,"is_disabled":false,"rental_uris":{"android":"levelo://app?vid=61a08000-16db-4594-90f8-b5a5dbdce4cb","ios":"levelo://app?vid=61a08000-16db-4594-90f8-b5a5dbdce4cb"},"vehicle_type_id":"4","last_reported":1687522450,"current_range_meters":26000,"station_id":"ce4bhbp2rcd13ifvqerg","pricing_plan_id":"free"},{"bike_id":"b684bfcd-e35d-4a06-93fa-200949439813","system_id":"levelo_inurba_marseille","lat":43.282744,"lon":5.350533,"is_reserved":false,"is_disabled":false,"rental_uris":{"android":"levelo://app?vid=b684bfcd-e35d-4a06-93fa-200949439813","ios":"levelo://app?vid=b684bfcd-e35d-4a06-93fa-200949439813"},"vehicle_type_id":"4","last_reported":1687522450,"current_range_meters":31200,"station_id":"ce4bhbp2rcd13ifvqerg","pricing_plan_id":"free"},{"bike_id":"e45531b6-cfee-4184-8d05-4bbbbd307aef","system_id":"levelo_inurba_marseille","lat":43.28039,"lon":5.369297,"is_reserved":false,"is_disabled":false,"rental_uris":{"android":"levelo://app?vid=e45531b6-cfee-4184-8d05-4bbbbd307aef","ios":"levelo://app?vid=e45531b6-cfee-4184-8d05-4bbbbd307aef"},"vehicle_type_id":"4","last_reported":1687522450,"current_range_meters":11200,"station_id":"ce4bha12rcd13ifvqef0","pricing_plan_id":"free"},{"bike_id":"d83c0b59-ef9e-4c05-a18b-402ebbf97852","system_id":"levelo_inurba_marseille","lat":43.280382,"lon":5.369291,"is_reserved":false,"is_disabled":false,"rental_uris":{"android":"levelo://app?vid=d83c0b59-ef9e-4c05-a18b-402ebbf97852","ios":"levelo://app?vid=d83c0b59-ef9e-4c05-a18b-402ebbf97852"},"vehicle_type_id":"4","last_reported":1687522450,"current_range_meters":29600,"station_id":"ce4bha12rcd13ifvqef0","pricing_plan_id":"free"},{"bike_id":"eb267dbf-d509-4e2d-b163-76a86791fdd5","system_id":"levelo_inurba_marseille","lat":43.283502,"lon":5.386471,"is_reserved":false,"is_disabled":false,"rental_uris":{"android":"levelo://app?vid=eb267dbf-d509-4e2d-b163-76a86791fdd5","ios":"levelo://app?vid=eb267dbf-d509-4e2d-b163-76a86791fdd5"},"vehicle_type_id":"4","last_reported":1687522450,"current_range_meters":13600,"station_id":"ce4bh492rcd13ifvqdvg","pricing_plan_id":"free"},{"bike_id":"07868b51-e435-47ef-8345-a447df242d0d","system_id":"levelo_inurba_marseille","lat":43.2835,"lon":5.38642,"is_reserved":false,"is_disabled":false,"rental_uris":{"android":"levelo://app?vid=07868b51-e435-47ef-8345-a447df242d0d","ios":"levelo://app?vid=07868b51-e435-47ef-8345-a447df242d0d"},"vehicle_type_id":"4","last_reported":1687522450,"current_range_meters":31200,"station_id":"ce4bh492rcd13ifvqdvg","pricing_plan_id":"free"},{"bike_id":"3c73c228-cfa6-4a11-b7d5-af5f643f8825","system_id":"levelo_inurba_marseille","lat":43.29039,"lon":5.39975,"is_reserved":false,"is_disabled":false,"rental_uris":{"android":"levelo://app?vid=3c73c228-cfa6-4a11-b7d5-af5f643f8825","ios":"levelo://app?vid=3c73c228-cfa6-4a11-b7d5-af5f643f8825"},"vehicle_type_id":"4","last_reported":1687522450,"current_range_meters":12400,"station_id":"ce4bh392rcd13ifvqdm0","pricing_plan_id":"free"},{"bike_id":"50f3a798-ec79-4fe0-b285-1326ae52c348","system_id":"levelo_inurba_marseille","lat":43.290394,"lon":5.399781,"is_reserved":false,"is_disabled":false,"rental_uris":{"android":"levelo://app?vid=50f3a798-ec79-4fe0-b285-1326ae52c348","ios":"levelo://app?vid=50f3a798-ec79-4fe0-b285-1326ae52c348"},"vehicle_type_id":"4","last_reported":1687522450,"current_range_meters":0,"station_id":"","pricing_plan_id":"free"},