{"last_updated":1692219926,"ttl":30,"version":"2.2","data":{"bikes":[{"bike_id":"e2c856af-4737-4926-8bbf-940eac69259d","system_id":"levelo_inurba_marseille","lat":43.31341,"lon":5.367098,"is_reserved":false,"is_disabled":false,"rental_uris":{"android":"levelo://app?vid=e2c856af-4737-4926-8bbf-940eac69259d","ios":"levelo://app?vid=e2c856af-4737-4926-8bbf-940eac69259d"},"vehicle_type_id":"4","last_reported":1692219927,"current_range_meters":0,"station_id":"ce4bgr92rcd13ifvqc6g","pricing_plan_id":"free"},{"bike_id":"e9316a88-729a-4dfb-a67f-944cff5e7794","system_id":"levelo_inurba_marseille","lat":43.313391,"lon":5.36706,"is_reserved":false,"is_disabled":false,"rental_uris":{"android":"levelo://app?vid=e9316a88-729a-4dfb-a67f-944cff5e7794","ios":"levelo://app?vid=e9316a88-729a-4dfb-a67f-944cff5e7794"},"vehicle_type_id":"4","last_reported":1692219927,"current_range_meters":13600,"station_id":"ce4bgr92rcd13ifvqc6g","pricing_plan_id":"free"},{"bike_id":"4abda2c6-8172-447b-980f-0a6ec16212d4","system_id":"levelo_inurba_marseille","lat":43.31341,"lon":5.367098,"is_reserved":false,"is_disabled":false,"rental_uris":{"android":"levelo://app?vid=4abda2c6-8172-447b-980f-0a6ec16212d4","ios":"levelo://app?vid=4abda2c6-8172-447b-980f-0a6ec16212d4"},"vehicle_type_id":"4","last_reported":1692219927,"current_range_meters":30400,"station_id":"ce4bgr92rcd13ifvqc6g","pricing_plan_id":"free"},{"bike_id":"a4f084a6-5970-440a-b04f-8b7ea5d5a625","system_id":"levelo_inurba_marseille","lat":43.312239,"lon":5.368562,"is_reserved":false,"is_disabled":false,"rental_uris":{"android":"levelo://app?vid=a4f084a6-5970-440a-b04f-8b7ea5d5a625","ios":"levelo://app?vid=a4f084a6-5970-440a-b04f-8b7ea5d5a625"},"vehicle_type_id":"4","last_reported":1692219927,"current_range_meters":25600,"station_id":"ce4bgl92rcd13ifvqbq0","pricing_plan_id":"free"},{"bike_id":"abf973cf-000c-4db0-8231-56f471901f4c","system_id":"levelo_inurba_marseille","lat":43.31218,"lon":5.36853,"is_reserved":false,"is_disabled":false,"rental_uris":{"android":"levelo://app?vid=abf973cf-000c-4db0-8231-56f471901f4c","ios":"levelo://app?vid=abf973cf-000c-4db0-8231-56f471901f4c"},"vehicle_type_id":"4","last_reported":1692219927,"current_range_meters":9600,"station_id":"ce4bgl92rcd13ifvqbq0","pricing_plan_id":"free"},{"bike_id":"ec0d4ea2-6668-4bc0-8a4c-c40492871850","system_id":"levelo_inurba_marseille","lat":43.312239,"lon":5.368562,"is_reserved":false,"is_disabled":false,"rental_uris":{"android":"levelo://app?vid=ec0d4ea2-6668-4bc0-8a4c-c40492871850","ios":"levelo://app?vid=ec0d4ea2-6668-4bc0-8a4c-c40492871850"},"vehicle_type_id":"4","last_reported":1692219927,"current_range_meters":10800,"station_id":"ce4bgl92rcd13ifvqbq0","pricing_plan_id":"free"},{"bike_id":"60cb6d62-5576-4fa0-bd84-046f96ec960e","system_id":"levelo_inurba_marseille","lat":43.31228,"lon":5.36871,"is_reserved":false,"is_disabled":false,"rental_uris":{"android":"levelo://app?vid=60cb6d62-5576-4fa0-bd84-046f96ec960e","ios":"levelo://app?vid=60cb6d62-5576-4fa0-bd84-046f96ec960e"},"vehicle_type_id":"4","last_reported":1692219927,"current_range_meters":19200,"station_id":"ce4bgl92rcd13ifvqbq0","pricing_plan_id":"free"},{"bike_id":"4d6656f4-24eb-4372-aff5-e597504f050d","system_id":"levelo_inurba_marseille","lat":43.31226,"lon":5.36873,"is_reserved":false,"is_disabled":false,"rental_uris":{"android":"levelo://app?vid=4d6656f4-24eb-4372-aff5-e597504f050d","ios":"levelo://app?vid=4d6656f4-24eb-4372-aff5-e597504f050d"},"vehicle_type_id":"4","last_reported":1692219927,"current_range_meters":6400,"station_id":"ce4bgl92rcd13ifvqbq0","pricing_plan_id":"free"},{"bike_id":"706c2c85-a4e5-4c8d-bddf-84119dfd4f87","system_id":"levelo_inurba_marseille","lat":43.312239,"lon":5.368562,"is_reserved":false,"is_disabled":false,"rental_uris":{"android":"levelo://app?vid=706c2c85-a4e5-4c8d-bddf-84119dfd4f87","ios":"levelo://app?vid=706c2c85-a4e5-4c8d-bddf-84119dfd4f87"},"vehicle_type_id":"4","last_reported":1692219927,"current_range_meters":20000,"station_id":"ce4bgl92rcd13ifvqbq0","pricing_plan_id":"free"},{"bike_id":"f7c82ddb-5c4a-46f3-9da0-18045bdc339a","system_id":"levelo_inurba_marseille","lat":43.312239,"lon":5.368562,"is_reserved":false,"is_disabled":false,"rental_uris":{"android":"levelo://app?vid=f7c82ddb-5c4a-46f3-9da0-18045bdc339a","ios":"levelo://app?vid=f7c82ddb-5c4a-46f3-9da0-18045bdc339a"},"vehicle_type_id":"4","last_reported":1692219927,"current_range_meters":11600,"station_id":"ce4bgl92rcd13ifvqbq0","pricing_plan_id":"free"},{"bike_id":"b8f381f2-bdc7-49d2-9bd7-27205b54069a","system_id":"levelo_inurba_marseille","lat":43.311586,"lon":5.368311,"is_reserved":false,"is_disabled":false,"rental_uris":{"android":"levelo://app?vid=b8f381f2-bdc7-49d2-9bd7-27205b54069a","ios":"levelo://app?vid=b8f381f2-bdc7-49d2-9bd7-27205b54069a"},"vehicle_type_id":"4","last_reported":1692219927,"current_range_meters":5200,"station_id":"ce4bgl92rcd13ifvqbq0","pricing_plan_id":"free"},{"bike_id":"0de95b05-640f-4570-8393-9eb7ff5bd77c","system_id":"levelo_inurba_marseille","lat":43.30915,"lon":5.36845,"is_reserved":false,"is_disabled":false,"rental_uris":{"android":"levelo://app?vid=0de95b05-640f-4570-8393-9eb7ff5bd77c","ios":"levelo://app?vid=0de95b05-640f-4570-8393-9eb7ff5bd77c"},"vehicle_type_id":"4","last_reported":1692219927,"current_range_meters":25600,"station_id":"","pricing_plan_id":"free"},{"bike_id":"d38bc742-52b1-402f-9f93-a526e3e54d09","system_id":"levelo_inurba_marseille","lat":43.309076,"lon":5.368465,"is_reserved":false,"is_disabled":false,"rental_uris":{"android":"levelo://app?vid=d38bc742-52b1-402f-9f93-a526e3e54d09","ios":"levelo://app?vid=d38bc742-52b1-402f-9f93-a526e3e54d09"},"vehicle_type_id":"4","last_reported":1692219927,"current_range_meters":6800,"station_id":"ce4bgn92rcd13ifvqbvg","pricing_plan_id":"free"},{"bike_id":"398772c8-d2a7-4a5c-9893-ef5f7aaa719a","system_id":"levelo_inurba_marseille","lat":43.314811,"lon":5.373103,"is_reserved":false,"is_disabled":false,"rental_uris":{"android":"levelo://app?vid=398772c8-d2a7-4a5c-9893-ef5f7aaa719a","ios":"levelo://app?vid=398772c8-d2a7-4a5c-9893-ef5f7aaa719a"},"vehicle_type_id":"4","last_reported":1692219927,"current_range_meters":2000,"station_id":"ce4bgt12rcd13ifvqcd0","pricing_plan_id":"free"},{"bike_id":"4db5dd33-3815-4abe-87db-35fee88dbda1","system_id":"levelo_inurba_marseille","lat":43.314811,"lon":5.373103,"is_reserved":false,"is_disabled":false,"rental_uris":{"android":"levelo://app?vid=4db5dd33-3815-4abe-87db-35fee88dbda1","ios":"levelo://app?vid=4db5dd33-3815-4abe-87db-35fee88dbda1"},"vehicle_type_id":"4","last_reported":1692219927,"current_range_meters":7600,"station_id":"ce4bgt12rcd13ifvqcd0","pricing_plan_id":"free"},{"bike_id":"e9ef81db-80da-4e03-9e4c-85c7255efbdf","system_id":"levelo_inurba_marseille","lat":43.314811,"lon":5.373103,"is_reserved":false,"is_disabled":false,"rental_uris":{"android":"levelo://app?vid=e9ef81db-80da-4e03-9e4c-85c7255efbdf","ios":"levelo://app?vid=e9ef81db-80da-4e03-9e4c-85c7255efbdf"},"vehicle_type_id":"4","last_reported":1692219927,"current_range_meters":10800,"station_id":"ce4bgt12rcd13ifvqcd0","pricing_plan_id":"free"},{"bike_id":"969df578-38ac-4002-a3cd-2aa44dde506d","system_id":"levelo_inurba_marseille","lat":43.31491,"lon":5.37303,"is_reserved":false,"is_disabled":false,"rental_uris":{"android":"levelo://app?vid=969df578-38ac-4002-a3cd-2aa44dde506d","ios":"levelo://app?vid=969df578-38ac-4002-a3cd-2aa44dde506d"},"vehicle_type_id":"4","last_reported":1692219927,"current_range_meters":8000,"station_id":"ce4bgt12rcd13ifvqcd0","pricing_plan_id":"free"},{"bike_id":"59edc80c-c19a-4eb1-a5f6-cc006069040b","system_id":"levelo_inurba_marseille","lat":43.314811,"lon":5.373103,"is_reserved":false,"is_disabled":false,"rental_uris":{"android":"levelo://app?vid=59edc80c-c19a-4eb1-a5f6-cc006069040b","ios":"levelo://app?vid=59edc80c-c19a-4eb1-a5f6-cc006069040b"},"vehicle_type_id":"4","last_reported":1692219927,"current_range_meters":18000,"station_id":"ce4bgt12rcd13ifvqcd0","pricing_plan_id":"free"},{"bike_id":"652d7c06-baf6-41e2-a12a-88806c632847","system_id":"levelo_inurba_marseille","lat":43.314811,"lon":5.373104,"is_reserved":false,"is_disabled":false,"rental_uris":{"android":"levelo://app?vid=652d7c06-baf6-41e2-a12a-88806c632847","ios":"levelo://app?vid=652d7c06-baf6-41e2-a12a-88806c632847"},"vehicle_type_id":"4","last_reported":1692219927,"current_range_meters":7600,"station_id":"ce4bgt12rcd13ifvqcd0","pricing_plan_id":"free"},{"bike_id":"875221b7-c1a1-4c6f-81b1-169a43c3c555","system_id":"levelo_inurba_marseille","lat":43.314811,"lon":5.373104,"is_reserved":false,"is_disabled":false,"rental_uris":{"android":"levelo://app?vid=875221b7-c1a1-4c6f-81b1-169a43c3c555","ios":"levelo://app?vid=875221b7-c1a1-4c6f-81b1-169a43c3c555"},"vehicle_type_id":"4","last_reported":1692219927,"current_range_meters":8000,"station_id":"ce4bgt12rcd13ifvqcd0","pricing_plan_id":"free"},{"bike_id":"1c38e8c8-281a-49d9-b6b5-5312ea1a691e","system_id":"levelo_inurba_marseille","lat":43.309039,"lon":5.371797,"is_reserved":false,"is_disabled":false,"rental_uris":{"android":"levelo://app?vid=1c38e8c8-281a-49d9-b6b5-5312ea1a691e","ios":"levelo://app?vid=1c38e8c8-281a-49d9-b6b5-5312ea1a691e"},"vehicle_type_id":"4","last_reported":1692219927,"current_range_meters":19600,"station_id":"ce4bguh2rcd13ifvqckg","pricing_plan_id":"free"},{"bike_id":"015e8a7a-d85e-4949-871f-27c21239be25","system_id":"levelo_inurba_marseille","lat":43.309039,"lon":5.371797,"is_reserved":false,"is_disabled":false,"rental_uris":{"android":"levelo://app?vid=015e8a7a-d85e-4949-871f-27c21239be25","ios":"levelo://app?vid=015e8a7a-d85e-4949-871f-27c21239be25"},"vehicle_type_id":"4","last_reported":1692219927,"current_range_meters":4000,"station_id":"ce4bguh2rcd13ifvqckg","pricing_plan_id":"free"},{"bike_id":"9fbe6e18-d192-44c2-98b5-cafb68b41aa4","system_id":"levelo_inurba_marseille","lat":43.30535,"lon":5.36542,"is_reserved":false,"is_disabled":false,"rental_uris":{"android":"levelo://app?vid=9fbe6e18-d192-44c2-98b5-cafb68b41aa4","ios":"levelo://app?vid=9fbe6e18-d192-44c2-98b5-cafb68b41aa4"},"vehicle_type_id":"4","last_reported":1692219927,"current_range_meters":24000,"station_id":"ce4bgs12rcd13ifvqcag","pricing_plan_id":"free"},{"bike_id":"4e85f7d1-1f5b-4498-ba1b-75ee899693a7","system_id":"levelo_inurba_marseille","lat":43.305989,"lon":5.37225,"is_reserved":false,"is_disabled":false,"rental_uris":{"android":"levelo://app?vid=4e85f7d1-1f5b-4498-ba1b-75ee899693a7","ios":"levelo://app?vid=4e85f7d1-1f5b-4498-ba1b-75ee899693a7"},"vehicle_type_id":"4","last_reported":1692219927,"current_range_meters":30000,"station_id":"ce4bgqh2rcd13ifvqc4g","pricing_plan_id":"free"},{"bike_id":"386ed8e3-b71e-4f68-86af-202c5b76503e","system_id":"levelo_inurba_marseille","lat":43.305989,"lon":5.37225,"is_reserved":false,"is_disabled":false,"rental_uris":{"android":"levelo://app?vid=386ed8e3-b71e-4f68-86af-202c5b76503e","ios":"levelo://app?vid=386ed8e3-b71e-4f68-86af-202c5b76503e"},"vehicle_type_id":"4","last_reported":1692219927,"current_range_meters":31600,"station_id":"ce4bgqh2rcd13ifvqc4g","pricing_plan_id":"free"},{"bike_id":"eb954f27-958c-4fef-9ecb-c54eb37ef054","system_id":"levelo_inurba_marseille","lat":43.305989,"lon":5.37225,"is_reserved":false,"is_disabled":false,"rental_uris":{"android":"levelo://app?vid=eb954f27-958c-4fef-9ecb-c54eb37ef054","ios":"levelo://app?vid=eb954f27-958c-4fef-9ecb-c54eb37ef054"},"vehicle_type_id":"4","last_reported":1692219927,"current_range_meters":28400,"station_id":"ce4bgqh2rcd13ifvqc4g","pricing_plan_id":"free"},{"bike_id":"0f1efd68-19fd-4535-90dd-f7162e32ec31","system_id":"levelo_inurba_marseille","lat":43.311131,"lon":5.377651,"is_reserved":false,"is_disabled":false,"rental_uris":{"android":"levelo://app?vid=0f1efd68-19fd-4535-90dd-f7162e32ec31","ios":"levelo://app?vid=0f1efd68-19fd-4535-90dd-f7162e32ec31"},"vehicle_type_id":"4","last_reported":1692219927,"current_range_meters":12800,"station_id":"ce4bgt92rcd13ifvqcg0","pricing_plan_id":"free"},{"bike_id":"f68dd4c0-b0e0-42c9-817f-2c251b949c36","system_id":"levelo_inurba_marseille","lat":43.311131,"lon":5.377651,"is_reserved":false,"is_disabled":false,"rental_uris":{"android":"levelo://app?vid=f68dd4c0-b0e0-42c9-817f-2c251b949c36","ios":"levelo://app?vid=f68dd4c0-b0e0-42c9-817f-2c251b949c36"},"vehicle_type_id":"4","last_reported":1692219927,"current_range_meters":5200,"station_id":"ce4bgt92rcd13ifvqcg0","pricing_plan_id":"free"},{"bike_id":"8ef5acc4-a6b0-4276-bb04-8d0396ea8414","system_id":"levelo_inurba_marseille","lat":43.311131,"lon":5.377651,"is_reserved":false,"is_disabled":false,"rental_uris":{"android":"levelo://app?vid=8ef5acc4-a6b0-4276-bb04-8d0396ea8414","ios":"levelo://app?vid=8ef5acc4-a6b0-4276-bb04-8d0396ea8414"},"vehicle_type_id":"4","last_reported":1692219927,"current_range_meters":18400,"station_id":"ce4bgt92rcd13ifvqcg0","pricing_plan_id":"free"},{"bike_id":"50bd8fad-483a-40cc-8751-d16b187df853","system_id":"levelo_inurba_marseille","lat":43.31112,"lon":5.37773,"is_reserved":false,"is_disabled":false,"rental_uris":{"android":"levelo://app?vid=50bd8fad-483a-40cc-8751-d16b187df853","ios":"levelo://app?vid=50bd8fad-483a-40cc-8751-d16b187df853"},"vehicle_type_id":"4","last_reported":1692219927,"current_range_meters":24000,"station_id":"ce4bgt92rcd13ifvqcg0","pricing_plan_id":"free"},{"bike_id":"78908594-4547-480d-8dd4-8391513396ab","system_id":"levelo_inurba_marseille","lat":43.307945,"lon":5.376487,"is_reserved":false,"is_disabled":false,"rental_uris":{"android":"levelo://app?vid=78908594-4547-480d-8dd4-8391513396ab","ios":"levelo://app?vid=78908594-4547-480d-8dd4-8391513396ab"},"vehicle_type_id":"4","last_reported":1692219927,"current_range_meters":3200,"station_id":"ce4bgv92rcd13ifvqcq0","pricing_plan_id":"free"},{"bike_id":"ea186b4e-78a2-4d36-a40f-952cffc39169","system_id":"levelo_inurba_marseille","lat":43.317075,"lon":5.377367,"is_reserved":false,"is_disabled":false,"rental_uris":{"android":"levelo://app?vid=ea186b4e-78a2-4d36-a40f-952cffc39169","ios":"levelo://app?vid=ea186b4e-78a2-4d36-a40f-952cffc39169"},"vehicle_type_id":"4","last_reported":1692219927,"current_range_meters":29600,"station_id":"ce4bgth2rcd13ifvqch0","pricing_plan_id":"free"},{"bike_id":"25559cf7-fd16-49d7-9379-469f1a9ff38e","system_id":"levelo_inurba_marseille","lat":43.31659,"lon":5.37818,"is_reserved":false,"is_disabled":false,"rental_uris":{"android":"levelo://app?vid=25559cf7-fd16-49d7-9379-469f1a9ff38e","ios":"levelo://app?vid=25559cf7-fd16-49d7-9379-469f1a9ff38e"},"vehicle_type_id":"4","last_reported":1692219927,"current_range_meters":19200,"station_id":"","pricing_plan_id":"free"},{"bike_id":"92be00df-8df7-4b91-b678-616ccf916c98","system_id":"levelo_inurba_marseille","lat":43.31696,"lon":5.37795,"is_reserved":false,"is_disabled":false,"rental_uris":{"android":"levelo://app?vid=92be00df-8df7-4b91-b678-616ccf916c98","ios":"levelo://app?vid=92be00df-8df7-4b91-b678-616ccf916c98"},"vehicle_type_id":"4","last_reported":1692219927,"current_range_meters":24800,"station_id":"ce4bgth2rcd13ifvqch0","pricing_plan_id":"free"},{"bike_id":"8c087e2a-721b-480d-ac27-cdb39a2ef5fc","system_id":"levelo_inurba_marseille","lat":43.305994,"lon":5.393687,"is_reserved":false,"is_disabled":false,"rental_uris":{"android":"levelo://app?vid=8c087e2a-721b-480d-ac27-cdb39a2ef5fc","ios":"levelo://app?vid=8c087e2a-721b-480d-ac27-cdb39a2ef5fc"},"vehicle_type_id":"4","last_reported":1692219927,"current_range_meters":24000,"station_id":"ce4bh0p2rcd13ifvqd80","pricing_plan_id":"free"},{"bike_id":"df15a2b6-7a09-4269-bcf4-be1d2e0334b4","system_id":"levelo_inurba_marseille","lat":43.315289,"lon":5.380349,"is_reserved":false,"is_disabled":false,"rental_uris":{"android":"levelo://app?vid=df15a2b6-7a09-4269-bcf4-be1d2e0334b4","ios":"levelo://app?vid=df15a2b6-7a09-4269-bcf4-be1d2e0334b4"},"vehicle_type_id":"4","last_reported":1692219927,"current_range_meters":22000,"station_id":"ce4bhsp2rcd13ifvqi50","pricing_plan_id":"free"},{"bike_id":"3f1c898e-5ac1-4542-825e-f4bbc1fd65ae","system_id":"levelo_inurba_marseille","lat":43.315289,"lon":5.380349,"is_reserved":false,"is_disabled":false,"rental_uris":{"android":"levelo://app?vid=3f1c898e-5ac1-4542-825e-f4bbc1fd65ae","ios":"levelo://app?vid=3f1c898e-5ac1-4542-825e-f4bbc1fd65ae"},"vehicle_type_id":"4","last_reported":1692219927,"current_range_meters":14800,"station_id":"ce4bhsp2rcd13ifvqi50","pricing_plan_id":"free"},{"bike_id":"2e977bf2-6881-4f27-9683-57a37e954f17","system_id":"levelo_inurba_marseille","lat":43.3153,"lon":5.38027,"is_reserved":false,"is_disabled":false,"rental_uris":{"android":"levelo://app?vid=2e977bf2-6881-4f27-9683-57a37e954f17","ios":"levelo://app?vid=2e977bf2-6881-4f27-9683-57a37e954f17"},"vehicle_type_id":"4","last_reported":1692219927,"current_range_meters":6400,"station_id":"ce4bhsp2rcd13ifvqi50","pricing_plan_id":"free"},{"bike_id":"168d984b-cabc-47f6-a587-984718668abe","system_id":"levelo_inurba_marseille","lat":43.30184,"lon":5.36625,"is_reserved":false,"is_disabled":false,"rental_uris":{"android":"levelo://app?vid=168d984b-cabc-47f6-a587-984718668abe","ios":"levelo://app?vid=168d984b-cabc-47f6-a587-984718668abe"},"vehicle_type_id":"4","last_reported":1692219927,"current_range_meters":13600,"station_id":"ce4bgrh2rcd13ifvqc8g","pricing_plan_id":"free"},{"bike_id":"40968f0c-6350-4f45-a1a8-de5cebb58324","system_id":"levelo_inurba_marseille","lat":43.30805,"lon":5.38155,"is_reserved":false,"is_disabled":false,"rental_uris":{"android":"levelo://app?vid=40968f0c-6350-4f45-a1a8-de5cebb58324","ios":"levelo://app?vid=40968f0c-6350-4f45-a1a8-de5cebb58324"},"vehicle_type_id":"4","last_reported":1692219927,"current_range_meters":0,"station_id":"ce4bgt12rcd13ifvqce0","pricing_plan_id":"free"},{"bike_id":"242b58dc-2f58-434b-8ad0-3444105d3d8f","system_id":"levelo_inurba_marseille","lat":43.30807,"lon":5.38161,"is_reserved":false,"is_disabled":false,"rental_uris":{"android":"levelo://app?vid=242b58dc-2f58-434b-8ad0-3444105d3d8f","ios":"levelo://app?vid=242b58dc-2f58-434b-8ad0-3444105d3d8f"},"vehicle_type_id":"4","last_reported":1692219927,"current_range_meters":19200,"station_id":"ce4bgt12rcd13ifvqce0","pricing_plan_id":"free"},{"bike_id":"6d82ac03-9b9e-44fe-97aa-16755efd091a","system_id":"levelo_inurba_marseille","lat":43.304606,"lon":5.379026,"is_reserved":false,"is_disabled":false,"rental_uris":{"android":"levelo://app?vid=6d82ac03-9b9e-44fe-97aa-16755efd091a","ios":"levelo://app?vid=6d82ac03-9b9e-44fe-97aa-16755efd091a"},"vehicle_type_id":"4","last_reported":1692219927,"current_range_meters":1600,"station_id":"ce4bgup2rcd13ifvqcn0","pricing_plan_id":"free"},{"bike_id":"cadcf69c-05bd-4f21-87f9-b093bca0d957","system_id":"levelo_inurba_marseille","lat":43.304606,"lon":5.379026,"is_reserved":false,"is_disabled":false,"rental_uris":{"android":"levelo://app?vid=cadcf69c-05bd-4f21-87f9-b093bca0d957","ios":"levelo://app?vid=cadcf69c-05bd-4f21-87f9-b093bca0d957"},"vehicle_type_id":"4","last_reported":1692219927,"current_range_meters":12000,"station_id":"ce4bgup2rcd13ifvqcn0","pricing_plan_id":"free"},{"bike_id":"4b3cd44b-4848-4ec9-9fce-55299a29bb89","system_id":"levelo_inurba_marseille","lat":43.304606,"lon":5.379026,"is_reserved":false,"is_disabled":false,"rental_uris":{"android":"levelo://app?vid=4b3cd44b-4848-4ec9-9fce-55299a29bb89","ios":"levelo://app?vid=4b3cd44b-4848-4ec9-9fce-55299a29bb89"},"vehicle_type_id":"4","last_reported":1692219927,"current_range_meters":400,"station_id":"ce4bgup2rcd13ifvqcn0","pricing_plan_id":"free"},{"bike_id":"3e0f0a4c-dfaf-45a9-bdf8-c421197cc462","system_id":"levelo_inurba_marseille","lat":43.304606,"lon":5.379026,"is_reserved":false,"is_disabled":false,"rental_uris":{"android":"levelo://app?vid=3e0f0a4c-dfaf-45a9-bdf8-c421197cc462","ios":"levelo://app?vid=3e0f0a4c-dfaf-45a9-bdf8-c421197cc462"},"vehicle_type_id":"4","last_reported":1692219927,"current_range_meters":13200,"station_id":"ce4bgup2rcd13ifvqcn0","pricing_plan_id":"free"},{"bike_id":"cb543a28-b566-40fa-a338-66a7a63434d1","system_id":"levelo_inurba_marseille","lat":43.304606,"lon":5.379026,"is_reserved":false,"is_disabled":false,"rental_uris":{"android":"levelo://app?vid=cb543a28-b566-40fa-a338-66a7a63434d1","ios":"levelo://app?vid=cb543a28-b566-40fa-a338-66a7a63434d1"},"vehicle_type_id":"4","last_reported":1692219927,"current_range_meters":18800,"station_id":"ce4bgup2rcd13ifvqcn0","pricing_plan_id":"free"},{"bike_id":"71a2a66e-3380-481b-ad42-e1978c950ca3","system_id":"levelo_inurba_marseille","lat":43.304606,"lon":5.379026,"is_reserved":false,"is_disabled":false,"rental_uris":{"android":"levelo://app?vid=71a2a66e-3380-481b-ad42-e1978c950ca3","ios":"levelo://app?vid=71a2a66e-3380-481b-ad42-e1978c950ca3"},"vehicle_type_id":"4","last_reported":1692219927,"current_range_meters":5200,"station_id":"ce4bgup2rcd13ifvqcn0","pricing_plan_id":"free"},{"bike_id":"46f25c80-d6c9-4047-8f25-bfda3c1c042d","system_id":"levelo_inurba_marseille","lat":43.304606,"lon":5.379026,"is_reserved":false,"is_disabled":false,"rental_uris":{"android":"levelo://app?vid=46f25c80-d6c9-4047-8f25-bfda3c1c042d","ios":"levelo://app?vid=46f25c80-d6c9-4047-8f25-bfda3c1c042d"},"vehicle_type_id":"4","last_reported":1692219927,"current_range_meters":16800,"station_id":"ce4bgup2rcd13ifvqcn0","pricing_plan_id":"free"},{"bike_id":"77e2a4f6-963c-40bc-8df8-d5e7de722255","system_id":"levelo_inurba_marseille","lat":43.30462,"lon":5.37911,"is_reserved":false,"is_disabled":false,"rental_uris":{"android":"levelo://app?vid=77e2a4f6-963c-40bc-8df8-d5e7de722255","ios":"levelo://app?vid=77e2a4f6-963c-40bc-8df8-d5e7de722255"},"vehicle_type_id":"4","last_reported":1692219927,"current_range_meters":10000,"station_id":"","pricing_plan_id":"free"},{"bike_id":"4153c2bd-ce1b-4666-94ae-bd97869e3e05","system_id":"levelo_inurba_marseille","lat":43.304606,"lon":5.379026,"is_reserved":false,"is_disabled":false,"rental_uris":{"android":"levelo://app?vid=4153c2bd-ce1b-4666-94ae-bd97869e3e05","ios":"levelo://app?vid=4153c2bd-ce1b-4666-94ae-bd97869e3e05"},"vehicle_type_id":"4","last_reported":1692219927,"current_range_meters":21600,"station_id":"ce4bgup2rcd13ifvqcn0","pricing_plan_id":"free"},{"bike_id":"b328d323-4e49-4e11-8d47-6f47f1998c64","system_id":"levelo_inurba_marseille","lat":43.32002,"lon":5.3815,"is_reserved":false,"is_disabled":false,"rental_uris":{"android":"levelo://app?vid=b328d323-4e49-4e11-8d47-6f47f1998c64","ios":"levelo://app?vid=b328d323-4e49-4e11-8d47-6f47f1998c64"},"vehicle_type_id":"4","last_reported":1692219927,"current_range_meters":30000,"station_id":"ce4bhr12rcd13ifvqhpg","pricing_plan_id":"free"},{"bike_id":"162380a7-4cb5-4d64-a080-2fe01e97ea23","system_id":"levelo_inurba_marseille","lat":43.32001,"lon":5.38159,"is_reserved":false,"is_disabled":false,"rental_uris":{"android":"levelo://app?vid=162380a7-4cb5-4d64-a080-2fe01e97ea23","ios":"levelo://app?vid=162380a7-4cb5-4d64-a080-2fe01e97ea23"},"vehicle_type_id":"4","last_reported":1692219927,"current_range_meters":28800,"station_id":"ce4bhr12rcd13ifvqhpg","pricing_plan_id":"free"},{"bike_id":"94779354-2b94-4f65-9843-a4fcbdbb0afd","system_id":"levelo_inurba_marseille","lat":43.319935,"lon":5.381699,"is_reserved":false,"is_disabled":false,"rental_uris":{"android":"levelo://app?vid=94779354-2b94-4f65-9843-a4fcbdbb0afd","ios":"levelo://app?vid=94779354-2b94-4f65-9843-a4fcbdbb0afd"},"vehicle_type_id":"4","last_reported":1692219927,"current_range_meters":28400,"station_id":"ce4bhr12rcd13ifvqhpg","pricing_plan_id":"free"},{"bike_id":"4a1b676a-3010-4971-bfd9-8fd08a0c1840","system_id":"levelo_inurba_marseille","lat":43.31998,"lon":5.38167,"is_reserved":false,"is_disabled":false,"rental_uris":{"android":"levelo://app?vid=4a1b676a-3010-4971-bfd9-8fd08a0c1840","ios":"levelo://app?vid=4a1b676a-3010-4971-bfd9-8fd08a0c1840"},"vehicle_type_id":"4","last_reported":1692219927,"current_range_meters":16800,"station_id":"ce4bhr12rcd13ifvqhpg","pricing_plan_id":"free"},{"bike_id":"eef0f8aa-5e7b-41d0-a407-1089919d7ad8","system_id":"levelo_inurba_marseille","lat":43.313571,"lon":5.384829,"is_reserved":false,"is_disabled":false,"rental_uris":{"android":"levelo://app?vid=eef0f8aa-5e7b-41d0-a407-1089919d7ad8","ios":"levelo://app?vid=eef0f8aa-5e7b-41d0-a407-1089919d7ad8"},"vehicle_type_id":"4","last_reported":1692219927,"current_range_meters":22800,"station_id":"ce4bgt92rcd13ifvqcf0","pricing_plan_id":"free"},{"bike_id":"547864aa-995e-4752-bfce-2db986213746","system_id":"levelo_inurba_marseille","lat":43.3137,"lon":5.38498,"is_reserved":false,"is_disabled":false,"rental_uris":{"android":"levelo://app?vid=547864aa-995e-4752-bfce-2db986213746","ios":"levelo://app?vid=547864aa-995e-4752-bfce-2db986213746"},"vehicle_type_id":"4","last_reported":1692219927,"current_range_meters":27200,"station_id":"ce4bgt92rcd13ifvqcf0","pricing_plan_id":"free"},{"bike_id":"970ff2ff-8604-4540-a4d4-5cb61262113e","system_id":"levelo_inurba_marseille","lat":43.313571,"lon":5.384829,"is_reserved":false,"is_disabled":false,"rental_uris":{"android":"levelo://app?vid=970ff2ff-8604-4540-a4d4-5cb61262113e","ios":"levelo://app?vid=970ff2ff-8604-4540-a4d4-5cb61262113e"},"vehicle_type_id":"4","last_reported":1692219927,"current_range_meters":24400,"station_id":"ce4bgt92rcd13ifvqcf0","pricing_plan_id":"free"},{"bike_id":"75c7dedb-d281-45b4-aaa1-6057919c223b","system_id":"levelo_inurba_marseille","lat":43.29934,"lon":5.36538,"is_reserved":false,"is_disabled":false,"rental_uris":{"android":"levelo://app?vid=75c7dedb-d281-45b4-aaa1-6057919c223b","ios":"levelo://app?vid=75c7dedb-d281-45b4-aaa1-6057919c223b"},"vehicle_type_id":"4","last_reported":1692219927,"current_range_meters":19200,"station_id":"ce4bgm92rcd13ifvqbr0","pricing_plan_id":"free"},{"bike_id":"03141a4d-65cf-4581-8c70-5f380f7165bb","system_id":"levelo_inurba_marseille","lat":43.311722,"lon":5.387247,"is_reserved":false,"is_disabled":false,"rental_uris":{"android":"levelo://app?vid=03141a4d-65cf-4581-8c70-5f380f7165bb","ios":"levelo://app?vid=03141a4d-65cf-4581-8c70-5f380f7165bb"},"vehicle_type_id":"4","last_reported":1692219927,"current_range_meters":14400,"station_id":"ce4bgv12rcd13ifvqcp0","pricing_plan_id":"free"},{"bike_id":"761587cb-8c4d-4189-85b9-358b7be8b1db","system_id":"levelo_inurba_marseille","lat":43.305364,"lon":5.384119,"is_reserved":false,"is_disabled":false,"rental_uris":{"android":"levelo://app?vid=761587cb-8c4d-4189-85b9-358b7be8b1db","ios":"levelo://app?vid=761587cb-8c4d-4189-85b9-358b7be8b1db"},"vehicle_type_id":"4","last_reported":1692219927,"current_range_meters":31600,"station_id":"ce4bgg92rcd13ifvqb30","pricing_plan_id":"free"},{"bike_id":"9b044d07-b521-419f-94cd-97a10d904e47","system_id":"levelo_inurba_marseille","lat":43.305364,"lon":5.384119,"is_reserved":false,"is_disabled":false,"rental_uris":{"android":"levelo://app?vid=9b044d07-b521-419f-94cd-97a10d904e47","ios":"levelo://app?vid=9b044d07-b521-419f-94cd-97a10d904e47"},"vehicle_type_id":"4","last_reported":1692219927,"current_range_meters":11600,"station_id":"ce4bgg92rcd13ifvqb30","pricing_plan_id":"free"},{"bike_id":"6a7a45f2-c0d2-46ba-bec2-35845a796e81","system_id":"levelo_inurba_marseille","lat":43.305364,"lon":5.384119,"is_reserved":false,"is_disabled":false,"rental_uris":{"android":"levelo://app?vid=6a7a45f2-c0d2-46ba-bec2-35845a796e81","ios":"levelo://app?vid=6a7a45f2-c0d2-46ba-bec2-35845a796e81"},"vehicle_type_id":"4","last_reported":1692219927,"current_range_meters":14000,"station_id":"ce4bgg92rcd13ifvqb30","pricing_plan_id":"free"},{"bike_id":"213bedcb-284e-4a1d-b00c-b844b15fab04","system_id":"levelo_inurba_marseille","lat":43.298433,"lon":5.362774,"is_reserved":false,"is_disabled":false,"rental_uris":{"android":"levelo://app?vid=213bedcb-284e-4a1d-b00c-b844b15fab04","ios":"levelo://app?vid=213bedcb-284e-4a1d-b00c-b844b15fab04"},"vehicle_type_id":"4","last_reported":1692219927,"current_range_meters":0,"station_id":"ce4bgpp2rcd13ifvqc3g","pricing_plan_id":"free"},{"bike_id":"fe5a6e04-8109-4d57-80b1-50b1295a38cc","system_id":"levelo_inurba_marseille","lat":43.305364,"lon":5.384119,"is_reserved":false,"is_disabled":false,"rental_uris":{"android":"levelo://app?vid=fe5a6e04-8109-4d57-80b1-50b1295a38cc","ios":"levelo://app?vid=fe5a6e04-8109-4d57-80b1-50b1295a38cc"},"vehicle_type_id":"4","last_reported":1692219927,"current_range_meters":21200,"station_id":"ce4bgg92rcd13ifvqb30","pricing_plan_id":"free"},{"bike_id":"5c614be2-0960-4c0d-a675-306398eb2b8f","system_id":"levelo_inurba_marseille","lat":43.29923,"lon":5.37468,"is_reserved":false,"is_disabled":false,"rental_uris":{"android":"levelo://app?vid=5c614be2-0960-4c0d-a675-306398eb2b8f","ios":"levelo://app?vid=5c614be2-0960-4c0d-a675-306398eb2b8f"},"vehicle_type_id":"4","last_reported":1692219927,"current_range_meters":14800,"station_id":"ce4bgjh2rcd13ifvqbg0","pricing_plan_id":"free"},{"bike_id":"1b2dbb56-6da4-4cef-914d-618e66b9711d","system_id":"levelo_inurba_marseille","lat":43.311722,"lon":5.387247,"is_reserved":false,"is_disabled":false,"rental_uris":{"android":"levelo://app?vid=1b2dbb56-6da4-4cef-914d-618e66b9711d","ios":"levelo://app?vid=1b2dbb56-6da4-4cef-914d-618e66b9711d"},"vehicle_type_id":"4","last_reported":1692219927,"current_range_meters":14400,"station_id":"ce4bgv12rcd13ifvqcp0","pricing_plan_id":"free"},{"bike_id":"7ad1b1ab-1f63-4323-a531-50b119c7b093","system_id":"levelo_inurba_marseille","lat":43.29916,"lon":5.37467,"is_reserved":false,"is_disabled":false,"rental_uris":{"android":"levelo://app?vid=7ad1b1ab-1f63-4323-a531-50b119c7b093","ios":"levelo://app?vid=7ad1b1ab-1f63-4323-a531-50b119c7b093"},"vehicle_type_id":"4","last_reported":1692219927,"current_range_meters":28400,"station_id":"ce4bgjh2rcd13ifvqbg0","pricing_plan_id":"free"},{"bike_id":"a108101f-5102-4e56-9dbc-2e2606387656","system_id":"levelo_inurba_marseille","lat":43.311722,"lon":5.387247,"is_reserved":false,"is_disabled":false,"rental_uris":{"android":"levelo://app?vid=a108101f-5102-4e56-9dbc-2e2606387656","ios":"levelo://app?vid=a108101f-5102-4e56-9dbc-2e2606387656"},"vehicle_type_id":"4","last_reported":1692219927,"current_range_meters":14000,"station_id":"ce4bgv12rcd13ifvqcp0","pricing_plan_id":"free"},{"bike_id":"4e2c86cf-2092-43cb-9d23-485709944c2a","system_id":"levelo_inurba_marseille","lat":43.311722,"lon":5.387247,"is_reserved":false,"is_disabled":false,"rental_uris":{"android":"levelo://app?vid=4e2c86cf-2092-43cb-9d23-485709944c2a","ios":"levelo://app?vid=4e2c86cf-2092-43cb-9d23-485709944c2a"},"vehicle_type_id":"4","last_reported":1692219927,"current_range_meters":13600,"station_id":"ce4bgv12rcd13ifvqcp0","pricing_plan_id":"free"},{"bike_id":"da796c23-9c9c-4994-bfaf-92445b85076f","system_id":"levelo_inurba_marseille","lat":43.311722,"lon":5.387247,"is_reserved":false,"is_disabled":false,"rental_uris":{"android":"levelo://app?vid=da796c23-9c9c-4994-bfaf-92445b85076f","ios":"levelo://app?vid=da796c23-9c9c-4994-bfaf-92445b85076f"},"vehicle_type_id":"4","last_reported":1692219927,"current_range_meters":20000,"station_id":"ce4bgv12rcd13ifvqcp0","pricing_plan_id":"free"},{"bike_id":"9f33798a-1d3c-4dbb-9ef2-b598198ca355","system_id":"levelo_inurba_marseille","lat":43.311722,"lon":5.387247,"is_reserved":false,"is_disabled":false,"rental_uris":{"android":"levelo://app?vid=9f33798a-1d3c-4dbb-9ef2-b598198ca355","ios":"levelo://app?vid=9f33798a-1d3c-4dbb-9ef2-b598198ca355"},"vehicle_type_id":"4","last_reported":1692219927,"current_range_meters":3600,"station_id":"ce4bgv12rcd13ifvqcp0","pricing_plan_id":"free"},{"bike_id":"9721932a-07a3-432b-831f-74be50e02035","system_id":"levelo_inurba_marseille","lat":43.311722,"lon":5.387247,"is_reserved":false,"is_disabled":false,"rental_uris":{"android":"levelo://app?vid=9721932a-07a3-432b-831f-74be50e02035","ios":"levelo://app?vid=9721932a-07a3-432b-831f-74be50e02035"},"vehicle_type_id":"4","last_reported":1692219927,"current_range_meters":20000,"station_id":"ce4bgv12rcd13ifvqcp0","pricing_plan_id":"free"},{"bike_id":"90ac2e90-cd5c-4d9c-bf0a-b11e15788567","system_id":"levelo_inurba_marseille","lat":43.311722,"lon":5.387247,"is_reserved":false,"is_disabled":false,"rental_uris":{"android":"levelo://app?vid=90ac2e90-cd5c-4d9c-bf0a-b11e15788567","ios":"levelo://app?vid=90ac2e90-cd5c-4d9c-bf0a-b11e15788567"},"vehicle_type_id":"4","last_reported":1692219927,"current_range_meters":12800,"station_id":"ce4bgv12rcd13ifvqcp0","pricing_plan_id":"free"},{"bike_id":"c1e959cb-c192-4b0d-a84e-473f7f26f48f","system_id":"levelo_inurba_marseille","lat":43.299243,"lon":5.374807,"is_reserved":false,"is_disabled":false,"rental_uris":{"android":"levelo://app?vid=c1e959cb-c192-4b0d-a84e-473f7f26f48f","ios":"levelo://app?vid=c1e959cb-c192-4b0d-a84e-473f7f26f48f"},"vehicle_type_id":"4","last_reported":1692219927,"current_range_meters":30000,"station_id":"ce4bgjh2rcd13ifvqbg0","pricing_plan_id":"free"},{"bike_id":"20066552-063e-4d3e-9e10-e0e8a6d2c838","system_id":"levelo_inurba_marseille","lat":43.32292,"lon":5.38266,"is_reserved":false,"is_disabled":false,"rental_uris":{"android":"levelo://app?vid=20066552-063e-4d3e-9e10-e0e8a6d2c838","ios":"levelo://app?vid=20066552-063e-4d3e-9e10-e0e8a6d2c838"},"vehicle_type_id":"4","last_reported":1692219927,"current_range_meters":14800,"station_id":"ce4bhr12rcd13ifvqhqg","pricing_plan_id":"free"},{"bike_id":"b01878d3-473f-4dc6-a071-78a137765e5a","system_id":"levelo_inurba_marseille","lat":43.297163,"lon":5.365866,"is_reserved":false,"is_disabled":false,"rental_uris":{"android":"levelo://app?vid=b01878d3-473f-4dc6-a071-78a137765e5a","ios":"levelo://app?vid=b01878d3-473f-4dc6-a071-78a137765e5a"},"vehicle_type_id":"4","last_reported":1692219927,"current_range_meters":0,"station_id":"ce4bgn12rcd13ifvqbt0","pricing_plan_id":"free"},{"bike_id":"6902a594-b386-4a97-a6a9-aa85e19381e0","system_id":"levelo_inurba_marseille","lat":43.32826,"lon":5.36686,"is_reserved":false,"is_disabled":false,"rental_uris":{"android":"levelo://app?vid=6902a594-b386-4a97-a6a9-aa85e19381e0","ios":"levelo://app?vid=6902a594-b386-4a97-a6a9-aa85e19381e0"},"vehicle_type_id":"4","last_reported":1692219927,"current_range_meters":30000,"station_id":"ce4bhs92rcd13ifvqi0g","pricing_plan_id":"free"},{"bike_id":"2cacf4ba-30f0-4f40-92af-cee799fe4c0c","system_id":"levelo_inurba_marseille","lat":43.32826,"lon":5.36686,"is_reserved":false,"is_disabled":false,"rental_uris":{"android":"levelo://app?vid=2cacf4ba-30f0-4f40-92af-cee799fe4c0c","ios":"levelo://app?vid=2cacf4ba-30f0-4f40-92af-cee799fe4c0c"},"vehicle_type_id":"4","last_reported":1692219927,"current_range_meters":25600,"station_id":"ce4bhs92rcd13ifvqi0g","pricing_plan_id":"free"},{"bike_id":"4ed96fad-2e51-49a2-879d-e8c05ef80263","system_id":"levelo_inurba_marseille","lat":43.32827,"lon":5.36678,"is_reserved":false,"is_disabled":false,"rental_uris":{"android":"levelo://app?vid=4ed96fad-2e51-49a2-879d-e8c05ef80263","ios":"levelo://app?vid=4ed96fad-2e51-49a2-879d-e8c05ef80263"},"vehicle_type_id":"4","last_reported":1692219927,"current_range_meters":14400,"station_id":"ce4bhs92rcd13ifvqi0g","pricing_plan_id":"free"},{"bike_id":"d76fbae9-22f2-4004-8aea-16c61ee5ad0d","system_id":"levelo_inurba_marseille","lat":43.32828,"lon":5.36689,"is_reserved":false,"is_disabled":false,"rental_uris":{"android":"levelo://app?vid=d76fbae9-22f2-4004-8aea-16c61ee5ad0d","ios":"levelo://app?vid=d76fbae9-22f2-4004-8aea-16c61ee5ad0d"},"vehicle_type_id":"4","last_reported":1692219927,"current_range_meters":14000,"station_id":"ce4bhs92rcd13ifvqi0g","pricing_plan_id":"free"},{"bike_id":"6ece8e83-2d1d-4d08-ad69-51835c8252e1","system_id":"levelo_inurba_marseille","lat":43.32828,"lon":5.36689,"is_reserved":false,"is_disabled":false,"rental_uris":{"android":"levelo://app?vid=6ece8e83-2d1d-4d08-ad69-51835c8252e1","ios":"levelo://app?vid=6ece8e83-2d1d-4d08-ad69-51835c8252e1"},"vehicle_type_id":"4","last_reported":1692219927,"current_range_meters":24000,"station_id":"ce4bhs92rcd13ifvqi0g","pricing_plan_id":"free"},{"bike_id":"94ca1dde-c62e-406c-a1ed-ce8078fc26e1","system_id":"levelo_inurba_marseille","lat":43.32828,"lon":5.36682,"is_reserved":false,"is_disabled":false,"rental_uris":{"android":"levelo://app?vid=94ca1dde-c62e-406c-a1ed-ce8078fc26e1","ios":"levelo://app?vid=94ca1dde-c62e-406c-a1ed-ce8078fc26e1"},"vehicle_type_id":"4","last_reported":1692219927,"current_range_meters":13200,"station_id":"ce4bhs92rcd13ifvqi0g","pricing_plan_id":"free"},{"bike_id":"06c3053e-c698-42c5-9959-fe26ebe2b7f0","system_id":"levelo_inurba_marseille","lat":43.32829,"lon":5.36688,"is_reserved":false,"is_disabled":false,"rental_uris":{"android":"levelo://app?vid=06c3053e-c698-42c5-9959-fe26ebe2b7f0","ios":"levelo://app?vid=06c3053e-c698-42c5-9959-fe26ebe2b7f0"},"vehicle_type_id":"4","last_reported":1692219927,"current_range_meters":31200,"station_id":"ce4bhs92rcd13ifvqi0g","pricing_plan_id":"free"},{"bike_id":"fa832a3b-a72f-42a2-8ac6-320395daaa8c","system_id":"levelo_inurba_marseille","lat":43.3283,"lon":5.36686,"is_reserved":false,"is_disabled":false,"rental_uris":{"android":"levelo://app?vid=fa832a3b-a72f-42a2-8ac6-320395daaa8c","ios":"levelo://app?vid=fa832a3b-a72f-42a2-8ac6-320395daaa8c"},"vehicle_type_id":"4","last_reported":1692219927,"current_range_meters":24400,"station_id":"ce4bhs92rcd13ifvqi0g","pricing_plan_id":"free"},{"bike_id":"3dc8ddfd-e386-4774-938c-dc3a7b25274a","system_id":"levelo_inurba_marseille","lat":43.3283,"lon":5.36679,"is_reserved":false,"is_disabled":false,"rental_uris":{"android":"levelo://app?vid=3dc8ddfd-e386-4774-938c-dc3a7b25274a","ios":"levelo://app?vid=3dc8ddfd-e386-4774-938c-dc3a7b25274a"},"vehicle_type_id":"4","last_reported":1692219927,"current_range_meters":17200,"station_id":"ce4bhs92rcd13ifvqi0g","pricing_plan_id":"free"},{"bike_id":"5f8a6ca0-5dfe-4c06-929a-c1030bd48d99","system_id":"levelo_inurba_marseille","lat":43.32831,"lon":5.36681,"is_reserved":false,"is_disabled":false,"rental_uris":{"android":"levelo://app?vid=5f8a6ca0-5dfe-4c06-929a-c1030bd48d99","ios":"levelo://app?vid=5f8a6ca0-5dfe-4c06-929a-c1030bd48d99"},"vehicle_type_id":"4","last_reported":1692219927,"current_range_meters":13600,"station_id":"ce4bhs92rcd13ifvqi0g","pricing_plan_id":"free"},{"bike_id":"dd789220-e7b5-42c1-b9dc-dc4243148021","system_id":"levelo_inurba_marseille","lat":43.297163,"lon":5.365866,"is_reserved":false,"is_disabled":false,"rental_uris":{"android":"levelo://app?vid=dd789220-e7b5-42c1-b9dc-dc4243148021","ios":"levelo://app?vid=dd789220-e7b5-42c1-b9dc-dc4243148021"},"vehicle_type_id":"4","last_reported":1692219927,"current_range_meters":32000,"station_id":"ce4bgn12rcd13ifvqbt0","pricing_plan_id":"free"},{"bike_id":"154520f2-fd91-4cdf-914b-39adc14372e3","system_id":"levelo_inurba_marseille","lat":43.32836,"lon":5.36674,"is_reserved":false,"is_disabled":false,"rental_uris":{"android":"levelo://app?vid=154520f2-fd91-4cdf-914b-39adc14372e3","ios":"levelo://app?vid=154520f2-fd91-4cdf-914b-39adc14372e3"},"vehicle_type_id":"4","last_reported":1692219927,"current_range_meters":15600,"station_id":"ce4bhs92rcd13ifvqi0g","pricing_plan_id":"free"},{"bike_id":"bb155e93-116e-494a-9911-2df351c7dae8","system_id":"levelo_inurba_marseille","lat":43.29623,"lon":5.37155,"is_reserved":false,"is_disabled":false,"rental_uris":{"android":"levelo://app?vid=bb155e93-116e-494a-9911-2df351c7dae8","ios":"levelo://app?vid=bb155e93-116e-494a-9911-2df351c7dae8"},"vehicle_type_id":"4","last_reported":1692219927,"current_range_meters":26400,"station_id":"","pricing_plan_id":"free"},{"bike_id":"2810bb29-ef0d-49d1-8cc2-d059a990ec17","system_id":"levelo_inurba_marseille","lat":43.309589,"lon":5.390258,"is_reserved":false,"is_disabled":false,"rental_uris":{"android":"levelo://app?vid=2810bb29-ef0d-49d1-8cc2-d059a990ec17","ios":"levelo://app?vid=2810bb29-ef0d-49d1-8cc2-d059a990ec17"},"vehicle_type_id":"4","last_reported":1692219927,"current_range_meters":7200,"station_id":"ce4bgup2rcd13ifvqco0","pricing_plan_id":"free"},{"bike_id":"dbcf18a2-2ceb-4f64-a15c-aa4b23f962a9","system_id":"levelo_inurba_marseille","lat":43.309589,"lon":5.390258,"is_reserved":false,"is_disabled":false,"rental_uris":{"android":"levelo://app?vid=dbcf18a2-2ceb-4f64-a15c-aa4b23f962a9","ios":"levelo://app?vid=dbcf18a2-2ceb-4f64-a15c-aa4b23f962a9"},"vehicle_type_id":"4","last_reported":1692219927,"current_range_meters":16800,"station_id":"ce4bgup2rcd13ifvqco0","pricing_plan_id":"free"},{"bike_id":"c2dd4bd6-ad62-4f90-af27-61e9344d9f3c","system_id":"levelo_inurba_marseille","lat":43.3177,"lon":5.39005,"is_reserved":false,"is_disabled":false,"rental_uris":{"android":"levelo://app?vid=c2dd4bd6-ad62-4f90-af27-61e9344d9f3c","ios":"levelo://app?vid=c2dd4bd6-ad62-4f90-af27-61e9344d9f3c"},"vehicle_type_id":"4","last_reported":1692219927,"current_range_meters":26800,"station_id":"ce4bhqp2rcd13ifvqhng","pricing_plan_id":"free"},{"bike_id":"be472a66-12d7-4b1c-a801-1b9205d156df","system_id":"levelo_inurba_marseille","lat":43.31761,"lon":5.39012,"is_reserved":false,"is_disabled":false,"rental_uris":{"android":"levelo://app?vid=be472a66-12d7-4b1c-a801-1b9205d156df","ios":"levelo://app?vid=be472a66-12d7-4b1c-a801-1b9205d156df"},"vehicle_type_id":"4","last_reported":1692219927,"current_range_meters":31200,"station_id":"ce4bhqp2rcd13ifvqhng","pricing_plan_id":"free"},{"bike_id":"f4ef0b75-3b1d-41ee-9b7e-15855d17b964","system_id":"levelo_inurba_marseille","lat":43.31756,"lon":5.39014,"is_reserved":false,"is_disabled":false,"rental_uris":{"android":"levelo://app?vid=f4ef0b75-3b1d-41ee-9b7e-15855d17b964","ios":"levelo://app?vid=f4ef0b75-3b1d-41ee-9b7e-15855d17b964"},"vehicle_type_id":"4","last_reported":1692219927,"current_range_meters":24400,"station_id":"ce4bhqp2rcd13ifvqhng","pricing_plan_id":"free"},{"bike_id":"36883f8f-6a8c-48ba-b7e7-c459a1e05b5b","system_id":"levelo_inurba_marseille","lat":43.31762,"lon":5.39012,"is_reserved":false,"is_disabled":false,"rental_uris":{"android":"levelo://app?vid=36883f8f-6a8c-48ba-b7e7-c459a1e05b5b","ios":"levelo://app?vid=36883f8f-6a8c-48ba-b7e7-c459a1e05b5b"},"vehicle_type_id":"4","last_reported":1692219927,"current_range_meters":0,"station_id":"ce4bhqp2rcd13ifvqhng","pricing_plan_id":"free"},{"bike_id":"247f12f2-79c7-4029-b9cf-530e5f7b8dff","system_id":"levelo_inurba_marseille","lat":43.317557,"lon":5.390173,"is_reserved":false,"is_disabled":false,"rental_uris":{"android":"levelo://app?vid=247f12f2-79c7-4029-b9cf-530e5f7b8dff","ios":"levelo://app?vid=247f12f2-79c7-4029-b9cf-530e5f7b8dff"},"vehicle_type_id":"4","last_reported":1692219927,"current_range_meters":23600,"station_id":"ce4bhqp2rcd13ifvqhng","pricing_plan_id":"free"},{"bike_id":"f40e5560-f4a0-46f5-9232-c7b453260a19","system_id":"levelo_inurba_marseille","lat":43.317557,"lon":5.390173,"is_reserved":false,"is_disabled":false,"rental_uris":{"android":"levelo://app?vid=f40e5560-f4a0-46f5-9232-c7b453260a19","ios":"levelo://app?vid=f40e5560-f4a0-46f5-9232-c7b453260a19"},"vehicle_type_id":"4","last_reported":1692219927,"current_range_meters":10800,"station_id":"ce4bhqp2rcd13ifvqhng","pricing_plan_id":"free"},{"bike_id":"93de5219-47ff-4b18-a7bf-e79f70dc0971","system_id":"levelo_inurba_marseille","lat":43.31761,"lon":5.39023,"is_reserved":false,"is_disabled":false,"rental_uris":{"android":"levelo://app?vid=93de5219-47ff-4b18-a7bf-e79f70dc0971","ios":"levelo://app?vid=93de5219-47ff-4b18-a7bf-e79f70dc0971"},"vehicle_type_id":"4","last_reported":1692219927,"current_range_meters":29600,"station_id":"ce4bhqp2rcd13ifvqhng","pricing_plan_id":"free"},{"bike_id":"c57a1e23-516d-4d0b-bea3-6f128147f721","system_id":"levelo_inurba_marseille","lat":43.29801,"lon":5.38102,"is_reserved":false,"is_disabled":false,"rental_uris":{"android":"levelo://app?vid=c57a1e23-516d-4d0b-bea3-6f128147f721","ios":"levelo://app?vid=c57a1e23-516d-4d0b-bea3-6f128147f721"},"vehicle_type_id":"4","last_reported":1692219927,"current_range_meters":24800,"station_id":"ce4bgip2rcd13ifvqbb0","pricing_plan_id":"free"},{"bike_id":"3ffcc889-bd62-46bf-913e-bd2102f2cfe2","system_id":"levelo_inurba_marseille","lat":43.29797,"lon":5.38098,"is_reserved":false,"is_disabled":false,"rental_uris":{"android":"levelo://app?vid=3ffcc889-bd62-46bf-913e-bd2102f2cfe2","ios":"levelo://app?vid=3ffcc889-bd62-46bf-913e-bd2102f2cfe2"},"vehicle_type_id":"4","last_reported":1692219927,"current_range_meters":4800,"station_id":"ce4bgip2rcd13ifvqbb0","pricing_plan_id":"free"},{"bike_id":"096bf25e-e7fc-43fb-8743-40708d893427","system_id":"levelo_inurba_marseille","lat":43.295748,"lon":5.37522,"is_reserved":false,"is_disabled":false,"rental_uris":{"android":"levelo://app?vid=096bf25e-e7fc-43fb-8743-40708d893427","ios":"levelo://app?vid=096bf25e-e7fc-43fb-8743-40708d893427"},"vehicle_type_id":"4","last_reported":1692219927,"current_range_meters":23600,"station_id":"ce4bgh92rcd13ifvqb50","pricing_plan_id":"free"},{"bike_id":"a4df99ce-0488-49dd-a888-94686f562e88","system_id":"levelo_inurba_marseille","lat":43.295748,"lon":5.37522,"is_reserved":false,"is_disabled":false,"rental_uris":{"android":"levelo://app?vid=a4df99ce-0488-49dd-a888-94686f562e88","ios":"levelo://app?vid=a4df99ce-0488-49dd-a888-94686f562e88"},"vehicle_type_id":"4","last_reported":1692219927,"current_range_meters":28400,"station_id":"ce4bgh92rcd13ifvqb50","pricing_plan_id":"free"},{"bike_id":"b7387aa5-0788-4434-94ea-57481947ff1e","system_id":"levelo_inurba_marseille","lat":43.29605,"lon":5.37716,"is_reserved":false,"is_disabled":false,"rental_uris":{"android":"levelo://app?vid=b7387aa5-0788-4434-94ea-57481947ff1e","ios":"levelo://app?vid=b7387aa5-0788-4434-94ea-57481947ff1e"},"vehicle_type_id":"4","last_reported":1692219927,"current_range_meters":3600,"station_id":"","pricing_plan_id":"free"},{"bike_id":"7a85914d-0a9e-4771-b213-fda93f26dced","system_id":"levelo_inurba_marseille","lat":43.29982,"lon":5.38485,"is_reserved":false,"is_disabled":false,"rental_uris":{"android":"levelo://app?vid=7a85914d-0a9e-4771-b213-fda93f26dced","ios":"levelo://app?vid=7a85914d-0a9e-4771-b213-fda93f26dced"},"vehicle_type_id":"4","last_reported":1692219927,"current_range_meters":23200,"station_id":"ce4bgj92rcd13ifvqbd0","pricing_plan_id":"free"},{"bike_id":"aad69897-f5f8-4334-9329-dc6a3bce2bf0","system_id":"levelo_inurba_marseille","lat":43.29982,"lon":5.38485,"is_reserved":false,"is_disabled":false,"rental_uris":{"android":"levelo://app?vid=aad69897-f5f8-4334-9329-dc6a3bce2bf0","ios":"levelo://app?vid=aad69897-f5f8-4334-9329-dc6a3bce2bf0"},"vehicle_type_id":"4","last_reported":1692219927,"current_range_meters":11200,"station_id":"ce4bgj92rcd13ifvqbd0","pricing_plan_id":"free"},{"bike_id":"0b1db6be-eab0-4e6e-9785-c8d61b365b51","system_id":"levelo_inurba_marseille","lat":43.2998,"lon":5.38491,"is_reserved":false,"is_disabled":false,"rental_uris":{"android":"levelo://app?vid=0b1db6be-eab0-4e6e-9785-c8d61b365b51","ios":"levelo://app?vid=0b1db6be-eab0-4e6e-9785-c8d61b365b51"},"vehicle_type_id":"4","last_reported":1692219927,"current_range_meters":8400,"station_id":"ce4bgj92rcd13ifvqbd0","pricing_plan_id":"free"},{"bike_id":"79cefa21-4ae8-49e2-9c0a-ae529616a284","system_id":"levelo_inurba_marseille","lat":43.299724,"lon":5.384848,"is_reserved":false,"is_disabled":false,"rental_uris":{"android":"levelo://app?vid=79cefa21-4ae8-49e2-9c0a-ae529616a284","ios":"levelo://app?vid=79cefa21-4ae8-49e2-9c0a-ae529616a284"},"vehicle_type_id":"4","last_reported":1692219927,"current_range_meters":28400,"station_id":"ce4bgj92rcd13ifvqbd0","pricing_plan_id":"free"},{"bike_id":"8755e79d-940b-45d8-b55b-4818e043921d","system_id":"levelo_inurba_marseille","lat":43.295279,"lon":5.375048,"is_reserved":false,"is_disabled":false,"rental_uris":{"android":"levelo://app?vid=8755e79d-940b-45d8-b55b-4818e043921d","ios":"levelo://app?vid=8755e79d-940b-45d8-b55b-4818e043921d"},"vehicle_type_id":"4","last_reported":1692219927,"current_range_meters":11600,"station_id":"ce4bgkp2rcd13ifvqbmg","pricing_plan_id":"free"},{"bike_id":"ef595881-7177-400e-b177-375a7eb752c7","system_id":"levelo_inurba_marseille","lat":43.29968,"lon":5.38493,"is_reserved":false,"is_disabled":false,"rental_uris":{"android":"levelo://app?vid=ef595881-7177-400e-b177-375a7eb752c7","ios":"levelo://app?vid=ef595881-7177-400e-b177-375a7eb752c7"},"vehicle_type_id":"4","last_reported":1692219927,"current_range_meters":2800,"station_id":"ce4bgj92rcd13ifvqbd0","pricing_plan_id":"free"},{"bike_id":"357a4342-f36c-484b-a346-c547445ec336","system_id":"levelo_inurba_marseille","lat":43.299717,"lon":5.384845,"is_reserved":false,"is_disabled":false,"rental_uris":{"android":"levelo://app?vid=357a4342-f36c-484b-a346-c547445ec336","ios":"levelo://app?vid=357a4342-f36c-484b-a346-c547445ec336"},"vehicle_type_id":"4","last_reported":1692219927,"current_range_meters":20400,"station_id":"ce4bgj92rcd13ifvqbd0","pricing_plan_id":"free"},{"bike_id":"a591fe51-7a88-492b-befa-ebd43215f424","system_id":"levelo_inurba_marseille","lat":43.32365,"lon":5.3888,"is_reserved":false,"is_disabled":false,"rental_uris":{"android":"levelo://app?vid=a591fe51-7a88-492b-befa-ebd43215f424","ios":"levelo://app?vid=a591fe51-7a88-492b-befa-ebd43215f424"},"vehicle_type_id":"4","last_reported":1692219927,"current_range_meters":20800,"station_id":"ce4bhqp2rcd13ifvqhog","pricing_plan_id":"free"},{"bike_id":"55f08f4d-333e-4077-9882-16e72e12ddbf","system_id":"levelo_inurba_marseille","lat":43.32367,"lon":5.388836,"is_reserved":false,"is_disabled":false,"rental_uris":{"android":"levelo://app?vid=55f08f4d-333e-4077-9882-16e72e12ddbf","ios":"levelo://app?vid=55f08f4d-333e-4077-9882-16e72e12ddbf"},"vehicle_type_id":"4","last_reported":1692219927,"current_range_meters":3600,"station_id":"ce4bhqp2rcd13ifvqhog","pricing_plan_id":"free"},{"bike_id":"6b6cba89-d2b8-44bb-8454-5df08cf65f67","system_id":"levelo_inurba_marseille","lat":43.3237,"lon":5.38883,"is_reserved":false,"is_disabled":false,"rental_uris":{"android":"levelo://app?vid=6b6cba89-d2b8-44bb-8454-5df08cf65f67","ios":"levelo://app?vid=6b6cba89-d2b8-44bb-8454-5df08cf65f67"},"vehicle_type_id":"4","last_reported":1692219927,"current_range_meters":26000,"station_id":"ce4bhqp2rcd13ifvqhog","pricing_plan_id":"free"},{"bike_id":"810e5c4e-cfbd-4fb4-b6d8-02289cde4c80","system_id":"levelo_inurba_marseille","lat":43.32367,"lon":5.388836,"is_reserved":false,"is_disabled":false,"rental_uris":{"android":"levelo://app?vid=810e5c4e-cfbd-4fb4-b6d8-02289cde4c80","ios":"levelo://app?vid=810e5c4e-cfbd-4fb4-b6d8-02289cde4c80"},"vehicle_type_id":"4","last_reported":1692219927,"current_range_meters":25200,"station_id":"ce4bhqp2rcd13ifvqhog","pricing_plan_id":"free"},{"bike_id":"b11298e9-b84f-41af-a7e1-e24619ef367c","system_id":"levelo_inurba_marseille","lat":43.29597,"lon":5.38092,"is_reserved":false,"is_disabled":false,"rental_uris":{"android":"levelo://app?vid=b11298e9-b84f-41af-a7e1-e24619ef367c","ios":"levelo://app?vid=b11298e9-b84f-41af-a7e1-e24619ef367c"},"vehicle_type_id":"4","last_reported":1692219927,"current_range_meters":19200,"station_id":"ce4bgl12rcd13ifvqbo0","pricing_plan_id":"free"},{"bike_id":"e9207ac5-0f97-4183-8e36-698f0c7b568e","system_id":"levelo_inurba_marseille","lat":43.29602,"lon":5.381084,"is_reserved":false,"is_disabled":false,"rental_uris":{"android":"levelo://app?vid=e9207ac5-0f97-4183-8e36-698f0c7b568e","ios":"levelo://app?vid=e9207ac5-0f97-4183-8e36-698f0c7b568e"},"vehicle_type_id":"4","last_reported":1692219927,"current_range_meters":7200,"station_id":"ce4bgl12rcd13ifvqbo0","pricing_plan_id":"free"},{"bike_id":"bef0af91-d145-42b7-ac48-bcc72bac01ee","system_id":"levelo_inurba_marseille","lat":43.30601,"lon":5.39348,"is_reserved":false,"is_disabled":false,"rental_uris":{"android":"levelo://app?vid=bef0af91-d145-42b7-ac48-bcc72bac01ee","ios":"levelo://app?vid=bef0af91-d145-42b7-ac48-bcc72bac01ee"},"vehicle_type_id":"4","last_reported":1692219927,"current_range_meters":8400,"station_id":"ce4bh0p2rcd13ifvqd80","pricing_plan_id":"free"},{"bike_id":"38fef587-7cc5-4800-b069-87b8f296a10a","system_id":"levelo_inurba_marseille","lat":43.293009,"lon":5.374584,"is_reserved":false,"is_disabled":false,"rental_uris":{"android":"levelo://app?vid=38fef587-7cc5-4800-b069-87b8f296a10a","ios":"levelo://app?vid=38fef587-7cc5-4800-b069-87b8f296a10a"},"vehicle_type_id":"4","last_reported":1692219927,"current_range_meters":31600,"station_id":"ce4bgi12rcd13ifvqb70","pricing_plan_id":"free"},{"bike_id":"07eff295-4647-4054-9a91-906a62901215","system_id":"levelo_inurba_marseille","lat":43.305994,"lon":5.393687,"is_reserved":false,"is_disabled":false,"rental_uris":{"android":"levelo://app?vid=07eff295-4647-4054-9a91-906a62901215","ios":"levelo://app?vid=07eff295-4647-4054-9a91-906a62901215"},"vehicle_type_id":"4","last_reported":1692219927,"current_range_meters":28400,"station_id":"ce4bh0p2rcd13ifvqd80","pricing_plan_id":"free"},{"bike_id":"969d44cb-fec2-4345-9471-038ad690d718","system_id":"levelo_inurba_marseille","lat":43.293009,"lon":5.374584,"is_reserved":false,"is_disabled":false,"rental_uris":{"android":"levelo://app?vid=969d44cb-fec2-4345-9471-038ad690d718","ios":"levelo://app?vid=969d44cb-fec2-4345-9471-038ad690d718"},"vehicle_type_id":"4","last_reported":1692219927,"current_range_meters":0,"station_id":"ce4bgi12rcd13ifvqb70","pricing_plan_id":"free"},{"bike_id":"9baa5884-0d6e-47ae-ba8d-7b6c644c45d0","system_id":"levelo_inurba_marseille","lat":43.293009,"lon":5.374584,"is_reserved":false,"is_disabled":false,"rental_uris":{"android":"levelo://app?vid=9baa5884-0d6e-47ae-ba8d-7b6c644c45d0","ios":"levelo://app?vid=9baa5884-0d6e-47ae-ba8d-7b6c644c45d0"},"vehicle_type_id":"4","last_reported":1692219927,"current_range_meters":9200,"station_id":"ce4bgi12rcd13ifvqb70","pricing_plan_id":"free"},{"bike_id":"bdadcab2-0631-4175-9ee8-59e0976d7d89","system_id":"levelo_inurba_marseille","lat":43.303002,"lon":5.392142,"is_reserved":false,"is_disabled":false,"rental_uris":{"android":"levelo://app?vid=bdadcab2-0631-4175-9ee8-59e0976d7d89","ios":"levelo://app?vid=bdadcab2-0631-4175-9ee8-59e0976d7d89"},"vehicle_type_id":"4","last_reported":1692219927,"current_range_meters":3600,"station_id":"ce4bgkh2rcd13ifvqbk0","pricing_plan_id":"free"},{"bike_id":"8fd2b6b5-ef47-4333-95be-f7139964f136","system_id":"levelo_inurba_marseille","lat":43.30301,"lon":5.39211,"is_reserved":false,"is_disabled":false,"rental_uris":{"android":"levelo://app?vid=8fd2b6b5-ef47-4333-95be-f7139964f136","ios":"levelo://app?vid=8fd2b6b5-ef47-4333-95be-f7139964f136"},"vehicle_type_id":"4","last_reported":1692219927,"current_range_meters":6800,"station_id":"ce4bgkh2rcd13ifvqbk0","pricing_plan_id":"free"},{"bike_id":"7eb248d8-e81a-4d72-89c3-2c7bd43925ad","system_id":"levelo_inurba_marseille","lat":43.300852,"lon":5.390859,"is_reserved":false,"is_disabled":false,"rental_uris":{"android":"levelo://app?vid=7eb248d8-e81a-4d72-89c3-2c7bd43925ad","ios":"levelo://app?vid=7eb248d8-e81a-4d72-89c3-2c7bd43925ad"},"vehicle_type_id":"4","last_reported":1692219927,"current_range_meters":20800,"station_id":"ce4bh192rcd13ifvqdb0","pricing_plan_id":"free"},{"bike_id":"cd61c025-572e-43d1-9bd9-ec1051177868","system_id":"levelo_inurba_marseille","lat":43.300852,"lon":5.390859,"is_reserved":false,"is_disabled":false,"rental_uris":{"android":"levelo://app?vid=cd61c025-572e-43d1-9bd9-ec1051177868","ios":"levelo://app?vid=cd61c025-572e-43d1-9bd9-ec1051177868"},"vehicle_type_id":"4","last_reported":1692219927,"current_range_meters":9600,"station_id":"ce4bh192rcd13ifvqdb0","pricing_plan_id":"free"},{"bike_id":"8d0cb4fb-3a7f-490e-b1d7-a708cbe04a83","system_id":"levelo_inurba_marseille","lat":43.300852,"lon":5.390859,"is_reserved":false,"is_disabled":false,"rental_uris":{"android":"levelo://app?vid=8d0cb4fb-3a7f-490e-b1d7-a708cbe04a83","ios":"levelo://app?vid=8d0cb4fb-3a7f-490e-b1d7-a708cbe04a83"},"vehicle_type_id":"4","last_reported":1692219927,"current_range_meters":2800,"station_id":"ce4bh192rcd13ifvqdb0","pricing_plan_id":"free"},{"bike_id":"26116d90-e29f-4e6b-a0f0-d11257c8d695","system_id":"levelo_inurba_marseille","lat":43.300852,"lon":5.390859,"is_reserved":false,"is_disabled":false,"rental_uris":{"android":"levelo://app?vid=26116d90-e29f-4e6b-a0f0-d11257c8d695","ios":"levelo://app?vid=26116d90-e29f-4e6b-a0f0-d11257c8d695"},"vehicle_type_id":"4","last_reported":1692219927,"current_range_meters":18800,"station_id":"ce4bh192rcd13ifvqdb0","pricing_plan_id":"free"},{"bike_id":"8f2e67bb-f5c3-4f64-98a4-c95e53548460","system_id":"levelo_inurba_marseille","lat":43.300852,"lon":5.390859,"is_reserved":false,"is_disabled":false,"rental_uris":{"android":"levelo://app?vid=8f2e67bb-f5c3-4f64-98a4-c95e53548460","ios":"levelo://app?vid=8f2e67bb-f5c3-4f64-98a4-c95e53548460"},"vehicle_type_id":"4","last_reported":1692219927,"current_range_meters":3600,"station_id":"ce4bh192rcd13ifvqdb0","pricing_plan_id":"free"},{"bike_id":"da80e529-af14-485d-aa8b-8db226afc716","system_id":"levelo_inurba_marseille","lat":43.300852,"lon":5.390859,"is_reserved":false,"is_disabled":false,"rental_uris":{"android":"levelo://app?vid=da80e529-af14-485d-aa8b-8db226afc716","ios":"levelo://app?vid=da80e529-af14-485d-aa8b-8db226afc716"},"vehicle_type_id":"4","last_reported":1692219927,"current_range_meters":18800,"station_id":"ce4bh192rcd13ifvqdb0","pricing_plan_id":"free"},{"bike_id":"c8d63f69-70e9-4d56-93bf-b1316247ee71","system_id":"levelo_inurba_marseille","lat":43.292311,"lon":5.360731,"is_reserved":false,"is_disabled":false,"rental_uris":{"android":"levelo://app?vid=c8d63f69-70e9-4d56-93bf-b1316247ee71","ios":"levelo://app?vid=c8d63f69-70e9-4d56-93bf-b1316247ee71"},"vehicle_type_id":"4","last_reported":1692219927,"current_range_meters":18400,"station_id":"ce4bhbh2rcd13ifvqeqg","pricing_plan_id":"free"},{"bike_id":"025c5cb4-1670-41a7-8947-b735b89194ff","system_id":"levelo_inurba_marseille","lat":43.298764,"lon":5.388973,"is_reserved":false,"is_disabled":false,"rental_uris":{"android":"levelo://app?vid=025c5cb4-1670-41a7-8947-b735b89194ff","ios":"levelo://app?vid=025c5cb4-1670-41a7-8947-b735b89194ff"},"vehicle_type_id":"4","last_reported":1692219927,"current_range_meters":6400,"station_id":"ce4bh392rcd13ifvqdl0","pricing_plan_id":"free"},{"bike_id":"85cce2ed-6265-4470-b4e9-7413fbb67254","system_id":"levelo_inurba_marseille","lat":43.29883,"lon":5.38904,"is_reserved":false,"is_disabled":false,"rental_uris":{"android":"levelo://app?vid=85cce2ed-6265-4470-b4e9-7413fbb67254","ios":"levelo://app?vid=85cce2ed-6265-4470-b4e9-7413fbb67254"},"vehicle_type_id":"4","last_reported":1692219927,"current_range_meters":13600,"station_id":"ce4bh392rcd13ifvqdl0","pricing_plan_id":"free"},{"bike_id":"a125a25b-073f-4c48-a3ef-8abedfc3ff70","system_id":"levelo_inurba_marseille","lat":43.29886,"lon":5.38909,"is_reserved":false,"is_disabled":false,"rental_uris":{"android":"levelo://app?vid=a125a25b-073f-4c48-a3ef-8abedfc3ff70","ios":"levelo://app?vid=a125a25b-073f-4c48-a3ef-8abedfc3ff70"},"vehicle_type_id":"4","last_reported":1692219927,"current_range_meters":13600,"station_id":"ce4bh392rcd13ifvqdl0","pricing_plan_id":"free"},{"bike_id":"572bc75c-b38a-4cee-bc54-bec06c3569bd","system_id":"levelo_inurba_marseille","lat":43.298764,"lon":5.388973,"is_reserved":false,"is_disabled":false,"rental_uris":{"android":"levelo://app?vid=572bc75c-b38a-4cee-bc54-bec06c3569bd","ios":"levelo://app?vid=572bc75c-b38a-4cee-bc54-bec06c3569bd"},"vehicle_type_id":"4","last_reported":1692219927,"current_range_meters":28000,"station_id":"ce4bh392rcd13ifvqdl0","pricing_plan_id":"free"},{"bike_id":"193e00b4-fb1a-49c2-889a-b9cef07f52e6","system_id":"levelo_inurba_marseille","lat":43.29883,"lon":5.3891,"is_reserved":false,"is_disabled":false,"rental_uris":{"android":"levelo://app?vid=193e00b4-fb1a-49c2-889a-b9cef07f52e6","ios":"levelo://app?vid=193e00b4-fb1a-49c2-889a-b9cef07f52e6"},"vehicle_type_id":"4","last_reported":1692219927,"current_range_meters":7600,"station_id":"ce4bh392rcd13ifvqdl0","pricing_plan_id":"free"},{"bike_id":"1c7111ae-bbc7-4bc0-a3e1-7ec43d85a1a4","system_id":"levelo_inurba_marseille","lat":43.29881,"lon":5.38908,"is_reserved":false,"is_disabled":false,"rental_uris":{"android":"levelo://app?vid=1c7111ae-bbc7-4bc0-a3e1-7ec43d85a1a4","ios":"levelo://app?vid=1c7111ae-bbc7-4bc0-a3e1-7ec43d85a1a4"},"vehicle_type_id":"4","last_reported":1692219927,"current_range_meters":0,"station_id":"ce4bh392rcd13ifvqdl0","pricing_plan_id":"free"},{"bike_id":"0e02c184-a2e4-4cbd-a57a-28a49e6cadbe","system_id":"levelo_inurba_marseille","lat":43.29883,"lon":5.38912,"is_reserved":false,"is_disabled":false,"rental_uris":{"android":"levelo://app?vid=0e02c184-a2e4-4cbd-a57a-28a49e6cadbe","ios":"levelo://app?vid=0e02c184-a2e4-4cbd-a57a-28a49e6cadbe"},"vehicle_type_id":"4","last_reported":1692219927,"current_range_meters":22800,"station_id":"ce4bh392rcd13ifvqdl0","pricing_plan_id":"free"},{"bike_id":"7cf68528-4fba-4827-aa41-bb7fd4007837","system_id":"levelo_inurba_marseille","lat":43.2988,"lon":5.38909,"is_reserved":false,"is_disabled":false,"rental_uris":{"android":"levelo://app?vid=7cf68528-4fba-4827-aa41-bb7fd4007837","ios":"levelo://app?vid=7cf68528-4fba-4827-aa41-bb7fd4007837"},"vehicle_type_id":"4","last_reported":1692219927,"current_range_meters":24400,"station_id":"ce4bh392rcd13ifvqdl0","pricing_plan_id":"free"},{"bike_id":"9d001409-a194-426c-8067-47c191e9e9c0","system_id":"levelo_inurba_marseille","lat":43.291675,"lon":5.371583,"is_reserved":false,"is_disabled":false,"rental_uris":{"android":"levelo://app?vid=9d001409-a194-426c-8067-47c191e9e9c0","ios":"levelo://app?vid=9d001409-a194-426c-8067-47c191e9e9c0"},"vehicle_type_id":"4","last_reported":1692219927,"current_range_meters":4800,"station_id":"ce4bha92rcd13ifvqeh0","pricing_plan_id":"free"},{"bike_id":"dbf02e93-b162-4d28-a802-b896e236b20f","system_id":"levelo_inurba_marseille","lat":43.31325,"lon":5.39684,"is_reserved":false,"is_disabled":false,"rental_uris":{"android":"levelo://app?vid=dbf02e93-b162-4d28-a802-b896e236b20f","ios":"levelo://app?vid=dbf02e93-b162-4d28-a802-b896e236b20f"},"vehicle_type_id":"4","last_reported":1692219927,"current_range_meters":15600,"station_id":"ce4bgvp2rcd13ifvqcu0","pricing_plan_id":"free"},{"bike_id":"c6b4442f-24ed-461f-aa4c-adc94aa8d0ac","system_id":"levelo_inurba_marseille","lat":43.291994,"lon":5.357886,"is_reserved":false,"is_disabled":false,"rental_uris":{"android":"levelo://app?vid=c6b4442f-24ed-461f-aa4c-adc94aa8d0ac","ios":"levelo://app?vid=c6b4442f-24ed-461f-aa4c-adc94aa8d0ac"},"vehicle_type_id":"4","last_reported":1692219927,"current_range_meters":22000,"station_id":"ce4bhb12rcd13ifvqel0","pricing_plan_id":"free"},{"bike_id":"0bf05c24-67f3-4d9e-a402-f978015fcfef","system_id":"levelo_inurba_marseille","lat":43.309038,"lon":5.396546,"is_reserved":false,"is_disabled":false,"rental_uris":{"android":"levelo://app?vid=0bf05c24-67f3-4d9e-a402-f978015fcfef","ios":"levelo://app?vid=0bf05c24-67f3-4d9e-a402-f978015fcfef"},"vehicle_type_id":"4","last_reported":1692219927,"current_range_meters":0,"station_id":"ce4bh012rcd13ifvqcv0","pricing_plan_id":"free"},{"bike_id":"f0dd56b0-3706-4c12-945a-2f295b2e3ac5","system_id":"levelo_inurba_marseille","lat":43.31335,"lon":5.3969,"is_reserved":false,"is_disabled":false,"rental_uris":{"android":"levelo://app?vid=f0dd56b0-3706-4c12-945a-2f295b2e3ac5","ios":"levelo://app?vid=f0dd56b0-3706-4c12-945a-2f295b2e3ac5"},"vehicle_type_id":"4","last_reported":1692219927,"current_range_meters":16400,"station_id":"ce4bgvp2rcd13ifvqcu0","pricing_plan_id":"free"},{"bike_id":"56f4c0e9-fc60-4f46-bfa9-1896caec5ed9","system_id":"levelo_inurba_marseille","lat":43.313291,"lon":5.396838,"is_reserved":false,"is_disabled":false,"rental_uris":{"android":"levelo://app?vid=56f4c0e9-fc60-4f46-bfa9-1896caec5ed9","ios":"levelo://app?vid=56f4c0e9-fc60-4f46-bfa9-1896caec5ed9"},"vehicle_type_id":"4","last_reported":1692219927,"current_range_meters":21200,"station_id":"ce4bgvp2rcd13ifvqcu0","pricing_plan_id":"free"},{"bike_id":"fbfa8568-445c-49c1-826e-e15da3a2d4b5","system_id":"levelo_inurba_marseille","lat":43.313291,"lon":5.396838,"is_reserved":false,"is_disabled":false,"rental_uris":{"android":"levelo://app?vid=fbfa8568-445c-49c1-826e-e15da3a2d4b5","ios":"levelo://app?vid=fbfa8568-445c-49c1-826e-e15da3a2d4b5"},"vehicle_type_id":"4","last_reported":1692219927,"current_range_meters":16400,"station_id":"ce4bgvp2rcd13ifvqcu0","pricing_plan_id":"free"},{"bike_id":"1f56897c-accd-4b4e-8e9d-9c9e894f009e","system_id":"levelo_inurba_marseille","lat":43.30885,"lon":5.39646,"is_reserved":false,"is_disabled":false,"rental_uris":{"android":"levelo://app?vid=1f56897c-accd-4b4e-8e9d-9c9e894f009e","ios":"levelo://app?vid=1f56897c-accd-4b4e-8e9d-9c9e894f009e"},"vehicle_type_id":"4","last_reported":1692219927,"current_range_meters":800,"station_id":"ce4bh012rcd13ifvqcv0","pricing_plan_id":"free"},{"bike_id":"0136dfd6-13d8-4865-a4df-5593a72944da","system_id":"levelo_inurba_marseille","lat":43.31331,"lon":5.39695,"is_reserved":false,"is_disabled":false,"rental_uris":{"android":"levelo://app?vid=0136dfd6-13d8-4865-a4df-5593a72944da","ios":"levelo://app?vid=0136dfd6-13d8-4865-a4df-5593a72944da"},"vehicle_type_id":"4","last_reported":1692219927,"current_range_meters":6800,"station_id":"ce4bgvp2rcd13ifvqcu0","pricing_plan_id":"free"},{"bike_id":"8fd2c4e8-091a-48b4-9572-24f78b4ede30","system_id":"levelo_inurba_marseille","lat":43.30882,"lon":5.39653,"is_reserved":false,"is_disabled":false,"rental_uris":{"android":"levelo://app?vid=8fd2c4e8-091a-48b4-9572-24f78b4ede30","ios":"levelo://app?vid=8fd2c4e8-091a-48b4-9572-24f78b4ede30"},"vehicle_type_id":"4","last_reported":1692219927,"current_range_meters":29200,"station_id":"ce4bh012rcd13ifvqcv0","pricing_plan_id":"free"},{"bike_id":"3d3e44e7-1284-4d96-9fb7-25e66acd55d9","system_id":"levelo_inurba_marseille","lat":43.30886,"lon":5.39654,"is_reserved":false,"is_disabled":false,"rental_uris":{"android":"levelo://app?vid=3d3e44e7-1284-4d96-9fb7-25e66acd55d9","ios":"levelo://app?vid=3d3e44e7-1284-4d96-9fb7-25e66acd55d9"},"vehicle_type_id":"4","last_reported":1692219927,"current_range_meters":23200,"station_id":"ce4bh012rcd13ifvqcv0","pricing_plan_id":"free"},{"bike_id":"ceab0b2e-2228-4f33-a72b-4fbecdcaa552","system_id":"levelo_inurba_marseille","lat":43.30886,"lon":5.39654,"is_reserved":false,"is_disabled":false,"rental_uris":{"android":"levelo://app?vid=ceab0b2e-2228-4f33-a72b-4fbecdcaa552","ios":"levelo://app?vid=ceab0b2e-2228-4f33-a72b-4fbecdcaa552"},"vehicle_type_id":"4","last_reported":1692219927,"current_range_meters":2800,"station_id":"ce4bh012rcd13ifvqcv0","pricing_plan_id":"free"},{"bike_id":"4015e505-6c52-4cb1-a736-d18f143ab2bf","system_id":"levelo_inurba_marseille","lat":43.29529,"lon":5.385581,"is_reserved":false,"is_disabled":false,"rental_uris":{"android":"levelo://app?vid=4015e505-6c52-4cb1-a736-d18f143ab2bf","ios":"levelo://app?vid=4015e505-6c52-4cb1-a736-d18f143ab2bf"},"vehicle_type_id":"4","last_reported":1692219927,"current_range_meters":28800,"station_id":"ce4bgih2rcd13ifvqba0","pricing_plan_id":"free"},{"bike_id":"5cb69470-ace6-455f-96ca-682977a7d70e","system_id":"levelo_inurba_marseille","lat":43.29529,"lon":5.385581,"is_reserved":false,"is_disabled":false,"rental_uris":{"android":"levelo://app?vid=5cb69470-ace6-455f-96ca-682977a7d70e","ios":"levelo://app?vid=5cb69470-ace6-455f-96ca-682977a7d70e"},"vehicle_type_id":"4","last_reported":1692219927,"current_range_meters":31600,"station_id":"ce4bgih2rcd13ifvqba0","pricing_plan_id":"free"},{"bike_id":"cccd5de1-ac40-4cfd-8cd3-45f67a8b74d3","system_id":"levelo_inurba_marseille","lat":43.29529,"lon":5.385581,"is_reserved":false,"is_disabled":false,"rental_uris":{"android":"levelo://app?vid=cccd5de1-ac40-4cfd-8cd3-45f67a8b74d3","ios":"levelo://app?vid=cccd5de1-ac40-4cfd-8cd3-45f67a8b74d3"},"vehicle_type_id":"4","last_reported":1692219927,"current_range_meters":21200,"station_id":"ce4bgih2rcd13ifvqba0","pricing_plan_id":"free"},{"bike_id":"7a8f28d4-223f-45f9-b5f9-05d82de12435","system_id":"levelo_inurba_marseille","lat":43.29529,"lon":5.385581,"is_reserved":false,"is_disabled":false,"rental_uris":{"android":"levelo://app?vid=7a8f28d4-223f-45f9-b5f9-05d82de12435","ios":"levelo://app?vid=7a8f28d4-223f-45f9-b5f9-05d82de12435"},"vehicle_type_id":"4","last_reported":1692219927,"current_range_meters":31600,"station_id":"ce4bgih2rcd13ifvqba0","pricing_plan_id":"free"},{"bike_id":"490534aa-4980-4e52-804d-17f4b73c6da4","system_id":"levelo_inurba_marseille","lat":43.29529,"lon":5.385581,"is_reserved":false,"is_disabled":false,"rental_uris":{"android":"levelo://app?vid=490534aa-4980-4e52-804d-17f4b73c6da4","ios":"levelo://app?vid=490534aa-4980-4e52-804d-17f4b73c6da4"},"vehicle_type_id":"4","last_reported":1692219927,"current_range_meters":3600,"station_id":"ce4bgih2rcd13ifvqba0","pricing_plan_id":"free"},{"bike_id":"0deccfe8-9f32-40e9-8b22-411964f5ea7e","system_id":"levelo_inurba_marseille","lat":43.29529,"lon":5.385581,"is_reserved":false,"is_disabled":false,"rental_uris":{"android":"levelo://app?vid=0deccfe8-9f32-40e9-8b22-411964f5ea7e","ios":"levelo://app?vid=0deccfe8-9f32-40e9-8b22-411964f5ea7e"},"vehicle_type_id":"4","last_reported":1692219927,"current_range_meters":24400,"station_id":"ce4bgih2rcd13ifvqba0","pricing_plan_id":"free"},{"bike_id":"5cc47bd5-d1b3-47fa-a84c-8c6c3b536d3f","system_id":"levelo_inurba_marseille","lat":43.29529,"lon":5.385581,"is_reserved":false,"is_disabled":false,"rental_uris":{"android":"levelo://app?vid=5cc47bd5-d1b3-47fa-a84c-8c6c3b536d3f","ios":"levelo://app?vid=5cc47bd5-d1b3-47fa-a84c-8c6c3b536d3f"},"vehicle_type_id":"4","last_reported":1692219927,"current_range_meters":17600,"station_id":"ce4bgih2rcd13ifvqba0","pricing_plan_id":"free"},{"bike_id":"dd92abda-dde2-4dfc-be18-cd19ff62c161","system_id":"levelo_inurba_marseille","lat":43.29529,"lon":5.385581,"is_reserved":false,"is_disabled":false,"rental_uris":{"android":"levelo://app?vid=dd92abda-dde2-4dfc-be18-cd19ff62c161","ios":"levelo://app?vid=dd92abda-dde2-4dfc-be18-cd19ff62c161"},"vehicle_type_id":"4","last_reported":1692219927,"current_range_meters":15600,"station_id":"ce4bgih2rcd13ifvqba0","pricing_plan_id":"free"},{"bike_id":"2e71ebae-f87b-4f13-84b5-b8070ab9a7f0","system_id":"levelo_inurba_marseille","lat":43.29529,"lon":5.385581,"is_reserved":false,"is_disabled":false,"rental_uris":{"android":"levelo://app?vid=2e71ebae-f87b-4f13-84b5-b8070ab9a7f0","ios":"levelo://app?vid=2e71ebae-f87b-4f13-84b5-b8070ab9a7f0"},"vehicle_type_id":"4","last_reported":1692219927,"current_range_meters":1200,"station_id":"ce4bgih2rcd13ifvqba0","pricing_plan_id":"free"},{"bike_id":"dbd21cb3-304f-4c34-8c05-e8dd141089b3","system_id":"levelo_inurba_marseille","lat":43.29529,"lon":5.385581,"is_reserved":false,"is_disabled":false,"rental_uris":{"android":"levelo://app?vid=dbd21cb3-304f-4c34-8c05-e8dd141089b3","ios":"levelo://app?vid=dbd21cb3-304f-4c34-8c05-e8dd141089b3"},"vehicle_type_id":"4","last_reported":1692219927,"current_range_meters":8000,"station_id":"ce4bgih2rcd13ifvqba0","pricing_plan_id":"free"},{"bike_id":"21de8497-6233-4b5a-9795-7f1180287832","system_id":"levelo_inurba_marseille","lat":43.29529,"lon":5.385581,"is_reserved":false,"is_disabled":false,"rental_uris":{"android":"levelo://app?vid=21de8497-6233-4b5a-9795-7f1180287832","ios":"levelo://app?vid=21de8497-6233-4b5a-9795-7f1180287832"},"vehicle_type_id":"4","last_reported":1692219927,"current_range_meters":31200,"station_id":"ce4bgih2rcd13ifvqba0","pricing_plan_id":"free"},{"bike_id":"ec7c393b-7d45-42aa-aac7-2d5de53aa77c","system_id":"levelo_inurba_marseille","lat":43.29529,"lon":5.385581,"is_reserved":false,"is_disabled":false,"rental_uris":{"android":"levelo://app?vid=ec7c393b-7d45-42aa-aac7-2d5de53aa77c","ios":"levelo://app?vid=ec7c393b-7d45-42aa-aac7-2d5de53aa77c"},"vehicle_type_id":"4","last_reported":1692219927,"current_range_meters":0,"station_id":"ce4bgih2rcd13ifvqba0","pricing_plan_id":"free"},{"bike_id":"c1689f3d-d27c-4baa-8a5c-0cad0468c584","system_id":"levelo_inurba_marseille","lat":43.29529,"lon":5.385581,"is_reserved":false,"is_disabled":false,"rental_uris":{"android":"levelo://app?vid=c1689f3d-d27c-4baa-8a5c-0cad0468c584","ios":"levelo://app?vid=c1689f3d-d27c-4baa-8a5c-0cad0468c584"},"vehicle_type_id":"4","last_reported":1692219927,"current_range_meters":0,"station_id":"ce4bgih2rcd13ifvqba0","pricing_plan_id":"free"},{"bike_id":"fb03f89e-e34d-4995-bca1-0e7884afa104","system_id":"levelo_inurba_marseille","lat":43.302008,"lon":5.394694,"is_reserved":false,"is_disabled":false,"rental_uris":{"android":"levelo://app?vid=fb03f89e-e34d-4995-bca1-0e7884afa104","ios":"levelo://app?vid=fb03f89e-e34d-4995-bca1-0e7884afa104"},"vehicle_type_id":"4","last_reported":1692219927,"current_range_meters":25600,"station_id":"ce4bh0p2rcd13ifvqd70","pricing_plan_id":"free"},{"bike_id":"f9da0220-8aca-4203-bc81-ad32c17f6050","system_id":"levelo_inurba_marseille","lat":43.29422,"lon":5.38625,"is_reserved":false,"is_disabled":false,"rental_uris":{"android":"levelo://app?vid=f9da0220-8aca-4203-bc81-ad32c17f6050","ios":"levelo://app?vid=f9da0220-8aca-4203-bc81-ad32c17f6050"},"vehicle_type_id":"4","last_reported":1692219927,"current_range_meters":0,"station_id":"ce4bh2h2rcd13ifvqdh0","pricing_plan_id":"free"},{"bike_id":"634b97b4-f290-42fa-8387-c3a1884bba38","system_id":"levelo_inurba_marseille","lat":43.29418,"lon":5.38618,"is_reserved":false,"is_disabled":false,"rental_uris":{"android":"levelo://app?vid=634b97b4-f290-42fa-8387-c3a1884bba38","ios":"levelo://app?vid=634b97b4-f290-42fa-8387-c3a1884bba38"},"vehicle_type_id":"4","last_reported":1692219927,"current_range_meters":11200,"station_id":"ce4bh2h2rcd13ifvqdh0","pricing_plan_id":"free"},{"bike_id":"448f8aae-cb2a-464f-9576-78bb11f553dc","system_id":"levelo_inurba_marseille","lat":43.294158,"lon":5.386151,"is_reserved":false,"is_disabled":false,"rental_uris":{"android":"levelo://app?vid=448f8aae-cb2a-464f-9576-78bb11f553dc","ios":"levelo://app?vid=448f8aae-cb2a-464f-9576-78bb11f553dc"},"vehicle_type_id":"4","last_reported":1692219927,"current_range_meters":5600,"station_id":"ce4bh2h2rcd13ifvqdh0","pricing_plan_id":"free"},{"bike_id":"09a7ffe5-0111-4d0e-a167-61d770353be7","system_id":"levelo_inurba_marseille","lat":43.29417,"lon":5.38619,"is_reserved":false,"is_disabled":false,"rental_uris":{"android":"levelo://app?vid=09a7ffe5-0111-4d0e-a167-61d770353be7","ios":"levelo://app?vid=09a7ffe5-0111-4d0e-a167-61d770353be7"},"vehicle_type_id":"4","last_reported":1692219927,"current_range_meters":14400,"station_id":"ce4bh2h2rcd13ifvqdh0","pricing_plan_id":"free"},{"bike_id":"259449c9-42ac-4f02-be32-2fb4505cde63","system_id":"levelo_inurba_marseille","lat":43.29419,"lon":5.38623,"is_reserved":false,"is_disabled":false,"rental_uris":{"android":"levelo://app?vid=259449c9-42ac-4f02-be32-2fb4505cde63","ios":"levelo://app?vid=259449c9-42ac-4f02-be32-2fb4505cde63"},"vehicle_type_id":"4","last_reported":1692219927,"current_range_meters":31200,"station_id":"ce4bh2h2rcd13ifvqdh0","pricing_plan_id":"free"},{"bike_id":"9da0b79d-0d83-40d2-8b50-ecb76107c376","system_id":"levelo_inurba_marseille","lat":43.29419,"lon":5.38624,"is_reserved":false,"is_disabled":false,"rental_uris":{"android":"levelo://app?vid=9da0b79d-0d83-40d2-8b50-ecb76107c376","ios":"levelo://app?vid=9da0b79d-0d83-40d2-8b50-ecb76107c376"},"vehicle_type_id":"4","last_reported":1692219927,"current_range_meters":25600,"station_id":"ce4bh2h2rcd13ifvqdh0","pricing_plan_id":"free"},{"bike_id":"1b19a3dc-fd1e-402d-9cac-b47340eaa3ff","system_id":"levelo_inurba_marseille","lat":43.294162,"lon":5.386292,"is_reserved":false,"is_disabled":false,"rental_uris":{"android":"levelo://app?vid=1b19a3dc-fd1e-402d-9cac-b47340eaa3ff","ios":"levelo://app?vid=1b19a3dc-fd1e-402d-9cac-b47340eaa3ff"},"vehicle_type_id":"4","last_reported":1692219927,"current_range_meters":25600,"station_id":"ce4bh2h2rcd13ifvqdh0","pricing_plan_id":"free"},{"bike_id":"36129c7e-c416-4733-ab8a-49b20234c7c7","system_id":"levelo_inurba_marseille","lat":43.29414,"lon":5.38619,"is_reserved":false,"is_disabled":false,"rental_uris":{"android":"levelo://app?vid=36129c7e-c416-4733-ab8a-49b20234c7c7","ios":"levelo://app?vid=36129c7e-c416-4733-ab8a-49b20234c7c7"},"vehicle_type_id":"4","last_reported":1692219927,"current_range_meters":13200,"station_id":"ce4bh2h2rcd13ifvqdh0","pricing_plan_id":"free"},{"bike_id":"154269ed-6790-42d3-90a6-3728c91e2127","system_id":"levelo_inurba_marseille","lat":43.294134,"lon":5.386188,"is_reserved":false,"is_disabled":false,"rental_uris":{"android":"levelo://app?vid=154269ed-6790-42d3-90a6-3728c91e2127","ios":"levelo://app?vid=154269ed-6790-42d3-90a6-3728c91e2127"},"vehicle_type_id":"4","last_reported":1692219927,"current_range_meters":24000,"station_id":"ce4bh2h2rcd13ifvqdh0","pricing_plan_id":"free"},{"bike_id":"c97eedfb-3531-4d39-bacf-9f7fab06af69","system_id":"levelo_inurba_marseille","lat":43.294104,"lon":5.386161,"is_reserved":false,"is_disabled":false,"rental_uris":{"android":"levelo://app?vid=c97eedfb-3531-4d39-bacf-9f7fab06af69","ios":"levelo://app?vid=c97eedfb-3531-4d39-bacf-9f7fab06af69"},"vehicle_type_id":"4","last_reported":1692219927,"current_range_meters":11200,"station_id":"ce4bhbh2rcd13ifvqepg","pricing_plan_id":"free"},{"bike_id":"95df30ef-0963-473c-ab04-de696c7222cc","system_id":"levelo_inurba_marseille","lat":43.29415,"lon":5.38625,"is_reserved":false,"is_disabled":false,"rental_uris":{"android":"levelo://app?vid=95df30ef-0963-473c-ab04-de696c7222cc","ios":"levelo://app?vid=95df30ef-0963-473c-ab04-de696c7222cc"},"vehicle_type_id":"4","last_reported":1692219927,"current_range_meters":10000,"station_id":"ce4bh2h2rcd13ifvqdh0","pricing_plan_id":"free"},{"bike_id":"763ff14b-4c2a-48ae-a9ce-c3055c1edd1b","system_id":"levelo_inurba_marseille","lat":43.289184,"lon":5.366408,"is_reserved":false,"is_disabled":false,"rental_uris":{"android":"levelo://app?vid=763ff14b-4c2a-48ae-a9ce-c3055c1edd1b","ios":"levelo://app?vid=763ff14b-4c2a-48ae-a9ce-c3055c1edd1b"},"vehicle_type_id":"4","last_reported":1692219927,"current_range_meters":30400,"station_id":"ce4bhap2rcd13ifvqek0","pricing_plan_id":"free"},{"bike_id":"8cc4acec-1ed5-4227-9ac1-29ab41b48bcf","system_id":"levelo_inurba_marseille","lat":43.294162,"lon":5.386292,"is_reserved":false,"is_disabled":false,"rental_uris":{"android":"levelo://app?vid=8cc4acec-1ed5-4227-9ac1-29ab41b48bcf","ios":"levelo://app?vid=8cc4acec-1ed5-4227-9ac1-29ab41b48bcf"},"vehicle_type_id":"4","last_reported":1692219927,"current_range_meters":2800,"station_id":"ce4bh2h2rcd13ifvqdh0","pricing_plan_id":"free"},{"bike_id":"5297be1d-4b91-4d04-8e0f-b504a47c16b2","system_id":"levelo_inurba_marseille","lat":43.294162,"lon":5.386292,"is_reserved":false,"is_disabled":false,"rental_uris":{"android":"levelo://app?vid=5297be1d-4b91-4d04-8e0f-b504a47c16b2","ios":"levelo://app?vid=5297be1d-4b91-4d04-8e0f-b504a47c16b2"},"vehicle_type_id":"4","last_reported":1692219927,"current_range_meters":26800,"station_id":"ce4bh2h2rcd13ifvqdh0","pricing_plan_id":"free"},{"bike_id":"df34144f-933f-4297-b881-39e8c7168cf8","system_id":"levelo_inurba_marseille","lat":43.294162,"lon":5.386292,"is_reserved":false,"is_disabled":false,"rental_uris":{"android":"levelo://app?vid=df34144f-933f-4297-b881-39e8c7168cf8","ios":"levelo://app?vid=df34144f-933f-4297-b881-39e8c7168cf8"},"vehicle_type_id":"4","last_reported":1692219927,"current_range_meters":19200,"station_id":"ce4bh2h2rcd13ifvqdh0","pricing_plan_id":"free"},{"bike_id":"1a2e52fb-3940-4cd2-b91f-52ec46e708a5","system_id":"levelo_inurba_marseille","lat":43.294162,"lon":5.386292,"is_reserved":false,"is_disabled":false,"rental_uris":{"android":"levelo://app?vid=1a2e52fb-3940-4cd2-b91f-52ec46e708a5","ios":"levelo://app?vid=1a2e52fb-3940-4cd2-b91f-52ec46e708a5"},"vehicle_type_id":"4","last_reported":1692219927,"current_range_meters":19600,"station_id":"ce4bh2h2rcd13ifvqdh0","pricing_plan_id":"free"},{"bike_id":"fccddbf5-188f-4371-bd1f-01479556c955","system_id":"levelo_inurba_marseille","lat":43.294162,"lon":5.386292,"is_reserved":false,"is_disabled":false,"rental_uris":{"android":"levelo://app?vid=fccddbf5-188f-4371-bd1f-01479556c955","ios":"levelo://app?vid=fccddbf5-188f-4371-bd1f-01479556c955"},"vehicle_type_id":"4","last_reported":1692219927,"current_range_meters":13600,"station_id":"ce4bh2h2rcd13ifvqdh0","pricing_plan_id":"free"},{"bike_id":"01a5fadc-88a4-4cb7-ad61-46d49f8acd18","system_id":"levelo_inurba_marseille","lat":43.294091,"lon":5.386208,"is_reserved":false,"is_disabled":false,"rental_uris":{"android":"levelo://app?vid=01a5fadc-88a4-4cb7-ad61-46d49f8acd18","ios":"levelo://app?vid=01a5fadc-88a4-4cb7-ad61-46d49f8acd18"},"vehicle_type_id":"4","last_reported":1692219927,"current_range_meters":6800,"station_id":"ce4bh2h2rcd13ifvqdh0","pricing_plan_id":"free"},{"bike_id":"0ef68f54-1f25-4c7b-afe6-3089d655be4d","system_id":"levelo_inurba_marseille","lat":43.294162,"lon":5.386292,"is_reserved":false,"is_disabled":false,"rental_uris":{"android":"levelo://app?vid=0ef68f54-1f25-4c7b-afe6-3089d655be4d","ios":"levelo://app?vid=0ef68f54-1f25-4c7b-afe6-3089d655be4d"},"vehicle_type_id":"4","last_reported":1692219927,"current_range_meters":13200,"station_id":"ce4bh2h2rcd13ifvqdh0","pricing_plan_id":"free"},{"bike_id":"9295873a-fb1c-447a-94be-e533fa02a69e","system_id":"levelo_inurba_marseille","lat":43.289184,"lon":5.366408,"is_reserved":false,"is_disabled":false,"rental_uris":{"android":"levelo://app?vid=9295873a-fb1c-447a-94be-e533fa02a69e","ios":"levelo://app?vid=9295873a-fb1c-447a-94be-e533fa02a69e"},"vehicle_type_id":"4","last_reported":1692219927,"current_range_meters":31600,"station_id":"ce4bhap2rcd13ifvqek0","pricing_plan_id":"free"},{"bike_id":"73fd9f5b-667f-46ad-85a5-988286174ecb","system_id":"levelo_inurba_marseille","lat":43.292709,"lon":5.384408,"is_reserved":false,"is_disabled":false,"rental_uris":{"android":"levelo://app?vid=73fd9f5b-667f-46ad-85a5-988286174ecb","ios":"levelo://app?vid=73fd9f5b-667f-46ad-85a5-988286174ecb"},"vehicle_type_id":"4","last_reported":1692219927,"current_range_meters":21200,"station_id":"ce4bh692rcd13ifvqea0","pricing_plan_id":"free"},{"bike_id":"e65b41d9-8e93-4b88-99a5-3242f5685d40","system_id":"levelo_inurba_marseille","lat":43.292644,"lon":5.384257,"is_reserved":false,"is_disabled":false,"rental_uris":{"android":"levelo://app?vid=e65b41d9-8e93-4b88-99a5-3242f5685d40","ios":"levelo://app?vid=e65b41d9-8e93-4b88-99a5-3242f5685d40"},"vehicle_type_id":"4","last_reported":1692219927,"current_range_meters":27600,"station_id":"ce4bh692rcd13ifvqea0","pricing_plan_id":"free"},{"bike_id":"a26b2334-69ff-4f79-802c-4372904ec704","system_id":"levelo_inurba_marseille","lat":43.29266,"lon":5.38438,"is_reserved":false,"is_disabled":false,"rental_uris":{"android":"levelo://app?vid=a26b2334-69ff-4f79-802c-4372904ec704","ios":"levelo://app?vid=a26b2334-69ff-4f79-802c-4372904ec704"},"vehicle_type_id":"4","last_reported":1692219927,"current_range_meters":28400,"station_id":"ce4bh692rcd13ifvqea0","pricing_plan_id":"free"},{"bike_id":"79d2f74f-7f16-4eb0-8574-5df058e14864","system_id":"levelo_inurba_marseille","lat":43.304296,"lon":5.397513,"is_reserved":false,"is_disabled":false,"rental_uris":{"android":"levelo://app?vid=79d2f74f-7f16-4eb0-8574-5df058e14864","ios":"levelo://app?vid=79d2f74f-7f16-4eb0-8574-5df058e14864"},"vehicle_type_id":"4","last_reported":1692219927,"current_range_meters":11200,"station_id":"ce4bh092rcd13ifvqd20","pricing_plan_id":"free"},{"bike_id":"b7d4ce7b-e851-4f57-a8ca-e7f257940bdf","system_id":"levelo_inurba_marseille","lat":43.292644,"lon":5.384257,"is_reserved":false,"is_disabled":false,"rental_uris":{"android":"levelo://app?vid=b7d4ce7b-e851-4f57-a8ca-e7f257940bdf","ios":"levelo://app?vid=b7d4ce7b-e851-4f57-a8ca-e7f257940bdf"},"vehicle_type_id":"4","last_reported":1692219927,"current_range_meters":31200,"station_id":"ce4bh692rcd13ifvqea0","pricing_plan_id":"free"},{"bike_id":"753bab4a-fc2d-4c5b-8c1c-247e8000858c","system_id":"levelo_inurba_marseille","lat":43.292644,"lon":5.384257,"is_reserved":false,"is_disabled":false,"rental_uris":{"android":"levelo://app?vid=753bab4a-fc2d-4c5b-8c1c-247e8000858c","ios":"levelo://app?vid=753bab4a-fc2d-4c5b-8c1c-247e8000858c"},"vehicle_type_id":"4","last_reported":1692219927,"current_range_meters":4800,"station_id":"ce4bh692rcd13ifvqea0","pricing_plan_id":"free"},{"bike_id":"661ee436-4c0c-4bd8-ad7e-44b77cb9dac3","system_id":"levelo_inurba_marseille","lat":43.304296,"lon":5.397513,"is_reserved":false,"is_disabled":false,"rental_uris":{"android":"levelo://app?vid=661ee436-4c0c-4bd8-ad7e-44b77cb9dac3","ios":"levelo://app?vid=661ee436-4c0c-4bd8-ad7e-44b77cb9dac3"},"vehicle_type_id":"4","last_reported":1692219927,"current_range_meters":6800,"station_id":"ce4bh092rcd13ifvqd20","pricing_plan_id":"free"},{"bike_id":"32c4f1c3-0816-475a-95d8-9eb2537a9ee1","system_id":"levelo_inurba_marseille","lat":43.292644,"lon":5.384257,"is_reserved":false,"is_disabled":false,"rental_uris":{"android":"levelo://app?vid=32c4f1c3-0816-475a-95d8-9eb2537a9ee1","ios":"levelo://app?vid=32c4f1c3-0816-475a-95d8-9eb2537a9ee1"},"vehicle_type_id":"4","last_reported":1692219927,"current_range_meters":31200,"station_id":"ce4bh692rcd13ifvqea0","pricing_plan_id":"free"},{"bike_id":"866ae3bb-2008-43ee-b338-44731aee4fb1","system_id":"levelo_inurba_marseille","lat":43.29257,"lon":5.38452,"is_reserved":false,"is_disabled":false,"rental_uris":{"android":"levelo://app?vid=866ae3bb-2008-43ee-b338-44731aee4fb1","ios":"levelo://app?vid=866ae3bb-2008-43ee-b338-44731aee4fb1"},"vehicle_type_id":"4","last_reported":1692219927,"current_range_meters":11600,"station_id":"ce4bh692rcd13ifvqea0","pricing_plan_id":"free"},{"bike_id":"36f35200-2574-44de-9cd6-a90dc4fb7642","system_id":"levelo_inurba_marseille","lat":43.2926,"lon":5.38461,"is_reserved":false,"is_disabled":false,"rental_uris":{"android":"levelo://app?vid=36f35200-2574-44de-9cd6-a90dc4fb7642","ios":"levelo://app?vid=36f35200-2574-44de-9cd6-a90dc4fb7642"},"vehicle_type_id":"4","last_reported":1692219927,"current_range_meters":14400,"station_id":"ce4bh692rcd13ifvqea0","pricing_plan_id":"free"},{"bike_id":"859ece1b-eaf2-4429-915d-1d151e169e7f","system_id":"levelo_inurba_marseille","lat":43.33037,"lon":5.38919,"is_reserved":false,"is_disabled":false,"rental_uris":{"android":"levelo://app?vid=859ece1b-eaf2-4429-915d-1d151e169e7f","ios":"levelo://app?vid=859ece1b-eaf2-4429-915d-1d151e169e7f"},"vehicle_type_id":"4","last_reported":1692219927,"current_range_meters":17600,"station_id":"ce4bhr92rcd13ifvqhrg","pricing_plan_id":"free"},{"bike_id":"fb75b0dc-b7ef-4c5d-9fff-ba63e9728994","system_id":"levelo_inurba_marseille","lat":43.33038,"lon":5.38918,"is_reserved":false,"is_disabled":false,"rental_uris":{"android":"levelo://app?vid=fb75b0dc-b7ef-4c5d-9fff-ba63e9728994","ios":"levelo://app?vid=fb75b0dc-b7ef-4c5d-9fff-ba63e9728994"},"vehicle_type_id":"4","last_reported":1692219927,"current_range_meters":16000,"station_id":"ce4bhr92rcd13ifvqhrg","pricing_plan_id":"free"},{"bike_id":"be005e4f-d207-40fd-bd99-241d744b2797","system_id":"levelo_inurba_marseille","lat":43.33044,"lon":5.3891,"is_reserved":false,"is_disabled":false,"rental_uris":{"android":"levelo://app?vid=be005e4f-d207-40fd-bd99-241d744b2797","ios":"levelo://app?vid=be005e4f-d207-40fd-bd99-241d744b2797"},"vehicle_type_id":"4","last_reported":1692219927,"current_range_meters":14800,"station_id":"ce4bhr92rcd13ifvqhrg","pricing_plan_id":"free"},{"bike_id":"7afdd38a-3f3b-4278-b4fd-a86234087abd","system_id":"levelo_inurba_marseille","lat":43.33044,"lon":5.38911,"is_reserved":false,"is_disabled":false,"rental_uris":{"android":"levelo://app?vid=7afdd38a-3f3b-4278-b4fd-a86234087abd","ios":"levelo://app?vid=7afdd38a-3f3b-4278-b4fd-a86234087abd"},"vehicle_type_id":"4","last_reported":1692219927,"current_range_meters":16800,"station_id":"ce4bhr92rcd13ifvqhrg","pricing_plan_id":"free"},{"bike_id":"96ead541-9c33-4112-927f-93c74ea92183","system_id":"levelo_inurba_marseille","lat":43.33041,"lon":5.38918,"is_reserved":false,"is_disabled":false,"rental_uris":{"android":"levelo://app?vid=96ead541-9c33-4112-927f-93c74ea92183","ios":"levelo://app?vid=96ead541-9c33-4112-927f-93c74ea92183"},"vehicle_type_id":"4","last_reported":1692219927,"current_range_meters":28800,"station_id":"ce4bhr92rcd13ifvqhrg","pricing_plan_id":"free"},{"bike_id":"bbf0e170-b5c8-4b2e-9eec-645428d3c188","system_id":"levelo_inurba_marseille","lat":43.33042,"lon":5.38917,"is_reserved":false,"is_disabled":false,"rental_uris":{"android":"levelo://app?vid=bbf0e170-b5c8-4b2e-9eec-645428d3c188","ios":"levelo://app?vid=bbf0e170-b5c8-4b2e-9eec-645428d3c188"},"vehicle_type_id":"4","last_reported":1692219927,"current_range_meters":800,"station_id":"ce4bhr92rcd13ifvqhrg","pricing_plan_id":"free"},{"bike_id":"42863162-ffd1-4b69-84b4-4baa0dee51a1","system_id":"levelo_inurba_marseille","lat":43.33042,"lon":5.38918,"is_reserved":false,"is_disabled":false,"rental_uris":{"android":"levelo://app?vid=42863162-ffd1-4b69-84b4-4baa0dee51a1","ios":"levelo://app?vid=42863162-ffd1-4b69-84b4-4baa0dee51a1"},"vehicle_type_id":"4","last_reported":1692219927,"current_range_meters":14000,"station_id":"ce4bhr92rcd13ifvqhrg","pricing_plan_id":"free"},{"bike_id":"ca420c02-7b3c-4340-963d-964224bd400d","system_id":"levelo_inurba_marseille","lat":43.33046,"lon":5.38912,"is_reserved":false,"is_disabled":false,"rental_uris":{"android":"levelo://app?vid=ca420c02-7b3c-4340-963d-964224bd400d","ios":"levelo://app?vid=ca420c02-7b3c-4340-963d-964224bd400d"},"vehicle_type_id":"4","last_reported":1692219927,"current_range_meters":24000,"station_id":"ce4bhr92rcd13ifvqhrg","pricing_plan_id":"free"},{"bike_id":"2f0a0ac7-6e1a-4328-a504-4e02f95ee392","system_id":"levelo_inurba_marseille","lat":43.33042,"lon":5.38919,"is_reserved":false,"is_disabled":false,"rental_uris":{"android":"levelo://app?vid=2f0a0ac7-6e1a-4328-a504-4e02f95ee392","ios":"levelo://app?vid=2f0a0ac7-6e1a-4328-a504-4e02f95ee392"},"vehicle_type_id":"4","last_reported":1692219927,"current_range_meters":20800,"station_id":"ce4bhr92rcd13ifvqhrg","pricing_plan_id":"free"},{"bike_id":"454b0b4f-dc87-4e03-ac2a-cf0617f16bff","system_id":"levelo_inurba_marseille","lat":43.33042,"lon":5.3892,"is_reserved":false,"is_disabled":false,"rental_uris":{"android":"levelo://app?vid=454b0b4f-dc87-4e03-ac2a-cf0617f16bff","ios":"levelo://app?vid=454b0b4f-dc87-4e03-ac2a-cf0617f16bff"},"vehicle_type_id":"4","last_reported":1692219927,"current_range_meters":12400,"station_id":"ce4bhr92rcd13ifvqhrg","pricing_plan_id":"free"},{"bike_id":"d5578a77-3302-4d8a-ae9c-7edceb0f071e","system_id":"levelo_inurba_marseille","lat":43.33044,"lon":5.38917,"is_reserved":false,"is_disabled":false,"rental_uris":{"android":"levelo://app?vid=d5578a77-3302-4d8a-ae9c-7edceb0f071e","ios":"levelo://app?vid=d5578a77-3302-4d8a-ae9c-7edceb0f071e"},"vehicle_type_id":"4","last_reported":1692219927,"current_range_meters":24400,"station_id":"ce4bhr92rcd13ifvqhrg","pricing_plan_id":"free"},{"bike_id":"01bb66e8-6fc1-4982-b9b2-af4dae23e37f","system_id":"levelo_inurba_marseille","lat":43.33044,"lon":5.38918,"is_reserved":false,"is_disabled":false,"rental_uris":{"android":"levelo://app?vid=01bb66e8-6fc1-4982-b9b2-af4dae23e37f","ios":"levelo://app?vid=01bb66e8-6fc1-4982-b9b2-af4dae23e37f"},"vehicle_type_id":"4","last_reported":1692219927,"current_range_meters":22800,"station_id":"ce4bhr92rcd13ifvqhrg","pricing_plan_id":"free"},{"bike_id":"e184d9f0-8163-4a17-b3ea-e9518599abc7","system_id":"levelo_inurba_marseille","lat":43.33038,"lon":5.38927,"is_reserved":false,"is_disabled":false,"rental_uris":{"android":"levelo://app?vid=e184d9f0-8163-4a17-b3ea-e9518599abc7","ios":"levelo://app?vid=e184d9f0-8163-4a17-b3ea-e9518599abc7"},"vehicle_type_id":"4","last_reported":1692219927,"current_range_meters":24400,"station_id":"ce4bhr92rcd13ifvqhrg","pricing_plan_id":"free"},{"bike_id":"75001701-ed95-4c4f-ae0f-256296c20192","system_id":"levelo_inurba_marseille","lat":43.33045,"lon":5.38918,"is_reserved":false,"is_disabled":false,"rental_uris":{"android":"levelo://app?vid=75001701-ed95-4c4f-ae0f-256296c20192","ios":"levelo://app?vid=75001701-ed95-4c4f-ae0f-256296c20192"},"vehicle_type_id":"4","last_reported":1692219927,"current_range_meters":3600,"station_id":"ce4bhr92rcd13ifvqhrg","pricing_plan_id":"free"},{"bike_id":"8ae0ce58-4162-4719-947c-e47cc63be26c","system_id":"levelo_inurba_marseille","lat":43.33046,"lon":5.38917,"is_reserved":false,"is_disabled":false,"rental_uris":{"android":"levelo://app?vid=8ae0ce58-4162-4719-947c-e47cc63be26c","ios":"levelo://app?vid=8ae0ce58-4162-4719-947c-e47cc63be26c"},"vehicle_type_id":"4","last_reported":1692219927,"current_range_meters":26800,"station_id":"ce4bhr92rcd13ifvqhrg","pricing_plan_id":"free"},{"bike_id":"569fb482-04ac-449f-b013-337617dfb7a0","system_id":"levelo_inurba_marseille","lat":43.33046,"lon":5.38919,"is_reserved":false,"is_disabled":false,"rental_uris":{"android":"levelo://app?vid=569fb482-04ac-449f-b013-337617dfb7a0","ios":"levelo://app?vid=569fb482-04ac-449f-b013-337617dfb7a0"},"vehicle_type_id":"4","last_reported":1692219927,"current_range_meters":20400,"station_id":"ce4bhr92rcd13ifvqhrg","pricing_plan_id":"free"},{"bike_id":"78f1a325-e5b4-4a72-bb0e-b29d3285ba24","system_id":"levelo_inurba_marseille","lat":43.290104,"lon":5.356111,"is_reserved":false,"is_disabled":false,"rental_uris":{"android":"levelo://app?vid=78f1a325-e5b4-4a72-bb0e-b29d3285ba24","ios":"levelo://app?vid=78f1a325-e5b4-4a72-bb0e-b29d3285ba24"},"vehicle_type_id":"4","last_reported":1692219927,"current_range_meters":31600,"station_id":"ce4bhb92rcd13ifvqen0","pricing_plan_id":"free"},{"bike_id":"bfa83017-58d0-4d13-8d94-3e0c8632f228","system_id":"levelo_inurba_marseille","lat":43.29796,"lon":5.39341,"is_reserved":false,"is_disabled":false,"rental_uris":{"android":"levelo://app?vid=bfa83017-58d0-4d13-8d94-3e0c8632f228","ios":"levelo://app?vid=bfa83017-58d0-4d13-8d94-3e0c8632f228"},"vehicle_type_id":"4","last_reported":1692219927,"current_range_meters":23600,"station_id":"chh1huq6cuj3fo74tm60","pricing_plan_id":"free"},{"bike_id":"f4a61caf-8079-4e85-a04a-3b4568c28f0c","system_id":"levelo_inurba_marseille","lat":43.297872,"lon":5.393461,"is_reserved":false,"is_disabled":false,"rental_uris":{"android":"levelo://app?vid=f4a61caf-8079-4e85-a04a-3b4568c28f0c","ios":"levelo://app?vid=f4a61caf-8079-4e85-a04a-3b4568c28f0c"},"vehicle_type_id":"4","last_reported":1692219927,"current_range_meters":22000,"station_id":"chh1huq6cuj3fo74tm60","pricing_plan_id":"free"},{"bike_id":"de5fbe1a-5dff-4924-ae2f-985d5bca9bac","system_id":"levelo_inurba_marseille","lat":43.297822,"lon":5.393415,"is_reserved":false,"is_disabled":false,"rental_uris":{"android":"levelo://app?vid=de5fbe1a-5dff-4924-ae2f-985d5bca9bac","ios":"levelo://app?vid=de5fbe1a-5dff-4924-ae2f-985d5bca9bac"},"vehicle_type_id":"4","last_reported":1692219927,"current_range_meters":800,"station_id":"chh1huq6cuj3fo74tm60","pricing_plan_id":"free"},{"bike_id":"f7302fdf-38de-4b75-b728-88afb60c3778","system_id":"levelo_inurba_marseille","lat":43.2978,"lon":5.3935,"is_reserved":false,"is_disabled":false,"rental_uris":{"android":"levelo://app?vid=f7302fdf-38de-4b75-b728-88afb60c3778","ios":"levelo://app?vid=f7302fdf-38de-4b75-b728-88afb60c3778"},"vehicle_type_id":"4","last_reported":1692219927,"current_range_meters":31200,"station_id":"chh1huq6cuj3fo74tm60","pricing_plan_id":"free"},{"bike_id":"af71c17e-9144-446b-9cf6-a10e49d3abfa","system_id":"levelo_inurba_marseille","lat":43.295169,"lon":5.390426,"is_reserved":false,"is_disabled":false,"rental_uris":{"android":"levelo://app?vid=af71c17e-9144-446b-9cf6-a10e49d3abfa","ios":"levelo://app?vid=af71c17e-9144-446b-9cf6-a10e49d3abfa"},"vehicle_type_id":"4","last_reported":1692219927,"current_range_meters":13200,"station_id":"ce4bh3p2rcd13ifvqdp0","pricing_plan_id":"free"},{"bike_id":"afdcb0f2-203d-42da-85c0-f6a2da28394a","system_id":"levelo_inurba_marseille","lat":43.289741,"lon":5.378306,"is_reserved":false,"is_disabled":false,"rental_uris":{"android":"levelo://app?vid=afdcb0f2-203d-42da-85c0-f6a2da28394a","ios":"levelo://app?vid=afdcb0f2-203d-42da-85c0-f6a2da28394a"},"vehicle_type_id":"4","last_reported":1692219927,"current_range_meters":30800,"station_id":"ce4bh9p2rcd13ifvqed0","pricing_plan_id":"free"},{"bike_id":"3b8c757e-9232-4e3f-bc2f-412bd8854aec","system_id":"levelo_inurba_marseille","lat":43.331123,"lon":5.389212,"is_reserved":false,"is_disabled":false,"rental_uris":{"android":"levelo://app?vid=3b8c757e-9232-4e3f-bc2f-412bd8854aec","ios":"levelo://app?vid=3b8c757e-9232-4e3f-bc2f-412bd8854aec"},"vehicle_type_id":"4","last_reported":1692219927,"current_range_meters":17600,"station_id":"","pricing_plan_id":"free"},{"bike_id":"3beca607-7f26-48c5-a5c8-ab03220d4474","system_id":"levelo_inurba_marseille","lat":43.295169,"lon":5.390426,"is_reserved":false,"is_disabled":false,"rental_uris":{"android":"levelo://app?vid=3beca607-7f26-48c5-a5c8-ab03220d4474","ios":"levelo://app?vid=3beca607-7f26-48c5-a5c8-ab03220d4474"},"vehicle_type_id":"4","last_reported":1692219927,"current_range_meters":10800,"station_id":"ce4bh3p2rcd13ifvqdp0","pricing_plan_id":"free"},{"bike_id":"86b7561e-4faa-4e10-8cd3-74c45e8f7d18","system_id":"levelo_inurba_marseille","lat":43.295169,"lon":5.390426,"is_reserved":false,"is_disabled":false,"rental_uris":{"android":"levelo://app?vid=86b7561e-4faa-4e10-8cd3-74c45e8f7d18","ios":"levelo://app?vid=86b7561e-4faa-4e10-8cd3-74c45e8f7d18"},"vehicle_type_id":"4","last_reported":1692219927,"current_range_meters":7200,"station_id":"ce4bh3p2rcd13ifvqdp0","pricing_plan_id":"free"},{"bike_id":"1d12d385-bdc9-47be-9299-1b703cb45e6d","system_id":"levelo_inurba_marseille","lat":43.29018,"lon":5.38132,"is_reserved":false,"is_disabled":false,"rental_uris":{"android":"levelo://app?vid=1d12d385-bdc9-47be-9299-1b703cb45e6d","ios":"levelo://app?vid=1d12d385-bdc9-47be-9299-1b703cb45e6d"},"vehicle_type_id":"4","last_reported":1692219927,"current_range_meters":10400,"station_id":"ce4bh4p2rcd13ifvqe1g","pricing_plan_id":"free"},{"bike_id":"be4078fc-45fd-4a2f-bd1f-33030744b1fe","system_id":"levelo_inurba_marseille","lat":43.28848,"lon":5.35935,"is_reserved":false,"is_disabled":false,"rental_uris":{"android":"levelo://app?vid=be4078fc-45fd-4a2f-bd1f-33030744b1fe","ios":"levelo://app?vid=be4078fc-45fd-4a2f-bd1f-33030744b1fe"},"vehicle_type_id":"4","last_reported":1692219927,"current_range_meters":20400,"station_id":"","pricing_plan_id":"free"},{"bike_id":"6ea33d6a-bbba-427d-a814-89c5ad18a779","system_id":"levelo_inurba_marseille","lat":43.290048,"lon":5.381237,"is_reserved":false,"is_disabled":false,"rental_uris":{"android":"levelo://app?vid=6ea33d6a-bbba-427d-a814-89c5ad18a779","ios":"levelo://app?vid=6ea33d6a-bbba-427d-a814-89c5ad18a779"},"vehicle_type_id":"4","last_reported":1692219927,"current_range_meters":26800,"station_id":"ce4bh512rcd13ifvqe2g","pricing_plan_id":"free"},{"bike_id":"56736a75-e3ad-4cc9-9499-256b55396dd1","system_id":"levelo_inurba_marseille","lat":43.31272,"lon":5.40167,"is_reserved":false,"is_disabled":false,"rental_uris":{"android":"levelo://app?vid=56736a75-e3ad-4cc9-9499-256b55396dd1","ios":"levelo://app?vid=56736a75-e3ad-4cc9-9499-256b55396dd1"},"vehicle_type_id":"4","last_reported":1692219927,"current_range_meters":0,"station_id":"ce4bh092rcd13ifvqd30","pricing_plan_id":"free"},{"bike_id":"5bcbd7f2-6201-455b-88db-fa352a5a2c0a","system_id":"levelo_inurba_marseille","lat":43.31285,"lon":5.40168,"is_reserved":false,"is_disabled":false,"rental_uris":{"android":"levelo://app?vid=5bcbd7f2-6201-455b-88db-fa352a5a2c0a","ios":"levelo://app?vid=5bcbd7f2-6201-455b-88db-fa352a5a2c0a"},"vehicle_type_id":"4","last_reported":1692219927,"current_range_meters":22800,"station_id":"ce4bh092rcd13ifvqd30","pricing_plan_id":"free"},{"bike_id":"c57a3c15-cbba-4131-8cc9-f971efa39028","system_id":"levelo_inurba_marseille","lat":43.309371,"lon":5.401449,"is_reserved":false,"is_disabled":false,"rental_uris":{"android":"levelo://app?vid=c57a3c15-cbba-4131-8cc9-f971efa39028","ios":"levelo://app?vid=c57a3c15-cbba-4131-8cc9-f971efa39028"},"vehicle_type_id":"4","last_reported":1692219927,"current_range_meters":14800,"station_id":"ce4bgvp2rcd13ifvqct0","pricing_plan_id":"free"},