{"last_updated":1744704847,"ttl":60,"version":"2.2","data":{"bikes":[{"bike_id":"76450c2c-888f-4d08-a5c0-d825237615aa","system_id":"levelo_inurba_marseille","lat":43.2722,"lon":5.42327,"is_reserved":false,"is_disabled":false,"rental_uris":{"android":"levelo://app?vid=76450c2c-888f-4d08-a5c0-d825237615aa","ios":"levelo://app?vid=76450c2c-888f-4d08-a5c0-d825237615aa"},"vehicle_type_id":"4","last_reported":1744704847,"current_range_meters":2800,"station_id":"","pricing_plan_id":"cebpf4jnsgd1na2vs0mg"},{"bike_id":"e92f4395-b43c-43cd-949e-0e037fd97b21","system_id":"levelo_inurba_marseille","lat":43.29893,"lon":5.4367,"is_reserved":false,"is_disabled":false,"rental_uris":{"android":"levelo://app?vid=e92f4395-b43c-43cd-949e-0e037fd97b21","ios":"levelo://app?vid=e92f4395-b43c-43cd-949e-0e037fd97b21"},"vehicle_type_id":"4","last_reported":1744704847,"current_range_meters":2800,"station_id":"ce4bhpp2rcd13ifvqhfg","pricing_plan_id":"cebpf4jnsgd1na2vs0mg"},{"bike_id":"bafef0bf-606a-45d9-bc61-b13533d71aaa","system_id":"levelo_inurba_marseille","lat":43.29174,"lon":5.37161,"is_reserved":false,"is_disabled":false,"rental_uris":{"android":"levelo://app?vid=bafef0bf-606a-45d9-bc61-b13533d71aaa","ios":"levelo://app?vid=bafef0bf-606a-45d9-bc61-b13533d71aaa"},"vehicle_type_id":"4","last_reported":1744704847,"current_range_meters":2800,"station_id":"ce4bha92rcd13ifvqeh0","pricing_plan_id":"cebpf4jnsgd1na2vs0mg"},{"bike_id":"e127f41a-740b-465d-a953-f96c0b05497b","system_id":"levelo_inurba_marseille","lat":43.25935,"lon":5.40904,"is_reserved":false,"is_disabled":false,"rental_uris":{"android":"levelo://app?vid=e127f41a-740b-465d-a953-f96c0b05497b","ios":"levelo://app?vid=e127f41a-740b-465d-a953-f96c0b05497b"},"vehicle_type_id":"4","last_reported":1744704847,"current_range_meters":2800,"station_id":"ce4bhm92rcd13ifvqglg","pricing_plan_id":"cebpf4jnsgd1na2vs0mg"},{"bike_id":"521ff293-089c-4d75-8412-a7493db9e608","system_id":"levelo_inurba_marseille","lat":43.28112,"lon":5.37807,"is_reserved":false,"is_disabled":false,"rental_uris":{"android":"levelo://app?vid=521ff293-089c-4d75-8412-a7493db9e608","ios":"levelo://app?vid=521ff293-089c-4d75-8412-a7493db9e608"},"vehicle_type_id":"4","last_reported":1744704847,"current_range_meters":2800,"station_id":"ce4bha12rcd13ifvqee0","pricing_plan_id":"cebpf4jnsgd1na2vs0mg"},{"bike_id":"92600a65-ba21-411d-9bd9-3d9426d83e92","system_id":"levelo_inurba_marseille","lat":43.32104,"lon":5.36782,"is_reserved":false,"is_disabled":false,"rental_uris":{"android":"levelo://app?vid=92600a65-ba21-411d-9bd9-3d9426d83e92","ios":"levelo://app?vid=92600a65-ba21-411d-9bd9-3d9426d83e92"},"vehicle_type_id":"4","last_reported":1744704847,"current_range_meters":2800,"station_id":"","pricing_plan_id":"cebpf4jnsgd1na2vs0mg"},{"bike_id":"65bcea37-3434-41b4-a9ba-9b9e23ff0f93","system_id":"levelo_inurba_marseille","lat":43.27211,"lon":5.39179,"is_reserved":false,"is_disabled":false,"rental_uris":{"android":"levelo://app?vid=65bcea37-3434-41b4-a9ba-9b9e23ff0f93","ios":"levelo://app?vid=65bcea37-3434-41b4-a9ba-9b9e23ff0f93"},"vehicle_type_id":"4","last_reported":1744704847,"current_range_meters":3600,"station_id":"ce4bhhp2rcd13ifvqfm0","pricing_plan_id":"cebpf4jnsgd1na2vs0mg"},{"bike_id":"515271b0-9b96-43f1-9b62-f663213b7c02","system_id":"levelo_inurba_marseille","lat":43.29038,"lon":5.35696,"is_reserved":false,"is_disabled":false,"rental_uris":{"android":"levelo://app?vid=515271b0-9b96-43f1-9b62-f663213b7c02","ios":"levelo://app?vid=515271b0-9b96-43f1-9b62-f663213b7c02"},"vehicle_type_id":"4","last_reported":1744704847,"current_range_meters":3600,"station_id":"","pricing_plan_id":"cebpf4jnsgd1na2vs0mg"},{"bike_id":"5bedd030-8f4c-4253-b7fe-b68844f8fc1a","system_id":"levelo_inurba_marseille","lat":43.31267,"lon":5.36853,"is_reserved":false,"is_disabled":false,"rental_uris":{"android":"levelo://app?vid=5bedd030-8f4c-4253-b7fe-b68844f8fc1a","ios":"levelo://app?vid=5bedd030-8f4c-4253-b7fe-b68844f8fc1a"},"vehicle_type_id":"4","last_reported":1744704847,"current_range_meters":4000,"station_id":"ce4bgl92rcd13ifvqbq0","pricing_plan_id":"cebpf4jnsgd1na2vs0mg"},{"bike_id":"c5e550dd-f713-46aa-b370-5339f5bcb7f4","system_id":"levelo_inurba_marseille","lat":43.2797,"lon":5.38752,"is_reserved":false,"is_disabled":false,"rental_uris":{"android":"levelo://app?vid=c5e550dd-f713-46aa-b370-5339f5bcb7f4","ios":"levelo://app?vid=c5e550dd-f713-46aa-b370-5339f5bcb7f4"},"vehicle_type_id":"4","last_reported":1744704847,"current_range_meters":4000,"station_id":"ce4bhg12rcd13ifvqf80","pricing_plan_id":"cebpf4jnsgd1na2vs0mg"},{"bike_id":"553a0cb5-3d93-4f83-981f-a50e939a79b9","system_id":"levelo_inurba_marseille","lat":43.30202,"lon":5.36611,"is_reserved":false,"is_disabled":false,"rental_uris":{"android":"levelo://app?vid=553a0cb5-3d93-4f83-981f-a50e939a79b9","ios":"levelo://app?vid=553a0cb5-3d93-4f83-981f-a50e939a79b9"},"vehicle_type_id":"4","last_reported":1744704847,"current_range_meters":4400,"station_id":"ce4bgrh2rcd13ifvqc8g","pricing_plan_id":"cebpf4jnsgd1na2vs0mg"},{"bike_id":"6593561d-c293-42d4-92fe-6a9163b6ddf1","system_id":"levelo_inurba_marseille","lat":43.32367,"lon":5.36749,"is_reserved":false,"is_disabled":false,"rental_uris":{"android":"levelo://app?vid=6593561d-c293-42d4-92fe-6a9163b6ddf1","ios":"levelo://app?vid=6593561d-c293-42d4-92fe-6a9163b6ddf1"},"vehicle_type_id":"4","last_reported":1744704847,"current_range_meters":4400,"station_id":"ce4bhsh2rcd13ifvqi2g","pricing_plan_id":"cebpf4jnsgd1na2vs0mg"},{"bike_id":"5bd848ca-f5a5-44f8-a373-567aa41e0e3d","system_id":"levelo_inurba_marseille","lat":43.29098,"lon":5.38128,"is_reserved":false,"is_disabled":false,"rental_uris":{"android":"levelo://app?vid=5bd848ca-f5a5-44f8-a373-567aa41e0e3d","ios":"levelo://app?vid=5bd848ca-f5a5-44f8-a373-567aa41e0e3d"},"vehicle_type_id":"4","last_reported":1744704847,"current_range_meters":4800,"station_id":"ce4bh512rcd13ifvqe2g","pricing_plan_id":"cebpf4jnsgd1na2vs0mg"},{"bike_id":"db7d16ce-c546-4a33-82e6-99d039bd6be7","system_id":"levelo_inurba_marseille","lat":43.26702,"lon":5.38242,"is_reserved":false,"is_disabled":false,"rental_uris":{"android":"levelo://app?vid=db7d16ce-c546-4a33-82e6-99d039bd6be7","ios":"levelo://app?vid=db7d16ce-c546-4a33-82e6-99d039bd6be7"},"vehicle_type_id":"4","last_reported":1744704847,"current_range_meters":5600,"station_id":"ce4bhg92rcd13ifvqf90","pricing_plan_id":"cebpf4jnsgd1na2vs0mg"},{"bike_id":"bc1e941d-5514-4193-a637-cfb6de114bfa","system_id":"levelo_inurba_marseille","lat":43.25588,"lon":5.38202,"is_reserved":false,"is_disabled":false,"rental_uris":{"android":"levelo://app?vid=bc1e941d-5514-4193-a637-cfb6de114bfa","ios":"levelo://app?vid=bc1e941d-5514-4193-a637-cfb6de114bfa"},"vehicle_type_id":"4","last_reported":1744704847,"current_range_meters":5600,"station_id":"ce4bhih2rcd13ifvqfs0","pricing_plan_id":"cebpf4jnsgd1na2vs0mg"},{"bike_id":"610fd2bd-10b9-4296-b1c2-fee6c38c3e6c","system_id":"levelo_inurba_marseille","lat":43.28378,"lon":5.38614,"is_reserved":false,"is_disabled":false,"rental_uris":{"android":"levelo://app?vid=610fd2bd-10b9-4296-b1c2-fee6c38c3e6c","ios":"levelo://app?vid=610fd2bd-10b9-4296-b1c2-fee6c38c3e6c"},"vehicle_type_id":"4","last_reported":1744704847,"current_range_meters":4800,"station_id":"ce4bh492rcd13ifvqdvg","pricing_plan_id":"cebpf4jnsgd1na2vs0mg"},{"bike_id":"3e71973c-297b-48c3-9e6d-1dfd774b1455","system_id":"levelo_inurba_marseille","lat":43.30539,"lon":5.36709,"is_reserved":false,"is_disabled":false,"rental_uris":{"android":"levelo://app?vid=3e71973c-297b-48c3-9e6d-1dfd774b1455","ios":"levelo://app?vid=3e71973c-297b-48c3-9e6d-1dfd774b1455"},"vehicle_type_id":"4","last_reported":1744704847,"current_range_meters":6000,"station_id":"ce4bgrp2rcd13ifvqc9g","pricing_plan_id":"cebpf4jnsgd1na2vs0mg"},{"bike_id":"91364036-a111-4dc2-958c-dc98748698ae","system_id":"levelo_inurba_marseille","lat":43.30961,"lon":5.39054,"is_reserved":false,"is_disabled":false,"rental_uris":{"android":"levelo://app?vid=91364036-a111-4dc2-958c-dc98748698ae","ios":"levelo://app?vid=91364036-a111-4dc2-958c-dc98748698ae"},"vehicle_type_id":"4","last_reported":1744704847,"current_range_meters":6000,"station_id":"ce4bgup2rcd13ifvqco0","pricing_plan_id":"cebpf4jnsgd1na2vs0mg"},{"bike_id":"a4a23e40-713d-4681-a15f-54b6b9664732","system_id":"levelo_inurba_marseille","lat":43.305534,"lon":5.36722,"is_reserved":false,"is_disabled":false,"rental_uris":{"android":"levelo://app?vid=a4a23e40-713d-4681-a15f-54b6b9664732","ios":"levelo://app?vid=a4a23e40-713d-4681-a15f-54b6b9664732"},"vehicle_type_id":"4","last_reported":1744704847,"current_range_meters":6000,"station_id":"ce4bgrp2rcd13ifvqc9g","pricing_plan_id":"cebpf4jnsgd1na2vs0mg"},{"bike_id":"0a7cab43-9343-46f0-9a4d-34c8fb861430","system_id":"levelo_inurba_marseille","lat":43.291394,"lon":5.401334,"is_reserved":false,"is_disabled":false,"rental_uris":{"android":"levelo://app?vid=0a7cab43-9343-46f0-9a4d-34c8fb861430","ios":"levelo://app?vid=0a7cab43-9343-46f0-9a4d-34c8fb861430"},"vehicle_type_id":"4","last_reported":1744704847,"current_range_meters":6000,"station_id":"","pricing_plan_id":"cebpf4jnsgd1na2vs0mg"},{"bike_id":"8e257129-2fc1-4b7e-9af0-0037d9dd9fc9","system_id":"levelo_inurba_marseille","lat":43.28998,"lon":5.37605,"is_reserved":false,"is_disabled":false,"rental_uris":{"android":"levelo://app?vid=8e257129-2fc1-4b7e-9af0-0037d9dd9fc9","ios":"levelo://app?vid=8e257129-2fc1-4b7e-9af0-0037d9dd9fc9"},"vehicle_type_id":"4","last_reported":1744704847,"current_range_meters":6400,"station_id":"ce4bh692rcd13ifvqe90","pricing_plan_id":"cebpf4jnsgd1na2vs0mg"},{"bike_id":"3c2ca769-6e8d-4c05-9c41-8b49857b2bbb","system_id":"levelo_inurba_marseille","lat":43.29169,"lon":5.37166,"is_reserved":false,"is_disabled":false,"rental_uris":{"android":"levelo://app?vid=3c2ca769-6e8d-4c05-9c41-8b49857b2bbb","ios":"levelo://app?vid=3c2ca769-6e8d-4c05-9c41-8b49857b2bbb"},"vehicle_type_id":"4","last_reported":1744704847,"current_range_meters":6400,"station_id":"ce4bha92rcd13ifvqeh0","pricing_plan_id":"cebpf4jnsgd1na2vs0mg"},{"bike_id":"d73b1196-bb78-4e3b-aa99-225a7ff377be","system_id":"levelo_inurba_marseille","lat":43.25504,"lon":5.37653,"is_reserved":false,"is_disabled":false,"rental_uris":{"android":"levelo://app?vid=d73b1196-bb78-4e3b-aa99-225a7ff377be","ios":"levelo://app?vid=d73b1196-bb78-4e3b-aa99-225a7ff377be"},"vehicle_type_id":"4","last_reported":1744704847,"current_range_meters":6000,"station_id":"ce4bhh12rcd13ifvqff0","pricing_plan_id":"cebpf4jnsgd1na2vs0mg"},{"bike_id":"0b352734-1074-46d1-b7ce-8c8382c2fb88","system_id":"levelo_inurba_marseille","lat":43.23178,"lon":5.3999,"is_reserved":false,"is_disabled":false,"rental_uris":{"android":"levelo://app?vid=0b352734-1074-46d1-b7ce-8c8382c2fb88","ios":"levelo://app?vid=0b352734-1074-46d1-b7ce-8c8382c2fb88"},"vehicle_type_id":"4","last_reported":1744704847,"current_range_meters":6400,"station_id":"ce4bhn12rcd13ifvqgqg","pricing_plan_id":"cebpf4jnsgd1na2vs0mg"},{"bike_id":"197ce9af-dca7-4ca6-b8e4-4d0a8abfa937","system_id":"levelo_inurba_marseille","lat":43.29259,"lon":5.40904,"is_reserved":false,"is_disabled":false,"rental_uris":{"android":"levelo://app?vid=197ce9af-dca7-4ca6-b8e4-4d0a8abfa937","ios":"levelo://app?vid=197ce9af-dca7-4ca6-b8e4-4d0a8abfa937"},"vehicle_type_id":"4","last_reported":1744704847,"current_range_meters":6000,"station_id":"ce4bh192rcd13ifvqdc0","pricing_plan_id":"cebpf4jnsgd1na2vs0mg"},{"bike_id":"7af32e08-c87f-4c71-bb72-f544c0cce00e","system_id":"levelo_inurba_marseille","lat":43.25956,"lon":5.40925,"is_reserved":false,"is_disabled":false,"rental_uris":{"android":"levelo://app?vid=7af32e08-c87f-4c71-bb72-f544c0cce00e","ios":"levelo://app?vid=7af32e08-c87f-4c71-bb72-f544c0cce00e"},"vehicle_type_id":"4","last_reported":1744704847,"current_range_meters":6800,"station_id":"ce4bhm92rcd13ifvqglg","pricing_plan_id":"cebpf4jnsgd1na2vs0mg"},{"bike_id":"a5bae5db-f126-4189-a335-245a1d46ef47","system_id":"levelo_inurba_marseille","lat":43.33604,"lon":5.4103,"is_reserved":false,"is_disabled":false,"rental_uris":{"android":"levelo://app?vid=a5bae5db-f126-4189-a335-245a1d46ef47","ios":"levelo://app?vid=a5bae5db-f126-4189-a335-245a1d46ef47"},"vehicle_type_id":"4","last_reported":1744704847,"current_range_meters":6800,"station_id":"ce4bhqh2rcd13ifvqhmg","pricing_plan_id":"cebpf4jnsgd1na2vs0mg"},{"bike_id":"901adfd3-d0f1-4359-a0a8-5ca2e06dc432","system_id":"levelo_inurba_marseille","lat":43.29302,"lon":5.37173,"is_reserved":false,"is_disabled":false,"rental_uris":{"android":"levelo://app?vid=901adfd3-d0f1-4359-a0a8-5ca2e06dc432","ios":"levelo://app?vid=901adfd3-d0f1-4359-a0a8-5ca2e06dc432"},"vehicle_type_id":"4","last_reported":1744704847,"current_range_meters":6800,"station_id":"ce4bgh92rcd13ifvqb40","pricing_plan_id":"cebpf4jnsgd1na2vs0mg"},{"bike_id":"72d9d553-17e0-40eb-8b10-a4252eb7a98f","system_id":"levelo_inurba_marseille","lat":43.25924,"lon":5.40881,"is_reserved":false,"is_disabled":false,"rental_uris":{"android":"levelo://app?vid=72d9d553-17e0-40eb-8b10-a4252eb7a98f","ios":"levelo://app?vid=72d9d553-17e0-40eb-8b10-a4252eb7a98f"},"vehicle_type_id":"4","last_reported":1744704847,"current_range_meters":6800,"station_id":"ce4bhm92rcd13ifvqglg","pricing_plan_id":"cebpf4jnsgd1na2vs0mg"},{"bike_id":"d373ed4c-aba0-4974-b8ad-53c5cbe85936","system_id":"levelo_inurba_marseille","lat":43.29427,"lon":5.3977,"is_reserved":false,"is_disabled":true,"rental_uris":{"android":"levelo://app?vid=d373ed4c-aba0-4974-b8ad-53c5cbe85936","ios":"levelo://app?vid=d373ed4c-aba0-4974-b8ad-53c5cbe85936"},"vehicle_type_id":"4","last_reported":1744704847,"current_range_meters":6800,"station_id":"ce4bh3h2rcd13ifvqdo0","pricing_plan_id":"cebpf4jnsgd1na2vs0mg"},{"bike_id":"f6151468-df2d-459f-ab57-449c0333cf42","system_id":"levelo_inurba_marseille","lat":43.24668,"lon":5.38155,"is_reserved":false,"is_disabled":false,"rental_uris":{"android":"levelo://app?vid=f6151468-df2d-459f-ab57-449c0333cf42","ios":"levelo://app?vid=f6151468-df2d-459f-ab57-449c0333cf42"},"vehicle_type_id":"4","last_reported":1744704847,"current_range_meters":6800,"station_id":"ce4bhih2rcd13ifvqfr0","pricing_plan_id":"cebpf4jnsgd1na2vs0mg"},{"bike_id":"7c37ec19-934d-4179-b9b7-ad6a2e3da515","system_id":"levelo_inurba_marseille","lat":43.29866,"lon":5.39724,"is_reserved":false,"is_disabled":false,"rental_uris":{"android":"levelo://app?vid=7c37ec19-934d-4179-b9b7-ad6a2e3da515","ios":"levelo://app?vid=7c37ec19-934d-4179-b9b7-ad6a2e3da515"},"vehicle_type_id":"4","last_reported":1744704847,"current_range_meters":6400,"station_id":"ce4bh0h2rcd13ifvqd50","pricing_plan_id":"cebpf4jnsgd1na2vs0mg"},{"bike_id":"d29133ae-c8e5-40ef-b532-0c4ed7003a0b","system_id":"levelo_inurba_marseille","lat":43.29008,"lon":5.35609,"is_reserved":false,"is_disabled":false,"rental_uris":{"android":"levelo://app?vid=d29133ae-c8e5-40ef-b532-0c4ed7003a0b","ios":"levelo://app?vid=d29133ae-c8e5-40ef-b532-0c4ed7003a0b"},"vehicle_type_id":"4","last_reported":1744704847,"current_range_meters":7200,"station_id":"ce4bhb92rcd13ifvqen0","pricing_plan_id":"cebpf4jnsgd1na2vs0mg"},{"bike_id":"e3b5ae67-ad6e-42e0-9b67-68a44af6bbb5","system_id":"levelo_inurba_marseille","lat":43.26789,"lon":5.39427,"is_reserved":false,"is_disabled":false,"rental_uris":{"android":"levelo://app?vid=e3b5ae67-ad6e-42e0-9b67-68a44af6bbb5","ios":"levelo://app?vid=e3b5ae67-ad6e-42e0-9b67-68a44af6bbb5"},"vehicle_type_id":"4","last_reported":1744704847,"current_range_meters":7200,"station_id":"ce4bhh12rcd13ifvqfg0","pricing_plan_id":"cebpf4jnsgd1na2vs0mg"},{"bike_id":"7ba3577b-f14a-47b3-8ecb-35158daf49ef","system_id":"levelo_inurba_marseille","lat":43.30048,"lon":5.39875,"is_reserved":false,"is_disabled":false,"rental_uris":{"android":"levelo://app?vid=7ba3577b-f14a-47b3-8ecb-35158daf49ef","ios":"levelo://app?vid=7ba3577b-f14a-47b3-8ecb-35158daf49ef"},"vehicle_type_id":"4","last_reported":1744704847,"current_range_meters":7200,"station_id":"","pricing_plan_id":"cebpf4jnsgd1na2vs0mg"},{"bike_id":"d5c48726-c588-48dc-9d2b-d4e2b290be37","system_id":"levelo_inurba_marseille","lat":43.26194,"lon":5.37449,"is_reserved":false,"is_disabled":false,"rental_uris":{"android":"levelo://app?vid=d5c48726-c588-48dc-9d2b-d4e2b290be37","ios":"levelo://app?vid=d5c48726-c588-48dc-9d2b-d4e2b290be37"},"vehicle_type_id":"4","last_reported":1744704847,"current_range_meters":8000,"station_id":"ce4bhgp2rcd13ifvqfc0","pricing_plan_id":"cebpf4jnsgd1na2vs0mg"},{"bike_id":"cbd96be0-eb5c-4bd8-b454-cd3864e1bc53","system_id":"levelo_inurba_marseille","lat":43.29518,"lon":5.39017,"is_reserved":false,"is_disabled":true,"rental_uris":{"android":"levelo://app?vid=cbd96be0-eb5c-4bd8-b454-cd3864e1bc53","ios":"levelo://app?vid=cbd96be0-eb5c-4bd8-b454-cd3864e1bc53"},"vehicle_type_id":"4","last_reported":1744704847,"current_range_meters":8000,"station_id":"ce4bh3p2rcd13ifvqdp0","pricing_plan_id":"cebpf4jnsgd1na2vs0mg"},{"bike_id":"3499b34a-9c74-447e-aa25-db1795585b70","system_id":"levelo_inurba_marseille","lat":43.26564,"lon":5.37285,"is_reserved":false,"is_disabled":false,"rental_uris":{"android":"levelo://app?vid=3499b34a-9c74-447e-aa25-db1795585b70","ios":"levelo://app?vid=3499b34a-9c74-447e-aa25-db1795585b70"},"vehicle_type_id":"4","last_reported":1744704847,"current_range_meters":8000,"station_id":"ce4bhg12rcd13ifvqf70","pricing_plan_id":"cebpf4jnsgd1na2vs0mg"},{"bike_id":"2840dd03-7e3c-473f-8550-a29070d3bba2","system_id":"levelo_inurba_marseille","lat":43.29497,"lon":5.38284,"is_reserved":false,"is_disabled":false,"rental_uris":{"android":"levelo://app?vid=2840dd03-7e3c-473f-8550-a29070d3bba2","ios":"levelo://app?vid=2840dd03-7e3c-473f-8550-a29070d3bba2"},"vehicle_type_id":"4","last_reported":1744704847,"current_range_meters":8000,"station_id":"","pricing_plan_id":"cebpf4jnsgd1na2vs0mg"},{"bike_id":"b4a19ddd-ec2c-4178-96c7-9e5bf749190e","system_id":"levelo_inurba_marseille","lat":43.29874,"lon":5.43647,"is_reserved":false,"is_disabled":false,"rental_uris":{"android":"levelo://app?vid=b4a19ddd-ec2c-4178-96c7-9e5bf749190e","ios":"levelo://app?vid=b4a19ddd-ec2c-4178-96c7-9e5bf749190e"},"vehicle_type_id":"4","last_reported":1744704847,"current_range_meters":8400,"station_id":"ce4bhpp2rcd13ifvqhfg","pricing_plan_id":"cebpf4jnsgd1na2vs0mg"},{"bike_id":"8a58a04e-f069-487b-905a-c2f308a407cd","system_id":"levelo_inurba_marseille","lat":43.32993,"lon":5.39043,"is_reserved":false,"is_disabled":false,"rental_uris":{"android":"levelo://app?vid=8a58a04e-f069-487b-905a-c2f308a407cd","ios":"levelo://app?vid=8a58a04e-f069-487b-905a-c2f308a407cd"},"vehicle_type_id":"4","last_reported":1744704847,"current_range_meters":8400,"station_id":"ce4bhr92rcd13ifvqhrg","pricing_plan_id":"cebpf4jnsgd1na2vs0mg"},{"bike_id":"f07728ba-90b2-4310-83fb-7ddced706373","system_id":"levelo_inurba_marseille","lat":43.31482,"lon":5.37296,"is_reserved":false,"is_disabled":false,"rental_uris":{"android":"levelo://app?vid=f07728ba-90b2-4310-83fb-7ddced706373","ios":"levelo://app?vid=f07728ba-90b2-4310-83fb-7ddced706373"},"vehicle_type_id":"4","last_reported":1744704847,"current_range_meters":8400,"station_id":"ce4bgt12rcd13ifvqcd0","pricing_plan_id":"cebpf4jnsgd1na2vs0mg"},{"bike_id":"0b0d43d2-62b8-4161-8364-3c6417aead64","system_id":"levelo_inurba_marseille","lat":43.29876,"lon":5.39737,"is_reserved":false,"is_disabled":false,"rental_uris":{"android":"levelo://app?vid=0b0d43d2-62b8-4161-8364-3c6417aead64","ios":"levelo://app?vid=0b0d43d2-62b8-4161-8364-3c6417aead64"},"vehicle_type_id":"4","last_reported":1744704847,"current_range_meters":8800,"station_id":"ce4bh0h2rcd13ifvqd50","pricing_plan_id":"cebpf4jnsgd1na2vs0mg"},{"bike_id":"9827716a-0fe5-48dc-82f4-d8842ae123c5","system_id":"levelo_inurba_marseille","lat":43.2871,"lon":5.39986,"is_reserved":false,"is_disabled":false,"rental_uris":{"android":"levelo://app?vid=9827716a-0fe5-48dc-82f4-d8842ae123c5","ios":"levelo://app?vid=9827716a-0fe5-48dc-82f4-d8842ae123c5"},"vehicle_type_id":"4","last_reported":1744704847,"current_range_meters":8400,"station_id":"ce4bho92rcd13ifvqh3g","pricing_plan_id":"cebpf4jnsgd1na2vs0mg"},{"bike_id":"5a6a6a86-cfb8-4d24-b27b-efbe268c3ba2","system_id":"levelo_inurba_marseille","lat":43.29282,"lon":5.37611,"is_reserved":false,"is_disabled":false,"rental_uris":{"android":"levelo://app?vid=5a6a6a86-cfb8-4d24-b27b-efbe268c3ba2","ios":"levelo://app?vid=5a6a6a86-cfb8-4d24-b27b-efbe268c3ba2"},"vehicle_type_id":"4","last_reported":1744704847,"current_range_meters":8800,"station_id":"ce4bgi12rcd13ifvqb80","pricing_plan_id":"cebpf4jnsgd1na2vs0mg"},{"bike_id":"73f9de1b-fbcd-431e-8827-f934795f2656","system_id":"levelo_inurba_marseille","lat":43.23152,"lon":5.43719,"is_reserved":false,"is_disabled":false,"rental_uris":{"android":"levelo://app?vid=73f9de1b-fbcd-431e-8827-f934795f2656","ios":"levelo://app?vid=73f9de1b-fbcd-431e-8827-f934795f2656"},"vehicle_type_id":"4","last_reported":1744704847,"current_range_meters":8800,"station_id":"ce4bhmp2rcd13ifvqgog","pricing_plan_id":"cebpf4jnsgd1na2vs0mg"},{"bike_id":"00138f70-d42c-4f1d-9eae-0e06941dada7","system_id":"levelo_inurba_marseille","lat":43.30521,"lon":5.36714,"is_reserved":false,"is_disabled":false,"rental_uris":{"android":"levelo://app?vid=00138f70-d42c-4f1d-9eae-0e06941dada7","ios":"levelo://app?vid=00138f70-d42c-4f1d-9eae-0e06941dada7"},"vehicle_type_id":"4","last_reported":1744704847,"current_range_meters":8800,"station_id":"ce4bgrp2rcd13ifvqc9g","pricing_plan_id":"cebpf4jnsgd1na2vs0mg"},{"bike_id":"2f93173f-d02c-4e29-ab59-1fff882697d7","system_id":"levelo_inurba_marseille","lat":43.2405,"lon":5.37771,"is_reserved":false,"is_disabled":false,"rental_uris":{"android":"levelo://app?vid=2f93173f-d02c-4e29-ab59-1fff882697d7","ios":"levelo://app?vid=2f93173f-d02c-4e29-ab59-1fff882697d7"},"vehicle_type_id":"4","last_reported":1744704847,"current_range_meters":8800,"station_id":"ce4bhnp2rcd13ifvqgvg","pricing_plan_id":"cebpf4jnsgd1na2vs0mg"},{"bike_id":"6d287f25-e286-45a0-92b9-41336aa4bfea","system_id":"levelo_inurba_marseille","lat":43.27326,"lon":5.3909,"is_reserved":false,"is_disabled":false,"rental_uris":{"android":"levelo://app?vid=6d287f25-e286-45a0-92b9-41336aa4bfea","ios":"levelo://app?vid=6d287f25-e286-45a0-92b9-41336aa4bfea"},"vehicle_type_id":"4","last_reported":1744704847,"current_range_meters":9200,"station_id":"ce4bhgp2rcd13ifvqfe0","pricing_plan_id":"cebpf4jnsgd1na2vs0mg"},{"bike_id":"9ee31e30-b9a1-4927-b51a-9276a2f5f0cd","system_id":"levelo_inurba_marseille","lat":43.31896,"lon":5.40813,"is_reserved":false,"is_disabled":false,"rental_uris":{"android":"levelo://app?vid=9ee31e30-b9a1-4927-b51a-9276a2f5f0cd","ios":"levelo://app?vid=9ee31e30-b9a1-4927-b51a-9276a2f5f0cd"},"vehicle_type_id":"4","last_reported":1744704847,"current_range_meters":8800,"station_id":"ce4bhq12rcd13ifvqhig","pricing_plan_id":"cebpf4jnsgd1na2vs0mg"},{"bike_id":"d0735fad-f544-4cd2-b602-3ae6b053b951","system_id":"levelo_inurba_marseille","lat":43.259229,"lon":5.409046,"is_reserved":false,"is_disabled":false,"rental_uris":{"android":"levelo://app?vid=d0735fad-f544-4cd2-b602-3ae6b053b951","ios":"levelo://app?vid=d0735fad-f544-4cd2-b602-3ae6b053b951"},"vehicle_type_id":"4","last_reported":1744704847,"current_range_meters":9200,"station_id":"ce4bhm92rcd13ifvqglg","pricing_plan_id":"cebpf4jnsgd1na2vs0mg"},{"bike_id":"ea4998e2-d633-4bbe-948a-afb46ce3b218","system_id":"levelo_inurba_marseille","lat":43.2591,"lon":5.40917,"is_reserved":false,"is_disabled":false,"rental_uris":{"android":"levelo://app?vid=ea4998e2-d633-4bbe-948a-afb46ce3b218","ios":"levelo://app?vid=ea4998e2-d633-4bbe-948a-afb46ce3b218"},"vehicle_type_id":"4","last_reported":1744704847,"current_range_meters":9200,"station_id":"ce4bhm92rcd13ifvqglg","pricing_plan_id":"cebpf4jnsgd1na2vs0mg"},{"bike_id":"2a138dd2-ed7c-4b47-84a2-22093b0e9154","system_id":"levelo_inurba_marseille","lat":43.26812,"lon":5.39401,"is_reserved":false,"is_disabled":false,"rental_uris":{"android":"levelo://app?vid=2a138dd2-ed7c-4b47-84a2-22093b0e9154","ios":"levelo://app?vid=2a138dd2-ed7c-4b47-84a2-22093b0e9154"},"vehicle_type_id":"4","last_reported":1744704847,"current_range_meters":9200,"station_id":"ce4bhh12rcd13ifvqfg0","pricing_plan_id":"cebpf4jnsgd1na2vs0mg"},{"bike_id":"3bbc2b63-b216-4c93-ae5d-0af7b06c8726","system_id":"levelo_inurba_marseille","lat":43.3304,"lon":5.3904,"is_reserved":false,"is_disabled":false,"rental_uris":{"android":"levelo://app?vid=3bbc2b63-b216-4c93-ae5d-0af7b06c8726","ios":"levelo://app?vid=3bbc2b63-b216-4c93-ae5d-0af7b06c8726"},"vehicle_type_id":"4","last_reported":1744704847,"current_range_meters":8800,"station_id":"ce4bhr92rcd13ifvqhrg","pricing_plan_id":"cebpf4jnsgd1na2vs0mg"},{"bike_id":"5797c705-a9d9-4a27-9cb0-30094516801d","system_id":"levelo_inurba_marseille","lat":43.29878,"lon":5.38897,"is_reserved":false,"is_disabled":false,"rental_uris":{"android":"levelo://app?vid=5797c705-a9d9-4a27-9cb0-30094516801d","ios":"levelo://app?vid=5797c705-a9d9-4a27-9cb0-30094516801d"},"vehicle_type_id":"4","last_reported":1744704847,"current_range_meters":8800,"station_id":"ce4bh392rcd13ifvqdl0","pricing_plan_id":"cebpf4jnsgd1na2vs0mg"},{"bike_id":"ef734429-5e24-498b-98db-95ee16873a56","system_id":"levelo_inurba_marseille","lat":43.27086,"lon":5.42287,"is_reserved":false,"is_disabled":false,"rental_uris":{"android":"levelo://app?vid=ef734429-5e24-498b-98db-95ee16873a56","ios":"levelo://app?vid=ef734429-5e24-498b-98db-95ee16873a56"},"vehicle_type_id":"4","last_reported":1744704847,"current_range_meters":9600,"station_id":"ce4bhk92rcd13ifvqgb0","pricing_plan_id":"cebpf4jnsgd1na2vs0mg"},{"bike_id":"660d2eb3-0dca-4724-8d5d-ef301fa8b51b","system_id":"levelo_inurba_marseille","lat":43.33007,"lon":5.39025,"is_reserved":false,"is_disabled":false,"rental_uris":{"android":"levelo://app?vid=660d2eb3-0dca-4724-8d5d-ef301fa8b51b","ios":"levelo://app?vid=660d2eb3-0dca-4724-8d5d-ef301fa8b51b"},"vehicle_type_id":"4","last_reported":1744704847,"current_range_meters":9600,"station_id":"ce4bhr92rcd13ifvqhrg","pricing_plan_id":"cebpf4jnsgd1na2vs0mg"},{"bike_id":"ee0d392d-cb3c-4d95-8173-f03477f5d2a0","system_id":"levelo_inurba_marseille","lat":43.2396,"lon":5.36623,"is_reserved":false,"is_disabled":false,"rental_uris":{"android":"levelo://app?vid=ee0d392d-cb3c-4d95-8173-f03477f5d2a0","ios":"levelo://app?vid=ee0d392d-cb3c-4d95-8173-f03477f5d2a0"},"vehicle_type_id":"4","last_reported":1744704847,"current_range_meters":9200,"station_id":"ce4bhi12rcd13ifvqfp0","pricing_plan_id":"cebpf4jnsgd1na2vs0mg"},{"bike_id":"a12a4ca1-f810-4d74-a484-47aa7a760bde","system_id":"levelo_inurba_marseille","lat":43.27067,"lon":5.42277,"is_reserved":false,"is_disabled":false,"rental_uris":{"android":"levelo://app?vid=a12a4ca1-f810-4d74-a484-47aa7a760bde","ios":"levelo://app?vid=a12a4ca1-f810-4d74-a484-47aa7a760bde"},"vehicle_type_id":"4","last_reported":1744704847,"current_range_meters":9600,"station_id":"ce4bhk92rcd13ifvqgb0","pricing_plan_id":"cebpf4jnsgd1na2vs0mg"},{"bike_id":"3754faca-a476-4a19-b07d-486eabe1a724","system_id":"levelo_inurba_marseille","lat":43.29977,"lon":5.37185,"is_reserved":false,"is_disabled":false,"rental_uris":{"android":"levelo://app?vid=3754faca-a476-4a19-b07d-486eabe1a724","ios":"levelo://app?vid=3754faca-a476-4a19-b07d-486eabe1a724"},"vehicle_type_id":"4","last_reported":1744704847,"current_range_meters":9600,"station_id":"ce4bgr92rcd13ifvqc7g","pricing_plan_id":"cebpf4jnsgd1na2vs0mg"},{"bike_id":"eaf191a7-dd8f-4de8-9a88-11529bc4e5dd","system_id":"levelo_inurba_marseille","lat":43.27959,"lon":5.38727,"is_reserved":false,"is_disabled":false,"rental_uris":{"android":"levelo://app?vid=eaf191a7-dd8f-4de8-9a88-11529bc4e5dd","ios":"levelo://app?vid=eaf191a7-dd8f-4de8-9a88-11529bc4e5dd"},"vehicle_type_id":"4","last_reported":1744704847,"current_range_meters":9200,"station_id":"ce4bhg12rcd13ifvqf80","pricing_plan_id":"cebpf4jnsgd1na2vs0mg"},{"bike_id":"25a7fbde-cebf-42b0-812f-d90b2af9d903","system_id":"levelo_inurba_marseille","lat":43.29382,"lon":5.37861,"is_reserved":false,"is_disabled":false,"rental_uris":{"android":"levelo://app?vid=25a7fbde-cebf-42b0-812f-d90b2af9d903","ios":"levelo://app?vid=25a7fbde-cebf-42b0-812f-d90b2af9d903"},"vehicle_type_id":"4","last_reported":1744704847,"current_range_meters":10000,"station_id":"ce4bgjh2rcd13ifvqbf0","pricing_plan_id":"cebpf4jnsgd1na2vs0mg"},{"bike_id":"3ee3ff6c-25d2-430e-9d44-710c6a64d111","system_id":"levelo_inurba_marseille","lat":43.23149,"lon":5.4372,"is_reserved":false,"is_disabled":true,"rental_uris":{"android":"levelo://app?vid=3ee3ff6c-25d2-430e-9d44-710c6a64d111","ios":"levelo://app?vid=3ee3ff6c-25d2-430e-9d44-710c6a64d111"},"vehicle_type_id":"4","last_reported":1744704847,"current_range_meters":10000,"station_id":"ce4bhmp2rcd13ifvqgog","pricing_plan_id":"cebpf4jnsgd1na2vs0mg"},{"bike_id":"0e8e0d85-2932-4765-902a-4c3b14a3eac4","system_id":"levelo_inurba_marseille","lat":43.25647,"lon":5.37657,"is_reserved":false,"is_disabled":false,"rental_uris":{"android":"levelo://app?vid=0e8e0d85-2932-4765-902a-4c3b14a3eac4","ios":"levelo://app?vid=0e8e0d85-2932-4765-902a-4c3b14a3eac4"},"vehicle_type_id":"4","last_reported":1744704847,"current_range_meters":10000,"station_id":"","pricing_plan_id":"cebpf4jnsgd1na2vs0mg"},{"bike_id":"ade07b21-9023-484b-b850-af6d1cc3ebb6","system_id":"levelo_inurba_marseille","lat":43.2594,"lon":5.40898,"is_reserved":false,"is_disabled":false,"rental_uris":{"android":"levelo://app?vid=ade07b21-9023-484b-b850-af6d1cc3ebb6","ios":"levelo://app?vid=ade07b21-9023-484b-b850-af6d1cc3ebb6"},"vehicle_type_id":"4","last_reported":1744704847,"current_range_meters":10000,"station_id":"ce4bhm92rcd13ifvqglg","pricing_plan_id":"cebpf4jnsgd1na2vs0mg"},{"bike_id":"807ec091-c019-4bbf-8616-2c217a977986","system_id":"levelo_inurba_marseille","lat":43.29859,"lon":5.36251,"is_reserved":false,"is_disabled":false,"rental_uris":{"android":"levelo://app?vid=807ec091-c019-4bbf-8616-2c217a977986","ios":"levelo://app?vid=807ec091-c019-4bbf-8616-2c217a977986"},"vehicle_type_id":"4","last_reported":1744704847,"current_range_meters":10000,"station_id":"ce4bgpp2rcd13ifvqc3g","pricing_plan_id":"cebpf4jnsgd1na2vs0mg"},{"bike_id":"76b6e6c0-e7fd-448b-99e8-a284ab0c9110","system_id":"levelo_inurba_marseille","lat":43.31503,"lon":5.37296,"is_reserved":false,"is_disabled":false,"rental_uris":{"android":"levelo://app?vid=76b6e6c0-e7fd-448b-99e8-a284ab0c9110","ios":"levelo://app?vid=76b6e6c0-e7fd-448b-99e8-a284ab0c9110"},"vehicle_type_id":"4","last_reported":1744704847,"current_range_meters":10800,"station_id":"ce4bgt12rcd13ifvqcd0","pricing_plan_id":"cebpf4jnsgd1na2vs0mg"},{"bike_id":"27a55245-8dd2-4f1a-af63-95a9d7b71690","system_id":"levelo_inurba_marseille","lat":43.3108,"lon":5.37844,"is_reserved":false,"is_disabled":false,"rental_uris":{"android":"levelo://app?vid=27a55245-8dd2-4f1a-af63-95a9d7b71690","ios":"levelo://app?vid=27a55245-8dd2-4f1a-af63-95a9d7b71690"},"vehicle_type_id":"4","last_reported":1744704847,"current_range_meters":10800,"station_id":"","pricing_plan_id":"cebpf4jnsgd1na2vs0mg"},{"bike_id":"5ac84e7b-df66-40ef-b7c1-d4c24ea8e5ac","system_id":"levelo_inurba_marseille","lat":43.24082,"lon":5.37761,"is_reserved":false,"is_disabled":false,"rental_uris":{"android":"levelo://app?vid=5ac84e7b-df66-40ef-b7c1-d4c24ea8e5ac","ios":"levelo://app?vid=5ac84e7b-df66-40ef-b7c1-d4c24ea8e5ac"},"vehicle_type_id":"4","last_reported":1744704847,"current_range_meters":11200,"station_id":"ce4bhnp2rcd13ifvqgvg","pricing_plan_id":"cebpf4jnsgd1na2vs0mg"},{"bike_id":"812b935b-9d80-43d8-81cf-74ca3ab3a3c8","system_id":"levelo_inurba_marseille","lat":43.2905,"lon":5.40019,"is_reserved":false,"is_disabled":false,"rental_uris":{"android":"levelo://app?vid=812b935b-9d80-43d8-81cf-74ca3ab3a3c8","ios":"levelo://app?vid=812b935b-9d80-43d8-81cf-74ca3ab3a3c8"},"vehicle_type_id":"4","last_reported":1744704847,"current_range_meters":11200,"station_id":"ce4bh392rcd13ifvqdm0","pricing_plan_id":"cebpf4jnsgd1na2vs0mg"},{"bike_id":"a6b4f83f-3821-43df-a2af-8379d5ea08cc","system_id":"levelo_inurba_marseille","lat":43.30307,"lon":5.36932,"is_reserved":false,"is_disabled":false,"rental_uris":{"android":"levelo://app?vid=a6b4f83f-3821-43df-a2af-8379d5ea08cc","ios":"levelo://app?vid=a6b4f83f-3821-43df-a2af-8379d5ea08cc"},"vehicle_type_id":"4","last_reported":1744704847,"current_range_meters":11200,"station_id":"ce4bgqh2rcd13ifvqc5g","pricing_plan_id":"cebpf4jnsgd1na2vs0mg"},{"bike_id":"93676aa8-d320-4c2d-8b07-a119495392e0","system_id":"levelo_inurba_marseille","lat":43.30316,"lon":5.36906,"is_reserved":false,"is_disabled":false,"rental_uris":{"android":"levelo://app?vid=93676aa8-d320-4c2d-8b07-a119495392e0","ios":"levelo://app?vid=93676aa8-d320-4c2d-8b07-a119495392e0"},"vehicle_type_id":"4","last_reported":1744704847,"current_range_meters":11600,"station_id":"ce4bgqh2rcd13ifvqc5g","pricing_plan_id":"cebpf4jnsgd1na2vs0mg"},{"bike_id":"3ada1055-7c3e-4410-8758-882eb88ad0ba","system_id":"levelo_inurba_marseille","lat":43.26682,"lon":5.38264,"is_reserved":false,"is_disabled":false,"rental_uris":{"android":"levelo://app?vid=3ada1055-7c3e-4410-8758-882eb88ad0ba","ios":"levelo://app?vid=3ada1055-7c3e-4410-8758-882eb88ad0ba"},"vehicle_type_id":"4","last_reported":1744704847,"current_range_meters":11600,"station_id":"ce4bhg92rcd13ifvqf90","pricing_plan_id":"cebpf4jnsgd1na2vs0mg"},{"bike_id":"9050bcb2-4fea-4bae-b3fe-93394c76bda1","system_id":"levelo_inurba_marseille","lat":43.31716,"lon":5.40459,"is_reserved":false,"is_disabled":false,"rental_uris":{"android":"levelo://app?vid=9050bcb2-4fea-4bae-b3fe-93394c76bda1","ios":"levelo://app?vid=9050bcb2-4fea-4bae-b3fe-93394c76bda1"},"vehicle_type_id":"4","last_reported":1744704847,"current_range_meters":11600,"station_id":"ce4bh012rcd13ifvqd00","pricing_plan_id":"cebpf4jnsgd1na2vs0mg"},{"bike_id":"9481a4d4-998c-4242-822b-0b8fa3017440","system_id":"levelo_inurba_marseille","lat":43.28845,"lon":5.3934,"is_reserved":false,"is_disabled":true,"rental_uris":{"android":"levelo://app?vid=9481a4d4-998c-4242-822b-0b8fa3017440","ios":"levelo://app?vid=9481a4d4-998c-4242-822b-0b8fa3017440"},"vehicle_type_id":"4","last_reported":1744704847,"current_range_meters":11600,"station_id":"ce4bh2p2rcd13ifvqdi0","pricing_plan_id":"cebpf4jnsgd1na2vs0mg"},{"bike_id":"56135a82-d19f-45ea-a72c-58b1131d0fcb","system_id":"levelo_inurba_marseille","lat":43.28085,"lon":5.39654,"is_reserved":false,"is_disabled":true,"rental_uris":{"android":"levelo://app?vid=56135a82-d19f-45ea-a72c-58b1131d0fcb","ios":"levelo://app?vid=56135a82-d19f-45ea-a72c-58b1131d0fcb"},"vehicle_type_id":"4","last_reported":1744704847,"current_range_meters":11600,"station_id":"ce4bho12rcd13ifvqh2g","pricing_plan_id":"cebpf4jnsgd1na2vs0mg"},{"bike_id":"45152fd8-c07c-4d52-b7a7-6670add35e00","system_id":"levelo_inurba_marseille","lat":43.26084,"lon":5.42063,"is_reserved":false,"is_disabled":false,"rental_uris":{"android":"levelo://app?vid=45152fd8-c07c-4d52-b7a7-6670add35e00","ios":"levelo://app?vid=45152fd8-c07c-4d52-b7a7-6670add35e00"},"vehicle_type_id":"4","last_reported":1744704847,"current_range_meters":11600,"station_id":"","pricing_plan_id":"cebpf4jnsgd1na2vs0mg"},{"bike_id":"c8cc824d-233a-427a-bf88-dc1dd0f785a0","system_id":"levelo_inurba_marseille","lat":43.26229,"lon":5.37537,"is_reserved":false,"is_disabled":false,"rental_uris":{"android":"levelo://app?vid=c8cc824d-233a-427a-bf88-dc1dd0f785a0","ios":"levelo://app?vid=c8cc824d-233a-427a-bf88-dc1dd0f785a0"},"vehicle_type_id":"4","last_reported":1744704847,"current_range_meters":12000,"station_id":"ce4bhgp2rcd13ifvqfc0","pricing_plan_id":"cebpf4jnsgd1na2vs0mg"},{"bike_id":"6705c6ce-06bd-4331-9250-b9b311f16c4d","system_id":"levelo_inurba_marseille","lat":43.29082,"lon":5.38132,"is_reserved":false,"is_disabled":false,"rental_uris":{"android":"levelo://app?vid=6705c6ce-06bd-4331-9250-b9b311f16c4d","ios":"levelo://app?vid=6705c6ce-06bd-4331-9250-b9b311f16c4d"},"vehicle_type_id":"4","last_reported":1744704847,"current_range_meters":12000,"station_id":"ce4bh512rcd13ifvqe2g","pricing_plan_id":"cebpf4jnsgd1na2vs0mg"},{"bike_id":"511fa3ff-31d2-43ad-8eee-b4c2543a457e","system_id":"levelo_inurba_marseille","lat":43.28714,"lon":5.37928,"is_reserved":false,"is_disabled":false,"rental_uris":{"android":"levelo://app?vid=511fa3ff-31d2-43ad-8eee-b4c2543a457e","ios":"levelo://app?vid=511fa3ff-31d2-43ad-8eee-b4c2543a457e"},"vehicle_type_id":"4","last_reported":1744704847,"current_range_meters":12000,"station_id":"ce4bh9p2rcd13ifvqec0","pricing_plan_id":"cebpf4jnsgd1na2vs0mg"},{"bike_id":"3139349f-1379-4df2-8297-a01312e539f2","system_id":"levelo_inurba_marseille","lat":43.32112,"lon":5.36768,"is_reserved":false,"is_disabled":false,"rental_uris":{"android":"levelo://app?vid=3139349f-1379-4df2-8297-a01312e539f2","ios":"levelo://app?vid=3139349f-1379-4df2-8297-a01312e539f2"},"vehicle_type_id":"4","last_reported":1744704847,"current_range_meters":12000,"station_id":"ce4bhrh2rcd13ifvqhug","pricing_plan_id":"cebpf4jnsgd1na2vs0mg"},{"bike_id":"4810a73d-5efd-4bc0-84ba-716d51691df5","system_id":"levelo_inurba_marseille","lat":43.24182,"lon":5.39715,"is_reserved":false,"is_disabled":false,"rental_uris":{"android":"levelo://app?vid=4810a73d-5efd-4bc0-84ba-716d51691df5","ios":"levelo://app?vid=4810a73d-5efd-4bc0-84ba-716d51691df5"},"vehicle_type_id":"4","last_reported":1744704847,"current_range_meters":12400,"station_id":"ce4bhn12rcd13ifvqgpg","pricing_plan_id":"cebpf4jnsgd1na2vs0mg"},{"bike_id":"e5599567-c5ef-406d-b52b-e32753834927","system_id":"levelo_inurba_marseille","lat":43.26777,"lon":5.39422,"is_reserved":false,"is_disabled":false,"rental_uris":{"android":"levelo://app?vid=e5599567-c5ef-406d-b52b-e32753834927","ios":"levelo://app?vid=e5599567-c5ef-406d-b52b-e32753834927"},"vehicle_type_id":"4","last_reported":1744704847,"current_range_meters":12400,"station_id":"ce4bhh12rcd13ifvqfg0","pricing_plan_id":"cebpf4jnsgd1na2vs0mg"},{"bike_id":"da4f99a3-f365-456b-92c1-13efef41cb18","system_id":"levelo_inurba_marseille","lat":43.32488,"lon":5.3657,"is_reserved":false,"is_disabled":false,"rental_uris":{"android":"levelo://app?vid=da4f99a3-f365-456b-92c1-13efef41cb18","ios":"levelo://app?vid=da4f99a3-f365-456b-92c1-13efef41cb18"},"vehicle_type_id":"4","last_reported":1744704847,"current_range_meters":12400,"station_id":"ce4bhs12rcd13ifvqhvg","pricing_plan_id":"cebpf4jnsgd1na2vs0mg"},{"bike_id":"9fa9c34f-b182-4b0c-a2e9-660266924da7","system_id":"levelo_inurba_marseille","lat":43.25581,"lon":5.38228,"is_reserved":false,"is_disabled":false,"rental_uris":{"android":"levelo://app?vid=9fa9c34f-b182-4b0c-a2e9-660266924da7","ios":"levelo://app?vid=9fa9c34f-b182-4b0c-a2e9-660266924da7"},"vehicle_type_id":"4","last_reported":1744704847,"current_range_meters":12000,"station_id":"ce4bhih2rcd13ifvqfs0","pricing_plan_id":"cebpf4jnsgd1na2vs0mg"},{"bike_id":"37342bdf-d586-43ba-a25b-da22b3393da6","system_id":"levelo_inurba_marseille","lat":43.29136,"lon":5.375,"is_reserved":false,"is_disabled":false,"rental_uris":{"android":"levelo://app?vid=37342bdf-d586-43ba-a25b-da22b3393da6","ios":"levelo://app?vid=37342bdf-d586-43ba-a25b-da22b3393da6"},"vehicle_type_id":"4","last_reported":1744704847,"current_range_meters":12400,"station_id":"","pricing_plan_id":"cebpf4jnsgd1na2vs0mg"},{"bike_id":"3c5e465d-bd69-46d0-bb0d-d2bf5e7f3e5d","system_id":"levelo_inurba_marseille","lat":43.30311,"lon":5.36909,"is_reserved":false,"is_disabled":false,"rental_uris":{"android":"levelo://app?vid=3c5e465d-bd69-46d0-bb0d-d2bf5e7f3e5d","ios":"levelo://app?vid=3c5e465d-bd69-46d0-bb0d-d2bf5e7f3e5d"},"vehicle_type_id":"4","last_reported":1744704847,"current_range_meters":12800,"station_id":"ce4bgqh2rcd13ifvqc5g","pricing_plan_id":"cebpf4jnsgd1na2vs0mg"},{"bike_id":"86507adb-43c1-4a89-acc7-c74cd80a099f","system_id":"levelo_inurba_marseille","lat":43.2311,"lon":5.36645,"is_reserved":false,"is_disabled":false,"rental_uris":{"android":"levelo://app?vid=86507adb-43c1-4a89-acc7-c74cd80a099f","ios":"levelo://app?vid=86507adb-43c1-4a89-acc7-c74cd80a099f"},"vehicle_type_id":"4","last_reported":1744704847,"current_range_meters":12800,"station_id":"","pricing_plan_id":"cebpf4jnsgd1na2vs0mg"},{"bike_id":"34ef3b86-545a-45ee-80a2-c21b4bf49fe2","system_id":"levelo_inurba_marseille","lat":43.25864,"lon":5.39904,"is_reserved":false,"is_disabled":false,"rental_uris":{"android":"levelo://app?vid=34ef3b86-545a-45ee-80a2-c21b4bf49fe2","ios":"levelo://app?vid=34ef3b86-545a-45ee-80a2-c21b4bf49fe2"},"vehicle_type_id":"4","last_reported":1744704847,"current_range_meters":13600,"station_id":"ce4bhl92rcd13ifvqghg","pricing_plan_id":"cebpf4jnsgd1na2vs0mg"},{"bike_id":"f0ef48ec-00ec-4f55-afe5-8ee32687f892","system_id":"levelo_inurba_marseille","lat":43.27494,"lon":5.42458,"is_reserved":false,"is_disabled":false,"rental_uris":{"android":"levelo://app?vid=f0ef48ec-00ec-4f55-afe5-8ee32687f892","ios":"levelo://app?vid=f0ef48ec-00ec-4f55-afe5-8ee32687f892"},"vehicle_type_id":"4","last_reported":1744704847,"current_range_meters":13600,"station_id":"ce4bhn92rcd13ifvqgrg","pricing_plan_id":"cebpf4jnsgd1na2vs0mg"},{"bike_id":"5c0cc5dd-7c03-4f8b-838c-65a8bfb31b5b","system_id":"levelo_inurba_marseille","lat":43.24662,"lon":5.3815,"is_reserved":false,"is_disabled":false,"rental_uris":{"android":"levelo://app?vid=5c0cc5dd-7c03-4f8b-838c-65a8bfb31b5b","ios":"levelo://app?vid=5c0cc5dd-7c03-4f8b-838c-65a8bfb31b5b"},"vehicle_type_id":"4","last_reported":1744704847,"current_range_meters":14000,"station_id":"ce4bhih2rcd13ifvqfr0","pricing_plan_id":"cebpf4jnsgd1na2vs0mg"},{"bike_id":"a3a352f8-2334-4078-801b-27594460d62d","system_id":"levelo_inurba_marseille","lat":43.24185,"lon":5.39722,"is_reserved":false,"is_disabled":false,"rental_uris":{"android":"levelo://app?vid=a3a352f8-2334-4078-801b-27594460d62d","ios":"levelo://app?vid=a3a352f8-2334-4078-801b-27594460d62d"},"vehicle_type_id":"4","last_reported":1744704847,"current_range_meters":14000,"station_id":"ce4bhn12rcd13ifvqgpg","pricing_plan_id":"cebpf4jnsgd1na2vs0mg"},{"bike_id":"defc922e-ae29-4291-8fce-598cae1350e0","system_id":"levelo_inurba_marseille","lat":43.25602,"lon":5.38238,"is_reserved":false,"is_disabled":false,"rental_uris":{"android":"levelo://app?vid=defc922e-ae29-4291-8fce-598cae1350e0","ios":"levelo://app?vid=defc922e-ae29-4291-8fce-598cae1350e0"},"vehicle_type_id":"4","last_reported":1744704847,"current_range_meters":14000,"station_id":"ce4bhih2rcd13ifvqfs0","pricing_plan_id":"cebpf4jnsgd1na2vs0mg"},{"bike_id":"b9fc8cc3-945a-4db5-b7aa-66d235d9bf40","system_id":"levelo_inurba_marseille","lat":43.30894,"lon":5.37188,"is_reserved":false,"is_disabled":false,"rental_uris":{"android":"levelo://app?vid=b9fc8cc3-945a-4db5-b7aa-66d235d9bf40","ios":"levelo://app?vid=b9fc8cc3-945a-4db5-b7aa-66d235d9bf40"},"vehicle_type_id":"4","last_reported":1744704847,"current_range_meters":14000,"station_id":"ce4bguh2rcd13ifvqckg","pricing_plan_id":"cebpf4jnsgd1na2vs0mg"},{"bike_id":"33941653-45a7-4a37-8a83-b97caee3c9aa","system_id":"levelo_inurba_marseille","lat":43.27057,"lon":5.40259,"is_reserved":false,"is_disabled":false,"rental_uris":{"android":"levelo://app?vid=33941653-45a7-4a37-8a83-b97caee3c9aa","ios":"levelo://app?vid=33941653-45a7-4a37-8a83-b97caee3c9aa"},"vehicle_type_id":"4","last_reported":1744704847,"current_range_meters":14000,"station_id":"ce4bhk92rcd13ifvqgc0","pricing_plan_id":"cebpf4jnsgd1na2vs0mg"},{"bike_id":"d2d37f01-fa46-4fbc-a721-7789f4003663","system_id":"levelo_inurba_marseille","lat":43.24976,"lon":5.38943,"is_reserved":false,"is_disabled":false,"rental_uris":{"android":"levelo://app?vid=d2d37f01-fa46-4fbc-a721-7789f4003663","ios":"levelo://app?vid=d2d37f01-fa46-4fbc-a721-7789f4003663"},"vehicle_type_id":"4","last_reported":1744704847,"current_range_meters":14400,"station_id":"ce4bhgp2rcd13ifvqfd0","pricing_plan_id":"cebpf4jnsgd1na2vs0mg"},{"bike_id":"47a85634-40b2-4bd1-8409-1d1cf2f06bdc","system_id":"levelo_inurba_marseille","lat":43.24068,"lon":5.37795,"is_reserved":false,"is_disabled":false,"rental_uris":{"android":"levelo://app?vid=47a85634-40b2-4bd1-8409-1d1cf2f06bdc","ios":"levelo://app?vid=47a85634-40b2-4bd1-8409-1d1cf2f06bdc"},"vehicle_type_id":"4","last_reported":1744704847,"current_range_meters":14800,"station_id":"ce4bhnp2rcd13ifvqgvg","pricing_plan_id":"cebpf4jnsgd1na2vs0mg"},{"bike_id":"9f9b9eda-4afc-4aa3-914f-5645374de658","system_id":"levelo_inurba_marseille","lat":43.295268,"lon":5.37516,"is_reserved":false,"is_disabled":false,"rental_uris":{"android":"levelo://app?vid=9f9b9eda-4afc-4aa3-914f-5645374de658","ios":"levelo://app?vid=9f9b9eda-4afc-4aa3-914f-5645374de658"},"vehicle_type_id":"4","last_reported":1744704847,"current_range_meters":14800,"station_id":"ce4bgkp2rcd13ifvqbmg","pricing_plan_id":"cebpf4jnsgd1na2vs0mg"},{"bike_id":"192632e2-2665-465c-9c1c-47eaef1fd2bb","system_id":"levelo_inurba_marseille","lat":43.33602,"lon":5.40985,"is_reserved":false,"is_disabled":false,"rental_uris":{"android":"levelo://app?vid=192632e2-2665-465c-9c1c-47eaef1fd2bb","ios":"levelo://app?vid=192632e2-2665-465c-9c1c-47eaef1fd2bb"},"vehicle_type_id":"4","last_reported":1744704847,"current_range_meters":14800,"station_id":"ce4bhqh2rcd13ifvqhmg","pricing_plan_id":"cebpf4jnsgd1na2vs0mg"},{"bike_id":"8a1fc1b6-9ba8-4eaa-8806-e8628dd9fd73","system_id":"levelo_inurba_marseille","lat":43.2732,"lon":5.41245,"is_reserved":false,"is_disabled":false,"rental_uris":{"android":"levelo://app?vid=8a1fc1b6-9ba8-4eaa-8806-e8628dd9fd73","ios":"levelo://app?vid=8a1fc1b6-9ba8-4eaa-8806-e8628dd9fd73"},"vehicle_type_id":"4","last_reported":1744704847,"current_range_meters":14800,"station_id":"","pricing_plan_id":"cebpf4jnsgd1na2vs0mg"},{"bike_id":"41756c37-41c5-446b-806a-3b94ccce8188","system_id":"levelo_inurba_marseille","lat":43.30461,"lon":5.37907,"is_reserved":false,"is_disabled":false,"rental_uris":{"android":"levelo://app?vid=41756c37-41c5-446b-806a-3b94ccce8188","ios":"levelo://app?vid=41756c37-41c5-446b-806a-3b94ccce8188"},"vehicle_type_id":"4","last_reported":1744704847,"current_range_meters":14800,"station_id":"ce4bgup2rcd13ifvqcn0","pricing_plan_id":"cebpf4jnsgd1na2vs0mg"},{"bike_id":"04d39824-7984-470f-83d9-2d269dd3eedf","system_id":"levelo_inurba_marseille","lat":43.2995,"lon":5.37453,"is_reserved":false,"is_disabled":false,"rental_uris":{"android":"levelo://app?vid=04d39824-7984-470f-83d9-2d269dd3eedf","ios":"levelo://app?vid=04d39824-7984-470f-83d9-2d269dd3eedf"},"vehicle_type_id":"4","last_reported":1744704847,"current_range_meters":14800,"station_id":"ce4bgjh2rcd13ifvqbg0","pricing_plan_id":"cebpf4jnsgd1na2vs0mg"},{"bike_id":"d554e03d-9412-40b8-b2f0-b47a9f259332","system_id":"levelo_inurba_marseille","lat":43.307554,"lon":5.395964,"is_reserved":false,"is_disabled":false,"rental_uris":{"android":"levelo://app?vid=d554e03d-9412-40b8-b2f0-b47a9f259332","ios":"levelo://app?vid=d554e03d-9412-40b8-b2f0-b47a9f259332"},"vehicle_type_id":"4","last_reported":1744704847,"current_range_meters":15200,"station_id":"ce4bgup2rcd13ifvqcn0","pricing_plan_id":"cebpf4jnsgd1na2vs0mg"},{"bike_id":"c9fbfbd0-ac82-410e-8a58-1795989b1898","system_id":"levelo_inurba_marseille","lat":43.30467,"lon":5.37904,"is_reserved":false,"is_disabled":false,"rental_uris":{"android":"levelo://app?vid=c9fbfbd0-ac82-410e-8a58-1795989b1898","ios":"levelo://app?vid=c9fbfbd0-ac82-410e-8a58-1795989b1898"},"vehicle_type_id":"4","last_reported":1744704847,"current_range_meters":15200,"station_id":"ce4bgup2rcd13ifvqcn0","pricing_plan_id":"cebpf4jnsgd1na2vs0mg"},{"bike_id":"d7d541b7-3699-4b5f-88c0-f8023838b476","system_id":"levelo_inurba_marseille","lat":43.2916,"lon":5.37164,"is_reserved":false,"is_disabled":false,"rental_uris":{"android":"levelo://app?vid=d7d541b7-3699-4b5f-88c0-f8023838b476","ios":"levelo://app?vid=d7d541b7-3699-4b5f-88c0-f8023838b476"},"vehicle_type_id":"4","last_reported":1744704847,"current_range_meters":15200,"station_id":"ce4bha92rcd13ifvqeh0","pricing_plan_id":"cebpf4jnsgd1na2vs0mg"},{"bike_id":"690344b0-9f80-484a-9c0a-0cb50bc24e58","system_id":"levelo_inurba_marseille","lat":43.31482,"lon":5.37304,"is_reserved":false,"is_disabled":false,"rental_uris":{"android":"levelo://app?vid=690344b0-9f80-484a-9c0a-0cb50bc24e58","ios":"levelo://app?vid=690344b0-9f80-484a-9c0a-0cb50bc24e58"},"vehicle_type_id":"4","last_reported":1744704847,"current_range_meters":15200,"station_id":"ce4bgt12rcd13ifvqcd0","pricing_plan_id":"cebpf4jnsgd1na2vs0mg"},{"bike_id":"e298fb17-60fe-4ee1-bc94-645f9b8b1bb4","system_id":"levelo_inurba_marseille","lat":43.28989,"lon":5.37628,"is_reserved":false,"is_disabled":false,"rental_uris":{"android":"levelo://app?vid=e298fb17-60fe-4ee1-bc94-645f9b8b1bb4","ios":"levelo://app?vid=e298fb17-60fe-4ee1-bc94-645f9b8b1bb4"},"vehicle_type_id":"4","last_reported":1744704847,"current_range_meters":15200,"station_id":"","pricing_plan_id":"cebpf4jnsgd1na2vs0mg"},{"bike_id":"4e50b3a9-0fb8-4b49-a8ed-c5a6a805de77","system_id":"levelo_inurba_marseille","lat":43.27322,"lon":5.390908,"is_reserved":false,"is_disabled":false,"rental_uris":{"android":"levelo://app?vid=4e50b3a9-0fb8-4b49-a8ed-c5a6a805de77","ios":"levelo://app?vid=4e50b3a9-0fb8-4b49-a8ed-c5a6a805de77"},"vehicle_type_id":"4","last_reported":1744704847,"current_range_meters":16000,"station_id":"ce4bhgp2rcd13ifvqfe0","pricing_plan_id":"cebpf4jnsgd1na2vs0mg"},{"bike_id":"fccaee15-ed38-41df-92ba-57362d80a9a2","system_id":"levelo_inurba_marseille","lat":43.30552,"lon":5.36537,"is_reserved":false,"is_disabled":false,"rental_uris":{"android":"levelo://app?vid=fccaee15-ed38-41df-92ba-57362d80a9a2","ios":"levelo://app?vid=fccaee15-ed38-41df-92ba-57362d80a9a2"},"vehicle_type_id":"4","last_reported":1744704847,"current_range_meters":16000,"station_id":"ce4bgs12rcd13ifvqcag","pricing_plan_id":"cebpf4jnsgd1na2vs0mg"},{"bike_id":"e33b7047-9512-4b04-862d-afc599620999","system_id":"levelo_inurba_marseille","lat":43.27079,"lon":5.40242,"is_reserved":false,"is_disabled":false,"rental_uris":{"android":"levelo://app?vid=e33b7047-9512-4b04-862d-afc599620999","ios":"levelo://app?vid=e33b7047-9512-4b04-862d-afc599620999"},"vehicle_type_id":"4","last_reported":1744704847,"current_range_meters":16000,"station_id":"ce4bhk92rcd13ifvqgc0","pricing_plan_id":"cebpf4jnsgd1na2vs0mg"},{"bike_id":"491e8480-a084-401d-bc5f-1c8499b4566d","system_id":"levelo_inurba_marseille","lat":43.25942,"lon":5.40904,"is_reserved":false,"is_disabled":false,"rental_uris":{"android":"levelo://app?vid=491e8480-a084-401d-bc5f-1c8499b4566d","ios":"levelo://app?vid=491e8480-a084-401d-bc5f-1c8499b4566d"},"vehicle_type_id":"4","last_reported":1744704847,"current_range_meters":16000,"station_id":"ce4bhm92rcd13ifvqglg","pricing_plan_id":"cebpf4jnsgd1na2vs0mg"},{"bike_id":"851e19e9-78f5-45d0-9f3b-ef49f3bfda6d","system_id":"levelo_inurba_marseille","lat":43.27376,"lon":5.36258,"is_reserved":false,"is_disabled":false,"rental_uris":{"android":"levelo://app?vid=851e19e9-78f5-45d0-9f3b-ef49f3bfda6d","ios":"levelo://app?vid=851e19e9-78f5-45d0-9f3b-ef49f3bfda6d"},"vehicle_type_id":"4","last_reported":1744704847,"current_range_meters":16000,"station_id":"ce4bhbh2rcd13ifvqeo0","pricing_plan_id":"cebpf4jnsgd1na2vs0mg"},{"bike_id":"415db733-f514-4806-a29d-91dddd76fe1c","system_id":"levelo_inurba_marseille","lat":43.3029,"lon":5.36898,"is_reserved":false,"is_disabled":false,"rental_uris":{"android":"levelo://app?vid=415db733-f514-4806-a29d-91dddd76fe1c","ios":"levelo://app?vid=415db733-f514-4806-a29d-91dddd76fe1c"},"vehicle_type_id":"4","last_reported":1744704847,"current_range_meters":16400,"station_id":"ce4bgqh2rcd13ifvqc5g","pricing_plan_id":"cebpf4jnsgd1na2vs0mg"},{"bike_id":"7b504d01-099b-4634-b191-543e380f75b8","system_id":"levelo_inurba_marseille","lat":43.24999,"lon":5.38931,"is_reserved":false,"is_disabled":false,"rental_uris":{"android":"levelo://app?vid=7b504d01-099b-4634-b191-543e380f75b8","ios":"levelo://app?vid=7b504d01-099b-4634-b191-543e380f75b8"},"vehicle_type_id":"4","last_reported":1744704847,"current_range_meters":16400,"station_id":"ce4bhgp2rcd13ifvqfd0","pricing_plan_id":"cebpf4jnsgd1na2vs0mg"},{"bike_id":"edeb31da-c7df-42c5-8538-462c9290a386","system_id":"levelo_inurba_marseille","lat":43.33027,"lon":5.39044,"is_reserved":false,"is_disabled":false,"rental_uris":{"android":"levelo://app?vid=edeb31da-c7df-42c5-8538-462c9290a386","ios":"levelo://app?vid=edeb31da-c7df-42c5-8538-462c9290a386"},"vehicle_type_id":"4","last_reported":1744704847,"current_range_meters":16400,"station_id":"ce4bhr92rcd13ifvqhrg","pricing_plan_id":"cebpf4jnsgd1na2vs0mg"},{"bike_id":"574fe5f8-0af6-4aaf-a7c1-66e11785e1ce","system_id":"levelo_inurba_marseille","lat":43.30455,"lon":5.37897,"is_reserved":false,"is_disabled":false,"rental_uris":{"android":"levelo://app?vid=574fe5f8-0af6-4aaf-a7c1-66e11785e1ce","ios":"levelo://app?vid=574fe5f8-0af6-4aaf-a7c1-66e11785e1ce"},"vehicle_type_id":"4","last_reported":1744704847,"current_range_meters":16400,"station_id":"ce4bgup2rcd13ifvqcn0","pricing_plan_id":"cebpf4jnsgd1na2vs0mg"},{"bike_id":"96f67fc3-1d8d-4e0e-b60a-683312315db0","system_id":"levelo_inurba_marseille","lat":43.3135,"lon":5.36713,"is_reserved":false,"is_disabled":false,"rental_uris":{"android":"levelo://app?vid=96f67fc3-1d8d-4e0e-b60a-683312315db0","ios":"levelo://app?vid=96f67fc3-1d8d-4e0e-b60a-683312315db0"},"vehicle_type_id":"4","last_reported":1744704847,"current_range_meters":16400,"station_id":"ce4bgr92rcd13ifvqc6g","pricing_plan_id":"cebpf4jnsgd1na2vs0mg"},{"bike_id":"77037b3f-050a-4708-b85e-3feee4d6225d","system_id":"levelo_inurba_marseille","lat":43.30464,"lon":5.37898,"is_reserved":false,"is_disabled":false,"rental_uris":{"android":"levelo://app?vid=77037b3f-050a-4708-b85e-3feee4d6225d","ios":"levelo://app?vid=77037b3f-050a-4708-b85e-3feee4d6225d"},"vehicle_type_id":"4","last_reported":1744704847,"current_range_meters":16400,"station_id":"ce4bgup2rcd13ifvqcn0","pricing_plan_id":"cebpf4jnsgd1na2vs0mg"},{"bike_id":"4b3747ad-70b8-45b3-a21f-9645dba15850","system_id":"levelo_inurba_marseille","lat":43.25937,"lon":5.40895,"is_reserved":false,"is_disabled":false,"rental_uris":{"android":"levelo://app?vid=4b3747ad-70b8-45b3-a21f-9645dba15850","ios":"levelo://app?vid=4b3747ad-70b8-45b3-a21f-9645dba15850"},"vehicle_type_id":"4","last_reported":1744704847,"current_range_meters":16400,"station_id":"ce4bhm92rcd13ifvqglg","pricing_plan_id":"cebpf4jnsgd1na2vs0mg"},{"bike_id":"2cc0ea6e-823a-4f86-97b3-6a0dd4c80bf3","system_id":"levelo_inurba_marseille","lat":43.30309,"lon":5.36904,"is_reserved":false,"is_disabled":false,"rental_uris":{"android":"levelo://app?vid=2cc0ea6e-823a-4f86-97b3-6a0dd4c80bf3","ios":"levelo://app?vid=2cc0ea6e-823a-4f86-97b3-6a0dd4c80bf3"},"vehicle_type_id":"4","last_reported":1744704847,"current_range_meters":16400,"station_id":"ce4bgqh2rcd13ifvqc5g","pricing_plan_id":"cebpf4jnsgd1na2vs0mg"},{"bike_id":"07816d13-a6db-40c4-970b-39f688392b08","system_id":"levelo_inurba_marseille","lat":43.3054,"lon":5.36708,"is_reserved":false,"is_disabled":false,"rental_uris":{"android":"levelo://app?vid=07816d13-a6db-40c4-970b-39f688392b08","ios":"levelo://app?vid=07816d13-a6db-40c4-970b-39f688392b08"},"vehicle_type_id":"4","last_reported":1744704847,"current_range_meters":16400,"station_id":"ce4bgrp2rcd13ifvqc9g","pricing_plan_id":"cebpf4jnsgd1na2vs0mg"},{"bike_id":"fdf80ef6-7fd0-4ec0-8251-2782d4f62dd3","system_id":"levelo_inurba_marseille","lat":43.298696,"lon":5.397458,"is_reserved":false,"is_disabled":false,"rental_uris":{"android":"levelo://app?vid=fdf80ef6-7fd0-4ec0-8251-2782d4f62dd3","ios":"levelo://app?vid=fdf80ef6-7fd0-4ec0-8251-2782d4f62dd3"},"vehicle_type_id":"4","last_reported":1744704847,"current_range_meters":16400,"station_id":"ce4bh0h2rcd13ifvqd50","pricing_plan_id":"cebpf4jnsgd1na2vs0mg"},{"bike_id":"0885a5e3-43bb-4a39-b743-0a43e27c6f4a","system_id":"levelo_inurba_marseille","lat":43.32477,"lon":5.36587,"is_reserved":false,"is_disabled":false,"rental_uris":{"android":"levelo://app?vid=0885a5e3-43bb-4a39-b743-0a43e27c6f4a","ios":"levelo://app?vid=0885a5e3-43bb-4a39-b743-0a43e27c6f4a"},"vehicle_type_id":"4","last_reported":1744704847,"current_range_meters":16800,"station_id":"ce4bhs12rcd13ifvqhvg","pricing_plan_id":"cebpf4jnsgd1na2vs0mg"},{"bike_id":"d37baba7-ee45-485a-a3e0-c76cb6429c84","system_id":"levelo_inurba_marseille","lat":43.30148,"lon":5.37424,"is_reserved":false,"is_disabled":false,"rental_uris":{"android":"levelo://app?vid=d37baba7-ee45-485a-a3e0-c76cb6429c84","ios":"levelo://app?vid=d37baba7-ee45-485a-a3e0-c76cb6429c84"},"vehicle_type_id":"4","last_reported":1744704847,"current_range_meters":16800,"station_id":"ce4bgs92rcd13ifvqcc0","pricing_plan_id":"cebpf4jnsgd1na2vs0mg"},{"bike_id":"24ce52c8-e9dc-42ff-ad4e-a11f24311b9a","system_id":"levelo_inurba_marseille","lat":43.24166,"lon":5.39742,"is_reserved":false,"is_disabled":false,"rental_uris":{"android":"levelo://app?vid=24ce52c8-e9dc-42ff-ad4e-a11f24311b9a","ios":"levelo://app?vid=24ce52c8-e9dc-42ff-ad4e-a11f24311b9a"},"vehicle_type_id":"4","last_reported":1744704847,"current_range_meters":16800,"station_id":"ce4bhn12rcd13ifvqgpg","pricing_plan_id":"cebpf4jnsgd1na2vs0mg"},{"bike_id":"7eacb872-0584-4b06-8fad-feb612d3799a","system_id":"levelo_inurba_marseille","lat":43.29686,"lon":5.38116,"is_reserved":false,"is_disabled":false,"rental_uris":{"android":"levelo://app?vid=7eacb872-0584-4b06-8fad-feb612d3799a","ios":"levelo://app?vid=7eacb872-0584-4b06-8fad-feb612d3799a"},"vehicle_type_id":"4","last_reported":1744704847,"current_range_meters":16800,"station_id":"","pricing_plan_id":"cebpf4jnsgd1na2vs0mg"},{"bike_id":"6b5b8e18-66bf-409c-b1dd-ee755eb7ed4b","system_id":"levelo_inurba_marseille","lat":43.30896,"lon":5.37204,"is_reserved":false,"is_disabled":false,"rental_uris":{"android":"levelo://app?vid=6b5b8e18-66bf-409c-b1dd-ee755eb7ed4b","ios":"levelo://app?vid=6b5b8e18-66bf-409c-b1dd-ee755eb7ed4b"},"vehicle_type_id":"4","last_reported":1744704847,"current_range_meters":16800,"station_id":"ce4bguh2rcd13ifvqckg","pricing_plan_id":"cebpf4jnsgd1na2vs0mg"},{"bike_id":"2caebf1c-7dd1-4d93-97aa-8cb87eccf6d4","system_id":"levelo_inurba_marseille","lat":43.31069,"lon":5.42433,"is_reserved":false,"is_disabled":false,"rental_uris":{"android":"levelo://app?vid=2caebf1c-7dd1-4d93-97aa-8cb87eccf6d4","ios":"levelo://app?vid=2caebf1c-7dd1-4d93-97aa-8cb87eccf6d4"},"vehicle_type_id":"4","last_reported":1744704847,"current_range_meters":16800,"station_id":"ce4bhp92rcd13ifvqhag","pricing_plan_id":"cebpf4jnsgd1na2vs0mg"},{"bike_id":"e56aeca3-87cd-489b-9fd1-982a6bbed796","system_id":"levelo_inurba_marseille","lat":43.30957,"lon":5.39067,"is_reserved":false,"is_disabled":false,"rental_uris":{"android":"levelo://app?vid=e56aeca3-87cd-489b-9fd1-982a6bbed796","ios":"levelo://app?vid=e56aeca3-87cd-489b-9fd1-982a6bbed796"},"vehicle_type_id":"4","last_reported":1744704847,"current_range_meters":16800,"station_id":"ce4bgup2rcd13ifvqco0","pricing_plan_id":"cebpf4jnsgd1na2vs0mg"},{"bike_id":"b4a4b8c2-c88a-439f-b1d6-339e70de47e0","system_id":"levelo_inurba_marseille","lat":43.25942,"lon":5.409,"is_reserved":false,"is_disabled":false,"rental_uris":{"android":"levelo://app?vid=b4a4b8c2-c88a-439f-b1d6-339e70de47e0","ios":"levelo://app?vid=b4a4b8c2-c88a-439f-b1d6-339e70de47e0"},"vehicle_type_id":"4","last_reported":1744704847,"current_range_meters":17200,"station_id":"ce4bhm92rcd13ifvqglg","pricing_plan_id":"cebpf4jnsgd1na2vs0mg"},{"bike_id":"ce4e8b45-5747-4866-a0e4-a57126f6a0ff","system_id":"levelo_inurba_marseille","lat":43.32063,"lon":5.41545,"is_reserved":false,"is_disabled":false,"rental_uris":{"android":"levelo://app?vid=ce4e8b45-5747-4866-a0e4-a57126f6a0ff","ios":"levelo://app?vid=ce4e8b45-5747-4866-a0e4-a57126f6a0ff"},"vehicle_type_id":"4","last_reported":1744704847,"current_range_meters":16800,"station_id":"ce4bhq92rcd13ifvqhkg","pricing_plan_id":"cebpf4jnsgd1na2vs0mg"},{"bike_id":"4aef0fa6-a0da-4fa2-9099-9fa1ba81c16a","system_id":"levelo_inurba_marseille","lat":43.281634,"lon":5.404409,"is_reserved":false,"is_disabled":false,"rental_uris":{"android":"levelo://app?vid=4aef0fa6-a0da-4fa2-9099-9fa1ba81c16a","ios":"levelo://app?vid=4aef0fa6-a0da-4fa2-9099-9fa1ba81c16a"},"vehicle_type_id":"4","last_reported":1744704847,"current_range_meters":17200,"station_id":"","pricing_plan_id":"cebpf4jnsgd1na2vs0mg"},{"bike_id":"013a924c-1ee5-4674-a305-ba7bd5a1d58b","system_id":"levelo_inurba_marseille","lat":43.23058,"lon":5.35396,"is_reserved":false,"is_disabled":false,"rental_uris":{"android":"levelo://app?vid=013a924c-1ee5-4674-a305-ba7bd5a1d58b","ios":"levelo://app?vid=013a924c-1ee5-4674-a305-ba7bd5a1d58b"},"vehicle_type_id":"4","last_reported":1744704847,"current_range_meters":17200,"station_id":"cpo3342slgdg3j2ifvpg","pricing_plan_id":"cebpf4jnsgd1na2vs0mg"},{"bike_id":"c8d24df4-b09f-432c-8af3-427efe4ed90b","system_id":"levelo_inurba_marseille","lat":43.30401,"lon":5.36561,"is_reserved":false,"is_disabled":false,"rental_uris":{"android":"levelo://app?vid=c8d24df4-b09f-432c-8af3-427efe4ed90b","ios":"levelo://app?vid=c8d24df4-b09f-432c-8af3-427efe4ed90b"},"vehicle_type_id":"4","last_reported":1744704847,"current_range_meters":17200,"station_id":"","pricing_plan_id":"cebpf4jnsgd1na2vs0mg"},{"bike_id":"35639424-47db-4f67-911e-79cf9b9a8925","system_id":"levelo_inurba_marseille","lat":43.30915,"lon":5.36843,"is_reserved":false,"is_disabled":false,"rental_uris":{"android":"levelo://app?vid=35639424-47db-4f67-911e-79cf9b9a8925","ios":"levelo://app?vid=35639424-47db-4f67-911e-79cf9b9a8925"},"vehicle_type_id":"4","last_reported":1744704847,"current_range_meters":17200,"station_id":"ce4bgn92rcd13ifvqbvg","pricing_plan_id":"cebpf4jnsgd1na2vs0mg"},{"bike_id":"9d36a699-2473-48ab-809e-a7967e29bf06","system_id":"levelo_inurba_marseille","lat":43.24181,"lon":5.39731,"is_reserved":false,"is_disabled":false,"rental_uris":{"android":"levelo://app?vid=9d36a699-2473-48ab-809e-a7967e29bf06","ios":"levelo://app?vid=9d36a699-2473-48ab-809e-a7967e29bf06"},"vehicle_type_id":"4","last_reported":1744704847,"current_range_meters":17200,"station_id":"ce4bhn12rcd13ifvqgpg","pricing_plan_id":"cebpf4jnsgd1na2vs0mg"},{"bike_id":"504cf016-be85-40ae-bd6e-21fe1e837c30","system_id":"levelo_inurba_marseille","lat":43.324726,"lon":5.365852,"is_reserved":false,"is_disabled":false,"rental_uris":{"android":"levelo://app?vid=504cf016-be85-40ae-bd6e-21fe1e837c30","ios":"levelo://app?vid=504cf016-be85-40ae-bd6e-21fe1e837c30"},"vehicle_type_id":"4","last_reported":1744704847,"current_range_meters":17600,"station_id":"ce4bhs12rcd13ifvqhvg","pricing_plan_id":"cebpf4jnsgd1na2vs0mg"},{"bike_id":"a597471e-7689-4399-acb1-99d5b52e0488","system_id":"levelo_inurba_marseille","lat":43.26199,"lon":5.37932,"is_reserved":false,"is_disabled":false,"rental_uris":{"android":"levelo://app?vid=a597471e-7689-4399-acb1-99d5b52e0488","ios":"levelo://app?vid=a597471e-7689-4399-acb1-99d5b52e0488"},"vehicle_type_id":"4","last_reported":1744704847,"current_range_meters":17600,"station_id":"ce4bhjp2rcd13ifvqg90","pricing_plan_id":"cebpf4jnsgd1na2vs0mg"},{"bike_id":"4ecf3b6d-fda4-4fda-aadb-31c5da81bf9c","system_id":"levelo_inurba_marseille","lat":43.2594,"lon":5.40899,"is_reserved":false,"is_disabled":false,"rental_uris":{"android":"levelo://app?vid=4ecf3b6d-fda4-4fda-aadb-31c5da81bf9c","ios":"levelo://app?vid=4ecf3b6d-fda4-4fda-aadb-31c5da81bf9c"},"vehicle_type_id":"4","last_reported":1744704847,"current_range_meters":17600,"station_id":"ce4bhm92rcd13ifvqglg","pricing_plan_id":"cebpf4jnsgd1na2vs0mg"},{"bike_id":"751595e2-0aeb-4979-ba6e-f902dc9f8a1c","system_id":"levelo_inurba_marseille","lat":43.23148,"lon":5.43721,"is_reserved":false,"is_disabled":false,"rental_uris":{"android":"levelo://app?vid=751595e2-0aeb-4979-ba6e-f902dc9f8a1c","ios":"levelo://app?vid=751595e2-0aeb-4979-ba6e-f902dc9f8a1c"},"vehicle_type_id":"4","last_reported":1744704847,"current_range_meters":17600,"station_id":"ce4bhmp2rcd13ifvqgog","pricing_plan_id":"cebpf4jnsgd1na2vs0mg"},{"bike_id":"8cbd2531-c5b2-48f4-8519-f32a3a880ece","system_id":"levelo_inurba_marseille","lat":43.305346,"lon":5.365504,"is_reserved":false,"is_disabled":false,"rental_uris":{"android":"levelo://app?vid=8cbd2531-c5b2-48f4-8519-f32a3a880ece","ios":"levelo://app?vid=8cbd2531-c5b2-48f4-8519-f32a3a880ece"},"vehicle_type_id":"4","last_reported":1744704847,"current_range_meters":17600,"station_id":"ce4bgs12rcd13ifvqcag","pricing_plan_id":"cebpf4jnsgd1na2vs0mg"},{"bike_id":"944bddab-9f41-4da7-80e2-b3e803e6b9a5","system_id":"levelo_inurba_marseille","lat":43.21207,"lon":5.35088,"is_reserved":false,"is_disabled":false,"rental_uris":{"android":"levelo://app?vid=944bddab-9f41-4da7-80e2-b3e803e6b9a5","ios":"levelo://app?vid=944bddab-9f41-4da7-80e2-b3e803e6b9a5"},"vehicle_type_id":"4","last_reported":1744704847,"current_range_meters":17600,"station_id":"st_cvj6sg6p6f1abm77japg","pricing_plan_id":"cebpf4jnsgd1na2vs0mg"},{"bike_id":"e09b21d2-233b-4dbb-9f38-952d010171c4","system_id":"levelo_inurba_marseille","lat":43.24667,"lon":5.38164,"is_reserved":false,"is_disabled":false,"rental_uris":{"android":"levelo://app?vid=e09b21d2-233b-4dbb-9f38-952d010171c4","ios":"levelo://app?vid=e09b21d2-233b-4dbb-9f38-952d010171c4"},"vehicle_type_id":"4","last_reported":1744704847,"current_range_meters":17600,"station_id":"ce4bhih2rcd13ifvqfr0","pricing_plan_id":"cebpf4jnsgd1na2vs0mg"},{"bike_id":"05664e36-336b-404a-b8de-2ca42d4238f0","system_id":"levelo_inurba_marseille","lat":43.249983,"lon":5.381884,"is_reserved":false,"is_disabled":false,"rental_uris":{"android":"levelo://app?vid=05664e36-336b-404a-b8de-2ca42d4238f0","ios":"levelo://app?vid=05664e36-336b-404a-b8de-2ca42d4238f0"},"vehicle_type_id":"4","last_reported":1744704847,"current_range_meters":17600,"station_id":"","pricing_plan_id":"cebpf4jnsgd1na2vs0mg"},{"bike_id":"f8a2aca9-a595-41b4-9746-786cf0fc2e07","system_id":"levelo_inurba_marseille","lat":43.295855,"lon":5.37519,"is_reserved":false,"is_disabled":true,"rental_uris":{"android":"levelo://app?vid=f8a2aca9-a595-41b4-9746-786cf0fc2e07","ios":"levelo://app?vid=f8a2aca9-a595-41b4-9746-786cf0fc2e07"},"vehicle_type_id":"4","last_reported":1744704847,"current_range_meters":18000,"station_id":"ce4bgh92rcd13ifvqb50","pricing_plan_id":"cebpf4jnsgd1na2vs0mg"},{"bike_id":"5e2ae11d-9564-46eb-9b39-c44a0592de90","system_id":"levelo_inurba_marseille","lat":43.31385,"lon":5.3665,"is_reserved":false,"is_disabled":false,"rental_uris":{"android":"levelo://app?vid=5e2ae11d-9564-46eb-9b39-c44a0592de90","ios":"levelo://app?vid=5e2ae11d-9564-46eb-9b39-c44a0592de90"},"vehicle_type_id":"4","last_reported":1744704847,"current_range_meters":18000,"station_id":"ce4bgr92rcd13ifvqc6g","pricing_plan_id":"cebpf4jnsgd1na2vs0mg"},{"bike_id":"e4f6a6d7-74cc-467d-b2d5-77676616b2f1","system_id":"levelo_inurba_marseille","lat":43.299697,"lon":5.371425,"is_reserved":false,"is_disabled":false,"rental_uris":{"android":"levelo://app?vid=e4f6a6d7-74cc-467d-b2d5-77676616b2f1","ios":"levelo://app?vid=e4f6a6d7-74cc-467d-b2d5-77676616b2f1"},"vehicle_type_id":"4","last_reported":1744704847,"current_range_meters":18000,"station_id":"ce4bgup2rcd13ifvqcn0","pricing_plan_id":"cebpf4jnsgd1na2vs0mg"},{"bike_id":"48250e38-bd63-436f-bfd4-a31a2e6f29dd","system_id":"levelo_inurba_marseille","lat":43.25587,"lon":5.38231,"is_reserved":false,"is_disabled":false,"rental_uris":{"android":"levelo://app?vid=48250e38-bd63-436f-bfd4-a31a2e6f29dd","ios":"levelo://app?vid=48250e38-bd63-436f-bfd4-a31a2e6f29dd"},"vehicle_type_id":"4","last_reported":1744704847,"current_range_meters":18800,"station_id":"ce4bhih2rcd13ifvqfs0","pricing_plan_id":"cebpf4jnsgd1na2vs0mg"},{"bike_id":"44be248b-85b6-4c95-aac4-5dd00edc7114","system_id":"levelo_inurba_marseille","lat":43.30566,"lon":5.36529,"is_reserved":false,"is_disabled":false,"rental_uris":{"android":"levelo://app?vid=44be248b-85b6-4c95-aac4-5dd00edc7114","ios":"levelo://app?vid=44be248b-85b6-4c95-aac4-5dd00edc7114"},"vehicle_type_id":"4","last_reported":1744704847,"current_range_meters":19200,"station_id":"ce4bgs12rcd13ifvqcag","pricing_plan_id":"cebpf4jnsgd1na2vs0mg"},{"bike_id":"e574b3d2-7d50-422d-a320-1dbd226a92e3","system_id":"levelo_inurba_marseille","lat":43.24668,"lon":5.38155,"is_reserved":false,"is_disabled":false,"rental_uris":{"android":"levelo://app?vid=e574b3d2-7d50-422d-a320-1dbd226a92e3","ios":"levelo://app?vid=e574b3d2-7d50-422d-a320-1dbd226a92e3"},"vehicle_type_id":"4","last_reported":1744704847,"current_range_meters":19200,"station_id":"ce4bhih2rcd13ifvqfr0","pricing_plan_id":"cebpf4jnsgd1na2vs0mg"},{"bike_id":"83f98cb4-c8f0-4ae1-aecb-ee6404985c91","system_id":"levelo_inurba_marseille","lat":43.26207,"lon":5.37924,"is_reserved":false,"is_disabled":false,"rental_uris":{"android":"levelo://app?vid=83f98cb4-c8f0-4ae1-aecb-ee6404985c91","ios":"levelo://app?vid=83f98cb4-c8f0-4ae1-aecb-ee6404985c91"},"vehicle_type_id":"4","last_reported":1744704847,"current_range_meters":19200,"station_id":"ce4bhjp2rcd13ifvqg90","pricing_plan_id":"cebpf4jnsgd1na2vs0mg"},{"bike_id":"db06721d-1ee1-431c-a317-214c373163e8","system_id":"levelo_inurba_marseille","lat":43.310815,"lon":5.424349,"is_reserved":false,"is_disabled":false,"rental_uris":{"android":"levelo://app?vid=db06721d-1ee1-431c-a317-214c373163e8","ios":"levelo://app?vid=db06721d-1ee1-431c-a317-214c373163e8"},"vehicle_type_id":"4","last_reported":1744704847,"current_range_meters":19200,"station_id":"ce4bhp92rcd13ifvqhag","pricing_plan_id":"cebpf4jnsgd1na2vs0mg"},{"bike_id":"e2d993a7-ad0e-43a3-bc4c-0b30a0692c7a","system_id":"levelo_inurba_marseille","lat":43.29618,"lon":5.37721,"is_reserved":false,"is_disabled":false,"rental_uris":{"android":"levelo://app?vid=e2d993a7-ad0e-43a3-bc4c-0b30a0692c7a","ios":"levelo://app?vid=e2d993a7-ad0e-43a3-bc4c-0b30a0692c7a"},"vehicle_type_id":"4","last_reported":1744704847,"current_range_meters":19200,"station_id":"ce4bgi92rcd13ifvqb90","pricing_plan_id":"cebpf4jnsgd1na2vs0mg"},{"bike_id":"df48cf7d-f898-49eb-87ea-51f5181e82f8","system_id":"levelo_inurba_marseille","lat":43.29262,"lon":5.37641,"is_reserved":false,"is_disabled":false,"rental_uris":{"android":"levelo://app?vid=df48cf7d-f898-49eb-87ea-51f5181e82f8","ios":"levelo://app?vid=df48cf7d-f898-49eb-87ea-51f5181e82f8"},"vehicle_type_id":"4","last_reported":1744704847,"current_range_meters":19200,"station_id":"ce4bgi12rcd13ifvqb80","pricing_plan_id":"cebpf4jnsgd1na2vs0mg"},{"bike_id":"9a6b2d54-3810-49fa-8ff1-f2eae0833f68","system_id":"levelo_inurba_marseille","lat":43.32357,"lon":5.36752,"is_reserved":false,"is_disabled":false,"rental_uris":{"android":"levelo://app?vid=9a6b2d54-3810-49fa-8ff1-f2eae0833f68","ios":"levelo://app?vid=9a6b2d54-3810-49fa-8ff1-f2eae0833f68"},"vehicle_type_id":"4","last_reported":1744704847,"current_range_meters":19200,"station_id":"ce4bhsh2rcd13ifvqi2g","pricing_plan_id":"cebpf4jnsgd1na2vs0mg"},{"bike_id":"5ed988c6-97c1-49bb-b29a-2551d5b34a63","system_id":"levelo_inurba_marseille","lat":43.27314,"lon":5.39083,"is_reserved":false,"is_disabled":false,"rental_uris":{"android":"levelo://app?vid=5ed988c6-97c1-49bb-b29a-2551d5b34a63","ios":"levelo://app?vid=5ed988c6-97c1-49bb-b29a-2551d5b34a63"},"vehicle_type_id":"4","last_reported":1744704847,"current_range_meters":19200,"station_id":"ce4bhgp2rcd13ifvqfe0","pricing_plan_id":"cebpf4jnsgd1na2vs0mg"},{"bike_id":"a0ddb0a5-f7f0-4281-aa27-9e82747cc573","system_id":"levelo_inurba_marseille","lat":43.33759,"lon":5.37423,"is_reserved":false,"is_disabled":false,"rental_uris":{"android":"levelo://app?vid=a0ddb0a5-f7f0-4281-aa27-9e82747cc573","ios":"levelo://app?vid=a0ddb0a5-f7f0-4281-aa27-9e82747cc573"},"vehicle_type_id":"4","last_reported":1744704847,"current_range_meters":19200,"station_id":"","pricing_plan_id":"cebpf4jnsgd1na2vs0mg"},{"bike_id":"62bf5b0d-1033-4d53-82d5-6f82933770b1","system_id":"levelo_inurba_marseille","lat":43.291199,"lon":5.38266,"is_reserved":false,"is_disabled":false,"rental_uris":{"android":"levelo://app?vid=62bf5b0d-1033-4d53-82d5-6f82933770b1","ios":"levelo://app?vid=62bf5b0d-1033-4d53-82d5-6f82933770b1"},"vehicle_type_id":"4","last_reported":1744704847,"current_range_meters":19600,"station_id":"ce4bgop2rcd13ifvqc1g","pricing_plan_id":"cebpf4jnsgd1na2vs0mg"},{"bike_id":"8422d098-67fd-4320-85a5-2bb0acedff57","system_id":"levelo_inurba_marseille","lat":43.33777,"lon":5.37417,"is_reserved":false,"is_disabled":false,"rental_uris":{"android":"levelo://app?vid=8422d098-67fd-4320-85a5-2bb0acedff57","ios":"levelo://app?vid=8422d098-67fd-4320-85a5-2bb0acedff57"},"vehicle_type_id":"4","last_reported":1744704847,"current_range_meters":19600,"station_id":"","pricing_plan_id":"cebpf4jnsgd1na2vs0mg"},{"bike_id":"4d4d0d48-2b72-44fe-b3a8-f9dca5bf8536","system_id":"levelo_inurba_marseille","lat":43.26534,"lon":5.3729,"is_reserved":false,"is_disabled":false,"rental_uris":{"android":"levelo://app?vid=4d4d0d48-2b72-44fe-b3a8-f9dca5bf8536","ios":"levelo://app?vid=4d4d0d48-2b72-44fe-b3a8-f9dca5bf8536"},"vehicle_type_id":"4","last_reported":1744704847,"current_range_meters":19600,"station_id":"ce4bhg12rcd13ifvqf70","pricing_plan_id":"cebpf4jnsgd1na2vs0mg"},{"bike_id":"695f6c81-76a3-4b91-bddc-cdcca1f505fb","system_id":"levelo_inurba_marseille","lat":43.32472,"lon":5.36581,"is_reserved":false,"is_disabled":false,"rental_uris":{"android":"levelo://app?vid=695f6c81-76a3-4b91-bddc-cdcca1f505fb","ios":"levelo://app?vid=695f6c81-76a3-4b91-bddc-cdcca1f505fb"},"vehicle_type_id":"4","last_reported":1744704847,"current_range_meters":20800,"station_id":"ce4bhs12rcd13ifvqhvg","pricing_plan_id":"cebpf4jnsgd1na2vs0mg"},{"bike_id":"f28ab945-c9df-4b0b-be4c-c2ea61470e17","system_id":"levelo_inurba_marseille","lat":43.32496,"lon":5.36583,"is_reserved":false,"is_disabled":false,"rental_uris":{"android":"levelo://app?vid=f28ab945-c9df-4b0b-be4c-c2ea61470e17","ios":"levelo://app?vid=f28ab945-c9df-4b0b-be4c-c2ea61470e17"},"vehicle_type_id":"4","last_reported":1744704847,"current_range_meters":19600,"station_id":"ce4bhs12rcd13ifvqhvg","pricing_plan_id":"cebpf4jnsgd1na2vs0mg"},{"bike_id":"b94fbd82-645f-47c5-b6f6-1cc5b350e712","system_id":"levelo_inurba_marseille","lat":43.31371,"lon":5.38491,"is_reserved":false,"is_disabled":false,"rental_uris":{"android":"levelo://app?vid=b94fbd82-645f-47c5-b6f6-1cc5b350e712","ios":"levelo://app?vid=b94fbd82-645f-47c5-b6f6-1cc5b350e712"},"vehicle_type_id":"4","last_reported":1744704847,"current_range_meters":20000,"station_id":"ce4bgt92rcd13ifvqcf0","pricing_plan_id":"cebpf4jnsgd1na2vs0mg"},{"bike_id":"9b03b95e-24ad-4fcc-ac76-bccf106753b9","system_id":"levelo_inurba_marseille","lat":43.2926,"lon":5.40914,"is_reserved":false,"is_disabled":false,"rental_uris":{"android":"levelo://app?vid=9b03b95e-24ad-4fcc-ac76-bccf106753b9","ios":"levelo://app?vid=9b03b95e-24ad-4fcc-ac76-bccf106753b9"},"vehicle_type_id":"4","last_reported":1744704847,"current_range_meters":20000,"station_id":"ce4bh192rcd13ifvqdc0","pricing_plan_id":"cebpf4jnsgd1na2vs0mg"},{"bike_id":"a8ed8bfe-e018-4ae7-b755-72caf268e29f","system_id":"levelo_inurba_marseille","lat":43.30159,"lon":5.38112,"is_reserved":false,"is_disabled":true,"rental_uris":{"android":"levelo://app?vid=a8ed8bfe-e018-4ae7-b755-72caf268e29f","ios":"levelo://app?vid=a8ed8bfe-e018-4ae7-b755-72caf268e29f"},"vehicle_type_id":"4","last_reported":1744704847,"current_range_meters":20000,"station_id":"ce4bgjp2rcd13ifvqbh0","pricing_plan_id":"cebpf4jnsgd1na2vs0mg"},{"bike_id":"b300a2b6-03b3-4b4f-9ddd-d90215fe44fe","system_id":"levelo_inurba_marseille","lat":43.3204,"lon":5.38145,"is_reserved":false,"is_disabled":false,"rental_uris":{"android":"levelo://app?vid=b300a2b6-03b3-4b4f-9ddd-d90215fe44fe","ios":"levelo://app?vid=b300a2b6-03b3-4b4f-9ddd-d90215fe44fe"},"vehicle_type_id":"4","last_reported":1744704847,"current_range_meters":20000,"station_id":"","pricing_plan_id":"cebpf4jnsgd1na2vs0mg"},{"bike_id":"b4a1b8e2-0c5c-422b-a403-b3f872d4a927","system_id":"levelo_inurba_marseille","lat":43.28617,"lon":5.351,"is_reserved":false,"is_disabled":false,"rental_uris":{"android":"levelo://app?vid=b4a1b8e2-0c5c-422b-a403-b3f872d4a927","ios":"levelo://app?vid=b4a1b8e2-0c5c-422b-a403-b3f872d4a927"},"vehicle_type_id":"4","last_reported":1744704847,"current_range_meters":20400,"station_id":"ce4bhch2rcd13ifvqeug","pricing_plan_id":"cebpf4jnsgd1na2vs0mg"},{"bike_id":"846062da-9234-4287-9da7-b9e2f0d486c7","system_id":"levelo_inurba_marseille","lat":43.30552,"lon":5.3653,"is_reserved":false,"is_disabled":false,"rental_uris":{"android":"levelo://app?vid=846062da-9234-4287-9da7-b9e2f0d486c7","ios":"levelo://app?vid=846062da-9234-4287-9da7-b9e2f0d486c7"},"vehicle_type_id":"4","last_reported":1744704847,"current_range_meters":20400,"station_id":"ce4bgs12rcd13ifvqcag","pricing_plan_id":"cebpf4jnsgd1na2vs0mg"},{"bike_id":"c96f8076-74c1-4118-9f4e-192049c4ecb4","system_id":"levelo_inurba_marseille","lat":43.25822,"lon":5.3945,"is_reserved":false,"is_disabled":false,"rental_uris":{"android":"levelo://app?vid=c96f8076-74c1-4118-9f4e-192049c4ecb4","ios":"levelo://app?vid=c96f8076-74c1-4118-9f4e-192049c4ecb4"},"vehicle_type_id":"4","last_reported":1744704847,"current_range_meters":20400,"station_id":"ce4bhip2rcd13ifvqft0","pricing_plan_id":"cebpf4jnsgd1na2vs0mg"},{"bike_id":"db245f04-b034-4265-9f8f-ce8ea6130f12","system_id":"levelo_inurba_marseille","lat":43.24183,"lon":5.39715,"is_reserved":false,"is_disabled":false,"rental_uris":{"android":"levelo://app?vid=db245f04-b034-4265-9f8f-ce8ea6130f12","ios":"levelo://app?vid=db245f04-b034-4265-9f8f-ce8ea6130f12"},"vehicle_type_id":"4","last_reported":1744704847,"current_range_meters":20400,"station_id":"ce4bhn12rcd13ifvqgpg","pricing_plan_id":"cebpf4jnsgd1na2vs0mg"},{"bike_id":"fa8b5d88-c56b-4501-99c1-1b5a6dfd1f66","system_id":"levelo_inurba_marseille","lat":43.21219,"lon":5.35064,"is_reserved":false,"is_disabled":false,"rental_uris":{"android":"levelo://app?vid=fa8b5d88-c56b-4501-99c1-1b5a6dfd1f66","ios":"levelo://app?vid=fa8b5d88-c56b-4501-99c1-1b5a6dfd1f66"},"vehicle_type_id":"4","last_reported":1744704847,"current_range_meters":20400,"station_id":"st_cvj6sg6p6f1abm77japg","pricing_plan_id":"cebpf4jnsgd1na2vs0mg"},{"bike_id":"729f3ced-436b-45fb-817c-5716c04c6116","system_id":"levelo_inurba_marseille","lat":43.30918,"lon":5.36848,"is_reserved":false,"is_disabled":false,"rental_uris":{"android":"levelo://app?vid=729f3ced-436b-45fb-817c-5716c04c6116","ios":"levelo://app?vid=729f3ced-436b-45fb-817c-5716c04c6116"},"vehicle_type_id":"4","last_reported":1744704847,"current_range_meters":20800,"station_id":"ce4bgn92rcd13ifvqbvg","pricing_plan_id":"cebpf4jnsgd1na2vs0mg"},{"bike_id":"810942cf-4e8e-49c5-a9b0-1039f0bcecc3","system_id":"levelo_inurba_marseille","lat":43.30562,"lon":5.36521,"is_reserved":false,"is_disabled":false,"rental_uris":{"android":"levelo://app?vid=810942cf-4e8e-49c5-a9b0-1039f0bcecc3","ios":"levelo://app?vid=810942cf-4e8e-49c5-a9b0-1039f0bcecc3"},"vehicle_type_id":"4","last_reported":1744704847,"current_range_meters":20800,"station_id":"ce4bgs12rcd13ifvqcag","pricing_plan_id":"cebpf4jnsgd1na2vs0mg"},{"bike_id":"1d35d631-63a7-4cdc-8525-7141f562f992","system_id":"levelo_inurba_marseille","lat":43.26932,"lon":5.38912,"is_reserved":false,"is_disabled":false,"rental_uris":{"android":"levelo://app?vid=1d35d631-63a7-4cdc-8525-7141f562f992","ios":"levelo://app?vid=1d35d631-63a7-4cdc-8525-7141f562f992"},"vehicle_type_id":"4","last_reported":1744704847,"current_range_meters":20800,"station_id":"ce4bhhh2rcd13ifvqfl0","pricing_plan_id":"cebpf4jnsgd1na2vs0mg"},{"bike_id":"79b46f1f-bea9-43f2-8221-92740df54b5c","system_id":"levelo_inurba_marseille","lat":43.305207,"lon":5.367316,"is_reserved":false,"is_disabled":false,"rental_uris":{"android":"levelo://app?vid=79b46f1f-bea9-43f2-8221-92740df54b5c","ios":"levelo://app?vid=79b46f1f-bea9-43f2-8221-92740df54b5c"},"vehicle_type_id":"4","last_reported":1744704847,"current_range_meters":20800,"station_id":"ce4bgrp2rcd13ifvqc9g","pricing_plan_id":"cebpf4jnsgd1na2vs0mg"},{"bike_id":"869295e6-db10-4928-9cec-aebf34125677","system_id":"levelo_inurba_marseille","lat":43.30129,"lon":5.37458,"is_reserved":false,"is_disabled":false,"rental_uris":{"android":"levelo://app?vid=869295e6-db10-4928-9cec-aebf34125677","ios":"levelo://app?vid=869295e6-db10-4928-9cec-aebf34125677"},"vehicle_type_id":"4","last_reported":1744704847,"current_range_meters":20800,"station_id":"ce4bgs92rcd13ifvqcc0","pricing_plan_id":"cebpf4jnsgd1na2vs0mg"},{"bike_id":"43f820f0-0342-4d95-ba30-10f7052e7118","system_id":"levelo_inurba_marseille","lat":43.27969,"lon":5.38733,"is_reserved":false,"is_disabled":false,"rental_uris":{"android":"levelo://app?vid=43f820f0-0342-4d95-ba30-10f7052e7118","ios":"levelo://app?vid=43f820f0-0342-4d95-ba30-10f7052e7118"},"vehicle_type_id":"4","last_reported":1744704847,"current_range_meters":20800,"station_id":"ce4bhg12rcd13ifvqf80","pricing_plan_id":"cebpf4jnsgd1na2vs0mg"},{"bike_id":"7ad0bf0f-5294-442b-8825-791f1416a999","system_id":"levelo_inurba_marseille","lat":43.24182,"lon":5.39733,"is_reserved":false,"is_disabled":false,"rental_uris":{"android":"levelo://app?vid=7ad0bf0f-5294-442b-8825-791f1416a999","ios":"levelo://app?vid=7ad0bf0f-5294-442b-8825-791f1416a999"},"vehicle_type_id":"4","last_reported":1744704847,"current_range_meters":20800,"station_id":"ce4bhn12rcd13ifvqgpg","pricing_plan_id":"cebpf4jnsgd1na2vs0mg"},{"bike_id":"47b13017-6eff-4b8c-8bb2-c382e3140695","system_id":"levelo_inurba_marseille","lat":43.29806,"lon":5.38093,"is_reserved":false,"is_disabled":false,"rental_uris":{"android":"levelo://app?vid=47b13017-6eff-4b8c-8bb2-c382e3140695","ios":"levelo://app?vid=47b13017-6eff-4b8c-8bb2-c382e3140695"},"vehicle_type_id":"4","last_reported":1744704847,"current_range_meters":21600,"station_id":"ce4bgip2rcd13ifvqbb0","pricing_plan_id":"cebpf4jnsgd1na2vs0mg"},{"bike_id":"d3dadf3c-267f-4ab5-a362-b44275dc0de8","system_id":"levelo_inurba_marseille","lat":43.26065,"lon":5.39397,"is_reserved":false,"is_disabled":false,"rental_uris":{"android":"levelo://app?vid=d3dadf3c-267f-4ab5-a362-b44275dc0de8","ios":"levelo://app?vid=d3dadf3c-267f-4ab5-a362-b44275dc0de8"},"vehicle_type_id":"4","last_reported":1744704847,"current_range_meters":20800,"station_id":"ce4bhh92rcd13ifvqfj0","pricing_plan_id":"cebpf4jnsgd1na2vs0mg"},{"bike_id":"c2d444b5-2205-4b26-8106-50ad97c6f270","system_id":"levelo_inurba_marseille","lat":43.30547,"lon":5.36555,"is_reserved":false,"is_disabled":false,"rental_uris":{"android":"levelo://app?vid=c2d444b5-2205-4b26-8106-50ad97c6f270","ios":"levelo://app?vid=c2d444b5-2205-4b26-8106-50ad97c6f270"},"vehicle_type_id":"4","last_reported":1744704847,"current_range_meters":21600,"station_id":"ce4bgs12rcd13ifvqcag","pricing_plan_id":"cebpf4jnsgd1na2vs0mg"},{"bike_id":"6bf5a380-400e-4cd6-bc1e-356afac9ee45","system_id":"levelo_inurba_marseille","lat":43.24173,"lon":5.36399,"is_reserved":false,"is_disabled":false,"rental_uris":{"android":"levelo://app?vid=6bf5a380-400e-4cd6-bc1e-356afac9ee45","ios":"levelo://app?vid=6bf5a380-400e-4cd6-bc1e-356afac9ee45"},"vehicle_type_id":"4","last_reported":1744704847,"current_range_meters":21600,"station_id":"cpo36qri1sfpv3e86is0","pricing_plan_id":"cebpf4jnsgd1na2vs0mg"},{"bike_id":"2bb741ba-0d18-48a7-9671-fb9c7ef28487","system_id":"levelo_inurba_marseille","lat":43.280353,"lon":5.369505,"is_reserved":false,"is_disabled":false,"rental_uris":{"android":"levelo://app?vid=2bb741ba-0d18-48a7-9671-fb9c7ef28487","ios":"levelo://app?vid=2bb741ba-0d18-48a7-9671-fb9c7ef28487"},"vehicle_type_id":"4","last_reported":1744704847,"current_range_meters":20800,"station_id":"ce4bha12rcd13ifvqef0","pricing_plan_id":"cebpf4jnsgd1na2vs0mg"},{"bike_id":"b6698060-0f55-4ea2-a965-703f68491dd0","system_id":"levelo_inurba_marseille","lat":43.25004,"lon":5.38926,"is_reserved":false,"is_disabled":false,"rental_uris":{"android":"levelo://app?vid=b6698060-0f55-4ea2-a965-703f68491dd0","ios":"levelo://app?vid=b6698060-0f55-4ea2-a965-703f68491dd0"},"vehicle_type_id":"4","last_reported":1744704847,"current_range_meters":21600,"station_id":"ce4bhgp2rcd13ifvqfd0","pricing_plan_id":"cebpf4jnsgd1na2vs0mg"},{"bike_id":"61e2e6f2-9566-474d-a927-de589bf07cb3","system_id":"levelo_inurba_marseille","lat":43.303174,"lon":5.392011,"is_reserved":false,"is_disabled":false,"rental_uris":{"android":"levelo://app?vid=61e2e6f2-9566-474d-a927-de589bf07cb3","ios":"levelo://app?vid=61e2e6f2-9566-474d-a927-de589bf07cb3"},"vehicle_type_id":"4","last_reported":1744704847,"current_range_meters":21600,"station_id":"ce4bgkh2rcd13ifvqbk0","pricing_plan_id":"cebpf4jnsgd1na2vs0mg"},{"bike_id":"415c8c3e-64b9-403d-a4ba-79287b8a6ccf","system_id":"levelo_inurba_marseille","lat":43.26688,"lon":5.38274,"is_reserved":false,"is_disabled":false,"rental_uris":{"android":"levelo://app?vid=415c8c3e-64b9-403d-a4ba-79287b8a6ccf","ios":"levelo://app?vid=415c8c3e-64b9-403d-a4ba-79287b8a6ccf"},"vehicle_type_id":"4","last_reported":1744704847,"current_range_meters":21600,"station_id":"ce4bhg92rcd13ifvqf90","pricing_plan_id":"cebpf4jnsgd1na2vs0mg"},{"bike_id":"e65d2fcf-5b1f-41b3-a763-72d500e02a9e","system_id":"levelo_inurba_marseille","lat":43.23148,"lon":5.43708,"is_reserved":false,"is_disabled":false,"rental_uris":{"android":"levelo://app?vid=e65d2fcf-5b1f-41b3-a763-72d500e02a9e","ios":"levelo://app?vid=e65d2fcf-5b1f-41b3-a763-72d500e02a9e"},"vehicle_type_id":"4","last_reported":1744704847,"current_range_meters":21600,"station_id":"ce4bhmp2rcd13ifvqgog","pricing_plan_id":"cebpf4jnsgd1na2vs0mg"},{"bike_id":"b240f9d8-ae13-4348-a109-0b3c39d47a69","system_id":"levelo_inurba_marseille","lat":43.26704,"lon":5.38259,"is_reserved":false,"is_disabled":false,"rental_uris":{"android":"levelo://app?vid=b240f9d8-ae13-4348-a109-0b3c39d47a69","ios":"levelo://app?vid=b240f9d8-ae13-4348-a109-0b3c39d47a69"},"vehicle_type_id":"4","last_reported":1744704847,"current_range_meters":21600,"station_id":"ce4bhg92rcd13ifvqf90","pricing_plan_id":"cebpf4jnsgd1na2vs0mg"},{"bike_id":"85c84169-58ea-4013-b0e6-ef63708698ca","system_id":"levelo_inurba_marseille","lat":43.30319,"lon":5.36897,"is_reserved":false,"is_disabled":false,"rental_uris":{"android":"levelo://app?vid=85c84169-58ea-4013-b0e6-ef63708698ca","ios":"levelo://app?vid=85c84169-58ea-4013-b0e6-ef63708698ca"},"vehicle_type_id":"4","last_reported":1744704847,"current_range_meters":21600,"station_id":"ce4bgqh2rcd13ifvqc5g","pricing_plan_id":"cebpf4jnsgd1na2vs0mg"},{"bike_id":"233b20d5-bd3c-49be-9888-3457267777f3","system_id":"levelo_inurba_marseille","lat":43.28977,"lon":5.37832,"is_reserved":false,"is_disabled":false,"rental_uris":{"android":"levelo://app?vid=233b20d5-bd3c-49be-9888-3457267777f3","ios":"levelo://app?vid=233b20d5-bd3c-49be-9888-3457267777f3"},"vehicle_type_id":"4","last_reported":1744704847,"current_range_meters":21600,"station_id":"ce4bh9p2rcd13ifvqed0","pricing_plan_id":"cebpf4jnsgd1na2vs0mg"},{"bike_id":"f06c4394-df29-478f-b606-e38b32292526","system_id":"levelo_inurba_marseille","lat":43.26682,"lon":5.3827,"is_reserved":false,"is_disabled":false,"rental_uris":{"android":"levelo://app?vid=f06c4394-df29-478f-b606-e38b32292526","ios":"levelo://app?vid=f06c4394-df29-478f-b606-e38b32292526"},"vehicle_type_id":"4","last_reported":1744704847,"current_range_meters":22000,"station_id":"ce4bhg92rcd13ifvqf90","pricing_plan_id":"cebpf4jnsgd1na2vs0mg"},{"bike_id":"4c0ede51-6b22-44f8-8575-b86906a20779","system_id":"levelo_inurba_marseille","lat":43.2178,"lon":5.346,"is_reserved":false,"is_disabled":false,"rental_uris":{"android":"levelo://app?vid=4c0ede51-6b22-44f8-8575-b86906a20779","ios":"levelo://app?vid=4c0ede51-6b22-44f8-8575-b86906a20779"},"vehicle_type_id":"4","last_reported":1744704847,"current_range_meters":22000,"station_id":"st_cvj6r9ubvosntc0bgbag","pricing_plan_id":"cebpf4jnsgd1na2vs0mg"},{"bike_id":"cc1f515d-311e-4613-a53f-44b0647e0915","system_id":"levelo_inurba_marseille","lat":43.240754,"lon":5.377586,"is_reserved":false,"is_disabled":false,"rental_uris":{"android":"levelo://app?vid=cc1f515d-311e-4613-a53f-44b0647e0915","ios":"levelo://app?vid=cc1f515d-311e-4613-a53f-44b0647e0915"},"vehicle_type_id":"4","last_reported":1744704847,"current_range_meters":21600,"station_id":"ce4bhnp2rcd13ifvqgvg","pricing_plan_id":"cebpf4jnsgd1na2vs0mg"},{"bike_id":"7fe53060-f58c-453a-8dd8-0c151563c42e","system_id":"levelo_inurba_marseille","lat":43.29299,"lon":5.37454,"is_reserved":false,"is_disabled":false,"rental_uris":{"android":"levelo://app?vid=7fe53060-f58c-453a-8dd8-0c151563c42e","ios":"levelo://app?vid=7fe53060-f58c-453a-8dd8-0c151563c42e"},"vehicle_type_id":"4","last_reported":1744704847,"current_range_meters":23200,"station_id":"ce4bgi12rcd13ifvqb70","pricing_plan_id":"cebpf4jnsgd1na2vs0mg"},{"bike_id":"e40e73b5-67df-4686-bac7-b5790df9b91e","system_id":"levelo_inurba_marseille","lat":43.26788,"lon":5.39415,"is_reserved":false,"is_disabled":false,"rental_uris":{"android":"levelo://app?vid=e40e73b5-67df-4686-bac7-b5790df9b91e","ios":"levelo://app?vid=e40e73b5-67df-4686-bac7-b5790df9b91e"},"vehicle_type_id":"4","last_reported":1744704847,"current_range_meters":22000,"station_id":"ce4bhh12rcd13ifvqfg0","pricing_plan_id":"cebpf4jnsgd1na2vs0mg"},{"bike_id":"75aeda06-bbc2-4b16-85f7-54753a374ed6","system_id":"levelo_inurba_marseille","lat":43.23601,"lon":5.40357,"is_reserved":false,"is_disabled":false,"rental_uris":{"android":"levelo://app?vid=75aeda06-bbc2-4b16-85f7-54753a374ed6","ios":"levelo://app?vid=75aeda06-bbc2-4b16-85f7-54753a374ed6"},"vehicle_type_id":"4","last_reported":1744704847,"current_range_meters":22000,"station_id":"","pricing_plan_id":"cebpf4jnsgd1na2vs0mg"},{"bike_id":"21807a90-4bec-4bae-b858-e6053114148e","system_id":"levelo_inurba_marseille","lat":43.301453,"lon":5.380873,"is_reserved":false,"is_disabled":false,"rental_uris":{"android":"levelo://app?vid=21807a90-4bec-4bae-b858-e6053114148e","ios":"levelo://app?vid=21807a90-4bec-4bae-b858-e6053114148e"},"vehicle_type_id":"4","last_reported":1744704847,"current_range_meters":22000,"station_id":"ce4bhk92rcd13ifvqgb0","pricing_plan_id":"cebpf4jnsgd1na2vs0mg"},{"bike_id":"78595723-98dc-44b7-9b87-97529b0548f5","system_id":"levelo_inurba_marseille","lat":43.25028,"lon":5.38939,"is_reserved":false,"is_disabled":false,"rental_uris":{"android":"levelo://app?vid=78595723-98dc-44b7-9b87-97529b0548f5","ios":"levelo://app?vid=78595723-98dc-44b7-9b87-97529b0548f5"},"vehicle_type_id":"4","last_reported":1744704847,"current_range_meters":22000,"station_id":"ce4bhgp2rcd13ifvqfd0","pricing_plan_id":"cebpf4jnsgd1na2vs0mg"},{"bike_id":"4b35b685-5fed-4de4-838c-4970d7589d89","system_id":"levelo_inurba_marseille","lat":43.28709,"lon":5.39989,"is_reserved":false,"is_disabled":true,"rental_uris":{"android":"levelo://app?vid=4b35b685-5fed-4de4-838c-4970d7589d89","ios":"levelo://app?vid=4b35b685-5fed-4de4-838c-4970d7589d89"},"vehicle_type_id":"4","last_reported":1744704847,"current_range_meters":22000,"station_id":"ce4bho92rcd13ifvqh3g","pricing_plan_id":"cebpf4jnsgd1na2vs0mg"},{"bike_id":"174c2c9b-2f0a-47fb-998b-9f7260f2f135","system_id":"levelo_inurba_marseille","lat":43.30718,"lon":5.42444,"is_reserved":false,"is_disabled":false,"rental_uris":{"android":"levelo://app?vid=174c2c9b-2f0a-47fb-998b-9f7260f2f135","ios":"levelo://app?vid=174c2c9b-2f0a-47fb-998b-9f7260f2f135"},"vehicle_type_id":"4","last_reported":1744704847,"current_range_meters":22400,"station_id":"st_cvj6ca6bvosntc0bfgr0","pricing_plan_id":"cebpf4jnsgd1na2vs0mg"},{"bike_id":"60ec4175-4537-435a-95f9-8e40681109c0","system_id":"levelo_inurba_marseille","lat":43.31299,"lon":5.36719,"is_reserved":false,"is_disabled":false,"rental_uris":{"android":"levelo://app?vid=60ec4175-4537-435a-95f9-8e40681109c0","ios":"levelo://app?vid=60ec4175-4537-435a-95f9-8e40681109c0"},"vehicle_type_id":"4","last_reported":1744704847,"current_range_meters":22400,"station_id":"ce4bgr92rcd13ifvqc6g","pricing_plan_id":"cebpf4jnsgd1na2vs0mg"},{"bike_id":"bf808ac6-d172-4f9e-9693-b1966903fe9e","system_id":"levelo_inurba_marseille","lat":43.29302,"lon":5.37451,"is_reserved":false,"is_disabled":false,"rental_uris":{"android":"levelo://app?vid=bf808ac6-d172-4f9e-9693-b1966903fe9e","ios":"levelo://app?vid=bf808ac6-d172-4f9e-9693-b1966903fe9e"},"vehicle_type_id":"4","last_reported":1744704847,"current_range_meters":22400,"station_id":"ce4bgi12rcd13ifvqb70","pricing_plan_id":"cebpf4jnsgd1na2vs0mg"},{"bike_id":"68fa0d46-7071-4f65-8360-b33f91ad677c","system_id":"levelo_inurba_marseille","lat":43.29563,"lon":5.42264,"is_reserved":false,"is_disabled":false,"rental_uris":{"android":"levelo://app?vid=68fa0d46-7071-4f65-8360-b33f91ad677c","ios":"levelo://app?vid=68fa0d46-7071-4f65-8360-b33f91ad677c"},"vehicle_type_id":"4","last_reported":1744704847,"current_range_meters":22800,"station_id":"ce4bhph2rcd13ifvqhdg","pricing_plan_id":"cebpf4jnsgd1na2vs0mg"},{"bike_id":"a0af95fc-17ee-48c4-a528-672ae8d61f1c","system_id":"levelo_inurba_marseille","lat":43.299,"lon":5.4364,"is_reserved":false,"is_disabled":false,"rental_uris":{"android":"levelo://app?vid=a0af95fc-17ee-48c4-a528-672ae8d61f1c","ios":"levelo://app?vid=a0af95fc-17ee-48c4-a528-672ae8d61f1c"},"vehicle_type_id":"4","last_reported":1744704847,"current_range_meters":22800,"station_id":"ce4bhpp2rcd13ifvqhfg","pricing_plan_id":"cebpf4jnsgd1na2vs0mg"},{"bike_id":"960caa4c-48e7-4e00-bca7-aeefd828a0a0","system_id":"levelo_inurba_marseille","lat":43.279908,"lon":5.409511,"is_reserved":false,"is_disabled":false,"rental_uris":{"android":"levelo://app?vid=960caa4c-48e7-4e00-bca7-aeefd828a0a0","ios":"levelo://app?vid=960caa4c-48e7-4e00-bca7-aeefd828a0a0"},"vehicle_type_id":"4","last_reported":1744704847,"current_range_meters":22800,"station_id":"","pricing_plan_id":"cebpf4jnsgd1na2vs0mg"},{"bike_id":"310292d5-bdeb-40f7-a94f-9d2b542d5222","system_id":"levelo_inurba_marseille","lat":43.24155,"lon":5.36404,"is_reserved":false,"is_disabled":false,"rental_uris":{"android":"levelo://app?vid=310292d5-bdeb-40f7-a94f-9d2b542d5222","ios":"levelo://app?vid=310292d5-bdeb-40f7-a94f-9d2b542d5222"},"vehicle_type_id":"4","last_reported":1744704847,"current_range_meters":22800,"station_id":"cpo36qri1sfpv3e86is0","pricing_plan_id":"cebpf4jnsgd1na2vs0mg"},{"bike_id":"4d331a86-a3cb-4d7d-a2e2-e0d35e11dfb8","system_id":"levelo_inurba_marseille","lat":43.31259,"lon":5.36867,"is_reserved":false,"is_disabled":false,"rental_uris":{"android":"levelo://app?vid=4d331a86-a3cb-4d7d-a2e2-e0d35e11dfb8","ios":"levelo://app?vid=4d331a86-a3cb-4d7d-a2e2-e0d35e11dfb8"},"vehicle_type_id":"4","last_reported":1744704847,"current_range_meters":22800,"station_id":"ce4bgl92rcd13ifvqbq0","pricing_plan_id":"cebpf4jnsgd1na2vs0mg"},{"bike_id":"6c103f9f-c959-46ad-a2e8-e44f9660c68e","system_id":"levelo_inurba_marseille","lat":43.21198,"lon":5.3501,"is_reserved":false,"is_disabled":false,"rental_uris":{"android":"levelo://app?vid=6c103f9f-c959-46ad-a2e8-e44f9660c68e","ios":"levelo://app?vid=6c103f9f-c959-46ad-a2e8-e44f9660c68e"},"vehicle_type_id":"4","last_reported":1744704847,"current_range_meters":22800,"station_id":"","pricing_plan_id":"cebpf4jnsgd1na2vs0mg"},{"bike_id":"1e4003c0-38de-4542-bf74-776f6c5a5904","system_id":"levelo_inurba_marseille","lat":43.3091,"lon":5.36847,"is_reserved":false,"is_disabled":false,"rental_uris":{"android":"levelo://app?vid=1e4003c0-38de-4542-bf74-776f6c5a5904","ios":"levelo://app?vid=1e4003c0-38de-4542-bf74-776f6c5a5904"},"vehicle_type_id":"4","last_reported":1744704847,"current_range_meters":22800,"station_id":"ce4bgn92rcd13ifvqbvg","pricing_plan_id":"cebpf4jnsgd1na2vs0mg"},{"bike_id":"33f80e18-d024-473f-ad3d-36fe4c6cb4b9","system_id":"levelo_inurba_marseille","lat":43.246491,"lon":5.388912,"is_reserved":false,"is_disabled":false,"rental_uris":{"android":"levelo://app?vid=33f80e18-d024-473f-ad3d-36fe4c6cb4b9","ios":"levelo://app?vid=33f80e18-d024-473f-ad3d-36fe4c6cb4b9"},"vehicle_type_id":"4","last_reported":1744704847,"current_range_meters":22800,"station_id":"ce4bhg12rcd13ifvqf60","pricing_plan_id":"cebpf4jnsgd1na2vs0mg"},{"bike_id":"d6fee597-3293-47ae-914e-c48760e9f772","system_id":"levelo_inurba_marseille","lat":43.24068,"lon":5.37783,"is_reserved":false,"is_disabled":false,"rental_uris":{"android":"levelo://app?vid=d6fee597-3293-47ae-914e-c48760e9f772","ios":"levelo://app?vid=d6fee597-3293-47ae-914e-c48760e9f772"},"vehicle_type_id":"4","last_reported":1744704847,"current_range_meters":22800,"station_id":"ce4bhnp2rcd13ifvqgvg","pricing_plan_id":"cebpf4jnsgd1na2vs0mg"},{"bike_id":"4ad6cf84-1f1b-402d-9c85-ea036c499d2c","system_id":"levelo_inurba_marseille","lat":43.33604,"lon":5.41034,"is_reserved":false,"is_disabled":false,"rental_uris":{"android":"levelo://app?vid=4ad6cf84-1f1b-402d-9c85-ea036c499d2c","ios":"levelo://app?vid=4ad6cf84-1f1b-402d-9c85-ea036c499d2c"},"vehicle_type_id":"4","last_reported":1744704847,"current_range_meters":23200,"station_id":"ce4bhqh2rcd13ifvqhmg","pricing_plan_id":"cebpf4jnsgd1na2vs0mg"},{"bike_id":"c7f73e13-ce32-4228-9caa-cab90da998f5","system_id":"levelo_inurba_marseille","lat":43.295256,"lon":5.39037,"is_reserved":false,"is_disabled":true,"rental_uris":{"android":"levelo://app?vid=c7f73e13-ce32-4228-9caa-cab90da998f5","ios":"levelo://app?vid=c7f73e13-ce32-4228-9caa-cab90da998f5"},"vehicle_type_id":"4","last_reported":1744704847,"current_range_meters":23200,"station_id":"ce4bh3p2rcd13ifvqdp0","pricing_plan_id":"cebpf4jnsgd1na2vs0mg"},{"bike_id":"fead1799-e5e0-45fa-89dc-42d30d0e9a0b","system_id":"levelo_inurba_marseille","lat":43.26682,"lon":5.3827,"is_reserved":false,"is_disabled":false,"rental_uris":{"android":"levelo://app?vid=fead1799-e5e0-45fa-89dc-42d30d0e9a0b","ios":"levelo://app?vid=fead1799-e5e0-45fa-89dc-42d30d0e9a0b"},"vehicle_type_id":"4","last_reported":1744704847,"current_range_meters":23200,"station_id":"ce4bhg92rcd13ifvqf90","pricing_plan_id":"cebpf4jnsgd1na2vs0mg"},{"bike_id":"73b26e86-058a-4346-81f2-bd600853bdbe","system_id":"levelo_inurba_marseille","lat":43.29686,"lon":5.37302,"is_reserved":false,"is_disabled":false,"rental_uris":{"android":"levelo://app?vid=73b26e86-058a-4346-81f2-bd600853bdbe","ios":"levelo://app?vid=73b26e86-058a-4346-81f2-bd600853bdbe"},"vehicle_type_id":"4","last_reported":1744704847,"current_range_meters":23200,"station_id":"ce4bgk12rcd13ifvqbj0","pricing_plan_id":"cebpf4jnsgd1na2vs0mg"},{"bike_id":"598ce97c-5255-49d5-8c47-ae99741ed26c","system_id":"levelo_inurba_marseille","lat":43.30911,"lon":5.36853,"is_reserved":false,"is_disabled":false,"rental_uris":{"android":"levelo://app?vid=598ce97c-5255-49d5-8c47-ae99741ed26c","ios":"levelo://app?vid=598ce97c-5255-49d5-8c47-ae99741ed26c"},"vehicle_type_id":"4","last_reported":1744704847,"current_range_meters":23200,"station_id":"ce4bgn92rcd13ifvqbvg","pricing_plan_id":"cebpf4jnsgd1na2vs0mg"},{"bike_id":"b0ac7707-b5e8-480c-bd93-7abf5d074022","system_id":"levelo_inurba_marseille","lat":43.30563,"lon":5.367,"is_reserved":false,"is_disabled":false,"rental_uris":{"android":"levelo://app?vid=b0ac7707-b5e8-480c-bd93-7abf5d074022","ios":"levelo://app?vid=b0ac7707-b5e8-480c-bd93-7abf5d074022"},"vehicle_type_id":"4","last_reported":1744704847,"current_range_meters":23200,"station_id":"ce4bgrp2rcd13ifvqc9g","pricing_plan_id":"cebpf4jnsgd1na2vs0mg"},{"bike_id":"2ab1cfad-29c9-4c5c-ad6f-6e0ddd90fcd7","system_id":"levelo_inurba_marseille","lat":43.33737,"lon":5.39193,"is_reserved":false,"is_disabled":false,"rental_uris":{"android":"levelo://app?vid=2ab1cfad-29c9-4c5c-ad6f-6e0ddd90fcd7","ios":"levelo://app?vid=2ab1cfad-29c9-4c5c-ad6f-6e0ddd90fcd7"},"vehicle_type_id":"4","last_reported":1744704847,"current_range_meters":23200,"station_id":"ce4bhr92rcd13ifvqhsg","pricing_plan_id":"cebpf4jnsgd1na2vs0mg"},{"bike_id":"3576c861-3778-4fb5-9458-31cf04df92a6","system_id":"levelo_inurba_marseille","lat":43.30315,"lon":5.36902,"is_reserved":false,"is_disabled":false,"rental_uris":{"android":"levelo://app?vid=3576c861-3778-4fb5-9458-31cf04df92a6","ios":"levelo://app?vid=3576c861-3778-4fb5-9458-31cf04df92a6"},"vehicle_type_id":"4","last_reported":1744704847,"current_range_meters":23200,"station_id":"ce4bgqh2rcd13ifvqc5g","pricing_plan_id":"cebpf4jnsgd1na2vs0mg"},{"bike_id":"7911b44f-6c04-4afd-9da3-625f204a52f8","system_id":"levelo_inurba_marseille","lat":43.31355,"lon":5.36722,"is_reserved":false,"is_disabled":false,"rental_uris":{"android":"levelo://app?vid=7911b44f-6c04-4afd-9da3-625f204a52f8","ios":"levelo://app?vid=7911b44f-6c04-4afd-9da3-625f204a52f8"},