{"last_updated":1708970925,"ttl":30,"version":"2.2","data":{"bikes":[{"bike_id":"21a89ddb-00b0-4ee0-9a8c-43b25062cb26","system_id":"levelo_inurba_marseille","lat":43.31352,"lon":5.36706,"is_reserved":false,"is_disabled":false,"rental_uris":{"android":"levelo://app?vid=21a89ddb-00b0-4ee0-9a8c-43b25062cb26","ios":"levelo://app?vid=21a89ddb-00b0-4ee0-9a8c-43b25062cb26"},"vehicle_type_id":"4","last_reported":1708970925,"current_range_meters":0,"station_id":"ce4bgr92rcd13ifvqc6g","pricing_plan_id":"cebpf4jnsgd1na2vs0mg"},{"bike_id":"7027b35e-11e3-47d6-9a60-237c8f5cc643","system_id":"levelo_inurba_marseille","lat":43.312239,"lon":5.368562,"is_reserved":false,"is_disabled":false,"rental_uris":{"android":"levelo://app?vid=7027b35e-11e3-47d6-9a60-237c8f5cc643","ios":"levelo://app?vid=7027b35e-11e3-47d6-9a60-237c8f5cc643"},"vehicle_type_id":"4","last_reported":1708970925,"current_range_meters":22400,"station_id":"ce4bgl92rcd13ifvqbq0","pricing_plan_id":"cebpf4jnsgd1na2vs0mg"},{"bike_id":"46ef5d79-2704-4165-b998-47f2c074b1a1","system_id":"levelo_inurba_marseille","lat":43.314811,"lon":5.373104,"is_reserved":false,"is_disabled":false,"rental_uris":{"android":"levelo://app?vid=46ef5d79-2704-4165-b998-47f2c074b1a1","ios":"levelo://app?vid=46ef5d79-2704-4165-b998-47f2c074b1a1"},"vehicle_type_id":"4","last_reported":1708970925,"current_range_meters":29600,"station_id":"ce4bgt12rcd13ifvqcd0","pricing_plan_id":"cebpf4jnsgd1na2vs0mg"},{"bike_id":"767ce302-5c27-4858-90b9-c6d6feb56a8e","system_id":"levelo_inurba_marseille","lat":43.314811,"lon":5.373103,"is_reserved":false,"is_disabled":false,"rental_uris":{"android":"levelo://app?vid=767ce302-5c27-4858-90b9-c6d6feb56a8e","ios":"levelo://app?vid=767ce302-5c27-4858-90b9-c6d6feb56a8e"},"vehicle_type_id":"4","last_reported":1708970925,"current_range_meters":17200,"station_id":"ce4bgt12rcd13ifvqcd0","pricing_plan_id":"cebpf4jnsgd1na2vs0mg"},{"bike_id":"8ed8f312-4aeb-4364-b091-a5ad8876010e","system_id":"levelo_inurba_marseille","lat":43.314811,"lon":5.373103,"is_reserved":false,"is_disabled":false,"rental_uris":{"android":"levelo://app?vid=8ed8f312-4aeb-4364-b091-a5ad8876010e","ios":"levelo://app?vid=8ed8f312-4aeb-4364-b091-a5ad8876010e"},"vehicle_type_id":"4","last_reported":1708970925,"current_range_meters":4800,"station_id":"ce4bgt12rcd13ifvqcd0","pricing_plan_id":"cebpf4jnsgd1na2vs0mg"},{"bike_id":"ab11c381-4432-483c-9c8a-020edaf69084","system_id":"levelo_inurba_marseille","lat":43.31484,"lon":5.37306,"is_reserved":false,"is_disabled":false,"rental_uris":{"android":"levelo://app?vid=ab11c381-4432-483c-9c8a-020edaf69084","ios":"levelo://app?vid=ab11c381-4432-483c-9c8a-020edaf69084"},"vehicle_type_id":"4","last_reported":1708970925,"current_range_meters":0,"station_id":"ce4bgt12rcd13ifvqcd0","pricing_plan_id":"cebpf4jnsgd1na2vs0mg"},{"bike_id":"1104a193-5fa3-4431-9c01-77cc7d791361","system_id":"levelo_inurba_marseille","lat":43.314811,"lon":5.373103,"is_reserved":false,"is_disabled":false,"rental_uris":{"android":"levelo://app?vid=1104a193-5fa3-4431-9c01-77cc7d791361","ios":"levelo://app?vid=1104a193-5fa3-4431-9c01-77cc7d791361"},"vehicle_type_id":"4","last_reported":1708970925,"current_range_meters":6000,"station_id":"ce4bgt12rcd13ifvqcd0","pricing_plan_id":"cebpf4jnsgd1na2vs0mg"},{"bike_id":"ca71f775-b162-4705-aa71-ebcb3023f1fd","system_id":"levelo_inurba_marseille","lat":43.314811,"lon":5.373103,"is_reserved":false,"is_disabled":false,"rental_uris":{"android":"levelo://app?vid=ca71f775-b162-4705-aa71-ebcb3023f1fd","ios":"levelo://app?vid=ca71f775-b162-4705-aa71-ebcb3023f1fd"},"vehicle_type_id":"4","last_reported":1708970925,"current_range_meters":30400,"station_id":"ce4bgt12rcd13ifvqcd0","pricing_plan_id":"cebpf4jnsgd1na2vs0mg"},{"bike_id":"db9d732b-71e0-4960-9d9b-d2ea61e6849c","system_id":"levelo_inurba_marseille","lat":43.314811,"lon":5.373103,"is_reserved":false,"is_disabled":false,"rental_uris":{"android":"levelo://app?vid=db9d732b-71e0-4960-9d9b-d2ea61e6849c","ios":"levelo://app?vid=db9d732b-71e0-4960-9d9b-d2ea61e6849c"},"vehicle_type_id":"4","last_reported":1708970925,"current_range_meters":22000,"station_id":"ce4bgt12rcd13ifvqcd0","pricing_plan_id":"cebpf4jnsgd1na2vs0mg"},{"bike_id":"9fe02cae-0373-4613-a41e-59583f304161","system_id":"levelo_inurba_marseille","lat":43.314811,"lon":5.373104,"is_reserved":false,"is_disabled":false,"rental_uris":{"android":"levelo://app?vid=9fe02cae-0373-4613-a41e-59583f304161","ios":"levelo://app?vid=9fe02cae-0373-4613-a41e-59583f304161"},"vehicle_type_id":"4","last_reported":1708970925,"current_range_meters":17200,"station_id":"ce4bgt12rcd13ifvqcd0","pricing_plan_id":"cebpf4jnsgd1na2vs0mg"},{"bike_id":"7546447b-390b-4cd4-98b0-97432de6a9f4","system_id":"levelo_inurba_marseille","lat":43.314811,"lon":5.373103,"is_reserved":false,"is_disabled":false,"rental_uris":{"android":"levelo://app?vid=7546447b-390b-4cd4-98b0-97432de6a9f4","ios":"levelo://app?vid=7546447b-390b-4cd4-98b0-97432de6a9f4"},"vehicle_type_id":"4","last_reported":1708970925,"current_range_meters":12000,"station_id":"ce4bgt12rcd13ifvqcd0","pricing_plan_id":"cebpf4jnsgd1na2vs0mg"},{"bike_id":"61024d18-7ac1-440c-b501-a47bbb025ad8","system_id":"levelo_inurba_marseille","lat":43.314811,"lon":5.373103,"is_reserved":false,"is_disabled":false,"rental_uris":{"android":"levelo://app?vid=61024d18-7ac1-440c-b501-a47bbb025ad8","ios":"levelo://app?vid=61024d18-7ac1-440c-b501-a47bbb025ad8"},"vehicle_type_id":"4","last_reported":1708970925,"current_range_meters":26800,"station_id":"ce4bgt12rcd13ifvqcd0","pricing_plan_id":"cebpf4jnsgd1na2vs0mg"},{"bike_id":"1f3e9e0c-4377-4d48-b17d-ada469fc33d4","system_id":"levelo_inurba_marseille","lat":43.309039,"lon":5.371797,"is_reserved":false,"is_disabled":false,"rental_uris":{"android":"levelo://app?vid=1f3e9e0c-4377-4d48-b17d-ada469fc33d4","ios":"levelo://app?vid=1f3e9e0c-4377-4d48-b17d-ada469fc33d4"},"vehicle_type_id":"4","last_reported":1708970925,"current_range_meters":14000,"station_id":"ce4bguh2rcd13ifvqckg","pricing_plan_id":"cebpf4jnsgd1na2vs0mg"},{"bike_id":"3387a4fa-0ad6-459f-819a-5c7245f491eb","system_id":"levelo_inurba_marseille","lat":43.309039,"lon":5.371797,"is_reserved":false,"is_disabled":false,"rental_uris":{"android":"levelo://app?vid=3387a4fa-0ad6-459f-819a-5c7245f491eb","ios":"levelo://app?vid=3387a4fa-0ad6-459f-819a-5c7245f491eb"},"vehicle_type_id":"4","last_reported":1708970925,"current_range_meters":2400,"station_id":"ce4bguh2rcd13ifvqckg","pricing_plan_id":"cebpf4jnsgd1na2vs0mg"},{"bike_id":"1979e652-af07-4bc4-b07d-cb5642b57644","system_id":"levelo_inurba_marseille","lat":43.309039,"lon":5.371797,"is_reserved":false,"is_disabled":false,"rental_uris":{"android":"levelo://app?vid=1979e652-af07-4bc4-b07d-cb5642b57644","ios":"levelo://app?vid=1979e652-af07-4bc4-b07d-cb5642b57644"},"vehicle_type_id":"4","last_reported":1708970925,"current_range_meters":30400,"station_id":"ce4bguh2rcd13ifvqckg","pricing_plan_id":"cebpf4jnsgd1na2vs0mg"},{"bike_id":"91a7728a-b23b-4f5d-a143-64e7f900c014","system_id":"levelo_inurba_marseille","lat":43.309039,"lon":5.371797,"is_reserved":false,"is_disabled":false,"rental_uris":{"android":"levelo://app?vid=91a7728a-b23b-4f5d-a143-64e7f900c014","ios":"levelo://app?vid=91a7728a-b23b-4f5d-a143-64e7f900c014"},"vehicle_type_id":"4","last_reported":1708970925,"current_range_meters":14400,"station_id":"ce4bguh2rcd13ifvqckg","pricing_plan_id":"cebpf4jnsgd1na2vs0mg"},{"bike_id":"83a75c11-7e74-4bc7-a69a-b48585017717","system_id":"levelo_inurba_marseille","lat":43.309039,"lon":5.371797,"is_reserved":false,"is_disabled":false,"rental_uris":{"android":"levelo://app?vid=83a75c11-7e74-4bc7-a69a-b48585017717","ios":"levelo://app?vid=83a75c11-7e74-4bc7-a69a-b48585017717"},"vehicle_type_id":"4","last_reported":1708970925,"current_range_meters":7200,"station_id":"ce4bguh2rcd13ifvqckg","pricing_plan_id":"cebpf4jnsgd1na2vs0mg"},{"bike_id":"be54cb7b-b88d-4085-b809-a1b151545e35","system_id":"levelo_inurba_marseille","lat":43.309039,"lon":5.371797,"is_reserved":false,"is_disabled":false,"rental_uris":{"android":"levelo://app?vid=be54cb7b-b88d-4085-b809-a1b151545e35","ios":"levelo://app?vid=be54cb7b-b88d-4085-b809-a1b151545e35"},"vehicle_type_id":"4","last_reported":1708970925,"current_range_meters":31600,"station_id":"ce4bguh2rcd13ifvqckg","pricing_plan_id":"cebpf4jnsgd1na2vs0mg"},{"bike_id":"eefe86a7-c4bb-4f1d-905f-0d54889ea8e7","system_id":"levelo_inurba_marseille","lat":43.309076,"lon":5.368465,"is_reserved":false,"is_disabled":false,"rental_uris":{"android":"levelo://app?vid=eefe86a7-c4bb-4f1d-905f-0d54889ea8e7","ios":"levelo://app?vid=eefe86a7-c4bb-4f1d-905f-0d54889ea8e7"},"vehicle_type_id":"4","last_reported":1708970925,"current_range_meters":400,"station_id":"ce4bgn92rcd13ifvqbvg","pricing_plan_id":"cebpf4jnsgd1na2vs0mg"},{"bike_id":"1f84cb7f-92bf-4c38-bd5a-bc9096c07b87","system_id":"levelo_inurba_marseille","lat":43.308857,"lon":5.371969,"is_reserved":false,"is_disabled":false,"rental_uris":{"android":"levelo://app?vid=1f84cb7f-92bf-4c38-bd5a-bc9096c07b87","ios":"levelo://app?vid=1f84cb7f-92bf-4c38-bd5a-bc9096c07b87"},"vehicle_type_id":"4","last_reported":1708970925,"current_range_meters":4800,"station_id":"ce4bguh2rcd13ifvqckg","pricing_plan_id":"cebpf4jnsgd1na2vs0mg"},{"bike_id":"d78d07e1-9b6d-4d6c-a295-6ce5addf0f72","system_id":"levelo_inurba_marseille","lat":43.309039,"lon":5.371797,"is_reserved":false,"is_disabled":false,"rental_uris":{"android":"levelo://app?vid=d78d07e1-9b6d-4d6c-a295-6ce5addf0f72","ios":"levelo://app?vid=d78d07e1-9b6d-4d6c-a295-6ce5addf0f72"},"vehicle_type_id":"4","last_reported":1708970925,"current_range_meters":15600,"station_id":"ce4bguh2rcd13ifvqckg","pricing_plan_id":"cebpf4jnsgd1na2vs0mg"},{"bike_id":"3540ec92-8895-4dfa-bbbb-e45c6345e035","system_id":"levelo_inurba_marseille","lat":43.305368,"lon":5.367343,"is_reserved":false,"is_disabled":false,"rental_uris":{"android":"levelo://app?vid=3540ec92-8895-4dfa-bbbb-e45c6345e035","ios":"levelo://app?vid=3540ec92-8895-4dfa-bbbb-e45c6345e035"},"vehicle_type_id":"4","last_reported":1708970925,"current_range_meters":30000,"station_id":"ce4bgrp2rcd13ifvqc9g","pricing_plan_id":"cebpf4jnsgd1na2vs0mg"},{"bike_id":"f3327288-2589-4f4f-9290-18fa5e1d6d76","system_id":"levelo_inurba_marseille","lat":43.305391,"lon":5.365541,"is_reserved":false,"is_disabled":false,"rental_uris":{"android":"levelo://app?vid=f3327288-2589-4f4f-9290-18fa5e1d6d76","ios":"levelo://app?vid=f3327288-2589-4f4f-9290-18fa5e1d6d76"},"vehicle_type_id":"4","last_reported":1708970925,"current_range_meters":24400,"station_id":"ce4bgs12rcd13ifvqcag","pricing_plan_id":"cebpf4jnsgd1na2vs0mg"},{"bike_id":"16acde78-a6ae-4a84-b1f8-0fa37f15b2c8","system_id":"levelo_inurba_marseille","lat":43.30607,"lon":5.37221,"is_reserved":false,"is_disabled":false,"rental_uris":{"android":"levelo://app?vid=16acde78-a6ae-4a84-b1f8-0fa37f15b2c8","ios":"levelo://app?vid=16acde78-a6ae-4a84-b1f8-0fa37f15b2c8"},"vehicle_type_id":"4","last_reported":1708970925,"current_range_meters":29600,"station_id":"ce4bgqh2rcd13ifvqc4g","pricing_plan_id":"cebpf4jnsgd1na2vs0mg"},{"bike_id":"232d0562-db42-4721-b587-04aa96c30c1a","system_id":"levelo_inurba_marseille","lat":43.30598,"lon":5.37215,"is_reserved":false,"is_disabled":false,"rental_uris":{"android":"levelo://app?vid=232d0562-db42-4721-b587-04aa96c30c1a","ios":"levelo://app?vid=232d0562-db42-4721-b587-04aa96c30c1a"},"vehicle_type_id":"4","last_reported":1708970925,"current_range_meters":12400,"station_id":"ce4bgqh2rcd13ifvqc4g","pricing_plan_id":"cebpf4jnsgd1na2vs0mg"},{"bike_id":"e1d7a9a5-cdbd-470d-8c82-940c1f370490","system_id":"levelo_inurba_marseille","lat":43.305989,"lon":5.37225,"is_reserved":false,"is_disabled":false,"rental_uris":{"android":"levelo://app?vid=e1d7a9a5-cdbd-470d-8c82-940c1f370490","ios":"levelo://app?vid=e1d7a9a5-cdbd-470d-8c82-940c1f370490"},"vehicle_type_id":"4","last_reported":1708970925,"current_range_meters":26400,"station_id":"ce4bgqh2rcd13ifvqc4g","pricing_plan_id":"cebpf4jnsgd1na2vs0mg"},{"bike_id":"db97ba19-f57d-4869-894c-a4ebcd49efe6","system_id":"levelo_inurba_marseille","lat":43.311125,"lon":5.377624,"is_reserved":false,"is_disabled":false,"rental_uris":{"android":"levelo://app?vid=db97ba19-f57d-4869-894c-a4ebcd49efe6","ios":"levelo://app?vid=db97ba19-f57d-4869-894c-a4ebcd49efe6"},"vehicle_type_id":"4","last_reported":1708970925,"current_range_meters":6000,"station_id":"ce4bgt92rcd13ifvqcg0","pricing_plan_id":"cebpf4jnsgd1na2vs0mg"},{"bike_id":"bc00caa7-fd9a-4ad1-8df2-f9c5e5e7a760","system_id":"levelo_inurba_marseille","lat":43.305989,"lon":5.37225,"is_reserved":false,"is_disabled":false,"rental_uris":{"android":"levelo://app?vid=bc00caa7-fd9a-4ad1-8df2-f9c5e5e7a760","ios":"levelo://app?vid=bc00caa7-fd9a-4ad1-8df2-f9c5e5e7a760"},"vehicle_type_id":"4","last_reported":1708970925,"current_range_meters":19600,"station_id":"ce4bgqh2rcd13ifvqc4g","pricing_plan_id":"cebpf4jnsgd1na2vs0mg"},{"bike_id":"3a9e9dac-20df-47dd-9b2a-16c0d693487e","system_id":"levelo_inurba_marseille","lat":43.31685,"lon":5.37714,"is_reserved":false,"is_disabled":false,"rental_uris":{"android":"levelo://app?vid=3a9e9dac-20df-47dd-9b2a-16c0d693487e","ios":"levelo://app?vid=3a9e9dac-20df-47dd-9b2a-16c0d693487e"},"vehicle_type_id":"4","last_reported":1708970925,"current_range_meters":2800,"station_id":"ce4bgth2rcd13ifvqch0","pricing_plan_id":"cebpf4jnsgd1na2vs0mg"},{"bike_id":"79f56619-18f3-41b2-86f3-adb47c248401","system_id":"levelo_inurba_marseille","lat":43.31082,"lon":5.37834,"is_reserved":false,"is_disabled":false,"rental_uris":{"android":"levelo://app?vid=79f56619-18f3-41b2-86f3-adb47c248401","ios":"levelo://app?vid=79f56619-18f3-41b2-86f3-adb47c248401"},"vehicle_type_id":"4","last_reported":1708970925,"current_range_meters":26400,"station_id":"","pricing_plan_id":"cebpf4jnsgd1na2vs0mg"},{"bike_id":"65ce7176-f826-4cd0-a7cd-284f2a95896d","system_id":"levelo_inurba_marseille","lat":43.30779,"lon":5.37654,"is_reserved":false,"is_disabled":false,"rental_uris":{"android":"levelo://app?vid=65ce7176-f826-4cd0-a7cd-284f2a95896d","ios":"levelo://app?vid=65ce7176-f826-4cd0-a7cd-284f2a95896d"},"vehicle_type_id":"4","last_reported":1708970925,"current_range_meters":29600,"station_id":"ce4bgv92rcd13ifvqcq0","pricing_plan_id":"cebpf4jnsgd1na2vs0mg"},{"bike_id":"8a0dd7ff-ffc0-4da6-814f-9f8184a987fd","system_id":"levelo_inurba_marseille","lat":43.317057,"lon":5.377233,"is_reserved":false,"is_disabled":false,"rental_uris":{"android":"levelo://app?vid=8a0dd7ff-ffc0-4da6-814f-9f8184a987fd","ios":"levelo://app?vid=8a0dd7ff-ffc0-4da6-814f-9f8184a987fd"},"vehicle_type_id":"4","last_reported":1708970925,"current_range_meters":4400,"station_id":"ce4bgth2rcd13ifvqch0","pricing_plan_id":"cebpf4jnsgd1na2vs0mg"},{"bike_id":"fdbbb02a-d11e-484d-9260-971f09d48d61","system_id":"levelo_inurba_marseille","lat":43.31693,"lon":5.37744,"is_reserved":false,"is_disabled":false,"rental_uris":{"android":"levelo://app?vid=fdbbb02a-d11e-484d-9260-971f09d48d61","ios":"levelo://app?vid=fdbbb02a-d11e-484d-9260-971f09d48d61"},"vehicle_type_id":"4","last_reported":1708970925,"current_range_meters":22400,"station_id":"ce4bgth2rcd13ifvqch0","pricing_plan_id":"cebpf4jnsgd1na2vs0mg"},{"bike_id":"f0c18dc6-3499-424f-ac78-38498c6a6159","system_id":"levelo_inurba_marseille","lat":43.317075,"lon":5.377367,"is_reserved":false,"is_disabled":false,"rental_uris":{"android":"levelo://app?vid=f0c18dc6-3499-424f-ac78-38498c6a6159","ios":"levelo://app?vid=f0c18dc6-3499-424f-ac78-38498c6a6159"},"vehicle_type_id":"4","last_reported":1708970925,"current_range_meters":21200,"station_id":"ce4bgth2rcd13ifvqch0","pricing_plan_id":"cebpf4jnsgd1na2vs0mg"},{"bike_id":"7b99db59-26a7-48a7-947b-b943f3d6ae81","system_id":"levelo_inurba_marseille","lat":43.317075,"lon":5.377367,"is_reserved":false,"is_disabled":false,"rental_uris":{"android":"levelo://app?vid=7b99db59-26a7-48a7-947b-b943f3d6ae81","ios":"levelo://app?vid=7b99db59-26a7-48a7-947b-b943f3d6ae81"},"vehicle_type_id":"4","last_reported":1708970925,"current_range_meters":400,"station_id":"ce4bgth2rcd13ifvqch0","pricing_plan_id":"cebpf4jnsgd1na2vs0mg"},{"bike_id":"e6d883fb-882a-4aec-a2bb-4b7d63c16ca0","system_id":"levelo_inurba_marseille","lat":43.317075,"lon":5.377367,"is_reserved":false,"is_disabled":false,"rental_uris":{"android":"levelo://app?vid=e6d883fb-882a-4aec-a2bb-4b7d63c16ca0","ios":"levelo://app?vid=e6d883fb-882a-4aec-a2bb-4b7d63c16ca0"},"vehicle_type_id":"4","last_reported":1708970925,"current_range_meters":11600,"station_id":"ce4bgth2rcd13ifvqch0","pricing_plan_id":"cebpf4jnsgd1na2vs0mg"},{"bike_id":"a3b5adde-b6ae-4764-a239-47305abe482a","system_id":"levelo_inurba_marseille","lat":43.317075,"lon":5.377367,"is_reserved":false,"is_disabled":false,"rental_uris":{"android":"levelo://app?vid=a3b5adde-b6ae-4764-a239-47305abe482a","ios":"levelo://app?vid=a3b5adde-b6ae-4764-a239-47305abe482a"},"vehicle_type_id":"4","last_reported":1708970925,"current_range_meters":10800,"station_id":"ce4bgth2rcd13ifvqch0","pricing_plan_id":"cebpf4jnsgd1na2vs0mg"},{"bike_id":"80dee788-2c20-4f14-af61-ba159f556118","system_id":"levelo_inurba_marseille","lat":43.317094,"lon":5.37754,"is_reserved":false,"is_disabled":false,"rental_uris":{"android":"levelo://app?vid=80dee788-2c20-4f14-af61-ba159f556118","ios":"levelo://app?vid=80dee788-2c20-4f14-af61-ba159f556118"},"vehicle_type_id":"4","last_reported":1708970925,"current_range_meters":23200,"station_id":"ce4bgth2rcd13ifvqch0","pricing_plan_id":"cebpf4jnsgd1na2vs0mg"},{"bike_id":"8bd2d6ee-c69c-44a0-beeb-d0231eb183ac","system_id":"levelo_inurba_marseille","lat":43.317075,"lon":5.377367,"is_reserved":false,"is_disabled":false,"rental_uris":{"android":"levelo://app?vid=8bd2d6ee-c69c-44a0-beeb-d0231eb183ac","ios":"levelo://app?vid=8bd2d6ee-c69c-44a0-beeb-d0231eb183ac"},"vehicle_type_id":"4","last_reported":1708970925,"current_range_meters":28800,"station_id":"ce4bgth2rcd13ifvqch0","pricing_plan_id":"cebpf4jnsgd1na2vs0mg"},{"bike_id":"5553d1e1-067c-42bb-8be9-33ad13e39b04","system_id":"levelo_inurba_marseille","lat":43.317075,"lon":5.377367,"is_reserved":false,"is_disabled":false,"rental_uris":{"android":"levelo://app?vid=5553d1e1-067c-42bb-8be9-33ad13e39b04","ios":"levelo://app?vid=5553d1e1-067c-42bb-8be9-33ad13e39b04"},"vehicle_type_id":"4","last_reported":1708970925,"current_range_meters":31200,"station_id":"ce4bgth2rcd13ifvqch0","pricing_plan_id":"cebpf4jnsgd1na2vs0mg"},{"bike_id":"4e5dbb83-5183-40cc-89da-500acb5f8ea7","system_id":"levelo_inurba_marseille","lat":43.311125,"lon":5.377624,"is_reserved":false,"is_disabled":false,"rental_uris":{"android":"levelo://app?vid=4e5dbb83-5183-40cc-89da-500acb5f8ea7","ios":"levelo://app?vid=4e5dbb83-5183-40cc-89da-500acb5f8ea7"},"vehicle_type_id":"4","last_reported":1708970925,"current_range_meters":16000,"station_id":"ce4bgt92rcd13ifvqcg0","pricing_plan_id":"cebpf4jnsgd1na2vs0mg"},{"bike_id":"673ba205-9b89-4c96-b093-51b9274ef6a0","system_id":"levelo_inurba_marseille","lat":43.298433,"lon":5.362774,"is_reserved":false,"is_disabled":false,"rental_uris":{"android":"levelo://app?vid=673ba205-9b89-4c96-b093-51b9274ef6a0","ios":"levelo://app?vid=673ba205-9b89-4c96-b093-51b9274ef6a0"},"vehicle_type_id":"4","last_reported":1708970925,"current_range_meters":4800,"station_id":"ce4bgpp2rcd13ifvqc3g","pricing_plan_id":"cebpf4jnsgd1na2vs0mg"},{"bike_id":"14c56380-23ef-4c5e-bdf8-ae8fddae74ab","system_id":"levelo_inurba_marseille","lat":43.315353,"lon":5.380253,"is_reserved":false,"is_disabled":false,"rental_uris":{"android":"levelo://app?vid=14c56380-23ef-4c5e-bdf8-ae8fddae74ab","ios":"levelo://app?vid=14c56380-23ef-4c5e-bdf8-ae8fddae74ab"},"vehicle_type_id":"4","last_reported":1708970925,"current_range_meters":8400,"station_id":"ce4bhsp2rcd13ifvqi50","pricing_plan_id":"cebpf4jnsgd1na2vs0mg"},{"bike_id":"8c8743bf-b33c-4a3e-84cb-25934668bf78","system_id":"levelo_inurba_marseille","lat":43.315378,"lon":5.38028,"is_reserved":false,"is_disabled":false,"rental_uris":{"android":"levelo://app?vid=8c8743bf-b33c-4a3e-84cb-25934668bf78","ios":"levelo://app?vid=8c8743bf-b33c-4a3e-84cb-25934668bf78"},"vehicle_type_id":"4","last_reported":1708970925,"current_range_meters":26000,"station_id":"ce4bhsp2rcd13ifvqi50","pricing_plan_id":"cebpf4jnsgd1na2vs0mg"},{"bike_id":"2bbf2877-6bc9-46f6-b067-cc403fb42ffa","system_id":"levelo_inurba_marseille","lat":43.301939,"lon":5.366286,"is_reserved":false,"is_disabled":false,"rental_uris":{"android":"levelo://app?vid=2bbf2877-6bc9-46f6-b067-cc403fb42ffa","ios":"levelo://app?vid=2bbf2877-6bc9-46f6-b067-cc403fb42ffa"},"vehicle_type_id":"4","last_reported":1708970925,"current_range_meters":23200,"station_id":"ce4bgrh2rcd13ifvqc8g","pricing_plan_id":"cebpf4jnsgd1na2vs0mg"},{"bike_id":"2559d634-a028-4795-b41d-3dd5edba48c4","system_id":"levelo_inurba_marseille","lat":43.314938,"lon":5.380907,"is_reserved":false,"is_disabled":false,"rental_uris":{"android":"levelo://app?vid=2559d634-a028-4795-b41d-3dd5edba48c4","ios":"levelo://app?vid=2559d634-a028-4795-b41d-3dd5edba48c4"},"vehicle_type_id":"4","last_reported":1708970925,"current_range_meters":22400,"station_id":"ce4bhsp2rcd13ifvqi50","pricing_plan_id":"cebpf4jnsgd1na2vs0mg"},{"bike_id":"45536969-f697-4b84-a559-1905278fe357","system_id":"levelo_inurba_marseille","lat":43.301939,"lon":5.366286,"is_reserved":false,"is_disabled":false,"rental_uris":{"android":"levelo://app?vid=45536969-f697-4b84-a559-1905278fe357","ios":"levelo://app?vid=45536969-f697-4b84-a559-1905278fe357"},"vehicle_type_id":"4","last_reported":1708970925,"current_range_meters":18400,"station_id":"ce4bgrh2rcd13ifvqc8g","pricing_plan_id":"cebpf4jnsgd1na2vs0mg"},{"bike_id":"cfb97943-c9f8-4d95-8f7a-8e1ea86275f6","system_id":"levelo_inurba_marseille","lat":43.308012,"lon":5.381511,"is_reserved":false,"is_disabled":false,"rental_uris":{"android":"levelo://app?vid=cfb97943-c9f8-4d95-8f7a-8e1ea86275f6","ios":"levelo://app?vid=cfb97943-c9f8-4d95-8f7a-8e1ea86275f6"},"vehicle_type_id":"4","last_reported":1708970925,"current_range_meters":6800,"station_id":"ce4bgt12rcd13ifvqce0","pricing_plan_id":"cebpf4jnsgd1na2vs0mg"},{"bike_id":"7499148f-ffdd-44c8-8113-36b12ba3e472","system_id":"levelo_inurba_marseille","lat":43.308012,"lon":5.381511,"is_reserved":false,"is_disabled":false,"rental_uris":{"android":"levelo://app?vid=7499148f-ffdd-44c8-8113-36b12ba3e472","ios":"levelo://app?vid=7499148f-ffdd-44c8-8113-36b12ba3e472"},"vehicle_type_id":"4","last_reported":1708970925,"current_range_meters":9200,"station_id":"ce4bgt12rcd13ifvqce0","pricing_plan_id":"cebpf4jnsgd1na2vs0mg"},{"bike_id":"30e34d08-65a7-47ca-aabc-2b29f5275a88","system_id":"levelo_inurba_marseille","lat":43.30803,"lon":5.38159,"is_reserved":false,"is_disabled":false,"rental_uris":{"android":"levelo://app?vid=30e34d08-65a7-47ca-aabc-2b29f5275a88","ios":"levelo://app?vid=30e34d08-65a7-47ca-aabc-2b29f5275a88"},"vehicle_type_id":"4","last_reported":1708970925,"current_range_meters":400,"station_id":"ce4bgt12rcd13ifvqce0","pricing_plan_id":"cebpf4jnsgd1na2vs0mg"},{"bike_id":"0f4c47aa-c07e-462c-b778-53e406dbc106","system_id":"levelo_inurba_marseille","lat":43.308012,"lon":5.381511,"is_reserved":false,"is_disabled":false,"rental_uris":{"android":"levelo://app?vid=0f4c47aa-c07e-462c-b778-53e406dbc106","ios":"levelo://app?vid=0f4c47aa-c07e-462c-b778-53e406dbc106"},"vehicle_type_id":"4","last_reported":1708970925,"current_range_meters":26400,"station_id":"ce4bgt12rcd13ifvqce0","pricing_plan_id":"cebpf4jnsgd1na2vs0mg"},{"bike_id":"9582bb5a-d76c-4275-adaf-7261559c60d7","system_id":"levelo_inurba_marseille","lat":43.30469,"lon":5.37889,"is_reserved":false,"is_disabled":false,"rental_uris":{"android":"levelo://app?vid=9582bb5a-d76c-4275-adaf-7261559c60d7","ios":"levelo://app?vid=9582bb5a-d76c-4275-adaf-7261559c60d7"},"vehicle_type_id":"4","last_reported":1708970925,"current_range_meters":28400,"station_id":"ce4bgup2rcd13ifvqcn0","pricing_plan_id":"cebpf4jnsgd1na2vs0mg"},{"bike_id":"7ac7ad04-c3d5-453a-bbfa-3acd52e04888","system_id":"levelo_inurba_marseille","lat":43.30462,"lon":5.378995,"is_reserved":false,"is_disabled":false,"rental_uris":{"android":"levelo://app?vid=7ac7ad04-c3d5-453a-bbfa-3acd52e04888","ios":"levelo://app?vid=7ac7ad04-c3d5-453a-bbfa-3acd52e04888"},"vehicle_type_id":"4","last_reported":1708970925,"current_range_meters":31200,"station_id":"ce4bgup2rcd13ifvqcn0","pricing_plan_id":"cebpf4jnsgd1na2vs0mg"},{"bike_id":"621078f3-26c0-4641-90c3-5c3a1a6c46c9","system_id":"levelo_inurba_marseille","lat":43.304606,"lon":5.379026,"is_reserved":false,"is_disabled":false,"rental_uris":{"android":"levelo://app?vid=621078f3-26c0-4641-90c3-5c3a1a6c46c9","ios":"levelo://app?vid=621078f3-26c0-4641-90c3-5c3a1a6c46c9"},"vehicle_type_id":"4","last_reported":1708970925,"current_range_meters":14000,"station_id":"ce4bgup2rcd13ifvqcn0","pricing_plan_id":"cebpf4jnsgd1na2vs0mg"},{"bike_id":"95146ecc-bffe-4871-b950-6ca9db936738","system_id":"levelo_inurba_marseille","lat":43.304606,"lon":5.379026,"is_reserved":false,"is_disabled":false,"rental_uris":{"android":"levelo://app?vid=95146ecc-bffe-4871-b950-6ca9db936738","ios":"levelo://app?vid=95146ecc-bffe-4871-b950-6ca9db936738"},"vehicle_type_id":"4","last_reported":1708970925,"current_range_meters":13600,"station_id":"ce4bgup2rcd13ifvqcn0","pricing_plan_id":"cebpf4jnsgd1na2vs0mg"},{"bike_id":"cb10ca90-82b7-408c-8324-64df0d86fad5","system_id":"levelo_inurba_marseille","lat":43.324771,"lon":5.36557,"is_reserved":false,"is_disabled":false,"rental_uris":{"android":"levelo://app?vid=cb10ca90-82b7-408c-8324-64df0d86fad5","ios":"levelo://app?vid=cb10ca90-82b7-408c-8324-64df0d86fad5"},"vehicle_type_id":"4","last_reported":1708970925,"current_range_meters":4400,"station_id":"ce4bhs12rcd13ifvqhvg","pricing_plan_id":"cebpf4jnsgd1na2vs0mg"},{"bike_id":"895db0d8-9dbe-4d11-9bb7-d5a889a1dc3e","system_id":"levelo_inurba_marseille","lat":43.324771,"lon":5.36557,"is_reserved":false,"is_disabled":false,"rental_uris":{"android":"levelo://app?vid=895db0d8-9dbe-4d11-9bb7-d5a889a1dc3e","ios":"levelo://app?vid=895db0d8-9dbe-4d11-9bb7-d5a889a1dc3e"},"vehicle_type_id":"4","last_reported":1708970925,"current_range_meters":0,"station_id":"ce4bhs12rcd13ifvqhvg","pricing_plan_id":"cebpf4jnsgd1na2vs0mg"},{"bike_id":"4cdf03fa-5156-437b-8cf7-e206d368f652","system_id":"levelo_inurba_marseille","lat":43.324771,"lon":5.36557,"is_reserved":false,"is_disabled":false,"rental_uris":{"android":"levelo://app?vid=4cdf03fa-5156-437b-8cf7-e206d368f652","ios":"levelo://app?vid=4cdf03fa-5156-437b-8cf7-e206d368f652"},"vehicle_type_id":"4","last_reported":1708970925,"current_range_meters":23200,"station_id":"ce4bhs12rcd13ifvqhvg","pricing_plan_id":"cebpf4jnsgd1na2vs0mg"},{"bike_id":"1adf480d-3a72-42bf-bf2e-68f1d90da144","system_id":"levelo_inurba_marseille","lat":43.324771,"lon":5.36557,"is_reserved":false,"is_disabled":false,"rental_uris":{"android":"levelo://app?vid=1adf480d-3a72-42bf-bf2e-68f1d90da144","ios":"levelo://app?vid=1adf480d-3a72-42bf-bf2e-68f1d90da144"},"vehicle_type_id":"4","last_reported":1708970925,"current_range_meters":24800,"station_id":"ce4bhs12rcd13ifvqhvg","pricing_plan_id":"cebpf4jnsgd1na2vs0mg"},{"bike_id":"5a269137-364d-491b-844c-135942edaef3","system_id":"levelo_inurba_marseille","lat":43.324873,"lon":5.365789,"is_reserved":false,"is_disabled":false,"rental_uris":{"android":"levelo://app?vid=5a269137-364d-491b-844c-135942edaef3","ios":"levelo://app?vid=5a269137-364d-491b-844c-135942edaef3"},"vehicle_type_id":"4","last_reported":1708970925,"current_range_meters":6000,"station_id":"ce4bhs12rcd13ifvqhvg","pricing_plan_id":"cebpf4jnsgd1na2vs0mg"},{"bike_id":"4dea0c1f-728c-4535-a03f-231232abfb76","system_id":"levelo_inurba_marseille","lat":43.310804,"lon":5.38359,"is_reserved":false,"is_disabled":false,"rental_uris":{"android":"levelo://app?vid=4dea0c1f-728c-4535-a03f-231232abfb76","ios":"levelo://app?vid=4dea0c1f-728c-4535-a03f-231232abfb76"},"vehicle_type_id":"4","last_reported":1708970925,"current_range_meters":5200,"station_id":"ce4bgv92rcd13ifvqcr0","pricing_plan_id":"cebpf4jnsgd1na2vs0mg"},{"bike_id":"6fbac81b-944a-44f6-aa10-d7a32471d21f","system_id":"levelo_inurba_marseille","lat":43.310804,"lon":5.38359,"is_reserved":false,"is_disabled":false,"rental_uris":{"android":"levelo://app?vid=6fbac81b-944a-44f6-aa10-d7a32471d21f","ios":"levelo://app?vid=6fbac81b-944a-44f6-aa10-d7a32471d21f"},"vehicle_type_id":"4","last_reported":1708970925,"current_range_meters":3200,"station_id":"ce4bgv92rcd13ifvqcr0","pricing_plan_id":"cebpf4jnsgd1na2vs0mg"},{"bike_id":"e3538889-eb97-410c-832d-5b9bd51a8d66","system_id":"levelo_inurba_marseille","lat":43.302784,"lon":5.377158,"is_reserved":false,"is_disabled":false,"rental_uris":{"android":"levelo://app?vid=e3538889-eb97-410c-832d-5b9bd51a8d66","ios":"levelo://app?vid=e3538889-eb97-410c-832d-5b9bd51a8d66"},"vehicle_type_id":"4","last_reported":1708970925,"current_range_meters":19600,"station_id":"ce4bguh2rcd13ifvqcj0","pricing_plan_id":"cebpf4jnsgd1na2vs0mg"},{"bike_id":"79974a83-07cc-4776-9aba-db53930d5402","system_id":"levelo_inurba_marseille","lat":43.310804,"lon":5.38359,"is_reserved":false,"is_disabled":false,"rental_uris":{"android":"levelo://app?vid=79974a83-07cc-4776-9aba-db53930d5402","ios":"levelo://app?vid=79974a83-07cc-4776-9aba-db53930d5402"},"vehicle_type_id":"4","last_reported":1708970925,"current_range_meters":21600,"station_id":"ce4bgv92rcd13ifvqcr0","pricing_plan_id":"cebpf4jnsgd1na2vs0mg"},{"bike_id":"2ed910e1-5846-4b11-b64d-c2dfe9de3c12","system_id":"levelo_inurba_marseille","lat":43.310804,"lon":5.38359,"is_reserved":false,"is_disabled":false,"rental_uris":{"android":"levelo://app?vid=2ed910e1-5846-4b11-b64d-c2dfe9de3c12","ios":"levelo://app?vid=2ed910e1-5846-4b11-b64d-c2dfe9de3c12"},"vehicle_type_id":"4","last_reported":1708970925,"current_range_meters":18400,"station_id":"ce4bgv92rcd13ifvqcr0","pricing_plan_id":"cebpf4jnsgd1na2vs0mg"},{"bike_id":"9b719ad7-0ded-438b-b285-12d40f657735","system_id":"levelo_inurba_marseille","lat":43.30291,"lon":5.37705,"is_reserved":false,"is_disabled":false,"rental_uris":{"android":"levelo://app?vid=9b719ad7-0ded-438b-b285-12d40f657735","ios":"levelo://app?vid=9b719ad7-0ded-438b-b285-12d40f657735"},"vehicle_type_id":"4","last_reported":1708970925,"current_range_meters":26400,"station_id":"ce4bguh2rcd13ifvqcj0","pricing_plan_id":"cebpf4jnsgd1na2vs0mg"},{"bike_id":"496334fa-f175-418e-8d0c-e864fa9fe917","system_id":"levelo_inurba_marseille","lat":43.310804,"lon":5.38359,"is_reserved":false,"is_disabled":false,"rental_uris":{"android":"levelo://app?vid=496334fa-f175-418e-8d0c-e864fa9fe917","ios":"levelo://app?vid=496334fa-f175-418e-8d0c-e864fa9fe917"},"vehicle_type_id":"4","last_reported":1708970925,"current_range_meters":8400,"station_id":"ce4bgv92rcd13ifvqcr0","pricing_plan_id":"cebpf4jnsgd1na2vs0mg"},{"bike_id":"b9a6ea56-48c3-4eb8-9448-f70b4a231316","system_id":"levelo_inurba_marseille","lat":43.30279,"lon":5.37691,"is_reserved":false,"is_disabled":false,"rental_uris":{"android":"levelo://app?vid=b9a6ea56-48c3-4eb8-9448-f70b4a231316","ios":"levelo://app?vid=b9a6ea56-48c3-4eb8-9448-f70b4a231316"},"vehicle_type_id":"4","last_reported":1708970925,"current_range_meters":31200,"station_id":"ce4bhs92rcd13ifvqi0g","pricing_plan_id":"cebpf4jnsgd1na2vs0mg"},{"bike_id":"633bf8a3-7b0e-47ca-9e34-f2404ef7df4c","system_id":"levelo_inurba_marseille","lat":43.30281,"lon":5.3771,"is_reserved":false,"is_disabled":false,"rental_uris":{"android":"levelo://app?vid=633bf8a3-7b0e-47ca-9e34-f2404ef7df4c","ios":"levelo://app?vid=633bf8a3-7b0e-47ca-9e34-f2404ef7df4c"},"vehicle_type_id":"4","last_reported":1708970925,"current_range_meters":10400,"station_id":"ce4bguh2rcd13ifvqcj0","pricing_plan_id":"cebpf4jnsgd1na2vs0mg"},{"bike_id":"dc7dfb1e-1f1a-4e2f-a764-b6919dae7578","system_id":"levelo_inurba_marseille","lat":43.30143,"lon":5.37413,"is_reserved":false,"is_disabled":false,"rental_uris":{"android":"levelo://app?vid=dc7dfb1e-1f1a-4e2f-a764-b6919dae7578","ios":"levelo://app?vid=dc7dfb1e-1f1a-4e2f-a764-b6919dae7578"},"vehicle_type_id":"4","last_reported":1708970925,"current_range_meters":25600,"station_id":"ce4bgs92rcd13ifvqcc0","pricing_plan_id":"cebpf4jnsgd1na2vs0mg"},{"bike_id":"b0799f1e-74f4-429d-9ff9-8888e9762c55","system_id":"levelo_inurba_marseille","lat":43.301429,"lon":5.37413,"is_reserved":false,"is_disabled":false,"rental_uris":{"android":"levelo://app?vid=b0799f1e-74f4-429d-9ff9-8888e9762c55","ios":"levelo://app?vid=b0799f1e-74f4-429d-9ff9-8888e9762c55"},"vehicle_type_id":"4","last_reported":1708970925,"current_range_meters":18400,"station_id":"ce4bgs92rcd13ifvqcc0","pricing_plan_id":"cebpf4jnsgd1na2vs0mg"},{"bike_id":"7effe002-4bbd-4452-8402-c17afe7957c6","system_id":"levelo_inurba_marseille","lat":43.317557,"lon":5.390173,"is_reserved":false,"is_disabled":false,"rental_uris":{"android":"levelo://app?vid=7effe002-4bbd-4452-8402-c17afe7957c6","ios":"levelo://app?vid=7effe002-4bbd-4452-8402-c17afe7957c6"},"vehicle_type_id":"4","last_reported":1708970925,"current_range_meters":11600,"station_id":"ce4bhqp2rcd13ifvqhng","pricing_plan_id":"cebpf4jnsgd1na2vs0mg"},{"bike_id":"fc3c137d-a130-40ad-ba99-b34f1c028021","system_id":"levelo_inurba_marseille","lat":43.31987,"lon":5.38146,"is_reserved":false,"is_disabled":false,"rental_uris":{"android":"levelo://app?vid=fc3c137d-a130-40ad-ba99-b34f1c028021","ios":"levelo://app?vid=fc3c137d-a130-40ad-ba99-b34f1c028021"},"vehicle_type_id":"4","last_reported":1708970925,"current_range_meters":0,"station_id":"ce4bhr12rcd13ifvqhpg","pricing_plan_id":"cebpf4jnsgd1na2vs0mg"},{"bike_id":"de28d86e-53a4-47dd-b181-f50c924ca319","system_id":"levelo_inurba_marseille","lat":43.319914,"lon":5.381442,"is_reserved":false,"is_disabled":false,"rental_uris":{"android":"levelo://app?vid=de28d86e-53a4-47dd-b181-f50c924ca319","ios":"levelo://app?vid=de28d86e-53a4-47dd-b181-f50c924ca319"},"vehicle_type_id":"4","last_reported":1708970925,"current_range_meters":8000,"station_id":"ce4bhr12rcd13ifvqhpg","pricing_plan_id":"cebpf4jnsgd1na2vs0mg"},{"bike_id":"37c33465-b6cc-4eaa-8e77-e349ae85b1c4","system_id":"levelo_inurba_marseille","lat":43.3199,"lon":5.38147,"is_reserved":false,"is_disabled":false,"rental_uris":{"android":"levelo://app?vid=37c33465-b6cc-4eaa-8e77-e349ae85b1c4","ios":"levelo://app?vid=37c33465-b6cc-4eaa-8e77-e349ae85b1c4"},"vehicle_type_id":"4","last_reported":1708970925,"current_range_meters":0,"station_id":"ce4bhr12rcd13ifvqhpg","pricing_plan_id":"cebpf4jnsgd1na2vs0mg"},{"bike_id":"5b9527bf-9fe8-4e4d-8b8c-e587b8850107","system_id":"levelo_inurba_marseille","lat":43.319917,"lon":5.381497,"is_reserved":false,"is_disabled":false,"rental_uris":{"android":"levelo://app?vid=5b9527bf-9fe8-4e4d-8b8c-e587b8850107","ios":"levelo://app?vid=5b9527bf-9fe8-4e4d-8b8c-e587b8850107"},"vehicle_type_id":"4","last_reported":1708970925,"current_range_meters":28800,"station_id":"ce4bhr12rcd13ifvqhpg","pricing_plan_id":"cebpf4jnsgd1na2vs0mg"},{"bike_id":"52e9159a-9115-441e-83b9-d43e46aa4608","system_id":"levelo_inurba_marseille","lat":43.31996,"lon":5.38146,"is_reserved":false,"is_disabled":false,"rental_uris":{"android":"levelo://app?vid=52e9159a-9115-441e-83b9-d43e46aa4608","ios":"levelo://app?vid=52e9159a-9115-441e-83b9-d43e46aa4608"},"vehicle_type_id":"4","last_reported":1708970925,"current_range_meters":25600,"station_id":"ce4bhr12rcd13ifvqhpg","pricing_plan_id":"cebpf4jnsgd1na2vs0mg"},{"bike_id":"a6fd317e-ce12-4469-8db1-f7b81f65473a","system_id":"levelo_inurba_marseille","lat":43.31996,"lon":5.3815,"is_reserved":false,"is_disabled":false,"rental_uris":{"android":"levelo://app?vid=a6fd317e-ce12-4469-8db1-f7b81f65473a","ios":"levelo://app?vid=a6fd317e-ce12-4469-8db1-f7b81f65473a"},"vehicle_type_id":"4","last_reported":1708970925,"current_range_meters":10800,"station_id":"ce4bhr12rcd13ifvqhpg","pricing_plan_id":"cebpf4jnsgd1na2vs0mg"},{"bike_id":"effaad79-2735-410c-acdc-fcad8d006e6d","system_id":"levelo_inurba_marseille","lat":43.313571,"lon":5.384829,"is_reserved":false,"is_disabled":false,"rental_uris":{"android":"levelo://app?vid=effaad79-2735-410c-acdc-fcad8d006e6d","ios":"levelo://app?vid=effaad79-2735-410c-acdc-fcad8d006e6d"},"vehicle_type_id":"4","last_reported":1708970925,"current_range_meters":11600,"station_id":"ce4bgt92rcd13ifvqcf0","pricing_plan_id":"cebpf4jnsgd1na2vs0mg"},{"bike_id":"bf740e16-2113-44d2-8837-a8e694a8f319","system_id":"levelo_inurba_marseille","lat":43.313571,"lon":5.384829,"is_reserved":false,"is_disabled":false,"rental_uris":{"android":"levelo://app?vid=bf740e16-2113-44d2-8837-a8e694a8f319","ios":"levelo://app?vid=bf740e16-2113-44d2-8837-a8e694a8f319"},"vehicle_type_id":"4","last_reported":1708970925,"current_range_meters":30000,"station_id":"ce4bgt92rcd13ifvqcf0","pricing_plan_id":"cebpf4jnsgd1na2vs0mg"},{"bike_id":"bf656e85-830e-4038-859e-1f3f351e036f","system_id":"levelo_inurba_marseille","lat":43.313571,"lon":5.384829,"is_reserved":false,"is_disabled":false,"rental_uris":{"android":"levelo://app?vid=bf656e85-830e-4038-859e-1f3f351e036f","ios":"levelo://app?vid=bf656e85-830e-4038-859e-1f3f351e036f"},"vehicle_type_id":"4","last_reported":1708970925,"current_range_meters":10400,"station_id":"ce4bgt92rcd13ifvqcf0","pricing_plan_id":"cebpf4jnsgd1na2vs0mg"},{"bike_id":"360ce375-45e0-449f-a16c-c4a3c807a2e1","system_id":"levelo_inurba_marseille","lat":43.313659,"lon":5.385039,"is_reserved":false,"is_disabled":false,"rental_uris":{"android":"levelo://app?vid=360ce375-45e0-449f-a16c-c4a3c807a2e1","ios":"levelo://app?vid=360ce375-45e0-449f-a16c-c4a3c807a2e1"},"vehicle_type_id":"4","last_reported":1708970925,"current_range_meters":28800,"station_id":"ce4bgt92rcd13ifvqcf0","pricing_plan_id":"cebpf4jnsgd1na2vs0mg"},{"bike_id":"e2708ea4-5d72-4fe7-a515-99cec7dc4896","system_id":"levelo_inurba_marseille","lat":43.299724,"lon":5.371829,"is_reserved":false,"is_disabled":false,"rental_uris":{"android":"levelo://app?vid=e2708ea4-5d72-4fe7-a515-99cec7dc4896","ios":"levelo://app?vid=e2708ea4-5d72-4fe7-a515-99cec7dc4896"},"vehicle_type_id":"4","last_reported":1708970925,"current_range_meters":31200,"station_id":"ce4bgr92rcd13ifvqc7g","pricing_plan_id":"cebpf4jnsgd1na2vs0mg"},{"bike_id":"388e16fc-ba4c-4454-8400-b50a579eb560","system_id":"levelo_inurba_marseille","lat":43.299222,"lon":5.365554,"is_reserved":false,"is_disabled":false,"rental_uris":{"android":"levelo://app?vid=388e16fc-ba4c-4454-8400-b50a579eb560","ios":"levelo://app?vid=388e16fc-ba4c-4454-8400-b50a579eb560"},"vehicle_type_id":"4","last_reported":1708970925,"current_range_meters":20800,"station_id":"ce4bgm92rcd13ifvqbr0","pricing_plan_id":"cebpf4jnsgd1na2vs0mg"},{"bike_id":"d3f865f8-d5e9-43b2-b51a-7df0704c5e95","system_id":"levelo_inurba_marseille","lat":43.299724,"lon":5.371829,"is_reserved":false,"is_disabled":false,"rental_uris":{"android":"levelo://app?vid=d3f865f8-d5e9-43b2-b51a-7df0704c5e95","ios":"levelo://app?vid=d3f865f8-d5e9-43b2-b51a-7df0704c5e95"},"vehicle_type_id":"4","last_reported":1708970925,"current_range_meters":31200,"station_id":"ce4bgr92rcd13ifvqc7g","pricing_plan_id":"cebpf4jnsgd1na2vs0mg"},{"bike_id":"92ec41a7-3ceb-4f59-9919-0f053b83080d","system_id":"levelo_inurba_marseille","lat":43.299724,"lon":5.371829,"is_reserved":false,"is_disabled":false,"rental_uris":{"android":"levelo://app?vid=92ec41a7-3ceb-4f59-9919-0f053b83080d","ios":"levelo://app?vid=92ec41a7-3ceb-4f59-9919-0f053b83080d"},"vehicle_type_id":"4","last_reported":1708970925,"current_range_meters":24800,"station_id":"ce4bgr92rcd13ifvqc7g","pricing_plan_id":"cebpf4jnsgd1na2vs0mg"},{"bike_id":"94d07ac3-edac-44d6-9a3f-202f584c425f","system_id":"levelo_inurba_marseille","lat":43.299724,"lon":5.371829,"is_reserved":false,"is_disabled":false,"rental_uris":{"android":"levelo://app?vid=94d07ac3-edac-44d6-9a3f-202f584c425f","ios":"levelo://app?vid=94d07ac3-edac-44d6-9a3f-202f584c425f"},"vehicle_type_id":"4","last_reported":1708970925,"current_range_meters":7600,"station_id":"ce4bgr92rcd13ifvqc7g","pricing_plan_id":"cebpf4jnsgd1na2vs0mg"},{"bike_id":"f508fae2-137f-4488-ab7f-640812a21470","system_id":"levelo_inurba_marseille","lat":43.299222,"lon":5.365554,"is_reserved":false,"is_disabled":false,"rental_uris":{"android":"levelo://app?vid=f508fae2-137f-4488-ab7f-640812a21470","ios":"levelo://app?vid=f508fae2-137f-4488-ab7f-640812a21470"},"vehicle_type_id":"4","last_reported":1708970925,"current_range_meters":6400,"station_id":"ce4bgm92rcd13ifvqbr0","pricing_plan_id":"cebpf4jnsgd1na2vs0mg"},{"bike_id":"36422c1b-b50a-4316-9db3-f687a8f9f274","system_id":"levelo_inurba_marseille","lat":43.298979,"lon":5.363622,"is_reserved":false,"is_disabled":false,"rental_uris":{"android":"levelo://app?vid=36422c1b-b50a-4316-9db3-f687a8f9f274","ios":"levelo://app?vid=36422c1b-b50a-4316-9db3-f687a8f9f274"},"vehicle_type_id":"4","last_reported":1708970925,"current_range_meters":20800,"station_id":"","pricing_plan_id":"cebpf4jnsgd1na2vs0mg"},{"bike_id":"c4586646-217e-4396-b3c4-cd97bf526afa","system_id":"levelo_inurba_marseille","lat":43.29854,"lon":5.3629,"is_reserved":false,"is_disabled":false,"rental_uris":{"android":"levelo://app?vid=c4586646-217e-4396-b3c4-cd97bf526afa","ios":"levelo://app?vid=c4586646-217e-4396-b3c4-cd97bf526afa"},"vehicle_type_id":"4","last_reported":1708970925,"current_range_meters":24800,"station_id":"ce4bgpp2rcd13ifvqc3g","pricing_plan_id":"cebpf4jnsgd1na2vs0mg"},{"bike_id":"ee93a5e5-e0ef-4120-8868-9e72540c1754","system_id":"levelo_inurba_marseille","lat":43.298433,"lon":5.362774,"is_reserved":false,"is_disabled":false,"rental_uris":{"android":"levelo://app?vid=ee93a5e5-e0ef-4120-8868-9e72540c1754","ios":"levelo://app?vid=ee93a5e5-e0ef-4120-8868-9e72540c1754"},"vehicle_type_id":"4","last_reported":1708970925,"current_range_meters":8400,"station_id":"ce4bgpp2rcd13ifvqc3g","pricing_plan_id":"cebpf4jnsgd1na2vs0mg"},{"bike_id":"a6c69d10-4f4e-4a34-a03f-d482e853db0d","system_id":"levelo_inurba_marseille","lat":43.298433,"lon":5.362774,"is_reserved":false,"is_disabled":false,"rental_uris":{"android":"levelo://app?vid=a6c69d10-4f4e-4a34-a03f-d482e853db0d","ios":"levelo://app?vid=a6c69d10-4f4e-4a34-a03f-d482e853db0d"},"vehicle_type_id":"4","last_reported":1708970925,"current_range_meters":4000,"station_id":"ce4bgpp2rcd13ifvqc3g","pricing_plan_id":"cebpf4jnsgd1na2vs0mg"},{"bike_id":"26695355-d626-4f49-9023-4536a1b4dbbf","system_id":"levelo_inurba_marseille","lat":43.298433,"lon":5.362774,"is_reserved":false,"is_disabled":false,"rental_uris":{"android":"levelo://app?vid=26695355-d626-4f49-9023-4536a1b4dbbf","ios":"levelo://app?vid=26695355-d626-4f49-9023-4536a1b4dbbf"},"vehicle_type_id":"4","last_reported":1708970925,"current_range_meters":29600,"station_id":"ce4bgpp2rcd13ifvqc3g","pricing_plan_id":"cebpf4jnsgd1na2vs0mg"},{"bike_id":"2dfb7c06-da0b-4ad4-9ece-0f2d62a01646","system_id":"levelo_inurba_marseille","lat":43.298433,"lon":5.362774,"is_reserved":false,"is_disabled":false,"rental_uris":{"android":"levelo://app?vid=2dfb7c06-da0b-4ad4-9ece-0f2d62a01646","ios":"levelo://app?vid=2dfb7c06-da0b-4ad4-9ece-0f2d62a01646"},"vehicle_type_id":"4","last_reported":1708970925,"current_range_meters":18000,"station_id":"ce4bgpp2rcd13ifvqc3g","pricing_plan_id":"cebpf4jnsgd1na2vs0mg"},{"bike_id":"3c88e8cc-68be-42e6-b088-0f2b5de48b29","system_id":"levelo_inurba_marseille","lat":43.298433,"lon":5.362774,"is_reserved":false,"is_disabled":false,"rental_uris":{"android":"levelo://app?vid=3c88e8cc-68be-42e6-b088-0f2b5de48b29","ios":"levelo://app?vid=3c88e8cc-68be-42e6-b088-0f2b5de48b29"},"vehicle_type_id":"4","last_reported":1708970925,"current_range_meters":8400,"station_id":"ce4bgpp2rcd13ifvqc3g","pricing_plan_id":"cebpf4jnsgd1na2vs0mg"},{"bike_id":"3d5bc3e8-a445-45cd-9420-a2971c1429b0","system_id":"levelo_inurba_marseille","lat":43.298433,"lon":5.362774,"is_reserved":false,"is_disabled":false,"rental_uris":{"android":"levelo://app?vid=3d5bc3e8-a445-45cd-9420-a2971c1429b0","ios":"levelo://app?vid=3d5bc3e8-a445-45cd-9420-a2971c1429b0"},"vehicle_type_id":"4","last_reported":1708970925,"current_range_meters":28000,"station_id":"ce4bgpp2rcd13ifvqc3g","pricing_plan_id":"cebpf4jnsgd1na2vs0mg"},{"bike_id":"898aacfa-10c4-41c1-89aa-fb410371111d","system_id":"levelo_inurba_marseille","lat":43.298433,"lon":5.362774,"is_reserved":false,"is_disabled":false,"rental_uris":{"android":"levelo://app?vid=898aacfa-10c4-41c1-89aa-fb410371111d","ios":"levelo://app?vid=898aacfa-10c4-41c1-89aa-fb410371111d"},"vehicle_type_id":"4","last_reported":1708970925,"current_range_meters":21200,"station_id":"ce4bgpp2rcd13ifvqc3g","pricing_plan_id":"cebpf4jnsgd1na2vs0mg"},{"bike_id":"bceb84ad-f193-4ba8-b395-9ba852e67228","system_id":"levelo_inurba_marseille","lat":43.29849,"lon":5.36282,"is_reserved":false,"is_disabled":false,"rental_uris":{"android":"levelo://app?vid=bceb84ad-f193-4ba8-b395-9ba852e67228","ios":"levelo://app?vid=bceb84ad-f193-4ba8-b395-9ba852e67228"},"vehicle_type_id":"4","last_reported":1708970925,"current_range_meters":0,"station_id":"ce4bgpp2rcd13ifvqc3g","pricing_plan_id":"cebpf4jnsgd1na2vs0mg"},{"bike_id":"aaf80234-9d4c-4e74-8610-05f976d91926","system_id":"levelo_inurba_marseille","lat":43.298433,"lon":5.362774,"is_reserved":false,"is_disabled":false,"rental_uris":{"android":"levelo://app?vid=aaf80234-9d4c-4e74-8610-05f976d91926","ios":"levelo://app?vid=aaf80234-9d4c-4e74-8610-05f976d91926"},"vehicle_type_id":"4","last_reported":1708970925,"current_range_meters":22800,"station_id":"ce4bgpp2rcd13ifvqc3g","pricing_plan_id":"cebpf4jnsgd1na2vs0mg"},{"bike_id":"b720a1c7-4075-4c2c-b660-3c50f3f10c51","system_id":"levelo_inurba_marseille","lat":43.298433,"lon":5.362774,"is_reserved":false,"is_disabled":false,"rental_uris":{"android":"levelo://app?vid=b720a1c7-4075-4c2c-b660-3c50f3f10c51","ios":"levelo://app?vid=b720a1c7-4075-4c2c-b660-3c50f3f10c51"},"vehicle_type_id":"4","last_reported":1708970925,"current_range_meters":12000,"station_id":"ce4bgpp2rcd13ifvqc3g","pricing_plan_id":"cebpf4jnsgd1na2vs0mg"},{"bike_id":"8d43916d-ac5a-4afd-bcfc-90f5da339dab","system_id":"levelo_inurba_marseille","lat":43.298433,"lon":5.362774,"is_reserved":false,"is_disabled":false,"rental_uris":{"android":"levelo://app?vid=8d43916d-ac5a-4afd-bcfc-90f5da339dab","ios":"levelo://app?vid=8d43916d-ac5a-4afd-bcfc-90f5da339dab"},"vehicle_type_id":"4","last_reported":1708970925,"current_range_meters":31600,"station_id":"ce4bgpp2rcd13ifvqc3g","pricing_plan_id":"cebpf4jnsgd1na2vs0mg"},{"bike_id":"87f8a19b-9050-430e-bb9f-0028c1efe88a","system_id":"levelo_inurba_marseille","lat":43.305364,"lon":5.384119,"is_reserved":false,"is_disabled":false,"rental_uris":{"android":"levelo://app?vid=87f8a19b-9050-430e-bb9f-0028c1efe88a","ios":"levelo://app?vid=87f8a19b-9050-430e-bb9f-0028c1efe88a"},"vehicle_type_id":"4","last_reported":1708970925,"current_range_meters":24000,"station_id":"ce4bgg92rcd13ifvqb30","pricing_plan_id":"cebpf4jnsgd1na2vs0mg"},{"bike_id":"39dbd156-4091-40fd-821c-48e845a64abd","system_id":"levelo_inurba_marseille","lat":43.298433,"lon":5.362774,"is_reserved":false,"is_disabled":false,"rental_uris":{"android":"levelo://app?vid=39dbd156-4091-40fd-821c-48e845a64abd","ios":"levelo://app?vid=39dbd156-4091-40fd-821c-48e845a64abd"},"vehicle_type_id":"4","last_reported":1708970925,"current_range_meters":16800,"station_id":"ce4bgpp2rcd13ifvqc3g","pricing_plan_id":"cebpf4jnsgd1na2vs0mg"},{"bike_id":"8851c24c-552a-41bd-ab0a-8466c1877079","system_id":"levelo_inurba_marseille","lat":43.298433,"lon":5.362774,"is_reserved":false,"is_disabled":false,"rental_uris":{"android":"levelo://app?vid=8851c24c-552a-41bd-ab0a-8466c1877079","ios":"levelo://app?vid=8851c24c-552a-41bd-ab0a-8466c1877079"},"vehicle_type_id":"4","last_reported":1708970925,"current_range_meters":14800,"station_id":"ce4bgpp2rcd13ifvqc3g","pricing_plan_id":"cebpf4jnsgd1na2vs0mg"},{"bike_id":"9c63626d-c644-4bb8-b08f-de2c136d3a48","system_id":"levelo_inurba_marseille","lat":43.298433,"lon":5.362774,"is_reserved":false,"is_disabled":false,"rental_uris":{"android":"levelo://app?vid=9c63626d-c644-4bb8-b08f-de2c136d3a48","ios":"levelo://app?vid=9c63626d-c644-4bb8-b08f-de2c136d3a48"},"vehicle_type_id":"4","last_reported":1708970925,"current_range_meters":1200,"station_id":"ce4bgpp2rcd13ifvqc3g","pricing_plan_id":"cebpf4jnsgd1na2vs0mg"},{"bike_id":"50e141c0-3690-4c79-b4ed-69759aee8073","system_id":"levelo_inurba_marseille","lat":43.298433,"lon":5.362774,"is_reserved":false,"is_disabled":false,"rental_uris":{"android":"levelo://app?vid=50e141c0-3690-4c79-b4ed-69759aee8073","ios":"levelo://app?vid=50e141c0-3690-4c79-b4ed-69759aee8073"},"vehicle_type_id":"4","last_reported":1708970925,"current_range_meters":7200,"station_id":"ce4bgpp2rcd13ifvqc3g","pricing_plan_id":"cebpf4jnsgd1na2vs0mg"},{"bike_id":"c8bbb1e0-a3a3-4c6b-8049-ab6cd8aeb409","system_id":"levelo_inurba_marseille","lat":43.298436,"lon":5.362777,"is_reserved":false,"is_disabled":false,"rental_uris":{"android":"levelo://app?vid=c8bbb1e0-a3a3-4c6b-8049-ab6cd8aeb409","ios":"levelo://app?vid=c8bbb1e0-a3a3-4c6b-8049-ab6cd8aeb409"},"vehicle_type_id":"4","last_reported":1708970925,"current_range_meters":24000,"station_id":"ce4bgpp2rcd13ifvqc3g","pricing_plan_id":"cebpf4jnsgd1na2vs0mg"},{"bike_id":"8a489641-8d6a-4980-8e08-f689450038bf","system_id":"levelo_inurba_marseille","lat":43.298433,"lon":5.362774,"is_reserved":false,"is_disabled":false,"rental_uris":{"android":"levelo://app?vid=8a489641-8d6a-4980-8e08-f689450038bf","ios":"levelo://app?vid=8a489641-8d6a-4980-8e08-f689450038bf"},"vehicle_type_id":"4","last_reported":1708970925,"current_range_meters":5600,"station_id":"ce4bgpp2rcd13ifvqc3g","pricing_plan_id":"cebpf4jnsgd1na2vs0mg"},{"bike_id":"590a3d68-045b-44b1-991a-751c7196f398","system_id":"levelo_inurba_marseille","lat":43.298433,"lon":5.362774,"is_reserved":false,"is_disabled":false,"rental_uris":{"android":"levelo://app?vid=590a3d68-045b-44b1-991a-751c7196f398","ios":"levelo://app?vid=590a3d68-045b-44b1-991a-751c7196f398"},"vehicle_type_id":"4","last_reported":1708970925,"current_range_meters":16800,"station_id":"ce4bgpp2rcd13ifvqc3g","pricing_plan_id":"cebpf4jnsgd1na2vs0mg"},{"bike_id":"4bfee383-34b8-4c9f-9ffe-73ff07eee388","system_id":"levelo_inurba_marseille","lat":43.298433,"lon":5.362774,"is_reserved":false,"is_disabled":false,"rental_uris":{"android":"levelo://app?vid=4bfee383-34b8-4c9f-9ffe-73ff07eee388","ios":"levelo://app?vid=4bfee383-34b8-4c9f-9ffe-73ff07eee388"},"vehicle_type_id":"4","last_reported":1708970925,"current_range_meters":30800,"station_id":"ce4bgpp2rcd13ifvqc3g","pricing_plan_id":"cebpf4jnsgd1na2vs0mg"},{"bike_id":"79499741-38b3-4462-94a7-e0096da361ea","system_id":"levelo_inurba_marseille","lat":43.298433,"lon":5.362774,"is_reserved":false,"is_disabled":false,"rental_uris":{"android":"levelo://app?vid=79499741-38b3-4462-94a7-e0096da361ea","ios":"levelo://app?vid=79499741-38b3-4462-94a7-e0096da361ea"},"vehicle_type_id":"4","last_reported":1708970925,"current_range_meters":23200,"station_id":"ce4bgpp2rcd13ifvqc3g","pricing_plan_id":"cebpf4jnsgd1na2vs0mg"},{"bike_id":"de56bcb1-2d8f-4060-851d-3416e0646253","system_id":"levelo_inurba_marseille","lat":43.298433,"lon":5.362774,"is_reserved":false,"is_disabled":false,"rental_uris":{"android":"levelo://app?vid=de56bcb1-2d8f-4060-851d-3416e0646253","ios":"levelo://app?vid=de56bcb1-2d8f-4060-851d-3416e0646253"},"vehicle_type_id":"4","last_reported":1708970925,"current_range_meters":26400,"station_id":"ce4bgpp2rcd13ifvqc3g","pricing_plan_id":"cebpf4jnsgd1na2vs0mg"},{"bike_id":"39af641b-8839-4743-9382-b77c239976fe","system_id":"levelo_inurba_marseille","lat":43.29843,"lon":5.36269,"is_reserved":false,"is_disabled":false,"rental_uris":{"android":"levelo://app?vid=39af641b-8839-4743-9382-b77c239976fe","ios":"levelo://app?vid=39af641b-8839-4743-9382-b77c239976fe"},"vehicle_type_id":"4","last_reported":1708970925,"current_range_meters":23600,"station_id":"ce4bgpp2rcd13ifvqc3g","pricing_plan_id":"cebpf4jnsgd1na2vs0mg"},{"bike_id":"6a958ad8-41b2-402e-be5d-cc7e363c73d3","system_id":"levelo_inurba_marseille","lat":43.29841,"lon":5.36273,"is_reserved":false,"is_disabled":false,"rental_uris":{"android":"levelo://app?vid=6a958ad8-41b2-402e-be5d-cc7e363c73d3","ios":"levelo://app?vid=6a958ad8-41b2-402e-be5d-cc7e363c73d3"},"vehicle_type_id":"4","last_reported":1708970925,"current_range_meters":21200,"station_id":"ce4bgpp2rcd13ifvqc3g","pricing_plan_id":"cebpf4jnsgd1na2vs0mg"},{"bike_id":"c2ea0dfd-3250-4ccb-9b8f-a5029cbe3652","system_id":"levelo_inurba_marseille","lat":43.29841,"lon":5.36272,"is_reserved":false,"is_disabled":false,"rental_uris":{"android":"levelo://app?vid=c2ea0dfd-3250-4ccb-9b8f-a5029cbe3652","ios":"levelo://app?vid=c2ea0dfd-3250-4ccb-9b8f-a5029cbe3652"},"vehicle_type_id":"4","last_reported":1708970925,"current_range_meters":15200,"station_id":"ce4bgpp2rcd13ifvqc3g","pricing_plan_id":"cebpf4jnsgd1na2vs0mg"},{"bike_id":"3f7b377e-811b-46db-a9ee-b0a2888fecdd","system_id":"levelo_inurba_marseille","lat":43.298433,"lon":5.362774,"is_reserved":false,"is_disabled":false,"rental_uris":{"android":"levelo://app?vid=3f7b377e-811b-46db-a9ee-b0a2888fecdd","ios":"levelo://app?vid=3f7b377e-811b-46db-a9ee-b0a2888fecdd"},"vehicle_type_id":"4","last_reported":1708970925,"current_range_meters":31200,"station_id":"ce4bgpp2rcd13ifvqc3g","pricing_plan_id":"cebpf4jnsgd1na2vs0mg"},{"bike_id":"5302fa4e-2e46-46aa-b40a-1d504d98115f","system_id":"levelo_inurba_marseille","lat":43.29841,"lon":5.36271,"is_reserved":false,"is_disabled":false,"rental_uris":{"android":"levelo://app?vid=5302fa4e-2e46-46aa-b40a-1d504d98115f","ios":"levelo://app?vid=5302fa4e-2e46-46aa-b40a-1d504d98115f"},"vehicle_type_id":"4","last_reported":1708970925,"current_range_meters":19600,"station_id":"ce4bgpp2rcd13ifvqc3g","pricing_plan_id":"cebpf4jnsgd1na2vs0mg"},{"bike_id":"bedb10f0-30c5-4231-81c1-259bb623cff9","system_id":"levelo_inurba_marseille","lat":43.29841,"lon":5.36271,"is_reserved":false,"is_disabled":false,"rental_uris":{"android":"levelo://app?vid=bedb10f0-30c5-4231-81c1-259bb623cff9","ios":"levelo://app?vid=bedb10f0-30c5-4231-81c1-259bb623cff9"},"vehicle_type_id":"4","last_reported":1708970925,"current_range_meters":20000,"station_id":"ce4bgpp2rcd13ifvqc3g","pricing_plan_id":"cebpf4jnsgd1na2vs0mg"},{"bike_id":"ada6ccb4-40ae-49e6-8c05-eca2b1f5924a","system_id":"levelo_inurba_marseille","lat":43.29841,"lon":5.3627,"is_reserved":false,"is_disabled":false,"rental_uris":{"android":"levelo://app?vid=ada6ccb4-40ae-49e6-8c05-eca2b1f5924a","ios":"levelo://app?vid=ada6ccb4-40ae-49e6-8c05-eca2b1f5924a"},"vehicle_type_id":"4","last_reported":1708970925,"current_range_meters":3200,"station_id":"ce4bgpp2rcd13ifvqc3g","pricing_plan_id":"cebpf4jnsgd1na2vs0mg"},{"bike_id":"3de9d7cd-7398-458c-9d19-198559d2efdb","system_id":"levelo_inurba_marseille","lat":43.29841,"lon":5.36268,"is_reserved":false,"is_disabled":false,"rental_uris":{"android":"levelo://app?vid=3de9d7cd-7398-458c-9d19-198559d2efdb","ios":"levelo://app?vid=3de9d7cd-7398-458c-9d19-198559d2efdb"},"vehicle_type_id":"4","last_reported":1708970925,"current_range_meters":14000,"station_id":"ce4bgpp2rcd13ifvqc3g","pricing_plan_id":"cebpf4jnsgd1na2vs0mg"},{"bike_id":"f876d894-c9ed-4905-8d06-d54f11223930","system_id":"levelo_inurba_marseille","lat":43.298433,"lon":5.362774,"is_reserved":false,"is_disabled":false,"rental_uris":{"android":"levelo://app?vid=f876d894-c9ed-4905-8d06-d54f11223930","ios":"levelo://app?vid=f876d894-c9ed-4905-8d06-d54f11223930"},"vehicle_type_id":"4","last_reported":1708970925,"current_range_meters":21200,"station_id":"ce4bgpp2rcd13ifvqc3g","pricing_plan_id":"cebpf4jnsgd1na2vs0mg"},{"bike_id":"d08d824c-87bc-44e4-9cef-17a46fe024dc","system_id":"levelo_inurba_marseille","lat":43.2984,"lon":5.36271,"is_reserved":false,"is_disabled":false,"rental_uris":{"android":"levelo://app?vid=d08d824c-87bc-44e4-9cef-17a46fe024dc","ios":"levelo://app?vid=d08d824c-87bc-44e4-9cef-17a46fe024dc"},"vehicle_type_id":"4","last_reported":1708970925,"current_range_meters":10800,"station_id":"ce4bgpp2rcd13ifvqc3g","pricing_plan_id":"cebpf4jnsgd1na2vs0mg"},{"bike_id":"c246d507-2693-4eee-a249-e7b487516e2d","system_id":"levelo_inurba_marseille","lat":43.298433,"lon":5.362774,"is_reserved":false,"is_disabled":false,"rental_uris":{"android":"levelo://app?vid=c246d507-2693-4eee-a249-e7b487516e2d","ios":"levelo://app?vid=c246d507-2693-4eee-a249-e7b487516e2d"},"vehicle_type_id":"4","last_reported":1708970925,"current_range_meters":30800,"station_id":"ce4bgpp2rcd13ifvqc3g","pricing_plan_id":"cebpf4jnsgd1na2vs0mg"},{"bike_id":"b354a6f9-5950-4e27-89bb-64a643b24389","system_id":"levelo_inurba_marseille","lat":43.2984,"lon":5.36269,"is_reserved":false,"is_disabled":false,"rental_uris":{"android":"levelo://app?vid=b354a6f9-5950-4e27-89bb-64a643b24389","ios":"levelo://app?vid=b354a6f9-5950-4e27-89bb-64a643b24389"},"vehicle_type_id":"4","last_reported":1708970925,"current_range_meters":0,"station_id":"ce4bgpp2rcd13ifvqc3g","pricing_plan_id":"cebpf4jnsgd1na2vs0mg"},{"bike_id":"d9d29955-3c3c-4a58-bee5-6ae0d35523fc","system_id":"levelo_inurba_marseille","lat":43.2984,"lon":5.36269,"is_reserved":false,"is_disabled":false,"rental_uris":{"android":"levelo://app?vid=d9d29955-3c3c-4a58-bee5-6ae0d35523fc","ios":"levelo://app?vid=d9d29955-3c3c-4a58-bee5-6ae0d35523fc"},"vehicle_type_id":"4","last_reported":1708970925,"current_range_meters":25200,"station_id":"ce4bgpp2rcd13ifvqc3g","pricing_plan_id":"cebpf4jnsgd1na2vs0mg"},{"bike_id":"1b0beaf4-e577-4fd3-9db8-94f19fc47ee8","system_id":"levelo_inurba_marseille","lat":43.304274,"lon":5.388873,"is_reserved":false,"is_disabled":false,"rental_uris":{"android":"levelo://app?vid=1b0beaf4-e577-4fd3-9db8-94f19fc47ee8","ios":"levelo://app?vid=1b0beaf4-e577-4fd3-9db8-94f19fc47ee8"},"vehicle_type_id":"4","last_reported":1708970925,"current_range_meters":20400,"station_id":"ce4bgk12rcd13ifvqbi0","pricing_plan_id":"cebpf4jnsgd1na2vs0mg"},{"bike_id":"aa07d56e-6aac-4569-b0b9-60a332824fe4","system_id":"levelo_inurba_marseille","lat":43.29839,"lon":5.3627,"is_reserved":false,"is_disabled":false,"rental_uris":{"android":"levelo://app?vid=aa07d56e-6aac-4569-b0b9-60a332824fe4","ios":"levelo://app?vid=aa07d56e-6aac-4569-b0b9-60a332824fe4"},"vehicle_type_id":"4","last_reported":1708970925,"current_range_meters":18800,"station_id":"ce4bgpp2rcd13ifvqc3g","pricing_plan_id":"cebpf4jnsgd1na2vs0mg"},{"bike_id":"84a60996-cd05-4767-9a20-dbfa6bdbb976","system_id":"levelo_inurba_marseille","lat":43.29839,"lon":5.36267,"is_reserved":false,"is_disabled":false,"rental_uris":{"android":"levelo://app?vid=84a60996-cd05-4767-9a20-dbfa6bdbb976","ios":"levelo://app?vid=84a60996-cd05-4767-9a20-dbfa6bdbb976"},"vehicle_type_id":"4","last_reported":1708970925,"current_range_meters":13200,"station_id":"ce4bgpp2rcd13ifvqc3g","pricing_plan_id":"cebpf4jnsgd1na2vs0mg"},{"bike_id":"a52ec72a-33e2-4472-93be-de98bd341aa4","system_id":"levelo_inurba_marseille","lat":43.299243,"lon":5.37481,"is_reserved":false,"is_disabled":false,"rental_uris":{"android":"levelo://app?vid=a52ec72a-33e2-4472-93be-de98bd341aa4","ios":"levelo://app?vid=a52ec72a-33e2-4472-93be-de98bd341aa4"},"vehicle_type_id":"4","last_reported":1708970925,"current_range_meters":12800,"station_id":"ce4bgjh2rcd13ifvqbg0","pricing_plan_id":"cebpf4jnsgd1na2vs0mg"},{"bike_id":"f8fb9918-0b67-43c8-8236-70410d641800","system_id":"levelo_inurba_marseille","lat":43.305364,"lon":5.384119,"is_reserved":false,"is_disabled":false,"rental_uris":{"android":"levelo://app?vid=f8fb9918-0b67-43c8-8236-70410d641800","ios":"levelo://app?vid=f8fb9918-0b67-43c8-8236-70410d641800"},"vehicle_type_id":"4","last_reported":1708970925,"current_range_meters":28400,"station_id":"ce4bgg92rcd13ifvqb30","pricing_plan_id":"cebpf4jnsgd1na2vs0mg"},{"bike_id":"ad6acefe-032c-492e-a6e1-ca04c63df7c0","system_id":"levelo_inurba_marseille","lat":43.299243,"lon":5.374807,"is_reserved":false,"is_disabled":false,"rental_uris":{"android":"levelo://app?vid=ad6acefe-032c-492e-a6e1-ca04c63df7c0","ios":"levelo://app?vid=ad6acefe-032c-492e-a6e1-ca04c63df7c0"},"vehicle_type_id":"4","last_reported":1708970925,"current_range_meters":30800,"station_id":"ce4bgjh2rcd13ifvqbg0","pricing_plan_id":"cebpf4jnsgd1na2vs0mg"},{"bike_id":"f70cce5c-a6c6-42d2-8440-ba8aaeac521b","system_id":"levelo_inurba_marseille","lat":43.3117,"lon":5.38716,"is_reserved":false,"is_disabled":false,"rental_uris":{"android":"levelo://app?vid=f70cce5c-a6c6-42d2-8440-ba8aaeac521b","ios":"levelo://app?vid=f70cce5c-a6c6-42d2-8440-ba8aaeac521b"},"vehicle_type_id":"4","last_reported":1708970925,"current_range_meters":0,"station_id":"ce4bgv12rcd13ifvqcp0","pricing_plan_id":"cebpf4jnsgd1na2vs0mg"},{"bike_id":"23ae2595-9081-4464-b249-184ad3196b1a","system_id":"levelo_inurba_marseille","lat":43.311722,"lon":5.387247,"is_reserved":false,"is_disabled":false,"rental_uris":{"android":"levelo://app?vid=23ae2595-9081-4464-b249-184ad3196b1a","ios":"levelo://app?vid=23ae2595-9081-4464-b249-184ad3196b1a"},"vehicle_type_id":"4","last_reported":1708970925,"current_range_meters":31200,"station_id":"ce4bgv12rcd13ifvqcp0","pricing_plan_id":"cebpf4jnsgd1na2vs0mg"},{"bike_id":"34203e49-0403-49f4-8712-691e473c4c50","system_id":"levelo_inurba_marseille","lat":43.311722,"lon":5.387247,"is_reserved":false,"is_disabled":false,"rental_uris":{"android":"levelo://app?vid=34203e49-0403-49f4-8712-691e473c4c50","ios":"levelo://app?vid=34203e49-0403-49f4-8712-691e473c4c50"},"vehicle_type_id":"4","last_reported":1708970925,"current_range_meters":27200,"station_id":"ce4bgv12rcd13ifvqcp0","pricing_plan_id":"cebpf4jnsgd1na2vs0mg"},{"bike_id":"0d9e8c86-ead1-4cf6-94e9-bb7685223548","system_id":"levelo_inurba_marseille","lat":43.29786,"lon":5.37102,"is_reserved":false,"is_disabled":false,"rental_uris":{"android":"levelo://app?vid=0d9e8c86-ead1-4cf6-94e9-bb7685223548","ios":"levelo://app?vid=0d9e8c86-ead1-4cf6-94e9-bb7685223548"},"vehicle_type_id":"4","last_reported":1708970925,"current_range_meters":26800,"station_id":"ce4bgop2rcd13ifvqc1g","pricing_plan_id":"cebpf4jnsgd1na2vs0mg"},{"bike_id":"e5cf2e0e-3fa6-40ec-bb70-bb52f8cd1a25","system_id":"levelo_inurba_marseille","lat":43.297849,"lon":5.371019,"is_reserved":false,"is_disabled":false,"rental_uris":{"android":"levelo://app?vid=e5cf2e0e-3fa6-40ec-bb70-bb52f8cd1a25","ios":"levelo://app?vid=e5cf2e0e-3fa6-40ec-bb70-bb52f8cd1a25"},"vehicle_type_id":"4","last_reported":1708970925,"current_range_meters":21600,"station_id":"ce4bgop2rcd13ifvqc1g","pricing_plan_id":"cebpf4jnsgd1na2vs0mg"},{"bike_id":"712a7e3e-c91a-4a77-a90c-b6e5cd52c95e","system_id":"levelo_inurba_marseille","lat":43.322872,"lon":5.382756,"is_reserved":false,"is_disabled":false,"rental_uris":{"android":"levelo://app?vid=712a7e3e-c91a-4a77-a90c-b6e5cd52c95e","ios":"levelo://app?vid=712a7e3e-c91a-4a77-a90c-b6e5cd52c95e"},"vehicle_type_id":"4","last_reported":1708970925,"current_range_meters":30000,"station_id":"ce4bhr12rcd13ifvqhqg","pricing_plan_id":"cebpf4jnsgd1na2vs0mg"},{"bike_id":"80982083-908d-47e5-8557-41d9cdef1499","system_id":"levelo_inurba_marseille","lat":43.29775,"lon":5.37108,"is_reserved":false,"is_disabled":false,"rental_uris":{"android":"levelo://app?vid=80982083-908d-47e5-8557-41d9cdef1499","ios":"levelo://app?vid=80982083-908d-47e5-8557-41d9cdef1499"},"vehicle_type_id":"4","last_reported":1708970925,"current_range_meters":31200,"station_id":"ce4bgop2rcd13ifvqc1g","pricing_plan_id":"cebpf4jnsgd1na2vs0mg"},{"bike_id":"efb5d8ee-5f92-4514-93ca-0c33181a0849","system_id":"levelo_inurba_marseille","lat":43.32282,"lon":5.38274,"is_reserved":false,"is_disabled":false,"rental_uris":{"android":"levelo://app?vid=efb5d8ee-5f92-4514-93ca-0c33181a0849","ios":"levelo://app?vid=efb5d8ee-5f92-4514-93ca-0c33181a0849"},"vehicle_type_id":"4","last_reported":1708970925,"current_range_meters":25200,"station_id":"ce4bhr12rcd13ifvqhqg","pricing_plan_id":"cebpf4jnsgd1na2vs0mg"},{"bike_id":"d23444e9-c021-4fba-8baf-5a698b82bb62","system_id":"levelo_inurba_marseille","lat":43.322872,"lon":5.382756,"is_reserved":false,"is_disabled":false,"rental_uris":{"android":"levelo://app?vid=d23444e9-c021-4fba-8baf-5a698b82bb62","ios":"levelo://app?vid=d23444e9-c021-4fba-8baf-5a698b82bb62"},"vehicle_type_id":"4","last_reported":1708970925,"current_range_meters":13600,"station_id":"ce4bhr12rcd13ifvqhqg","pricing_plan_id":"cebpf4jnsgd1na2vs0mg"},{"bike_id":"69c47327-677e-431b-8be3-6aef00a19fa9","system_id":"levelo_inurba_marseille","lat":43.322872,"lon":5.382756,"is_reserved":false,"is_disabled":false,"rental_uris":{"android":"levelo://app?vid=69c47327-677e-431b-8be3-6aef00a19fa9","ios":"levelo://app?vid=69c47327-677e-431b-8be3-6aef00a19fa9"},"vehicle_type_id":"4","last_reported":1708970925,"current_range_meters":24000,"station_id":"ce4bhr12rcd13ifvqhqg","pricing_plan_id":"cebpf4jnsgd1na2vs0mg"},{"bike_id":"9ec5b510-4f95-465c-a93c-e057f4ded7d1","system_id":"levelo_inurba_marseille","lat":43.297774,"lon":5.370875,"is_reserved":false,"is_disabled":false,"rental_uris":{"android":"levelo://app?vid=9ec5b510-4f95-465c-a93c-e057f4ded7d1","ios":"levelo://app?vid=9ec5b510-4f95-465c-a93c-e057f4ded7d1"},"vehicle_type_id":"4","last_reported":1708970925,"current_range_meters":27600,"station_id":"ce4bgop2rcd13ifvqc1g","pricing_plan_id":"cebpf4jnsgd1na2vs0mg"},{"bike_id":"49e74b8f-1b1a-4229-8d8a-ec9d0bb4dc00","system_id":"levelo_inurba_marseille","lat":43.322872,"lon":5.382756,"is_reserved":false,"is_disabled":false,"rental_uris":{"android":"levelo://app?vid=49e74b8f-1b1a-4229-8d8a-ec9d0bb4dc00","ios":"levelo://app?vid=49e74b8f-1b1a-4229-8d8a-ec9d0bb4dc00"},"vehicle_type_id":"4","last_reported":1708970925,"current_range_meters":16000,"station_id":"ce4bhr12rcd13ifvqhqg","pricing_plan_id":"cebpf4jnsgd1na2vs0mg"},{"bike_id":"cadf8524-9f84-4c84-8652-63d4d7ca1f23","system_id":"levelo_inurba_marseille","lat":43.29823,"lon":5.37402,"is_reserved":false,"is_disabled":false,"rental_uris":{"android":"levelo://app?vid=cadf8524-9f84-4c84-8652-63d4d7ca1f23","ios":"levelo://app?vid=cadf8524-9f84-4c84-8652-63d4d7ca1f23"},"vehicle_type_id":"4","last_reported":1708970925,"current_range_meters":0,"station_id":"","pricing_plan_id":"cebpf4jnsgd1na2vs0mg"},{"bike_id":"376d8706-74f1-4bba-92bc-e3dfccbdd631","system_id":"levelo_inurba_marseille","lat":43.322872,"lon":5.382756,"is_reserved":false,"is_disabled":false,"rental_uris":{"android":"levelo://app?vid=376d8706-74f1-4bba-92bc-e3dfccbdd631","ios":"levelo://app?vid=376d8706-74f1-4bba-92bc-e3dfccbdd631"},"vehicle_type_id":"4","last_reported":1708970925,"current_range_meters":7200,"station_id":"ce4bhr12rcd13ifvqhqg","pricing_plan_id":"cebpf4jnsgd1na2vs0mg"},{"bike_id":"134893ec-6802-4cc3-b586-425874b781dc","system_id":"levelo_inurba_marseille","lat":43.297163,"lon":5.365866,"is_reserved":false,"is_disabled":false,"rental_uris":{"android":"levelo://app?vid=134893ec-6802-4cc3-b586-425874b781dc","ios":"levelo://app?vid=134893ec-6802-4cc3-b586-425874b781dc"},"vehicle_type_id":"4","last_reported":1708970925,"current_range_meters":28400,"station_id":"ce4bgn12rcd13ifvqbt0","pricing_plan_id":"cebpf4jnsgd1na2vs0mg"},{"bike_id":"3b1b78eb-a979-4d9e-9a8f-c2dd768605d9","system_id":"levelo_inurba_marseille","lat":43.29711,"lon":5.3661,"is_reserved":false,"is_disabled":false,"rental_uris":{"android":"levelo://app?vid=3b1b78eb-a979-4d9e-9a8f-c2dd768605d9","ios":"levelo://app?vid=3b1b78eb-a979-4d9e-9a8f-c2dd768605d9"},"vehicle_type_id":"4","last_reported":1708970925,"current_range_meters":27600,"station_id":"ce4bgn12rcd13ifvqbt0","pricing_plan_id":"cebpf4jnsgd1na2vs0mg"},{"bike_id":"d395a1cb-5ffb-4c07-8b0a-36c3b802236c","system_id":"levelo_inurba_marseille","lat":43.2971,"lon":5.366072,"is_reserved":false,"is_disabled":false,"rental_uris":{"android":"levelo://app?vid=d395a1cb-5ffb-4c07-8b0a-36c3b802236c","ios":"levelo://app?vid=d395a1cb-5ffb-4c07-8b0a-36c3b802236c"},"vehicle_type_id":"4","last_reported":1708970925,"current_range_meters":29200,"station_id":"ce4bgn12rcd13ifvqbt0","pricing_plan_id":"cebpf4jnsgd1na2vs0mg"},{"bike_id":"dcb5e1a0-5c65-4c3a-8043-91aee36c4750","system_id":"levelo_inurba_marseille","lat":43.29708,"lon":5.36613,"is_reserved":false,"is_disabled":false,"rental_uris":{"android":"levelo://app?vid=dcb5e1a0-5c65-4c3a-8043-91aee36c4750","ios":"levelo://app?vid=dcb5e1a0-5c65-4c3a-8043-91aee36c4750"},"vehicle_type_id":"4","last_reported":1708970925,"current_range_meters":20400,"station_id":"ce4bgn12rcd13ifvqbt0","pricing_plan_id":"cebpf4jnsgd1na2vs0mg"},{"bike_id":"57f2525a-502c-4dfd-a074-3b66ad88bc1f","system_id":"levelo_inurba_marseille","lat":43.29707,"lon":5.36604,"is_reserved":false,"is_disabled":false,"rental_uris":{"android":"levelo://app?vid=57f2525a-502c-4dfd-a074-3b66ad88bc1f","ios":"levelo://app?vid=57f2525a-502c-4dfd-a074-3b66ad88bc1f"},"vehicle_type_id":"4","last_reported":1708970925,"current_range_meters":23200,"station_id":"ce4bgn12rcd13ifvqbt0","pricing_plan_id":"cebpf4jnsgd1na2vs0mg"},{"bike_id":"dca8bdb0-0324-469c-8ed0-ca8744ae5e0a","system_id":"levelo_inurba_marseille","lat":43.298741,"lon":5.37669,"is_reserved":false,"is_disabled":false,"rental_uris":{"android":"levelo://app?vid=dca8bdb0-0324-469c-8ed0-ca8744ae5e0a","ios":"levelo://app?vid=dca8bdb0-0324-469c-8ed0-ca8744ae5e0a"},"vehicle_type_id":"4","last_reported":1708970925,"current_range_meters":10000,"station_id":"","pricing_plan_id":"cebpf4jnsgd1na2vs0mg"},{"bike_id":"abdbe6f1-84ff-4734-8821-e05bed0a9a2d","system_id":"levelo_inurba_marseille","lat":43.297034,"lon":5.36599,"is_reserved":false,"is_disabled":false,"rental_uris":{"android":"levelo://app?vid=abdbe6f1-84ff-4734-8821-e05bed0a9a2d","ios":"levelo://app?vid=abdbe6f1-84ff-4734-8821-e05bed0a9a2d"},"vehicle_type_id":"4","last_reported":1708970925,"current_range_meters":29600,"station_id":"ce4bgn12rcd13ifvqbt0","pricing_plan_id":"cebpf4jnsgd1na2vs0mg"},{"bike_id":"38d8f648-c4a8-4f89-981d-03d1b27949ca","system_id":"levelo_inurba_marseille","lat":43.292644,"lon":5.384257,"is_reserved":false,"is_disabled":false,"rental_uris":{"android":"levelo://app?vid=38d8f648-c4a8-4f89-981d-03d1b27949ca","ios":"levelo://app?vid=38d8f648-c4a8-4f89-981d-03d1b27949ca"},"vehicle_type_id":"4","last_reported":1708970925,"current_range_meters":6400,"station_id":"ce4bh692rcd13ifvqea0","pricing_plan_id":"cebpf4jnsgd1na2vs0mg"},{"bike_id":"0e1e9cda-719c-4272-8ea4-dc796bec56b2","system_id":"levelo_inurba_marseille","lat":43.2968,"lon":5.37291,"is_reserved":false,"is_disabled":false,"rental_uris":{"android":"levelo://app?vid=0e1e9cda-719c-4272-8ea4-dc796bec56b2","ios":"levelo://app?vid=0e1e9cda-719c-4272-8ea4-dc796bec56b2"},"vehicle_type_id":"4","last_reported":1708970925,"current_range_meters":27600,"station_id":"ce4bgk12rcd13ifvqbj0","pricing_plan_id":"cebpf4jnsgd1na2vs0mg"},{"bike_id":"c6eee773-661c-4a6e-9bac-54b21d51c549","system_id":"levelo_inurba_marseille","lat":43.322872,"lon":5.382756,"is_reserved":false,"is_disabled":false,"rental_uris":{"android":"levelo://app?vid=c6eee773-661c-4a6e-9bac-54b21d51c549","ios":"levelo://app?vid=c6eee773-661c-4a6e-9bac-54b21d51c549"},"vehicle_type_id":"4","last_reported":1708970925,"current_range_meters":24800,"station_id":"ce4bhr12rcd13ifvqhqg","pricing_plan_id":"cebpf4jnsgd1na2vs0mg"},{"bike_id":"c1b1f47c-1790-45a3-914c-7e842a1bc63b","system_id":"levelo_inurba_marseille","lat":43.29678,"lon":5.372844,"is_reserved":false,"is_disabled":false,"rental_uris":{"android":"levelo://app?vid=c1b1f47c-1790-45a3-914c-7e842a1bc63b","ios":"levelo://app?vid=c1b1f47c-1790-45a3-914c-7e842a1bc63b"},"vehicle_type_id":"4","last_reported":1708970925,"current_range_meters":26800,"station_id":"ce4bgk12rcd13ifvqbj0","pricing_plan_id":"cebpf4jnsgd1na2vs0mg"},{"bike_id":"e71ef5ce-e50a-4ace-bce7-a64c07111d96","system_id":"levelo_inurba_marseille","lat":43.2968,"lon":5.37291,"is_reserved":false,"is_disabled":false,"rental_uris":{"android":"levelo://app?vid=e71ef5ce-e50a-4ace-bce7-a64c07111d96","ios":"levelo://app?vid=e71ef5ce-e50a-4ace-bce7-a64c07111d96"},"vehicle_type_id":"4","last_reported":1708970925,"current_range_meters":29600,"station_id":"ce4bgk12rcd13ifvqbj0","pricing_plan_id":"cebpf4jnsgd1na2vs0mg"},{"bike_id":"157b543a-e066-46b6-9c98-64175fbd983e","system_id":"levelo_inurba_marseille","lat":43.296131,"lon":5.370791,"is_reserved":false,"is_disabled":false,"rental_uris":{"android":"levelo://app?vid=157b543a-e066-46b6-9c98-64175fbd983e","ios":"levelo://app?vid=157b543a-e066-46b6-9c98-64175fbd983e"},"vehicle_type_id":"4","last_reported":1708970925,"current_range_meters":30000,"station_id":"ce4bgnh2rcd13ifvqc0g","pricing_plan_id":"cebpf4jnsgd1na2vs0mg"},{"bike_id":"c51c9193-8bb3-442f-9202-45106dfb9300","system_id":"levelo_inurba_marseille","lat":43.296268,"lon":5.371572,"is_reserved":false,"is_disabled":false,"rental_uris":{"android":"levelo://app?vid=c51c9193-8bb3-442f-9202-45106dfb9300","ios":"levelo://app?vid=c51c9193-8bb3-442f-9202-45106dfb9300"},"vehicle_type_id":"4","last_reported":1708970925,"current_range_meters":31200,"station_id":"ce4bgnh2rcd13ifvqc0g","pricing_plan_id":"cebpf4jnsgd1na2vs0mg"},{"bike_id":"eeb8c8c7-e66a-4c3d-af94-186ff9f3b806","system_id":"levelo_inurba_marseille","lat":43.295933,"lon":5.367967,"is_reserved":false,"is_disabled":false,"rental_uris":{"android":"levelo://app?vid=eeb8c8c7-e66a-4c3d-af94-186ff9f3b806","ios":"levelo://app?vid=eeb8c8c7-e66a-4c3d-af94-186ff9f3b806"},"vehicle_type_id":"4","last_reported":1708970925,"current_range_meters":15200,"station_id":"ce4bgph2rcd13ifvqc2g","pricing_plan_id":"cebpf4jnsgd1na2vs0mg"},{"bike_id":"c2907ba6-e833-4f24-9bd4-effbeab696ef","system_id":"levelo_inurba_marseille","lat":43.296131,"lon":5.370791,"is_reserved":false,"is_disabled":false,"rental_uris":{"android":"levelo://app?vid=c2907ba6-e833-4f24-9bd4-effbeab696ef","ios":"levelo://app?vid=c2907ba6-e833-4f24-9bd4-effbeab696ef"},"vehicle_type_id":"4","last_reported":1708970925,"current_range_meters":26800,"station_id":"ce4bgnh2rcd13ifvqc0g","pricing_plan_id":"cebpf4jnsgd1na2vs0mg"},{"bike_id":"ec5985a0-b8cd-4088-9045-7edf66d0c2f2","system_id":"levelo_inurba_marseille","lat":43.296131,"lon":5.370791,"is_reserved":false,"is_disabled":false,"rental_uris":{"android":"levelo://app?vid=ec5985a0-b8cd-4088-9045-7edf66d0c2f2","ios":"levelo://app?vid=ec5985a0-b8cd-4088-9045-7edf66d0c2f2"},"vehicle_type_id":"4","last_reported":1708970925,"current_range_meters":28400,"station_id":"ce4bgnh2rcd13ifvqc0g","pricing_plan_id":"cebpf4jnsgd1na2vs0mg"},{"bike_id":"240a62f2-183c-4603-ac2a-14bacef9eefc","system_id":"levelo_inurba_marseille","lat":43.296131,"lon":5.370791,"is_reserved":false,"is_disabled":false,"rental_uris":{"android":"levelo://app?vid=240a62f2-183c-4603-ac2a-14bacef9eefc","ios":"levelo://app?vid=240a62f2-183c-4603-ac2a-14bacef9eefc"},"vehicle_type_id":"4","last_reported":1708970925,"current_range_meters":31200,"station_id":"ce4bgnh2rcd13ifvqc0g","pricing_plan_id":"cebpf4jnsgd1na2vs0mg"},{"bike_id":"15f11845-d348-47ca-b0d3-7a90ccc86a82","system_id":"levelo_inurba_marseille","lat":43.296131,"lon":5.370773,"is_reserved":false,"is_disabled":false,"rental_uris":{"android":"levelo://app?vid=15f11845-d348-47ca-b0d3-7a90ccc86a82","ios":"levelo://app?vid=15f11845-d348-47ca-b0d3-7a90ccc86a82"},"vehicle_type_id":"4","last_reported":1708970925,"current_range_meters":30400,"station_id":"ce4bgnh2rcd13ifvqc0g","pricing_plan_id":"cebpf4jnsgd1na2vs0mg"},{"bike_id":"a940c761-1096-4be3-8ac2-2cd1272193e4","system_id":"levelo_inurba_marseille","lat":43.29573,"lon":5.367355,"is_reserved":false,"is_disabled":false,"rental_uris":{"android":"levelo://app?vid=a940c761-1096-4be3-8ac2-2cd1272193e4","ios":"levelo://app?vid=a940c761-1096-4be3-8ac2-2cd1272193e4"},"vehicle_type_id":"4","last_reported":1708970925,"current_range_meters":31600,"station_id":"ce4bgph2rcd13ifvqc2g","pricing_plan_id":"cebpf4jnsgd1na2vs0mg"},{"bike_id":"d4937b94-64ca-4832-8987-23946101c8fc","system_id":"levelo_inurba_marseille","lat":43.29586,"lon":5.368173,"is_reserved":false,"is_disabled":false,"rental_uris":{"android":"levelo://app?vid=d4937b94-64ca-4832-8987-23946101c8fc","ios":"levelo://app?vid=d4937b94-64ca-4832-8987-23946101c8fc"},"vehicle_type_id":"4","last_reported":1708970925,"current_range_meters":24800,"station_id":"","pricing_plan_id":"cebpf4jnsgd1na2vs0mg"},{"bike_id":"966322cc-1579-41c4-9cc4-931b18324580","system_id":"levelo_inurba_marseille","lat":43.29573,"lon":5.367355,"is_reserved":false,"is_disabled":false,"rental_uris":{"android":"levelo://app?vid=966322cc-1579-41c4-9cc4-931b18324580","ios":"levelo://app?vid=966322cc-1579-41c4-9cc4-931b18324580"},"vehicle_type_id":"4","last_reported":1708970925,"current_range_meters":27200,"station_id":"ce4bgph2rcd13ifvqc2g","pricing_plan_id":"cebpf4jnsgd1na2vs0mg"},{"bike_id":"a0d0d07b-7aed-464a-a29d-b7bda4bbb081","system_id":"levelo_inurba_marseille","lat":43.29573,"lon":5.367355,"is_reserved":false,"is_disabled":false,"rental_uris":{"android":"levelo://app?vid=a0d0d07b-7aed-464a-a29d-b7bda4bbb081","ios":"levelo://app?vid=a0d0d07b-7aed-464a-a29d-b7bda4bbb081"},"vehicle_type_id":"4","last_reported":1708970925,"current_range_meters":12800,"station_id":"ce4bgph2rcd13ifvqc2g","pricing_plan_id":"cebpf4jnsgd1na2vs0mg"},{"bike_id":"4311f51f-1d55-4744-97d3-686e4cf2679f","system_id":"levelo_inurba_marseille","lat":43.29573,"lon":5.367355,"is_reserved":false,"is_disabled":false,"rental_uris":{"android":"levelo://app?vid=4311f51f-1d55-4744-97d3-686e4cf2679f","ios":"levelo://app?vid=4311f51f-1d55-4744-97d3-686e4cf2679f"},"vehicle_type_id":"4","last_reported":1708970925,"current_range_meters":11200,"station_id":"ce4bgph2rcd13ifvqc2g","pricing_plan_id":"cebpf4jnsgd1na2vs0mg"},{"bike_id":"80a016b5-6665-48c8-8d61-4380c6caf99a","system_id":"levelo_inurba_marseille","lat":43.299028,"lon":5.381509,"is_reserved":false,"is_disabled":false,"rental_uris":{"android":"levelo://app?vid=80a016b5-6665-48c8-8d61-4380c6caf99a","ios":"levelo://app?vid=80a016b5-6665-48c8-8d61-4380c6caf99a"},"vehicle_type_id":"4","last_reported":1708970925,"current_range_meters":11600,"station_id":"ce4bgj12rcd13ifvqbc0","pricing_plan_id":"cebpf4jnsgd1na2vs0mg"},{"bike_id":"94fcc414-d9e3-43f7-b298-370a3bc1c4dc","system_id":"levelo_inurba_marseille","lat":43.29901,"lon":5.38123,"is_reserved":false,"is_disabled":false,"rental_uris":{"android":"levelo://app?vid=94fcc414-d9e3-43f7-b298-370a3bc1c4dc","ios":"levelo://app?vid=94fcc414-d9e3-43f7-b298-370a3bc1c4dc"},"vehicle_type_id":"4","last_reported":1708970925,"current_range_meters":15600,"station_id":"","pricing_plan_id":"cebpf4jnsgd1na2vs0mg"},{"bike_id":"cf564966-9d24-4601-a6da-bbc2b5d9b870","system_id":"levelo_inurba_marseille","lat":43.299028,"lon":5.381509,"is_reserved":false,"is_disabled":false,"rental_uris":{"android":"levelo://app?vid=cf564966-9d24-4601-a6da-bbc2b5d9b870","ios":"levelo://app?vid=cf564966-9d24-4601-a6da-bbc2b5d9b870"},"vehicle_type_id":"4","last_reported":1708970925,"current_range_meters":9600,"station_id":"ce4bgj12rcd13ifvqbc0","pricing_plan_id":"cebpf4jnsgd1na2vs0mg"},{"bike_id":"8a31843b-1aef-4240-96a9-55db2500608b","system_id":"levelo_inurba_marseille","lat":43.299028,"lon":5.381509,"is_reserved":false,"is_disabled":false,"rental_uris":{"android":"levelo://app?vid=8a31843b-1aef-4240-96a9-55db2500608b","ios":"levelo://app?vid=8a31843b-1aef-4240-96a9-55db2500608b"},"vehicle_type_id":"4","last_reported":1708970925,"current_range_meters":2800,"station_id":"ce4bgj12rcd13ifvqbc0","pricing_plan_id":"cebpf4jnsgd1na2vs0mg"},{"bike_id":"32a25028-5275-43f1-905b-606f8096944b","system_id":"levelo_inurba_marseille","lat":43.317557,"lon":5.390173,"is_reserved":false,"is_disabled":false,"rental_uris":{"android":"levelo://app?vid=32a25028-5275-43f1-905b-606f8096944b","ios":"levelo://app?vid=32a25028-5275-43f1-905b-606f8096944b"},"vehicle_type_id":"4","last_reported":1708970925,"current_range_meters":14000,"station_id":"ce4bhqp2rcd13ifvqhng","pricing_plan_id":"cebpf4jnsgd1na2vs0mg"},{"bike_id":"6b2df5a9-fc30-40d5-8870-0e37cd435e8f","system_id":"levelo_inurba_marseille","lat":43.317557,"lon":5.390173,"is_reserved":false,"is_disabled":false,"rental_uris":{"android":"levelo://app?vid=6b2df5a9-fc30-40d5-8870-0e37cd435e8f","ios":"levelo://app?vid=6b2df5a9-fc30-40d5-8870-0e37cd435e8f"},"vehicle_type_id":"4","last_reported":1708970925,"current_range_meters":2800,"station_id":"ce4bhqp2rcd13ifvqhng","pricing_plan_id":"cebpf4jnsgd1na2vs0mg"},{"bike_id":"7a226d71-e856-4832-8e70-b6a4167a3589","system_id":"levelo_inurba_marseille","lat":43.317557,"lon":5.390173,"is_reserved":false,"is_disabled":false,"rental_uris":{"android":"levelo://app?vid=7a226d71-e856-4832-8e70-b6a4167a3589","ios":"levelo://app?vid=7a226d71-e856-4832-8e70-b6a4167a3589"},"vehicle_type_id":"4","last_reported":1708970925,"current_range_meters":26400,"station_id":"ce4bhqp2rcd13ifvqhng","pricing_plan_id":"cebpf4jnsgd1na2vs0mg"},{"bike_id":"4b6e848b-e3ad-4331-a67a-bc8a8c615666","system_id":"levelo_inurba_marseille","lat":43.317609,"lon":5.390183,"is_reserved":false,"is_disabled":false,"rental_uris":{"android":"levelo://app?vid=4b6e848b-e3ad-4331-a67a-bc8a8c615666","ios":"levelo://app?vid=4b6e848b-e3ad-4331-a67a-bc8a8c615666"},"vehicle_type_id":"4","last_reported":1708970925,"current_range_meters":25600,"station_id":"ce4bhqp2rcd13ifvqhng","pricing_plan_id":"cebpf4jnsgd1na2vs0mg"},{"bike_id":"5a32452b-b9b5-4c98-82dd-4c75a6f5d040","system_id":"levelo_inurba_marseille","lat":43.296921,"lon":5.376579,"is_reserved":false,"is_disabled":false,"rental_uris":{"android":"levelo://app?vid=5a32452b-b9b5-4c98-82dd-4c75a6f5d040","ios":"levelo://app?vid=5a32452b-b9b5-4c98-82dd-4c75a6f5d040"},"vehicle_type_id":"4","last_reported":1708970925,"current_range_meters":20800,"station_id":"ce4bgkh2rcd13ifvqbl0","pricing_plan_id":"cebpf4jnsgd1na2vs0mg"},{"bike_id":"b688fb36-37d8-462f-af59-d6c44596c348","system_id":"levelo_inurba_marseille","lat":43.295748,"lon":5.37522,"is_reserved":false,"is_disabled":false,"rental_uris":{"android":"levelo://app?vid=b688fb36-37d8-462f-af59-d6c44596c348","ios":"levelo://app?vid=b688fb36-37d8-462f-af59-d6c44596c348"},"vehicle_type_id":"4","last_reported":1708970925,"current_range_meters":5600,"station_id":"ce4bgh92rcd13ifvqb50","pricing_plan_id":"cebpf4jnsgd1na2vs0mg"},{"bike_id":"d5174624-502d-459c-a2c2-69432469c82d","system_id":"levelo_inurba_marseille","lat":43.304278,"lon":5.388868,"is_reserved":false,"is_disabled":false,"rental_uris":{"android":"levelo://app?vid=d5174624-502d-459c-a2c2-69432469c82d","ios":"levelo://app?vid=d5174624-502d-459c-a2c2-69432469c82d"},"vehicle_type_id":"4","last_reported":1708970925,"current_range_meters":31200,"station_id":"ce4bgk12rcd13ifvqbi0","pricing_plan_id":"cebpf4jnsgd1na2vs0mg"},{"bike_id":"600599bf-4ba3-4ced-bb3f-f149761e6a84","system_id":"levelo_inurba_marseille","lat":43.304278,"lon":5.388868,"is_reserved":false,"is_disabled":false,"rental_uris":{"android":"levelo://app?vid=600599bf-4ba3-4ced-bb3f-f149761e6a84","ios":"levelo://app?vid=600599bf-4ba3-4ced-bb3f-f149761e6a84"},"vehicle_type_id":"4","last_reported":1708970925,"current_range_meters":16400,"station_id":"ce4bgk12rcd13ifvqbi0","pricing_plan_id":"cebpf4jnsgd1na2vs0mg"},{"bike_id":"b86c2e5b-1fe9-40e2-a4a8-24960e6ca791","system_id":"levelo_inurba_marseille","lat":43.304274,"lon":5.388873,"is_reserved":false,"is_disabled":false,"rental_uris":{"android":"levelo://app?vid=b86c2e5b-1fe9-40e2-a4a8-24960e6ca791","ios":"levelo://app?vid=b86c2e5b-1fe9-40e2-a4a8-24960e6ca791"},"vehicle_type_id":"4","last_reported":1708970925,"current_range_meters":27200,"station_id":"ce4bgk12rcd13ifvqbi0","pricing_plan_id":"cebpf4jnsgd1na2vs0mg"},{"bike_id":"b95bb9db-5fa0-4f50-a89d-dbf0479a6b4f","system_id":"levelo_inurba_marseille","lat":43.297928,"lon":5.381054,"is_reserved":false,"is_disabled":false,"rental_uris":{"android":"levelo://app?vid=b95bb9db-5fa0-4f50-a89d-dbf0479a6b4f","ios":"levelo://app?vid=b95bb9db-5fa0-4f50-a89d-dbf0479a6b4f"},"vehicle_type_id":"4","last_reported":1708970925,"current_range_meters":30800,"station_id":"ce4bgip2rcd13ifvqbb0","pricing_plan_id":"cebpf4jnsgd1na2vs0mg"},{"bike_id":"4578d447-2bf7-46e7-85e1-7cf7683031a2","system_id":"levelo_inurba_marseille","lat":43.304274,"lon":5.388873,"is_reserved":false,"is_disabled":false,"rental_uris":{"android":"levelo://app?vid=4578d447-2bf7-46e7-85e1-7cf7683031a2","ios":"levelo://app?vid=4578d447-2bf7-46e7-85e1-7cf7683031a2"},"vehicle_type_id":"4","last_reported":1708970925,"current_range_meters":23600,"station_id":"ce4bgk12rcd13ifvqbi0","pricing_plan_id":"cebpf4jnsgd1na2vs0mg"},{"bike_id":"70932496-7597-4ff3-b1ef-d91c9b98b638","system_id":"levelo_inurba_marseille","lat":43.30441,"lon":5.38893,"is_reserved":false,"is_disabled":false,"rental_uris":{"android":"levelo://app?vid=70932496-7597-4ff3-b1ef-d91c9b98b638","ios":"levelo://app?vid=70932496-7597-4ff3-b1ef-d91c9b98b638"},"vehicle_type_id":"4","last_reported":1708970925,"current_range_meters":21600,"station_id":"ce4bgk12rcd13ifvqbi0","pricing_plan_id":"cebpf4jnsgd1na2vs0mg"},{"bike_id":"f2c83b0a-296a-4d64-a55b-91fb2456c8e0","system_id":"levelo_inurba_marseille","lat":43.304274,"lon":5.388873,"is_reserved":false,"is_disabled":false,"rental_uris":{"android":"levelo://app?vid=f2c83b0a-296a-4d64-a55b-91fb2456c8e0","ios":"levelo://app?vid=f2c83b0a-296a-4d64-a55b-91fb2456c8e0"},"vehicle_type_id":"4","last_reported":1708970925,"current_range_meters":10400,"station_id":"ce4bgk12rcd13ifvqbi0","pricing_plan_id":"cebpf4jnsgd1na2vs0mg"},{"bike_id":"10e2b4dd-5846-4919-bf22-0164ad03bd85","system_id":"levelo_inurba_marseille","lat":43.304274,"lon":5.388873,"is_reserved":false,"is_disabled":false,"rental_uris":{"android":"levelo://app?vid=10e2b4dd-5846-4919-bf22-0164ad03bd85","ios":"levelo://app?vid=10e2b4dd-5846-4919-bf22-0164ad03bd85"},"vehicle_type_id":"4","last_reported":1708970925,"current_range_meters":4800,"station_id":"ce4bgk12rcd13ifvqbi0","pricing_plan_id":"cebpf4jnsgd1na2vs0mg"},{"bike_id":"c4b26522-ecd1-4b40-b8d9-d72caa1afb45","system_id":"levelo_inurba_marseille","lat":43.304274,"lon":5.388873,"is_reserved":false,"is_disabled":false,"rental_uris":{"android":"levelo://app?vid=c4b26522-ecd1-4b40-b8d9-d72caa1afb45","ios":"levelo://app?vid=c4b26522-ecd1-4b40-b8d9-d72caa1afb45"},"vehicle_type_id":"4","last_reported":1708970925,"current_range_meters":10000,"station_id":"ce4bgk12rcd13ifvqbi0","pricing_plan_id":"cebpf4jnsgd1na2vs0mg"},{"bike_id":"1406a774-1032-47c9-aaae-990253f21a36","system_id":"levelo_inurba_marseille","lat":43.30428,"lon":5.38885,"is_reserved":false,"is_disabled":false,"rental_uris":{"android":"levelo://app?vid=1406a774-1032-47c9-aaae-990253f21a36","ios":"levelo://app?vid=1406a774-1032-47c9-aaae-990253f21a36"},"vehicle_type_id":"4","last_reported":1708970925,"current_range_meters":30800,"station_id":"ce4bgk12rcd13ifvqbi0","pricing_plan_id":"cebpf4jnsgd1na2vs0mg"},{"bike_id":"92935e2c-0593-4f2b-9a3b-15abbe39bec9","system_id":"levelo_inurba_marseille","lat":43.3043,"lon":5.38889,"is_reserved":false,"is_disabled":false,"rental_uris":{"android":"levelo://app?vid=92935e2c-0593-4f2b-9a3b-15abbe39bec9","ios":"levelo://app?vid=92935e2c-0593-4f2b-9a3b-15abbe39bec9"},"vehicle_type_id":"4","last_reported":1708970925,"current_range_meters":11200,"station_id":"ce4bgk12rcd13ifvqbi0","pricing_plan_id":"cebpf4jnsgd1na2vs0mg"},{"bike_id":"d5acd238-b719-4ccc-a634-ab794cb44bd5","system_id":"levelo_inurba_marseille","lat":43.304278,"lon":5.388868,"is_reserved":false,"is_disabled":false,"rental_uris":{"android":"levelo://app?vid=d5acd238-b719-4ccc-a634-ab794cb44bd5","ios":"levelo://app?vid=d5acd238-b719-4ccc-a634-ab794cb44bd5"},"vehicle_type_id":"4","last_reported":1708970925,"current_range_meters":31200,"station_id":"ce4bgk12rcd13ifvqbi0","pricing_plan_id":"cebpf4jnsgd1na2vs0mg"},{"bike_id":"0e72fc91-6c2f-4190-bac3-dff4f4065dee","system_id":"levelo_inurba_marseille","lat":43.304274,"lon":5.388873,"is_reserved":false,"is_disabled":false,"rental_uris":{"android":"levelo://app?vid=0e72fc91-6c2f-4190-bac3-dff4f4065dee","ios":"levelo://app?vid=0e72fc91-6c2f-4190-bac3-dff4f4065dee"},"vehicle_type_id":"4","last_reported":1708970925,"current_range_meters":7200,"station_id":"ce4bgk12rcd13ifvqbi0","pricing_plan_id":"cebpf4jnsgd1na2vs0mg"},{"bike_id":"43c507ee-b2ec-4c49-b230-45afcf041abc","system_id":"levelo_inurba_marseille","lat":43.297828,"lon":5.380968,"is_reserved":false,"is_disabled":false,"rental_uris":{"android":"levelo://app?vid=43c507ee-b2ec-4c49-b230-45afcf041abc","ios":"levelo://app?vid=43c507ee-b2ec-4c49-b230-45afcf041abc"},"vehicle_type_id":"4","last_reported":1708970925,"current_range_meters":31200,"station_id":"ce4bgip2rcd13ifvqbb0","pricing_plan_id":"cebpf4jnsgd1na2vs0mg"},{"bike_id":"55918f1a-297b-41b5-8d92-0539036aa261","system_id":"levelo_inurba_marseille","lat":43.30439,"lon":5.38897,"is_reserved":false,"is_disabled":false,"rental_uris":{"android":"levelo://app?vid=55918f1a-297b-41b5-8d92-0539036aa261","ios":"levelo://app?vid=55918f1a-297b-41b5-8d92-0539036aa261"},"vehicle_type_id":"4","last_reported":1708970925,"current_range_meters":25600,"station_id":"ce4bgk12rcd13ifvqbi0","pricing_plan_id":"cebpf4jnsgd1na2vs0mg"},{"bike_id":"36b5b1d6-b63f-468b-9b15-552c78f7c873","system_id":"levelo_inurba_marseille","lat":43.30431,"lon":5.38893,"is_reserved":false,"is_disabled":false,"rental_uris":{"android":"levelo://app?vid=36b5b1d6-b63f-468b-9b15-552c78f7c873","ios":"levelo://app?vid=36b5b1d6-b63f-468b-9b15-552c78f7c873"},"vehicle_type_id":"4","last_reported":1708970925,"current_range_meters":28400,"station_id":"ce4bgk12rcd13ifvqbi0","pricing_plan_id":"cebpf4jnsgd1na2vs0mg"},{"bike_id":"3df92e92-0084-4a35-8f49-ea66a6666636","system_id":"levelo_inurba_marseille","lat":43.304294,"lon":5.38892,"is_reserved":false,"is_disabled":false,"rental_uris":{"android":"levelo://app?vid=3df92e92-0084-4a35-8f49-ea66a6666636","ios":"levelo://app?vid=3df92e92-0084-4a35-8f49-ea66a6666636"},"vehicle_type_id":"4","last_reported":1708970925,"current_range_meters":17200,"station_id":"ce4bgk12rcd13ifvqbi0","pricing_plan_id":"cebpf4jnsgd1na2vs0mg"},{"bike_id":"055ef6b9-f891-4329-a146-c98079579c35","system_id":"levelo_inurba_marseille","lat":43.295748,"lon":5.37522,"is_reserved":false,"is_disabled":false,"rental_uris":{"android":"levelo://app?vid=055ef6b9-f891-4329-a146-c98079579c35","ios":"levelo://app?vid=055ef6b9-f891-4329-a146-c98079579c35"},"vehicle_type_id":"4","last_reported":1708970925,"current_range_meters":1200,"station_id":"ce4bgh92rcd13ifvqb50","pricing_plan_id":"cebpf4jnsgd1na2vs0mg"},{"bike_id":"8298a0fa-8ae6-447e-95e6-96e8ce72d97e","system_id":"levelo_inurba_marseille","lat":43.30426,"lon":5.38892,"is_reserved":false,"is_disabled":false,"rental_uris":{"android":"levelo://app?vid=8298a0fa-8ae6-447e-95e6-96e8ce72d97e","ios":"levelo://app?vid=8298a0fa-8ae6-447e-95e6-96e8ce72d97e"},"vehicle_type_id":"4","last_reported":1708970925,"current_range_meters":22000,"station_id":"ce4bgk12rcd13ifvqbi0","pricing_plan_id":"cebpf4jnsgd1na2vs0mg"},{"bike_id":"53b530e0-a4c7-43a0-9dd2-dbb4a9fe52d2","system_id":"levelo_inurba_marseille","lat":43.304278,"lon":5.388868,"is_reserved":false,"is_disabled":false,"rental_uris":{"android":"levelo://app?vid=53b530e0-a4c7-43a0-9dd2-dbb4a9fe52d2","ios":"levelo://app?vid=53b530e0-a4c7-43a0-9dd2-dbb4a9fe52d2"},"vehicle_type_id":"4","last_reported":1708970925,"current_range_meters":31200,"station_id":"ce4bgk12rcd13ifvqbi0","pricing_plan_id":"cebpf4jnsgd1na2vs0mg"},{"bike_id":"c1104de7-ecb4-4cd8-bd45-25be7f23ea4a","system_id":"levelo_inurba_marseille","lat":43.304278,"lon":5.388868,"is_reserved":false,"is_disabled":false,"rental_uris":{"android":"levelo://app?vid=c1104de7-ecb4-4cd8-bd45-25be7f23ea4a","ios":"levelo://app?vid=c1104de7-ecb4-4cd8-bd45-25be7f23ea4a"},"vehicle_type_id":"4","last_reported":1708970925,"current_range_meters":18400,"station_id":"ce4bgk12rcd13ifvqbi0","pricing_plan_id":"cebpf4jnsgd1na2vs0mg"},{"bike_id":"5f2e94c0-2e7a-4e08-ae54-fb8b341f6dcb","system_id":"levelo_inurba_marseille","lat":43.30427,"lon":5.38895,"is_reserved":false,"is_disabled":false,"rental_uris":{"android":"levelo://app?vid=5f2e94c0-2e7a-4e08-ae54-fb8b341f6dcb","ios":"levelo://app?vid=5f2e94c0-2e7a-4e08-ae54-fb8b341f6dcb"},"vehicle_type_id":"4","last_reported":1708970925,"current_range_meters":18800,"station_id":"ce4bgk12rcd13ifvqbi0","pricing_plan_id":"cebpf4jnsgd1na2vs0mg"},{"bike_id":"9136c5c3-f85b-499e-8762-99c5a7729dde","system_id":"levelo_inurba_marseille","lat":43.304278,"lon":5.388868,"is_reserved":false,"is_disabled":false,"rental_uris":{"android":"levelo://app?vid=9136c5c3-f85b-499e-8762-99c5a7729dde","ios":"levelo://app?vid=9136c5c3-f85b-499e-8762-99c5a7729dde"},"vehicle_type_id":"4","last_reported":1708970925,"current_range_meters":29200,"station_id":"ce4bgk12rcd13ifvqbi0","pricing_plan_id":"cebpf4jnsgd1na2vs0mg"},{"bike_id":"a690f64a-8f23-4b64-b3ac-c29cb1072264","system_id":"levelo_inurba_marseille","lat":43.295748,"lon":5.37522,"is_reserved":false,"is_disabled":false,"rental_uris":{"android":"levelo://app?vid=a690f64a-8f23-4b64-b3ac-c29cb1072264","ios":"levelo://app?vid=a690f64a-8f23-4b64-b3ac-c29cb1072264"},"vehicle_type_id":"4","last_reported":1708970925,"current_range_meters":18400,"station_id":"ce4bgh92rcd13ifvqb50","pricing_plan_id":"cebpf4jnsgd1na2vs0mg"},{"bike_id":"33c911e3-a6bc-434b-8d3a-3f01eebdb98b","system_id":"levelo_inurba_marseille","lat":43.295748,"lon":5.37522,"is_reserved":false,"is_disabled":false,"rental_uris":{"android":"levelo://app?vid=33c911e3-a6bc-434b-8d3a-3f01eebdb98b","ios":"levelo://app?vid=33c911e3-a6bc-434b-8d3a-3f01eebdb98b"},"vehicle_type_id":"4","last_reported":1708970925,"current_range_meters":15600,"station_id":"ce4bgh92rcd13ifvqb50","pricing_plan_id":"cebpf4jnsgd1na2vs0mg"},{"bike_id":"670ab9b4-d2e8-4352-9047-a4f58caa1f76","system_id":"levelo_inurba_marseille","lat":43.295617,"lon":5.375228,"is_reserved":false,"is_disabled":false,"rental_uris":{"android":"levelo://app?vid=670ab9b4-d2e8-4352-9047-a4f58caa1f76","ios":"levelo://app?vid=670ab9b4-d2e8-4352-9047-a4f58caa1f76"},"vehicle_type_id":"4","last_reported":1708970925,"current_range_meters":4400,"station_id":"ce4bgh92rcd13ifvqb50","pricing_plan_id":"cebpf4jnsgd1na2vs0mg"},{"bike_id":"09a518bb-bab1-4187-b8ae-edb7535e6f18","system_id":"levelo_inurba_marseille","lat":43.295748,"lon":5.37522,"is_reserved":false,"is_disabled":false,"rental_uris":{"android":"levelo://app?vid=09a518bb-bab1-4187-b8ae-edb7535e6f18","ios":"levelo://app?vid=09a518bb-bab1-4187-b8ae-edb7535e6f18"},"vehicle_type_id":"4","last_reported":1708970925,"current_range_meters":16800,"station_id":"ce4bgh92rcd13ifvqb50","pricing_plan_id":"cebpf4jnsgd1na2vs0mg"},{"bike_id":"554f6409-bf0f-40cd-90c7-c5a60e6db2ad","system_id":"levelo_inurba_marseille","lat":43.295748,"lon":5.37522,"is_reserved":false,"is_disabled":false,"rental_uris":{"android":"levelo://app?vid=554f6409-bf0f-40cd-90c7-c5a60e6db2ad","ios":"levelo://app?vid=554f6409-bf0f-40cd-90c7-c5a60e6db2ad"},"vehicle_type_id":"4","last_reported":1708970925,"current_range_meters":12400,"station_id":"ce4bgh92rcd13ifvqb50","pricing_plan_id":"cebpf4jnsgd1na2vs0mg"},{"bike_id":"2c37096a-b05e-413c-8241-727e18e1c1be","system_id":"levelo_inurba_marseille","lat":43.295279,"lon":5.375048,"is_reserved":false,"is_disabled":false,"rental_uris":{"android":"levelo://app?vid=2c37096a-b05e-413c-8241-727e18e1c1be","ios":"levelo://app?vid=2c37096a-b05e-413c-8241-727e18e1c1be"},"vehicle_type_id":"4","last_reported":1708970925,"current_range_meters":20000,"station_id":"ce4bgkp2rcd13ifvqbmg","pricing_plan_id":"cebpf4jnsgd1na2vs0mg"},{"bike_id":"5ba0577f-75bd-48f0-8a32-6122778f9f1c","system_id":"levelo_inurba_marseille","lat":43.295279,"lon":5.375048,"is_reserved":false,"is_disabled":false,"rental_uris":{"android":"levelo://app?vid=5ba0577f-75bd-48f0-8a32-6122778f9f1c","ios":"levelo://app?vid=5ba0577f-75bd-48f0-8a32-6122778f9f1c"},"vehicle_type_id":"4","last_reported":1708970925,"current_range_meters":21600,"station_id":"ce4bgkp2rcd13ifvqbmg","pricing_plan_id":"cebpf4jnsgd1na2vs0mg"},{"bike_id":"0e8e45cc-77e0-41b3-9641-0258fb21f6e5","system_id":"levelo_inurba_marseille","lat":43.299707,"lon":5.384859,"is_reserved":false,"is_disabled":false,"rental_uris":{"android":"levelo://app?vid=0e8e45cc-77e0-41b3-9641-0258fb21f6e5","ios":"levelo://app?vid=0e8e45cc-77e0-41b3-9641-0258fb21f6e5"},"vehicle_type_id":"4","last_reported":1708970925,"current_range_meters":2800,"station_id":"ce4bgj92rcd13ifvqbd0","pricing_plan_id":"cebpf4jnsgd1na2vs0mg"},{"bike_id":"6bd04207-ac47-4976-a71b-bafe4ef95f0a","system_id":"levelo_inurba_marseille","lat":43.299707,"lon":5.384859,"is_reserved":false,"is_disabled":false,"rental_uris":{"android":"levelo://app?vid=6bd04207-ac47-4976-a71b-bafe4ef95f0a","ios":"levelo://app?vid=6bd04207-ac47-4976-a71b-bafe4ef95f0a"},"vehicle_type_id":"4","last_reported":1708970925,"current_range_meters":23600,"station_id":"ce4bgj92rcd13ifvqbd0","pricing_plan_id":"cebpf4jnsgd1na2vs0mg"},{"bike_id":"a0198148-4571-415b-9d91-bfe98072409a","system_id":"levelo_inurba_marseille","lat":43.299707,"lon":5.384859,"is_reserved":false,"is_disabled":false,"rental_uris":{"android":"levelo://app?vid=a0198148-4571-415b-9d91-bfe98072409a","ios":"levelo://app?vid=a0198148-4571-415b-9d91-bfe98072409a"},"vehicle_type_id":"4","last_reported":1708970925,"current_range_meters":25200,"station_id":"ce4bgj92rcd13ifvqbd0","pricing_plan_id":"cebpf4jnsgd1na2vs0mg"},{"bike_id":"14c131a8-dd1c-40d1-9e83-483fea062e95","system_id":"levelo_inurba_marseille","lat":43.299723,"lon":5.385013,"is_reserved":false,"is_disabled":false,"rental_uris":{"android":"levelo://app?vid=14c131a8-dd1c-40d1-9e83-483fea062e95","ios":"levelo://app?vid=14c131a8-dd1c-40d1-9e83-483fea062e95"},"vehicle_type_id":"4","last_reported":1708970925,"current_range_meters":12400,"station_id":"ce4bgj92rcd13ifvqbd0","pricing_plan_id":"cebpf4jnsgd1na2vs0mg"},{"bike_id":"dcbbf3d6-8c35-4fee-8f32-939ea13b67a5","system_id":"levelo_inurba_marseille","lat":43.29964,"lon":5.384946,"is_reserved":false,"is_disabled":false,"rental_uris":{"android":"levelo://app?vid=dcbbf3d6-8c35-4fee-8f32-939ea13b67a5","ios":"levelo://app?vid=dcbbf3d6-8c35-4fee-8f32-939ea13b67a5"},"vehicle_type_id":"4","last_reported":1708970925,"current_range_meters":16400,"station_id":"ce4bgj92rcd13ifvqbd0","pricing_plan_id":"cebpf4jnsgd1na2vs0mg"},{"bike_id":"93c77dfc-bd16-4d1e-bdc9-790481f30c2d","system_id":"levelo_inurba_marseille","lat":43.299717,"lon":5.384845,"is_reserved":false,"is_disabled":false,"rental_uris":{"android":"levelo://app?vid=93c77dfc-bd16-4d1e-bdc9-790481f30c2d","ios":"levelo://app?vid=93c77dfc-bd16-4d1e-bdc9-790481f30c2d"},"vehicle_type_id":"4","last_reported":1708970925,"current_range_meters":14000,"station_id":"ce4bgj92rcd13ifvqbd0","pricing_plan_id":"cebpf4jnsgd1na2vs0mg"},{"bike_id":"cf4bf32a-2c87-4ee7-a0a1-230c93a33c48","system_id":"levelo_inurba_marseille","lat":43.299707,"lon":5.384859,"is_reserved":false,"is_disabled":false,"rental_uris":{"android":"levelo://app?vid=cf4bf32a-2c87-4ee7-a0a1-230c93a33c48","ios":"levelo://app?vid=cf4bf32a-2c87-4ee7-a0a1-230c93a33c48"},"vehicle_type_id":"4","last_reported":1708970925,"current_range_meters":0,"station_id":"ce4bgj92rcd13ifvqbd0","pricing_plan_id":"cebpf4jnsgd1na2vs0mg"},{"bike_id":"80bace03-bf7c-400b-af75-cbd6846d1724","system_id":"levelo_inurba_marseille","lat":43.299717,"lon":5.384845,"is_reserved":false,"is_disabled":false,"rental_uris":{"android":"levelo://app?vid=80bace03-bf7c-400b-af75-cbd6846d1724","ios":"levelo://app?vid=80bace03-bf7c-400b-af75-cbd6846d1724"},"vehicle_type_id":"4","last_reported":1708970925,"current_range_meters":11600,"station_id":"ce4bgj92rcd13ifvqbd0","pricing_plan_id":"cebpf4jnsgd1na2vs0mg"},{"bike_id":"59916aea-0e66-4372-be3d-137b41300e1c","system_id":"levelo_inurba_marseille","lat":43.299717,"lon":5.384845,"is_reserved":false,"is_disabled":false,"rental_uris":{"android":"levelo://app?vid=59916aea-0e66-4372-be3d-137b41300e1c","ios":"levelo://app?vid=59916aea-0e66-4372-be3d-137b41300e1c"},"vehicle_type_id":"4","last_reported":1708970925,"current_range_meters":16000,"station_id":"ce4bgj92rcd13ifvqbd0","pricing_plan_id":"cebpf4jnsgd1na2vs0mg"},