{"last_updated":1771128706,"ttl":60,"version":"2.2","data":{"bikes":[{"bike_id":"d96f1086-8d9b-4b38-8774-136993319875","system_id":"levelo_inurba_marseille","lat":43.246431,"lon":5.388911,"is_reserved":false,"is_disabled":false,"rental_uris":{"android":"levelo://app?vid=d96f1086-8d9b-4b38-8774-136993319875","ios":"levelo://app?vid=d96f1086-8d9b-4b38-8774-136993319875"},"vehicle_type_id":"4","last_reported":1771128706,"current_range_meters":16000,"station_id":"ce4bhg12rcd13ifvqf60","pricing_plan_id":"cebpf4jnsgd1na2vs0mg"},{"bike_id":"597ba019-6a14-4724-bfeb-cc559411f270","system_id":"levelo_inurba_marseille","lat":43.27615,"lon":5.36116,"is_reserved":false,"is_disabled":false,"rental_uris":{"android":"levelo://app?vid=597ba019-6a14-4724-bfeb-cc559411f270","ios":"levelo://app?vid=597ba019-6a14-4724-bfeb-cc559411f270"},"vehicle_type_id":"4","last_reported":1771128706,"current_range_meters":39200,"station_id":"ce4bgj92rcd13ifvqbe0","pricing_plan_id":"cebpf4jnsgd1na2vs0mg"},{"bike_id":"34d70057-47d6-4c17-b6c1-e79de54e1e52","system_id":"levelo_inurba_marseille","lat":43.330224,"lon":5.390432,"is_reserved":false,"is_disabled":false,"rental_uris":{"android":"levelo://app?vid=34d70057-47d6-4c17-b6c1-e79de54e1e52","ios":"levelo://app?vid=34d70057-47d6-4c17-b6c1-e79de54e1e52"},"vehicle_type_id":"4","last_reported":1771128706,"current_range_meters":31200,"station_id":"ce4bhr92rcd13ifvqhrg","pricing_plan_id":"cebpf4jnsgd1na2vs0mg"},{"bike_id":"68ef5776-ce7e-4d76-bed7-b3b2136e9f86","system_id":"levelo_inurba_marseille","lat":43.33023,"lon":5.39037,"is_reserved":false,"is_disabled":false,"rental_uris":{"android":"levelo://app?vid=68ef5776-ce7e-4d76-bed7-b3b2136e9f86","ios":"levelo://app?vid=68ef5776-ce7e-4d76-bed7-b3b2136e9f86"},"vehicle_type_id":"4","last_reported":1771128706,"current_range_meters":38800,"station_id":"ce4bhr92rcd13ifvqhrg","pricing_plan_id":"cebpf4jnsgd1na2vs0mg"},{"bike_id":"dcf21c8a-af55-489b-ae7c-c01a8eafbc40","system_id":"levelo_inurba_marseille","lat":43.337444,"lon":5.374475,"is_reserved":false,"is_disabled":false,"rental_uris":{"android":"levelo://app?vid=dcf21c8a-af55-489b-ae7c-c01a8eafbc40","ios":"levelo://app?vid=dcf21c8a-af55-489b-ae7c-c01a8eafbc40"},"vehicle_type_id":"4","last_reported":1771128706,"current_range_meters":20800,"station_id":"","pricing_plan_id":"cebpf4jnsgd1na2vs0mg"},{"bike_id":"7017b9ea-236b-408a-9884-05979c964e9b","system_id":"levelo_inurba_marseille","lat":43.33021,"lon":5.390384,"is_reserved":false,"is_disabled":false,"rental_uris":{"android":"levelo://app?vid=7017b9ea-236b-408a-9884-05979c964e9b","ios":"levelo://app?vid=7017b9ea-236b-408a-9884-05979c964e9b"},"vehicle_type_id":"4","last_reported":1771128706,"current_range_meters":39200,"station_id":"ce4bhr92rcd13ifvqhrg","pricing_plan_id":"cebpf4jnsgd1na2vs0mg"},{"bike_id":"05431520-0744-4aff-8d56-5eda07b7d4bf","system_id":"levelo_inurba_marseille","lat":43.33021,"lon":5.39049,"is_reserved":false,"is_disabled":false,"rental_uris":{"android":"levelo://app?vid=05431520-0744-4aff-8d56-5eda07b7d4bf","ios":"levelo://app?vid=05431520-0744-4aff-8d56-5eda07b7d4bf"},"vehicle_type_id":"4","last_reported":1771128706,"current_range_meters":38800,"station_id":"ce4bhr92rcd13ifvqhrg","pricing_plan_id":"cebpf4jnsgd1na2vs0mg"},{"bike_id":"b07f3ef1-c8ed-4cbb-96c2-2cf40b5d7a28","system_id":"levelo_inurba_marseille","lat":43.33018,"lon":5.39039,"is_reserved":false,"is_disabled":false,"rental_uris":{"android":"levelo://app?vid=b07f3ef1-c8ed-4cbb-96c2-2cf40b5d7a28","ios":"levelo://app?vid=b07f3ef1-c8ed-4cbb-96c2-2cf40b5d7a28"},"vehicle_type_id":"4","last_reported":1771128706,"current_range_meters":39200,"station_id":"ce4bhr92rcd13ifvqhrg","pricing_plan_id":"cebpf4jnsgd1na2vs0mg"},{"bike_id":"866ce7df-512c-4b3a-8fef-c09b0701924c","system_id":"levelo_inurba_marseille","lat":43.34147,"lon":5.40897,"is_reserved":false,"is_disabled":false,"rental_uris":{"android":"levelo://app?vid=866ce7df-512c-4b3a-8fef-c09b0701924c","ios":"levelo://app?vid=866ce7df-512c-4b3a-8fef-c09b0701924c"},"vehicle_type_id":"4","last_reported":1771128706,"current_range_meters":38400,"station_id":"ce4bhqh2rcd13ifvqhlg","pricing_plan_id":"cebpf4jnsgd1na2vs0mg"},{"bike_id":"652a25b0-b80d-4f9a-86ce-faebcb6e1130","system_id":"levelo_inurba_marseille","lat":43.32366,"lon":5.38885,"is_reserved":false,"is_disabled":false,"rental_uris":{"android":"levelo://app?vid=652a25b0-b80d-4f9a-86ce-faebcb6e1130","ios":"levelo://app?vid=652a25b0-b80d-4f9a-86ce-faebcb6e1130"},"vehicle_type_id":"4","last_reported":1771128706,"current_range_meters":38000,"station_id":"ce4bhqp2rcd13ifvqhog","pricing_plan_id":"cebpf4jnsgd1na2vs0mg"},{"bike_id":"8ff7e5fe-aeff-4c28-befd-849a0d3b0506","system_id":"levelo_inurba_marseille","lat":43.33009,"lon":5.39038,"is_reserved":false,"is_disabled":false,"rental_uris":{"android":"levelo://app?vid=8ff7e5fe-aeff-4c28-befd-849a0d3b0506","ios":"levelo://app?vid=8ff7e5fe-aeff-4c28-befd-849a0d3b0506"},"vehicle_type_id":"4","last_reported":1771128706,"current_range_meters":38800,"station_id":"ce4bhr92rcd13ifvqhrg","pricing_plan_id":"cebpf4jnsgd1na2vs0mg"},{"bike_id":"096f020f-cc4d-47ba-9384-d819ca9e3f2c","system_id":"levelo_inurba_marseille","lat":43.34147,"lon":5.40907,"is_reserved":false,"is_disabled":false,"rental_uris":{"android":"levelo://app?vid=096f020f-cc4d-47ba-9384-d819ca9e3f2c","ios":"levelo://app?vid=096f020f-cc4d-47ba-9384-d819ca9e3f2c"},"vehicle_type_id":"4","last_reported":1771128706,"current_range_meters":39200,"station_id":"ce4bhqh2rcd13ifvqhlg","pricing_plan_id":"cebpf4jnsgd1na2vs0mg"},{"bike_id":"c96e29c7-b48d-4b1c-8020-47ce3363411b","system_id":"levelo_inurba_marseille","lat":43.341574,"lon":5.408949,"is_reserved":false,"is_disabled":false,"rental_uris":{"android":"levelo://app?vid=c96e29c7-b48d-4b1c-8020-47ce3363411b","ios":"levelo://app?vid=c96e29c7-b48d-4b1c-8020-47ce3363411b"},"vehicle_type_id":"4","last_reported":1771128706,"current_range_meters":38400,"station_id":"ce4bhqh2rcd13ifvqhlg","pricing_plan_id":"cebpf4jnsgd1na2vs0mg"},{"bike_id":"9ee88708-4e04-47f3-b19e-2f6b97784421","system_id":"levelo_inurba_marseille","lat":43.32375,"lon":5.38868,"is_reserved":false,"is_disabled":false,"rental_uris":{"android":"levelo://app?vid=9ee88708-4e04-47f3-b19e-2f6b97784421","ios":"levelo://app?vid=9ee88708-4e04-47f3-b19e-2f6b97784421"},"vehicle_type_id":"4","last_reported":1771128706,"current_range_meters":39200,"station_id":"ce4bhqp2rcd13ifvqhog","pricing_plan_id":"cebpf4jnsgd1na2vs0mg"},{"bike_id":"afdc4a07-dc35-4359-8461-be88469477c5","system_id":"levelo_inurba_marseille","lat":43.323622,"lon":5.388907,"is_reserved":false,"is_disabled":false,"rental_uris":{"android":"levelo://app?vid=afdc4a07-dc35-4359-8461-be88469477c5","ios":"levelo://app?vid=afdc4a07-dc35-4359-8461-be88469477c5"},"vehicle_type_id":"4","last_reported":1771128706,"current_range_meters":39200,"station_id":"ce4bhqp2rcd13ifvqhog","pricing_plan_id":"cebpf4jnsgd1na2vs0mg"},{"bike_id":"64f460a1-288f-42d2-88de-a92a667fff57","system_id":"levelo_inurba_marseille","lat":43.33029,"lon":5.390434,"is_reserved":false,"is_disabled":false,"rental_uris":{"android":"levelo://app?vid=64f460a1-288f-42d2-88de-a92a667fff57","ios":"levelo://app?vid=64f460a1-288f-42d2-88de-a92a667fff57"},"vehicle_type_id":"4","last_reported":1771128706,"current_range_meters":38800,"station_id":"ce4bhr92rcd13ifvqhrg","pricing_plan_id":"cebpf4jnsgd1na2vs0mg"},{"bike_id":"b23a35bf-e16c-4f97-b98c-b0c3ee910b87","system_id":"levelo_inurba_marseille","lat":43.330292,"lon":5.39032,"is_reserved":false,"is_disabled":false,"rental_uris":{"android":"levelo://app?vid=b23a35bf-e16c-4f97-b98c-b0c3ee910b87","ios":"levelo://app?vid=b23a35bf-e16c-4f97-b98c-b0c3ee910b87"},"vehicle_type_id":"4","last_reported":1771128706,"current_range_meters":39200,"station_id":"ce4bhr92rcd13ifvqhrg","pricing_plan_id":"cebpf4jnsgd1na2vs0mg"},{"bike_id":"4b69d9ac-5988-4e0b-b555-d4763bf81efe","system_id":"levelo_inurba_marseille","lat":43.330424,"lon":5.390374,"is_reserved":false,"is_disabled":false,"rental_uris":{"android":"levelo://app?vid=4b69d9ac-5988-4e0b-b555-d4763bf81efe","ios":"levelo://app?vid=4b69d9ac-5988-4e0b-b555-d4763bf81efe"},"vehicle_type_id":"4","last_reported":1771128706,"current_range_meters":38000,"station_id":"ce4bhr92rcd13ifvqhrg","pricing_plan_id":"cebpf4jnsgd1na2vs0mg"},{"bike_id":"9942bbc5-c241-4e8a-b7a0-e7948f4f2e45","system_id":"levelo_inurba_marseille","lat":43.32352,"lon":5.38879,"is_reserved":false,"is_disabled":false,"rental_uris":{"android":"levelo://app?vid=9942bbc5-c241-4e8a-b7a0-e7948f4f2e45","ios":"levelo://app?vid=9942bbc5-c241-4e8a-b7a0-e7948f4f2e45"},"vehicle_type_id":"4","last_reported":1771128706,"current_range_meters":38400,"station_id":"ce4bhqp2rcd13ifvqhog","pricing_plan_id":"cebpf4jnsgd1na2vs0mg"},{"bike_id":"78eafc9c-aeb1-4a3e-b6ec-c3c1210ea0e6","system_id":"levelo_inurba_marseille","lat":43.323738,"lon":5.388813,"is_reserved":false,"is_disabled":false,"rental_uris":{"android":"levelo://app?vid=78eafc9c-aeb1-4a3e-b6ec-c3c1210ea0e6","ios":"levelo://app?vid=78eafc9c-aeb1-4a3e-b6ec-c3c1210ea0e6"},"vehicle_type_id":"4","last_reported":1771128706,"current_range_meters":38400,"station_id":"ce4bhqp2rcd13ifvqhog","pricing_plan_id":"cebpf4jnsgd1na2vs0mg"},{"bike_id":"8e8e8859-a5a6-43b8-9a3a-3d7ba83a2210","system_id":"levelo_inurba_marseille","lat":43.33013,"lon":5.39033,"is_reserved":false,"is_disabled":false,"rental_uris":{"android":"levelo://app?vid=8e8e8859-a5a6-43b8-9a3a-3d7ba83a2210","ios":"levelo://app?vid=8e8e8859-a5a6-43b8-9a3a-3d7ba83a2210"},"vehicle_type_id":"4","last_reported":1771128706,"current_range_meters":39200,"station_id":"ce4bhr92rcd13ifvqhrg","pricing_plan_id":"cebpf4jnsgd1na2vs0mg"},{"bike_id":"e09b1854-500a-4103-9ded-791ea62f0cef","system_id":"levelo_inurba_marseille","lat":43.32372,"lon":5.38873,"is_reserved":false,"is_disabled":false,"rental_uris":{"android":"levelo://app?vid=e09b1854-500a-4103-9ded-791ea62f0cef","ios":"levelo://app?vid=e09b1854-500a-4103-9ded-791ea62f0cef"},"vehicle_type_id":"4","last_reported":1771128706,"current_range_meters":38800,"station_id":"ce4bhqp2rcd13ifvqhog","pricing_plan_id":"cebpf4jnsgd1na2vs0mg"},{"bike_id":"be8ecc47-b3b1-4e9a-89ec-d105b0b19936","system_id":"levelo_inurba_marseille","lat":43.32359,"lon":5.38882,"is_reserved":false,"is_disabled":false,"rental_uris":{"android":"levelo://app?vid=be8ecc47-b3b1-4e9a-89ec-d105b0b19936","ios":"levelo://app?vid=be8ecc47-b3b1-4e9a-89ec-d105b0b19936"},"vehicle_type_id":"4","last_reported":1771128706,"current_range_meters":38800,"station_id":"ce4bhqp2rcd13ifvqhog","pricing_plan_id":"cebpf4jnsgd1na2vs0mg"},{"bike_id":"40f653fd-fc41-44ea-94c9-56ee3a92aebe","system_id":"levelo_inurba_marseille","lat":43.33021,"lon":5.39027,"is_reserved":false,"is_disabled":false,"rental_uris":{"android":"levelo://app?vid=40f653fd-fc41-44ea-94c9-56ee3a92aebe","ios":"levelo://app?vid=40f653fd-fc41-44ea-94c9-56ee3a92aebe"},"vehicle_type_id":"4","last_reported":1771128706,"current_range_meters":38400,"station_id":"ce4bhr92rcd13ifvqhrg","pricing_plan_id":"cebpf4jnsgd1na2vs0mg"},{"bike_id":"3cccd3b9-43e3-4300-876c-33c46754f515","system_id":"levelo_inurba_marseille","lat":43.330288,"lon":5.390324,"is_reserved":false,"is_disabled":false,"rental_uris":{"android":"levelo://app?vid=3cccd3b9-43e3-4300-876c-33c46754f515","ios":"levelo://app?vid=3cccd3b9-43e3-4300-876c-33c46754f515"},"vehicle_type_id":"4","last_reported":1771128706,"current_range_meters":39200,"station_id":"ce4bhr92rcd13ifvqhrg","pricing_plan_id":"cebpf4jnsgd1na2vs0mg"},{"bike_id":"e6e08f6b-466b-497d-99fe-10096f8ca89b","system_id":"levelo_inurba_marseille","lat":43.330642,"lon":5.390611,"is_reserved":false,"is_disabled":false,"rental_uris":{"android":"levelo://app?vid=e6e08f6b-466b-497d-99fe-10096f8ca89b","ios":"levelo://app?vid=e6e08f6b-466b-497d-99fe-10096f8ca89b"},"vehicle_type_id":"4","last_reported":1771128706,"current_range_meters":38400,"station_id":"ce4bhr92rcd13ifvqhrg","pricing_plan_id":"cebpf4jnsgd1na2vs0mg"},{"bike_id":"6e473d3d-5713-40bd-bcf2-0bc8a3c35473","system_id":"levelo_inurba_marseille","lat":43.30796,"lon":5.38148,"is_reserved":false,"is_disabled":false,"rental_uris":{"android":"levelo://app?vid=6e473d3d-5713-40bd-bcf2-0bc8a3c35473","ios":"levelo://app?vid=6e473d3d-5713-40bd-bcf2-0bc8a3c35473"},"vehicle_type_id":"4","last_reported":1771128706,"current_range_meters":39200,"station_id":"ce4bgt12rcd13ifvqce0","pricing_plan_id":"cebpf4jnsgd1na2vs0mg"},{"bike_id":"49e812e7-aea6-429d-beb3-118505c6a61b","system_id":"levelo_inurba_marseille","lat":43.283733,"lon":5.38634,"is_reserved":false,"is_disabled":false,"rental_uris":{"android":"levelo://app?vid=49e812e7-aea6-429d-beb3-118505c6a61b","ios":"levelo://app?vid=49e812e7-aea6-429d-beb3-118505c6a61b"},"vehicle_type_id":"4","last_reported":1771128706,"current_range_meters":39200,"station_id":"ce4bh492rcd13ifvqdvg","pricing_plan_id":"cebpf4jnsgd1na2vs0mg"},{"bike_id":"bdf72b80-d7a9-4303-9f7f-d62bd85c9012","system_id":"levelo_inurba_marseille","lat":43.30533,"lon":5.36694,"is_reserved":false,"is_disabled":false,"rental_uris":{"android":"levelo://app?vid=bdf72b80-d7a9-4303-9f7f-d62bd85c9012","ios":"levelo://app?vid=bdf72b80-d7a9-4303-9f7f-d62bd85c9012"},"vehicle_type_id":"4","last_reported":1771128706,"current_range_meters":38800,"station_id":"ce4bgrp2rcd13ifvqc9g","pricing_plan_id":"cebpf4jnsgd1na2vs0mg"},{"bike_id":"2ee2501b-b2dd-4e3f-bff3-a91ee1254efa","system_id":"levelo_inurba_marseille","lat":43.289439,"lon":5.396431,"is_reserved":false,"is_disabled":true,"rental_uris":{"android":"levelo://app?vid=2ee2501b-b2dd-4e3f-bff3-a91ee1254efa","ios":"levelo://app?vid=2ee2501b-b2dd-4e3f-bff3-a91ee1254efa"},"vehicle_type_id":"4","last_reported":1771128706,"current_range_meters":22400,"station_id":"ce4bh3h2rcd13ifvqdn0","pricing_plan_id":"cebpf4jnsgd1na2vs0mg"},{"bike_id":"e28b54de-af57-425f-96ed-b1caac28166f","system_id":"levelo_inurba_marseille","lat":43.33153,"lon":5.37706,"is_reserved":false,"is_disabled":false,"rental_uris":{"android":"levelo://app?vid=e28b54de-af57-425f-96ed-b1caac28166f","ios":"levelo://app?vid=e28b54de-af57-425f-96ed-b1caac28166f"},"vehicle_type_id":"4","last_reported":1771128706,"current_range_meters":36400,"station_id":"st_d46cu089ee8s73dldbu0","pricing_plan_id":"cebpf4jnsgd1na2vs0mg"},{"bike_id":"c8597474-67a5-40d0-a959-e688b0e74629","system_id":"levelo_inurba_marseille","lat":43.30154,"lon":5.38028,"is_reserved":false,"is_disabled":false,"rental_uris":{"android":"levelo://app?vid=c8597474-67a5-40d0-a959-e688b0e74629","ios":"levelo://app?vid=c8597474-67a5-40d0-a959-e688b0e74629"},"vehicle_type_id":"4","last_reported":1771128706,"current_range_meters":22800,"station_id":"ce4bgjp2rcd13ifvqbh0","pricing_plan_id":"cebpf4jnsgd1na2vs0mg"},{"bike_id":"a32279df-9b05-429b-993b-59fe7cac8dcd","system_id":"levelo_inurba_marseille","lat":43.2944,"lon":5.39745,"is_reserved":false,"is_disabled":false,"rental_uris":{"android":"levelo://app?vid=a32279df-9b05-429b-993b-59fe7cac8dcd","ios":"levelo://app?vid=a32279df-9b05-429b-993b-59fe7cac8dcd"},"vehicle_type_id":"4","last_reported":1771128706,"current_range_meters":31200,"station_id":"ce4bh3h2rcd13ifvqdo0","pricing_plan_id":"cebpf4jnsgd1na2vs0mg"},{"bike_id":"99384fa8-8131-47f2-9fd1-057dab2586bd","system_id":"levelo_inurba_marseille","lat":43.26189,"lon":5.37452,"is_reserved":false,"is_disabled":false,"rental_uris":{"android":"levelo://app?vid=99384fa8-8131-47f2-9fd1-057dab2586bd","ios":"levelo://app?vid=99384fa8-8131-47f2-9fd1-057dab2586bd"},"vehicle_type_id":"4","last_reported":1771128706,"current_range_meters":7200,"station_id":"ce4bhgp2rcd13ifvqfc0","pricing_plan_id":"cebpf4jnsgd1na2vs0mg"},{"bike_id":"b829afcc-9b72-4b0e-9514-8b2754aea185","system_id":"levelo_inurba_marseille","lat":43.29929,"lon":5.37455,"is_reserved":false,"is_disabled":false,"rental_uris":{"android":"levelo://app?vid=b829afcc-9b72-4b0e-9514-8b2754aea185","ios":"levelo://app?vid=b829afcc-9b72-4b0e-9514-8b2754aea185"},"vehicle_type_id":"4","last_reported":1771128706,"current_range_meters":12800,"station_id":"ce4bgjh2rcd13ifvqbg0","pricing_plan_id":"cebpf4jnsgd1na2vs0mg"},{"bike_id":"fa20edca-9954-4bdd-b2b9-9694aaa84d68","system_id":"levelo_inurba_marseille","lat":43.29927,"lon":5.36515,"is_reserved":false,"is_disabled":false,"rental_uris":{"android":"levelo://app?vid=fa20edca-9954-4bdd-b2b9-9694aaa84d68","ios":"levelo://app?vid=fa20edca-9954-4bdd-b2b9-9694aaa84d68"},"vehicle_type_id":"4","last_reported":1771128706,"current_range_meters":20800,"station_id":"ce4bgm92rcd13ifvqbr0","pricing_plan_id":"cebpf4jnsgd1na2vs0mg"},{"bike_id":"4993582c-2f70-44fc-aa3b-19716e700ca1","system_id":"levelo_inurba_marseille","lat":43.304207,"lon":5.412811,"is_reserved":false,"is_disabled":false,"rental_uris":{"android":"levelo://app?vid=4993582c-2f70-44fc-aa3b-19716e700ca1","ios":"levelo://app?vid=4993582c-2f70-44fc-aa3b-19716e700ca1"},"vehicle_type_id":"4","last_reported":1771128706,"current_range_meters":19200,"station_id":"ce4bhop2rcd13ifvqh8g","pricing_plan_id":"cebpf4jnsgd1na2vs0mg"},{"bike_id":"03ad5722-48a7-484e-8d3b-728b976dba37","system_id":"levelo_inurba_marseille","lat":43.28257,"lon":5.35066,"is_reserved":false,"is_disabled":false,"rental_uris":{"android":"levelo://app?vid=03ad5722-48a7-484e-8d3b-728b976dba37","ios":"levelo://app?vid=03ad5722-48a7-484e-8d3b-728b976dba37"},"vehicle_type_id":"4","last_reported":1771128706,"current_range_meters":35200,"station_id":"ce4bhbp2rcd13ifvqerg","pricing_plan_id":"cebpf4jnsgd1na2vs0mg"},{"bike_id":"d6d5d12a-80c0-4acd-bbde-41f77c6e52d4","system_id":"levelo_inurba_marseille","lat":43.27203,"lon":5.39175,"is_reserved":false,"is_disabled":true,"rental_uris":{"android":"levelo://app?vid=d6d5d12a-80c0-4acd-bbde-41f77c6e52d4","ios":"levelo://app?vid=d6d5d12a-80c0-4acd-bbde-41f77c6e52d4"},"vehicle_type_id":"4","last_reported":1771128706,"current_range_meters":20400,"station_id":"ce4bhhp2rcd13ifvqfm0","pricing_plan_id":"cebpf4jnsgd1na2vs0mg"},{"bike_id":"fcdc8164-8974-4034-a4c9-bef73e1a1a6f","system_id":"levelo_inurba_marseille","lat":43.28672,"lon":5.38658,"is_reserved":false,"is_disabled":true,"rental_uris":{"android":"levelo://app?vid=fcdc8164-8974-4034-a4c9-bef73e1a1a6f","ios":"levelo://app?vid=fcdc8164-8974-4034-a4c9-bef73e1a1a6f"},"vehicle_type_id":"4","last_reported":1771128706,"current_range_meters":38000,"station_id":"ce4bh492rcd13ifvqdug","pricing_plan_id":"cebpf4jnsgd1na2vs0mg"},{"bike_id":"460264f3-8bc6-4c77-beaf-ea8534482f84","system_id":"levelo_inurba_marseille","lat":43.2495,"lon":5.40489,"is_reserved":false,"is_disabled":false,"rental_uris":{"android":"levelo://app?vid=460264f3-8bc6-4c77-beaf-ea8534482f84","ios":"levelo://app?vid=460264f3-8bc6-4c77-beaf-ea8534482f84"},"vehicle_type_id":"4","last_reported":1771128706,"current_range_meters":33200,"station_id":"st_d2ngiaodas8pm72gd1h0","pricing_plan_id":"cebpf4jnsgd1na2vs0mg"},{"bike_id":"bfd89baa-fbc2-45c5-8b74-3d61cb004f40","system_id":"levelo_inurba_marseille","lat":43.23791,"lon":5.3662,"is_reserved":false,"is_disabled":false,"rental_uris":{"android":"levelo://app?vid=bfd89baa-fbc2-45c5-8b74-3d61cb004f40","ios":"levelo://app?vid=bfd89baa-fbc2-45c5-8b74-3d61cb004f40"},"vehicle_type_id":"4","last_reported":1771128706,"current_range_meters":37600,"station_id":"","pricing_plan_id":"cebpf4jnsgd1na2vs0mg"},{"bike_id":"013e9e96-8726-4b53-8270-2c90ec0c2339","system_id":"levelo_inurba_marseille","lat":43.286112,"lon":5.351104,"is_reserved":false,"is_disabled":false,"rental_uris":{"android":"levelo://app?vid=013e9e96-8726-4b53-8270-2c90ec0c2339","ios":"levelo://app?vid=013e9e96-8726-4b53-8270-2c90ec0c2339"},"vehicle_type_id":"4","last_reported":1771128706,"current_range_meters":34800,"station_id":"ce4bgjh2rcd13ifvqbf0","pricing_plan_id":"cebpf4jnsgd1na2vs0mg"},{"bike_id":"a261d69d-cd06-47ff-bc6e-b66e5159e474","system_id":"levelo_inurba_marseille","lat":43.27881,"lon":5.37953,"is_reserved":false,"is_disabled":false,"rental_uris":{"android":"levelo://app?vid=a261d69d-cd06-47ff-bc6e-b66e5159e474","ios":"levelo://app?vid=a261d69d-cd06-47ff-bc6e-b66e5159e474"},"vehicle_type_id":"4","last_reported":1771128706,"current_range_meters":39200,"station_id":"ce4bhf92rcd13ifvqf50","pricing_plan_id":"cebpf4jnsgd1na2vs0mg"},{"bike_id":"d6bb6351-c55f-406e-b5c8-961adb5f7426","system_id":"levelo_inurba_marseille","lat":43.29628,"lon":5.40581,"is_reserved":false,"is_disabled":false,"rental_uris":{"android":"levelo://app?vid=d6bb6351-c55f-406e-b5c8-961adb5f7426","ios":"levelo://app?vid=d6bb6351-c55f-406e-b5c8-961adb5f7426"},"vehicle_type_id":"4","last_reported":1771128706,"current_range_meters":37600,"station_id":"ce4bh0h2rcd13ifvqd60","pricing_plan_id":"cebpf4jnsgd1na2vs0mg"},{"bike_id":"73746e6b-3a17-44f4-8dd7-7ef243b28100","system_id":"levelo_inurba_marseille","lat":43.30151,"lon":5.38085,"is_reserved":false,"is_disabled":false,"rental_uris":{"android":"levelo://app?vid=73746e6b-3a17-44f4-8dd7-7ef243b28100","ios":"levelo://app?vid=73746e6b-3a17-44f4-8dd7-7ef243b28100"},"vehicle_type_id":"4","last_reported":1771128706,"current_range_meters":36000,"station_id":"ce4bgjp2rcd13ifvqbh0","pricing_plan_id":"cebpf4jnsgd1na2vs0mg"},{"bike_id":"0f348861-a63a-4c58-a4a6-4e6046ace397","system_id":"levelo_inurba_marseille","lat":43.28438,"lon":5.39207,"is_reserved":false,"is_disabled":false,"rental_uris":{"android":"levelo://app?vid=0f348861-a63a-4c58-a4a6-4e6046ace397","ios":"levelo://app?vid=0f348861-a63a-4c58-a4a6-4e6046ace397"},"vehicle_type_id":"4","last_reported":1771128706,"current_range_meters":26800,"station_id":"ce4bhoh2rcd13ifvqh5g","pricing_plan_id":"cebpf4jnsgd1na2vs0mg"},{"bike_id":"898a8ca9-6705-4da8-8ec2-d4fe3b517c7c","system_id":"levelo_inurba_marseille","lat":43.28097,"lon":5.37843,"is_reserved":false,"is_disabled":false,"rental_uris":{"android":"levelo://app?vid=898a8ca9-6705-4da8-8ec2-d4fe3b517c7c","ios":"levelo://app?vid=898a8ca9-6705-4da8-8ec2-d4fe3b517c7c"},"vehicle_type_id":"4","last_reported":1771128706,"current_range_meters":10800,"station_id":"ce4bha12rcd13ifvqee0","pricing_plan_id":"cebpf4jnsgd1na2vs0mg"},{"bike_id":"ecd273f0-a6f0-460f-9618-3f807a1dc212","system_id":"levelo_inurba_marseille","lat":43.30516,"lon":5.36558,"is_reserved":false,"is_disabled":false,"rental_uris":{"android":"levelo://app?vid=ecd273f0-a6f0-460f-9618-3f807a1dc212","ios":"levelo://app?vid=ecd273f0-a6f0-460f-9618-3f807a1dc212"},"vehicle_type_id":"4","last_reported":1771128706,"current_range_meters":32000,"station_id":"","pricing_plan_id":"cebpf4jnsgd1na2vs0mg"},{"bike_id":"a4bc2102-f4bb-46b4-bcb1-22c0936b606b","system_id":"levelo_inurba_marseille","lat":43.25334,"lon":5.42177,"is_reserved":false,"is_disabled":false,"rental_uris":{"android":"levelo://app?vid=a4bc2102-f4bb-46b4-bcb1-22c0936b606b","ios":"levelo://app?vid=a4bc2102-f4bb-46b4-bcb1-22c0936b606b"},"vehicle_type_id":"4","last_reported":1771128706,"current_range_meters":8800,"station_id":"st_d2m65c5bi1j21697t3ng","pricing_plan_id":"cebpf4jnsgd1na2vs0mg"},{"bike_id":"5ebe73de-2cf7-4bc4-9047-e5658e66ceb9","system_id":"levelo_inurba_marseille","lat":43.24169,"lon":5.36399,"is_reserved":false,"is_disabled":true,"rental_uris":{"android":"levelo://app?vid=5ebe73de-2cf7-4bc4-9047-e5658e66ceb9","ios":"levelo://app?vid=5ebe73de-2cf7-4bc4-9047-e5658e66ceb9"},"vehicle_type_id":"4","last_reported":1771128706,"current_range_meters":17600,"station_id":"cpo36qri1sfpv3e86is0","pricing_plan_id":"cebpf4jnsgd1na2vs0mg"},{"bike_id":"7f7c5b1c-981c-49ae-addc-a676236acefe","system_id":"levelo_inurba_marseille","lat":43.28097,"lon":5.3784,"is_reserved":false,"is_disabled":false,"rental_uris":{"android":"levelo://app?vid=7f7c5b1c-981c-49ae-addc-a676236acefe","ios":"levelo://app?vid=7f7c5b1c-981c-49ae-addc-a676236acefe"},"vehicle_type_id":"4","last_reported":1771128706,"current_range_meters":39200,"station_id":"ce4bha12rcd13ifvqee0","pricing_plan_id":"cebpf4jnsgd1na2vs0mg"},{"bike_id":"ed8b5fe8-1920-4dfd-97af-072031019259","system_id":"levelo_inurba_marseille","lat":43.2636,"lon":5.41084,"is_reserved":false,"is_disabled":false,"rental_uris":{"android":"levelo://app?vid=ed8b5fe8-1920-4dfd-97af-072031019259","ios":"levelo://app?vid=ed8b5fe8-1920-4dfd-97af-072031019259"},"vehicle_type_id":"4","last_reported":1771128706,"current_range_meters":34800,"station_id":"st_d4e5ca6na9uc73bfl5fg","pricing_plan_id":"cebpf4jnsgd1na2vs0mg"},{"bike_id":"dbf3adce-f756-48be-8142-94bd2d254eea","system_id":"levelo_inurba_marseille","lat":43.26554,"lon":5.3728,"is_reserved":false,"is_disabled":false,"rental_uris":{"android":"levelo://app?vid=dbf3adce-f756-48be-8142-94bd2d254eea","ios":"levelo://app?vid=dbf3adce-f756-48be-8142-94bd2d254eea"},"vehicle_type_id":"4","last_reported":1771128706,"current_range_meters":14000,"station_id":"ce4bhg12rcd13ifvqf70","pricing_plan_id":"cebpf4jnsgd1na2vs0mg"},{"bike_id":"da7e1feb-b1a9-443b-9dca-a2cdd7297fe4","system_id":"levelo_inurba_marseille","lat":43.2906,"lon":5.39928,"is_reserved":false,"is_disabled":false,"rental_uris":{"android":"levelo://app?vid=da7e1feb-b1a9-443b-9dca-a2cdd7297fe4","ios":"levelo://app?vid=da7e1feb-b1a9-443b-9dca-a2cdd7297fe4"},"vehicle_type_id":"4","last_reported":1771128706,"current_range_meters":6000,"station_id":"ce4bh392rcd13ifvqdm0","pricing_plan_id":"cebpf4jnsgd1na2vs0mg"},{"bike_id":"988b0672-cdd9-4693-9979-18d1861e595f","system_id":"levelo_inurba_marseille","lat":43.29918,"lon":5.37485,"is_reserved":false,"is_disabled":false,"rental_uris":{"android":"levelo://app?vid=988b0672-cdd9-4693-9979-18d1861e595f","ios":"levelo://app?vid=988b0672-cdd9-4693-9979-18d1861e595f"},"vehicle_type_id":"4","last_reported":1771128706,"current_range_meters":37600,"station_id":"ce4bgjh2rcd13ifvqbg0","pricing_plan_id":"cebpf4jnsgd1na2vs0mg"},{"bike_id":"d97604ce-364c-459d-8875-8f54c335d253","system_id":"levelo_inurba_marseille","lat":43.246981,"lon":5.417206,"is_reserved":false,"is_disabled":false,"rental_uris":{"android":"levelo://app?vid=d97604ce-364c-459d-8875-8f54c335d253","ios":"levelo://app?vid=d97604ce-364c-459d-8875-8f54c335d253"},"vehicle_type_id":"4","last_reported":1771128706,"current_range_meters":8800,"station_id":"","pricing_plan_id":"cebpf4jnsgd1na2vs0mg"},{"bike_id":"f299c764-c030-44b9-ae18-0daaaf9158e9","system_id":"levelo_inurba_marseille","lat":43.29719,"lon":5.3661,"is_reserved":false,"is_disabled":false,"rental_uris":{"android":"levelo://app?vid=f299c764-c030-44b9-ae18-0daaaf9158e9","ios":"levelo://app?vid=f299c764-c030-44b9-ae18-0daaaf9158e9"},"vehicle_type_id":"4","last_reported":1771128706,"current_range_meters":16800,"station_id":"ce4bgn12rcd13ifvqbt0","pricing_plan_id":"cebpf4jnsgd1na2vs0mg"},{"bike_id":"79a7e591-1b27-4aab-b9f7-840e2732a2bc","system_id":"levelo_inurba_marseille","lat":43.31711,"lon":5.40434,"is_reserved":false,"is_disabled":false,"rental_uris":{"android":"levelo://app?vid=79a7e591-1b27-4aab-b9f7-840e2732a2bc","ios":"levelo://app?vid=79a7e591-1b27-4aab-b9f7-840e2732a2bc"},"vehicle_type_id":"4","last_reported":1771128706,"current_range_meters":6400,"station_id":"ce4bh012rcd13ifvqd00","pricing_plan_id":"cebpf4jnsgd1na2vs0mg"},{"bike_id":"2a6e4d13-f975-4614-9383-f7d51d2a7a66","system_id":"levelo_inurba_marseille","lat":43.27672,"lon":5.38868,"is_reserved":false,"is_disabled":false,"rental_uris":{"android":"levelo://app?vid=2a6e4d13-f975-4614-9383-f7d51d2a7a66","ios":"levelo://app?vid=2a6e4d13-f975-4614-9383-f7d51d2a7a66"},"vehicle_type_id":"4","last_reported":1771128706,"current_range_meters":36000,"station_id":"ce4bhi12rcd13ifvqfo0","pricing_plan_id":"cebpf4jnsgd1na2vs0mg"},{"bike_id":"d9ac65ca-3fcc-4a4a-9622-b63c7de6b93c","system_id":"levelo_inurba_marseille","lat":43.29232,"lon":5.36048,"is_reserved":false,"is_disabled":false,"rental_uris":{"android":"levelo://app?vid=d9ac65ca-3fcc-4a4a-9622-b63c7de6b93c","ios":"levelo://app?vid=d9ac65ca-3fcc-4a4a-9622-b63c7de6b93c"},"vehicle_type_id":"4","last_reported":1771128706,"current_range_meters":20800,"station_id":"ce4bhbh2rcd13ifvqeqg","pricing_plan_id":"cebpf4jnsgd1na2vs0mg"},{"bike_id":"1ad77ced-14d0-46cf-b66c-4187336859fd","system_id":"levelo_inurba_marseille","lat":43.322899,"lon":5.38267,"is_reserved":false,"is_disabled":false,"rental_uris":{"android":"levelo://app?vid=1ad77ced-14d0-46cf-b66c-4187336859fd","ios":"levelo://app?vid=1ad77ced-14d0-46cf-b66c-4187336859fd"},"vehicle_type_id":"4","last_reported":1771128706,"current_range_meters":36000,"station_id":"ce4bhr12rcd13ifvqhqg","pricing_plan_id":"cebpf4jnsgd1na2vs0mg"},{"bike_id":"8b4588ca-d7b6-45ad-948c-47740ca6889b","system_id":"levelo_inurba_marseille","lat":43.31506,"lon":5.37289,"is_reserved":false,"is_disabled":false,"rental_uris":{"android":"levelo://app?vid=8b4588ca-d7b6-45ad-948c-47740ca6889b","ios":"levelo://app?vid=8b4588ca-d7b6-45ad-948c-47740ca6889b"},"vehicle_type_id":"4","last_reported":1771128706,"current_range_meters":27200,"station_id":"ce4bgt12rcd13ifvqcd0","pricing_plan_id":"cebpf4jnsgd1na2vs0mg"},{"bike_id":"1a4d09d3-2e07-4421-b53b-defdf8256512","system_id":"levelo_inurba_marseille","lat":43.31218,"lon":5.3688,"is_reserved":false,"is_disabled":false,"rental_uris":{"android":"levelo://app?vid=1a4d09d3-2e07-4421-b53b-defdf8256512","ios":"levelo://app?vid=1a4d09d3-2e07-4421-b53b-defdf8256512"},"vehicle_type_id":"4","last_reported":1771128706,"current_range_meters":39200,"station_id":"ce4bgl92rcd13ifvqbq0","pricing_plan_id":"cebpf4jnsgd1na2vs0mg"},{"bike_id":"0108cb5f-db41-4a3c-afbe-cc105c668228","system_id":"levelo_inurba_marseille","lat":43.28727,"lon":5.36088,"is_reserved":false,"is_disabled":false,"rental_uris":{"android":"levelo://app?vid=0108cb5f-db41-4a3c-afbe-cc105c668228","ios":"levelo://app?vid=0108cb5f-db41-4a3c-afbe-cc105c668228"},"vehicle_type_id":"4","last_reported":1771128706,"current_range_meters":35200,"station_id":"cki0cbj6b192h4jlfktg","pricing_plan_id":"cebpf4jnsgd1na2vs0mg"},{"bike_id":"b7fcb2da-5243-440b-926b-4edc89af4b76","system_id":"levelo_inurba_marseille","lat":43.27988,"lon":5.40007,"is_reserved":false,"is_disabled":false,"rental_uris":{"android":"levelo://app?vid=b7fcb2da-5243-440b-926b-4edc89af4b76","ios":"levelo://app?vid=b7fcb2da-5243-440b-926b-4edc89af4b76"},"vehicle_type_id":"4","last_reported":1771128706,"current_range_meters":25600,"station_id":"ce4bho92rcd13ifvqh4g","pricing_plan_id":"cebpf4jnsgd1na2vs0mg"},{"bike_id":"de23c09b-999d-4731-91c0-faf2e4461159","system_id":"levelo_inurba_marseille","lat":43.29226,"lon":5.36045,"is_reserved":false,"is_disabled":false,"rental_uris":{"android":"levelo://app?vid=de23c09b-999d-4731-91c0-faf2e4461159","ios":"levelo://app?vid=de23c09b-999d-4731-91c0-faf2e4461159"},"vehicle_type_id":"4","last_reported":1771128706,"current_range_meters":10800,"station_id":"ce4bhbh2rcd13ifvqeqg","pricing_plan_id":"cebpf4jnsgd1na2vs0mg"},{"bike_id":"48d4a83c-c716-41c6-8fd3-cb0153dd2afb","system_id":"levelo_inurba_marseille","lat":43.31221,"lon":5.3686,"is_reserved":false,"is_disabled":false,"rental_uris":{"android":"levelo://app?vid=48d4a83c-c716-41c6-8fd3-cb0153dd2afb","ios":"levelo://app?vid=48d4a83c-c716-41c6-8fd3-cb0153dd2afb"},"vehicle_type_id":"4","last_reported":1771128706,"current_range_meters":19600,"station_id":"ce4bgl92rcd13ifvqbq0","pricing_plan_id":"cebpf4jnsgd1na2vs0mg"},{"bike_id":"1b777c13-2238-45d2-b7f5-81f63d605c07","system_id":"levelo_inurba_marseille","lat":43.289871,"lon":5.378328,"is_reserved":false,"is_disabled":false,"rental_uris":{"android":"levelo://app?vid=1b777c13-2238-45d2-b7f5-81f63d605c07","ios":"levelo://app?vid=1b777c13-2238-45d2-b7f5-81f63d605c07"},"vehicle_type_id":"4","last_reported":1771128706,"current_range_meters":39200,"station_id":"ce4bh9p2rcd13ifvqed0","pricing_plan_id":"cebpf4jnsgd1na2vs0mg"},{"bike_id":"602bffae-9ab4-4754-bc46-a33d75afb6ef","system_id":"levelo_inurba_marseille","lat":43.29061,"lon":5.39956,"is_reserved":false,"is_disabled":false,"rental_uris":{"android":"levelo://app?vid=602bffae-9ab4-4754-bc46-a33d75afb6ef","ios":"levelo://app?vid=602bffae-9ab4-4754-bc46-a33d75afb6ef"},"vehicle_type_id":"4","last_reported":1771128706,"current_range_meters":38800,"station_id":"ce4bh392rcd13ifvqdm0","pricing_plan_id":"cebpf4jnsgd1na2vs0mg"},{"bike_id":"766a065b-4d18-4f59-bf2e-e042bcb89fcb","system_id":"levelo_inurba_marseille","lat":43.251226,"lon":5.403162,"is_reserved":false,"is_disabled":false,"rental_uris":{"android":"levelo://app?vid=766a065b-4d18-4f59-bf2e-e042bcb89fcb","ios":"levelo://app?vid=766a065b-4d18-4f59-bf2e-e042bcb89fcb"},"vehicle_type_id":"4","last_reported":1771128706,"current_range_meters":38000,"station_id":"ce4bhlh2rcd13ifvqgig","pricing_plan_id":"cebpf4jnsgd1na2vs0mg"},{"bike_id":"7cdae2e1-5306-459b-96ab-2c3aaae39e37","system_id":"levelo_inurba_marseille","lat":43.25002,"lon":5.38925,"is_reserved":false,"is_disabled":false,"rental_uris":{"android":"levelo://app?vid=7cdae2e1-5306-459b-96ab-2c3aaae39e37","ios":"levelo://app?vid=7cdae2e1-5306-459b-96ab-2c3aaae39e37"},"vehicle_type_id":"4","last_reported":1771128706,"current_range_meters":36400,"station_id":"ce4bhgp2rcd13ifvqfd0","pricing_plan_id":"cebpf4jnsgd1na2vs0mg"},{"bike_id":"9664a5c4-41bd-49a0-bca7-ccecab569b6a","system_id":"levelo_inurba_marseille","lat":43.320492,"lon":5.41539,"is_reserved":false,"is_disabled":false,"rental_uris":{"android":"levelo://app?vid=9664a5c4-41bd-49a0-bca7-ccecab569b6a","ios":"levelo://app?vid=9664a5c4-41bd-49a0-bca7-ccecab569b6a"},"vehicle_type_id":"4","last_reported":1771128706,"current_range_meters":35600,"station_id":"","pricing_plan_id":"cebpf4jnsgd1na2vs0mg"},{"bike_id":"164bdb58-23e3-41ef-ac2c-2e46ebce4f68","system_id":"levelo_inurba_marseille","lat":43.28677,"lon":5.38656,"is_reserved":false,"is_disabled":false,"rental_uris":{"android":"levelo://app?vid=164bdb58-23e3-41ef-ac2c-2e46ebce4f68","ios":"levelo://app?vid=164bdb58-23e3-41ef-ac2c-2e46ebce4f68"},"vehicle_type_id":"4","last_reported":1771128706,"current_range_meters":37600,"station_id":"ce4bh492rcd13ifvqdug","pricing_plan_id":"cebpf4jnsgd1na2vs0mg"},{"bike_id":"0664bc9f-767f-467e-a2c8-c71096fcbc2b","system_id":"levelo_inurba_marseille","lat":43.30534,"lon":5.36534,"is_reserved":false,"is_disabled":false,"rental_uris":{"android":"levelo://app?vid=0664bc9f-767f-467e-a2c8-c71096fcbc2b","ios":"levelo://app?vid=0664bc9f-767f-467e-a2c8-c71096fcbc2b"},"vehicle_type_id":"4","last_reported":1771128706,"current_range_meters":30800,"station_id":"ce4bgs12rcd13ifvqcag","pricing_plan_id":"cebpf4jnsgd1na2vs0mg"},{"bike_id":"06ca1e50-0c57-4308-ab33-37f48737feed","system_id":"levelo_inurba_marseille","lat":43.33175,"lon":5.3772,"is_reserved":false,"is_disabled":false,"rental_uris":{"android":"levelo://app?vid=06ca1e50-0c57-4308-ab33-37f48737feed","ios":"levelo://app?vid=06ca1e50-0c57-4308-ab33-37f48737feed"},"vehicle_type_id":"4","last_reported":1771128706,"current_range_meters":20000,"station_id":"st_d46cu089ee8s73dldbu0","pricing_plan_id":"cebpf4jnsgd1na2vs0mg"},{"bike_id":"a40147a5-bbf0-4381-a348-9cea87200b78","system_id":"levelo_inurba_marseille","lat":43.260678,"lon":5.393958,"is_reserved":false,"is_disabled":false,"rental_uris":{"android":"levelo://app?vid=a40147a5-bbf0-4381-a348-9cea87200b78","ios":"levelo://app?vid=a40147a5-bbf0-4381-a348-9cea87200b78"},"vehicle_type_id":"4","last_reported":1771128706,"current_range_meters":16800,"station_id":"ce4bhh92rcd13ifvqfj0","pricing_plan_id":"cebpf4jnsgd1na2vs0mg"},{"bike_id":"cb83813a-9d6f-41e9-a57c-6a0591f5f823","system_id":"levelo_inurba_marseille","lat":43.241764,"lon":5.363869,"is_reserved":false,"is_disabled":false,"rental_uris":{"android":"levelo://app?vid=cb83813a-9d6f-41e9-a57c-6a0591f5f823","ios":"levelo://app?vid=cb83813a-9d6f-41e9-a57c-6a0591f5f823"},"vehicle_type_id":"4","last_reported":1771128706,"current_range_meters":4800,"station_id":"cpo36qri1sfpv3e86is0","pricing_plan_id":"cebpf4jnsgd1na2vs0mg"},{"bike_id":"abb5386c-aa85-45f1-b3a9-55f4ea4e4b5b","system_id":"levelo_inurba_marseille","lat":43.24961,"lon":5.40506,"is_reserved":false,"is_disabled":true,"rental_uris":{"android":"levelo://app?vid=abb5386c-aa85-45f1-b3a9-55f4ea4e4b5b","ios":"levelo://app?vid=abb5386c-aa85-45f1-b3a9-55f4ea4e4b5b"},"vehicle_type_id":"4","last_reported":1771128706,"current_range_meters":36800,"station_id":"st_d2ngiaodas8pm72gd1h0","pricing_plan_id":"cebpf4jnsgd1na2vs0mg"},{"bike_id":"aa8c2992-1e2a-4f1b-b4b5-6a3bf4f3caaa","system_id":"levelo_inurba_marseille","lat":43.29908,"lon":5.38135,"is_reserved":false,"is_disabled":false,"rental_uris":{"android":"levelo://app?vid=aa8c2992-1e2a-4f1b-b4b5-6a3bf4f3caaa","ios":"levelo://app?vid=aa8c2992-1e2a-4f1b-b4b5-6a3bf4f3caaa"},"vehicle_type_id":"4","last_reported":1771128706,"current_range_meters":38400,"station_id":"ce4bgj12rcd13ifvqbc0","pricing_plan_id":"cebpf4jnsgd1na2vs0mg"},{"bike_id":"da17d01f-7086-4afa-b33b-d3f5fb6d509c","system_id":"levelo_inurba_marseille","lat":43.28558,"lon":5.39496,"is_reserved":false,"is_disabled":false,"rental_uris":{"android":"levelo://app?vid=da17d01f-7086-4afa-b33b-d3f5fb6d509c","ios":"levelo://app?vid=da17d01f-7086-4afa-b33b-d3f5fb6d509c"},"vehicle_type_id":"4","last_reported":1771128706,"current_range_meters":31200,"station_id":"ce4bh292rcd13ifvqdg0","pricing_plan_id":"cebpf4jnsgd1na2vs0mg"},{"bike_id":"0a01703a-9056-4d66-b2b2-0e8420b10e7a","system_id":"levelo_inurba_marseille","lat":43.26933,"lon":5.38906,"is_reserved":false,"is_disabled":false,"rental_uris":{"android":"levelo://app?vid=0a01703a-9056-4d66-b2b2-0e8420b10e7a","ios":"levelo://app?vid=0a01703a-9056-4d66-b2b2-0e8420b10e7a"},"vehicle_type_id":"4","last_reported":1771128706,"current_range_meters":30000,"station_id":"ce4bhhh2rcd13ifvqfl0","pricing_plan_id":"cebpf4jnsgd1na2vs0mg"},{"bike_id":"6d4d8cb6-3286-4727-a2ce-703dece33b2a","system_id":"levelo_inurba_marseille","lat":43.30528,"lon":5.384161,"is_reserved":false,"is_disabled":false,"rental_uris":{"android":"levelo://app?vid=6d4d8cb6-3286-4727-a2ce-703dece33b2a","ios":"levelo://app?vid=6d4d8cb6-3286-4727-a2ce-703dece33b2a"},"vehicle_type_id":"4","last_reported":1771128706,"current_range_meters":39200,"station_id":"ce4bgg92rcd13ifvqb30","pricing_plan_id":"cebpf4jnsgd1na2vs0mg"},{"bike_id":"1c552d2a-5637-49d5-bd03-c19868d9f5f0","system_id":"levelo_inurba_marseille","lat":43.27497,"lon":5.42456,"is_reserved":false,"is_disabled":false,"rental_uris":{"android":"levelo://app?vid=1c552d2a-5637-49d5-bd03-c19868d9f5f0","ios":"levelo://app?vid=1c552d2a-5637-49d5-bd03-c19868d9f5f0"},"vehicle_type_id":"4","last_reported":1771128706,"current_range_meters":16400,"station_id":"ce4bhn92rcd13ifvqgrg","pricing_plan_id":"cebpf4jnsgd1na2vs0mg"},{"bike_id":"d3bb1dd4-4509-4a8a-a808-fed1cde6d0cb","system_id":"levelo_inurba_marseille","lat":43.25125,"lon":5.40321,"is_reserved":false,"is_disabled":false,"rental_uris":{"android":"levelo://app?vid=d3bb1dd4-4509-4a8a-a808-fed1cde6d0cb","ios":"levelo://app?vid=d3bb1dd4-4509-4a8a-a808-fed1cde6d0cb"},"vehicle_type_id":"4","last_reported":1771128706,"current_range_meters":18000,"station_id":"ce4bhlh2rcd13ifvqgig","pricing_plan_id":"cebpf4jnsgd1na2vs0mg"},{"bike_id":"f2b35d2f-f9c2-4b91-9306-e6c35500ac88","system_id":"levelo_inurba_marseille","lat":43.30375,"lon":5.4249,"is_reserved":false,"is_disabled":false,"rental_uris":{"android":"levelo://app?vid=f2b35d2f-f9c2-4b91-9306-e6c35500ac88","ios":"levelo://app?vid=f2b35d2f-f9c2-4b91-9306-e6c35500ac88"},"vehicle_type_id":"4","last_reported":1771128706,"current_range_meters":6400,"station_id":"ce4bhoh2rcd13ifvqh6g","pricing_plan_id":"cebpf4jnsgd1na2vs0mg"},{"bike_id":"5ef67a63-635b-44b6-aec9-966f703fca84","system_id":"levelo_inurba_marseille","lat":43.24677,"lon":5.38152,"is_reserved":false,"is_disabled":false,"rental_uris":{"android":"levelo://app?vid=5ef67a63-635b-44b6-aec9-966f703fca84","ios":"levelo://app?vid=5ef67a63-635b-44b6-aec9-966f703fca84"},"vehicle_type_id":"4","last_reported":1771128706,"current_range_meters":24800,"station_id":"ce4bhih2rcd13ifvqfr0","pricing_plan_id":"cebpf4jnsgd1na2vs0mg"},{"bike_id":"b081036f-6238-4871-9e7e-20dab85b0c01","system_id":"levelo_inurba_marseille","lat":43.29683,"lon":5.37273,"is_reserved":false,"is_disabled":false,"rental_uris":{"android":"levelo://app?vid=b081036f-6238-4871-9e7e-20dab85b0c01","ios":"levelo://app?vid=b081036f-6238-4871-9e7e-20dab85b0c01"},"vehicle_type_id":"4","last_reported":1771128706,"current_range_meters":29600,"station_id":"ce4bgk12rcd13ifvqbj0","pricing_plan_id":"cebpf4jnsgd1na2vs0mg"},{"bike_id":"145e6984-28ea-4666-b90f-7d63cfee56d4","system_id":"levelo_inurba_marseille","lat":43.275026,"lon":5.424548,"is_reserved":false,"is_disabled":false,"rental_uris":{"android":"levelo://app?vid=145e6984-28ea-4666-b90f-7d63cfee56d4","ios":"levelo://app?vid=145e6984-28ea-4666-b90f-7d63cfee56d4"},"vehicle_type_id":"4","last_reported":1771128706,"current_range_meters":34800,"station_id":"ce4bhn92rcd13ifvqgrg","pricing_plan_id":"cebpf4jnsgd1na2vs0mg"},{"bike_id":"361472a9-140d-4e92-9e16-c96fbc664522","system_id":"levelo_inurba_marseille","lat":43.2417,"lon":5.36402,"is_reserved":false,"is_disabled":false,"rental_uris":{"android":"levelo://app?vid=361472a9-140d-4e92-9e16-c96fbc664522","ios":"levelo://app?vid=361472a9-140d-4e92-9e16-c96fbc664522"},"vehicle_type_id":"4","last_reported":1771128706,"current_range_meters":11200,"station_id":"cpo36qri1sfpv3e86is0","pricing_plan_id":"cebpf4jnsgd1na2vs0mg"},{"bike_id":"d6d55be9-c4c1-4e9a-9b20-44aea5f5ce8a","system_id":"levelo_inurba_marseille","lat":43.30372,"lon":5.42484,"is_reserved":false,"is_disabled":false,"rental_uris":{"android":"levelo://app?vid=d6d55be9-c4c1-4e9a-9b20-44aea5f5ce8a","ios":"levelo://app?vid=d6d55be9-c4c1-4e9a-9b20-44aea5f5ce8a"},"vehicle_type_id":"4","last_reported":1771128706,"current_range_meters":9200,"station_id":"ce4bhoh2rcd13ifvqh6g","pricing_plan_id":"cebpf4jnsgd1na2vs0mg"},{"bike_id":"847181f6-0876-4abe-8fdf-0eed5c53dc66","system_id":"levelo_inurba_marseille","lat":43.29001,"lon":5.35604,"is_reserved":false,"is_disabled":false,"rental_uris":{"android":"levelo://app?vid=847181f6-0876-4abe-8fdf-0eed5c53dc66","ios":"levelo://app?vid=847181f6-0876-4abe-8fdf-0eed5c53dc66"},"vehicle_type_id":"4","last_reported":1771128706,"current_range_meters":38800,"station_id":"ce4bhb92rcd13ifvqen0","pricing_plan_id":"cebpf4jnsgd1na2vs0mg"},{"bike_id":"49a391b4-4a87-46fa-a21c-cc41412de409","system_id":"levelo_inurba_marseille","lat":43.270645,"lon":5.38311,"is_reserved":false,"is_disabled":false,"rental_uris":{"android":"levelo://app?vid=49a391b4-4a87-46fa-a21c-cc41412de409","ios":"levelo://app?vid=49a391b4-4a87-46fa-a21c-cc41412de409"},"vehicle_type_id":"4","last_reported":1771128706,"current_range_meters":3600,"station_id":"st_d3n2fo6cfp8s73cte1j0","pricing_plan_id":"cebpf4jnsgd1na2vs0mg"},{"bike_id":"d7c5fdee-2602-490a-9d69-969ff4ce5ada","system_id":"levelo_inurba_marseille","lat":43.30791,"lon":5.37667,"is_reserved":false,"is_disabled":false,"rental_uris":{"android":"levelo://app?vid=d7c5fdee-2602-490a-9d69-969ff4ce5ada","ios":"levelo://app?vid=d7c5fdee-2602-490a-9d69-969ff4ce5ada"},"vehicle_type_id":"4","last_reported":1771128706,"current_range_meters":24400,"station_id":"ce4bgv92rcd13ifvqcq0","pricing_plan_id":"cebpf4jnsgd1na2vs0mg"},{"bike_id":"b0f1df8e-c466-4613-b405-a31e746c5214","system_id":"levelo_inurba_marseille","lat":43.30293,"lon":5.3921,"is_reserved":false,"is_disabled":false,"rental_uris":{"android":"levelo://app?vid=b0f1df8e-c466-4613-b405-a31e746c5214","ios":"levelo://app?vid=b0f1df8e-c466-4613-b405-a31e746c5214"},"vehicle_type_id":"4","last_reported":1771128706,"current_range_meters":39200,"station_id":"ce4bgkh2rcd13ifvqbk0","pricing_plan_id":"cebpf4jnsgd1na2vs0mg"},{"bike_id":"14e2d3fb-6c68-42f9-a053-741cc12027ec","system_id":"levelo_inurba_marseille","lat":43.24541,"lon":5.39521,"is_reserved":false,"is_disabled":true,"rental_uris":{"android":"levelo://app?vid=14e2d3fb-6c68-42f9-a053-741cc12027ec","ios":"levelo://app?vid=14e2d3fb-6c68-42f9-a053-741cc12027ec"},"vehicle_type_id":"4","last_reported":1771128706,"current_range_meters":8800,"station_id":"ce4bhlp2rcd13ifvqgjg","pricing_plan_id":"cebpf4jnsgd1na2vs0mg"},{"bike_id":"73543d5f-6f9c-459a-aefb-7a4e0887aaf6","system_id":"levelo_inurba_marseille","lat":43.26016,"lon":5.37553,"is_reserved":false,"is_disabled":false,"rental_uris":{"android":"levelo://app?vid=73543d5f-6f9c-459a-aefb-7a4e0887aaf6","ios":"levelo://app?vid=73543d5f-6f9c-459a-aefb-7a4e0887aaf6"},"vehicle_type_id":"4","last_reported":1771128706,"current_range_meters":24000,"station_id":"ce4bhgh2rcd13ifvqfa0","pricing_plan_id":"cebpf4jnsgd1na2vs0mg"},{"bike_id":"fef2ac6e-7218-4409-ada0-4bd0bcbfe427","system_id":"levelo_inurba_marseille","lat":43.246395,"lon":5.431446,"is_reserved":false,"is_disabled":false,"rental_uris":{"android":"levelo://app?vid=fef2ac6e-7218-4409-ada0-4bd0bcbfe427","ios":"levelo://app?vid=fef2ac6e-7218-4409-ada0-4bd0bcbfe427"},"vehicle_type_id":"4","last_reported":1771128706,"current_range_meters":22000,"station_id":"st_d2m6c4gdas8pm72e190g","pricing_plan_id":"cebpf4jnsgd1na2vs0mg"},{"bike_id":"ea242731-bb24-458a-9022-43fb4748f728","system_id":"levelo_inurba_marseille","lat":43.24149,"lon":5.36398,"is_reserved":false,"is_disabled":false,"rental_uris":{"android":"levelo://app?vid=ea242731-bb24-458a-9022-43fb4748f728","ios":"levelo://app?vid=ea242731-bb24-458a-9022-43fb4748f728"},"vehicle_type_id":"4","last_reported":1771128706,"current_range_meters":12400,"station_id":"cpo36qri1sfpv3e86is0","pricing_plan_id":"cebpf4jnsgd1na2vs0mg"},{"bike_id":"91551ca7-df3c-46ae-b740-97d8aad399d4","system_id":"levelo_inurba_marseille","lat":43.26062,"lon":5.39397,"is_reserved":false,"is_disabled":false,"rental_uris":{"android":"levelo://app?vid=91551ca7-df3c-46ae-b740-97d8aad399d4","ios":"levelo://app?vid=91551ca7-df3c-46ae-b740-97d8aad399d4"},"vehicle_type_id":"4","last_reported":1771128706,"current_range_meters":37600,"station_id":"ce4bhh92rcd13ifvqfj0","pricing_plan_id":"cebpf4jnsgd1na2vs0mg"},{"bike_id":"e723a4fd-e349-4d5f-bf97-7d0c070b4f89","system_id":"levelo_inurba_marseille","lat":43.25513,"lon":5.3767,"is_reserved":false,"is_disabled":false,"rental_uris":{"android":"levelo://app?vid=e723a4fd-e349-4d5f-bf97-7d0c070b4f89","ios":"levelo://app?vid=e723a4fd-e349-4d5f-bf97-7d0c070b4f89"},"vehicle_type_id":"4","last_reported":1771128706,"current_range_meters":37600,"station_id":"ce4bhh12rcd13ifvqff0","pricing_plan_id":"cebpf4jnsgd1na2vs0mg"},{"bike_id":"8bd0a92f-17cd-4bc9-99eb-6b0f4346de24","system_id":"levelo_inurba_marseille","lat":43.239663,"lon":5.366353,"is_reserved":false,"is_disabled":false,"rental_uris":{"android":"levelo://app?vid=8bd0a92f-17cd-4bc9-99eb-6b0f4346de24","ios":"levelo://app?vid=8bd0a92f-17cd-4bc9-99eb-6b0f4346de24"},"vehicle_type_id":"4","last_reported":1771128706,"current_range_meters":26800,"station_id":"ce4bhi12rcd13ifvqfp0","pricing_plan_id":"cebpf4jnsgd1na2vs0mg"},{"bike_id":"aeb125a3-a5c5-45d7-b346-c24ffdc8aa80","system_id":"levelo_inurba_marseille","lat":43.301515,"lon":5.380945,"is_reserved":false,"is_disabled":false,"rental_uris":{"android":"levelo://app?vid=aeb125a3-a5c5-45d7-b346-c24ffdc8aa80","ios":"levelo://app?vid=aeb125a3-a5c5-45d7-b346-c24ffdc8aa80"},"vehicle_type_id":"4","last_reported":1771128706,"current_range_meters":6800,"station_id":"ce4bgjp2rcd13ifvqbh0","pricing_plan_id":"cebpf4jnsgd1na2vs0mg"},{"bike_id":"cc9be124-54a5-4927-a146-e3a08ef99a81","system_id":"levelo_inurba_marseille","lat":43.30464,"lon":5.37891,"is_reserved":false,"is_disabled":false,"rental_uris":{"android":"levelo://app?vid=cc9be124-54a5-4927-a146-e3a08ef99a81","ios":"levelo://app?vid=cc9be124-54a5-4927-a146-e3a08ef99a81"},"vehicle_type_id":"4","last_reported":1771128706,"current_range_meters":6000,"station_id":"ce4bgup2rcd13ifvqcn0","pricing_plan_id":"cebpf4jnsgd1na2vs0mg"},{"bike_id":"9f1e45d0-8af6-4136-8554-bbdf416cd8e5","system_id":"levelo_inurba_marseille","lat":43.308808,"lon":5.396298,"is_reserved":false,"is_disabled":false,"rental_uris":{"android":"levelo://app?vid=9f1e45d0-8af6-4136-8554-bbdf416cd8e5","ios":"levelo://app?vid=9f1e45d0-8af6-4136-8554-bbdf416cd8e5"},"vehicle_type_id":"4","last_reported":1771128706,"current_range_meters":21600,"station_id":"ce4bh012rcd13ifvqcv0","pricing_plan_id":"cebpf4jnsgd1na2vs0mg"},{"bike_id":"e5866f9c-7f01-4f68-826c-5019be0d6644","system_id":"levelo_inurba_marseille","lat":43.28688,"lon":5.35508,"is_reserved":false,"is_disabled":false,"rental_uris":{"android":"levelo://app?vid=e5866f9c-7f01-4f68-826c-5019be0d6644","ios":"levelo://app?vid=e5866f9c-7f01-4f68-826c-5019be0d6644"},"vehicle_type_id":"4","last_reported":1771128706,"current_range_meters":8800,"station_id":"","pricing_plan_id":"cebpf4jnsgd1na2vs0mg"},{"bike_id":"5deddcd5-45e9-4a6a-b1f6-3a2e55b93272","system_id":"levelo_inurba_marseille","lat":43.25576,"lon":5.38231,"is_reserved":false,"is_disabled":false,"rental_uris":{"android":"levelo://app?vid=5deddcd5-45e9-4a6a-b1f6-3a2e55b93272","ios":"levelo://app?vid=5deddcd5-45e9-4a6a-b1f6-3a2e55b93272"},"vehicle_type_id":"4","last_reported":1771128706,"current_range_meters":6000,"station_id":"ce4bhih2rcd13ifvqfs0","pricing_plan_id":"cebpf4jnsgd1na2vs0mg"},{"bike_id":"934caa29-0161-4971-84cb-62c254c7612b","system_id":"levelo_inurba_marseille","lat":43.28091,"lon":5.37832,"is_reserved":false,"is_disabled":false,"rental_uris":{"android":"levelo://app?vid=934caa29-0161-4971-84cb-62c254c7612b","ios":"levelo://app?vid=934caa29-0161-4971-84cb-62c254c7612b"},"vehicle_type_id":"4","last_reported":1771128706,"current_range_meters":29600,"station_id":"ce4bha12rcd13ifvqee0","pricing_plan_id":"cebpf4jnsgd1na2vs0mg"},{"bike_id":"333ac3f2-d598-4322-8aaf-ae40241095fa","system_id":"levelo_inurba_marseille","lat":43.29368,"lon":5.3786,"is_reserved":false,"is_disabled":false,"rental_uris":{"android":"levelo://app?vid=333ac3f2-d598-4322-8aaf-ae40241095fa","ios":"levelo://app?vid=333ac3f2-d598-4322-8aaf-ae40241095fa"},"vehicle_type_id":"4","last_reported":1771128706,"current_range_meters":19200,"station_id":"ce4bgjh2rcd13ifvqbf0","pricing_plan_id":"cebpf4jnsgd1na2vs0mg"},{"bike_id":"10c2514e-3e10-48b8-b25f-5593fed86aaf","system_id":"levelo_inurba_marseille","lat":43.28611,"lon":5.35093,"is_reserved":false,"is_disabled":false,"rental_uris":{"android":"levelo://app?vid=10c2514e-3e10-48b8-b25f-5593fed86aaf","ios":"levelo://app?vid=10c2514e-3e10-48b8-b25f-5593fed86aaf"},"vehicle_type_id":"4","last_reported":1771128706,"current_range_meters":28000,"station_id":"ce4bhch2rcd13ifvqeug","pricing_plan_id":"cebpf4jnsgd1na2vs0mg"},{"bike_id":"77d97ba8-97db-4bc9-8294-a1d06adce358","system_id":"levelo_inurba_marseille","lat":43.27495,"lon":5.42446,"is_reserved":false,"is_disabled":false,"rental_uris":{"android":"levelo://app?vid=77d97ba8-97db-4bc9-8294-a1d06adce358","ios":"levelo://app?vid=77d97ba8-97db-4bc9-8294-a1d06adce358"},"vehicle_type_id":"4","last_reported":1771128706,"current_range_meters":22800,"station_id":"ce4bhn92rcd13ifvqgrg","pricing_plan_id":"cebpf4jnsgd1na2vs0mg"},{"bike_id":"2e890998-6b11-4d43-89b1-bf06a6d503ec","system_id":"levelo_inurba_marseille","lat":43.25112,"lon":5.40318,"is_reserved":false,"is_disabled":false,"rental_uris":{"android":"levelo://app?vid=2e890998-6b11-4d43-89b1-bf06a6d503ec","ios":"levelo://app?vid=2e890998-6b11-4d43-89b1-bf06a6d503ec"},"vehicle_type_id":"4","last_reported":1771128706,"current_range_meters":39200,"station_id":"ce4bhlh2rcd13ifvqgig","pricing_plan_id":"cebpf4jnsgd1na2vs0mg"},{"bike_id":"a75398a4-d0b6-4900-9674-fe78395921f4","system_id":"levelo_inurba_marseille","lat":43.30557,"lon":5.36685,"is_reserved":false,"is_disabled":false,"rental_uris":{"android":"levelo://app?vid=a75398a4-d0b6-4900-9674-fe78395921f4","ios":"levelo://app?vid=a75398a4-d0b6-4900-9674-fe78395921f4"},"vehicle_type_id":"4","last_reported":1771128706,"current_range_meters":34800,"station_id":"ce4bgrp2rcd13ifvqc9g","pricing_plan_id":"cebpf4jnsgd1na2vs0mg"},{"bike_id":"a77345a9-e5b0-4403-ada7-987def1f512a","system_id":"levelo_inurba_marseille","lat":43.31229,"lon":5.3685,"is_reserved":false,"is_disabled":false,"rental_uris":{"android":"levelo://app?vid=a77345a9-e5b0-4403-ada7-987def1f512a","ios":"levelo://app?vid=a77345a9-e5b0-4403-ada7-987def1f512a"},"vehicle_type_id":"4","last_reported":1771128706,"current_range_meters":31200,"station_id":"ce4bgl92rcd13ifvqbq0","pricing_plan_id":"cebpf4jnsgd1na2vs0mg"},{"bike_id":"a5cc65d6-638d-4de8-b697-31106be7739f","system_id":"levelo_inurba_marseille","lat":43.3047,"lon":5.37912,"is_reserved":false,"is_disabled":false,"rental_uris":{"android":"levelo://app?vid=a5cc65d6-638d-4de8-b697-31106be7739f","ios":"levelo://app?vid=a5cc65d6-638d-4de8-b697-31106be7739f"},"vehicle_type_id":"4","last_reported":1771128706,"current_range_meters":24800,"station_id":"ce4bgup2rcd13ifvqcn0","pricing_plan_id":"cebpf4jnsgd1na2vs0mg"},{"bike_id":"899ca28e-3727-433f-b491-eafb0d972b92","system_id":"levelo_inurba_marseille","lat":43.30146,"lon":5.38085,"is_reserved":false,"is_disabled":false,"rental_uris":{"android":"levelo://app?vid=899ca28e-3727-433f-b491-eafb0d972b92","ios":"levelo://app?vid=899ca28e-3727-433f-b491-eafb0d972b92"},"vehicle_type_id":"4","last_reported":1771128706,"current_range_meters":25600,"station_id":"ce4bgjp2rcd13ifvqbh0","pricing_plan_id":"cebpf4jnsgd1na2vs0mg"},{"bike_id":"cf6ef408-8a1a-4303-bd6d-466ea0d58ae4","system_id":"levelo_inurba_marseille","lat":43.21195,"lon":5.35074,"is_reserved":false,"is_disabled":false,"rental_uris":{"android":"levelo://app?vid=cf6ef408-8a1a-4303-bd6d-466ea0d58ae4","ios":"levelo://app?vid=cf6ef408-8a1a-4303-bd6d-466ea0d58ae4"},"vehicle_type_id":"4","last_reported":1771128706,"current_range_meters":4800,"station_id":"st_cvj6sg6p6f1abm77japg","pricing_plan_id":"cebpf4jnsgd1na2vs0mg"},{"bike_id":"8adce05a-7545-4733-b9a9-d2cc52d076ff","system_id":"levelo_inurba_marseille","lat":43.31767,"lon":5.39003,"is_reserved":false,"is_disabled":false,"rental_uris":{"android":"levelo://app?vid=8adce05a-7545-4733-b9a9-d2cc52d076ff","ios":"levelo://app?vid=8adce05a-7545-4733-b9a9-d2cc52d076ff"},"vehicle_type_id":"4","last_reported":1771128706,"current_range_meters":39200,"station_id":"ce4bhqp2rcd13ifvqhng","pricing_plan_id":"cebpf4jnsgd1na2vs0mg"},{"bike_id":"89e3bebe-0519-4e8f-97a2-5f9f90f00438","system_id":"levelo_inurba_marseille","lat":43.23971,"lon":5.36618,"is_reserved":false,"is_disabled":false,"rental_uris":{"android":"levelo://app?vid=89e3bebe-0519-4e8f-97a2-5f9f90f00438","ios":"levelo://app?vid=89e3bebe-0519-4e8f-97a2-5f9f90f00438"},"vehicle_type_id":"4","last_reported":1771128706,"current_range_meters":39200,"station_id":"ce4bhi12rcd13ifvqfp0","pricing_plan_id":"cebpf4jnsgd1na2vs0mg"},{"bike_id":"f701ba25-3eaa-466f-9865-720a85c70fd4","system_id":"levelo_inurba_marseille","lat":43.305944,"lon":5.393536,"is_reserved":false,"is_disabled":false,"rental_uris":{"android":"levelo://app?vid=f701ba25-3eaa-466f-9865-720a85c70fd4","ios":"levelo://app?vid=f701ba25-3eaa-466f-9865-720a85c70fd4"},"vehicle_type_id":"4","last_reported":1771128706,"current_range_meters":39200,"station_id":"ce4bh0p2rcd13ifvqd80","pricing_plan_id":"cebpf4jnsgd1na2vs0mg"},{"bike_id":"a7130ffe-4d61-43e7-a861-09cec3ea2729","system_id":"levelo_inurba_marseille","lat":43.26797,"lon":5.40266,"is_reserved":false,"is_disabled":false,"rental_uris":{"android":"levelo://app?vid=a7130ffe-4d61-43e7-a861-09cec3ea2729","ios":"levelo://app?vid=a7130ffe-4d61-43e7-a861-09cec3ea2729"},"vehicle_type_id":"4","last_reported":1771128706,"current_range_meters":19200,"station_id":"ce501612rcd8frsf0b60","pricing_plan_id":"cebpf4jnsgd1na2vs0mg"},{"bike_id":"849e2ed3-ddc5-4a10-a390-4cd721fcfc07","system_id":"levelo_inurba_marseille","lat":43.30239,"lon":5.40032,"is_reserved":false,"is_disabled":false,"rental_uris":{"android":"levelo://app?vid=849e2ed3-ddc5-4a10-a390-4cd721fcfc07","ios":"levelo://app?vid=849e2ed3-ddc5-4a10-a390-4cd721fcfc07"},"vehicle_type_id":"4","last_reported":1771128706,"current_range_meters":38400,"station_id":"ce4bgvh2rcd13ifvqcs0","pricing_plan_id":"cebpf4jnsgd1na2vs0mg"},{"bike_id":"766ba40c-080a-46d0-a08f-660e07520b61","system_id":"levelo_inurba_marseille","lat":43.29266,"lon":5.36845,"is_reserved":false,"is_disabled":false,"rental_uris":{"android":"levelo://app?vid=766ba40c-080a-46d0-a08f-660e07520b61","ios":"levelo://app?vid=766ba40c-080a-46d0-a08f-660e07520b61"},"vehicle_type_id":"4","last_reported":1771128706,"current_range_meters":38800,"station_id":"ce4bhbp2rcd13ifvqesg","pricing_plan_id":"cebpf4jnsgd1na2vs0mg"},{"bike_id":"057c0106-9231-4a98-a8ee-326750bf26a3","system_id":"levelo_inurba_marseille","lat":43.253419,"lon":5.421686,"is_reserved":false,"is_disabled":false,"rental_uris":{"android":"levelo://app?vid=057c0106-9231-4a98-a8ee-326750bf26a3","ios":"levelo://app?vid=057c0106-9231-4a98-a8ee-326750bf26a3"},"vehicle_type_id":"4","last_reported":1771128706,"current_range_meters":14000,"station_id":"","pricing_plan_id":"cebpf4jnsgd1na2vs0mg"},{"bike_id":"924d7c55-9e75-41cb-9a3e-b7f57a435ae8","system_id":"levelo_inurba_marseille","lat":43.263518,"lon":5.39615,"is_reserved":false,"is_disabled":false,"rental_uris":{"android":"levelo://app?vid=924d7c55-9e75-41cb-9a3e-b7f57a435ae8","ios":"levelo://app?vid=924d7c55-9e75-41cb-9a3e-b7f57a435ae8"},"vehicle_type_id":"4","last_reported":1771128706,"current_range_meters":8000,"station_id":"","pricing_plan_id":"cebpf4jnsgd1na2vs0mg"},{"bike_id":"094ecace-aeec-47a9-b93d-5574ce157e27","system_id":"levelo_inurba_marseille","lat":43.26019,"lon":5.37546,"is_reserved":false,"is_disabled":false,"rental_uris":{"android":"levelo://app?vid=094ecace-aeec-47a9-b93d-5574ce157e27","ios":"levelo://app?vid=094ecace-aeec-47a9-b93d-5574ce157e27"},"vehicle_type_id":"4","last_reported":1771128706,"current_range_meters":16000,"station_id":"ce4bhgh2rcd13ifvqfa0","pricing_plan_id":"cebpf4jnsgd1na2vs0mg"},{"bike_id":"5097b477-7ecc-42ee-8c40-d0062ef0833b","system_id":"levelo_inurba_marseille","lat":43.29912,"lon":5.37478,"is_reserved":false,"is_disabled":false,"rental_uris":{"android":"levelo://app?vid=5097b477-7ecc-42ee-8c40-d0062ef0833b","ios":"levelo://app?vid=5097b477-7ecc-42ee-8c40-d0062ef0833b"},"vehicle_type_id":"4","last_reported":1771128706,"current_range_meters":39200,"station_id":"ce4bgjh2rcd13ifvqbg0","pricing_plan_id":"cebpf4jnsgd1na2vs0mg"},{"bike_id":"91dd6860-d8b6-48df-9afd-382ab92b6bc0","system_id":"levelo_inurba_marseille","lat":43.28924,"lon":5.38388,"is_reserved":false,"is_disabled":true,"rental_uris":{"android":"levelo://app?vid=91dd6860-d8b6-48df-9afd-382ab92b6bc0","ios":"levelo://app?vid=91dd6860-d8b6-48df-9afd-382ab92b6bc0"},"vehicle_type_id":"4","last_reported":1771128706,"current_range_meters":30800,"station_id":"ce4bh612rcd13ifvqe6g","pricing_plan_id":"cebpf4jnsgd1na2vs0mg"},{"bike_id":"50b2e362-6799-4835-9f2e-4cc2ffe5b8aa","system_id":"levelo_inurba_marseille","lat":43.28349,"lon":5.38091,"is_reserved":false,"is_disabled":true,"rental_uris":{"android":"levelo://app?vid=50b2e362-6799-4835-9f2e-4cc2ffe5b8aa","ios":"levelo://app?vid=50b2e362-6799-4835-9f2e-4cc2ffe5b8aa"},"vehicle_type_id":"4","last_reported":1771128706,"current_range_meters":0,"station_id":"ce4bh412rcd13ifvqdr0","pricing_plan_id":"cebpf4jnsgd1na2vs0mg"},{"bike_id":"4ef3fea8-855b-4ccb-be6e-2c8185c4a670","system_id":"levelo_inurba_marseille","lat":43.336028,"lon":5.410304,"is_reserved":false,"is_disabled":false,"rental_uris":{"android":"levelo://app?vid=4ef3fea8-855b-4ccb-be6e-2c8185c4a670","ios":"levelo://app?vid=4ef3fea8-855b-4ccb-be6e-2c8185c4a670"},"vehicle_type_id":"4","last_reported":1771128706,"current_range_meters":39200,"station_id":"ce4bhqh2rcd13ifvqhmg","pricing_plan_id":"cebpf4jnsgd1na2vs0mg"},{"bike_id":"524b8461-d679-46b1-a83d-b4bfe7dba6c3","system_id":"levelo_inurba_marseille","lat":43.21756,"lon":5.34615,"is_reserved":false,"is_disabled":false,"rental_uris":{"android":"levelo://app?vid=524b8461-d679-46b1-a83d-b4bfe7dba6c3","ios":"levelo://app?vid=524b8461-d679-46b1-a83d-b4bfe7dba6c3"},"vehicle_type_id":"4","last_reported":1771128706,"current_range_meters":6000,"station_id":"st_cvj6r9ubvosntc0bgbag","pricing_plan_id":"cebpf4jnsgd1na2vs0mg"},{"bike_id":"53bb3863-680c-45ee-b078-75f6bac40aa9","system_id":"levelo_inurba_marseille","lat":43.32657,"lon":5.40974,"is_reserved":false,"is_disabled":false,"rental_uris":{"android":"levelo://app?vid=53bb3863-680c-45ee-b078-75f6bac40aa9","ios":"levelo://app?vid=53bb3863-680c-45ee-b078-75f6bac40aa9"},"vehicle_type_id":"4","last_reported":1771128706,"current_range_meters":38800,"station_id":"ce4bhpp2rcd13ifvqhgg","pricing_plan_id":"cebpf4jnsgd1na2vs0mg"},{"bike_id":"80098677-e509-453f-9fc6-0838a503fcfa","system_id":"levelo_inurba_marseille","lat":43.30556,"lon":5.36496,"is_reserved":false,"is_disabled":false,"rental_uris":{"android":"levelo://app?vid=80098677-e509-453f-9fc6-0838a503fcfa","ios":"levelo://app?vid=80098677-e509-453f-9fc6-0838a503fcfa"},"vehicle_type_id":"4","last_reported":1771128706,"current_range_meters":20400,"station_id":"","pricing_plan_id":"cebpf4jnsgd1na2vs0mg"},{"bike_id":"b2793bda-e545-4722-bf36-91387796c790","system_id":"levelo_inurba_marseille","lat":43.25513,"lon":5.37628,"is_reserved":false,"is_disabled":false,"rental_uris":{"android":"levelo://app?vid=b2793bda-e545-4722-bf36-91387796c790","ios":"levelo://app?vid=b2793bda-e545-4722-bf36-91387796c790"},"vehicle_type_id":"4","last_reported":1771128706,"current_range_meters":38400,"station_id":"ce4bhh12rcd13ifvqff0","pricing_plan_id":"cebpf4jnsgd1na2vs0mg"},{"bike_id":"014613de-69aa-4aca-9291-67750cce2e69","system_id":"levelo_inurba_marseille","lat":43.284771,"lon":5.48409,"is_reserved":false,"is_disabled":false,"rental_uris":{"android":"levelo://app?vid=014613de-69aa-4aca-9291-67750cce2e69","ios":"levelo://app?vid=014613de-69aa-4aca-9291-67750cce2e69"},"vehicle_type_id":"4","last_reported":1771128706,"current_range_meters":38400,"station_id":"st_d3svhcjqgbts73a3dn0g","pricing_plan_id":"cebpf4jnsgd1na2vs0mg"},{"bike_id":"ceafdd97-9709-4666-acdc-c6b8a34aace5","system_id":"levelo_inurba_marseille","lat":43.271843,"lon":5.409877,"is_reserved":false,"is_disabled":true,"rental_uris":{"android":"levelo://app?vid=ceafdd97-9709-4666-acdc-c6b8a34aace5","ios":"levelo://app?vid=ceafdd97-9709-4666-acdc-c6b8a34aace5"},"vehicle_type_id":"4","last_reported":1771128706,"current_range_meters":3200,"station_id":"ce4bhl12rcd13ifvqgf0","pricing_plan_id":"cebpf4jnsgd1na2vs0mg"},{"bike_id":"7f51aea8-ca75-4e60-afb9-d43ee3a8536e","system_id":"levelo_inurba_marseille","lat":43.3129,"lon":5.40119,"is_reserved":false,"is_disabled":false,"rental_uris":{"android":"levelo://app?vid=7f51aea8-ca75-4e60-afb9-d43ee3a8536e","ios":"levelo://app?vid=7f51aea8-ca75-4e60-afb9-d43ee3a8536e"},"vehicle_type_id":"4","last_reported":1771128706,"current_range_meters":20000,"station_id":"","pricing_plan_id":"cebpf4jnsgd1na2vs0mg"},{"bike_id":"9ed7300e-a4d4-493c-95a2-a0b857cf6348","system_id":"levelo_inurba_marseille","lat":43.22549,"lon":5.41631,"is_reserved":false,"is_disabled":false,"rental_uris":{"android":"levelo://app?vid=9ed7300e-a4d4-493c-95a2-a0b857cf6348","ios":"levelo://app?vid=9ed7300e-a4d4-493c-95a2-a0b857cf6348"},"vehicle_type_id":"4","last_reported":1771128706,"current_range_meters":16400,"station_id":"st_d2o4gvlbi1j2169b742g","pricing_plan_id":"cebpf4jnsgd1na2vs0mg"},{"bike_id":"b8d0dbff-fb51-43c9-8f40-12fc94ab2020","system_id":"levelo_inurba_marseille","lat":43.2842,"lon":5.34978,"is_reserved":false,"is_disabled":false,"rental_uris":{"android":"levelo://app?vid=b8d0dbff-fb51-43c9-8f40-12fc94ab2020","ios":"levelo://app?vid=b8d0dbff-fb51-43c9-8f40-12fc94ab2020"},"vehicle_type_id":"4","last_reported":1771128706,"current_range_meters":17600,"station_id":"ce4bhbh2rcd13ifvqepg","pricing_plan_id":"cebpf4jnsgd1na2vs0mg"},{"bike_id":"c4f75f82-d378-4824-864c-3e8d249107ca","system_id":"levelo_inurba_marseille","lat":43.31128,"lon":5.37783,"is_reserved":false,"is_disabled":false,"rental_uris":{"android":"levelo://app?vid=c4f75f82-d378-4824-864c-3e8d249107ca","ios":"levelo://app?vid=c4f75f82-d378-4824-864c-3e8d249107ca"},"vehicle_type_id":"4","last_reported":1771128706,"current_range_meters":31200,"station_id":"ce4bgt92rcd13ifvqcg0","pricing_plan_id":"cebpf4jnsgd1na2vs0mg"},{"bike_id":"484c11c0-30ee-4bb6-83c7-f3256dfcfb63","system_id":"levelo_inurba_marseille","lat":43.31253,"lon":5.368665,"is_reserved":false,"is_disabled":false,"rental_uris":{"android":"levelo://app?vid=484c11c0-30ee-4bb6-83c7-f3256dfcfb63","ios":"levelo://app?vid=484c11c0-30ee-4bb6-83c7-f3256dfcfb63"},"vehicle_type_id":"4","last_reported":1771128706,"current_range_meters":39200,"station_id":"ce4bgl92rcd13ifvqbq0","pricing_plan_id":"cebpf4jnsgd1na2vs0mg"},{"bike_id":"188a925b-967f-485e-b032-a21ca739ec13","system_id":"levelo_inurba_marseille","lat":43.25854,"lon":5.39893,"is_reserved":false,"is_disabled":false,"rental_uris":{"android":"levelo://app?vid=188a925b-967f-485e-b032-a21ca739ec13","ios":"levelo://app?vid=188a925b-967f-485e-b032-a21ca739ec13"},"vehicle_type_id":"4","last_reported":1771128706,"current_range_meters":39200,"station_id":"ce4bhl92rcd13ifvqghg","pricing_plan_id":"cebpf4jnsgd1na2vs0mg"},{"bike_id":"dc98baeb-281c-4b10-a0d8-1143d2ae501f","system_id":"levelo_inurba_marseille","lat":43.30306,"lon":5.36886,"is_reserved":false,"is_disabled":false,"rental_uris":{"android":"levelo://app?vid=dc98baeb-281c-4b10-a0d8-1143d2ae501f","ios":"levelo://app?vid=dc98baeb-281c-4b10-a0d8-1143d2ae501f"},"vehicle_type_id":"4","last_reported":1771128706,"current_range_meters":34800,"station_id":"ce4bgqh2rcd13ifvqc5g","pricing_plan_id":"cebpf4jnsgd1na2vs0mg"},{"bike_id":"99f08690-585a-47f4-b2a1-76d9c33e9f98","system_id":"levelo_inurba_marseille","lat":43.31036,"lon":5.37172,"is_reserved":false,"is_disabled":false,"rental_uris":{"android":"levelo://app?vid=99f08690-585a-47f4-b2a1-76d9c33e9f98","ios":"levelo://app?vid=99f08690-585a-47f4-b2a1-76d9c33e9f98"},"vehicle_type_id":"4","last_reported":1771128706,"current_range_meters":20400,"station_id":"st_d4kl2rp97mjs73e7tdfg","pricing_plan_id":"cebpf4jnsgd1na2vs0mg"},{"bike_id":"61eb7f07-1c63-4179-84d2-2a4e738d2c5a","system_id":"levelo_inurba_marseille","lat":43.25249,"lon":5.42373,"is_reserved":false,"is_disabled":false,"rental_uris":{"android":"levelo://app?vid=61eb7f07-1c63-4179-84d2-2a4e738d2c5a","ios":"levelo://app?vid=61eb7f07-1c63-4179-84d2-2a4e738d2c5a"},"vehicle_type_id":"4","last_reported":1771128706,"current_range_meters":14400,"station_id":"","pricing_plan_id":"cebpf4jnsgd1na2vs0mg"},{"bike_id":"034224b6-2279-4cbc-9caa-f9a79eebd08e","system_id":"levelo_inurba_marseille","lat":43.31234,"lon":5.37013,"is_reserved":false,"is_disabled":false,"rental_uris":{"android":"levelo://app?vid=034224b6-2279-4cbc-9caa-f9a79eebd08e","ios":"levelo://app?vid=034224b6-2279-4cbc-9caa-f9a79eebd08e"},"vehicle_type_id":"4","last_reported":1771128706,"current_range_meters":39200,"station_id":"ce4bgl92rcd13ifvqbq0","pricing_plan_id":"cebpf4jnsgd1na2vs0mg"},{"bike_id":"136dbaca-c69a-4575-b2ac-4a027c33a56f","system_id":"levelo_inurba_marseille","lat":43.23195,"lon":5.39982,"is_reserved":false,"is_disabled":false,"rental_uris":{"android":"levelo://app?vid=136dbaca-c69a-4575-b2ac-4a027c33a56f","ios":"levelo://app?vid=136dbaca-c69a-4575-b2ac-4a027c33a56f"},"vehicle_type_id":"4","last_reported":1771128706,"current_range_meters":3600,"station_id":"ce4bhn12rcd13ifvqgqg","pricing_plan_id":"cebpf4jnsgd1na2vs0mg"},{"bike_id":"3d9f3781-25d6-4e37-b46e-6a7f8089a582","system_id":"levelo_inurba_marseille","lat":43.28612,"lon":5.39868,"is_reserved":false,"is_disabled":false,"rental_uris":{"android":"levelo://app?vid=3d9f3781-25d6-4e37-b46e-6a7f8089a582","ios":"levelo://app?vid=3d9f3781-25d6-4e37-b46e-6a7f8089a582"},"vehicle_type_id":"4","last_reported":1771128706,"current_range_meters":34000,"station_id":"st_d4a7ka997mjs738ck50g","pricing_plan_id":"cebpf4jnsgd1na2vs0mg"},{"bike_id":"b010c6c3-6e4a-43ec-b344-ff56111dfe6e","system_id":"levelo_inurba_marseille","lat":43.24662,"lon":5.38172,"is_reserved":false,"is_disabled":false,"rental_uris":{"android":"levelo://app?vid=b010c6c3-6e4a-43ec-b344-ff56111dfe6e","ios":"levelo://app?vid=b010c6c3-6e4a-43ec-b344-ff56111dfe6e"},"vehicle_type_id":"4","last_reported":1771128706,"current_range_meters":22000,"station_id":"ce4bhih2rcd13ifvqfr0","pricing_plan_id":"cebpf4jnsgd1na2vs0mg"},{"bike_id":"2b0c1c59-8b14-489b-9aca-d1902d3029de","system_id":"levelo_inurba_marseille","lat":43.288688,"lon":5.425167,"is_reserved":false,"is_disabled":false,"rental_uris":{"android":"levelo://app?vid=2b0c1c59-8b14-489b-9aca-d1902d3029de","ios":"levelo://app?vid=2b0c1c59-8b14-489b-9aca-d1902d3029de"},"vehicle_type_id":"4","last_reported":1771128706,"current_range_meters":29600,"station_id":"st_d3b462108ojc7389ooeg","pricing_plan_id":"cebpf4jnsgd1na2vs0mg"},{"bike_id":"7cb9d4bb-817c-477e-b821-2482d90489fa","system_id":"levelo_inurba_marseille","lat":43.33024,"lon":5.39031,"is_reserved":false,"is_disabled":false,"rental_uris":{"android":"levelo://app?vid=7cb9d4bb-817c-477e-b821-2482d90489fa","ios":"levelo://app?vid=7cb9d4bb-817c-477e-b821-2482d90489fa"},"vehicle_type_id":"4","last_reported":1771128706,"current_range_meters":11600,"station_id":"ce4bhr92rcd13ifvqhrg","pricing_plan_id":"cebpf4jnsgd1na2vs0mg"},{"bike_id":"ffe3fbd4-6746-48bb-b0b5-fa7f3d6ff56c","system_id":"levelo_inurba_marseille","lat":43.310514,"lon":5.371752,"is_reserved":false,"is_disabled":false,"rental_uris":{"android":"levelo://app?vid=ffe3fbd4-6746-48bb-b0b5-fa7f3d6ff56c","ios":"levelo://app?vid=ffe3fbd4-6746-48bb-b0b5-fa7f3d6ff56c"},"vehicle_type_id":"4","last_reported":1771128706,"current_range_meters":12400,"station_id":"st_d4kl2rp97mjs73e7tdfg","pricing_plan_id":"cebpf4jnsgd1na2vs0mg"},{"bike_id":"f4f4c39c-d293-4a83-92fd-f36bbc65fe4a","system_id":"levelo_inurba_marseille","lat":43.28255,"lon":5.3504,"is_reserved":false,"is_disabled":true,"rental_uris":{"android":"levelo://app?vid=f4f4c39c-d293-4a83-92fd-f36bbc65fe4a","ios":"levelo://app?vid=f4f4c39c-d293-4a83-92fd-f36bbc65fe4a"},"vehicle_type_id":"4","last_reported":1771128706,"current_range_meters":38800,"station_id":"ce4bhbp2rcd13ifvqerg","pricing_plan_id":"cebpf4jnsgd1na2vs0mg"},{"bike_id":"bceefbcb-6e12-4584-ae1a-2e6369cea0a2","system_id":"levelo_inurba_marseille","lat":43.31849,"lon":5.38347,"is_reserved":false,"is_disabled":false,"rental_uris":{"android":"levelo://app?vid=bceefbcb-6e12-4584-ae1a-2e6369cea0a2","ios":"levelo://app?vid=bceefbcb-6e12-4584-ae1a-2e6369cea0a2"},"vehicle_type_id":"4","last_reported":1771128706,"current_range_meters":25600,"station_id":"","pricing_plan_id":"cebpf4jnsgd1na2vs0mg"},{"bike_id":"2fadaefb-d7be-40bc-b8c2-dfba0bb4802c","system_id":"levelo_inurba_marseille","lat":43.30234,"lon":5.40003,"is_reserved":false,"is_disabled":true,"rental_uris":{"android":"levelo://app?vid=2fadaefb-d7be-40bc-b8c2-dfba0bb4802c","ios":"levelo://app?vid=2fadaefb-d7be-40bc-b8c2-dfba0bb4802c"},"vehicle_type_id":"4","last_reported":1771128706,"current_range_meters":36000,"station_id":"ce4bgvh2rcd13ifvqcs0","pricing_plan_id":"cebpf4jnsgd1na2vs0mg"},{"bike_id":"17a13aba-6c04-45ad-9e00-bff2a4d6d4d0","system_id":"levelo_inurba_marseille","lat":43.31759,"lon":5.39002,"is_reserved":false,"is_disabled":false,"rental_uris":{"android":"levelo://app?vid=17a13aba-6c04-45ad-9e00-bff2a4d6d4d0","ios":"levelo://app?vid=17a13aba-6c04-45ad-9e00-bff2a4d6d4d0"},"vehicle_type_id":"4","last_reported":1771128706,"current_range_meters":39200,"station_id":"ce4bhqp2rcd13ifvqhng","pricing_plan_id":"cebpf4jnsgd1na2vs0mg"},{"bike_id":"362bf92e-b2dc-420e-aae8-2c8ad88723f1","system_id":"levelo_inurba_marseille","lat":43.309173,"lon":5.368293,"is_reserved":false,"is_disabled":false,"rental_uris":{"android":"levelo://app?vid=362bf92e-b2dc-420e-aae8-2c8ad88723f1","ios":"levelo://app?vid=362bf92e-b2dc-420e-aae8-2c8ad88723f1"},"vehicle_type_id":"4","last_reported":1771128706,"current_range_meters":39200,"station_id":"ce4bgn92rcd13ifvqbvg","pricing_plan_id":"cebpf4jnsgd1na2vs0mg"},{"bike_id":"2aa05e06-5366-4cfd-80c1-a6e66487250b","system_id":"levelo_inurba_marseille","lat":43.28473,"lon":5.48406,"is_reserved":false,"is_disabled":false,"rental_uris":{"android":"levelo://app?vid=2aa05e06-5366-4cfd-80c1-a6e66487250b","ios":"levelo://app?vid=2aa05e06-5366-4cfd-80c1-a6e66487250b"},"vehicle_type_id":"4","last_reported":1771128706,"current_range_meters":25600,"station_id":"st_d3svhcjqgbts73a3dn0g","pricing_plan_id":"cebpf4jnsgd1na2vs0mg"},{"bike_id":"82cd6547-3085-4710-928b-3c27514d38d5","system_id":"levelo_inurba_marseille","lat":43.29038,"lon":5.39935,"is_reserved":false,"is_disabled":false,"rental_uris":{"android":"levelo://app?vid=82cd6547-3085-4710-928b-3c27514d38d5","ios":"levelo://app?vid=82cd6547-3085-4710-928b-3c27514d38d5"},"vehicle_type_id":"4","last_reported":1771128706,"current_range_meters":38400,"station_id":"ce4bh392rcd13ifvqdm0","pricing_plan_id":"cebpf4jnsgd1na2vs0mg"},{"bike_id":"963b299c-f0ed-46b7-9014-29e17db68b1b","system_id":"levelo_inurba_marseille","lat":43.26689,"lon":5.38276,"is_reserved":false,"is_disabled":false,"rental_uris":{"android":"levelo://app?vid=963b299c-f0ed-46b7-9014-29e17db68b1b","ios":"levelo://app?vid=963b299c-f0ed-46b7-9014-29e17db68b1b"},"vehicle_type_id":"4","last_reported":1771128706,"current_range_meters":11600,"station_id":"ce4bhg92rcd13ifvqf90","pricing_plan_id":"cebpf4jnsgd1na2vs0mg"},{"bike_id":"9d0335d2-3051-4637-a59f-b5a4ffc47957","system_id":"levelo_inurba_marseille","lat":43.32653,"lon":5.40986,"is_reserved":false,"is_disabled":false,"rental_uris":{"android":"levelo://app?vid=9d0335d2-3051-4637-a59f-b5a4ffc47957","ios":"levelo://app?vid=9d0335d2-3051-4637-a59f-b5a4ffc47957"},"vehicle_type_id":"4","last_reported":1771128706,"current_range_meters":10000,"station_id":"ce4bhpp2rcd13ifvqhgg","pricing_plan_id":"cebpf4jnsgd1na2vs0mg"},{"bike_id":"159aa68c-3ba9-413e-bdc8-2b24f35423b9","system_id":"levelo_inurba_marseille","lat":43.29926,"lon":5.39746,"is_reserved":false,"is_disabled":false,"rental_uris":{"android":"levelo://app?vid=159aa68c-3ba9-413e-bdc8-2b24f35423b9","ios":"levelo://app?vid=159aa68c-3ba9-413e-bdc8-2b24f35423b9"},"vehicle_type_id":"4","last_reported":1771128706,"current_range_meters":28400,"station_id":"ce4bh0h2rcd13ifvqd50","pricing_plan_id":"cebpf4jnsgd1na2vs0mg"},{"bike_id":"6fb6e675-460f-4429-987e-5c8d5ca05444","system_id":"levelo_inurba_marseille","lat":43.323709,"lon":5.36755,"is_reserved":false,"is_disabled":false,"rental_uris":{"android":"levelo://app?vid=6fb6e675-460f-4429-987e-5c8d5ca05444","ios":"levelo://app?vid=6fb6e675-460f-4429-987e-5c8d5ca05444"},"vehicle_type_id":"4","last_reported":1771128706,"current_range_meters":13600,"station_id":"ce4bhsh2rcd13ifvqi2g","pricing_plan_id":"cebpf4jnsgd1na2vs0mg"},{"bike_id":"47fd2218-2d54-46c3-9f7e-dfe05d2f1752","system_id":"levelo_inurba_marseille","lat":43.28838,"lon":5.35862,"is_reserved":false,"is_disabled":false,"rental_uris":{"android":"levelo://app?vid=47fd2218-2d54-46c3-9f7e-dfe05d2f1752","ios":"levelo://app?vid=47fd2218-2d54-46c3-9f7e-dfe05d2f1752"},"vehicle_type_id":"4","last_reported":1771128706,"current_range_meters":22000,"station_id":"ce4bhb12rcd13ifvqem0","pricing_plan_id":"cebpf4jnsgd1na2vs0mg"},{"bike_id":"c7dc1044-a4da-496a-a386-521f9de5f9ec","system_id":"levelo_inurba_marseille","lat":43.281637,"lon":5.4265,"is_reserved":false,"is_disabled":false,"rental_uris":{"android":"levelo://app?vid=c7dc1044-a4da-496a-a386-521f9de5f9ec","ios":"levelo://app?vid=c7dc1044-a4da-496a-a386-521f9de5f9ec"},"vehicle_type_id":"4","last_reported":1771128706,"current_range_meters":6000,"station_id":"ce4bhnh2rcd13ifvqgug","pricing_plan_id":"cebpf4jnsgd1na2vs0mg"},{"bike_id":"32970ac4-1746-4d64-913c-72a1346864f7","system_id":"levelo_inurba_marseille","lat":43.28999,"lon":5.35613,"is_reserved":false,"is_disabled":false,"rental_uris":{"android":"levelo://app?vid=32970ac4-1746-4d64-913c-72a1346864f7","ios":"levelo://app?vid=32970ac4-1746-4d64-913c-72a1346864f7"},"vehicle_type_id":"4","last_reported":1771128706,"current_range_meters":39200,"station_id":"ce4bhb92rcd13ifvqen0","pricing_plan_id":"cebpf4jnsgd1na2vs0mg"},{"bike_id":"7a6fa51c-f3a6-4ec7-898a-e0c27ec99600","system_id":"levelo_inurba_marseille","lat":43.30884,"lon":5.37194,"is_reserved":false,"is_disabled":false,"rental_uris":{"android":"levelo://app?vid=7a6fa51c-f3a6-4ec7-898a-e0c27ec99600","ios":"levelo://app?vid=7a6fa51c-f3a6-4ec7-898a-e0c27ec99600"},"vehicle_type_id":"4","last_reported":1771128706,"current_range_meters":39200,"station_id":"ce4bguh2rcd13ifvqckg","pricing_plan_id":"cebpf4jnsgd1na2vs0mg"},{"bike_id":"e8de88d4-f099-45e6-8418-a6a6569d94e2","system_id":"levelo_inurba_marseille","lat":43.29565,"lon":5.39973,"is_reserved":false,"is_disabled":false,"rental_uris":{"android":"levelo://app?vid=e8de88d4-f099-45e6-8418-a6a6569d94e2","ios":"levelo://app?vid=e8de88d4-f099-45e6-8418-a6a6569d94e2"},"vehicle_type_id":"4","last_reported":1771128706,"current_range_meters":18800,"station_id":"ce4bh312rcd13ifvqdj0","pricing_plan_id":"cebpf4jnsgd1na2vs0mg"},{"bike_id":"d30c7395-ce5f-404c-a40c-5fc4c6b38177","system_id":"levelo_inurba_marseille","lat":43.265508,"lon":5.372939,"is_reserved":false,"is_disabled":false,"rental_uris":{"android":"levelo://app?vid=d30c7395-ce5f-404c-a40c-5fc4c6b38177","ios":"levelo://app?vid=d30c7395-ce5f-404c-a40c-5fc4c6b38177"},"vehicle_type_id":"4","last_reported":1771128706,"current_range_meters":5600,"station_id":"ce4bhg12rcd13ifvqf70","pricing_plan_id":"cebpf4jnsgd1na2vs0mg"},{"bike_id":"317fe148-4a2b-474a-a4d6-1433103738ab","system_id":"levelo_inurba_marseille","lat":43.31147,"lon":5.38735,"is_reserved":false,"is_disabled":false,"rental_uris":{"android":"levelo://app?vid=317fe148-4a2b-474a-a4d6-1433103738ab","ios":"levelo://app?vid=317fe148-4a2b-474a-a4d6-1433103738ab"},"vehicle_type_id":"4","last_reported":1771128706,"current_range_meters":10800,"station_id":"ce4bgv12rcd13ifvqcp0","pricing_plan_id":"cebpf4jnsgd1na2vs0mg"},{"bike_id":"5ba309a4-12b9-4eee-8397-472968e7c7d4","system_id":"levelo_inurba_marseille","lat":43.31698,"lon":5.40456,"is_reserved":false,"is_disabled":false,"rental_uris":{"android":"levelo://app?vid=5ba309a4-12b9-4eee-8397-472968e7c7d4","ios":"levelo://app?vid=5ba309a4-12b9-4eee-8397-472968e7c7d4"},"vehicle_type_id":"4","last_reported":1771128706,"current_range_meters":22800,"station_id":"ce4bh012rcd13ifvqd00","pricing_plan_id":"cebpf4jnsgd1na2vs0mg"},{"bike_id":"47f18ee9-838a-4e13-8672-4f73e3c8ac20","system_id":"levelo_inurba_marseille","lat":43.312813,"lon":5.36872,"is_reserved":false,"is_disabled":false,"rental_uris":{"android":"levelo://app?vid=47f18ee9-838a-4e13-8672-4f73e3c8ac20","ios":"levelo://app?vid=47f18ee9-838a-4e13-8672-4f73e3c8ac20"},"vehicle_type_id":"4","last_reported":1771128706,"current_range_meters":39200,"station_id":"ce4bgl92rcd13ifvqbq0","pricing_plan_id":"cebpf4jnsgd1na2vs0mg"},{"bike_id":"b7600f14-bce5-4dda-a976-6cbf8683f3d2","system_id":"levelo_inurba_marseille","lat":43.2744,"lon":5.39419,"is_reserved":false,"is_disabled":false,"rental_uris":{"android":"levelo://app?vid=b7600f14-bce5-4dda-a976-6cbf8683f3d2","ios":"levelo://app?vid=b7600f14-bce5-4dda-a976-6cbf8683f3d2"},"vehicle_type_id":"4","last_reported":1771128706,"current_range_meters":39200,"station_id":"ce4bhdp2rcd13ifvqf20","pricing_plan_id":"cebpf4jnsgd1na2vs0mg"},{"bike_id":"67dfb204-00be-4177-8b9d-f63a27579f92","system_id":"levelo_inurba_marseille","lat":43.29904,"lon":5.38125,"is_reserved":false,"is_disabled":false,"rental_uris":{"android":"levelo://app?vid=67dfb204-00be-4177-8b9d-f63a27579f92","ios":"levelo://app?vid=67dfb204-00be-4177-8b9d-f63a27579f92"},"vehicle_type_id":"4","last_reported":1771128706,"current_range_meters":31200,"station_id":"ce4bgj12rcd13ifvqbc0","pricing_plan_id":"cebpf4jnsgd1na2vs0mg"},{"bike_id":"3cb53061-83c4-46d8-95ca-08fad7de196f","system_id":"levelo_inurba_marseille","lat":43.2829,"lon":5.35064,"is_reserved":false,"is_disabled":false,"rental_uris":{"android":"levelo://app?vid=3cb53061-83c4-46d8-95ca-08fad7de196f","ios":"levelo://app?vid=3cb53061-83c4-46d8-95ca-08fad7de196f"},"vehicle_type_id":"4","last_reported":1771128706,"current_range_meters":26000,"station_id":"ce4bhbp2rcd13ifvqerg","pricing_plan_id":"cebpf4jnsgd1na2vs0mg"},{"bike_id":"d70be5f9-0be2-4755-a5b2-e31793c34d56","system_id":"levelo_inurba_marseille","lat":43.28366,"lon":5.38616,"is_reserved":false,"is_disabled":false,"rental_uris":{"android":"levelo://app?vid=d70be5f9-0be2-4755-a5b2-e31793c34d56","ios":"levelo://app?vid=d70be5f9-0be2-4755-a5b2-e31793c34d56"},"vehicle_type_id":"4","last_reported":1771128706,"current_range_meters":39200,"station_id":"ce4bh492rcd13ifvqdvg","pricing_plan_id":"cebpf4jnsgd1na2vs0mg"},{"bike_id":"a26a6608-23e4-46ce-bb00-ef5bd34cdc6d","system_id":"levelo_inurba_marseille","lat":43.289481,"lon":5.396225,"is_reserved":false,"is_disabled":false,"rental_uris":{"android":"levelo://app?vid=a26a6608-23e4-46ce-bb00-ef5bd34cdc6d","ios":"levelo://app?vid=a26a6608-23e4-46ce-bb00-ef5bd34cdc6d"},"vehicle_type_id":"4","last_reported":1771128706,"current_range_meters":39200,"station_id":"ce4bh3h2rcd13ifvqdn0","pricing_plan_id":"cebpf4jnsgd1na2vs0mg"},{"bike_id":"e29024b3-288c-4d8b-ba32-8553041a7294","system_id":"levelo_inurba_marseille","lat":43.25941,"lon":5.40899,"is_reserved":false,"is_disabled":false,"rental_uris":{"android":"levelo://app?vid=e29024b3-288c-4d8b-ba32-8553041a7294","ios":"levelo://app?vid=e29024b3-288c-4d8b-ba32-8553041a7294"},"vehicle_type_id":"4","last_reported":1771128706,"current_range_meters":4000,"station_id":"ce4bhm92rcd13ifvqglg","pricing_plan_id":"cebpf4jnsgd1na2vs0mg"},{"bike_id":"bac7409d-61f7-46cc-b62d-02ad9cfce5a9","system_id":"levelo_inurba_marseille","lat":43.28443,"lon":5.35877,"is_reserved":false,"is_disabled":false,"rental_uris":{"android":"levelo://app?vid=bac7409d-61f7-46cc-b62d-02ad9cfce5a9","ios":"levelo://app?vid=bac7409d-61f7-46cc-b62d-02ad9cfce5a9"},"vehicle_type_id":"4","last_reported":1771128706,"current_range_meters":38800,"station_id":"ce4bhah2rcd13ifvqei0","pricing_plan_id":"cebpf4jnsgd1na2vs0mg"},{"bike_id":"563037d3-7108-43f4-9824-3cbb130d2a47","system_id":"levelo_inurba_marseille","lat":43.30159,"lon":5.38088,"is_reserved":false,"is_disabled":false,"rental_uris":{"android":"levelo://app?vid=563037d3-7108-43f4-9824-3cbb130d2a47","ios":"levelo://app?vid=563037d3-7108-43f4-9824-3cbb130d2a47"},"vehicle_type_id":"4","last_reported":1771128706,"current_range_meters":8000,"station_id":"ce4bgjp2rcd13ifvqbh0","pricing_plan_id":"cebpf4jnsgd1na2vs0mg"},{"bike_id":"d33adf25-865e-4d8a-b514-8032961e7cb8","system_id":"levelo_inurba_marseille","lat":43.28724,"lon":5.36086,"is_reserved":false,"is_disabled":false,"rental_uris":{"android":"levelo://app?vid=d33adf25-865e-4d8a-b514-8032961e7cb8","ios":"levelo://app?vid=d33adf25-865e-4d8a-b514-8032961e7cb8"},"vehicle_type_id":"4","last_reported":1771128706,"current_range_meters":38000,"station_id":"cki0cbj6b192h4jlfktg","pricing_plan_id":"cebpf4jnsgd1na2vs0mg"},{"bike_id":"084a723e-7e6a-4dde-a4d4-2f24d43933be","system_id":"levelo_inurba_marseille","lat":43.29977,"lon":5.41316,"is_reserved":false,"is_disabled":false,"rental_uris":{"android":"levelo://app?vid=084a723e-7e6a-4dde-a4d4-2f24d43933be","ios":"levelo://app?vid=084a723e-7e6a-4dde-a4d4-2f24d43933be"},"vehicle_type_id":"4","last_reported":1771128706,"current_range_meters":35200,"station_id":"ce4bhp12rcd13ifvqh9g","pricing_plan_id":"cebpf4jnsgd1na2vs0mg"},{"bike_id":"3029fd03-fcab-4cd9-9277-025369248c19","system_id":"levelo_inurba_marseille","lat":43.26188,"lon":5.37446,"is_reserved":false,"is_disabled":false,"rental_uris":{"android":"levelo://app?vid=3029fd03-fcab-4cd9-9277-025369248c19","ios":"levelo://app?vid=3029fd03-fcab-4cd9-9277-025369248c19"},"vehicle_type_id":"4","last_reported":1771128706,"current_range_meters":16400,"station_id":"ce4bhgp2rcd13ifvqfc0","pricing_plan_id":"cebpf4jnsgd1na2vs0mg"},{"bike_id":"ba21d75b-5fda-4a36-904e-01cddd607acf","system_id":"levelo_inurba_marseille","lat":43.290427,"lon":5.359205,"is_reserved":false,"is_disabled":false,"rental_uris":{"android":"levelo://app?vid=ba21d75b-5fda-4a36-904e-01cddd607acf","ios":"levelo://app?vid=ba21d75b-5fda-4a36-904e-01cddd607acf"},"vehicle_type_id":"4","last_reported":1771128706,"current_range_meters":35200,"station_id":"ce4bha92rcd13ifvqeg0","pricing_plan_id":"cebpf4jnsgd1na2vs0mg"},{"bike_id":"4cb2a9d8-8a61-4838-80c1-000f896cc9a0","system_id":"levelo_inurba_marseille","lat":43.28426,"lon":5.34984,"is_reserved":false,"is_disabled":false,"rental_uris":{"android":"levelo://app?vid=4cb2a9d8-8a61-4838-80c1-000f896cc9a0","ios":"levelo://app?vid=4cb2a9d8-8a61-4838-80c1-000f896cc9a0"},"vehicle_type_id":"4","last_reported":1771128706,"current_range_meters":11200,"station_id":"ce4bhbh2rcd13ifvqepg","pricing_plan_id":"cebpf4jnsgd1na2vs0mg"},{"bike_id":"61eff903-483f-41ec-a514-0f580cd1a431","system_id":"levelo_inurba_marseille","lat":43.24946,"lon":5.40506,"is_reserved":false,"is_disabled":false,"rental_uris":{"android":"levelo://app?vid=61eff903-483f-41ec-a514-0f580cd1a431","ios":"levelo://app?vid=61eff903-483f-41ec-a514-0f580cd1a431"},"vehicle_type_id":"4","last_reported":1771128706,"current_range_meters":27600,"station_id":"st_d2ngiaodas8pm72gd1h0","pricing_plan_id":"cebpf4jnsgd1na2vs0mg"},{"bike_id":"8cf2d6d7-e51d-4831-bd1b-4195dd83b79f","system_id":"levelo_inurba_marseille","lat":43.29252,"lon":5.40857,"is_reserved":false,"is_disabled":false,"rental_uris":{"android":"levelo://app?vid=8cf2d6d7-e51d-4831-bd1b-4195dd83b79f","ios":"levelo://app?vid=8cf2d6d7-e51d-4831-bd1b-4195dd83b79f"},"vehicle_type_id":"4","last_reported":1771128706,"current_range_meters":8800,"station_id":"ce4bh192rcd13ifvqdc0","pricing_plan_id":"cebpf4jnsgd1na2vs0mg"},{"bike_id":"aaaacc78-adce-439a-a555-9223cd6acada","system_id":"levelo_inurba_marseille","lat":43.286634,"lon":5.363602,"is_reserved":false,"is_disabled":false,"rental_uris":{"android":"levelo://app?vid=aaaacc78-adce-439a-a555-9223cd6acada","ios":"levelo://app?vid=aaaacc78-adce-439a-a555-9223cd6acada"},"vehicle_type_id":"4","last_reported":1771128706,"current_range_meters":39200,"station_id":"ce4bhah2rcd13ifvqej0","pricing_plan_id":"cebpf4jnsgd1na2vs0mg"},{"bike_id":"3ac8d135-347a-4bac-b4fe-99d4725f5344","system_id":"levelo_inurba_marseille","lat":43.31024,"lon":5.40184,"is_reserved":false,"is_disabled":false,"rental_uris":{"android":"levelo://app?vid=3ac8d135-347a-4bac-b4fe-99d4725f5344","ios":"levelo://app?vid=3ac8d135-347a-4bac-b4fe-99d4725f5344"},"vehicle_type_id":"4","last_reported":1771128706,"current_range_meters":4400,"station_id":"","pricing_plan_id":"cebpf4jnsgd1na2vs0mg"},{"bike_id":"3121903d-d179-4b3c-93ae-5d88ee1dac03","system_id":"levelo_inurba_marseille","lat":43.28848,"lon":5.35833,"is_reserved":false,"is_disabled":false,"rental_uris":{"android":"levelo://app?vid=3121903d-d179-4b3c-93ae-5d88ee1dac03","ios":"levelo://app?vid=3121903d-d179-4b3c-93ae-5d88ee1dac03"},"vehicle_type_id":"4","last_reported":1771128706,"current_range_meters":34800,"station_id":"ce4bhb12rcd13ifvqem0","pricing_plan_id":"cebpf4jnsgd1na2vs0mg"},{"bike_id":"11bbe498-cd8f-4b2e-8e45-54529a7a0a47","system_id":"levelo_inurba_marseille","lat":43.297545,"lon":5.427743,"is_reserved":false,"is_disabled":false,"rental_uris":{"android":"levelo://app?vid=11bbe498-cd8f-4b2e-8e45-54529a7a0a47","ios":"levelo://app?vid=11bbe498-cd8f-4b2e-8e45-54529a7a0a47"},"vehicle_type_id":"4","last_reported":1771128706,"current_range_meters":7200,"station_id":"","pricing_plan_id":"cebpf4jnsgd1na2vs0mg"},{"bike_id":"f921ecaf-65c6-4c31-a956-ae002ea6af96","system_id":"levelo_inurba_marseille","lat":43.28564,"lon":5.39489,"is_reserved":false,"is_disabled":false,"rental_uris":{"android":"levelo://app?vid=f921ecaf-65c6-4c31-a956-ae002ea6af96","ios":"levelo://app?vid=f921ecaf-65c6-4c31-a956-ae002ea6af96"},"vehicle_type_id":"4","last_reported":1771128706,"current_range_meters":39200,"station_id":"ce4bh292rcd13ifvqdg0","pricing_plan_id":"cebpf4jnsgd1na2vs0mg"},{"bike_id":"db85d612-2486-4180-a7a9-4b56d8d31f7d","system_id":"levelo_inurba_marseille","lat":43.29272,"lon":5.36825,"is_reserved":false,"is_disabled":false,"rental_uris":{"android":"levelo://app?vid=db85d612-2486-4180-a7a9-4b56d8d31f7d","ios":"levelo://app?vid=db85d612-2486-4180-a7a9-4b56d8d31f7d"},"vehicle_type_id":"4","last_reported":1771128706,"current_range_meters":34000,"station_id":"ce4bhbp2rcd13ifvqesg","pricing_plan_id":"cebpf4jnsgd1na2vs0mg"},{"bike_id":"6b4281a6-824f-4908-a2fa-29c9cfdb6620","system_id":"levelo_inurba_marseille","lat":43.308761,"lon":5.396151,"is_reserved":false,"is_disabled":false,"rental_uris":{"android":"levelo://app?vid=6b4281a6-824f-4908-a2fa-29c9cfdb6620","ios":"levelo://app?vid=6b4281a6-824f-4908-a2fa-29c9cfdb6620"},"vehicle_type_id":"4","last_reported":1771128706,"current_range_meters":32800,"station_id":"ce4bh012rcd13ifvqcv0","pricing_plan_id":"cebpf4jnsgd1na2vs0mg"},{"bike_id":"6f6a04ad-dd00-4f4a-bdfd-a835cfa0cc11","system_id":"levelo_inurba_marseille","lat":43.27069,"lon":5.38315,"is_reserved":false,"is_disabled":false,"rental_uris":{"android":"levelo://app?vid=6f6a04ad-dd00-4f4a-bdfd-a835cfa0cc11","ios":"levelo://app?vid=6f6a04ad-dd00-4f4a-bdfd-a835cfa0cc11"},"vehicle_type_id":"4","last_reported":1771128706,"current_range_meters":34000,"station_id":"st_d3n2fo6cfp8s73cte1j0","pricing_plan_id":"cebpf4jnsgd1na2vs0mg"},{"bike_id":"d99e03d7-5c4c-4b86-b51e-33ecb35ec35b","system_id":"levelo_inurba_marseille","lat":43.29566,"lon":5.39957,"is_reserved":false,"is_disabled":false,"rental_uris":{"android":"levelo://app?vid=d99e03d7-5c4c-4b86-b51e-33ecb35ec35b","ios":"levelo://app?vid=d99e03d7-5c4c-4b86-b51e-33ecb35ec35b"},"vehicle_type_id":"4","last_reported":1771128706,"current_range_meters":35200,"station_id":"ce4bh312rcd13ifvqdj0","pricing_plan_id":"cebpf4jnsgd1na2vs0mg"},{"bike_id":"4e4c79b4-286f-458a-a494-98664f2e8591","system_id":"levelo_inurba_marseille","lat":43.33125,"lon":5.39271,"is_reserved":false,"is_disabled":false,"rental_uris":{"android":"levelo://app?vid=4e4c79b4-286f-458a-a494-98664f2e8591","ios":"levelo://app?vid=4e4c79b4-286f-458a-a494-98664f2e8591"},"vehicle_type_id":"4","last_reported":1771128706,"current_range_meters":31200,"station_id":"","pricing_plan_id":"cebpf4jnsgd1na2vs0mg"},{"bike_id":"fcdee124-54c2-45c2-866c-075925635f0c","system_id":"levelo_inurba_marseille","lat":43.28624,"lon":5.35106,"is_reserved":false,"is_disabled":false,"rental_uris":{"android":"levelo://app?vid=fcdee124-54c2-45c2-866c-075925635f0c","ios":"levelo://app?vid=fcdee124-54c2-45c2-866c-075925635f0c"},"vehicle_type_id":"4","last_reported":1771128706,"current_range_meters":21600,"station_id":"ce4bhch2rcd13ifvqeug","pricing_plan_id":"cebpf4jnsgd1na2vs0mg"},{"bike_id":"3466503b-af29-415c-826a-265b92625e7e","system_id":"levelo_inurba_marseille","lat":43.321394,"lon":5.367524,"is_reserved":false,"is_disabled":false,"rental_uris":{"android":"levelo://app?vid=3466503b-af29-415c-826a-265b92625e7e","ios":"levelo://app?vid=3466503b-af29-415c-826a-265b92625e7e"},"vehicle_type_id":"4","last_reported":1771128706,"current_range_meters":30000,"station_id":"","pricing_plan_id":"cebpf4jnsgd1na2vs0mg"},{"bike_id":"35a5798f-294e-4fae-a31b-6de3b301db94","system_id":"levelo_inurba_marseille","lat":43.29528,"lon":5.39049,"is_reserved":false,"is_disabled":false,"rental_uris":{"android":"levelo://app?vid=35a5798f-294e-4fae-a31b-6de3b301db94","ios":"levelo://app?vid=35a5798f-294e-4fae-a31b-6de3b301db94"},"vehicle_type_id":"4","last_reported":1771128706,"current_range_meters":33600,"station_id":"ce4bh3p2rcd13ifvqdp0","pricing_plan_id":"cebpf4jnsgd1na2vs0mg"},{"bike_id":"1b06f4c1-1732-43e9-b160-23e4e376a773","system_id":"levelo_inurba_marseille","lat":43.28611,"lon":5.37064,"is_reserved":false,"is_disabled":false,"rental_uris":{"android":"levelo://app?vid=1b06f4c1-1732-43e9-b160-23e4e376a773","ios":"levelo://app?vid=1b06f4c1-1732-43e9-b160-23e4e376a773"},"vehicle_type_id":"4","last_reported":1771128706,"current_range_meters":34000,"station_id":"ce4bht12rcd13ifvqi60","pricing_plan_id":"cebpf4jnsgd1na2vs0mg"},{"bike_id":"6cda80fc-75a4-4720-a3a4-4b2c5db48d5b","system_id":"levelo_inurba_marseille","lat":43.28616,"lon":5.35096,"is_reserved":false,"is_disabled":false,"rental_uris":{"android":"levelo://app?vid=6cda80fc-75a4-4720-a3a4-4b2c5db48d5b","ios":"levelo://app?vid=6cda80fc-75a4-4720-a3a4-4b2c5db48d5b"},"vehicle_type_id":"4","last_reported":1771128706,"current_range_meters":8400,"station_id":"ce4bhch2rcd13ifvqeug","pricing_plan_id":"cebpf4jnsgd1na2vs0mg"},{"bike_id":"ac89198c-c702-4d3c-9029-266a18e0ed53","system_id":"levelo_inurba_marseille","lat":43.30905,"lon":5.36861,"is_reserved":false,"is_disabled":false,"rental_uris":{"android":"levelo://app?vid=ac89198c-c702-4d3c-9029-266a18e0ed53","ios":"levelo://app?vid=ac89198c-c702-4d3c-9029-266a18e0ed53"},"vehicle_type_id":"4","last_reported":1771128706,"current_range_meters":26000,"station_id":"ce4bgn92rcd13ifvqbvg","pricing_plan_id":"cebpf4jnsgd1na2vs0mg"},{"bike_id":"4a0a5e87-4d42-4167-b03e-5151892062ed","system_id":"levelo_inurba_marseille","lat":43.30185,"lon":5.36596,"is_reserved":false,"is_disabled":false,"rental_uris":{"android":"levelo://app?vid=4a0a5e87-4d42-4167-b03e-5151892062ed","ios":"levelo://app?vid=4a0a5e87-4d42-4167-b03e-5151892062ed"},"vehicle_type_id":"4","last_reported":1771128706,"current_range_meters":33200,"station_id":"ce4bgrh2rcd13ifvqc8g","pricing_plan_id":"cebpf4jnsgd1na2vs0mg"},{"bike_id":"eaa5a20b-1cfb-4952-b36f-41363341fdee","system_id":"levelo_inurba_marseille","lat":43.23963,"lon":5.36629,"is_reserved":false,"is_disabled":false,"rental_uris":{"android":"levelo://app?vid=eaa5a20b-1cfb-4952-b36f-41363341fdee","ios":"levelo://app?vid=eaa5a20b-1cfb-4952-b36f-41363341fdee"},"vehicle_type_id":"4","last_reported":1771128706,"current_range_meters":14400,"station_id":"ce4bhi12rcd13ifvqfp0","pricing_plan_id":"cebpf4jnsgd1na2vs0mg"},{"bike_id":"728a8600-c06b-4447-9a71-a43a2371fd54","system_id":"levelo_inurba_marseille","lat":43.2509,"lon":5.39527,"is_reserved":false,"is_disabled":false,"rental_uris":{"android":"levelo://app?vid=728a8600-c06b-4447-9a71-a43a2371fd54","ios":"levelo://app?vid=728a8600-c06b-4447-9a71-a43a2371fd54"},"vehicle_type_id":"4","last_reported":1771128706,"current_range_meters":12000,"station_id":"ce4bhm12rcd13ifvqgkg","pricing_plan_id":"cebpf4jnsgd1na2vs0mg"},{"bike_id":"e35dfe0f-27bc-4d3c-8e69-fd2c35f9c5ee","system_id":"levelo_inurba_marseille","lat":43.2749,"lon":5.42464,"is_reserved":false,"is_disabled":false,"rental_uris":{"android":"levelo://app?vid=e35dfe0f-27bc-4d3c-8e69-fd2c35f9c5ee","ios":"levelo://app?vid=e35dfe0f-27bc-4d3c-8e69-fd2c35f9c5ee"},"vehicle_type_id":"4","last_reported":1771128706,"current_range_meters":8800,"station_id":"ce4bhn92rcd13ifvqgrg","pricing_plan_id":"cebpf4jnsgd1na2vs0mg"},{"bike_id":"65d066e3-614e-444d-93c8-c40be5533dbe","system_id":"levelo_inurba_marseille","lat":43.29575,"lon":5.39947,"is_reserved":false,"is_disabled":false,"rental_uris":{"android":"levelo://app?vid=65d066e3-614e-444d-93c8-c40be5533dbe","ios":"levelo://app?vid=65d066e3-614e-444d-93c8-c40be5533dbe"},"vehicle_type_id":"4","last_reported":1771128706,"current_range_meters":14800,"station_id":"ce4bh312rcd13ifvqdj0","pricing_plan_id":"cebpf4jnsgd1na2vs0mg"},{"bike_id":"2f0b85aa-c457-4958-914e-08f5ab13887b","system_id":"levelo_inurba_marseille","lat":43.24069,"lon":5.37746,"is_reserved":false,"is_disabled":false,"rental_uris":{"android":"levelo://app?vid=2f0b85aa-c457-4958-914e-08f5ab13887b","ios":"levelo://app?vid=2f0b85aa-c457-4958-914e-08f5ab13887b"},"vehicle_type_id":"4","last_reported":1771128706,"current_range_meters":28000,"station_id":"ce4bhnp2rcd13ifvqgvg","pricing_plan_id":"cebpf4jnsgd1na2vs0mg"},{"bike_id":"978d2f99-2f31-4c4e-be2a-4e68224c9eda","system_id":"levelo_inurba_marseille","lat":43.26805,"lon":5.40254,"is_reserved":false,"is_disabled":false,"rental_uris":{"android":"levelo://app?vid=978d2f99-2f31-4c4e-be2a-4e68224c9eda","ios":"levelo://app?vid=978d2f99-2f31-4c4e-be2a-4e68224c9eda"},"vehicle_type_id":"4","last_reported":1771128706,"current_range_meters":25600,"station_id":"ce501612rcd8frsf0b60","pricing_plan_id":"cebpf4jnsgd1na2vs0mg"},{"bike_id":"61fd5862-50ca-4e52-b3bd-80889f2096bf","system_id":"levelo_inurba_marseille","lat":43.30774,"lon":5.3765,"is_reserved":false,"is_disabled":false,"rental_uris":{"android":"levelo://app?vid=61fd5862-50ca-4e52-b3bd-80889f2096bf","ios":"levelo://app?vid=61fd5862-50ca-4e52-b3bd-80889f2096bf"},"vehicle_type_id":"4","last_reported":1771128706,"current_range_meters":14000,"station_id":"ce4bgv92rcd13ifvqcq0","pricing_plan_id":"cebpf4jnsgd1na2vs0mg"},{"bike_id":"f2d1b094-781e-4355-b5c2-3d02a6975d88","system_id":"levelo_inurba_marseille","lat":43.29709,"lon":5.36615,"is_reserved":false,"is_disabled":false,"rental_uris":{"android":"levelo://app?vid=f2d1b094-781e-4355-b5c2-3d02a6975d88","ios":"levelo://app?vid=f2d1b094-781e-4355-b5c2-3d02a6975d88"},"vehicle_type_id":"4","last_reported":1771128706,"current_range_meters":38400,"station_id":"ce4bgn12rcd13ifvqbt0","pricing_plan_id":"cebpf4jnsgd1na2vs0mg"},{"bike_id":"2620a75f-78af-4b24-8176-d78fc60e2fc2","system_id":"levelo_inurba_marseille","lat":43.28406,"lon":5.37497,"is_reserved":false,"is_disabled":false,"rental_uris":{"android":"levelo://app?vid=2620a75f-78af-4b24-8176-d78fc60e2fc2","ios":"levelo://app?vid=2620a75f-78af-4b24-8176-d78fc60e2fc2"},"vehicle_type_id":"4","last_reported":1771128706,"current_range_meters":5600,"station_id":"ce4bh412rcd13ifvqds0","pricing_plan_id":"cebpf4jnsgd1na2vs0mg"},{"bike_id":"db6fbd24-8c48-4687-9d45-4d9dfaa41aa7","system_id":"levelo_inurba_marseille","lat":43.268046,"lon":5.402652,"is_reserved":false,"is_disabled":false,"rental_uris":{"android":"levelo://app?vid=db6fbd24-8c48-4687-9d45-4d9dfaa41aa7","ios":"levelo://app?vid=db6fbd24-8c48-4687-9d45-4d9dfaa41aa7"},"vehicle_type_id":"4","last_reported":1771128706,"current_range_meters":39200,"station_id":"ce501612rcd8frsf0b60","pricing_plan_id":"cebpf4jnsgd1na2vs0mg"},{"bike_id":"cf8b7d0a-9a5a-4f97-92c3-931492bbfb02","system_id":"levelo_inurba_marseille","lat":43.27212,"lon":5.40967,"is_reserved":false,"is_disabled":false,"rental_uris":{"android":"levelo://app?vid=cf8b7d0a-9a5a-4f97-92c3-931492bbfb02","ios":"levelo://app?vid=cf8b7d0a-9a5a-4f97-92c3-931492bbfb02"},"vehicle_type_id":"4","last_reported":1771128706,"current_range_meters":31200,"station_id":"","pricing_plan_id":"cebpf4jnsgd1na2vs0mg"},{"bike_id":"8267bf70-ccdb-4d38-b521-e691e3e39ee7","system_id":"levelo_inurba_marseille","lat":43.28729,"lon":5.36081,"is_reserved":false,"is_disabled":false,"rental_uris":{"android":"levelo://app?vid=8267bf70-ccdb-4d38-b521-e691e3e39ee7","ios":"levelo://app?vid=8267bf70-ccdb-4d38-b521-e691e3e39ee7"},"vehicle_type_id":"4","last_reported":1771128706,"current_range_meters":38400,"station_id":"cki0cbj6b192h4jlfktg","pricing_plan_id":"cebpf4jnsgd1na2vs0mg"},{"bike_id":"07ce1f5d-6f17-46fa-a2c3-775082efdead","system_id":"levelo_inurba_marseille","lat":43.27328,"lon":5.39073,"is_reserved":false,"is_disabled":false,"rental_uris":{"android":"levelo://app?vid=07ce1f5d-6f17-46fa-a2c3-775082efdead","ios":"levelo://app?vid=07ce1f5d-6f17-46fa-a2c3-775082efdead"},"vehicle_type_id":"4","last_reported":1771128706,"current_range_meters":6000,"station_id":"ce4bhgp2rcd13ifvqfe0","pricing_plan_id":"cebpf4jnsgd1na2vs0mg"},{"bike_id":"88ff9439-db02-4be2-a9f2-dbfd8e7a5968","system_id":"levelo_inurba_marseille","lat":43.25855,"lon":5.39905,"is_reserved":false,"is_disabled":false,"rental_uris":{"android":"levelo://app?vid=88ff9439-db02-4be2-a9f2-dbfd8e7a5968","ios":"levelo://app?vid=88ff9439-db02-4be2-a9f2-dbfd8e7a5968"},"vehicle_type_id":"4","last_reported":1771128706,"current_range_meters":33200,"station_id":"ce4bhl92rcd13ifvqghg","pricing_plan_id":"cebpf4jnsgd1na2vs0mg"},{"bike_id":"cfae685f-c63c-4f49-9c1b-ab3959e7fdd6","system_id":"levelo_inurba_marseille","lat":43.24942,"lon":5.40501,"is_reserved":false,"is_disabled":false,"rental_uris":{"android":"levelo://app?vid=cfae685f-c63c-4f49-9c1b-ab3959e7fdd6","ios":"levelo://app?vid=cfae685f-c63c-4f49-9c1b-ab3959e7fdd6"},"vehicle_type_id":"4","last_reported":1771128706,"current_range_meters":36800,"station_id":"st_d2ngiaodas8pm72gd1h0","pricing_plan_id":"cebpf4jnsgd1na2vs0mg"},