{"last_updated":1702681630,"ttl":30,"version":"2.2","data":{"bikes":[{"bike_id":"9eea7540-24ba-473f-9243-0bded8c603a8","system_id":"levelo_inurba_marseille","lat":43.31341,"lon":5.367098,"is_reserved":false,"is_disabled":false,"rental_uris":{"android":"levelo://app?vid=9eea7540-24ba-473f-9243-0bded8c603a8","ios":"levelo://app?vid=9eea7540-24ba-473f-9243-0bded8c603a8"},"vehicle_type_id":"4","last_reported":1702681630,"current_range_meters":24400,"station_id":"ce4bgr92rcd13ifvqc6g","pricing_plan_id":"free"},{"bike_id":"cd4ac7e6-ca9e-4d15-bb50-7f898f19844e","system_id":"levelo_inurba_marseille","lat":43.312239,"lon":5.368562,"is_reserved":false,"is_disabled":false,"rental_uris":{"android":"levelo://app?vid=cd4ac7e6-ca9e-4d15-bb50-7f898f19844e","ios":"levelo://app?vid=cd4ac7e6-ca9e-4d15-bb50-7f898f19844e"},"vehicle_type_id":"4","last_reported":1702681630,"current_range_meters":20400,"station_id":"ce4bgl92rcd13ifvqbq0","pricing_plan_id":"free"},{"bike_id":"c81051ff-5466-4d0b-b05e-0063378b53eb","system_id":"levelo_inurba_marseille","lat":43.309076,"lon":5.368465,"is_reserved":false,"is_disabled":false,"rental_uris":{"android":"levelo://app?vid=c81051ff-5466-4d0b-b05e-0063378b53eb","ios":"levelo://app?vid=c81051ff-5466-4d0b-b05e-0063378b53eb"},"vehicle_type_id":"4","last_reported":1702681630,"current_range_meters":21200,"station_id":"ce4bgn92rcd13ifvqbvg","pricing_plan_id":"free"},{"bike_id":"4e75a65b-992a-4d99-ad2a-e1df6def5836","system_id":"levelo_inurba_marseille","lat":43.309076,"lon":5.368465,"is_reserved":false,"is_disabled":false,"rental_uris":{"android":"levelo://app?vid=4e75a65b-992a-4d99-ad2a-e1df6def5836","ios":"levelo://app?vid=4e75a65b-992a-4d99-ad2a-e1df6def5836"},"vehicle_type_id":"4","last_reported":1702681630,"current_range_meters":12000,"station_id":"ce4bgn92rcd13ifvqbvg","pricing_plan_id":"free"},{"bike_id":"d2365300-c81c-40b4-82b9-9c9734122240","system_id":"levelo_inurba_marseille","lat":43.309076,"lon":5.368465,"is_reserved":false,"is_disabled":false,"rental_uris":{"android":"levelo://app?vid=d2365300-c81c-40b4-82b9-9c9734122240","ios":"levelo://app?vid=d2365300-c81c-40b4-82b9-9c9734122240"},"vehicle_type_id":"4","last_reported":1702681630,"current_range_meters":18000,"station_id":"ce4bgn92rcd13ifvqbvg","pricing_plan_id":"free"},{"bike_id":"3f8b821f-e430-4a35-bf14-f8b6e777ea11","system_id":"levelo_inurba_marseille","lat":43.313939,"lon":5.375306,"is_reserved":false,"is_disabled":false,"rental_uris":{"android":"levelo://app?vid=3f8b821f-e430-4a35-bf14-f8b6e777ea11","ios":"levelo://app?vid=3f8b821f-e430-4a35-bf14-f8b6e777ea11"},"vehicle_type_id":"4","last_reported":1702681630,"current_range_meters":0,"station_id":"","pricing_plan_id":"free"},{"bike_id":"2b139407-b7d2-4bec-a04c-b1c3d1ecde15","system_id":"levelo_inurba_marseille","lat":43.30544,"lon":5.36548,"is_reserved":false,"is_disabled":false,"rental_uris":{"android":"levelo://app?vid=2b139407-b7d2-4bec-a04c-b1c3d1ecde15","ios":"levelo://app?vid=2b139407-b7d2-4bec-a04c-b1c3d1ecde15"},"vehicle_type_id":"4","last_reported":1702681630,"current_range_meters":400,"station_id":"ce4bgs12rcd13ifvqcag","pricing_plan_id":"free"},{"bike_id":"955e4ab2-16e5-44e8-a986-a2f50ff96c06","system_id":"levelo_inurba_marseille","lat":43.305382,"lon":5.365389,"is_reserved":false,"is_disabled":false,"rental_uris":{"android":"levelo://app?vid=955e4ab2-16e5-44e8-a986-a2f50ff96c06","ios":"levelo://app?vid=955e4ab2-16e5-44e8-a986-a2f50ff96c06"},"vehicle_type_id":"4","last_reported":1702681630,"current_range_meters":17600,"station_id":"","pricing_plan_id":"free"},{"bike_id":"853009c0-e01a-439c-b3e9-4c7d620628f6","system_id":"levelo_inurba_marseille","lat":43.305989,"lon":5.37225,"is_reserved":false,"is_disabled":false,"rental_uris":{"android":"levelo://app?vid=853009c0-e01a-439c-b3e9-4c7d620628f6","ios":"levelo://app?vid=853009c0-e01a-439c-b3e9-4c7d620628f6"},"vehicle_type_id":"4","last_reported":1702681630,"current_range_meters":27600,"station_id":"ce4bgqh2rcd13ifvqc4g","pricing_plan_id":"free"},{"bike_id":"37480a4d-1ce9-421b-8587-12d2f7ed17e2","system_id":"levelo_inurba_marseille","lat":43.305989,"lon":5.37225,"is_reserved":false,"is_disabled":false,"rental_uris":{"android":"levelo://app?vid=37480a4d-1ce9-421b-8587-12d2f7ed17e2","ios":"levelo://app?vid=37480a4d-1ce9-421b-8587-12d2f7ed17e2"},"vehicle_type_id":"4","last_reported":1702681630,"current_range_meters":25200,"station_id":"ce4bgqh2rcd13ifvqc4g","pricing_plan_id":"free"},{"bike_id":"0e993329-30aa-420d-a165-f0f3ce7d0d14","system_id":"levelo_inurba_marseille","lat":43.305989,"lon":5.37225,"is_reserved":false,"is_disabled":false,"rental_uris":{"android":"levelo://app?vid=0e993329-30aa-420d-a165-f0f3ce7d0d14","ios":"levelo://app?vid=0e993329-30aa-420d-a165-f0f3ce7d0d14"},"vehicle_type_id":"4","last_reported":1702681630,"current_range_meters":16000,"station_id":"ce4bgqh2rcd13ifvqc4g","pricing_plan_id":"free"},{"bike_id":"688d589f-e7b3-4777-8e07-6fd8148f2d76","system_id":"levelo_inurba_marseille","lat":43.31125,"lon":5.37769,"is_reserved":false,"is_disabled":false,"rental_uris":{"android":"levelo://app?vid=688d589f-e7b3-4777-8e07-6fd8148f2d76","ios":"levelo://app?vid=688d589f-e7b3-4777-8e07-6fd8148f2d76"},"vehicle_type_id":"4","last_reported":1702681630,"current_range_meters":0,"station_id":"ce4bgt92rcd13ifvqcg0","pricing_plan_id":"free"},{"bike_id":"da1adf6b-e342-42cc-a38f-572258e7207f","system_id":"levelo_inurba_marseille","lat":43.31122,"lon":5.37774,"is_reserved":false,"is_disabled":false,"rental_uris":{"android":"levelo://app?vid=da1adf6b-e342-42cc-a38f-572258e7207f","ios":"levelo://app?vid=da1adf6b-e342-42cc-a38f-572258e7207f"},"vehicle_type_id":"4","last_reported":1702681630,"current_range_meters":24000,"station_id":"ce4bgt92rcd13ifvqcg0","pricing_plan_id":"free"},{"bike_id":"1cac14e1-4099-455b-ab55-73d699c3e506","system_id":"levelo_inurba_marseille","lat":43.307945,"lon":5.376487,"is_reserved":false,"is_disabled":false,"rental_uris":{"android":"levelo://app?vid=1cac14e1-4099-455b-ab55-73d699c3e506","ios":"levelo://app?vid=1cac14e1-4099-455b-ab55-73d699c3e506"},"vehicle_type_id":"4","last_reported":1702681630,"current_range_meters":20800,"station_id":"ce4bgv92rcd13ifvqcq0","pricing_plan_id":"free"},{"bike_id":"06a2b8ec-4516-47cb-8f32-5a7996493b2d","system_id":"levelo_inurba_marseille","lat":43.317075,"lon":5.377367,"is_reserved":false,"is_disabled":false,"rental_uris":{"android":"levelo://app?vid=06a2b8ec-4516-47cb-8f32-5a7996493b2d","ios":"levelo://app?vid=06a2b8ec-4516-47cb-8f32-5a7996493b2d"},"vehicle_type_id":"4","last_reported":1702681630,"current_range_meters":20800,"station_id":"ce4bgth2rcd13ifvqch0","pricing_plan_id":"free"},{"bike_id":"33858e5b-f48b-40ee-88f1-169fb62afdc9","system_id":"levelo_inurba_marseille","lat":43.315293,"lon":5.380349,"is_reserved":false,"is_disabled":false,"rental_uris":{"android":"levelo://app?vid=33858e5b-f48b-40ee-88f1-169fb62afdc9","ios":"levelo://app?vid=33858e5b-f48b-40ee-88f1-169fb62afdc9"},"vehicle_type_id":"4","last_reported":1702681630,"current_range_meters":22000,"station_id":"ce4bhsp2rcd13ifvqi50","pricing_plan_id":"free"},{"bike_id":"112889bc-8d0f-431d-9767-314715ea602b","system_id":"levelo_inurba_marseille","lat":43.31562,"lon":5.38021,"is_reserved":false,"is_disabled":false,"rental_uris":{"android":"levelo://app?vid=112889bc-8d0f-431d-9767-314715ea602b","ios":"levelo://app?vid=112889bc-8d0f-431d-9767-314715ea602b"},"vehicle_type_id":"4","last_reported":1702681630,"current_range_meters":18800,"station_id":"ce4bhsp2rcd13ifvqi50","pricing_plan_id":"free"},{"bike_id":"268d7a8f-ffed-4eee-ad75-969cf62031fb","system_id":"levelo_inurba_marseille","lat":43.315246,"lon":5.380428,"is_reserved":false,"is_disabled":false,"rental_uris":{"android":"levelo://app?vid=268d7a8f-ffed-4eee-ad75-969cf62031fb","ios":"levelo://app?vid=268d7a8f-ffed-4eee-ad75-969cf62031fb"},"vehicle_type_id":"4","last_reported":1702681630,"current_range_meters":4400,"station_id":"ce4bhsp2rcd13ifvqi50","pricing_plan_id":"free"},{"bike_id":"65826d0e-b14a-42f9-845c-a0276cae60c9","system_id":"levelo_inurba_marseille","lat":43.301939,"lon":5.366286,"is_reserved":false,"is_disabled":false,"rental_uris":{"android":"levelo://app?vid=65826d0e-b14a-42f9-845c-a0276cae60c9","ios":"levelo://app?vid=65826d0e-b14a-42f9-845c-a0276cae60c9"},"vehicle_type_id":"4","last_reported":1702681630,"current_range_meters":31200,"station_id":"ce4bgrh2rcd13ifvqc8g","pricing_plan_id":"free"},{"bike_id":"0dabb10e-c8bf-471f-be60-4e2a207d9703","system_id":"levelo_inurba_marseille","lat":43.301939,"lon":5.366286,"is_reserved":false,"is_disabled":false,"rental_uris":{"android":"levelo://app?vid=0dabb10e-c8bf-471f-be60-4e2a207d9703","ios":"levelo://app?vid=0dabb10e-c8bf-471f-be60-4e2a207d9703"},"vehicle_type_id":"4","last_reported":1702681630,"current_range_meters":9600,"station_id":"ce4bgrh2rcd13ifvqc8g","pricing_plan_id":"free"},{"bike_id":"791d07f6-8807-4871-9e4f-c531446dabc9","system_id":"levelo_inurba_marseille","lat":43.301939,"lon":5.366286,"is_reserved":false,"is_disabled":false,"rental_uris":{"android":"levelo://app?vid=791d07f6-8807-4871-9e4f-c531446dabc9","ios":"levelo://app?vid=791d07f6-8807-4871-9e4f-c531446dabc9"},"vehicle_type_id":"4","last_reported":1702681630,"current_range_meters":12400,"station_id":"ce4bgrh2rcd13ifvqc8g","pricing_plan_id":"free"},{"bike_id":"559959c9-584b-46cd-ac1b-506b7bba72f2","system_id":"levelo_inurba_marseille","lat":43.308012,"lon":5.381511,"is_reserved":false,"is_disabled":false,"rental_uris":{"android":"levelo://app?vid=559959c9-584b-46cd-ac1b-506b7bba72f2","ios":"levelo://app?vid=559959c9-584b-46cd-ac1b-506b7bba72f2"},"vehicle_type_id":"4","last_reported":1702681630,"current_range_meters":23200,"station_id":"ce4bgt12rcd13ifvqce0","pricing_plan_id":"free"},{"bike_id":"e727bf59-f813-48d0-9ce3-6b6a95a2cc6a","system_id":"levelo_inurba_marseille","lat":43.308031,"lon":5.381479,"is_reserved":false,"is_disabled":false,"rental_uris":{"android":"levelo://app?vid=e727bf59-f813-48d0-9ce3-6b6a95a2cc6a","ios":"levelo://app?vid=e727bf59-f813-48d0-9ce3-6b6a95a2cc6a"},"vehicle_type_id":"4","last_reported":1702681630,"current_range_meters":0,"station_id":"ce4bgt12rcd13ifvqce0","pricing_plan_id":"free"},{"bike_id":"2628431f-da41-45b9-bb5b-b864794506d1","system_id":"levelo_inurba_marseille","lat":43.302,"lon":5.3741,"is_reserved":false,"is_disabled":false,"rental_uris":{"android":"levelo://app?vid=2628431f-da41-45b9-bb5b-b864794506d1","ios":"levelo://app?vid=2628431f-da41-45b9-bb5b-b864794506d1"},"vehicle_type_id":"4","last_reported":1702681630,"current_range_meters":10800,"station_id":"","pricing_plan_id":"free"},{"bike_id":"dfe62985-6f65-471f-8bdb-4e96693a7937","system_id":"levelo_inurba_marseille","lat":43.324808,"lon":5.365665,"is_reserved":false,"is_disabled":false,"rental_uris":{"android":"levelo://app?vid=dfe62985-6f65-471f-8bdb-4e96693a7937","ios":"levelo://app?vid=dfe62985-6f65-471f-8bdb-4e96693a7937"},"vehicle_type_id":"4","last_reported":1702681630,"current_range_meters":20800,"station_id":"ce4bhs12rcd13ifvqhvg","pricing_plan_id":"free"},{"bike_id":"5e39cacd-4f47-46aa-b469-20ce9e1ba57c","system_id":"levelo_inurba_marseille","lat":43.3248,"lon":5.36544,"is_reserved":false,"is_disabled":false,"rental_uris":{"android":"levelo://app?vid=5e39cacd-4f47-46aa-b469-20ce9e1ba57c","ios":"levelo://app?vid=5e39cacd-4f47-46aa-b469-20ce9e1ba57c"},"vehicle_type_id":"4","last_reported":1702681630,"current_range_meters":4400,"station_id":"ce4bhs12rcd13ifvqhvg","pricing_plan_id":"free"},{"bike_id":"88f7ea2a-62f7-4a88-9e9d-900940b4d7e5","system_id":"levelo_inurba_marseille","lat":43.3248,"lon":5.36542,"is_reserved":false,"is_disabled":false,"rental_uris":{"android":"levelo://app?vid=88f7ea2a-62f7-4a88-9e9d-900940b4d7e5","ios":"levelo://app?vid=88f7ea2a-62f7-4a88-9e9d-900940b4d7e5"},"vehicle_type_id":"4","last_reported":1702681630,"current_range_meters":18800,"station_id":"ce4bhs12rcd13ifvqhvg","pricing_plan_id":"free"},{"bike_id":"f1cde3ff-6cd4-4e86-99bc-06e7a73fc0a0","system_id":"levelo_inurba_marseille","lat":43.324771,"lon":5.36557,"is_reserved":false,"is_disabled":false,"rental_uris":{"android":"levelo://app?vid=f1cde3ff-6cd4-4e86-99bc-06e7a73fc0a0","ios":"levelo://app?vid=f1cde3ff-6cd4-4e86-99bc-06e7a73fc0a0"},"vehicle_type_id":"4","last_reported":1702681630,"current_range_meters":20000,"station_id":"ce4bhs12rcd13ifvqhvg","pricing_plan_id":"free"},{"bike_id":"0489678c-92e8-4d93-be4e-5d62e316fee5","system_id":"levelo_inurba_marseille","lat":43.313571,"lon":5.384829,"is_reserved":false,"is_disabled":false,"rental_uris":{"android":"levelo://app?vid=0489678c-92e8-4d93-be4e-5d62e316fee5","ios":"levelo://app?vid=0489678c-92e8-4d93-be4e-5d62e316fee5"},"vehicle_type_id":"4","last_reported":1702681630,"current_range_meters":1200,"station_id":"ce4bgt92rcd13ifvqcf0","pricing_plan_id":"free"},{"bike_id":"d8805a15-0176-43d0-874f-954d8a729e99","system_id":"levelo_inurba_marseille","lat":43.313571,"lon":5.384829,"is_reserved":false,"is_disabled":false,"rental_uris":{"android":"levelo://app?vid=d8805a15-0176-43d0-874f-954d8a729e99","ios":"levelo://app?vid=d8805a15-0176-43d0-874f-954d8a729e99"},"vehicle_type_id":"4","last_reported":1702681630,"current_range_meters":20000,"station_id":"ce4bgt92rcd13ifvqcf0","pricing_plan_id":"free"},{"bike_id":"3a981fd6-72c7-4d26-be2f-f18e5e8dc7e2","system_id":"levelo_inurba_marseille","lat":43.313571,"lon":5.384829,"is_reserved":false,"is_disabled":false,"rental_uris":{"android":"levelo://app?vid=3a981fd6-72c7-4d26-be2f-f18e5e8dc7e2","ios":"levelo://app?vid=3a981fd6-72c7-4d26-be2f-f18e5e8dc7e2"},"vehicle_type_id":"4","last_reported":1702681630,"current_range_meters":19200,"station_id":"ce4bgt92rcd13ifvqcf0","pricing_plan_id":"free"},{"bike_id":"a34d6199-7f4b-48ff-b87b-b49cf1ee7042","system_id":"levelo_inurba_marseille","lat":43.313571,"lon":5.384829,"is_reserved":false,"is_disabled":false,"rental_uris":{"android":"levelo://app?vid=a34d6199-7f4b-48ff-b87b-b49cf1ee7042","ios":"levelo://app?vid=a34d6199-7f4b-48ff-b87b-b49cf1ee7042"},"vehicle_type_id":"4","last_reported":1702681630,"current_range_meters":14800,"station_id":"ce4bgt92rcd13ifvqcf0","pricing_plan_id":"free"},{"bike_id":"2716ecf2-2796-49fc-8310-074102d61e52","system_id":"levelo_inurba_marseille","lat":43.313571,"lon":5.384829,"is_reserved":false,"is_disabled":false,"rental_uris":{"android":"levelo://app?vid=2716ecf2-2796-49fc-8310-074102d61e52","ios":"levelo://app?vid=2716ecf2-2796-49fc-8310-074102d61e52"},"vehicle_type_id":"4","last_reported":1702681630,"current_range_meters":18400,"station_id":"ce4bgt92rcd13ifvqcf0","pricing_plan_id":"free"},{"bike_id":"14e5b30a-8dbf-4e5c-a8b7-2bc8f774c045","system_id":"levelo_inurba_marseille","lat":43.313571,"lon":5.384829,"is_reserved":false,"is_disabled":false,"rental_uris":{"android":"levelo://app?vid=14e5b30a-8dbf-4e5c-a8b7-2bc8f774c045","ios":"levelo://app?vid=14e5b30a-8dbf-4e5c-a8b7-2bc8f774c045"},"vehicle_type_id":"4","last_reported":1702681630,"current_range_meters":21200,"station_id":"ce4bgt92rcd13ifvqcf0","pricing_plan_id":"free"},{"bike_id":"1a8f807f-2904-44e0-ae1e-06fdb220e78a","system_id":"levelo_inurba_marseille","lat":43.313571,"lon":5.384829,"is_reserved":false,"is_disabled":false,"rental_uris":{"android":"levelo://app?vid=1a8f807f-2904-44e0-ae1e-06fdb220e78a","ios":"levelo://app?vid=1a8f807f-2904-44e0-ae1e-06fdb220e78a"},"vehicle_type_id":"4","last_reported":1702681630,"current_range_meters":800,"station_id":"ce4bgt92rcd13ifvqcf0","pricing_plan_id":"free"},{"bike_id":"4cfeee5c-a63d-4ec0-b4ff-b5cc74f4f508","system_id":"levelo_inurba_marseille","lat":43.313024,"lon":5.386187,"is_reserved":false,"is_disabled":false,"rental_uris":{"android":"levelo://app?vid=4cfeee5c-a63d-4ec0-b4ff-b5cc74f4f508","ios":"levelo://app?vid=4cfeee5c-a63d-4ec0-b4ff-b5cc74f4f508"},"vehicle_type_id":"4","last_reported":1702681630,"current_range_meters":0,"station_id":"","pricing_plan_id":"free"},{"bike_id":"c4e77394-aef9-4077-b745-e99148625344","system_id":"levelo_inurba_marseille","lat":43.32733,"lon":5.36707,"is_reserved":false,"is_disabled":false,"rental_uris":{"android":"levelo://app?vid=c4e77394-aef9-4077-b745-e99148625344","ios":"levelo://app?vid=c4e77394-aef9-4077-b745-e99148625344"},"vehicle_type_id":"4","last_reported":1702681630,"current_range_meters":24800,"station_id":"","pricing_plan_id":"free"},{"bike_id":"819cb438-2e9c-4e0b-902b-5e19ef554d5c","system_id":"levelo_inurba_marseille","lat":43.305505,"lon":5.38436,"is_reserved":false,"is_disabled":false,"rental_uris":{"android":"levelo://app?vid=819cb438-2e9c-4e0b-902b-5e19ef554d5c","ios":"levelo://app?vid=819cb438-2e9c-4e0b-902b-5e19ef554d5c"},"vehicle_type_id":"4","last_reported":1702681630,"current_range_meters":19200,"station_id":"ce4bgg92rcd13ifvqb30","pricing_plan_id":"free"},{"bike_id":"9e05ba97-620f-49d2-ba19-f8bdd58de13a","system_id":"levelo_inurba_marseille","lat":43.299243,"lon":5.374807,"is_reserved":false,"is_disabled":false,"rental_uris":{"android":"levelo://app?vid=9e05ba97-620f-49d2-ba19-f8bdd58de13a","ios":"levelo://app?vid=9e05ba97-620f-49d2-ba19-f8bdd58de13a"},"vehicle_type_id":"4","last_reported":1702681630,"current_range_meters":23200,"station_id":"ce4bgjh2rcd13ifvqbg0","pricing_plan_id":"free"},{"bike_id":"276c7f7b-d0d0-4a35-bc22-b898142981fc","system_id":"levelo_inurba_marseille","lat":43.311722,"lon":5.387247,"is_reserved":false,"is_disabled":false,"rental_uris":{"android":"levelo://app?vid=276c7f7b-d0d0-4a35-bc22-b898142981fc","ios":"levelo://app?vid=276c7f7b-d0d0-4a35-bc22-b898142981fc"},"vehicle_type_id":"4","last_reported":1702681630,"current_range_meters":26800,"station_id":"ce4bgv12rcd13ifvqcp0","pricing_plan_id":"free"},{"bike_id":"39924610-9d2d-4317-8ba3-1e461af1ed0a","system_id":"levelo_inurba_marseille","lat":43.311722,"lon":5.387247,"is_reserved":false,"is_disabled":false,"rental_uris":{"android":"levelo://app?vid=39924610-9d2d-4317-8ba3-1e461af1ed0a","ios":"levelo://app?vid=39924610-9d2d-4317-8ba3-1e461af1ed0a"},"vehicle_type_id":"4","last_reported":1702681630,"current_range_meters":30400,"station_id":"ce4bgv12rcd13ifvqcp0","pricing_plan_id":"free"},{"bike_id":"cb559df9-b405-48a1-9eb4-7367463ff55c","system_id":"levelo_inurba_marseille","lat":43.32299,"lon":5.3828,"is_reserved":false,"is_disabled":false,"rental_uris":{"android":"levelo://app?vid=cb559df9-b405-48a1-9eb4-7367463ff55c","ios":"levelo://app?vid=cb559df9-b405-48a1-9eb4-7367463ff55c"},"vehicle_type_id":"4","last_reported":1702681630,"current_range_meters":5200,"station_id":"ce4bhr12rcd13ifvqhqg","pricing_plan_id":"free"},{"bike_id":"ff3c1fbe-c05f-4ff4-ad25-569fb49190dd","system_id":"levelo_inurba_marseille","lat":43.295837,"lon":5.367825,"is_reserved":false,"is_disabled":false,"rental_uris":{"android":"levelo://app?vid=ff3c1fbe-c05f-4ff4-ad25-569fb49190dd","ios":"levelo://app?vid=ff3c1fbe-c05f-4ff4-ad25-569fb49190dd"},"vehicle_type_id":"4","last_reported":1702681630,"current_range_meters":4400,"station_id":"","pricing_plan_id":"free"},{"bike_id":"06524a9d-5090-4114-b978-ddecf3d7aa59","system_id":"levelo_inurba_marseille","lat":43.296935,"lon":5.376544,"is_reserved":false,"is_disabled":false,"rental_uris":{"android":"levelo://app?vid=06524a9d-5090-4114-b978-ddecf3d7aa59","ios":"levelo://app?vid=06524a9d-5090-4114-b978-ddecf3d7aa59"},"vehicle_type_id":"4","last_reported":1702681630,"current_range_meters":3600,"station_id":"ce4bgkh2rcd13ifvqbl0","pricing_plan_id":"free"},{"bike_id":"579457de-4eff-470f-a749-f449146fe281","system_id":"levelo_inurba_marseille","lat":43.296935,"lon":5.376544,"is_reserved":false,"is_disabled":false,"rental_uris":{"android":"levelo://app?vid=579457de-4eff-470f-a749-f449146fe281","ios":"levelo://app?vid=579457de-4eff-470f-a749-f449146fe281"},"vehicle_type_id":"4","last_reported":1702681630,"current_range_meters":13600,"station_id":"ce4bgkh2rcd13ifvqbl0","pricing_plan_id":"free"},{"bike_id":"e2389349-fa31-46d8-8957-bc31dd0766d8","system_id":"levelo_inurba_marseille","lat":43.296921,"lon":5.376579,"is_reserved":false,"is_disabled":false,"rental_uris":{"android":"levelo://app?vid=e2389349-fa31-46d8-8957-bc31dd0766d8","ios":"levelo://app?vid=e2389349-fa31-46d8-8957-bc31dd0766d8"},"vehicle_type_id":"4","last_reported":1702681630,"current_range_meters":0,"station_id":"ce4bgkh2rcd13ifvqbl0","pricing_plan_id":"free"},{"bike_id":"c4bf1902-9742-4c42-ae40-5716e87cf84c","system_id":"levelo_inurba_marseille","lat":43.304274,"lon":5.388873,"is_reserved":false,"is_disabled":false,"rental_uris":{"android":"levelo://app?vid=c4bf1902-9742-4c42-ae40-5716e87cf84c","ios":"levelo://app?vid=c4bf1902-9742-4c42-ae40-5716e87cf84c"},"vehicle_type_id":"4","last_reported":1702681630,"current_range_meters":6000,"station_id":"ce4bgk12rcd13ifvqbi0","pricing_plan_id":"free"},{"bike_id":"5cb514dd-424a-4046-9715-8c63d713d70e","system_id":"levelo_inurba_marseille","lat":43.304274,"lon":5.388873,"is_reserved":false,"is_disabled":false,"rental_uris":{"android":"levelo://app?vid=5cb514dd-424a-4046-9715-8c63d713d70e","ios":"levelo://app?vid=5cb514dd-424a-4046-9715-8c63d713d70e"},"vehicle_type_id":"4","last_reported":1702681630,"current_range_meters":22400,"station_id":"ce4bgk12rcd13ifvqbi0","pricing_plan_id":"free"},{"bike_id":"84608f13-5306-40f2-9a20-cc84b7b2c281","system_id":"levelo_inurba_marseille","lat":43.295748,"lon":5.37522,"is_reserved":false,"is_disabled":false,"rental_uris":{"android":"levelo://app?vid=84608f13-5306-40f2-9a20-cc84b7b2c281","ios":"levelo://app?vid=84608f13-5306-40f2-9a20-cc84b7b2c281"},"vehicle_type_id":"4","last_reported":1702681630,"current_range_meters":0,"station_id":"ce4bgh92rcd13ifvqb50","pricing_plan_id":"free"},{"bike_id":"7e410d51-0ddd-4b09-aa57-ef7c2e26e469","system_id":"levelo_inurba_marseille","lat":43.29978,"lon":5.38484,"is_reserved":false,"is_disabled":false,"rental_uris":{"android":"levelo://app?vid=7e410d51-0ddd-4b09-aa57-ef7c2e26e469","ios":"levelo://app?vid=7e410d51-0ddd-4b09-aa57-ef7c2e26e469"},"vehicle_type_id":"4","last_reported":1702681630,"current_range_meters":1200,"station_id":"ce4bgj92rcd13ifvqbd0","pricing_plan_id":"free"},{"bike_id":"cc3aa331-5ec1-4e87-b479-553bf75586d1","system_id":"levelo_inurba_marseille","lat":43.29602,"lon":5.381084,"is_reserved":false,"is_disabled":false,"rental_uris":{"android":"levelo://app?vid=cc3aa331-5ec1-4e87-b479-553bf75586d1","ios":"levelo://app?vid=cc3aa331-5ec1-4e87-b479-553bf75586d1"},"vehicle_type_id":"4","last_reported":1702681630,"current_range_meters":11200,"station_id":"ce4bgl12rcd13ifvqbo0","pricing_plan_id":"free"},{"bike_id":"a82c1ea9-2db7-40c2-ba0a-ac3cabe4342e","system_id":"levelo_inurba_marseille","lat":43.302992,"lon":5.392136,"is_reserved":false,"is_disabled":false,"rental_uris":{"android":"levelo://app?vid=a82c1ea9-2db7-40c2-ba0a-ac3cabe4342e","ios":"levelo://app?vid=a82c1ea9-2db7-40c2-ba0a-ac3cabe4342e"},"vehicle_type_id":"4","last_reported":1702681630,"current_range_meters":7200,"station_id":"ce4bgkh2rcd13ifvqbk0","pricing_plan_id":"free"},{"bike_id":"ca86c6c4-f263-4ae3-bd85-07aeedb0b3c5","system_id":"levelo_inurba_marseille","lat":43.300852,"lon":5.390859,"is_reserved":false,"is_disabled":false,"rental_uris":{"android":"levelo://app?vid=ca86c6c4-f263-4ae3-bd85-07aeedb0b3c5","ios":"levelo://app?vid=ca86c6c4-f263-4ae3-bd85-07aeedb0b3c5"},"vehicle_type_id":"4","last_reported":1702681630,"current_range_meters":16800,"station_id":"ce4bh192rcd13ifvqdb0","pricing_plan_id":"free"},{"bike_id":"de8c66b2-2e5d-48dd-bc0c-b9b3c02c22b4","system_id":"levelo_inurba_marseille","lat":43.298728,"lon":5.389138,"is_reserved":false,"is_disabled":false,"rental_uris":{"android":"levelo://app?vid=de8c66b2-2e5d-48dd-bc0c-b9b3c02c22b4","ios":"levelo://app?vid=de8c66b2-2e5d-48dd-bc0c-b9b3c02c22b4"},"vehicle_type_id":"4","last_reported":1702681630,"current_range_meters":17600,"station_id":"","pricing_plan_id":"free"},{"bike_id":"01fde0b0-c1f0-4f59-af26-8288eec52bb2","system_id":"levelo_inurba_marseille","lat":43.313291,"lon":5.396838,"is_reserved":false,"is_disabled":false,"rental_uris":{"android":"levelo://app?vid=01fde0b0-c1f0-4f59-af26-8288eec52bb2","ios":"levelo://app?vid=01fde0b0-c1f0-4f59-af26-8288eec52bb2"},"vehicle_type_id":"4","last_reported":1702681630,"current_range_meters":16800,"station_id":"ce4bgvp2rcd13ifvqcu0","pricing_plan_id":"free"},{"bike_id":"54edd6c6-18d6-4ab4-a90d-63fa7d286eb8","system_id":"levelo_inurba_marseille","lat":43.313291,"lon":5.396838,"is_reserved":false,"is_disabled":false,"rental_uris":{"android":"levelo://app?vid=54edd6c6-18d6-4ab4-a90d-63fa7d286eb8","ios":"levelo://app?vid=54edd6c6-18d6-4ab4-a90d-63fa7d286eb8"},"vehicle_type_id":"4","last_reported":1702681630,"current_range_meters":19600,"station_id":"ce4bgvp2rcd13ifvqcu0","pricing_plan_id":"free"},{"bike_id":"13fbc514-e701-4d27-9689-deadb82d14f9","system_id":"levelo_inurba_marseille","lat":43.313291,"lon":5.396838,"is_reserved":false,"is_disabled":false,"rental_uris":{"android":"levelo://app?vid=13fbc514-e701-4d27-9689-deadb82d14f9","ios":"levelo://app?vid=13fbc514-e701-4d27-9689-deadb82d14f9"},"vehicle_type_id":"4","last_reported":1702681630,"current_range_meters":27200,"station_id":"ce4bgvp2rcd13ifvqcu0","pricing_plan_id":"free"},{"bike_id":"19be8206-8276-4789-9069-e9e6632d2bb2","system_id":"levelo_inurba_marseille","lat":43.313291,"lon":5.396838,"is_reserved":false,"is_disabled":false,"rental_uris":{"android":"levelo://app?vid=19be8206-8276-4789-9069-e9e6632d2bb2","ios":"levelo://app?vid=19be8206-8276-4789-9069-e9e6632d2bb2"},"vehicle_type_id":"4","last_reported":1702681630,"current_range_meters":0,"station_id":"ce4bgvp2rcd13ifvqcu0","pricing_plan_id":"free"},{"bike_id":"d6589bf1-53ac-4632-9df9-93fa3c4e523a","system_id":"levelo_inurba_marseille","lat":43.313291,"lon":5.396838,"is_reserved":false,"is_disabled":false,"rental_uris":{"android":"levelo://app?vid=d6589bf1-53ac-4632-9df9-93fa3c4e523a","ios":"levelo://app?vid=d6589bf1-53ac-4632-9df9-93fa3c4e523a"},"vehicle_type_id":"4","last_reported":1702681630,"current_range_meters":29200,"station_id":"ce4bgvp2rcd13ifvqcu0","pricing_plan_id":"free"},{"bike_id":"5d8f4c0a-1894-4784-9947-4c7cec0be9bc","system_id":"levelo_inurba_marseille","lat":43.313291,"lon":5.396838,"is_reserved":false,"is_disabled":false,"rental_uris":{"android":"levelo://app?vid=5d8f4c0a-1894-4784-9947-4c7cec0be9bc","ios":"levelo://app?vid=5d8f4c0a-1894-4784-9947-4c7cec0be9bc"},"vehicle_type_id":"4","last_reported":1702681630,"current_range_meters":23200,"station_id":"ce4bgvp2rcd13ifvqcu0","pricing_plan_id":"free"},{"bike_id":"60187a11-0163-442c-809b-00ec0cffbb70","system_id":"levelo_inurba_marseille","lat":43.313291,"lon":5.396838,"is_reserved":false,"is_disabled":false,"rental_uris":{"android":"levelo://app?vid=60187a11-0163-442c-809b-00ec0cffbb70","ios":"levelo://app?vid=60187a11-0163-442c-809b-00ec0cffbb70"},"vehicle_type_id":"4","last_reported":1702681630,"current_range_meters":20000,"station_id":"ce4bgvp2rcd13ifvqcu0","pricing_plan_id":"free"},{"bike_id":"d195ec21-de91-44fd-a501-11abffbab2cc","system_id":"levelo_inurba_marseille","lat":43.309038,"lon":5.396546,"is_reserved":false,"is_disabled":false,"rental_uris":{"android":"levelo://app?vid=d195ec21-de91-44fd-a501-11abffbab2cc","ios":"levelo://app?vid=d195ec21-de91-44fd-a501-11abffbab2cc"},"vehicle_type_id":"4","last_reported":1702681630,"current_range_meters":8800,"station_id":"ce4bh012rcd13ifvqcv0","pricing_plan_id":"free"},{"bike_id":"3fd5f428-ff9e-4ed4-b416-5b0915e23198","system_id":"levelo_inurba_marseille","lat":43.309038,"lon":5.396546,"is_reserved":false,"is_disabled":false,"rental_uris":{"android":"levelo://app?vid=3fd5f428-ff9e-4ed4-b416-5b0915e23198","ios":"levelo://app?vid=3fd5f428-ff9e-4ed4-b416-5b0915e23198"},"vehicle_type_id":"4","last_reported":1702681630,"current_range_meters":7200,"station_id":"ce4bh012rcd13ifvqcv0","pricing_plan_id":"free"},{"bike_id":"bd3ba144-6dbe-4e0a-b3a6-5acf2e053d44","system_id":"levelo_inurba_marseille","lat":43.313291,"lon":5.396838,"is_reserved":false,"is_disabled":false,"rental_uris":{"android":"levelo://app?vid=bd3ba144-6dbe-4e0a-b3a6-5acf2e053d44","ios":"levelo://app?vid=bd3ba144-6dbe-4e0a-b3a6-5acf2e053d44"},"vehicle_type_id":"4","last_reported":1702681630,"current_range_meters":16000,"station_id":"ce4bgvp2rcd13ifvqcu0","pricing_plan_id":"free"},{"bike_id":"47ca1339-f26c-4a41-a159-0cc3ce30bade","system_id":"levelo_inurba_marseille","lat":43.290779,"lon":5.371482,"is_reserved":false,"is_disabled":false,"rental_uris":{"android":"levelo://app?vid=47ca1339-f26c-4a41-a159-0cc3ce30bade","ios":"levelo://app?vid=47ca1339-f26c-4a41-a159-0cc3ce30bade"},"vehicle_type_id":"4","last_reported":1702681630,"current_range_meters":19600,"station_id":"ce4bh5p2rcd13ifvqe4g","pricing_plan_id":"free"},{"bike_id":"24509102-f34e-4ecb-b511-ead1983310ed","system_id":"levelo_inurba_marseille","lat":43.290779,"lon":5.371482,"is_reserved":false,"is_disabled":false,"rental_uris":{"android":"levelo://app?vid=24509102-f34e-4ecb-b511-ead1983310ed","ios":"levelo://app?vid=24509102-f34e-4ecb-b511-ead1983310ed"},"vehicle_type_id":"4","last_reported":1702681630,"current_range_meters":20800,"station_id":"ce4bh5p2rcd13ifvqe4g","pricing_plan_id":"free"},{"bike_id":"b89f595d-2d54-49ff-9e7e-ee45e41bc76f","system_id":"levelo_inurba_marseille","lat":43.290624,"lon":5.359245,"is_reserved":false,"is_disabled":false,"rental_uris":{"android":"levelo://app?vid=b89f595d-2d54-49ff-9e7e-ee45e41bc76f","ios":"levelo://app?vid=b89f595d-2d54-49ff-9e7e-ee45e41bc76f"},"vehicle_type_id":"4","last_reported":1702681630,"current_range_meters":13200,"station_id":"ce4bha92rcd13ifvqeg0","pricing_plan_id":"free"},{"bike_id":"c90e0a2b-baca-44a3-bdfa-aab0e1f92dd5","system_id":"levelo_inurba_marseille","lat":43.289184,"lon":5.366408,"is_reserved":false,"is_disabled":false,"rental_uris":{"android":"levelo://app?vid=c90e0a2b-baca-44a3-bdfa-aab0e1f92dd5","ios":"levelo://app?vid=c90e0a2b-baca-44a3-bdfa-aab0e1f92dd5"},"vehicle_type_id":"4","last_reported":1702681630,"current_range_meters":7200,"station_id":"ce4bhap2rcd13ifvqek0","pricing_plan_id":"free"},{"bike_id":"a21c32cd-befb-4f18-873f-308403979a78","system_id":"levelo_inurba_marseille","lat":43.28939,"lon":5.36392,"is_reserved":false,"is_disabled":false,"rental_uris":{"android":"levelo://app?vid=a21c32cd-befb-4f18-873f-308403979a78","ios":"levelo://app?vid=a21c32cd-befb-4f18-873f-308403979a78"},"vehicle_type_id":"4","last_reported":1702681630,"current_range_meters":31200,"station_id":"ce4bhc92rcd13ifvqetg","pricing_plan_id":"free"},{"bike_id":"b5358156-bc5d-4caa-b58e-055866dd80d4","system_id":"levelo_inurba_marseille","lat":43.304274,"lon":5.397513,"is_reserved":false,"is_disabled":false,"rental_uris":{"android":"levelo://app?vid=b5358156-bc5d-4caa-b58e-055866dd80d4","ios":"levelo://app?vid=b5358156-bc5d-4caa-b58e-055866dd80d4"},"vehicle_type_id":"4","last_reported":1702681630,"current_range_meters":18000,"station_id":"ce4bh092rcd13ifvqd20","pricing_plan_id":"free"},{"bike_id":"dc785fb1-aea5-42b5-84f5-ca72664e6f92","system_id":"levelo_inurba_marseille","lat":43.290104,"lon":5.356111,"is_reserved":false,"is_disabled":false,"rental_uris":{"android":"levelo://app?vid=dc785fb1-aea5-42b5-84f5-ca72664e6f92","ios":"levelo://app?vid=dc785fb1-aea5-42b5-84f5-ca72664e6f92"},"vehicle_type_id":"4","last_reported":1702681630,"current_range_meters":21600,"station_id":"ce4bhb92rcd13ifvqen0","pricing_plan_id":"free"},{"bike_id":"5304121d-8198-4e7a-a249-5f9e4a7ac877","system_id":"levelo_inurba_marseille","lat":43.290104,"lon":5.356111,"is_reserved":false,"is_disabled":false,"rental_uris":{"android":"levelo://app?vid=5304121d-8198-4e7a-a249-5f9e4a7ac877","ios":"levelo://app?vid=5304121d-8198-4e7a-a249-5f9e4a7ac877"},"vehicle_type_id":"4","last_reported":1702681630,"current_range_meters":2800,"station_id":"ce4bhb92rcd13ifvqen0","pricing_plan_id":"free"},{"bike_id":"d9f8a7c2-05e3-4eb4-b616-91cb11c9167a","system_id":"levelo_inurba_marseille","lat":43.290103,"lon":5.356114,"is_reserved":false,"is_disabled":false,"rental_uris":{"android":"levelo://app?vid=d9f8a7c2-05e3-4eb4-b616-91cb11c9167a","ios":"levelo://app?vid=d9f8a7c2-05e3-4eb4-b616-91cb11c9167a"},"vehicle_type_id":"4","last_reported":1702681630,"current_range_meters":13600,"station_id":"ce4bhb92rcd13ifvqen0","pricing_plan_id":"free"},{"bike_id":"2af1ec1d-db50-4675-b168-902ca134119a","system_id":"levelo_inurba_marseille","lat":43.33042,"lon":5.38922,"is_reserved":false,"is_disabled":false,"rental_uris":{"android":"levelo://app?vid=2af1ec1d-db50-4675-b168-902ca134119a","ios":"levelo://app?vid=2af1ec1d-db50-4675-b168-902ca134119a"},"vehicle_type_id":"4","last_reported":1702681630,"current_range_meters":1200,"station_id":"ce4bhr92rcd13ifvqhrg","pricing_plan_id":"free"},{"bike_id":"324ed16b-0e65-44d9-92bb-e7c55096a710","system_id":"levelo_inurba_marseille","lat":43.29783,"lon":5.39328,"is_reserved":false,"is_disabled":false,"rental_uris":{"android":"levelo://app?vid=324ed16b-0e65-44d9-92bb-e7c55096a710","ios":"levelo://app?vid=324ed16b-0e65-44d9-92bb-e7c55096a710"},"vehicle_type_id":"4","last_reported":1702681630,"current_range_meters":0,"station_id":"chh1huq6cuj3fo74tm60","pricing_plan_id":"free"},{"bike_id":"1e184303-a4e3-46c6-905d-b378dcb8bc9f","system_id":"levelo_inurba_marseille","lat":43.297873,"lon":5.393439,"is_reserved":false,"is_disabled":false,"rental_uris":{"android":"levelo://app?vid=1e184303-a4e3-46c6-905d-b378dcb8bc9f","ios":"levelo://app?vid=1e184303-a4e3-46c6-905d-b378dcb8bc9f"},"vehicle_type_id":"4","last_reported":1702681630,"current_range_meters":28800,"station_id":"chh1huq6cuj3fo74tm60","pricing_plan_id":"free"},{"bike_id":"760eea16-5059-49b9-b5fc-db01f652c3f9","system_id":"levelo_inurba_marseille","lat":43.289741,"lon":5.378306,"is_reserved":false,"is_disabled":false,"rental_uris":{"android":"levelo://app?vid=760eea16-5059-49b9-b5fc-db01f652c3f9","ios":"levelo://app?vid=760eea16-5059-49b9-b5fc-db01f652c3f9"},"vehicle_type_id":"4","last_reported":1702681630,"current_range_meters":29200,"station_id":"ce4bh9p2rcd13ifvqed0","pricing_plan_id":"free"},{"bike_id":"f0eba750-5c74-42f6-927f-a900cc2afeed","system_id":"levelo_inurba_marseille","lat":43.28856,"lon":5.358371,"is_reserved":false,"is_disabled":false,"rental_uris":{"android":"levelo://app?vid=f0eba750-5c74-42f6-927f-a900cc2afeed","ios":"levelo://app?vid=f0eba750-5c74-42f6-927f-a900cc2afeed"},"vehicle_type_id":"4","last_reported":1702681630,"current_range_meters":7600,"station_id":"ce4bhb12rcd13ifvqem0","pricing_plan_id":"free"},{"bike_id":"8dcf865a-12c8-4a6b-9373-be0040651a7a","system_id":"levelo_inurba_marseille","lat":43.28856,"lon":5.35857,"is_reserved":false,"is_disabled":false,"rental_uris":{"android":"levelo://app?vid=8dcf865a-12c8-4a6b-9373-be0040651a7a","ios":"levelo://app?vid=8dcf865a-12c8-4a6b-9373-be0040651a7a"},"vehicle_type_id":"4","last_reported":1702681630,"current_range_meters":18000,"station_id":"ce4bhb12rcd13ifvqem0","pricing_plan_id":"free"},{"bike_id":"388ae4df-7423-4375-a40b-a4c9f6505968","system_id":"levelo_inurba_marseille","lat":43.28853,"lon":5.35853,"is_reserved":false,"is_disabled":false,"rental_uris":{"android":"levelo://app?vid=388ae4df-7423-4375-a40b-a4c9f6505968","ios":"levelo://app?vid=388ae4df-7423-4375-a40b-a4c9f6505968"},"vehicle_type_id":"4","last_reported":1702681630,"current_range_meters":25600,"station_id":"ce4bhb12rcd13ifvqem0","pricing_plan_id":"free"},{"bike_id":"0dcf5090-4b0f-414b-acb3-481366edc992","system_id":"levelo_inurba_marseille","lat":43.28856,"lon":5.358371,"is_reserved":false,"is_disabled":false,"rental_uris":{"android":"levelo://app?vid=0dcf5090-4b0f-414b-acb3-481366edc992","ios":"levelo://app?vid=0dcf5090-4b0f-414b-acb3-481366edc992"},"vehicle_type_id":"4","last_reported":1702681630,"current_range_meters":18400,"station_id":"ce4bhb12rcd13ifvqem0","pricing_plan_id":"free"},{"bike_id":"af17123c-d035-4ce1-a670-8defa6aae126","system_id":"levelo_inurba_marseille","lat":43.28856,"lon":5.358371,"is_reserved":false,"is_disabled":false,"rental_uris":{"android":"levelo://app?vid=af17123c-d035-4ce1-a670-8defa6aae126","ios":"levelo://app?vid=af17123c-d035-4ce1-a670-8defa6aae126"},"vehicle_type_id":"4","last_reported":1702681630,"current_range_meters":4000,"station_id":"ce4bhb12rcd13ifvqem0","pricing_plan_id":"free"},{"bike_id":"04e08174-077d-406e-9800-126d71351cb7","system_id":"levelo_inurba_marseille","lat":43.3093,"lon":5.40135,"is_reserved":false,"is_disabled":false,"rental_uris":{"android":"levelo://app?vid=04e08174-077d-406e-9800-126d71351cb7","ios":"levelo://app?vid=04e08174-077d-406e-9800-126d71351cb7"},"vehicle_type_id":"4","last_reported":1702681630,"current_range_meters":9200,"station_id":"ce4bgvp2rcd13ifvqct0","pricing_plan_id":"free"},{"bike_id":"1b1bd80c-92ec-4f8e-8e80-a125315f4b22","system_id":"levelo_inurba_marseille","lat":43.33746,"lon":5.37433,"is_reserved":false,"is_disabled":false,"rental_uris":{"android":"levelo://app?vid=1b1bd80c-92ec-4f8e-8e80-a125315f4b22","ios":"levelo://app?vid=1b1bd80c-92ec-4f8e-8e80-a125315f4b22"},"vehicle_type_id":"4","last_reported":1702681630,"current_range_meters":7200,"station_id":"","pricing_plan_id":"free"},{"bike_id":"f0cd831c-cfb9-44c7-9487-103b6df223ca","system_id":"levelo_inurba_marseille","lat":43.337445,"lon":5.374592,"is_reserved":false,"is_disabled":false,"rental_uris":{"android":"levelo://app?vid=f0cd831c-cfb9-44c7-9487-103b6df223ca","ios":"levelo://app?vid=f0cd831c-cfb9-44c7-9487-103b6df223ca"},"vehicle_type_id":"4","last_reported":1702681630,"current_range_meters":29600,"station_id":"","pricing_plan_id":"free"},{"bike_id":"fcfcab7f-4388-480b-ad52-213b81be578f","system_id":"levelo_inurba_marseille","lat":43.309371,"lon":5.401449,"is_reserved":false,"is_disabled":false,"rental_uris":{"android":"levelo://app?vid=fcfcab7f-4388-480b-ad52-213b81be578f","ios":"levelo://app?vid=fcfcab7f-4388-480b-ad52-213b81be578f"},"vehicle_type_id":"4","last_reported":1702681630,"current_range_meters":11600,"station_id":"ce4bgvp2rcd13ifvqct0","pricing_plan_id":"free"},{"bike_id":"00e23489-fc45-4f8a-86c0-c57b25f07af9","system_id":"levelo_inurba_marseille","lat":43.31274,"lon":5.40177,"is_reserved":false,"is_disabled":false,"rental_uris":{"android":"levelo://app?vid=00e23489-fc45-4f8a-86c0-c57b25f07af9","ios":"levelo://app?vid=00e23489-fc45-4f8a-86c0-c57b25f07af9"},"vehicle_type_id":"4","last_reported":1702681630,"current_range_meters":23200,"station_id":"ce4bh092rcd13ifvqd30","pricing_plan_id":"free"},{"bike_id":"a15a6f31-d26a-498f-aab0-fad2629bd007","system_id":"levelo_inurba_marseille","lat":43.337535,"lon":5.37446,"is_reserved":false,"is_disabled":false,"rental_uris":{"android":"levelo://app?vid=a15a6f31-d26a-498f-aab0-fad2629bd007","ios":"levelo://app?vid=a15a6f31-d26a-498f-aab0-fad2629bd007"},"vehicle_type_id":"4","last_reported":1702681630,"current_range_meters":800,"station_id":"","pricing_plan_id":"free"},{"bike_id":"2f64123c-bb80-4670-999e-3180720000bb","system_id":"levelo_inurba_marseille","lat":43.30928,"lon":5.40151,"is_reserved":false,"is_disabled":false,"rental_uris":{"android":"levelo://app?vid=2f64123c-bb80-4670-999e-3180720000bb","ios":"levelo://app?vid=2f64123c-bb80-4670-999e-3180720000bb"},"vehicle_type_id":"4","last_reported":1702681630,"current_range_meters":2400,"station_id":"ce4bgvp2rcd13ifvqct0","pricing_plan_id":"free"},{"bike_id":"ef80ceab-dc9f-4b6c-8f52-707d5177f481","system_id":"levelo_inurba_marseille","lat":43.33752,"lon":5.37466,"is_reserved":false,"is_disabled":false,"rental_uris":{"android":"levelo://app?vid=ef80ceab-dc9f-4b6c-8f52-707d5177f481","ios":"levelo://app?vid=ef80ceab-dc9f-4b6c-8f52-707d5177f481"},"vehicle_type_id":"4","last_reported":1702681630,"current_range_meters":30800,"station_id":"","pricing_plan_id":"free"},{"bike_id":"597b3b0d-46be-434c-a32a-d7e9f399292d","system_id":"levelo_inurba_marseille","lat":43.30642,"lon":5.401031,"is_reserved":false,"is_disabled":false,"rental_uris":{"android":"levelo://app?vid=597b3b0d-46be-434c-a32a-d7e9f399292d","ios":"levelo://app?vid=597b3b0d-46be-434c-a32a-d7e9f399292d"},"vehicle_type_id":"4","last_reported":1702681630,"current_range_meters":5600,"station_id":"ce4bh112rcd13ifvqda0","pricing_plan_id":"free"},{"bike_id":"189250a1-5934-47cd-aa3d-01791d59bc97","system_id":"levelo_inurba_marseille","lat":43.306412,"lon":5.401035,"is_reserved":false,"is_disabled":false,"rental_uris":{"android":"levelo://app?vid=189250a1-5934-47cd-aa3d-01791d59bc97","ios":"levelo://app?vid=189250a1-5934-47cd-aa3d-01791d59bc97"},"vehicle_type_id":"4","last_reported":1702681630,"current_range_meters":24400,"station_id":"ce4bh112rcd13ifvqda0","pricing_plan_id":"free"},{"bike_id":"f393cc08-b52f-4486-8abc-d4e8aa707b34","system_id":"levelo_inurba_marseille","lat":43.30642,"lon":5.401031,"is_reserved":false,"is_disabled":false,"rental_uris":{"android":"levelo://app?vid=f393cc08-b52f-4486-8abc-d4e8aa707b34","ios":"levelo://app?vid=f393cc08-b52f-4486-8abc-d4e8aa707b34"},"vehicle_type_id":"4","last_reported":1702681630,"current_range_meters":9200,"station_id":"ce4bh112rcd13ifvqda0","pricing_plan_id":"free"},{"bike_id":"c2896d5f-fb99-49ba-ad74-87bbd813e6d8","system_id":"levelo_inurba_marseille","lat":43.306412,"lon":5.401035,"is_reserved":false,"is_disabled":false,"rental_uris":{"android":"levelo://app?vid=c2896d5f-fb99-49ba-ad74-87bbd813e6d8","ios":"levelo://app?vid=c2896d5f-fb99-49ba-ad74-87bbd813e6d8"},"vehicle_type_id":"4","last_reported":1702681630,"current_range_meters":3600,"station_id":"ce4bh112rcd13ifvqda0","pricing_plan_id":"free"},{"bike_id":"9e5231e6-9497-41e6-bfd0-a7d79b8fad43","system_id":"levelo_inurba_marseille","lat":43.337603,"lon":5.374494,"is_reserved":false,"is_disabled":false,"rental_uris":{"android":"levelo://app?vid=9e5231e6-9497-41e6-bfd0-a7d79b8fad43","ios":"levelo://app?vid=9e5231e6-9497-41e6-bfd0-a7d79b8fad43"},"vehicle_type_id":"4","last_reported":1702681630,"current_range_meters":27600,"station_id":"","pricing_plan_id":"free"},{"bike_id":"811eac48-7c36-4ce9-9a27-879aa1e1514e","system_id":"levelo_inurba_marseille","lat":43.33762,"lon":5.374476,"is_reserved":false,"is_disabled":false,"rental_uris":{"android":"levelo://app?vid=811eac48-7c36-4ce9-9a27-879aa1e1514e","ios":"levelo://app?vid=811eac48-7c36-4ce9-9a27-879aa1e1514e"},"vehicle_type_id":"4","last_reported":1702681630,"current_range_meters":28000,"station_id":"","pricing_plan_id":"free"},{"bike_id":"930bba3a-4350-44cf-bb9b-310a6cbdb5ef","system_id":"levelo_inurba_marseille","lat":43.337625,"lon":5.374818,"is_reserved":false,"is_disabled":false,"rental_uris":{"android":"levelo://app?vid=930bba3a-4350-44cf-bb9b-310a6cbdb5ef","ios":"levelo://app?vid=930bba3a-4350-44cf-bb9b-310a6cbdb5ef"},"vehicle_type_id":"4","last_reported":1702681630,"current_range_meters":26800,"station_id":"","pricing_plan_id":"free"},{"bike_id":"e641768d-59e6-4ace-a5a2-4bfc5ecea5d6","system_id":"levelo_inurba_marseille","lat":43.28727,"lon":5.36078,"is_reserved":false,"is_disabled":false,"rental_uris":{"android":"levelo://app?vid=e641768d-59e6-4ace-a5a2-4bfc5ecea5d6","ios":"levelo://app?vid=e641768d-59e6-4ace-a5a2-4bfc5ecea5d6"},"vehicle_type_id":"4","last_reported":1702681630,"current_range_meters":26400,"station_id":"cki0cbj6b192h4jlfktg","pricing_plan_id":"free"},{"bike_id":"5b064d55-a67d-47b6-bd0f-597d60f0cc0e","system_id":"levelo_inurba_marseille","lat":43.28727,"lon":5.36078,"is_reserved":false,"is_disabled":false,"rental_uris":{"android":"levelo://app?vid=5b064d55-a67d-47b6-bd0f-597d60f0cc0e","ios":"levelo://app?vid=5b064d55-a67d-47b6-bd0f-597d60f0cc0e"},"vehicle_type_id":"4","last_reported":1702681630,"current_range_meters":17200,"station_id":"cki0cbj6b192h4jlfktg","pricing_plan_id":"free"},{"bike_id":"57878004-a3cf-48ee-bb7d-e268bf123b38","system_id":"levelo_inurba_marseille","lat":43.28727,"lon":5.36078,"is_reserved":false,"is_disabled":false,"rental_uris":{"android":"levelo://app?vid=57878004-a3cf-48ee-bb7d-e268bf123b38","ios":"levelo://app?vid=57878004-a3cf-48ee-bb7d-e268bf123b38"},"vehicle_type_id":"4","last_reported":1702681630,"current_range_meters":29200,"station_id":"cki0cbj6b192h4jlfktg","pricing_plan_id":"free"},{"bike_id":"ec6bd325-be48-4a78-8430-67dc73130e17","system_id":"levelo_inurba_marseille","lat":43.298681,"lon":5.397225,"is_reserved":false,"is_disabled":false,"rental_uris":{"android":"levelo://app?vid=ec6bd325-be48-4a78-8430-67dc73130e17","ios":"levelo://app?vid=ec6bd325-be48-4a78-8430-67dc73130e17"},"vehicle_type_id":"4","last_reported":1702681630,"current_range_meters":21200,"station_id":"ce4bh0h2rcd13ifvqd50","pricing_plan_id":"free"},{"bike_id":"0c35b1f1-7714-4364-9a06-6054e8dd8882","system_id":"levelo_inurba_marseille","lat":43.298681,"lon":5.397225,"is_reserved":false,"is_disabled":false,"rental_uris":{"android":"levelo://app?vid=0c35b1f1-7714-4364-9a06-6054e8dd8882","ios":"levelo://app?vid=0c35b1f1-7714-4364-9a06-6054e8dd8882"},"vehicle_type_id":"4","last_reported":1702681630,"current_range_meters":12000,"station_id":"ce4bh0h2rcd13ifvqd50","pricing_plan_id":"free"},{"bike_id":"8822d33b-3a04-4b65-840a-d3eb4134ca21","system_id":"levelo_inurba_marseille","lat":43.286591,"lon":5.363346,"is_reserved":false,"is_disabled":false,"rental_uris":{"android":"levelo://app?vid=8822d33b-3a04-4b65-840a-d3eb4134ca21","ios":"levelo://app?vid=8822d33b-3a04-4b65-840a-d3eb4134ca21"},"vehicle_type_id":"4","last_reported":1702681630,"current_range_meters":28800,"station_id":"ce4bhah2rcd13ifvqej0","pricing_plan_id":"free"},{"bike_id":"27f44d2b-d902-4b43-83e5-01a1aba4ce29","system_id":"levelo_inurba_marseille","lat":43.295196,"lon":5.39397,"is_reserved":false,"is_disabled":false,"rental_uris":{"android":"levelo://app?vid=27f44d2b-d902-4b43-83e5-01a1aba4ce29","ios":"levelo://app?vid=27f44d2b-d902-4b43-83e5-01a1aba4ce29"},"vehicle_type_id":"4","last_reported":1702681630,"current_range_meters":3600,"station_id":"ce4bh292rcd13ifvqdf0","pricing_plan_id":"free"},{"bike_id":"695c4cad-9009-415d-94ad-6238e965024d","system_id":"levelo_inurba_marseille","lat":43.298681,"lon":5.397225,"is_reserved":false,"is_disabled":false,"rental_uris":{"android":"levelo://app?vid=695c4cad-9009-415d-94ad-6238e965024d","ios":"levelo://app?vid=695c4cad-9009-415d-94ad-6238e965024d"},"vehicle_type_id":"4","last_reported":1702681630,"current_range_meters":14400,"station_id":"ce4bh0h2rcd13ifvqd50","pricing_plan_id":"free"},{"bike_id":"5951de82-88b5-4ed7-882d-032cad74d16b","system_id":"levelo_inurba_marseille","lat":43.295194,"lon":5.39397,"is_reserved":false,"is_disabled":false,"rental_uris":{"android":"levelo://app?vid=5951de82-88b5-4ed7-882d-032cad74d16b","ios":"levelo://app?vid=5951de82-88b5-4ed7-882d-032cad74d16b"},"vehicle_type_id":"4","last_reported":1702681630,"current_range_meters":29200,"station_id":"ce4bh292rcd13ifvqdf0","pricing_plan_id":"free"},{"bike_id":"76893ee2-668c-4f13-b195-bc2f8a4fafd1","system_id":"levelo_inurba_marseille","lat":43.286961,"lon":5.373785,"is_reserved":false,"is_disabled":false,"rental_uris":{"android":"levelo://app?vid=76893ee2-668c-4f13-b195-bc2f8a4fafd1","ios":"levelo://app?vid=76893ee2-668c-4f13-b195-bc2f8a4fafd1"},"vehicle_type_id":"4","last_reported":1702681630,"current_range_meters":23600,"station_id":"ce4bh3p2rcd13ifvqdq0","pricing_plan_id":"free"},{"bike_id":"bc1e6325-cf38-46d0-9802-552410a7c983","system_id":"levelo_inurba_marseille","lat":43.295196,"lon":5.39397,"is_reserved":false,"is_disabled":false,"rental_uris":{"android":"levelo://app?vid=bc1e6325-cf38-46d0-9802-552410a7c983","ios":"levelo://app?vid=bc1e6325-cf38-46d0-9802-552410a7c983"},"vehicle_type_id":"4","last_reported":1702681630,"current_range_meters":13200,"station_id":"ce4bh292rcd13ifvqdf0","pricing_plan_id":"free"},{"bike_id":"1b604e8e-1e44-44b6-acab-672a198b82a8","system_id":"levelo_inurba_marseille","lat":43.295132,"lon":5.394093,"is_reserved":false,"is_disabled":false,"rental_uris":{"android":"levelo://app?vid=1b604e8e-1e44-44b6-acab-672a198b82a8","ios":"levelo://app?vid=1b604e8e-1e44-44b6-acab-672a198b82a8"},"vehicle_type_id":"4","last_reported":1702681630,"current_range_meters":0,"station_id":"ce4bh292rcd13ifvqdf0","pricing_plan_id":"free"},{"bike_id":"46937d05-36c2-495a-9b30-7603f646a5e5","system_id":"levelo_inurba_marseille","lat":43.30754,"lon":5.40273,"is_reserved":false,"is_disabled":false,"rental_uris":{"android":"levelo://app?vid=46937d05-36c2-495a-9b30-7603f646a5e5","ios":"levelo://app?vid=46937d05-36c2-495a-9b30-7603f646a5e5"},"vehicle_type_id":"4","last_reported":1702681630,"current_range_meters":16400,"station_id":"","pricing_plan_id":"free"},{"bike_id":"719cc636-2d64-40a1-82b5-69cb951e3cd2","system_id":"levelo_inurba_marseille","lat":43.302759,"lon":5.400793,"is_reserved":false,"is_disabled":false,"rental_uris":{"android":"levelo://app?vid=719cc636-2d64-40a1-82b5-69cb951e3cd2","ios":"levelo://app?vid=719cc636-2d64-40a1-82b5-69cb951e3cd2"},"vehicle_type_id":"4","last_reported":1702681630,"current_range_meters":7600,"station_id":"ce4bgvh2rcd13ifvqcs0","pricing_plan_id":"free"},{"bike_id":"246d5fa5-c550-48ea-a6ec-41b624ab5d9f","system_id":"levelo_inurba_marseille","lat":43.286039,"lon":5.370679,"is_reserved":false,"is_disabled":false,"rental_uris":{"android":"levelo://app?vid=246d5fa5-c550-48ea-a6ec-41b624ab5d9f","ios":"levelo://app?vid=246d5fa5-c550-48ea-a6ec-41b624ab5d9f"},"vehicle_type_id":"4","last_reported":1702681630,"current_range_meters":3200,"station_id":"ce4bht12rcd13ifvqi60","pricing_plan_id":"free"},{"bike_id":"9f65235a-80bb-4691-b79d-9988ede6f89d","system_id":"levelo_inurba_marseille","lat":43.287185,"lon":5.379373,"is_reserved":false,"is_disabled":false,"rental_uris":{"android":"levelo://app?vid=9f65235a-80bb-4691-b79d-9988ede6f89d","ios":"levelo://app?vid=9f65235a-80bb-4691-b79d-9988ede6f89d"},"vehicle_type_id":"4","last_reported":1702681630,"current_range_meters":16000,"station_id":"ce4bh9p2rcd13ifvqec0","pricing_plan_id":"free"},{"bike_id":"15e43c5c-45e9-4cf0-8cb1-213ee8167c83","system_id":"levelo_inurba_marseille","lat":43.31703,"lon":5.40469,"is_reserved":false,"is_disabled":false,"rental_uris":{"android":"levelo://app?vid=15e43c5c-45e9-4cf0-8cb1-213ee8167c83","ios":"levelo://app?vid=15e43c5c-45e9-4cf0-8cb1-213ee8167c83"},"vehicle_type_id":"4","last_reported":1702681630,"current_range_meters":4400,"station_id":"ce4bh012rcd13ifvqd00","pricing_plan_id":"free"},{"bike_id":"1c71bab1-da10-412c-a58a-919cf52a8adc","system_id":"levelo_inurba_marseille","lat":43.291994,"lon":5.392907,"is_reserved":false,"is_disabled":false,"rental_uris":{"android":"levelo://app?vid=1c71bab1-da10-412c-a58a-919cf52a8adc","ios":"levelo://app?vid=1c71bab1-da10-412c-a58a-919cf52a8adc"},"vehicle_type_id":"4","last_reported":1702681630,"current_range_meters":29200,"station_id":"ce4bh192rcd13ifvqdd0","pricing_plan_id":"free"},{"bike_id":"693c88ac-fe5b-4c68-9d31-ba5d72c7ce58","system_id":"levelo_inurba_marseille","lat":43.284534,"lon":5.358662,"is_reserved":false,"is_disabled":false,"rental_uris":{"android":"levelo://app?vid=693c88ac-fe5b-4c68-9d31-ba5d72c7ce58","ios":"levelo://app?vid=693c88ac-fe5b-4c68-9d31-ba5d72c7ce58"},"vehicle_type_id":"4","last_reported":1702681630,"current_range_meters":29600,"station_id":"ce4bhah2rcd13ifvqei0","pricing_plan_id":"free"},{"bike_id":"def2f4d8-e5e4-4528-a78a-c4fc2d95161d","system_id":"levelo_inurba_marseille","lat":43.294314,"lon":5.397498,"is_reserved":false,"is_disabled":false,"rental_uris":{"android":"levelo://app?vid=def2f4d8-e5e4-4528-a78a-c4fc2d95161d","ios":"levelo://app?vid=def2f4d8-e5e4-4528-a78a-c4fc2d95161d"},"vehicle_type_id":"4","last_reported":1702681630,"current_range_meters":24400,"station_id":"ce4bh3h2rcd13ifvqdo0","pricing_plan_id":"free"},{"bike_id":"6b74ac84-da79-4e7a-af5c-a5665b3a84aa","system_id":"levelo_inurba_marseille","lat":43.294314,"lon":5.397498,"is_reserved":false,"is_disabled":false,"rental_uris":{"android":"levelo://app?vid=6b74ac84-da79-4e7a-af5c-a5665b3a84aa","ios":"levelo://app?vid=6b74ac84-da79-4e7a-af5c-a5665b3a84aa"},"vehicle_type_id":"4","last_reported":1702681630,"current_range_meters":29200,"station_id":"ce4bh3h2rcd13ifvqdo0","pricing_plan_id":"free"},{"bike_id":"151faa8f-15eb-4ba8-9717-304010bb1317","system_id":"levelo_inurba_marseille","lat":43.28425,"lon":5.37506,"is_reserved":false,"is_disabled":false,"rental_uris":{"android":"levelo://app?vid=151faa8f-15eb-4ba8-9717-304010bb1317","ios":"levelo://app?vid=151faa8f-15eb-4ba8-9717-304010bb1317"},"vehicle_type_id":"4","last_reported":1702681630,"current_range_meters":23600,"station_id":"ce4bh412rcd13ifvqds0","pricing_plan_id":"free"},{"bike_id":"fe845fe4-140a-4b9c-85cc-d36478898767","system_id":"levelo_inurba_marseille","lat":43.28415,"lon":5.37506,"is_reserved":false,"is_disabled":false,"rental_uris":{"android":"levelo://app?vid=fe845fe4-140a-4b9c-85cc-d36478898767","ios":"levelo://app?vid=fe845fe4-140a-4b9c-85cc-d36478898767"},"vehicle_type_id":"4","last_reported":1702681630,"current_range_meters":2000,"station_id":"ce4bh412rcd13ifvqds0","pricing_plan_id":"free"},{"bike_id":"9e228cb7-66a4-4046-8b02-d31d5c85525f","system_id":"levelo_inurba_marseille","lat":43.283998,"lon":5.375062,"is_reserved":false,"is_disabled":false,"rental_uris":{"android":"levelo://app?vid=9e228cb7-66a4-4046-8b02-d31d5c85525f","ios":"levelo://app?vid=9e228cb7-66a4-4046-8b02-d31d5c85525f"},"vehicle_type_id":"4","last_reported":1702681630,"current_range_meters":30400,"station_id":"ce4bh412rcd13ifvqds0","pricing_plan_id":"free"},{"bike_id":"6b0e3bcf-4148-49ea-81c2-606d4036d533","system_id":"levelo_inurba_marseille","lat":43.283998,"lon":5.375062,"is_reserved":false,"is_disabled":false,"rental_uris":{"android":"levelo://app?vid=6b0e3bcf-4148-49ea-81c2-606d4036d533","ios":"levelo://app?vid=6b0e3bcf-4148-49ea-81c2-606d4036d533"},"vehicle_type_id":"4","last_reported":1702681630,"current_range_meters":11600,"station_id":"ce4bh412rcd13ifvqds0","pricing_plan_id":"free"},{"bike_id":"cfd259a4-25cc-4b61-b4c7-f3a93e752838","system_id":"levelo_inurba_marseille","lat":43.295713,"lon":5.399639,"is_reserved":false,"is_disabled":false,"rental_uris":{"android":"levelo://app?vid=cfd259a4-25cc-4b61-b4c7-f3a93e752838","ios":"levelo://app?vid=cfd259a4-25cc-4b61-b4c7-f3a93e752838"},"vehicle_type_id":"4","last_reported":1702681630,"current_range_meters":28000,"station_id":"ce4bh312rcd13ifvqdj0","pricing_plan_id":"free"},{"bike_id":"b9e4929b-7371-4fec-a5ad-d54849454cfc","system_id":"levelo_inurba_marseille","lat":43.283998,"lon":5.375062,"is_reserved":false,"is_disabled":false,"rental_uris":{"android":"levelo://app?vid=b9e4929b-7371-4fec-a5ad-d54849454cfc","ios":"levelo://app?vid=b9e4929b-7371-4fec-a5ad-d54849454cfc"},"vehicle_type_id":"4","last_reported":1702681630,"current_range_meters":11600,"station_id":"ce4bh412rcd13ifvqds0","pricing_plan_id":"free"},{"bike_id":"cc8914ca-713c-4d62-b29f-1ca442a052fd","system_id":"levelo_inurba_marseille","lat":43.283998,"lon":5.375062,"is_reserved":false,"is_disabled":false,"rental_uris":{"android":"levelo://app?vid=cc8914ca-713c-4d62-b29f-1ca442a052fd","ios":"levelo://app?vid=cc8914ca-713c-4d62-b29f-1ca442a052fd"},"vehicle_type_id":"4","last_reported":1702681630,"current_range_meters":22800,"station_id":"ce4bh412rcd13ifvqds0","pricing_plan_id":"free"},{"bike_id":"16373837-b161-407f-b0fa-3d0f27559010","system_id":"levelo_inurba_marseille","lat":43.323464,"lon":5.406297,"is_reserved":false,"is_disabled":false,"rental_uris":{"android":"levelo://app?vid=16373837-b161-407f-b0fa-3d0f27559010","ios":"levelo://app?vid=16373837-b161-407f-b0fa-3d0f27559010"},"vehicle_type_id":"4","last_reported":1702681630,"current_range_meters":31200,"station_id":"ce4bhq92rcd13ifvqhjg","pricing_plan_id":"free"},{"bike_id":"4e7f35df-b5be-41f8-a088-b359fd0719b0","system_id":"levelo_inurba_marseille","lat":43.323464,"lon":5.406297,"is_reserved":false,"is_disabled":false,"rental_uris":{"android":"levelo://app?vid=4e7f35df-b5be-41f8-a088-b359fd0719b0","ios":"levelo://app?vid=4e7f35df-b5be-41f8-a088-b359fd0719b0"},"vehicle_type_id":"4","last_reported":1702681630,"current_range_meters":25600,"station_id":"ce4bhq92rcd13ifvqhjg","pricing_plan_id":"free"},{"bike_id":"b22f99a0-5e57-479c-b949-1d8846532060","system_id":"levelo_inurba_marseille","lat":43.28857,"lon":5.39314,"is_reserved":false,"is_disabled":false,"rental_uris":{"android":"levelo://app?vid=b22f99a0-5e57-479c-b949-1d8846532060","ios":"levelo://app?vid=b22f99a0-5e57-479c-b949-1d8846532060"},"vehicle_type_id":"4","last_reported":1702681630,"current_range_meters":14800,"station_id":"ce4bh2p2rcd13ifvqdi0","pricing_plan_id":"free"},{"bike_id":"a5bcc557-9f08-4bb4-b052-4b1afb9e13b2","system_id":"levelo_inurba_marseille","lat":43.28845,"lon":5.393053,"is_reserved":false,"is_disabled":false,"rental_uris":{"android":"levelo://app?vid=a5bcc557-9f08-4bb4-b052-4b1afb9e13b2","ios":"levelo://app?vid=a5bcc557-9f08-4bb4-b052-4b1afb9e13b2"},"vehicle_type_id":"4","last_reported":1702681630,"current_range_meters":18000,"station_id":"ce4bh2p2rcd13ifvqdi0","pricing_plan_id":"free"},{"bike_id":"4f76a8da-3cfa-4365-a2b3-e9dbccabd185","system_id":"levelo_inurba_marseille","lat":43.284217,"lon":5.349697,"is_reserved":false,"is_disabled":false,"rental_uris":{"android":"levelo://app?vid=4f76a8da-3cfa-4365-a2b3-e9dbccabd185","ios":"levelo://app?vid=4f76a8da-3cfa-4365-a2b3-e9dbccabd185"},"vehicle_type_id":"4","last_reported":1702681630,"current_range_meters":29600,"station_id":"ce4bhbh2rcd13ifvqepg","pricing_plan_id":"free"},{"bike_id":"48c44323-fc73-4d50-95e2-7fa9f5342cbf","system_id":"levelo_inurba_marseille","lat":43.292724,"lon":5.401131,"is_reserved":false,"is_disabled":false,"rental_uris":{"android":"levelo://app?vid=48c44323-fc73-4d50-95e2-7fa9f5342cbf","ios":"levelo://app?vid=48c44323-fc73-4d50-95e2-7fa9f5342cbf"},"vehicle_type_id":"4","last_reported":1702681630,"current_range_meters":800,"station_id":"ce4bh312rcd13ifvqdk0","pricing_plan_id":"free"},{"bike_id":"15463073-c927-4224-a543-3353096be386","system_id":"levelo_inurba_marseille","lat":43.282782,"lon":5.350665,"is_reserved":false,"is_disabled":false,"rental_uris":{"android":"levelo://app?vid=15463073-c927-4224-a543-3353096be386","ios":"levelo://app?vid=15463073-c927-4224-a543-3353096be386"},"vehicle_type_id":"4","last_reported":1702681630,"current_range_meters":30800,"station_id":"ce4bhbp2rcd13ifvqerg","pricing_plan_id":"free"},{"bike_id":"e943b9ad-6bcc-4c4f-9ab4-4fee9f625e3d","system_id":"levelo_inurba_marseille","lat":43.282754,"lon":5.350519,"is_reserved":false,"is_disabled":false,"rental_uris":{"android":"levelo://app?vid=e943b9ad-6bcc-4c4f-9ab4-4fee9f625e3d","ios":"levelo://app?vid=e943b9ad-6bcc-4c4f-9ab4-4fee9f625e3d"},"vehicle_type_id":"4","last_reported":1702681630,"current_range_meters":11600,"station_id":"ce4bhbp2rcd13ifvqerg","pricing_plan_id":"free"},{"bike_id":"866b9d67-381b-4562-a7ca-4f4f676ccc7e","system_id":"levelo_inurba_marseille","lat":43.280383,"lon":5.369508,"is_reserved":false,"is_disabled":false,"rental_uris":{"android":"levelo://app?vid=866b9d67-381b-4562-a7ca-4f4f676ccc7e","ios":"levelo://app?vid=866b9d67-381b-4562-a7ca-4f4f676ccc7e"},"vehicle_type_id":"4","last_reported":1702681630,"current_range_meters":6000,"station_id":"ce4bha12rcd13ifvqef0","pricing_plan_id":"free"},{"bike_id":"491d167f-3979-4af1-9be9-7840e703d79f","system_id":"levelo_inurba_marseille","lat":43.28036,"lon":5.36938,"is_reserved":false,"is_disabled":false,"rental_uris":{"android":"levelo://app?vid=491d167f-3979-4af1-9be9-7840e703d79f","ios":"levelo://app?vid=491d167f-3979-4af1-9be9-7840e703d79f"},"vehicle_type_id":"4","last_reported":1702681630,"current_range_meters":19200,"station_id":"ce4bha12rcd13ifvqef0","pricing_plan_id":"free"},{"bike_id":"8cc5c416-4ab4-4c4f-a22f-0508774ed150","system_id":"levelo_inurba_marseille","lat":43.280382,"lon":5.369291,"is_reserved":false,"is_disabled":false,"rental_uris":{"android":"levelo://app?vid=8cc5c416-4ab4-4c4f-a22f-0508774ed150","ios":"levelo://app?vid=8cc5c416-4ab4-4c4f-a22f-0508774ed150"},"vehicle_type_id":"4","last_reported":1702681630,"current_range_meters":26000,"station_id":"ce4bha12rcd13ifvqef0","pricing_plan_id":"free"},{"bike_id":"e04d024f-d664-423c-b963-3e21ecbf2e8d","system_id":"levelo_inurba_marseille","lat":43.280341,"lon":5.369436,"is_reserved":false,"is_disabled":false,"rental_uris":{"android":"levelo://app?vid=e04d024f-d664-423c-b963-3e21ecbf2e8d","ios":"levelo://app?vid=e04d024f-d664-423c-b963-3e21ecbf2e8d"},"vehicle_type_id":"4","last_reported":1702681630,"current_range_meters":25200,"station_id":"ce4bha12rcd13ifvqef0","pricing_plan_id":"free"},{"bike_id":"51c67930-0f81-4e81-8ba2-97e5f5bf98b2","system_id":"levelo_inurba_marseille","lat":43.28039,"lon":5.369297,"is_reserved":false,"is_disabled":false,"rental_uris":{"android":"levelo://app?vid=51c67930-0f81-4e81-8ba2-97e5f5bf98b2","ios":"levelo://app?vid=51c67930-0f81-4e81-8ba2-97e5f5bf98b2"},"vehicle_type_id":"4","last_reported":1702681630,"current_range_meters":9600,"station_id":"ce4bha12rcd13ifvqef0","pricing_plan_id":"free"},{"bike_id":"62c32a41-5c85-445e-a62d-27f8a6e615c9","system_id":"levelo_inurba_marseille","lat":43.280382,"lon":5.369291,"is_reserved":false,"is_disabled":false,"rental_uris":{"android":"levelo://app?vid=62c32a41-5c85-445e-a62d-27f8a6e615c9","ios":"levelo://app?vid=62c32a41-5c85-445e-a62d-27f8a6e615c9"},"vehicle_type_id":"4","last_reported":1702681630,"current_range_meters":30400,"station_id":"ce4bha12rcd13ifvqef0","pricing_plan_id":"free"},{"bike_id":"8fb47eb9-d1de-47c3-9a4f-063d68d00739","system_id":"levelo_inurba_marseille","lat":43.280382,"lon":5.369291,"is_reserved":false,"is_disabled":false,"rental_uris":{"android":"levelo://app?vid=8fb47eb9-d1de-47c3-9a4f-063d68d00739","ios":"levelo://app?vid=8fb47eb9-d1de-47c3-9a4f-063d68d00739"},"vehicle_type_id":"4","last_reported":1702681630,"current_range_meters":31600,"station_id":"ce4bha12rcd13ifvqef0","pricing_plan_id":"free"},{"bike_id":"0adde8ec-c4a7-410e-9dab-9e182f2c85bf","system_id":"levelo_inurba_marseille","lat":43.296263,"lon":5.40601,"is_reserved":false,"is_disabled":false,"rental_uris":{"android":"levelo://app?vid=0adde8ec-c4a7-410e-9dab-9e182f2c85bf","ios":"levelo://app?vid=0adde8ec-c4a7-410e-9dab-9e182f2c85bf"},"vehicle_type_id":"4","last_reported":1702681630,"current_range_meters":12400,"station_id":"ce4bh0h2rcd13ifvqd60","pricing_plan_id":"free"},{"bike_id":"e2015528-97be-4ec0-9999-6b9ca8621e44","system_id":"levelo_inurba_marseille","lat":43.285742,"lon":5.395004,"is_reserved":false,"is_disabled":false,"rental_uris":{"android":"levelo://app?vid=e2015528-97be-4ec0-9999-6b9ca8621e44","ios":"levelo://app?vid=e2015528-97be-4ec0-9999-6b9ca8621e44"},"vehicle_type_id":"4","last_reported":1702681630,"current_range_meters":26400,"station_id":"ce4bh292rcd13ifvqdg0","pricing_plan_id":"free"},{"bike_id":"957909a1-8942-42df-be69-e5124932ce4a","system_id":"levelo_inurba_marseille","lat":43.304188,"lon":5.412904,"is_reserved":false,"is_disabled":false,"rental_uris":{"android":"levelo://app?vid=957909a1-8942-42df-be69-e5124932ce4a","ios":"levelo://app?vid=957909a1-8942-42df-be69-e5124932ce4a"},"vehicle_type_id":"4","last_reported":1702681630,"current_range_meters":11600,"station_id":"ce4bhop2rcd13ifvqh8g","pricing_plan_id":"free"},{"bike_id":"cc5bfe55-a9af-48b1-90df-ff1080f280d7","system_id":"levelo_inurba_marseille","lat":43.27921,"lon":5.35334,"is_reserved":false,"is_disabled":false,"rental_uris":{"android":"levelo://app?vid=cc5bfe55-a9af-48b1-90df-ff1080f280d7","ios":"levelo://app?vid=cc5bfe55-a9af-48b1-90df-ff1080f280d7"},"vehicle_type_id":"4","last_reported":1702681630,"current_range_meters":0,"station_id":"","pricing_plan_id":"free"},{"bike_id":"026ae723-500f-4488-9074-1c785625255d","system_id":"levelo_inurba_marseille","lat":43.279087,"lon":5.380114,"is_reserved":false,"is_disabled":false,"rental_uris":{"android":"levelo://app?vid=026ae723-500f-4488-9074-1c785625255d","ios":"levelo://app?vid=026ae723-500f-4488-9074-1c785625255d"},"vehicle_type_id":"4","last_reported":1702681630,"current_range_meters":31200,"station_id":"ce4bhf92rcd13ifvqf50","pricing_plan_id":"free"},{"bike_id":"57b2d028-ae82-425e-bf4a-eb67383244b6","system_id":"levelo_inurba_marseille","lat":43.279087,"lon":5.380114,"is_reserved":false,"is_disabled":false,"rental_uris":{"android":"levelo://app?vid=57b2d028-ae82-425e-bf4a-eb67383244b6","ios":"levelo://app?vid=57b2d028-ae82-425e-bf4a-eb67383244b6"},"vehicle_type_id":"4","last_reported":1702681630,"current_range_meters":25200,"station_id":"ce4bhf92rcd13ifvqf50","pricing_plan_id":"free"},{"bike_id":"223e55c9-9474-4c7f-8795-9c59b605bfd2","system_id":"levelo_inurba_marseille","lat":43.287154,"lon":5.399979,"is_reserved":false,"is_disabled":false,"rental_uris":{"android":"levelo://app?vid=223e55c9-9474-4c7f-8795-9c59b605bfd2","ios":"levelo://app?vid=223e55c9-9474-4c7f-8795-9c59b605bfd2"},"vehicle_type_id":"4","last_reported":1702681630,"current_range_meters":21600,"station_id":"ce4bho92rcd13ifvqh3g","pricing_plan_id":"free"},{"bike_id":"5c4063bc-eb3a-4be2-b9d8-16fefce47216","system_id":"levelo_inurba_marseille","lat":43.287154,"lon":5.399979,"is_reserved":false,"is_disabled":false,"rental_uris":{"android":"levelo://app?vid=5c4063bc-eb3a-4be2-b9d8-16fefce47216","ios":"levelo://app?vid=5c4063bc-eb3a-4be2-b9d8-16fefce47216"},"vehicle_type_id":"4","last_reported":1702681630,"current_range_meters":13600,"station_id":"ce4bho92rcd13ifvqh3g","pricing_plan_id":"free"},{"bike_id":"b8e73cc1-7e9d-4398-9cd2-87a757769e80","system_id":"levelo_inurba_marseille","lat":43.32534,"lon":5.41426,"is_reserved":false,"is_disabled":false,"rental_uris":{"android":"levelo://app?vid=b8e73cc1-7e9d-4398-9cd2-87a757769e80","ios":"levelo://app?vid=b8e73cc1-7e9d-4398-9cd2-87a757769e80"},"vehicle_type_id":"4","last_reported":1702681630,"current_range_meters":12000,"station_id":"ce4bhq12rcd13ifvqhhg","pricing_plan_id":"free"},{"bike_id":"e893d083-1305-4087-b1e2-85456bd1e812","system_id":"levelo_inurba_marseille","lat":43.276157,"lon":5.361113,"is_reserved":false,"is_disabled":false,"rental_uris":{"android":"levelo://app?vid=e893d083-1305-4087-b1e2-85456bd1e812","ios":"levelo://app?vid=e893d083-1305-4087-b1e2-85456bd1e812"},"vehicle_type_id":"4","last_reported":1702681630,"current_range_meters":18400,"station_id":"ce4bgj92rcd13ifvqbe0","pricing_plan_id":"free"},{"bike_id":"38422a11-5311-4076-82a9-a4571befd8ba","system_id":"levelo_inurba_marseille","lat":43.280784,"lon":5.396622,"is_reserved":false,"is_disabled":false,"rental_uris":{"android":"levelo://app?vid=38422a11-5311-4076-82a9-a4571befd8ba","ios":"levelo://app?vid=38422a11-5311-4076-82a9-a4571befd8ba"},"vehicle_type_id":"4","last_reported":1702681630,"current_range_meters":21200,"station_id":"ce4bho12rcd13ifvqh2g","pricing_plan_id":"free"},{"bike_id":"60bbc476-e74c-400a-93d5-71ff320c465d","system_id":"levelo_inurba_marseille","lat":43.280784,"lon":5.396622,"is_reserved":false,"is_disabled":false,"rental_uris":{"android":"levelo://app?vid=60bbc476-e74c-400a-93d5-71ff320c465d","ios":"levelo://app?vid=60bbc476-e74c-400a-93d5-71ff320c465d"},"vehicle_type_id":"4","last_reported":1702681630,"current_range_meters":20800,"station_id":"ce4bho12rcd13ifvqh2g","pricing_plan_id":"free"},{"bike_id":"c7e26393-36e7-47cb-a5aa-2aefa31caca2","system_id":"levelo_inurba_marseille","lat":43.303837,"lon":5.418724,"is_reserved":false,"is_disabled":false,"rental_uris":{"android":"levelo://app?vid=c7e26393-36e7-47cb-a5aa-2aefa31caca2","ios":"levelo://app?vid=c7e26393-36e7-47cb-a5aa-2aefa31caca2"},"vehicle_type_id":"4","last_reported":1702681630,"current_range_meters":4000,"station_id":"ce4bhop2rcd13ifvqh7g","pricing_plan_id":"free"},{"bike_id":"6e5354e9-808a-46aa-a367-f7473c5da546","system_id":"levelo_inurba_marseille","lat":43.278399,"lon":5.392139,"is_reserved":false,"is_disabled":false,"rental_uris":{"android":"levelo://app?vid=6e5354e9-808a-46aa-a367-f7473c5da546","ios":"levelo://app?vid=6e5354e9-808a-46aa-a367-f7473c5da546"},"vehicle_type_id":"4","last_reported":1702681630,"current_range_meters":5600,"station_id":"ce4bhjp2rcd13ifvqga0","pricing_plan_id":"free"},{"bike_id":"45f13ab0-f2c2-4e7e-900c-2df0628427b6","system_id":"levelo_inurba_marseille","lat":43.336134,"lon":5.410341,"is_reserved":false,"is_disabled":false,"rental_uris":{"android":"levelo://app?vid=45f13ab0-f2c2-4e7e-900c-2df0628427b6","ios":"levelo://app?vid=45f13ab0-f2c2-4e7e-900c-2df0628427b6"},"vehicle_type_id":"4","last_reported":1702681630,"current_range_meters":17200,"station_id":"ce4bhqh2rcd13ifvqhmg","pricing_plan_id":"free"},{"bike_id":"10eadedf-b2e9-4bb9-a1f0-77df69175439","system_id":"levelo_inurba_marseille","lat":43.284122,"lon":5.408352,"is_reserved":false,"is_disabled":false,"rental_uris":{"android":"levelo://app?vid=10eadedf-b2e9-4bb9-a1f0-77df69175439","ios":"levelo://app?vid=10eadedf-b2e9-4bb9-a1f0-77df69175439"},"vehicle_type_id":"4","last_reported":1702681630,"current_range_meters":15200,"station_id":"","pricing_plan_id":"free"},{"bike_id":"cdc69067-dad5-415d-b4f3-0a438e350196","system_id":"levelo_inurba_marseille","lat":43.317121,"lon":5.423936,"is_reserved":false,"is_disabled":false,"rental_uris":{"android":"levelo://app?vid=cdc69067-dad5-415d-b4f3-0a438e350196","ios":"levelo://app?vid=cdc69067-dad5-415d-b4f3-0a438e350196"},"vehicle_type_id":"4","last_reported":1702681630,"current_range_meters":28800,"station_id":"ce4bhp92rcd13ifvqhbg","pricing_plan_id":"free"},{"bike_id":"93a9a0b0-f09a-4679-973e-f3ebca0caf36","system_id":"levelo_inurba_marseille","lat":43.310785,"lon":5.424305,"is_reserved":false,"is_disabled":false,"rental_uris":{"android":"levelo://app?vid=93a9a0b0-f09a-4679-973e-f3ebca0caf36","ios":"levelo://app?vid=93a9a0b0-f09a-4679-973e-f3ebca0caf36"},"vehicle_type_id":"4","last_reported":1702681630,"current_range_meters":29200,"station_id":"ce4bhp92rcd13ifvqhag","pricing_plan_id":"free"},{"bike_id":"13b63d08-aaa3-4985-bf57-1f32727c58d1","system_id":"levelo_inurba_marseille","lat":43.310785,"lon":5.424305,"is_reserved":false,"is_disabled":false,"rental_uris":{"android":"levelo://app?vid=13b63d08-aaa3-4985-bf57-1f32727c58d1","ios":"levelo://app?vid=13b63d08-aaa3-4985-bf57-1f32727c58d1"},"vehicle_type_id":"4","last_reported":1702681630,"current_range_meters":27200,"station_id":"ce4bhp92rcd13ifvqhag","pricing_plan_id":"free"},{"bike_id":"3b0a7b39-9141-4534-a54c-a05386f1a680","system_id":"levelo_inurba_marseille","lat":43.340804,"lon":5.410219,"is_reserved":false,"is_disabled":false,"rental_uris":{"android":"levelo://app?vid=3b0a7b39-9141-4534-a54c-a05386f1a680","ios":"levelo://app?vid=3b0a7b39-9141-4534-a54c-a05386f1a680"},"vehicle_type_id":"4","last_reported":1702681630,"current_range_meters":15200,"station_id":"ce4bhqh2rcd13ifvqhlg","pricing_plan_id":"free"},{"bike_id":"9fd98958-12f3-4062-a784-cd245cbf37c6","system_id":"levelo_inurba_marseille","lat":43.340804,"lon":5.410219,"is_reserved":false,"is_disabled":false,"rental_uris":{"android":"levelo://app?vid=9fd98958-12f3-4062-a784-cd245cbf37c6","ios":"levelo://app?vid=9fd98958-12f3-4062-a784-cd245cbf37c6"},"vehicle_type_id":"4","last_reported":1702681630,"current_range_meters":30400,"station_id":"ce4bhqh2rcd13ifvqhlg","pricing_plan_id":"free"},{"bike_id":"3ca2c2d2-99b0-4aa6-a05d-e30f02e6a7fb","system_id":"levelo_inurba_marseille","lat":43.276092,"lon":5.395289,"is_reserved":false,"is_disabled":false,"rental_uris":{"android":"levelo://app?vid=3ca2c2d2-99b0-4aa6-a05d-e30f02e6a7fb","ios":"levelo://app?vid=3ca2c2d2-99b0-4aa6-a05d-e30f02e6a7fb"},"vehicle_type_id":"4","last_reported":1702681630,"current_range_meters":24800,"station_id":"","pricing_plan_id":"free"},{"bike_id":"4f21379c-8e9a-4888-89cf-1cc12c9067e9","system_id":"levelo_inurba_marseille","lat":43.274103,"lon":5.394016,"is_reserved":false,"is_disabled":false,"rental_uris":{"android":"levelo://app?vid=4f21379c-8e9a-4888-89cf-1cc12c9067e9","ios":"levelo://app?vid=4f21379c-8e9a-4888-89cf-1cc12c9067e9"},"vehicle_type_id":"4","last_reported":1702681630,"current_range_meters":10400,"station_id":"ce4bhdp2rcd13ifvqf20","pricing_plan_id":"free"},{"bike_id":"de9feb39-3844-4206-aa16-9fe6fe1926e0","system_id":"levelo_inurba_marseille","lat":43.295448,"lon":5.422742,"is_reserved":false,"is_disabled":false,"rental_uris":{"android":"levelo://app?vid=de9feb39-3844-4206-aa16-9fe6fe1926e0","ios":"levelo://app?vid=de9feb39-3844-4206-aa16-9fe6fe1926e0"},"vehicle_type_id":"4","last_reported":1702681630,"current_range_meters":17600,"station_id":"ce4bhph2rcd13ifvqhdg","pricing_plan_id":"free"},{"bike_id":"a89d95c9-89b9-4ca6-bcd1-bb8857de2bcc","system_id":"levelo_inurba_marseille","lat":43.295523,"lon":5.422926,"is_reserved":false,"is_disabled":false,"rental_uris":{"android":"levelo://app?vid=a89d95c9-89b9-4ca6-bcd1-bb8857de2bcc","ios":"levelo://app?vid=a89d95c9-89b9-4ca6-bcd1-bb8857de2bcc"},"vehicle_type_id":"4","last_reported":1702681630,"current_range_meters":29600,"station_id":"ce4bhph2rcd13ifvqhdg","pricing_plan_id":"free"},{"bike_id":"30f59ffe-e1fa-4ed8-a4e3-ce159c007c40","system_id":"levelo_inurba_marseille","lat":43.278128,"lon":5.407195,"is_reserved":false,"is_disabled":false,"rental_uris":{"android":"levelo://app?vid=30f59ffe-e1fa-4ed8-a4e3-ce159c007c40","ios":"levelo://app?vid=30f59ffe-e1fa-4ed8-a4e3-ce159c007c40"},"vehicle_type_id":"4","last_reported":1702681630,"current_range_meters":16400,"station_id":"ce4bhnh2rcd13ifvqgtg","pricing_plan_id":"free"},{"bike_id":"ce54373d-f121-48ba-b057-bf474070de42","system_id":"levelo_inurba_marseille","lat":43.279465,"lon":5.410561,"is_reserved":false,"is_disabled":false,"rental_uris":{"android":"levelo://app?vid=ce54373d-f121-48ba-b057-bf474070de42","ios":"levelo://app?vid=ce54373d-f121-48ba-b057-bf474070de42"},"vehicle_type_id":"4","last_reported":1702681630,"current_range_meters":4400,"station_id":"ce4bhnp2rcd13ifvqh0g","pricing_plan_id":"free"},{"bike_id":"ce2800ca-0597-4549-8725-a70fc26b5ba6","system_id":"levelo_inurba_marseille","lat":43.27942,"lon":5.41053,"is_reserved":false,"is_disabled":false,"rental_uris":{"android":"levelo://app?vid=ce2800ca-0597-4549-8725-a70fc26b5ba6","ios":"levelo://app?vid=ce2800ca-0597-4549-8725-a70fc26b5ba6"},"vehicle_type_id":"4","last_reported":1702681630,"current_range_meters":24000,"station_id":"ce4bhnp2rcd13ifvqh0g","pricing_plan_id":"free"},{"bike_id":"db774753-4382-453e-a138-c32d538f9839","system_id":"levelo_inurba_marseille","lat":43.358636,"lon":5.356671,"is_reserved":false,"is_disabled":false,"rental_uris":{"android":"levelo://app?vid=db774753-4382-453e-a138-c32d538f9839","ios":"levelo://app?vid=db774753-4382-453e-a138-c32d538f9839"},"vehicle_type_id":"4","last_reported":1702681630,"current_range_meters":10400,"station_id":"","pricing_plan_id":"free"},{"bike_id":"9eeb4bd8-9399-4615-8241-69fb745cad0f","system_id":"levelo_inurba_marseille","lat":43.26681,"lon":5.382694,"is_reserved":false,"is_disabled":false,"rental_uris":{"android":"levelo://app?vid=9eeb4bd8-9399-4615-8241-69fb745cad0f","ios":"levelo://app?vid=9eeb4bd8-9399-4615-8241-69fb745cad0f"},"vehicle_type_id":"4","last_reported":1702681630,"current_range_meters":4000,"station_id":"ce4bhg92rcd13ifvqf90","pricing_plan_id":"free"},{"bike_id":"1ad16cbe-7518-49ea-9ef2-d1663652f953","system_id":"levelo_inurba_marseille","lat":43.27996,"lon":5.416624,"is_reserved":false,"is_disabled":false,"rental_uris":{"android":"levelo://app?vid=1ad16cbe-7518-49ea-9ef2-d1663652f953","ios":"levelo://app?vid=1ad16cbe-7518-49ea-9ef2-d1663652f953"},"vehicle_type_id":"4","last_reported":1702681630,"current_range_meters":16000,"station_id":"ce4bho12rcd13ifvqh1g","pricing_plan_id":"free"},{"bike_id":"95e9dd1f-f2f5-405d-b720-08fe860b3dcc","system_id":"levelo_inurba_marseille","lat":43.308051,"lon":5.43527,"is_reserved":false,"is_disabled":false,"rental_uris":{"android":"levelo://app?vid=95e9dd1f-f2f5-405d-b720-08fe860b3dcc","ios":"levelo://app?vid=95e9dd1f-f2f5-405d-b720-08fe860b3dcc"},"vehicle_type_id":"4","last_reported":1702681630,"current_range_meters":27200,"station_id":"ce4bhph2rcd13ifvqheg","pricing_plan_id":"free"},{"bike_id":"cacbc048-68a4-4518-b22f-d52f17ff4c98","system_id":"levelo_inurba_marseille","lat":43.308051,"lon":5.43527,"is_reserved":false,"is_disabled":false,"rental_uris":{"android":"levelo://app?vid=cacbc048-68a4-4518-b22f-d52f17ff4c98","ios":"levelo://app?vid=cacbc048-68a4-4518-b22f-d52f17ff4c98"},"vehicle_type_id":"4","last_reported":1702681630,"current_range_meters":18800,"station_id":"ce4bhph2rcd13ifvqheg","pricing_plan_id":"free"},{"bike_id":"1d3a6f7d-296e-413a-8b5b-3a7a158a21e1","system_id":"levelo_inurba_marseille","lat":43.317104,"lon":5.436818,"is_reserved":false,"is_disabled":false,"rental_uris":{"android":"levelo://app?vid=1d3a6f7d-296e-413a-8b5b-3a7a158a21e1","ios":"levelo://app?vid=1d3a6f7d-296e-413a-8b5b-3a7a158a21e1"},"vehicle_type_id":"4","last_reported":1702681630,"current_range_meters":21200,"station_id":"ce4bhp92rcd13ifvqhcg","pricing_plan_id":"free"},{"bike_id":"151ad32e-e8a8-4f27-83ce-9e7eab520933","system_id":"levelo_inurba_marseille","lat":43.303837,"lon":5.418724,"is_reserved":false,"is_disabled":false,"rental_uris":{"android":"levelo://app?vid=151ad32e-e8a8-4f27-83ce-9e7eab520933","ios":"levelo://app?vid=151ad32e-e8a8-4f27-83ce-9e7eab520933"},"vehicle_type_id":"4","last_reported":1702681630,"current_range_meters":26800,"station_id":"ce4bhop2rcd13ifvqh7g","pricing_plan_id":"free"},{"bike_id":"dd56b8c8-65e0-491e-8f20-9ee5b66ffaa9","system_id":"levelo_inurba_marseille","lat":43.298768,"lon":5.43643,"is_reserved":false,"is_disabled":false,"rental_uris":{"android":"levelo://app?vid=dd56b8c8-65e0-491e-8f20-9ee5b66ffaa9","ios":"levelo://app?vid=dd56b8c8-65e0-491e-8f20-9ee5b66ffaa9"},"vehicle_type_id":"4","last_reported":1702681630,"current_range_meters":11200,"station_id":"ce4bhpp2rcd13ifvqhfg","pricing_plan_id":"free"},{"bike_id":"9300a7a0-e6b8-43d6-9c20-2ecf10ea888d","system_id":"levelo_inurba_marseille","lat":43.260225,"lon":5.375455,"is_reserved":false,"is_disabled":false,"rental_uris":{"android":"levelo://app?vid=9300a7a0-e6b8-43d6-9c20-2ecf10ea888d","ios":"levelo://app?vid=9300a7a0-e6b8-43d6-9c20-2ecf10ea888d"},"vehicle_type_id":"4","last_reported":1702681630,"current_range_meters":23600,"station_id":"ce4bhgh2rcd13ifvqfa0","pricing_plan_id":"free"},{"bike_id":"c631178c-cd78-45a3-b946-94536a797b09","system_id":"levelo_inurba_marseille","lat":43.281548,"lon":5.42643,"is_reserved":false,"is_disabled":false,"rental_uris":{"android":"levelo://app?vid=c631178c-cd78-45a3-b946-94536a797b09","ios":"levelo://app?vid=c631178c-cd78-45a3-b946-94536a797b09"},"vehicle_type_id":"4","last_reported":1702681630,"current_range_meters":0,"station_id":"ce4bhnh2rcd13ifvqgug","pricing_plan_id":"free"},{"bike_id":"f780e7f1-dd97-4a76-8618-34eb5be96a18","system_id":"levelo_inurba_marseille","lat":43.2607,"lon":5.393983,"is_reserved":false,"is_disabled":false,"rental_uris":{"android":"levelo://app?vid=f780e7f1-dd97-4a76-8618-34eb5be96a18","ios":"levelo://app?vid=f780e7f1-dd97-4a76-8618-34eb5be96a18"},"vehicle_type_id":"4","last_reported":1702681630,"current_range_meters":6400,"station_id":"ce4bhh92rcd13ifvqfj0","pricing_plan_id":"free"},{"bike_id":"cc5d76b0-a393-4a4c-baa6-a656fc269eb7","system_id":"levelo_inurba_marseille","lat":43.275028,"lon":5.424534,"is_reserved":false,"is_disabled":false,"rental_uris":{"android":"levelo://app?vid=cc5d76b0-a393-4a4c-baa6-a656fc269eb7","ios":"levelo://app?vid=cc5d76b0-a393-4a4c-baa6-a656fc269eb7"},"vehicle_type_id":"4","last_reported":1702681630,"current_range_meters":30400,"station_id":"ce4bhn92rcd13ifvqgrg","pricing_plan_id":"free"},{"bike_id":"b76e4b50-f6f0-431f-a6f8-b141c06663a4","system_id":"levelo_inurba_marseille","lat":43.275028,"lon":5.424534,"is_reserved":false,"is_disabled":false,"rental_uris":{"android":"levelo://app?vid=b76e4b50-f6f0-431f-a6f8-b141c06663a4","ios":"levelo://app?vid=b76e4b50-f6f0-431f-a6f8-b141c06663a4"},"vehicle_type_id":"4","last_reported":1702681630,"current_range_meters":16000,"station_id":"ce4bhn92rcd13ifvqgrg","pricing_plan_id":"free"},{"bike_id":"2ecae49b-9e6e-4af1-b744-4b6eeb8f1ceb","system_id":"levelo_inurba_marseille","lat":43.258224,"lon":5.394369,"is_reserved":false,"is_disabled":false,"rental_uris":{"android":"levelo://app?vid=2ecae49b-9e6e-4af1-b744-4b6eeb8f1ceb","ios":"levelo://app?vid=2ecae49b-9e6e-4af1-b744-4b6eeb8f1ceb"},"vehicle_type_id":"4","last_reported":1702681630,"current_range_meters":15200,"station_id":"ce4bhip2rcd13ifvqft0","pricing_plan_id":"free"},{"bike_id":"4a436564-a1e8-41f0-94ce-946bc6833290","system_id":"levelo_inurba_marseille","lat":43.258224,"lon":5.394369,"is_reserved":false,"is_disabled":false,"rental_uris":{"android":"levelo://app?vid=4a436564-a1e8-41f0-94ce-946bc6833290","ios":"levelo://app?vid=4a436564-a1e8-41f0-94ce-946bc6833290"},"vehicle_type_id":"4","last_reported":1702681630,"current_range_meters":24800,"station_id":"ce4bhip2rcd13ifvqft0","pricing_plan_id":"free"},{"bike_id":"cb1435ca-8297-4545-bd4e-938474f234d0","system_id":"levelo_inurba_marseille","lat":43.270721,"lon":5.422764,"is_reserved":false,"is_disabled":false,"rental_uris":{"android":"levelo://app?vid=cb1435ca-8297-4545-bd4e-938474f234d0","ios":"levelo://app?vid=cb1435ca-8297-4545-bd4e-938474f234d0"},"vehicle_type_id":"4","last_reported":1702681630,"current_range_meters":13200,"station_id":"ce4bhk92rcd13ifvqgb0","pricing_plan_id":"free"},{"bike_id":"152f0b5f-2e6b-49d7-9e6c-7e17f0f4350b","system_id":"levelo_inurba_marseille","lat":43.270721,"lon":5.422764,"is_reserved":false,"is_disabled":false,"rental_uris":{"android":"levelo://app?vid=152f0b5f-2e6b-49d7-9e6c-7e17f0f4350b","ios":"levelo://app?vid=152f0b5f-2e6b-49d7-9e6c-7e17f0f4350b"},"vehicle_type_id":"4","last_reported":1702681630,"current_range_meters":20000,"station_id":"ce4bhk92rcd13ifvqgb0","pricing_plan_id":"free"},{"bike_id":"4edb9643-d51d-4d78-bab9-4a9b45a5f0c4","system_id":"levelo_inurba_marseille","lat":43.258658,"lon":5.398935,"is_reserved":false,"is_disabled":false,"rental_uris":{"android":"levelo://app?vid=4edb9643-d51d-4d78-bab9-4a9b45a5f0c4","ios":"levelo://app?vid=4edb9643-d51d-4d78-bab9-4a9b45a5f0c4"},"vehicle_type_id":"4","last_reported":1702681630,"current_range_meters":27600,"station_id":"ce4bhl92rcd13ifvqghg","pricing_plan_id":"free"},{"bike_id":"e44f9abc-0e7a-4a73-99f3-c036d5df87c5","system_id":"levelo_inurba_marseille","lat":43.257079,"lon":5.411051,"is_reserved":false,"is_disabled":false,"rental_uris":{"android":"levelo://app?vid=e44f9abc-0e7a-4a73-99f3-c036d5df87c5","ios":"levelo://app?vid=e44f9abc-0e7a-4a73-99f3-c036d5df87c5"},"vehicle_type_id":"4","last_reported":1702681630,"current_range_meters":29600,"station_id":"ce4bhkp2rcd13ifvqgd0","pricing_plan_id":"free"},{"bike_id":"a94d0d87-f21b-4bcf-99be-0f6ac5ca1a70","system_id":"levelo_inurba_marseille","lat":43.250009,"lon":5.389195,"is_reserved":false,"is_disabled":false,"rental_uris":{"android":"levelo://app?vid=a94d0d87-f21b-4bcf-99be-0f6ac5ca1a70","ios":"levelo://app?vid=a94d0d87-f21b-4bcf-99be-0f6ac5ca1a70"},"vehicle_type_id":"4","last_reported":1702681630,"current_range_meters":27600,"station_id":"ce4bhgp2rcd13ifvqfd0","pricing_plan_id":"free"},{"bike_id":"1104b430-d83a-4fce-92a5-d728d4dc8233","system_id":"levelo_inurba_marseille","lat":43.2479,"lon":5.374457,"is_reserved":false,"is_disabled":false,"rental_uris":{"android":"levelo://app?vid=1104b430-d83a-4fce-92a5-d728d4dc8233","ios":"levelo://app?vid=1104b430-d83a-4fce-92a5-d728d4dc8233"},"vehicle_type_id":"4","last_reported":1702681630,"current_range_meters":4400,"station_id":"ce4bhgh2rcd13ifvqfb0","pricing_plan_id":"free"},{"bike_id":"11bfcabd-6948-4ada-bd3b-836bb199af62","system_id":"levelo_inurba_marseille","lat":43.250966,"lon":5.395186,"is_reserved":false,"is_disabled":false,"rental_uris":{"android":"levelo://app?vid=11bfcabd-6948-4ada-bd3b-836bb199af62","ios":"levelo://app?vid=11bfcabd-6948-4ada-bd3b-836bb199af62"},"vehicle_type_id":"4","last_reported":1702681630,"current_range_meters":30000,"station_id":"ce4bhm12rcd13ifvqgkg","pricing_plan_id":"free"},{"bike_id":"a561d9fb-0cc1-4f8b-9641-000a3002f040","system_id":"levelo_inurba_marseille","lat":43.250966,"lon":5.395186,"is_reserved":false,"is_disabled":false,"rental_uris":{"android":"levelo://app?vid=a561d9fb-0cc1-4f8b-9641-000a3002f040","ios":"levelo://app?vid=a561d9fb-0cc1-4f8b-9641-000a3002f040"},"vehicle_type_id":"4","last_reported":1702681630,"current_range_meters":24000,"station_id":"ce4bhm12rcd13ifvqgkg","pricing_plan_id":"free"},{"bike_id":"47342682-b661-45ff-9cb7-ccc60e014ee9","system_id":"levelo_inurba_marseille","lat":43.25102,"lon":5.403214,"is_reserved":false,"is_disabled":false,"rental_uris":{"android":"levelo://app?vid=47342682-b661-45ff-9cb7-ccc60e014ee9","ios":"levelo://app?vid=47342682-b661-45ff-9cb7-ccc60e014ee9"},"vehicle_type_id":"4","last_reported":1702681630,"current_range_meters":17600,"station_id":"ce4bhlh2rcd13ifvqgig","pricing_plan_id":"free"},{"bike_id":"a8848b8b-995b-43e6-a068-03d2ec054c23","system_id":"levelo_inurba_marseille","lat":43.246467,"lon":5.388984,"is_reserved":false,"is_disabled":false,"rental_uris":{"android":"levelo://app?vid=a8848b8b-995b-43e6-a068-03d2ec054c23","ios":"levelo://app?vid=a8848b8b-995b-43e6-a068-03d2ec054c23"},"vehicle_type_id":"4","last_reported":1702681630,"current_range_meters":14800,"station_id":"ce4bhg12rcd13ifvqf60","pricing_plan_id":"free"},{"bike_id":"ea80e0ac-21b9-4a98-b7f2-c167bbce64d8","system_id":"levelo_inurba_marseille","lat":43.243884,"lon":5.370736,"is_reserved":false,"is_disabled":false,"rental_uris":{"android":"levelo://app?vid=ea80e0ac-21b9-4a98-b7f2-c167bbce64d8","ios":"levelo://app?vid=ea80e0ac-21b9-4a98-b7f2-c167bbce64d8"},"vehicle_type_id":"4","last_reported":1702681630,"current_range_meters":27600,"station_id":"ce4bhhh2rcd13ifvqfk0","pricing_plan_id":"free"},{"bike_id":"e9e27456-3f97-4c18-83bc-8f4de754de9d","system_id":"levelo_inurba_marseille","lat":43.245581,"lon":5.395069,"is_reserved":false,"is_disabled":false,"rental_uris":{"android":"levelo://app?vid=e9e27456-3f97-4c18-83bc-8f4de754de9d","ios":"levelo://app?vid=e9e27456-3f97-4c18-83bc-8f4de754de9d"},"vehicle_type_id":"4","last_reported":1702681630,"current_range_meters":24000,"station_id":"ce4bhlp2rcd13ifvqgjg","pricing_plan_id":"free"},{"bike_id":"2913b0e3-c44c-49f1-ba84-d9d46d3f68b0","system_id":"levelo_inurba_marseille","lat":43.24864,"lon":5.40997,"is_reserved":false,"is_disabled":false,"rental_uris":{"android":"levelo://app?vid=2913b0e3-c44c-49f1-ba84-d9d46d3f68b0","ios":"levelo://app?vid=2913b0e3-c44c-49f1-ba84-d9d46d3f68b0"},"vehicle_type_id":"4","last_reported":1702681630,"current_range_meters":21600,"station_id":"","pricing_plan_id":"free"},{"bike_id":"0e2c59b9-2832-402b-bbbe-6033643fbb42","system_id":"levelo_inurba_marseille","lat":43.240623,"lon":5.377642,"is_reserved":false,"is_disabled":false,"rental_uris":{"android":"levelo://app?vid=0e2c59b9-2832-402b-bbbe-6033643fbb42","ios":"levelo://app?vid=0e2c59b9-2832-402b-bbbe-6033643fbb42"},"vehicle_type_id":"4","last_reported":1702681630,"current_range_meters":15200,"station_id":"ce4bhnp2rcd13ifvqgvg","pricing_plan_id":"free"},{"bike_id":"7953dcef-21fd-47ea-9971-82f9a737f8d8","system_id":"levelo_inurba_marseille","lat":43.240623,"lon":5.377642,"is_reserved":false,"is_disabled":false,"rental_uris":{"android":"levelo://app?vid=7953dcef-21fd-47ea-9971-82f9a737f8d8","ios":"levelo://app?vid=7953dcef-21fd-47ea-9971-82f9a737f8d8"},"vehicle_type_id":"4","last_reported":1702681630,"current_range_meters":12400,"station_id":"ce4bhnp2rcd13ifvqgvg","pricing_plan_id":"free"},{"bike_id":"95488fcc-8b12-428d-b03a-43b7b2de9b35","system_id":"levelo_inurba_marseille","lat":43.239588,"lon":5.366238,"is_reserved":false,"is_disabled":false,"rental_uris":{"android":"levelo://app?vid=95488fcc-8b12-428d-b03a-43b7b2de9b35","ios":"levelo://app?vid=95488fcc-8b12-428d-b03a-43b7b2de9b35"},"vehicle_type_id":"4","last_reported":1702681630,"current_range_meters":31200,"station_id":"ce4bhi12rcd13ifvqfp0","pricing_plan_id":"free"},{"bike_id":"201807d4-ffeb-4dde-a108-f4d00d855c98","system_id":"levelo_inurba_marseille","lat":43.241782,"lon":5.397261,"is_reserved":false,"is_disabled":false,"rental_uris":{"android":"levelo://app?vid=201807d4-ffeb-4dde-a108-f4d00d855c98","ios":"levelo://app?vid=201807d4-ffeb-4dde-a108-f4d00d855c98"},"vehicle_type_id":"4","last_reported":1702681630,"current_range_meters":17600,"station_id":"ce4bhn12rcd13ifvqgpg","pricing_plan_id":"free"},{"bike_id":"547672b1-18af-4711-b9a3-86e73cab70b4","system_id":"levelo_inurba_marseille","lat":43.23197,"lon":5.3555,"is_reserved":false,"is_disabled":false,"rental_uris":{"android":"levelo://app?vid=547672b1-18af-4711-b9a3-86e73cab70b4","ios":"levelo://app?vid=547672b1-18af-4711-b9a3-86e73cab70b4"},"vehicle_type_id":"4","last_reported":1702681630,"current_range_meters":19200,"station_id":"ce4bhu92rcd13ifvqi70","pricing_plan_id":"free"},{"bike_id":"a6ab5f0e-f0ee-41be-b237-17726a43f065","system_id":"levelo_inurba_marseille","lat":43.23195,"lon":5.355457,"is_reserved":false,"is_disabled":false,"rental_uris":{"android":"levelo://app?vid=a6ab5f0e-f0ee-41be-b237-17726a43f065","ios":"levelo://app?vid=a6ab5f0e-f0ee-41be-b237-17726a43f065"},"vehicle_type_id":"4","last_reported":1702681630,"current_range_meters":6000,"station_id":"ce4bhu92rcd13ifvqi70","pricing_plan_id":"free"},{"bike_id":"185da70e-7a95-41eb-8b73-66c95513e7d7","system_id":"levelo_inurba_marseille","lat":43.231919,"lon":5.355532,"is_reserved":false,"is_disabled":false,"rental_uris":{"android":"levelo://app?vid=185da70e-7a95-41eb-8b73-66c95513e7d7","ios":"levelo://app?vid=185da70e-7a95-41eb-8b73-66c95513e7d7"},"vehicle_type_id":"4","last_reported":1702681630,"current_range_meters":19200,"station_id":"ce4bhu92rcd13ifvqi70","pricing_plan_id":"free"},{"bike_id":"c3660b97-b6c7-4440-95e2-3c9c54b27651","system_id":"levelo_inurba_marseille","lat":43.231919,"lon":5.355532,"is_reserved":false,"is_disabled":false,"rental_uris":{"android":"levelo://app?vid=c3660b97-b6c7-4440-95e2-3c9c54b27651","ios":"levelo://app?vid=c3660b97-b6c7-4440-95e2-3c9c54b27651"},"vehicle_type_id":"4","last_reported":1702681630,"current_range_meters":10800,"station_id":"ce4bhu92rcd13ifvqi70","pricing_plan_id":"free"},{"bike_id":"dcafd6c3-a7a0-4b95-a6fe-4fe6ebedefdc","system_id":"levelo_inurba_marseille","lat":43.231919,"lon":5.355532,"is_reserved":false,"is_disabled":false,"rental_uris":{"android":"levelo://app?vid=dcafd6c3-a7a0-4b95-a6fe-4fe6ebedefdc","ios":"levelo://app?vid=dcafd6c3-a7a0-4b95-a6fe-4fe6ebedefdc"},"vehicle_type_id":"4","last_reported":1702681630,"current_range_meters":20000,"station_id":"ce4bhu92rcd13ifvqi70","pricing_plan_id":"free"},{"bike_id":"bad9b33d-de7d-4c7c-82d1-be01fc455f93","system_id":"levelo_inurba_marseille","lat":43.231919,"lon":5.355532,"is_reserved":false,"is_disabled":false,"rental_uris":{"android":"levelo://app?vid=bad9b33d-de7d-4c7c-82d1-be01fc455f93","ios":"levelo://app?vid=bad9b33d-de7d-4c7c-82d1-be01fc455f93"},"vehicle_type_id":"4","last_reported":1702681630,"current_range_meters":25600,"station_id":"ce4bhu92rcd13ifvqi70","pricing_plan_id":"free"},{"bike_id":"e2effc20-8600-4cb3-88e5-e93a2f872714","system_id":"levelo_inurba_marseille","lat":43.231919,"lon":5.355532,"is_reserved":false,"is_disabled":false,"rental_uris":{"android":"levelo://app?vid=e2effc20-8600-4cb3-88e5-e93a2f872714","ios":"levelo://app?vid=e2effc20-8600-4cb3-88e5-e93a2f872714"},"vehicle_type_id":"4","last_reported":1702681630,"current_range_meters":7600,"station_id":"ce4bhu92rcd13ifvqi70","pricing_plan_id":"free"},{"bike_id":"bb21ca5a-cb13-451e-943b-2dfa4a3b7fbc","system_id":"levelo_inurba_marseille","lat":43.231919,"lon":5.355532,"is_reserved":false,"is_disabled":false,"rental_uris":{"android":"levelo://app?vid=bb21ca5a-cb13-451e-943b-2dfa4a3b7fbc","ios":"levelo://app?vid=bb21ca5a-cb13-451e-943b-2dfa4a3b7fbc"},"vehicle_type_id":"4","last_reported":1702681630,"current_range_meters":31200,"station_id":"ce4bhu92rcd13ifvqi70","pricing_plan_id":"free"},{"bike_id":"600bdeb8-ea2a-4d1c-a6da-f7a255388a48","system_id":"levelo_inurba_marseille","lat":43.231904,"lon":5.355449,"is_reserved":false,"is_disabled":false,"rental_uris":{"android":"levelo://app?vid=600bdeb8-ea2a-4d1c-a6da-f7a255388a48","ios":"levelo://app?vid=600bdeb8-ea2a-4d1c-a6da-f7a255388a48"},"vehicle_type_id":"4","last_reported":1702681630,"current_range_meters":13200,"station_id":"ce4bhu92rcd13ifvqi70","pricing_plan_id":"free"},{"bike_id":"f232aa67-6076-4223-8e5a-a70e7a8cdfcf","system_id":"levelo_inurba_marseille","lat":43.231794,"lon":5.400052,"is_reserved":false,"is_disabled":false,"rental_uris":{"android":"levelo://app?vid=f232aa67-6076-4223-8e5a-a70e7a8cdfcf","ios":"levelo://app?vid=f232aa67-6076-4223-8e5a-a70e7a8cdfcf"},"vehicle_type_id":"4","last_reported":1702681630,"current_range_meters":21600,"station_id":"ce4bhn12rcd13ifvqgqg","pricing_plan_id":"free"},{"bike_id":"4bbb9689-2e2d-4bda-9d3c-7b90daddfa8a","system_id":"levelo_inurba_marseille","lat":43.231793,"lon":5.400044,"is_reserved":false,"is_disabled":false,"rental_uris":{"android":"levelo://app?vid=4bbb9689-2e2d-4bda-9d3c-7b90daddfa8a","ios":"levelo://app?vid=4bbb9689-2e2d-4bda-9d3c-7b90daddfa8a"},"vehicle_type_id":"4","last_reported":1702681630,"current_range_meters":29200,"station_id":"ce4bhn12rcd13ifvqgqg","pricing_plan_id":"free"},{"bike_id":"76011e8e-8381-4dc8-a22b-7020e857666d","system_id":"levelo_inurba_marseille","lat":43.231793,"lon":5.400044,"is_reserved":false,"is_disabled":false,"rental_uris":{"android":"levelo://app?vid=76011e8e-8381-4dc8-a22b-7020e857666d","ios":"levelo://app?vid=76011e8e-8381-4dc8-a22b-7020e857666d"},"vehicle_type_id":"4","last_reported":1702681630,"current_range_meters":17200,"station_id":"ce4bhn12rcd13ifvqgqg","pricing_plan_id":"free"},{"bike_id":"7591c304-548e-4cab-b2c2-be1de5925a19","system_id":"levelo_inurba_marseille","lat":43.231793,"lon":5.400044,"is_reserved":false,"is_disabled":false,"rental_uris":{"android":"levelo://app?vid=7591c304-548e-4cab-b2c2-be1de5925a19","ios":"levelo://app?vid=7591c304-548e-4cab-b2c2-be1de5925a19"},"vehicle_type_id":"4","last_reported":1702681630,"current_range_meters":20400,"station_id":"ce4bhn12rcd13ifvqgqg","pricing_plan_id":"free"},{"bike_id":"ad4a709a-3bbc-4b66-b7ec-31b555a6fb6f","system_id":"levelo_inurba_marseille","lat":43.231794,"lon":5.400052,"is_reserved":false,"is_disabled":false,"rental_uris":{"android":"levelo://app?vid=ad4a709a-3bbc-4b66-b7ec-31b555a6fb6f","ios":"levelo://app?vid=ad4a709a-3bbc-4b66-b7ec-31b555a6fb6f"},"vehicle_type_id":"4","last_reported":1702681630,"current_range_meters":31200,"station_id":"ce4bhn12rcd13ifvqgqg","pricing_plan_id":"free"},{"bike_id":"f0daebf7-48d1-4965-9af4-f0c1a8bd3366","system_id":"levelo_inurba_marseille","lat":43.23186,"lon":5.3999,"is_reserved":false,"is_disabled":false,"rental_uris":{"android":"levelo://app?vid=f0daebf7-48d1-4965-9af4-f0c1a8bd3366","ios":"levelo://app?vid=f0daebf7-48d1-4965-9af4-f0c1a8bd3366"},"vehicle_type_id":"4","last_reported":1702681630,"current_range_meters":20000,"station_id":"ce4bhn12rcd13ifvqgqg","pricing_plan_id":"free"},{"bike_id":"9ec6e627-bbad-4b65-9589-ccea6752ce9c","system_id":"levelo_inurba_marseille","lat":43.231794,"lon":5.400052,"is_reserved":false,"is_disabled":false,"rental_uris":{"android":"levelo://app?vid=9ec6e627-bbad-4b65-9589-ccea6752ce9c","ios":"levelo://app?vid=9ec6e627-bbad-4b65-9589-ccea6752ce9c"},"vehicle_type_id":"4","last_reported":1702681630,"current_range_meters":24400,"station_id":"ce4bhn12rcd13ifvqgqg","pricing_plan_id":"free"},{"bike_id":"b709f06c-bc25-400a-bc75-39c96c4cd26b","system_id":"levelo_inurba_marseille","lat":43.231794,"lon":5.400052,"is_reserved":false,"is_disabled":false,"rental_uris":{"android":"levelo://app?vid=b709f06c-bc25-400a-bc75-39c96c4cd26b","ios":"levelo://app?vid=b709f06c-bc25-400a-bc75-39c96c4cd26b"},"vehicle_type_id":"4","last_reported":1702681630,"current_range_meters":0,"station_id":"ce4bhn12rcd13ifvqgqg","pricing_plan_id":"free"},{"bike_id":"5e675e68-5f89-4337-9f5e-8b0067b010c6","system_id":"levelo_inurba_marseille","lat":43.231794,"lon":5.400052,"is_reserved":false,"is_disabled":false,"rental_uris":{"android":"levelo://app?vid=5e675e68-5f89-4337-9f5e-8b0067b010c6","ios":"levelo://app?vid=5e675e68-5f89-4337-9f5e-8b0067b010c6"},"vehicle_type_id":"4","last_reported":1702681630,"current_range_meters":27600,"station_id":"ce4bhn12rcd13ifvqgqg","pricing_plan_id":"free"},{"bike_id":"1b041eba-5032-4091-b5c2-13003df48ba9","system_id":"levelo_inurba_marseille","lat":43.231794,"lon":5.400052,"is_reserved":false,"is_disabled":false,"rental_uris":{"android":"levelo://app?vid=1b041eba-5032-4091-b5c2-13003df48ba9","ios":"levelo://app?vid=1b041eba-5032-4091-b5c2-13003df48ba9"},"vehicle_type_id":"4","last_reported":1702681630,"current_range_meters":2000,"station_id":"ce4bhn12rcd13ifvqgqg","pricing_plan_id":"free"},{"bike_id":"11fffc33-48fc-46cd-acb2-ae0ed2f88292","system_id":"levelo_inurba_marseille","lat":43.231794,"lon":5.400052,"is_reserved":false,"is_disabled":false,"rental_uris":{"android":"levelo://app?vid=11fffc33-48fc-46cd-acb2-ae0ed2f88292","ios":"levelo://app?vid=11fffc33-48fc-46cd-acb2-ae0ed2f88292"},"vehicle_type_id":"4","last_reported":1702681630,"current_range_meters":1600,"station_id":"ce4bhn12rcd13ifvqgqg","pricing_plan_id":"free"},{"bike_id":"d5b19b18-256c-4006-8171-7518dc7532bf","system_id":"levelo_inurba_marseille","lat":43.231562,"lon":5.436933,"is_reserved":false,"is_disabled":false,"rental_uris":{"android":"levelo://app?vid=d5b19b18-256c-4006-8171-7518dc7532bf","ios":"levelo://app?vid=d5b19b18-256c-4006-8171-7518dc7532bf"},"vehicle_type_id":"4","last_reported":1702681630,"current_range_meters":24800,"station_id":"ce4bhmp2rcd13ifvqgog","pricing_plan_id":"free"}]}}