{"last_updated":1734678508,"ttl":60,"version":"2.2","data":{"bikes":[{"bike_id":"435942b2-6410-4d6b-ab56-2451bb189dc3","system_id":"levelo_inurba_marseille","lat":43.27322,"lon":5.39074,"is_reserved":false,"is_disabled":false,"rental_uris":{"android":"levelo://app?vid=435942b2-6410-4d6b-ab56-2451bb189dc3","ios":"levelo://app?vid=435942b2-6410-4d6b-ab56-2451bb189dc3"},"vehicle_type_id":"4","last_reported":1734678509,"current_range_meters":33200,"station_id":"ce4bhgp2rcd13ifvqfe0","pricing_plan_id":"cebpf4jnsgd1na2vs0mg"},{"bike_id":"74dc27b5-e2a4-4b1e-9dc3-5894ac4bda0a","system_id":"levelo_inurba_marseille","lat":43.297978,"lon":5.371131,"is_reserved":false,"is_disabled":false,"rental_uris":{"android":"levelo://app?vid=74dc27b5-e2a4-4b1e-9dc3-5894ac4bda0a","ios":"levelo://app?vid=74dc27b5-e2a4-4b1e-9dc3-5894ac4bda0a"},"vehicle_type_id":"4","last_reported":1734678509,"current_range_meters":37600,"station_id":"ce4bgop2rcd13ifvqc1g","pricing_plan_id":"cebpf4jnsgd1na2vs0mg"},{"bike_id":"eb156c91-5c91-4664-a66b-8fb17c1b7811","system_id":"levelo_inurba_marseille","lat":43.28445,"lon":5.39181,"is_reserved":false,"is_disabled":false,"rental_uris":{"android":"levelo://app?vid=eb156c91-5c91-4664-a66b-8fb17c1b7811","ios":"levelo://app?vid=eb156c91-5c91-4664-a66b-8fb17c1b7811"},"vehicle_type_id":"4","last_reported":1734678509,"current_range_meters":38000,"station_id":"ce4bhoh2rcd13ifvqh5g","pricing_plan_id":"cebpf4jnsgd1na2vs0mg"},{"bike_id":"d8e2b32b-975c-4ebb-8a62-f249de1e3a1d","system_id":"levelo_inurba_marseille","lat":43.28457,"lon":5.358811,"is_reserved":false,"is_disabled":false,"rental_uris":{"android":"levelo://app?vid=d8e2b32b-975c-4ebb-8a62-f249de1e3a1d","ios":"levelo://app?vid=d8e2b32b-975c-4ebb-8a62-f249de1e3a1d"},"vehicle_type_id":"4","last_reported":1734678509,"current_range_meters":22800,"station_id":"ce4bhah2rcd13ifvqei0","pricing_plan_id":"cebpf4jnsgd1na2vs0mg"},{"bike_id":"0ca26f56-c03e-40e3-b344-ad2794e22685","system_id":"levelo_inurba_marseille","lat":43.26057,"lon":5.39394,"is_reserved":false,"is_disabled":false,"rental_uris":{"android":"levelo://app?vid=0ca26f56-c03e-40e3-b344-ad2794e22685","ios":"levelo://app?vid=0ca26f56-c03e-40e3-b344-ad2794e22685"},"vehicle_type_id":"4","last_reported":1734678509,"current_range_meters":17600,"station_id":"ce4bhh92rcd13ifvqfj0","pricing_plan_id":"cebpf4jnsgd1na2vs0mg"},{"bike_id":"833e0ce7-81be-4cf2-b37a-2cc4539e9a27","system_id":"levelo_inurba_marseille","lat":43.30165,"lon":5.3808,"is_reserved":false,"is_disabled":false,"rental_uris":{"android":"levelo://app?vid=833e0ce7-81be-4cf2-b37a-2cc4539e9a27","ios":"levelo://app?vid=833e0ce7-81be-4cf2-b37a-2cc4539e9a27"},"vehicle_type_id":"4","last_reported":1734678509,"current_range_meters":38000,"station_id":"ce4bgjp2rcd13ifvqbh0","pricing_plan_id":"cebpf4jnsgd1na2vs0mg"},{"bike_id":"0b3c962c-40d1-4375-b60d-644d72aaacf1","system_id":"levelo_inurba_marseille","lat":43.28012,"lon":5.40401,"is_reserved":false,"is_disabled":true,"rental_uris":{"android":"levelo://app?vid=0b3c962c-40d1-4375-b60d-644d72aaacf1","ios":"levelo://app?vid=0b3c962c-40d1-4375-b60d-644d72aaacf1"},"vehicle_type_id":"4","last_reported":1734678509,"current_range_meters":0,"station_id":"","pricing_plan_id":"cebpf4jnsgd1na2vs0mg"},{"bike_id":"67ab154a-5ebb-400b-8fe1-02ec2579bea3","system_id":"levelo_inurba_marseille","lat":43.31279,"lon":5.40164,"is_reserved":false,"is_disabled":false,"rental_uris":{"android":"levelo://app?vid=67ab154a-5ebb-400b-8fe1-02ec2579bea3","ios":"levelo://app?vid=67ab154a-5ebb-400b-8fe1-02ec2579bea3"},"vehicle_type_id":"4","last_reported":1734678509,"current_range_meters":38800,"station_id":"ce4bh092rcd13ifvqd30","pricing_plan_id":"cebpf4jnsgd1na2vs0mg"},{"bike_id":"b3ca4fe4-550c-42a3-b98d-0ca615b243f9","system_id":"levelo_inurba_marseille","lat":43.28727,"lon":5.36092,"is_reserved":false,"is_disabled":false,"rental_uris":{"android":"levelo://app?vid=b3ca4fe4-550c-42a3-b98d-0ca615b243f9","ios":"levelo://app?vid=b3ca4fe4-550c-42a3-b98d-0ca615b243f9"},"vehicle_type_id":"4","last_reported":1734678509,"current_range_meters":19200,"station_id":"cki0cbj6b192h4jlfktg","pricing_plan_id":"cebpf4jnsgd1na2vs0mg"},{"bike_id":"c5b80322-ab04-49bd-a2c6-ab8bceab3a4c","system_id":"levelo_inurba_marseille","lat":43.27077,"lon":5.40272,"is_reserved":false,"is_disabled":true,"rental_uris":{"android":"levelo://app?vid=c5b80322-ab04-49bd-a2c6-ab8bceab3a4c","ios":"levelo://app?vid=c5b80322-ab04-49bd-a2c6-ab8bceab3a4c"},"vehicle_type_id":"4","last_reported":1734678509,"current_range_meters":1200,"station_id":"ce4bhk92rcd13ifvqgc0","pricing_plan_id":"cebpf4jnsgd1na2vs0mg"},{"bike_id":"6dbd45f5-882d-4325-9c7e-f0f72386c6da","system_id":"levelo_inurba_marseille","lat":43.23866,"lon":5.37399,"is_reserved":false,"is_disabled":true,"rental_uris":{"android":"levelo://app?vid=6dbd45f5-882d-4325-9c7e-f0f72386c6da","ios":"levelo://app?vid=6dbd45f5-882d-4325-9c7e-f0f72386c6da"},"vehicle_type_id":"4","last_reported":1734678509,"current_range_meters":6400,"station_id":"","pricing_plan_id":"cebpf4jnsgd1na2vs0mg"},{"bike_id":"1cdfd12b-6391-4ec2-a79d-92933987f841","system_id":"levelo_inurba_marseille","lat":43.29608,"lon":5.36713,"is_reserved":false,"is_disabled":false,"rental_uris":{"android":"levelo://app?vid=1cdfd12b-6391-4ec2-a79d-92933987f841","ios":"levelo://app?vid=1cdfd12b-6391-4ec2-a79d-92933987f841"},"vehicle_type_id":"4","last_reported":1734678509,"current_range_meters":38400,"station_id":"ce4bgph2rcd13ifvqc2g","pricing_plan_id":"cebpf4jnsgd1na2vs0mg"},{"bike_id":"93cd12d2-ee52-454b-a1c6-a2a94b1185da","system_id":"levelo_inurba_marseille","lat":43.24798,"lon":5.37462,"is_reserved":false,"is_disabled":false,"rental_uris":{"android":"levelo://app?vid=93cd12d2-ee52-454b-a1c6-a2a94b1185da","ios":"levelo://app?vid=93cd12d2-ee52-454b-a1c6-a2a94b1185da"},"vehicle_type_id":"4","last_reported":1734678509,"current_range_meters":38800,"station_id":"ce4bhgh2rcd13ifvqfb0","pricing_plan_id":"cebpf4jnsgd1na2vs0mg"},{"bike_id":"02bf8158-426b-4335-9b97-c473816a1fd2","system_id":"levelo_inurba_marseille","lat":43.25827,"lon":5.394331,"is_reserved":false,"is_disabled":false,"rental_uris":{"android":"levelo://app?vid=02bf8158-426b-4335-9b97-c473816a1fd2","ios":"levelo://app?vid=02bf8158-426b-4335-9b97-c473816a1fd2"},"vehicle_type_id":"4","last_reported":1734678509,"current_range_meters":38800,"station_id":"ce4bhip2rcd13ifvqft0","pricing_plan_id":"cebpf4jnsgd1na2vs0mg"},{"bike_id":"1edc6ca8-647d-43c4-a320-d442ef77864e","system_id":"levelo_inurba_marseille","lat":43.308863,"lon":5.378124,"is_reserved":false,"is_disabled":false,"rental_uris":{"android":"levelo://app?vid=1edc6ca8-647d-43c4-a320-d442ef77864e","ios":"levelo://app?vid=1edc6ca8-647d-43c4-a320-d442ef77864e"},"vehicle_type_id":"4","last_reported":1734678509,"current_range_meters":19200,"station_id":"","pricing_plan_id":"cebpf4jnsgd1na2vs0mg"},{"bike_id":"c7f24469-1136-4e21-b84a-0a12ce3b4eea","system_id":"levelo_inurba_marseille","lat":43.3169,"lon":5.4046,"is_reserved":false,"is_disabled":false,"rental_uris":{"android":"levelo://app?vid=c7f24469-1136-4e21-b84a-0a12ce3b4eea","ios":"levelo://app?vid=c7f24469-1136-4e21-b84a-0a12ce3b4eea"},"vehicle_type_id":"4","last_reported":1734678509,"current_range_meters":4800,"station_id":"ce4bh012rcd13ifvqd00","pricing_plan_id":"cebpf4jnsgd1na2vs0mg"},{"bike_id":"cc50149b-a9a4-4cf7-b279-15886a00ebba","system_id":"levelo_inurba_marseille","lat":43.264894,"lon":5.395624,"is_reserved":false,"is_disabled":false,"rental_uris":{"android":"levelo://app?vid=cc50149b-a9a4-4cf7-b279-15886a00ebba","ios":"levelo://app?vid=cc50149b-a9a4-4cf7-b279-15886a00ebba"},"vehicle_type_id":"4","last_reported":1734678509,"current_range_meters":8800,"station_id":"ce4bhi12rcd13ifvqfq0","pricing_plan_id":"cebpf4jnsgd1na2vs0mg"},{"bike_id":"da5b8463-1fd2-4b15-ac33-d18cb34a719f","system_id":"levelo_inurba_marseille","lat":43.28731,"lon":5.37926,"is_reserved":false,"is_disabled":false,"rental_uris":{"android":"levelo://app?vid=da5b8463-1fd2-4b15-ac33-d18cb34a719f","ios":"levelo://app?vid=da5b8463-1fd2-4b15-ac33-d18cb34a719f"},"vehicle_type_id":"4","last_reported":1734678509,"current_range_meters":30400,"station_id":"ce4bh9p2rcd13ifvqec0","pricing_plan_id":"cebpf4jnsgd1na2vs0mg"},{"bike_id":"6b014958-7605-46d4-8608-b6e668340cb7","system_id":"levelo_inurba_marseille","lat":43.27495,"lon":5.42449,"is_reserved":false,"is_disabled":false,"rental_uris":{"android":"levelo://app?vid=6b014958-7605-46d4-8608-b6e668340cb7","ios":"levelo://app?vid=6b014958-7605-46d4-8608-b6e668340cb7"},"vehicle_type_id":"4","last_reported":1734678509,"current_range_meters":27600,"station_id":"ce4bhn92rcd13ifvqgrg","pricing_plan_id":"cebpf4jnsgd1na2vs0mg"},{"bike_id":"b3631b15-1bf5-47b8-ba47-85c40ffe4d8d","system_id":"levelo_inurba_marseille","lat":43.29634,"lon":5.40596,"is_reserved":false,"is_disabled":false,"rental_uris":{"android":"levelo://app?vid=b3631b15-1bf5-47b8-ba47-85c40ffe4d8d","ios":"levelo://app?vid=b3631b15-1bf5-47b8-ba47-85c40ffe4d8d"},"vehicle_type_id":"4","last_reported":1734678509,"current_range_meters":39200,"station_id":"ce4bh0h2rcd13ifvqd60","pricing_plan_id":"cebpf4jnsgd1na2vs0mg"},{"bike_id":"e54c3fa3-f9e8-43fa-97ab-12f5b2a3bfae","system_id":"levelo_inurba_marseille","lat":43.27838,"lon":5.39205,"is_reserved":false,"is_disabled":true,"rental_uris":{"android":"levelo://app?vid=e54c3fa3-f9e8-43fa-97ab-12f5b2a3bfae","ios":"levelo://app?vid=e54c3fa3-f9e8-43fa-97ab-12f5b2a3bfae"},"vehicle_type_id":"4","last_reported":1734678509,"current_range_meters":25600,"station_id":"ce4bhjp2rcd13ifvqga0","pricing_plan_id":"cebpf4jnsgd1na2vs0mg"},{"bike_id":"85f27a5d-9af7-4b09-a20c-f802a8f11d6d","system_id":"levelo_inurba_marseille","lat":43.3266,"lon":5.40987,"is_reserved":false,"is_disabled":false,"rental_uris":{"android":"levelo://app?vid=85f27a5d-9af7-4b09-a20c-f802a8f11d6d","ios":"levelo://app?vid=85f27a5d-9af7-4b09-a20c-f802a8f11d6d"},"vehicle_type_id":"4","last_reported":1734678509,"current_range_meters":11600,"station_id":"ce4bhpp2rcd13ifvqhgg","pricing_plan_id":"cebpf4jnsgd1na2vs0mg"},{"bike_id":"d34bdf4f-71bc-4ae4-b273-f3852ddc692a","system_id":"levelo_inurba_marseille","lat":43.33756,"lon":5.37472,"is_reserved":false,"is_disabled":false,"rental_uris":{"android":"levelo://app?vid=d34bdf4f-71bc-4ae4-b273-f3852ddc692a","ios":"levelo://app?vid=d34bdf4f-71bc-4ae4-b273-f3852ddc692a"},"vehicle_type_id":"4","last_reported":1734678509,"current_range_meters":34000,"station_id":"","pricing_plan_id":"cebpf4jnsgd1na2vs0mg"},{"bike_id":"3b9a3b2e-7f08-4f9d-8f02-b39ce163fee8","system_id":"levelo_inurba_marseille","lat":43.28354,"lon":5.38104,"is_reserved":false,"is_disabled":false,"rental_uris":{"android":"levelo://app?vid=3b9a3b2e-7f08-4f9d-8f02-b39ce163fee8","ios":"levelo://app?vid=3b9a3b2e-7f08-4f9d-8f02-b39ce163fee8"},"vehicle_type_id":"4","last_reported":1734678509,"current_range_meters":32000,"station_id":"ce4bh412rcd13ifvqdr0","pricing_plan_id":"cebpf4jnsgd1na2vs0mg"},{"bike_id":"e321639c-4595-4d43-bf45-d97330a7441b","system_id":"levelo_inurba_marseille","lat":43.29702,"lon":5.37701,"is_reserved":false,"is_disabled":false,"rental_uris":{"android":"levelo://app?vid=e321639c-4595-4d43-bf45-d97330a7441b","ios":"levelo://app?vid=e321639c-4595-4d43-bf45-d97330a7441b"},"vehicle_type_id":"4","last_reported":1734678509,"current_range_meters":27600,"station_id":"ce4bgkh2rcd13ifvqbl0","pricing_plan_id":"cebpf4jnsgd1na2vs0mg"},{"bike_id":"f2fc6ae9-04e4-49f4-aaff-ea1873a715aa","system_id":"levelo_inurba_marseille","lat":43.28943,"lon":5.39626,"is_reserved":false,"is_disabled":false,"rental_uris":{"android":"levelo://app?vid=f2fc6ae9-04e4-49f4-aaff-ea1873a715aa","ios":"levelo://app?vid=f2fc6ae9-04e4-49f4-aaff-ea1873a715aa"},"vehicle_type_id":"4","last_reported":1734678509,"current_range_meters":17200,"station_id":"ce4bh3h2rcd13ifvqdn0","pricing_plan_id":"cebpf4jnsgd1na2vs0mg"},{"bike_id":"c7a472ed-6dc3-4cde-83b8-4deb8af0b49b","system_id":"levelo_inurba_marseille","lat":43.24342,"lon":5.37096,"is_reserved":false,"is_disabled":false,"rental_uris":{"android":"levelo://app?vid=c7a472ed-6dc3-4cde-83b8-4deb8af0b49b","ios":"levelo://app?vid=c7a472ed-6dc3-4cde-83b8-4deb8af0b49b"},"vehicle_type_id":"4","last_reported":1734678509,"current_range_meters":23200,"station_id":"ce4bhhh2rcd13ifvqfk0","pricing_plan_id":"cebpf4jnsgd1na2vs0mg"},{"bike_id":"af375b95-98ed-4d0c-a1db-a5220a0cbfa9","system_id":"levelo_inurba_marseille","lat":43.31688,"lon":5.40464,"is_reserved":false,"is_disabled":false,"rental_uris":{"android":"levelo://app?vid=af375b95-98ed-4d0c-a1db-a5220a0cbfa9","ios":"levelo://app?vid=af375b95-98ed-4d0c-a1db-a5220a0cbfa9"},"vehicle_type_id":"4","last_reported":1734678509,"current_range_meters":38000,"station_id":"ce4bh012rcd13ifvqd00","pricing_plan_id":"cebpf4jnsgd1na2vs0mg"},{"bike_id":"634925c6-e747-41aa-a60b-fef68a98e603","system_id":"levelo_inurba_marseille","lat":43.24075,"lon":5.37757,"is_reserved":false,"is_disabled":false,"rental_uris":{"android":"levelo://app?vid=634925c6-e747-41aa-a60b-fef68a98e603","ios":"levelo://app?vid=634925c6-e747-41aa-a60b-fef68a98e603"},"vehicle_type_id":"4","last_reported":1734678509,"current_range_meters":20400,"station_id":"ce4bhnp2rcd13ifvqgvg","pricing_plan_id":"cebpf4jnsgd1na2vs0mg"},{"bike_id":"b042baac-48e3-41d4-beca-2c2cc4a183f1","system_id":"levelo_inurba_marseille","lat":43.23208,"lon":5.35556,"is_reserved":false,"is_disabled":false,"rental_uris":{"android":"levelo://app?vid=b042baac-48e3-41d4-beca-2c2cc4a183f1","ios":"levelo://app?vid=b042baac-48e3-41d4-beca-2c2cc4a183f1"},"vehicle_type_id":"4","last_reported":1734678509,"current_range_meters":38000,"station_id":"ce4bhu92rcd13ifvqi70","pricing_plan_id":"cebpf4jnsgd1na2vs0mg"},{"bike_id":"21f3b4b0-629b-4fa2-96da-cad2785c3a14","system_id":"levelo_inurba_marseille","lat":43.28156,"lon":5.4264,"is_reserved":false,"is_disabled":false,"rental_uris":{"android":"levelo://app?vid=21f3b4b0-629b-4fa2-96da-cad2785c3a14","ios":"levelo://app?vid=21f3b4b0-629b-4fa2-96da-cad2785c3a14"},"vehicle_type_id":"4","last_reported":1734678509,"current_range_meters":37600,"station_id":"ce4bhnh2rcd13ifvqgug","pricing_plan_id":"cebpf4jnsgd1na2vs0mg"},{"bike_id":"b0a13592-7cce-4d9c-b407-7810a71613ab","system_id":"levelo_inurba_marseille","lat":43.28736,"lon":5.36111,"is_reserved":false,"is_disabled":false,"rental_uris":{"android":"levelo://app?vid=b0a13592-7cce-4d9c-b407-7810a71613ab","ios":"levelo://app?vid=b0a13592-7cce-4d9c-b407-7810a71613ab"},"vehicle_type_id":"4","last_reported":1734678509,"current_range_meters":36800,"station_id":"cki0cbj6b192h4jlfktg","pricing_plan_id":"cebpf4jnsgd1na2vs0mg"},{"bike_id":"a3490aca-cd3e-423c-b291-413d54e7a9b6","system_id":"levelo_inurba_marseille","lat":43.29709,"lon":5.37614,"is_reserved":false,"is_disabled":false,"rental_uris":{"android":"levelo://app?vid=a3490aca-cd3e-423c-b291-413d54e7a9b6","ios":"levelo://app?vid=a3490aca-cd3e-423c-b291-413d54e7a9b6"},"vehicle_type_id":"4","last_reported":1734678509,"current_range_meters":38000,"station_id":"","pricing_plan_id":"cebpf4jnsgd1na2vs0mg"},{"bike_id":"48402390-8bf8-4527-8226-790169c2cea8","system_id":"levelo_inurba_marseille","lat":43.24112,"lon":5.37719,"is_reserved":false,"is_disabled":false,"rental_uris":{"android":"levelo://app?vid=48402390-8bf8-4527-8226-790169c2cea8","ios":"levelo://app?vid=48402390-8bf8-4527-8226-790169c2cea8"},"vehicle_type_id":"4","last_reported":1734678509,"current_range_meters":39200,"station_id":"ce4bhnp2rcd13ifvqgvg","pricing_plan_id":"cebpf4jnsgd1na2vs0mg"},{"bike_id":"8c4ecedf-c52e-488a-b2f9-f8570f79cdde","system_id":"levelo_inurba_marseille","lat":43.2808,"lon":5.39656,"is_reserved":false,"is_disabled":false,"rental_uris":{"android":"levelo://app?vid=8c4ecedf-c52e-488a-b2f9-f8570f79cdde","ios":"levelo://app?vid=8c4ecedf-c52e-488a-b2f9-f8570f79cdde"},"vehicle_type_id":"4","last_reported":1734678509,"current_range_meters":38800,"station_id":"ce4bho12rcd13ifvqh2g","pricing_plan_id":"cebpf4jnsgd1na2vs0mg"},{"bike_id":"3f35c514-84c7-403c-be41-f914dbb94369","system_id":"levelo_inurba_marseille","lat":43.24662,"lon":5.38885,"is_reserved":false,"is_disabled":false,"rental_uris":{"android":"levelo://app?vid=3f35c514-84c7-403c-be41-f914dbb94369","ios":"levelo://app?vid=3f35c514-84c7-403c-be41-f914dbb94369"},"vehicle_type_id":"4","last_reported":1734678509,"current_range_meters":38800,"station_id":"ce4bhg12rcd13ifvqf60","pricing_plan_id":"cebpf4jnsgd1na2vs0mg"},{"bike_id":"1ad097df-a24e-4259-a08f-6afbc2b46c5b","system_id":"levelo_inurba_marseille","lat":43.25936,"lon":5.40897,"is_reserved":false,"is_disabled":false,"rental_uris":{"android":"levelo://app?vid=1ad097df-a24e-4259-a08f-6afbc2b46c5b","ios":"levelo://app?vid=1ad097df-a24e-4259-a08f-6afbc2b46c5b"},"vehicle_type_id":"4","last_reported":1734678509,"current_range_meters":28400,"station_id":"ce4bhm92rcd13ifvqglg","pricing_plan_id":"cebpf4jnsgd1na2vs0mg"},{"bike_id":"f20cd36c-a895-444d-b8aa-a67ddb893a61","system_id":"levelo_inurba_marseille","lat":43.30662,"lon":5.40079,"is_reserved":false,"is_disabled":true,"rental_uris":{"android":"levelo://app?vid=f20cd36c-a895-444d-b8aa-a67ddb893a61","ios":"levelo://app?vid=f20cd36c-a895-444d-b8aa-a67ddb893a61"},"vehicle_type_id":"4","last_reported":1734678509,"current_range_meters":6000,"station_id":"ce4bh112rcd13ifvqda0","pricing_plan_id":"cebpf4jnsgd1na2vs0mg"},{"bike_id":"6d32b82e-979e-4c43-81da-d68e20cc1423","system_id":"levelo_inurba_marseille","lat":43.31717,"lon":5.42405,"is_reserved":false,"is_disabled":false,"rental_uris":{"android":"levelo://app?vid=6d32b82e-979e-4c43-81da-d68e20cc1423","ios":"levelo://app?vid=6d32b82e-979e-4c43-81da-d68e20cc1423"},"vehicle_type_id":"4","last_reported":1734678509,"current_range_meters":28400,"station_id":"ce4bhp92rcd13ifvqhbg","pricing_plan_id":"cebpf4jnsgd1na2vs0mg"},{"bike_id":"45eef7a2-7813-485d-b132-f34196de9793","system_id":"levelo_inurba_marseille","lat":43.28727,"lon":5.3609,"is_reserved":false,"is_disabled":true,"rental_uris":{"android":"levelo://app?vid=45eef7a2-7813-485d-b132-f34196de9793","ios":"levelo://app?vid=45eef7a2-7813-485d-b132-f34196de9793"},"vehicle_type_id":"4","last_reported":1734678509,"current_range_meters":22400,"station_id":"cki0cbj6b192h4jlfktg","pricing_plan_id":"cebpf4jnsgd1na2vs0mg"},{"bike_id":"7d8b4789-db38-4881-a12e-8303c1c118b0","system_id":"levelo_inurba_marseille","lat":43.30534,"lon":5.366788,"is_reserved":false,"is_disabled":false,"rental_uris":{"android":"levelo://app?vid=7d8b4789-db38-4881-a12e-8303c1c118b0","ios":"levelo://app?vid=7d8b4789-db38-4881-a12e-8303c1c118b0"},"vehicle_type_id":"4","last_reported":1734678509,"current_range_meters":39200,"station_id":"ce4bgrp2rcd13ifvqc9g","pricing_plan_id":"cebpf4jnsgd1na2vs0mg"},{"bike_id":"c45dacc3-e678-4b51-98dc-7d1508abf0d0","system_id":"levelo_inurba_marseille","lat":43.296409,"lon":5.406002,"is_reserved":false,"is_disabled":false,"rental_uris":{"android":"levelo://app?vid=c45dacc3-e678-4b51-98dc-7d1508abf0d0","ios":"levelo://app?vid=c45dacc3-e678-4b51-98dc-7d1508abf0d0"},"vehicle_type_id":"4","last_reported":1734678509,"current_range_meters":27600,"station_id":"ce4bh0h2rcd13ifvqd60","pricing_plan_id":"cebpf4jnsgd1na2vs0mg"},{"bike_id":"c2f562b7-e571-418d-8c7d-e6c36c6f1b41","system_id":"levelo_inurba_marseille","lat":43.2868,"lon":5.36355,"is_reserved":false,"is_disabled":true,"rental_uris":{"android":"levelo://app?vid=c2f562b7-e571-418d-8c7d-e6c36c6f1b41","ios":"levelo://app?vid=c2f562b7-e571-418d-8c7d-e6c36c6f1b41"},"vehicle_type_id":"4","last_reported":1734678509,"current_range_meters":38800,"station_id":"ce4bhah2rcd13ifvqej0","pricing_plan_id":"cebpf4jnsgd1na2vs0mg"},{"bike_id":"fd516522-efeb-4c3a-b168-4e7991d4eb25","system_id":"levelo_inurba_marseille","lat":43.24077,"lon":5.37743,"is_reserved":false,"is_disabled":false,"rental_uris":{"android":"levelo://app?vid=fd516522-efeb-4c3a-b168-4e7991d4eb25","ios":"levelo://app?vid=fd516522-efeb-4c3a-b168-4e7991d4eb25"},"vehicle_type_id":"4","last_reported":1734678509,"current_range_meters":22400,"station_id":"ce4bhnp2rcd13ifvqgvg","pricing_plan_id":"cebpf4jnsgd1na2vs0mg"},{"bike_id":"aea0bc00-6957-410b-8879-acc061f81159","system_id":"levelo_inurba_marseille","lat":43.31887,"lon":5.40735,"is_reserved":false,"is_disabled":false,"rental_uris":{"android":"levelo://app?vid=aea0bc00-6957-410b-8879-acc061f81159","ios":"levelo://app?vid=aea0bc00-6957-410b-8879-acc061f81159"},"vehicle_type_id":"4","last_reported":1734678509,"current_range_meters":10000,"station_id":"ce4bhq12rcd13ifvqhig","pricing_plan_id":"cebpf4jnsgd1na2vs0mg"},{"bike_id":"33ab6395-1ea8-4014-8aec-23b0d3576df2","system_id":"levelo_inurba_marseille","lat":43.29603,"lon":5.38087,"is_reserved":false,"is_disabled":true,"rental_uris":{"android":"levelo://app?vid=33ab6395-1ea8-4014-8aec-23b0d3576df2","ios":"levelo://app?vid=33ab6395-1ea8-4014-8aec-23b0d3576df2"},"vehicle_type_id":"4","last_reported":1734678509,"current_range_meters":24400,"station_id":"ce4bgl12rcd13ifvqbo0","pricing_plan_id":"cebpf4jnsgd1na2vs0mg"},{"bike_id":"744a824f-4b40-4cbc-a6d2-44c6b8019656","system_id":"levelo_inurba_marseille","lat":43.30782,"lon":5.37657,"is_reserved":false,"is_disabled":false,"rental_uris":{"android":"levelo://app?vid=744a824f-4b40-4cbc-a6d2-44c6b8019656","ios":"levelo://app?vid=744a824f-4b40-4cbc-a6d2-44c6b8019656"},"vehicle_type_id":"4","last_reported":1734678509,"current_range_meters":8800,"station_id":"ce4bgv92rcd13ifvqcq0","pricing_plan_id":"cebpf4jnsgd1na2vs0mg"},{"bike_id":"e3abb7e0-9fa8-46b1-a69d-69b2f3b7f2a3","system_id":"levelo_inurba_marseille","lat":43.2814,"lon":5.37814,"is_reserved":false,"is_disabled":false,"rental_uris":{"android":"levelo://app?vid=e3abb7e0-9fa8-46b1-a69d-69b2f3b7f2a3","ios":"levelo://app?vid=e3abb7e0-9fa8-46b1-a69d-69b2f3b7f2a3"},"vehicle_type_id":"4","last_reported":1734678509,"current_range_meters":38800,"station_id":"ce4bha12rcd13ifvqee0","pricing_plan_id":"cebpf4jnsgd1na2vs0mg"},{"bike_id":"7af83c46-7321-45a6-ad9f-7da0406f0625","system_id":"levelo_inurba_marseille","lat":43.2721,"lon":5.39179,"is_reserved":false,"is_disabled":false,"rental_uris":{"android":"levelo://app?vid=7af83c46-7321-45a6-ad9f-7da0406f0625","ios":"levelo://app?vid=7af83c46-7321-45a6-ad9f-7da0406f0625"},"vehicle_type_id":"4","last_reported":1734678509,"current_range_meters":16400,"station_id":"ce4bhhp2rcd13ifvqfm0","pricing_plan_id":"cebpf4jnsgd1na2vs0mg"},{"bike_id":"1065be10-03a4-48b6-81c1-fd7114d97a12","system_id":"levelo_inurba_marseille","lat":43.2815,"lon":5.42627,"is_reserved":false,"is_disabled":true,"rental_uris":{"android":"levelo://app?vid=1065be10-03a4-48b6-81c1-fd7114d97a12","ios":"levelo://app?vid=1065be10-03a4-48b6-81c1-fd7114d97a12"},"vehicle_type_id":"4","last_reported":1734678509,"current_range_meters":27200,"station_id":"ce4bhnh2rcd13ifvqgug","pricing_plan_id":"cebpf4jnsgd1na2vs0mg"},{"bike_id":"5a13edbc-5401-4b4b-8c54-0c1b8d4458d7","system_id":"levelo_inurba_marseille","lat":43.32555,"lon":5.41439,"is_reserved":false,"is_disabled":false,"rental_uris":{"android":"levelo://app?vid=5a13edbc-5401-4b4b-8c54-0c1b8d4458d7","ios":"levelo://app?vid=5a13edbc-5401-4b4b-8c54-0c1b8d4458d7"},"vehicle_type_id":"4","last_reported":1734678509,"current_range_meters":39200,"station_id":"ce4bhq12rcd13ifvqhhg","pricing_plan_id":"cebpf4jnsgd1na2vs0mg"},{"bike_id":"5b0bebbe-c4b4-483d-8018-bf028c8379d1","system_id":"levelo_inurba_marseille","lat":43.27497,"lon":5.42447,"is_reserved":false,"is_disabled":false,"rental_uris":{"android":"levelo://app?vid=5b0bebbe-c4b4-483d-8018-bf028c8379d1","ios":"levelo://app?vid=5b0bebbe-c4b4-483d-8018-bf028c8379d1"},"vehicle_type_id":"4","last_reported":1734678509,"current_range_meters":35200,"station_id":"ce4bhn92rcd13ifvqgrg","pricing_plan_id":"cebpf4jnsgd1na2vs0mg"},{"bike_id":"c5d3dda4-9397-4823-9c8b-ea8eda2ab949","system_id":"levelo_inurba_marseille","lat":43.23968,"lon":5.3663,"is_reserved":false,"is_disabled":false,"rental_uris":{"android":"levelo://app?vid=c5d3dda4-9397-4823-9c8b-ea8eda2ab949","ios":"levelo://app?vid=c5d3dda4-9397-4823-9c8b-ea8eda2ab949"},"vehicle_type_id":"4","last_reported":1734678509,"current_range_meters":36000,"station_id":"ce4bhi12rcd13ifvqfp0","pricing_plan_id":"cebpf4jnsgd1na2vs0mg"},{"bike_id":"bf06a9eb-8c15-4b16-83ce-1a9bc0374842","system_id":"levelo_inurba_marseille","lat":43.28717,"lon":5.3999,"is_reserved":false,"is_disabled":false,"rental_uris":{"android":"levelo://app?vid=bf06a9eb-8c15-4b16-83ce-1a9bc0374842","ios":"levelo://app?vid=bf06a9eb-8c15-4b16-83ce-1a9bc0374842"},"vehicle_type_id":"4","last_reported":1734678509,"current_range_meters":30800,"station_id":"ce4bho92rcd13ifvqh3g","pricing_plan_id":"cebpf4jnsgd1na2vs0mg"},{"bike_id":"46198677-8181-458c-98d7-2b979410eb9a","system_id":"levelo_inurba_marseille","lat":43.28361,"lon":5.38625,"is_reserved":false,"is_disabled":false,"rental_uris":{"android":"levelo://app?vid=46198677-8181-458c-98d7-2b979410eb9a","ios":"levelo://app?vid=46198677-8181-458c-98d7-2b979410eb9a"},"vehicle_type_id":"4","last_reported":1734678509,"current_range_meters":38800,"station_id":"ce4bh492rcd13ifvqdvg","pricing_plan_id":"cebpf4jnsgd1na2vs0mg"},{"bike_id":"873fe369-0c50-48a9-b4aa-a5854dc957cf","system_id":"levelo_inurba_marseille","lat":43.315,"lon":5.37302,"is_reserved":false,"is_disabled":false,"rental_uris":{"android":"levelo://app?vid=873fe369-0c50-48a9-b4aa-a5854dc957cf","ios":"levelo://app?vid=873fe369-0c50-48a9-b4aa-a5854dc957cf"},"vehicle_type_id":"4","last_reported":1734678509,"current_range_meters":10800,"station_id":"ce4bgt12rcd13ifvqcd0","pricing_plan_id":"cebpf4jnsgd1na2vs0mg"},{"bike_id":"b11dec3c-37ae-4e5f-a182-7db8571c22d2","system_id":"levelo_inurba_marseille","lat":43.299025,"lon":5.436708,"is_reserved":false,"is_disabled":false,"rental_uris":{"android":"levelo://app?vid=b11dec3c-37ae-4e5f-a182-7db8571c22d2","ios":"levelo://app?vid=b11dec3c-37ae-4e5f-a182-7db8571c22d2"},"vehicle_type_id":"4","last_reported":1734678509,"current_range_meters":34000,"station_id":"ce4bhpp2rcd13ifvqhfg","pricing_plan_id":"cebpf4jnsgd1na2vs0mg"},{"bike_id":"38cd9618-79a9-4f99-a82d-b058223cf2c2","system_id":"levelo_inurba_marseille","lat":43.31275,"lon":5.40163,"is_reserved":false,"is_disabled":false,"rental_uris":{"android":"levelo://app?vid=38cd9618-79a9-4f99-a82d-b058223cf2c2","ios":"levelo://app?vid=38cd9618-79a9-4f99-a82d-b058223cf2c2"},"vehicle_type_id":"4","last_reported":1734678509,"current_range_meters":38800,"station_id":"ce4bh092rcd13ifvqd30","pricing_plan_id":"cebpf4jnsgd1na2vs0mg"},{"bike_id":"72492ff3-d3e5-4b81-822b-1d3357339451","system_id":"levelo_inurba_marseille","lat":43.29079,"lon":5.39917,"is_reserved":false,"is_disabled":true,"rental_uris":{"android":"levelo://app?vid=72492ff3-d3e5-4b81-822b-1d3357339451","ios":"levelo://app?vid=72492ff3-d3e5-4b81-822b-1d3357339451"},"vehicle_type_id":"4","last_reported":1734678509,"current_range_meters":32400,"station_id":"","pricing_plan_id":"cebpf4jnsgd1na2vs0mg"},{"bike_id":"ac35e660-89e6-4739-9d9a-129983f77756","system_id":"levelo_inurba_marseille","lat":43.30884,"lon":5.37187,"is_reserved":false,"is_disabled":false,"rental_uris":{"android":"levelo://app?vid=ac35e660-89e6-4739-9d9a-129983f77756","ios":"levelo://app?vid=ac35e660-89e6-4739-9d9a-129983f77756"},"vehicle_type_id":"4","last_reported":1734678509,"current_range_meters":12400,"station_id":"ce4bguh2rcd13ifvqckg","pricing_plan_id":"cebpf4jnsgd1na2vs0mg"},{"bike_id":"68cc3280-8c90-422e-b1e6-051d15979724","system_id":"levelo_inurba_marseille","lat":43.23196,"lon":5.39972,"is_reserved":false,"is_disabled":false,"rental_uris":{"android":"levelo://app?vid=68cc3280-8c90-422e-b1e6-051d15979724","ios":"levelo://app?vid=68cc3280-8c90-422e-b1e6-051d15979724"},"vehicle_type_id":"4","last_reported":1734678509,"current_range_meters":18800,"station_id":"ce4bhn12rcd13ifvqgqg","pricing_plan_id":"cebpf4jnsgd1na2vs0mg"},{"bike_id":"2f3ffe14-db03-4fbe-b9e8-6285c689975c","system_id":"levelo_inurba_marseille","lat":43.31334,"lon":5.3972,"is_reserved":false,"is_disabled":true,"rental_uris":{"android":"levelo://app?vid=2f3ffe14-db03-4fbe-b9e8-6285c689975c","ios":"levelo://app?vid=2f3ffe14-db03-4fbe-b9e8-6285c689975c"},"vehicle_type_id":"4","last_reported":1734678509,"current_range_meters":16400,"station_id":"ce4bgvp2rcd13ifvqcu0","pricing_plan_id":"cebpf4jnsgd1na2vs0mg"},{"bike_id":"15764109-8605-4b33-853f-a3ee4feb13d9","system_id":"levelo_inurba_marseille","lat":43.27501,"lon":5.42459,"is_reserved":false,"is_disabled":false,"rental_uris":{"android":"levelo://app?vid=15764109-8605-4b33-853f-a3ee4feb13d9","ios":"levelo://app?vid=15764109-8605-4b33-853f-a3ee4feb13d9"},"vehicle_type_id":"4","last_reported":1734678509,"current_range_meters":33600,"station_id":"ce4bhn92rcd13ifvqgrg","pricing_plan_id":"cebpf4jnsgd1na2vs0mg"},{"bike_id":"829137e0-4e72-4164-b199-ceb19f2bf2f1","system_id":"levelo_inurba_marseille","lat":43.30775,"lon":5.37653,"is_reserved":false,"is_disabled":false,"rental_uris":{"android":"levelo://app?vid=829137e0-4e72-4164-b199-ceb19f2bf2f1","ios":"levelo://app?vid=829137e0-4e72-4164-b199-ceb19f2bf2f1"},"vehicle_type_id":"4","last_reported":1734678509,"current_range_meters":38800,"station_id":"ce4bgv92rcd13ifvqcq0","pricing_plan_id":"cebpf4jnsgd1na2vs0mg"},{"bike_id":"5ceec70c-2f52-4dde-85a6-c924e820245f","system_id":"levelo_inurba_marseille","lat":43.30467,"lon":5.37909,"is_reserved":false,"is_disabled":false,"rental_uris":{"android":"levelo://app?vid=5ceec70c-2f52-4dde-85a6-c924e820245f","ios":"levelo://app?vid=5ceec70c-2f52-4dde-85a6-c924e820245f"},"vehicle_type_id":"4","last_reported":1734678509,"current_range_meters":38000,"station_id":"ce4bgup2rcd13ifvqcn0","pricing_plan_id":"cebpf4jnsgd1na2vs0mg"},{"bike_id":"b3c94148-282c-49ef-bed3-a778d2e917e9","system_id":"levelo_inurba_marseille","lat":43.30154,"lon":5.38085,"is_reserved":false,"is_disabled":false,"rental_uris":{"android":"levelo://app?vid=b3c94148-282c-49ef-bed3-a778d2e917e9","ios":"levelo://app?vid=b3c94148-282c-49ef-bed3-a778d2e917e9"},"vehicle_type_id":"4","last_reported":1734678509,"current_range_meters":38000,"station_id":"ce4bgjp2rcd13ifvqbh0","pricing_plan_id":"cebpf4jnsgd1na2vs0mg"},{"bike_id":"a0b13504-4db3-4c1c-85c9-95caada3e30d","system_id":"levelo_inurba_marseille","lat":43.25939,"lon":5.40899,"is_reserved":false,"is_disabled":true,"rental_uris":{"android":"levelo://app?vid=a0b13504-4db3-4c1c-85c9-95caada3e30d","ios":"levelo://app?vid=a0b13504-4db3-4c1c-85c9-95caada3e30d"},"vehicle_type_id":"4","last_reported":1734678509,"current_range_meters":30800,"station_id":"ce4bhm92rcd13ifvqglg","pricing_plan_id":"cebpf4jnsgd1na2vs0mg"},{"bike_id":"7e3d8fa3-fffb-4def-be15-97da16be02ee","system_id":"levelo_inurba_marseille","lat":43.26786,"lon":5.3941,"is_reserved":false,"is_disabled":false,"rental_uris":{"android":"levelo://app?vid=7e3d8fa3-fffb-4def-be15-97da16be02ee","ios":"levelo://app?vid=7e3d8fa3-fffb-4def-be15-97da16be02ee"},"vehicle_type_id":"4","last_reported":1734678509,"current_range_meters":16400,"station_id":"ce4bhh12rcd13ifvqfg0","pricing_plan_id":"cebpf4jnsgd1na2vs0mg"},{"bike_id":"370b1eb6-4f45-4760-84c5-106172693f5d","system_id":"levelo_inurba_marseille","lat":43.23969,"lon":5.36625,"is_reserved":false,"is_disabled":false,"rental_uris":{"android":"levelo://app?vid=370b1eb6-4f45-4760-84c5-106172693f5d","ios":"levelo://app?vid=370b1eb6-4f45-4760-84c5-106172693f5d"},"vehicle_type_id":"4","last_reported":1734678509,"current_range_meters":24800,"station_id":"ce4bhi12rcd13ifvqfp0","pricing_plan_id":"cebpf4jnsgd1na2vs0mg"},{"bike_id":"f49729cb-a2c9-477a-a7b3-4104662936e3","system_id":"levelo_inurba_marseille","lat":43.30595,"lon":5.39356,"is_reserved":false,"is_disabled":false,"rental_uris":{"android":"levelo://app?vid=f49729cb-a2c9-477a-a7b3-4104662936e3","ios":"levelo://app?vid=f49729cb-a2c9-477a-a7b3-4104662936e3"},"vehicle_type_id":"4","last_reported":1734678509,"current_range_meters":26800,"station_id":"ce4bh0p2rcd13ifvqd80","pricing_plan_id":"cebpf4jnsgd1na2vs0mg"},{"bike_id":"782bcbf2-b7de-4b04-bebc-aaa0329dd90c","system_id":"levelo_inurba_marseille","lat":43.23195,"lon":5.35556,"is_reserved":false,"is_disabled":false,"rental_uris":{"android":"levelo://app?vid=782bcbf2-b7de-4b04-bebc-aaa0329dd90c","ios":"levelo://app?vid=782bcbf2-b7de-4b04-bebc-aaa0329dd90c"},"vehicle_type_id":"4","last_reported":1734678509,"current_range_meters":36800,"station_id":"ce4bhu92rcd13ifvqi70","pricing_plan_id":"cebpf4jnsgd1na2vs0mg"},{"bike_id":"37a27d0f-052c-4fc2-bbb9-7ae126b9828e","system_id":"levelo_inurba_marseille","lat":43.30881,"lon":5.39631,"is_reserved":false,"is_disabled":false,"rental_uris":{"android":"levelo://app?vid=37a27d0f-052c-4fc2-bbb9-7ae126b9828e","ios":"levelo://app?vid=37a27d0f-052c-4fc2-bbb9-7ae126b9828e"},"vehicle_type_id":"4","last_reported":1734678509,"current_range_meters":8400,"station_id":"ce4bh012rcd13ifvqcv0","pricing_plan_id":"cebpf4jnsgd1na2vs0mg"},{"bike_id":"67e590f7-0feb-4571-9ae2-729bb19e5be9","system_id":"levelo_inurba_marseille","lat":43.28461,"lon":5.35876,"is_reserved":false,"is_disabled":false,"rental_uris":{"android":"levelo://app?vid=67e590f7-0feb-4571-9ae2-729bb19e5be9","ios":"levelo://app?vid=67e590f7-0feb-4571-9ae2-729bb19e5be9"},"vehicle_type_id":"4","last_reported":1734678509,"current_range_meters":16400,"station_id":"ce4bhah2rcd13ifvqei0","pricing_plan_id":"cebpf4jnsgd1na2vs0mg"},{"bike_id":"dbd0b47d-ec34-4ebc-bdd0-384628bcbaf8","system_id":"levelo_inurba_marseille","lat":43.30151,"lon":5.38088,"is_reserved":false,"is_disabled":false,"rental_uris":{"android":"levelo://app?vid=dbd0b47d-ec34-4ebc-bdd0-384628bcbaf8","ios":"levelo://app?vid=dbd0b47d-ec34-4ebc-bdd0-384628bcbaf8"},"vehicle_type_id":"4","last_reported":1734678509,"current_range_meters":14800,"station_id":"ce4bgjp2rcd13ifvqbh0","pricing_plan_id":"cebpf4jnsgd1na2vs0mg"},{"bike_id":"eef0d09d-84f1-4244-b560-66fbcb7d1d31","system_id":"levelo_inurba_marseille","lat":43.31493,"lon":5.37307,"is_reserved":false,"is_disabled":true,"rental_uris":{"android":"levelo://app?vid=eef0d09d-84f1-4244-b560-66fbcb7d1d31","ios":"levelo://app?vid=eef0d09d-84f1-4244-b560-66fbcb7d1d31"},"vehicle_type_id":"4","last_reported":1734678509,"current_range_meters":9600,"station_id":"ce4bgt12rcd13ifvqcd0","pricing_plan_id":"cebpf4jnsgd1na2vs0mg"},{"bike_id":"96ff88dc-8cf7-4b0f-a345-fa00220da932","system_id":"levelo_inurba_marseille","lat":43.27422,"lon":5.42384,"is_reserved":false,"is_disabled":true,"rental_uris":{"android":"levelo://app?vid=96ff88dc-8cf7-4b0f-a345-fa00220da932","ios":"levelo://app?vid=96ff88dc-8cf7-4b0f-a345-fa00220da932"},"vehicle_type_id":"4","last_reported":1734678509,"current_range_meters":0,"station_id":"","pricing_plan_id":"cebpf4jnsgd1na2vs0mg"},{"bike_id":"1897ad2d-5c02-4d9f-ba4c-937899dfbdc3","system_id":"levelo_inurba_marseille","lat":43.243894,"lon":5.370514,"is_reserved":false,"is_disabled":false,"rental_uris":{"android":"levelo://app?vid=1897ad2d-5c02-4d9f-ba4c-937899dfbdc3","ios":"levelo://app?vid=1897ad2d-5c02-4d9f-ba4c-937899dfbdc3"},"vehicle_type_id":"4","last_reported":1734678509,"current_range_meters":38800,"station_id":"ce4bhhh2rcd13ifvqfk0","pricing_plan_id":"cebpf4jnsgd1na2vs0mg"},{"bike_id":"e9e5d726-62e1-4b6b-a23c-0a4951c24076","system_id":"levelo_inurba_marseille","lat":43.24091,"lon":5.39704,"is_reserved":false,"is_disabled":true,"rental_uris":{"android":"levelo://app?vid=e9e5d726-62e1-4b6b-a23c-0a4951c24076","ios":"levelo://app?vid=e9e5d726-62e1-4b6b-a23c-0a4951c24076"},"vehicle_type_id":"4","last_reported":1734678509,"current_range_meters":0,"station_id":"","pricing_plan_id":"cebpf4jnsgd1na2vs0mg"},{"bike_id":"70c26338-1de7-4494-abac-9afc9d37f40e","system_id":"levelo_inurba_marseille","lat":43.30442,"lon":5.38888,"is_reserved":false,"is_disabled":false,"rental_uris":{"android":"levelo://app?vid=70c26338-1de7-4494-abac-9afc9d37f40e","ios":"levelo://app?vid=70c26338-1de7-4494-abac-9afc9d37f40e"},"vehicle_type_id":"4","last_reported":1734678509,"current_range_meters":35600,"station_id":"ce4bgk12rcd13ifvqbi0","pricing_plan_id":"cebpf4jnsgd1na2vs0mg"},{"bike_id":"c2840fcc-4299-426e-a245-ae5fcf9ae267","system_id":"levelo_inurba_marseille","lat":43.28265,"lon":5.35074,"is_reserved":false,"is_disabled":false,"rental_uris":{"android":"levelo://app?vid=c2840fcc-4299-426e-a245-ae5fcf9ae267","ios":"levelo://app?vid=c2840fcc-4299-426e-a245-ae5fcf9ae267"},"vehicle_type_id":"4","last_reported":1734678509,"current_range_meters":30800,"station_id":"ce4bhbp2rcd13ifvqerg","pricing_plan_id":"cebpf4jnsgd1na2vs0mg"},{"bike_id":"18287233-70c2-47ca-80e5-855fd4e688f9","system_id":"levelo_inurba_marseille","lat":43.2904,"lon":5.3995,"is_reserved":false,"is_disabled":false,"rental_uris":{"android":"levelo://app?vid=18287233-70c2-47ca-80e5-855fd4e688f9","ios":"levelo://app?vid=18287233-70c2-47ca-80e5-855fd4e688f9"},"vehicle_type_id":"4","last_reported":1734678509,"current_range_meters":36400,"station_id":"ce4bh392rcd13ifvqdm0","pricing_plan_id":"cebpf4jnsgd1na2vs0mg"},{"bike_id":"76149aba-788f-404a-9c6c-040f61c91c7a","system_id":"levelo_inurba_marseille","lat":43.23188,"lon":5.39988,"is_reserved":false,"is_disabled":false,"rental_uris":{"android":"levelo://app?vid=76149aba-788f-404a-9c6c-040f61c91c7a","ios":"levelo://app?vid=76149aba-788f-404a-9c6c-040f61c91c7a"},"vehicle_type_id":"4","last_reported":1734678509,"current_range_meters":30800,"station_id":"ce4bhn12rcd13ifvqgqg","pricing_plan_id":"cebpf4jnsgd1na2vs0mg"},{"bike_id":"68766279-1e47-41b7-bb85-1c7115e253cd","system_id":"levelo_inurba_marseille","lat":43.30461,"lon":5.37901,"is_reserved":false,"is_disabled":false,"rental_uris":{"android":"levelo://app?vid=68766279-1e47-41b7-bb85-1c7115e253cd","ios":"levelo://app?vid=68766279-1e47-41b7-bb85-1c7115e253cd"},"vehicle_type_id":"4","last_reported":1734678509,"current_range_meters":30800,"station_id":"ce4bgup2rcd13ifvqcn0","pricing_plan_id":"cebpf4jnsgd1na2vs0mg"},{"bike_id":"2d8b5894-b67b-4461-941b-5fb522bada08","system_id":"levelo_inurba_marseille","lat":43.29522,"lon":5.39404,"is_reserved":false,"is_disabled":false,"rental_uris":{"android":"levelo://app?vid=2d8b5894-b67b-4461-941b-5fb522bada08","ios":"levelo://app?vid=2d8b5894-b67b-4461-941b-5fb522bada08"},"vehicle_type_id":"4","last_reported":1734678509,"current_range_meters":32800,"station_id":"ce4bh292rcd13ifvqdf0","pricing_plan_id":"cebpf4jnsgd1na2vs0mg"},{"bike_id":"330bf880-e1f5-4f4a-b329-f0f879268631","system_id":"levelo_inurba_marseille","lat":43.28863,"lon":5.39314,"is_reserved":false,"is_disabled":true,"rental_uris":{"android":"levelo://app?vid=330bf880-e1f5-4f4a-b329-f0f879268631","ios":"levelo://app?vid=330bf880-e1f5-4f4a-b329-f0f879268631"},"vehicle_type_id":"4","last_reported":1734678509,"current_range_meters":16400,"station_id":"ce4bh2p2rcd13ifvqdi0","pricing_plan_id":"cebpf4jnsgd1na2vs0mg"},{"bike_id":"44127e4e-8e84-4a38-89f7-8f4efb63f7a5","system_id":"levelo_inurba_marseille","lat":43.31201,"lon":5.36747,"is_reserved":false,"is_disabled":true,"rental_uris":{"android":"levelo://app?vid=44127e4e-8e84-4a38-89f7-8f4efb63f7a5","ios":"levelo://app?vid=44127e4e-8e84-4a38-89f7-8f4efb63f7a5"},"vehicle_type_id":"4","last_reported":1734678509,"current_range_meters":0,"station_id":"","pricing_plan_id":"cebpf4jnsgd1na2vs0mg"},{"bike_id":"4c5cdf28-9f8a-48e8-9806-9dada88c6695","system_id":"levelo_inurba_marseille","lat":43.284578,"lon":5.358894,"is_reserved":false,"is_disabled":false,"rental_uris":{"android":"levelo://app?vid=4c5cdf28-9f8a-48e8-9806-9dada88c6695","ios":"levelo://app?vid=4c5cdf28-9f8a-48e8-9806-9dada88c6695"},"vehicle_type_id":"4","last_reported":1734678509,"current_range_meters":39200,"station_id":"ce4bhah2rcd13ifvqei0","pricing_plan_id":"cebpf4jnsgd1na2vs0mg"},{"bike_id":"b1e06d03-68d3-43cb-9412-cd230e42ed52","system_id":"levelo_inurba_marseille","lat":43.31529,"lon":5.38035,"is_reserved":false,"is_disabled":false,"rental_uris":{"android":"levelo://app?vid=b1e06d03-68d3-43cb-9412-cd230e42ed52","ios":"levelo://app?vid=b1e06d03-68d3-43cb-9412-cd230e42ed52"},"vehicle_type_id":"4","last_reported":1734678509,"current_range_meters":28800,"station_id":"ce4bhsp2rcd13ifvqi50","pricing_plan_id":"cebpf4jnsgd1na2vs0mg"},{"bike_id":"60c24abf-7634-4c1d-be8e-3905917c0f35","system_id":"levelo_inurba_marseille","lat":43.26055,"lon":5.39393,"is_reserved":false,"is_disabled":false,"rental_uris":{"android":"levelo://app?vid=60c24abf-7634-4c1d-be8e-3905917c0f35","ios":"levelo://app?vid=60c24abf-7634-4c1d-be8e-3905917c0f35"},"vehicle_type_id":"4","last_reported":1734678509,"current_range_meters":26800,"station_id":"ce4bhh92rcd13ifvqfj0","pricing_plan_id":"cebpf4jnsgd1na2vs0mg"},{"bike_id":"672fcf6f-8699-4143-9c5f-2e6d1ee3aa80","system_id":"levelo_inurba_marseille","lat":43.30544,"lon":5.36702,"is_reserved":false,"is_disabled":true,"rental_uris":{"android":"levelo://app?vid=672fcf6f-8699-4143-9c5f-2e6d1ee3aa80","ios":"levelo://app?vid=672fcf6f-8699-4143-9c5f-2e6d1ee3aa80"},"vehicle_type_id":"4","last_reported":1734678509,"current_range_meters":37600,"station_id":"ce4bgrp2rcd13ifvqc9g","pricing_plan_id":"cebpf4jnsgd1na2vs0mg"},{"bike_id":"ff1810ea-7920-431d-a554-3cf458736fb3","system_id":"levelo_inurba_marseille","lat":43.27558,"lon":5.38422,"is_reserved":false,"is_disabled":false,"rental_uris":{"android":"levelo://app?vid=ff1810ea-7920-431d-a554-3cf458736fb3","ios":"levelo://app?vid=ff1810ea-7920-431d-a554-3cf458736fb3"},"vehicle_type_id":"4","last_reported":1734678509,"current_range_meters":8400,"station_id":"ce4bhh92rcd13ifvqfi0","pricing_plan_id":"cebpf4jnsgd1na2vs0mg"},{"bike_id":"fa450f79-0071-470a-a8a0-47379ffcc822","system_id":"levelo_inurba_marseille","lat":43.25086,"lon":5.3952,"is_reserved":false,"is_disabled":false,"rental_uris":{"android":"levelo://app?vid=fa450f79-0071-470a-a8a0-47379ffcc822","ios":"levelo://app?vid=fa450f79-0071-470a-a8a0-47379ffcc822"},"vehicle_type_id":"4","last_reported":1734678509,"current_range_meters":11600,"station_id":"ce4bhm12rcd13ifvqgkg","pricing_plan_id":"cebpf4jnsgd1na2vs0mg"},{"bike_id":"53225117-64cd-44e0-b31e-41b53bb91e3d","system_id":"levelo_inurba_marseille","lat":43.29268,"lon":5.40124,"is_reserved":false,"is_disabled":false,"rental_uris":{"android":"levelo://app?vid=53225117-64cd-44e0-b31e-41b53bb91e3d","ios":"levelo://app?vid=53225117-64cd-44e0-b31e-41b53bb91e3d"},"vehicle_type_id":"4","last_reported":1734678509,"current_range_meters":34800,"station_id":"ce4bh312rcd13ifvqdk0","pricing_plan_id":"cebpf4jnsgd1na2vs0mg"},{"bike_id":"4f73da72-222a-4c2d-b874-d3da61ddef3b","system_id":"levelo_inurba_marseille","lat":43.30468,"lon":5.37915,"is_reserved":false,"is_disabled":false,"rental_uris":{"android":"levelo://app?vid=4f73da72-222a-4c2d-b874-d3da61ddef3b","ios":"levelo://app?vid=4f73da72-222a-4c2d-b874-d3da61ddef3b"},"vehicle_type_id":"4","last_reported":1734678509,"current_range_meters":38800,"station_id":"ce4bgup2rcd13ifvqcn0","pricing_plan_id":"cebpf4jnsgd1na2vs0mg"},{"bike_id":"82d04b50-e48e-48de-9086-622bd99590fe","system_id":"levelo_inurba_marseille","lat":43.3169,"lon":5.40471,"is_reserved":false,"is_disabled":false,"rental_uris":{"android":"levelo://app?vid=82d04b50-e48e-48de-9086-622bd99590fe","ios":"levelo://app?vid=82d04b50-e48e-48de-9086-622bd99590fe"},"vehicle_type_id":"4","last_reported":1734678509,"current_range_meters":38800,"station_id":"ce4bh012rcd13ifvqd00","pricing_plan_id":"cebpf4jnsgd1na2vs0mg"},{"bike_id":"88d0fca1-50cd-440e-a583-785fe0c07914","system_id":"levelo_inurba_marseille","lat":43.28445,"lon":5.37877,"is_reserved":false,"is_disabled":true,"rental_uris":{"android":"levelo://app?vid=88d0fca1-50cd-440e-a583-785fe0c07914","ios":"levelo://app?vid=88d0fca1-50cd-440e-a583-785fe0c07914"},"vehicle_type_id":"4","last_reported":1734678509,"current_range_meters":6400,"station_id":"","pricing_plan_id":"cebpf4jnsgd1na2vs0mg"},{"bike_id":"62159b96-70de-4225-a341-fe8203f1c374","system_id":"levelo_inurba_marseille","lat":43.28984,"lon":5.39655,"is_reserved":false,"is_disabled":true,"rental_uris":{"android":"levelo://app?vid=62159b96-70de-4225-a341-fe8203f1c374","ios":"levelo://app?vid=62159b96-70de-4225-a341-fe8203f1c374"},"vehicle_type_id":"4","last_reported":1734678509,"current_range_meters":32400,"station_id":"ce4bh3h2rcd13ifvqdn0","pricing_plan_id":"cebpf4jnsgd1na2vs0mg"},{"bike_id":"9283b0cc-83de-4800-a4d0-b9e26ffa17a2","system_id":"levelo_inurba_marseille","lat":43.28468,"lon":5.38555,"is_reserved":false,"is_disabled":false,"rental_uris":{"android":"levelo://app?vid=9283b0cc-83de-4800-a4d0-b9e26ffa17a2","ios":"levelo://app?vid=9283b0cc-83de-4800-a4d0-b9e26ffa17a2"},"vehicle_type_id":"4","last_reported":1734678509,"current_range_meters":35600,"station_id":"ce4bh8p2rcd13ifvqeb0","pricing_plan_id":"cebpf4jnsgd1na2vs0mg"},{"bike_id":"b2e19a8e-8e33-4ed1-b6d7-38b21066e137","system_id":"levelo_inurba_marseille","lat":43.30461,"lon":5.37895,"is_reserved":false,"is_disabled":true,"rental_uris":{"android":"levelo://app?vid=b2e19a8e-8e33-4ed1-b6d7-38b21066e137","ios":"levelo://app?vid=b2e19a8e-8e33-4ed1-b6d7-38b21066e137"},"vehicle_type_id":"4","last_reported":1734678509,"current_range_meters":39200,"station_id":"ce4bgup2rcd13ifvqcn0","pricing_plan_id":"cebpf4jnsgd1na2vs0mg"},{"bike_id":"487dbe1f-087d-4317-b8c9-a64693cd7c5e","system_id":"levelo_inurba_marseille","lat":43.26961,"lon":5.38633,"is_reserved":false,"is_disabled":false,"rental_uris":{"android":"levelo://app?vid=487dbe1f-087d-4317-b8c9-a64693cd7c5e","ios":"levelo://app?vid=487dbe1f-087d-4317-b8c9-a64693cd7c5e"},"vehicle_type_id":"4","last_reported":1734678509,"current_range_meters":18800,"station_id":"ce4bhh92rcd13ifvqfh0","pricing_plan_id":"cebpf4jnsgd1na2vs0mg"},{"bike_id":"828f29bb-8a05-4746-9fe7-aa1022149514","system_id":"levelo_inurba_marseille","lat":43.33612,"lon":5.41036,"is_reserved":false,"is_disabled":true,"rental_uris":{"android":"levelo://app?vid=828f29bb-8a05-4746-9fe7-aa1022149514","ios":"levelo://app?vid=828f29bb-8a05-4746-9fe7-aa1022149514"},"vehicle_type_id":"4","last_reported":1734678509,"current_range_meters":400,"station_id":"ce4bhqh2rcd13ifvqhmg","pricing_plan_id":"cebpf4jnsgd1na2vs0mg"},{"bike_id":"ba6d6cc5-18f5-44d3-b547-a7f751edf6c1","system_id":"levelo_inurba_marseille","lat":43.308883,"lon":5.371984,"is_reserved":false,"is_disabled":false,"rental_uris":{"android":"levelo://app?vid=ba6d6cc5-18f5-44d3-b547-a7f751edf6c1","ios":"levelo://app?vid=ba6d6cc5-18f5-44d3-b547-a7f751edf6c1"},"vehicle_type_id":"4","last_reported":1734678509,"current_range_meters":24000,"station_id":"ce4bguh2rcd13ifvqckg","pricing_plan_id":"cebpf4jnsgd1na2vs0mg"},{"bike_id":"c8a9df44-c9a1-43c7-addd-475d94f4c5ab","system_id":"levelo_inurba_marseille","lat":43.2732,"lon":5.39089,"is_reserved":false,"is_disabled":true,"rental_uris":{"android":"levelo://app?vid=c8a9df44-c9a1-43c7-addd-475d94f4c5ab","ios":"levelo://app?vid=c8a9df44-c9a1-43c7-addd-475d94f4c5ab"},"vehicle_type_id":"4","last_reported":1734678509,"current_range_meters":36800,"station_id":"ce4bhgp2rcd13ifvqfe0","pricing_plan_id":"cebpf4jnsgd1na2vs0mg"},{"bike_id":"eeb165cd-0850-4135-b307-a7a2de607d7b","system_id":"levelo_inurba_marseille","lat":43.28609,"lon":5.37067,"is_reserved":false,"is_disabled":false,"rental_uris":{"android":"levelo://app?vid=eeb165cd-0850-4135-b307-a7a2de607d7b","ios":"levelo://app?vid=eeb165cd-0850-4135-b307-a7a2de607d7b"},"vehicle_type_id":"4","last_reported":1734678509,"current_range_meters":38800,"station_id":"ce4bht12rcd13ifvqi60","pricing_plan_id":"cebpf4jnsgd1na2vs0mg"},{"bike_id":"4dbca0af-a7c9-4b26-ae07-998657b1c2db","system_id":"levelo_inurba_marseille","lat":43.30149,"lon":5.38093,"is_reserved":false,"is_disabled":false,"rental_uris":{"android":"levelo://app?vid=4dbca0af-a7c9-4b26-ae07-998657b1c2db","ios":"levelo://app?vid=4dbca0af-a7c9-4b26-ae07-998657b1c2db"},"vehicle_type_id":"4","last_reported":1734678509,"current_range_meters":35600,"station_id":"ce4bgjp2rcd13ifvqbh0","pricing_plan_id":"cebpf4jnsgd1na2vs0mg"},{"bike_id":"bde16004-2a0c-4fc8-acdd-f812d033bf70","system_id":"levelo_inurba_marseille","lat":43.26065,"lon":5.39388,"is_reserved":false,"is_disabled":false,"rental_uris":{"android":"levelo://app?vid=bde16004-2a0c-4fc8-acdd-f812d033bf70","ios":"levelo://app?vid=bde16004-2a0c-4fc8-acdd-f812d033bf70"},"vehicle_type_id":"4","last_reported":1734678509,"current_range_meters":8800,"station_id":"ce4bhh92rcd13ifvqfj0","pricing_plan_id":"cebpf4jnsgd1na2vs0mg"},{"bike_id":"df227d23-afec-4906-8b5a-7364725bbe5b","system_id":"levelo_inurba_marseille","lat":43.26485,"lon":5.39544,"is_reserved":false,"is_disabled":true,"rental_uris":{"android":"levelo://app?vid=df227d23-afec-4906-8b5a-7364725bbe5b","ios":"levelo://app?vid=df227d23-afec-4906-8b5a-7364725bbe5b"},"vehicle_type_id":"4","last_reported":1734678509,"current_range_meters":24400,"station_id":"ce4bhi12rcd13ifvqfq0","pricing_plan_id":"cebpf4jnsgd1na2vs0mg"},{"bike_id":"8f4264b7-e591-4639-b93d-9d277d055e89","system_id":"levelo_inurba_marseille","lat":43.28716,"lon":5.37947,"is_reserved":false,"is_disabled":false,"rental_uris":{"android":"levelo://app?vid=8f4264b7-e591-4639-b93d-9d277d055e89","ios":"levelo://app?vid=8f4264b7-e591-4639-b93d-9d277d055e89"},"vehicle_type_id":"4","last_reported":1734678509,"current_range_meters":11200,"station_id":"ce4bh9p2rcd13ifvqec0","pricing_plan_id":"cebpf4jnsgd1na2vs0mg"},{"bike_id":"8feb334f-b96d-4160-ba78-1811ff906a49","system_id":"levelo_inurba_marseille","lat":43.30315,"lon":5.36908,"is_reserved":false,"is_disabled":true,"rental_uris":{"android":"levelo://app?vid=8feb334f-b96d-4160-ba78-1811ff906a49","ios":"levelo://app?vid=8feb334f-b96d-4160-ba78-1811ff906a49"},"vehicle_type_id":"4","last_reported":1734678509,"current_range_meters":34000,"station_id":"ce4bgqh2rcd13ifvqc5g","pricing_plan_id":"cebpf4jnsgd1na2vs0mg"},{"bike_id":"df609213-4f03-423d-a027-9336b146a373","system_id":"levelo_inurba_marseille","lat":43.27567,"lon":5.38429,"is_reserved":false,"is_disabled":false,"rental_uris":{"android":"levelo://app?vid=df609213-4f03-423d-a027-9336b146a373","ios":"levelo://app?vid=df609213-4f03-423d-a027-9336b146a373"},"vehicle_type_id":"4","last_reported":1734678509,"current_range_meters":38800,"station_id":"ce4bhh92rcd13ifvqfi0","pricing_plan_id":"cebpf4jnsgd1na2vs0mg"},{"bike_id":"dbee7c97-fde6-4a28-acc8-a36a3f552bf4","system_id":"levelo_inurba_marseille","lat":43.32293,"lon":5.38253,"is_reserved":false,"is_disabled":false,"rental_uris":{"android":"levelo://app?vid=dbee7c97-fde6-4a28-acc8-a36a3f552bf4","ios":"levelo://app?vid=dbee7c97-fde6-4a28-acc8-a36a3f552bf4"},"vehicle_type_id":"4","last_reported":1734678509,"current_range_meters":32400,"station_id":"ce4bhr12rcd13ifvqhqg","pricing_plan_id":"cebpf4jnsgd1na2vs0mg"},{"bike_id":"a2556b02-a46f-40fc-83fb-d4423cb32ea6","system_id":"levelo_inurba_marseille","lat":43.281093,"lon":5.378741,"is_reserved":false,"is_disabled":false,"rental_uris":{"android":"levelo://app?vid=a2556b02-a46f-40fc-83fb-d4423cb32ea6","ios":"levelo://app?vid=a2556b02-a46f-40fc-83fb-d4423cb32ea6"},"vehicle_type_id":"4","last_reported":1734678509,"current_range_meters":27600,"station_id":"ce4bha12rcd13ifvqee0","pricing_plan_id":"cebpf4jnsgd1na2vs0mg"},{"bike_id":"ae8cf3fb-38a5-4661-b4b2-525533d88afa","system_id":"levelo_inurba_marseille","lat":43.27062,"lon":5.40257,"is_reserved":false,"is_disabled":true,"rental_uris":{"android":"levelo://app?vid=ae8cf3fb-38a5-4661-b4b2-525533d88afa","ios":"levelo://app?vid=ae8cf3fb-38a5-4661-b4b2-525533d88afa"},"vehicle_type_id":"4","last_reported":1734678509,"current_range_meters":26000,"station_id":"ce4bhk92rcd13ifvqgc0","pricing_plan_id":"cebpf4jnsgd1na2vs0mg"},{"bike_id":"b6275950-f469-4e2f-b75e-19cc4edf958f","system_id":"levelo_inurba_marseille","lat":43.28112,"lon":5.37822,"is_reserved":false,"is_disabled":false,"rental_uris":{"android":"levelo://app?vid=b6275950-f469-4e2f-b75e-19cc4edf958f","ios":"levelo://app?vid=b6275950-f469-4e2f-b75e-19cc4edf958f"},"vehicle_type_id":"4","last_reported":1734678509,"current_range_meters":38800,"station_id":"ce4bha12rcd13ifvqee0","pricing_plan_id":"cebpf4jnsgd1na2vs0mg"},{"bike_id":"bd095ac7-9f51-40e6-b9c2-7b4cf46ef2a7","system_id":"levelo_inurba_marseille","lat":43.28355,"lon":5.38101,"is_reserved":false,"is_disabled":false,"rental_uris":{"android":"levelo://app?vid=bd095ac7-9f51-40e6-b9c2-7b4cf46ef2a7","ios":"levelo://app?vid=bd095ac7-9f51-40e6-b9c2-7b4cf46ef2a7"},"vehicle_type_id":"4","last_reported":1734678509,"current_range_meters":35600,"station_id":"ce4bh412rcd13ifvqdr0","pricing_plan_id":"cebpf4jnsgd1na2vs0mg"},{"bike_id":"1523dc94-0891-4575-beed-3fcdab759697","system_id":"levelo_inurba_marseille","lat":43.27666,"lon":5.38907,"is_reserved":false,"is_disabled":false,"rental_uris":{"android":"levelo://app?vid=1523dc94-0891-4575-beed-3fcdab759697","ios":"levelo://app?vid=1523dc94-0891-4575-beed-3fcdab759697"},"vehicle_type_id":"4","last_reported":1734678509,"current_range_meters":21600,"station_id":"ce4bhi12rcd13ifvqfo0","pricing_plan_id":"cebpf4jnsgd1na2vs0mg"},{"bike_id":"13a7b64c-bc43-4ec7-8623-929b7d270857","system_id":"levelo_inurba_marseille","lat":43.30593,"lon":5.39355,"is_reserved":false,"is_disabled":false,"rental_uris":{"android":"levelo://app?vid=13a7b64c-bc43-4ec7-8623-929b7d270857","ios":"levelo://app?vid=13a7b64c-bc43-4ec7-8623-929b7d270857"},"vehicle_type_id":"4","last_reported":1734678509,"current_range_meters":30800,"station_id":"ce4bh0p2rcd13ifvqd80","pricing_plan_id":"cebpf4jnsgd1na2vs0mg"},{"bike_id":"2b4485e2-8d9d-4b6f-9083-8b56b403685e","system_id":"levelo_inurba_marseille","lat":43.29533,"lon":5.37507,"is_reserved":false,"is_disabled":false,"rental_uris":{"android":"levelo://app?vid=2b4485e2-8d9d-4b6f-9083-8b56b403685e","ios":"levelo://app?vid=2b4485e2-8d9d-4b6f-9083-8b56b403685e"},"vehicle_type_id":"4","last_reported":1734678509,"current_range_meters":20400,"station_id":"ce4bgkp2rcd13ifvqbmg","pricing_plan_id":"cebpf4jnsgd1na2vs0mg"},{"bike_id":"aee0c001-d83d-47e6-86b4-3c2a0bbc1bf7","system_id":"levelo_inurba_marseille","lat":43.25826,"lon":5.39435,"is_reserved":false,"is_disabled":true,"rental_uris":{"android":"levelo://app?vid=aee0c001-d83d-47e6-86b4-3c2a0bbc1bf7","ios":"levelo://app?vid=aee0c001-d83d-47e6-86b4-3c2a0bbc1bf7"},"vehicle_type_id":"4","last_reported":1734678509,"current_range_meters":400,"station_id":"ce4bhip2rcd13ifvqft0","pricing_plan_id":"cebpf4jnsgd1na2vs0mg"},{"bike_id":"fe1876cd-6a57-465f-8b7e-4d07d0bdc2c7","system_id":"levelo_inurba_marseille","lat":43.27493,"lon":5.42453,"is_reserved":false,"is_disabled":false,"rental_uris":{"android":"levelo://app?vid=fe1876cd-6a57-465f-8b7e-4d07d0bdc2c7","ios":"levelo://app?vid=fe1876cd-6a57-465f-8b7e-4d07d0bdc2c7"},"vehicle_type_id":"4","last_reported":1734678509,"current_range_meters":22800,"station_id":"ce4bhn92rcd13ifvqgrg","pricing_plan_id":"cebpf4jnsgd1na2vs0mg"},{"bike_id":"8417b700-ae98-45dd-8f9e-a85d1d752cc3","system_id":"levelo_inurba_marseille","lat":43.26063,"lon":5.39388,"is_reserved":false,"is_disabled":true,"rental_uris":{"android":"levelo://app?vid=8417b700-ae98-45dd-8f9e-a85d1d752cc3","ios":"levelo://app?vid=8417b700-ae98-45dd-8f9e-a85d1d752cc3"},"vehicle_type_id":"4","last_reported":1734678509,"current_range_meters":38800,"station_id":"ce4bhh92rcd13ifvqfj0","pricing_plan_id":"cebpf4jnsgd1na2vs0mg"},{"bike_id":"663a1e85-3ff8-413b-b7a2-2537d7226760","system_id":"levelo_inurba_marseille","lat":43.31364,"lon":5.38488,"is_reserved":false,"is_disabled":true,"rental_uris":{"android":"levelo://app?vid=663a1e85-3ff8-413b-b7a2-2537d7226760","ios":"levelo://app?vid=663a1e85-3ff8-413b-b7a2-2537d7226760"},"vehicle_type_id":"4","last_reported":1734678509,"current_range_meters":38800,"station_id":"ce4bgt92rcd13ifvqcf0","pricing_plan_id":"cebpf4jnsgd1na2vs0mg"},{"bike_id":"656fc606-b5f2-4189-8eb2-306558550abb","system_id":"levelo_inurba_marseille","lat":43.30425,"lon":5.38902,"is_reserved":false,"is_disabled":false,"rental_uris":{"android":"levelo://app?vid=656fc606-b5f2-4189-8eb2-306558550abb","ios":"levelo://app?vid=656fc606-b5f2-4189-8eb2-306558550abb"},"vehicle_type_id":"4","last_reported":1734678509,"current_range_meters":28000,"station_id":"ce4bgk12rcd13ifvqbi0","pricing_plan_id":"cebpf4jnsgd1na2vs0mg"},{"bike_id":"4828f3b9-c720-46e9-9ac1-272643fdf3d6","system_id":"levelo_inurba_marseille","lat":43.28014,"lon":5.36956,"is_reserved":false,"is_disabled":false,"rental_uris":{"android":"levelo://app?vid=4828f3b9-c720-46e9-9ac1-272643fdf3d6","ios":"levelo://app?vid=4828f3b9-c720-46e9-9ac1-272643fdf3d6"},"vehicle_type_id":"4","last_reported":1734678509,"current_range_meters":28000,"station_id":"ce4bha12rcd13ifvqef0","pricing_plan_id":"cebpf4jnsgd1na2vs0mg"},{"bike_id":"d8cb74fb-2e66-4676-9372-3a68dd91f521","system_id":"levelo_inurba_marseille","lat":43.26943,"lon":5.40242,"is_reserved":false,"is_disabled":true,"rental_uris":{"android":"levelo://app?vid=d8cb74fb-2e66-4676-9372-3a68dd91f521","ios":"levelo://app?vid=d8cb74fb-2e66-4676-9372-3a68dd91f521"},"vehicle_type_id":"4","last_reported":1734678509,"current_range_meters":36000,"station_id":"cjm6bp8fraef2m0cb0m0","pricing_plan_id":"cebpf4jnsgd1na2vs0mg"},{"bike_id":"4e1c702f-4fec-4a09-a45d-af1848f5ba3b","system_id":"levelo_inurba_marseille","lat":43.25574,"lon":5.38227,"is_reserved":false,"is_disabled":false,"rental_uris":{"android":"levelo://app?vid=4e1c702f-4fec-4a09-a45d-af1848f5ba3b","ios":"levelo://app?vid=4e1c702f-4fec-4a09-a45d-af1848f5ba3b"},"vehicle_type_id":"4","last_reported":1734678509,"current_range_meters":30000,"station_id":"ce4bhih2rcd13ifvqfs0","pricing_plan_id":"cebpf4jnsgd1na2vs0mg"},{"bike_id":"47ef36cf-a9e9-4af3-aa08-fe48d348ea21","system_id":"levelo_inurba_marseille","lat":43.32511,"lon":5.40176,"is_reserved":false,"is_disabled":false,"rental_uris":{"android":"levelo://app?vid=47ef36cf-a9e9-4af3-aa08-fe48d348ea21","ios":"levelo://app?vid=47ef36cf-a9e9-4af3-aa08-fe48d348ea21"},"vehicle_type_id":"4","last_reported":1734678509,"current_range_meters":10000,"station_id":"ce4bhq12rcd13ifvqhhg","pricing_plan_id":"cebpf4jnsgd1na2vs0mg"},{"bike_id":"f0598eeb-6636-4202-bc3a-c35fdb37b2a3","system_id":"levelo_inurba_marseille","lat":43.30156,"lon":5.3809,"is_reserved":false,"is_disabled":false,"rental_uris":{"android":"levelo://app?vid=f0598eeb-6636-4202-bc3a-c35fdb37b2a3","ios":"levelo://app?vid=f0598eeb-6636-4202-bc3a-c35fdb37b2a3"},"vehicle_type_id":"4","last_reported":1734678509,"current_range_meters":23200,"station_id":"ce4bgjp2rcd13ifvqbh0","pricing_plan_id":"cebpf4jnsgd1na2vs0mg"},{"bike_id":"29218885-1c50-43e0-a925-2ca4c134e5a9","system_id":"levelo_inurba_marseille","lat":43.30925,"lon":5.401475,"is_reserved":false,"is_disabled":true,"rental_uris":{"android":"levelo://app?vid=29218885-1c50-43e0-a925-2ca4c134e5a9","ios":"levelo://app?vid=29218885-1c50-43e0-a925-2ca4c134e5a9"},"vehicle_type_id":"4","last_reported":1734678509,"current_range_meters":38800,"station_id":"ce4bgvp2rcd13ifvqct0","pricing_plan_id":"cebpf4jnsgd1na2vs0mg"},{"bike_id":"35861a55-57b4-4559-b653-1c0df57e52e5","system_id":"levelo_inurba_marseille","lat":43.286395,"lon":5.370905,"is_reserved":false,"is_disabled":false,"rental_uris":{"android":"levelo://app?vid=35861a55-57b4-4559-b653-1c0df57e52e5","ios":"levelo://app?vid=35861a55-57b4-4559-b653-1c0df57e52e5"},"vehicle_type_id":"4","last_reported":1734678509,"current_range_meters":24800,"station_id":"ce4bht12rcd13ifvqi60","pricing_plan_id":"cebpf4jnsgd1na2vs0mg"},{"bike_id":"cab86ff4-25c9-48f7-8191-c68aca23ca9e","system_id":"levelo_inurba_marseille","lat":43.31318,"lon":5.39701,"is_reserved":false,"is_disabled":false,"rental_uris":{"android":"levelo://app?vid=cab86ff4-25c9-48f7-8191-c68aca23ca9e","ios":"levelo://app?vid=cab86ff4-25c9-48f7-8191-c68aca23ca9e"},"vehicle_type_id":"4","last_reported":1734678509,"current_range_meters":27200,"station_id":"ce4bgvp2rcd13ifvqcu0","pricing_plan_id":"cebpf4jnsgd1na2vs0mg"},{"bike_id":"e11ff63e-0717-486d-a2a1-93b56a446cc0","system_id":"levelo_inurba_marseille","lat":43.28558,"lon":5.39491,"is_reserved":false,"is_disabled":false,"rental_uris":{"android":"levelo://app?vid=e11ff63e-0717-486d-a2a1-93b56a446cc0","ios":"levelo://app?vid=e11ff63e-0717-486d-a2a1-93b56a446cc0"},"vehicle_type_id":"4","last_reported":1734678509,"current_range_meters":37600,"station_id":"ce4bh292rcd13ifvqdg0","pricing_plan_id":"cebpf4jnsgd1na2vs0mg"},{"bike_id":"6dd7ced6-a614-45f4-afdd-d21affa34a4d","system_id":"levelo_inurba_marseille","lat":43.2845,"lon":5.35889,"is_reserved":false,"is_disabled":false,"rental_uris":{"android":"levelo://app?vid=6dd7ced6-a614-45f4-afdd-d21affa34a4d","ios":"levelo://app?vid=6dd7ced6-a614-45f4-afdd-d21affa34a4d"},"vehicle_type_id":"4","last_reported":1734678509,"current_range_meters":34000,"station_id":"ce4bhah2rcd13ifvqei0","pricing_plan_id":"cebpf4jnsgd1na2vs0mg"},{"bike_id":"1908cece-809f-4547-a252-1da450c21f63","system_id":"levelo_inurba_marseille","lat":43.27811,"lon":5.40714,"is_reserved":false,"is_disabled":false,"rental_uris":{"android":"levelo://app?vid=1908cece-809f-4547-a252-1da450c21f63","ios":"levelo://app?vid=1908cece-809f-4547-a252-1da450c21f63"},"vehicle_type_id":"4","last_reported":1734678509,"current_range_meters":8800,"station_id":"ce4bhnh2rcd13ifvqgtg","pricing_plan_id":"cebpf4jnsgd1na2vs0mg"},{"bike_id":"db410a0f-795b-4453-b408-e5dca7856791","system_id":"levelo_inurba_marseille","lat":43.29805,"lon":5.3808,"is_reserved":false,"is_disabled":false,"rental_uris":{"android":"levelo://app?vid=db410a0f-795b-4453-b408-e5dca7856791","ios":"levelo://app?vid=db410a0f-795b-4453-b408-e5dca7856791"},"vehicle_type_id":"4","last_reported":1734678509,"current_range_meters":38800,"station_id":"ce4bgip2rcd13ifvqbb0","pricing_plan_id":"cebpf4jnsgd1na2vs0mg"},{"bike_id":"483e2d7b-f381-4bb0-980b-5f84f21e758c","system_id":"levelo_inurba_marseille","lat":43.30886,"lon":5.37186,"is_reserved":false,"is_disabled":false,"rental_uris":{"android":"levelo://app?vid=483e2d7b-f381-4bb0-980b-5f84f21e758c","ios":"levelo://app?vid=483e2d7b-f381-4bb0-980b-5f84f21e758c"},"vehicle_type_id":"4","last_reported":1734678509,"current_range_meters":33600,"station_id":"ce4bguh2rcd13ifvqckg","pricing_plan_id":"cebpf4jnsgd1na2vs0mg"},{"bike_id":"0fb9cb1f-b409-436c-9807-5e6abde7a9a2","system_id":"levelo_inurba_marseille","lat":43.27254,"lon":5.39158,"is_reserved":false,"is_disabled":false,"rental_uris":{"android":"levelo://app?vid=0fb9cb1f-b409-436c-9807-5e6abde7a9a2","ios":"levelo://app?vid=0fb9cb1f-b409-436c-9807-5e6abde7a9a2"},"vehicle_type_id":"4","last_reported":1734678509,"current_range_meters":38000,"station_id":"ce4bhhp2rcd13ifvqfm0","pricing_plan_id":"cebpf4jnsgd1na2vs0mg"},{"bike_id":"ebd47528-01fd-4c50-a324-ec3f739871b7","system_id":"levelo_inurba_marseille","lat":43.25115,"lon":5.40319,"is_reserved":false,"is_disabled":false,"rental_uris":{"android":"levelo://app?vid=ebd47528-01fd-4c50-a324-ec3f739871b7","ios":"levelo://app?vid=ebd47528-01fd-4c50-a324-ec3f739871b7"},"vehicle_type_id":"4","last_reported":1734678509,"current_range_meters":38800,"station_id":"ce4bhlh2rcd13ifvqgig","pricing_plan_id":"cebpf4jnsgd1na2vs0mg"},{"bike_id":"54e70cf4-747d-46d5-b82a-0db168c3cd10","system_id":"levelo_inurba_marseille","lat":43.3094,"lon":5.40141,"is_reserved":false,"is_disabled":false,"rental_uris":{"android":"levelo://app?vid=54e70cf4-747d-46d5-b82a-0db168c3cd10","ios":"levelo://app?vid=54e70cf4-747d-46d5-b82a-0db168c3cd10"},"vehicle_type_id":"4","last_reported":1734678509,"current_range_meters":26000,"station_id":"ce4bgvp2rcd13ifvqct0","pricing_plan_id":"cebpf4jnsgd1na2vs0mg"},{"bike_id":"ccfddbb7-bdd2-4bed-9bd4-68a43061003a","system_id":"levelo_inurba_marseille","lat":43.25939,"lon":5.409,"is_reserved":false,"is_disabled":false,"rental_uris":{"android":"levelo://app?vid=ccfddbb7-bdd2-4bed-9bd4-68a43061003a","ios":"levelo://app?vid=ccfddbb7-bdd2-4bed-9bd4-68a43061003a"},"vehicle_type_id":"4","last_reported":1734678509,"current_range_meters":8000,"station_id":"ce4bhm92rcd13ifvqglg","pricing_plan_id":"cebpf4jnsgd1na2vs0mg"},{"bike_id":"1e0316a7-c772-4e4f-ba09-e85d38a4f137","system_id":"levelo_inurba_marseille","lat":43.317137,"lon":5.377578,"is_reserved":false,"is_disabled":false,"rental_uris":{"android":"levelo://app?vid=1e0316a7-c772-4e4f-ba09-e85d38a4f137","ios":"levelo://app?vid=1e0316a7-c772-4e4f-ba09-e85d38a4f137"},"vehicle_type_id":"4","last_reported":1734678509,"current_range_meters":39200,"station_id":"ce4bgth2rcd13ifvqch0","pricing_plan_id":"cebpf4jnsgd1na2vs0mg"},{"bike_id":"d03d3e55-b313-4f91-a0c3-6838be182556","system_id":"levelo_inurba_marseille","lat":43.330223,"lon":5.390359,"is_reserved":false,"is_disabled":false,"rental_uris":{"android":"levelo://app?vid=d03d3e55-b313-4f91-a0c3-6838be182556","ios":"levelo://app?vid=d03d3e55-b313-4f91-a0c3-6838be182556"},"vehicle_type_id":"4","last_reported":1734678509,"current_range_meters":26800,"station_id":"ce4bhr92rcd13ifvqhrg","pricing_plan_id":"cebpf4jnsgd1na2vs0mg"},{"bike_id":"d4a92d73-458f-4633-b078-8b09bedbb320","system_id":"levelo_inurba_marseille","lat":43.313301,"lon":5.396949,"is_reserved":false,"is_disabled":false,"rental_uris":{"android":"levelo://app?vid=d4a92d73-458f-4633-b078-8b09bedbb320","ios":"levelo://app?vid=d4a92d73-458f-4633-b078-8b09bedbb320"},"vehicle_type_id":"4","last_reported":1734678509,"current_range_meters":38800,"station_id":"ce4bgvp2rcd13ifvqcu0","pricing_plan_id":"cebpf4jnsgd1na2vs0mg"},{"bike_id":"e91219f7-cc33-492e-9b45-4476bf3bccec","system_id":"levelo_inurba_marseille","lat":43.28102,"lon":5.37846,"is_reserved":false,"is_disabled":false,"rental_uris":{"android":"levelo://app?vid=e91219f7-cc33-492e-9b45-4476bf3bccec","ios":"levelo://app?vid=e91219f7-cc33-492e-9b45-4476bf3bccec"},"vehicle_type_id":"4","last_reported":1734678509,"current_range_meters":30000,"station_id":"ce4bha12rcd13ifvqee0","pricing_plan_id":"cebpf4jnsgd1na2vs0mg"},{"bike_id":"2a12bde8-ca1e-4ca8-8cbb-8dbf9a638106","system_id":"levelo_inurba_marseille","lat":43.23219,"lon":5.35569,"is_reserved":false,"is_disabled":false,"rental_uris":{"android":"levelo://app?vid=2a12bde8-ca1e-4ca8-8cbb-8dbf9a638106","ios":"levelo://app?vid=2a12bde8-ca1e-4ca8-8cbb-8dbf9a638106"},"vehicle_type_id":"4","last_reported":1734678509,"current_range_meters":26800,"station_id":"ce4bhu92rcd13ifvqi70","pricing_plan_id":"cebpf4jnsgd1na2vs0mg"},{"bike_id":"82b98b08-cf84-40f3-a0a4-1136038c5b5f","system_id":"levelo_inurba_marseille","lat":43.28829,"lon":5.35846,"is_reserved":false,"is_disabled":false,"rental_uris":{"android":"levelo://app?vid=82b98b08-cf84-40f3-a0a4-1136038c5b5f","ios":"levelo://app?vid=82b98b08-cf84-40f3-a0a4-1136038c5b5f"},"vehicle_type_id":"4","last_reported":1734678509,"current_range_meters":36000,"station_id":"ce4bhb12rcd13ifvqem0","pricing_plan_id":"cebpf4jnsgd1na2vs0mg"},{"bike_id":"5cd0e186-dad6-403c-9513-a3f3abdcc32e","system_id":"levelo_inurba_marseille","lat":43.25088,"lon":5.39516,"is_reserved":false,"is_disabled":false,"rental_uris":{"android":"levelo://app?vid=5cd0e186-dad6-403c-9513-a3f3abdcc32e","ios":"levelo://app?vid=5cd0e186-dad6-403c-9513-a3f3abdcc32e"},"vehicle_type_id":"4","last_reported":1734678509,"current_range_meters":28000,"station_id":"ce4bhm12rcd13ifvqgkg","pricing_plan_id":"cebpf4jnsgd1na2vs0mg"},{"bike_id":"6fb965ff-afdd-4346-a208-14ec8ac80b7e","system_id":"levelo_inurba_marseille","lat":43.2978,"lon":5.37072,"is_reserved":false,"is_disabled":false,"rental_uris":{"android":"levelo://app?vid=6fb965ff-afdd-4346-a208-14ec8ac80b7e","ios":"levelo://app?vid=6fb965ff-afdd-4346-a208-14ec8ac80b7e"},"vehicle_type_id":"4","last_reported":1734678509,"current_range_meters":27600,"station_id":"ce4bgop2rcd13ifvqc1g","pricing_plan_id":"cebpf4jnsgd1na2vs0mg"},{"bike_id":"9fa4b00e-59aa-4183-b9dc-ef853dc78775","system_id":"levelo_inurba_marseille","lat":43.30307,"lon":5.36876,"is_reserved":false,"is_disabled":true,"rental_uris":{"android":"levelo://app?vid=9fa4b00e-59aa-4183-b9dc-ef853dc78775","ios":"levelo://app?vid=9fa4b00e-59aa-4183-b9dc-ef853dc78775"},"vehicle_type_id":"4","last_reported":1734678509,"current_range_meters":24800,"station_id":"ce4bgqh2rcd13ifvqc5g","pricing_plan_id":"cebpf4jnsgd1na2vs0mg"},{"bike_id":"488d1b6e-8fe1-4d87-96e0-c96b51a4705c","system_id":"levelo_inurba_marseille","lat":43.28658,"lon":5.36347,"is_reserved":false,"is_disabled":false,"rental_uris":{"android":"levelo://app?vid=488d1b6e-8fe1-4d87-96e0-c96b51a4705c","ios":"levelo://app?vid=488d1b6e-8fe1-4d87-96e0-c96b51a4705c"},"vehicle_type_id":"4","last_reported":1734678509,"current_range_meters":22000,"station_id":"ce4bhah2rcd13ifvqej0","pricing_plan_id":"cebpf4jnsgd1na2vs0mg"},{"bike_id":"ec32080e-6c1c-4e09-81ba-3b68e2f8eefb","system_id":"levelo_inurba_marseille","lat":43.29614,"lon":5.3811,"is_reserved":false,"is_disabled":false,"rental_uris":{"android":"levelo://app?vid=ec32080e-6c1c-4e09-81ba-3b68e2f8eefb","ios":"levelo://app?vid=ec32080e-6c1c-4e09-81ba-3b68e2f8eefb"},"vehicle_type_id":"4","last_reported":1734678509,"current_range_meters":25200,"station_id":"ce4bgl12rcd13ifvqbo0","pricing_plan_id":"cebpf4jnsgd1na2vs0mg"},{"bike_id":"e92ab999-5e38-4387-824a-934926631a13","system_id":"levelo_inurba_marseille","lat":43.28357,"lon":5.38101,"is_reserved":false,"is_disabled":false,"rental_uris":{"android":"levelo://app?vid=e92ab999-5e38-4387-824a-934926631a13","ios":"levelo://app?vid=e92ab999-5e38-4387-824a-934926631a13"},"vehicle_type_id":"4","last_reported":1734678509,"current_range_meters":30800,"station_id":"ce4bh412rcd13ifvqdr0","pricing_plan_id":"cebpf4jnsgd1na2vs0mg"},{"bike_id":"b002d028-e42c-46e2-93ce-a18a7a90546e","system_id":"levelo_inurba_marseille","lat":43.3229,"lon":5.38276,"is_reserved":false,"is_disabled":false,"rental_uris":{"android":"levelo://app?vid=b002d028-e42c-46e2-93ce-a18a7a90546e","ios":"levelo://app?vid=b002d028-e42c-46e2-93ce-a18a7a90546e"},"vehicle_type_id":"4","last_reported":1734678509,"current_range_meters":18800,"station_id":"ce4bhr12rcd13ifvqhqg","pricing_plan_id":"cebpf4jnsgd1na2vs0mg"},{"bike_id":"8d2d1fc5-8995-4400-8cfc-148fb6ed4a6d","system_id":"levelo_inurba_marseille","lat":43.27491,"lon":5.42453,"is_reserved":false,"is_disabled":false,"rental_uris":{"android":"levelo://app?vid=8d2d1fc5-8995-4400-8cfc-148fb6ed4a6d","ios":"levelo://app?vid=8d2d1fc5-8995-4400-8cfc-148fb6ed4a6d"},"vehicle_type_id":"4","last_reported":1734678509,"current_range_meters":36000,"station_id":"ce4bhn92rcd13ifvqgrg","pricing_plan_id":"cebpf4jnsgd1na2vs0mg"},{"bike_id":"39d6556a-c954-43ed-b77e-24523ab497d1","system_id":"levelo_inurba_marseille","lat":43.268057,"lon":5.394447,"is_reserved":false,"is_disabled":true,"rental_uris":{"android":"levelo://app?vid=39d6556a-c954-43ed-b77e-24523ab497d1","ios":"levelo://app?vid=39d6556a-c954-43ed-b77e-24523ab497d1"},"vehicle_type_id":"4","last_reported":1734678509,"current_range_meters":38000,"station_id":"ce4bhh12rcd13ifvqfg0","pricing_plan_id":"cebpf4jnsgd1na2vs0mg"},{"bike_id":"6d8117da-c4a6-4650-838f-66d0b7dfbeba","system_id":"levelo_inurba_marseille","lat":43.30537,"lon":5.36692,"is_reserved":false,"is_disabled":false,"rental_uris":{"android":"levelo://app?vid=6d8117da-c4a6-4650-838f-66d0b7dfbeba","ios":"levelo://app?vid=6d8117da-c4a6-4650-838f-66d0b7dfbeba"},"vehicle_type_id":"4","last_reported":1734678509,"current_range_meters":39200,"station_id":"ce4bgrp2rcd13ifvqc9g","pricing_plan_id":"cebpf4jnsgd1na2vs0mg"},{"bike_id":"f23efe61-0104-4164-a2df-9fbf471f6daa","system_id":"levelo_inurba_marseille","lat":43.26487,"lon":5.39552,"is_reserved":false,"is_disabled":true,"rental_uris":{"android":"levelo://app?vid=f23efe61-0104-4164-a2df-9fbf471f6daa","ios":"levelo://app?vid=f23efe61-0104-4164-a2df-9fbf471f6daa"},"vehicle_type_id":"4","last_reported":1734678509,"current_range_meters":1200,"station_id":"ce4bhi12rcd13ifvqfq0","pricing_plan_id":"cebpf4jnsgd1na2vs0mg"},{"bike_id":"f2ff2dce-6089-40f8-878d-6d1e366cd3a9","system_id":"levelo_inurba_marseille","lat":43.3093,"lon":5.40145,"is_reserved":false,"is_disabled":false,"rental_uris":{"android":"levelo://app?vid=f2ff2dce-6089-40f8-878d-6d1e366cd3a9","ios":"levelo://app?vid=f2ff2dce-6089-40f8-878d-6d1e366cd3a9"},"vehicle_type_id":"4","last_reported":1734678509,"current_range_meters":38800,"station_id":"ce4bgvp2rcd13ifvqct0","pricing_plan_id":"cebpf4jnsgd1na2vs0mg"},{"bike_id":"94e6a837-692a-4c6e-860f-bd56f9eee603","system_id":"levelo_inurba_marseille","lat":43.307824,"lon":5.376575,"is_reserved":false,"is_disabled":false,"rental_uris":{"android":"levelo://app?vid=94e6a837-692a-4c6e-860f-bd56f9eee603","ios":"levelo://app?vid=94e6a837-692a-4c6e-860f-bd56f9eee603"},"vehicle_type_id":"4","last_reported":1734678509,"current_range_meters":36000,"station_id":"ce4bgv92rcd13ifvqcq0","pricing_plan_id":"cebpf4jnsgd1na2vs0mg"},{"bike_id":"b44f9236-c33f-43b3-ab7e-0f32e9951c9e","system_id":"levelo_inurba_marseille","lat":43.23195,"lon":5.35551,"is_reserved":false,"is_disabled":false,"rental_uris":{"android":"levelo://app?vid=b44f9236-c33f-43b3-ab7e-0f32e9951c9e","ios":"levelo://app?vid=b44f9236-c33f-43b3-ab7e-0f32e9951c9e"},"vehicle_type_id":"4","last_reported":1734678509,"current_range_meters":8000,"station_id":"ce4bhu92rcd13ifvqi70","pricing_plan_id":"cebpf4jnsgd1na2vs0mg"},{"bike_id":"4620dcd9-c3a6-4871-8162-c4a28f6d33ca","system_id":"levelo_inurba_marseille","lat":43.31883,"lon":5.40719,"is_reserved":false,"is_disabled":true,"rental_uris":{"android":"levelo://app?vid=4620dcd9-c3a6-4871-8162-c4a28f6d33ca","ios":"levelo://app?vid=4620dcd9-c3a6-4871-8162-c4a28f6d33ca"},"vehicle_type_id":"4","last_reported":1734678509,"current_range_meters":38800,"station_id":"ce4bhq12rcd13ifvqhig","pricing_plan_id":"cebpf4jnsgd1na2vs0mg"},{"bike_id":"7cdaab41-d6a9-411c-91af-08e1cd111a45","system_id":"levelo_inurba_marseille","lat":43.30779,"lon":5.4026,"is_reserved":false,"is_disabled":false,"rental_uris":{"android":"levelo://app?vid=7cdaab41-d6a9-411c-91af-08e1cd111a45","ios":"levelo://app?vid=7cdaab41-d6a9-411c-91af-08e1cd111a45"},"vehicle_type_id":"4","last_reported":1734678509,"current_range_meters":12800,"station_id":"","pricing_plan_id":"cebpf4jnsgd1na2vs0mg"},{"bike_id":"13a8225f-3beb-4558-9615-cf449e2fe5ac","system_id":"levelo_inurba_marseille","lat":43.30464,"lon":5.37913,"is_reserved":false,"is_disabled":false,"rental_uris":{"android":"levelo://app?vid=13a8225f-3beb-4558-9615-cf449e2fe5ac","ios":"levelo://app?vid=13a8225f-3beb-4558-9615-cf449e2fe5ac"},"vehicle_type_id":"4","last_reported":1734678509,"current_range_meters":36800,"station_id":"ce4bgup2rcd13ifvqcn0","pricing_plan_id":"cebpf4jnsgd1na2vs0mg"},{"bike_id":"a4f8f860-7da9-41b3-ba5c-03c4bf52b373","system_id":"levelo_inurba_marseille","lat":43.313249,"lon":5.396918,"is_reserved":false,"is_disabled":true,"rental_uris":{"android":"levelo://app?vid=a4f8f860-7da9-41b3-ba5c-03c4bf52b373","ios":"levelo://app?vid=a4f8f860-7da9-41b3-ba5c-03c4bf52b373"},"vehicle_type_id":"4","last_reported":1734678509,"current_range_meters":0,"station_id":"ce4bgvp2rcd13ifvqcu0","pricing_plan_id":"cebpf4jnsgd1na2vs0mg"},{"bike_id":"d9ca4b54-c343-49d5-8a30-00cdf0bb3157","system_id":"levelo_inurba_marseille","lat":43.29627,"lon":5.40599,"is_reserved":false,"is_disabled":false,"rental_uris":{"android":"levelo://app?vid=d9ca4b54-c343-49d5-8a30-00cdf0bb3157","ios":"levelo://app?vid=d9ca4b54-c343-49d5-8a30-00cdf0bb3157"},"vehicle_type_id":"4","last_reported":1734678509,"current_range_meters":39200,"station_id":"ce4bh0h2rcd13ifvqd60","pricing_plan_id":"cebpf4jnsgd1na2vs0mg"},{"bike_id":"e547e21c-1484-4643-b569-ed0cf2a32d36","system_id":"levelo_inurba_marseille","lat":43.24677,"lon":5.38152,"is_reserved":false,"is_disabled":false,"rental_uris":{"android":"levelo://app?vid=e547e21c-1484-4643-b569-ed0cf2a32d36","ios":"levelo://app?vid=e547e21c-1484-4643-b569-ed0cf2a32d36"},"vehicle_type_id":"4","last_reported":1734678509,"current_range_meters":38800,"station_id":"ce4bhih2rcd13ifvqfr0","pricing_plan_id":"cebpf4jnsgd1na2vs0mg"},{"bike_id":"a75b08f1-37cc-41c5-95db-2b9ed81dc942","system_id":"levelo_inurba_marseille","lat":43.29726,"lon":5.37686,"is_reserved":false,"is_disabled":false,"rental_uris":{"android":"levelo://app?vid=a75b08f1-37cc-41c5-95db-2b9ed81dc942","ios":"levelo://app?vid=a75b08f1-37cc-41c5-95db-2b9ed81dc942"},"vehicle_type_id":"4","last_reported":1734678509,"current_range_meters":25600,"station_id":"ce4bgkh2rcd13ifvqbl0","pricing_plan_id":"cebpf4jnsgd1na2vs0mg"},{"bike_id":"b5b3837f-5e02-4def-9495-b31b79600261","system_id":"levelo_inurba_marseille","lat":43.32338,"lon":5.40619,"is_reserved":false,"is_disabled":false,"rental_uris":{"android":"levelo://app?vid=b5b3837f-5e02-4def-9495-b31b79600261","ios":"levelo://app?vid=b5b3837f-5e02-4def-9495-b31b79600261"},"vehicle_type_id":"4","last_reported":1734678509,"current_range_meters":24400,"station_id":"ce4bhq92rcd13ifvqhjg","pricing_plan_id":"cebpf4jnsgd1na2vs0mg"},{"bike_id":"48bd608f-85bc-4b07-9175-79b02463ae92","system_id":"levelo_inurba_marseille","lat":43.29558,"lon":5.42281,"is_reserved":false,"is_disabled":false,"rental_uris":{"android":"levelo://app?vid=48bd608f-85bc-4b07-9175-79b02463ae92","ios":"levelo://app?vid=48bd608f-85bc-4b07-9175-79b02463ae92"},"vehicle_type_id":"4","last_reported":1734678509,"current_range_meters":37600,"station_id":"ce4bhph2rcd13ifvqhdg","pricing_plan_id":"cebpf4jnsgd1na2vs0mg"},{"bike_id":"57db3bcb-f5c0-4deb-ab6a-ab18acd3c1ec","system_id":"levelo_inurba_marseille","lat":43.306,"lon":5.39365,"is_reserved":false,"is_disabled":false,"rental_uris":{"android":"levelo://app?vid=57db3bcb-f5c0-4deb-ab6a-ab18acd3c1ec","ios":"levelo://app?vid=57db3bcb-f5c0-4deb-ab6a-ab18acd3c1ec"},"vehicle_type_id":"4","last_reported":1734678509,"current_range_meters":39200,"station_id":"ce4bh0p2rcd13ifvqd80","pricing_plan_id":"cebpf4jnsgd1na2vs0mg"},{"bike_id":"0ee567dd-8d1f-4513-95d0-49b3aea08c53","system_id":"levelo_inurba_marseille","lat":43.308834,"lon":5.37203,"is_reserved":false,"is_disabled":true,"rental_uris":{"android":"levelo://app?vid=0ee567dd-8d1f-4513-95d0-49b3aea08c53","ios":"levelo://app?vid=0ee567dd-8d1f-4513-95d0-49b3aea08c53"},"vehicle_type_id":"4","last_reported":1734678509,"current_range_meters":25200,"station_id":"ce4bguh2rcd13ifvqckg","pricing_plan_id":"cebpf4jnsgd1na2vs0mg"},{"bike_id":"b52c10f4-1f06-453c-bfdf-7d6729ecfe9c","system_id":"levelo_inurba_marseille","lat":43.23184,"lon":5.39973,"is_reserved":false,"is_disabled":false,"rental_uris":{"android":"levelo://app?vid=b52c10f4-1f06-453c-bfdf-7d6729ecfe9c","ios":"levelo://app?vid=b52c10f4-1f06-453c-bfdf-7d6729ecfe9c"},"vehicle_type_id":"4","last_reported":1734678509,"current_range_meters":36800,"station_id":"ce4bhn12rcd13ifvqgqg","pricing_plan_id":"cebpf4jnsgd1na2vs0mg"},{"bike_id":"5c909c62-734e-4a3b-87af-fa5b1774cce4","system_id":"levelo_inurba_marseille","lat":43.231954,"lon":5.399686,"is_reserved":false,"is_disabled":false,"rental_uris":{"android":"levelo://app?vid=5c909c62-734e-4a3b-87af-fa5b1774cce4","ios":"levelo://app?vid=5c909c62-734e-4a3b-87af-fa5b1774cce4"},"vehicle_type_id":"4","last_reported":1734678509,"current_range_meters":34000,"station_id":"ce4bhn12rcd13ifvqgqg","pricing_plan_id":"cebpf4jnsgd1na2vs0mg"},{"bike_id":"87ea2282-7236-454a-a021-e08bfe13ea3d","system_id":"levelo_inurba_marseille","lat":43.28031,"lon":5.3696,"is_reserved":false,"is_disabled":false,"rental_uris":{"android":"levelo://app?vid=87ea2282-7236-454a-a021-e08bfe13ea3d","ios":"levelo://app?vid=87ea2282-7236-454a-a021-e08bfe13ea3d"},"vehicle_type_id":"4","last_reported":1734678509,"current_range_meters":38800,"station_id":"ce4bha12rcd13ifvqef0","pricing_plan_id":"cebpf4jnsgd1na2vs0mg"},{"bike_id":"4e903550-a7f1-4cc9-9118-accbb6f2c60a","system_id":"levelo_inurba_marseille","lat":43.304657,"lon":5.379108,"is_reserved":false,"is_disabled":false,"rental_uris":{"android":"levelo://app?vid=4e903550-a7f1-4cc9-9118-accbb6f2c60a","ios":"levelo://app?vid=4e903550-a7f1-4cc9-9118-accbb6f2c60a"},"vehicle_type_id":"4","last_reported":1734678509,"current_range_meters":37600,"station_id":"ce4bgup2rcd13ifvqcn0","pricing_plan_id":"cebpf4jnsgd1na2vs0mg"},{"bike_id":"e191f095-2442-4201-b54c-c3117c584c16","system_id":"levelo_inurba_marseille","lat":43.29798,"lon":5.38086,"is_reserved":false,"is_disabled":false,"rental_uris":{"android":"levelo://app?vid=e191f095-2442-4201-b54c-c3117c584c16","ios":"levelo://app?vid=e191f095-2442-4201-b54c-c3117c584c16"},"vehicle_type_id":"4","last_reported":1734678509,"current_range_meters":38800,"station_id":"ce4bgip2rcd13ifvqbb0","pricing_plan_id":"cebpf4jnsgd1na2vs0mg"},{"bike_id":"3b95446e-20a9-4546-b9fb-c65f80c1f79c","system_id":"levelo_inurba_marseille","lat":43.26062,"lon":5.39396,"is_reserved":false,"is_disabled":false,"rental_uris":{"android":"levelo://app?vid=3b95446e-20a9-4546-b9fb-c65f80c1f79c","ios":"levelo://app?vid=3b95446e-20a9-4546-b9fb-c65f80c1f79c"},"vehicle_type_id":"4","last_reported":1734678509,"current_range_meters":31200,"station_id":"ce4bhh92rcd13ifvqfj0","pricing_plan_id":"cebpf4jnsgd1na2vs0mg"},{"bike_id":"44464573-5630-404b-a999-698ba48ab6b8","system_id":"levelo_inurba_marseille","lat":43.27185,"lon":5.40977,"is_reserved":false,"is_disabled":false,"rental_uris":{"android":"levelo://app?vid=44464573-5630-404b-a999-698ba48ab6b8","ios":"levelo://app?vid=44464573-5630-404b-a999-698ba48ab6b8"},"vehicle_type_id":"4","last_reported":1734678509,"current_range_meters":38800,"station_id":"ce4bhl12rcd13ifvqgf0","pricing_plan_id":"cebpf4jnsgd1na2vs0mg"},{"bike_id":"6092e4d7-956b-4a00-a15b-04d401a7abe3","system_id":"levelo_inurba_marseille","lat":43.28493,"lon":5.38422,"is_reserved":false,"is_disabled":true,"rental_uris":{"android":"levelo://app?vid=6092e4d7-956b-4a00-a15b-04d401a7abe3","ios":"levelo://app?vid=6092e4d7-956b-4a00-a15b-04d401a7abe3"},"vehicle_type_id":"4","last_reported":1734678509,"current_range_meters":28000,"station_id":"ce4bh512rcd13ifvqe3g","pricing_plan_id":"cebpf4jnsgd1na2vs0mg"},{"bike_id":"2e0a4273-9b64-4eb1-8d1b-b8e55991eb0a","system_id":"levelo_inurba_marseille","lat":43.27266,"lon":5.400733,"is_reserved":false,"is_disabled":true,"rental_uris":{"android":"levelo://app?vid=2e0a4273-9b64-4eb1-8d1b-b8e55991eb0a","ios":"levelo://app?vid=2e0a4273-9b64-4eb1-8d1b-b8e55991eb0a"},"vehicle_type_id":"4","last_reported":1734678509,"current_range_meters":0,"station_id":"","pricing_plan_id":"cebpf4jnsgd1na2vs0mg"},{"bike_id":"d7dc678d-eb38-44c8-8258-0fa0627b8d3a","system_id":"levelo_inurba_marseille","lat":43.30532,"lon":5.36696,"is_reserved":false,"is_disabled":false,"rental_uris":{"android":"levelo://app?vid=d7dc678d-eb38-44c8-8258-0fa0627b8d3a","ios":"levelo://app?vid=d7dc678d-eb38-44c8-8258-0fa0627b8d3a"},"vehicle_type_id":"4","last_reported":1734678509,"current_range_meters":39200,"station_id":"ce4bgrp2rcd13ifvqc9g","pricing_plan_id":"cebpf4jnsgd1na2vs0mg"},{"bike_id":"f54f97f0-b8a5-44fc-9227-92cc0b8e4f00","system_id":"levelo_inurba_marseille","lat":43.29574,"lon":5.39974,"is_reserved":false,"is_disabled":false,"rental_uris":{"android":"levelo://app?vid=f54f97f0-b8a5-44fc-9227-92cc0b8e4f00","ios":"levelo://app?vid=f54f97f0-b8a5-44fc-9227-92cc0b8e4f00"},"vehicle_type_id":"4","last_reported":1734678509,"current_range_meters":38800,"station_id":"ce4bh312rcd13ifvqdj0","pricing_plan_id":"cebpf4jnsgd1na2vs0mg"},{"bike_id":"f957ffa3-7b76-4b18-bb62-81627d313cf8","system_id":"levelo_inurba_marseille","lat":43.231931,"lon":5.355556,"is_reserved":false,"is_disabled":false,"rental_uris":{"android":"levelo://app?vid=f957ffa3-7b76-4b18-bb62-81627d313cf8","ios":"levelo://app?vid=f957ffa3-7b76-4b18-bb62-81627d313cf8"},"vehicle_type_id":"4","last_reported":1734678509,"current_range_meters":30800,"station_id":"ce4bhu92rcd13ifvqi70","pricing_plan_id":"cebpf4jnsgd1na2vs0mg"},{"bike_id":"5dd95ec7-a282-40a6-a0fe-4e2e61de4064","system_id":"levelo_inurba_marseille","lat":43.26346,"lon":5.40141,"is_reserved":false,"is_disabled":true,"rental_uris":{"android":"levelo://app?vid=5dd95ec7-a282-40a6-a0fe-4e2e61de4064","ios":"levelo://app?vid=5dd95ec7-a282-40a6-a0fe-4e2e61de4064"},"vehicle_type_id":"4","last_reported":1734678509,"current_range_meters":8800,"station_id":"","pricing_plan_id":"cebpf4jnsgd1na2vs0mg"},{"bike_id":"ea250787-a964-475c-a6e4-f63368322e5b","system_id":"levelo_inurba_marseille","lat":43.29607,"lon":5.36723,"is_reserved":false,"is_disabled":false,"rental_uris":{"android":"levelo://app?vid=ea250787-a964-475c-a6e4-f63368322e5b","ios":"levelo://app?vid=ea250787-a964-475c-a6e4-f63368322e5b"},"vehicle_type_id":"4","last_reported":1734678509,"current_range_meters":38000,"station_id":"ce4bgph2rcd13ifvqc2g","pricing_plan_id":"cebpf4jnsgd1na2vs0mg"},{"bike_id":"f81d22a0-033f-4012-a336-8c60d7a0adb3","system_id":"levelo_inurba_marseille","lat":43.28947,"lon":5.36413,"is_reserved":false,"is_disabled":false,"rental_uris":{"android":"levelo://app?vid=f81d22a0-033f-4012-a336-8c60d7a0adb3","ios":"levelo://app?vid=f81d22a0-033f-4012-a336-8c60d7a0adb3"},"vehicle_type_id":"4","last_reported":1734678509,"current_range_meters":23200,"station_id":"ce4bhc92rcd13ifvqetg","pricing_plan_id":"cebpf4jnsgd1na2vs0mg"},{"bike_id":"455dd5ec-19f2-4d27-b64c-4eda5330f04f","system_id":"levelo_inurba_marseille","lat":43.27493,"lon":5.42449,"is_reserved":false,"is_disabled":false,"rental_uris":{"android":"levelo://app?vid=455dd5ec-19f2-4d27-b64c-4eda5330f04f","ios":"levelo://app?vid=455dd5ec-19f2-4d27-b64c-4eda5330f04f"},"vehicle_type_id":"4","last_reported":1734678509,"current_range_meters":23200,"station_id":"ce4bhn92rcd13ifvqgrg","pricing_plan_id":"cebpf4jnsgd1na2vs0mg"},{"bike_id":"5f95dcdc-b7ed-4b2d-bb9c-c1b46e433a17","system_id":"levelo_inurba_marseille","lat":43.31337,"lon":5.3969,"is_reserved":false,"is_disabled":false,"rental_uris":{"android":"levelo://app?vid=5f95dcdc-b7ed-4b2d-bb9c-c1b46e433a17","ios":"levelo://app?vid=5f95dcdc-b7ed-4b2d-bb9c-c1b46e433a17"},"vehicle_type_id":"4","last_reported":1734678509,"current_range_meters":35200,"station_id":"ce4bgvp2rcd13ifvqcu0","pricing_plan_id":"cebpf4jnsgd1na2vs0mg"},{"bike_id":"2256e953-e04c-4a1a-96b7-b03d74e4d2b6","system_id":"levelo_inurba_marseille","lat":43.24808,"lon":5.37447,"is_reserved":false,"is_disabled":false,"rental_uris":{"android":"levelo://app?vid=2256e953-e04c-4a1a-96b7-b03d74e4d2b6","ios":"levelo://app?vid=2256e953-e04c-4a1a-96b7-b03d74e4d2b6"},"vehicle_type_id":"4","last_reported":1734678509,"current_range_meters":38800,"station_id":"ce4bhgh2rcd13ifvqfb0","pricing_plan_id":"cebpf4jnsgd1na2vs0mg"},{"bike_id":"987166cc-7e02-42d5-9948-f19661a829e6","system_id":"levelo_inurba_marseille","lat":43.279904,"lon":5.416701,"is_reserved":false,"is_disabled":false,"rental_uris":{"android":"levelo://app?vid=987166cc-7e02-42d5-9948-f19661a829e6","ios":"levelo://app?vid=987166cc-7e02-42d5-9948-f19661a829e6"},"vehicle_type_id":"4","last_reported":1734678509,"current_range_meters":28000,"station_id":"ce4bho12rcd13ifvqh1g","pricing_plan_id":"cebpf4jnsgd1na2vs0mg"},{"bike_id":"2708ebca-ead0-431b-8ee5-75b909288afb","system_id":"levelo_inurba_marseille","lat":43.28108,"lon":5.37843,"is_reserved":false,"is_disabled":false,"rental_uris":{"android":"levelo://app?vid=2708ebca-ead0-431b-8ee5-75b909288afb","ios":"levelo://app?vid=2708ebca-ead0-431b-8ee5-75b909288afb"},"vehicle_type_id":"4","last_reported":1734678509,"current_range_meters":28400,"station_id":"ce4bha12rcd13ifvqee0","pricing_plan_id":"cebpf4jnsgd1na2vs0mg"},{"bike_id":"ce9b6baf-04d3-41e3-8970-fa5510778512","system_id":"levelo_inurba_marseille","lat":43.24074,"lon":5.37763,"is_reserved":false,"is_disabled":false,"rental_uris":{"android":"levelo://app?vid=ce9b6baf-04d3-41e3-8970-fa5510778512","ios":"levelo://app?vid=ce9b6baf-04d3-41e3-8970-fa5510778512"},"vehicle_type_id":"4","last_reported":1734678509,"current_range_meters":25200,"station_id":"ce4bhnp2rcd13ifvqgvg","pricing_plan_id":"cebpf4jnsgd1na2vs0mg"},{"bike_id":"cbb72a90-8de2-4a23-ab7e-1fff8586151c","system_id":"levelo_inurba_marseille","lat":43.28358,"lon":5.38103,"is_reserved":false,"is_disabled":false,"rental_uris":{"android":"levelo://app?vid=cbb72a90-8de2-4a23-ab7e-1fff8586151c","ios":"levelo://app?vid=cbb72a90-8de2-4a23-ab7e-1fff8586151c"},"vehicle_type_id":"4","last_reported":1734678509,"current_range_meters":14400,"station_id":"ce4bh412rcd13ifvqdr0","pricing_plan_id":"cebpf4jnsgd1na2vs0mg"},{"bike_id":"19f34006-1dba-4c03-b59a-0511830589aa","system_id":"levelo_inurba_marseille","lat":43.24822,"lon":5.37451,"is_reserved":false,"is_disabled":false,"rental_uris":{"android":"levelo://app?vid=19f34006-1dba-4c03-b59a-0511830589aa","ios":"levelo://app?vid=19f34006-1dba-4c03-b59a-0511830589aa"},"vehicle_type_id":"4","last_reported":1734678509,"current_range_meters":26800,"station_id":"ce4bhgh2rcd13ifvqfb0","pricing_plan_id":"cebpf4jnsgd1na2vs0mg"},{"bike_id":"c74db8c8-c410-49c5-9f2f-32f849d1937b","system_id":"levelo_inurba_marseille","lat":43.27174,"lon":5.40992,"is_reserved":false,"is_disabled":false,"rental_uris":{"android":"levelo://app?vid=c74db8c8-c410-49c5-9f2f-32f849d1937b","ios":"levelo://app?vid=c74db8c8-c410-49c5-9f2f-32f849d1937b"},"vehicle_type_id":"4","last_reported":1734678509,"current_range_meters":38800,"station_id":"ce4bhl12rcd13ifvqgf0","pricing_plan_id":"cebpf4jnsgd1na2vs0mg"},{"bike_id":"63a140bb-8860-4a86-80ee-4e3d8ad427cd","system_id":"levelo_inurba_marseille","lat":43.29717,"lon":5.36579,"is_reserved":false,"is_disabled":false,"rental_uris":{"android":"levelo://app?vid=63a140bb-8860-4a86-80ee-4e3d8ad427cd","ios":"levelo://app?vid=63a140bb-8860-4a86-80ee-4e3d8ad427cd"},"vehicle_type_id":"4","last_reported":1734678509,"current_range_meters":37600,"station_id":"ce4bgn12rcd13ifvqbt0","pricing_plan_id":"cebpf4jnsgd1na2vs0mg"},{"bike_id":"8ec7cba5-43d8-46de-aa25-b8662e8f349f","system_id":"levelo_inurba_marseille","lat":43.30134,"lon":5.38794,"is_reserved":false,"is_disabled":false,"rental_uris":{"android":"levelo://app?vid=8ec7cba5-43d8-46de-aa25-b8662e8f349f","ios":"levelo://app?vid=8ec7cba5-43d8-46de-aa25-b8662e8f349f"},"vehicle_type_id":"4","last_reported":1734678509,"current_range_meters":34000,"station_id":"ce4bghh2rcd13ifvqb60","pricing_plan_id":"cebpf4jnsgd1na2vs0mg"},{"bike_id":"7da9cf97-e567-4f36-b016-39385cd5333d","system_id":"levelo_inurba_marseille","lat":43.29556,"lon":5.42294,"is_reserved":false,"is_disabled":false,"rental_uris":{"android":"levelo://app?vid=7da9cf97-e567-4f36-b016-39385cd5333d","ios":"levelo://app?vid=7da9cf97-e567-4f36-b016-39385cd5333d"},"vehicle_type_id":"4","last_reported":1734678509,"current_range_meters":4800,"station_id":"ce4bhph2rcd13ifvqhdg","pricing_plan_id":"cebpf4jnsgd1na2vs0mg"},{"bike_id":"c68ff3f0-9fe6-4155-9b8d-b27ebd1ac1b9","system_id":"levelo_inurba_marseille","lat":43.30136,"lon":5.38789,"is_reserved":false,"is_disabled":true,"rental_uris":{"android":"levelo://app?vid=c68ff3f0-9fe6-4155-9b8d-b27ebd1ac1b9","ios":"levelo://app?vid=c68ff3f0-9fe6-4155-9b8d-b27ebd1ac1b9"},"vehicle_type_id":"4","last_reported":1734678509,"current_range_meters":0,"station_id":"ce4bghh2rcd13ifvqb60","pricing_plan_id":"cebpf4jnsgd1na2vs0mg"},{"bike_id":"2ea5ebc2-554f-4583-b0a6-c2d852bdc972","system_id":"levelo_inurba_marseille","lat":43.281076,"lon":5.378542,"is_reserved":false,"is_disabled":false,"rental_uris":{"android":"levelo://app?vid=2ea5ebc2-554f-4583-b0a6-c2d852bdc972","ios":"levelo://app?vid=2ea5ebc2-554f-4583-b0a6-c2d852bdc972"},"vehicle_type_id":"4","last_reported":1734678509,"current_range_meters":38800,"station_id":"ce4bha12rcd13ifvqee0","pricing_plan_id":"cebpf4jnsgd1na2vs0mg"},{"bike_id":"6eb05e05-a615-4ac8-8500-9cbc443cd2c5","system_id":"levelo_inurba_marseille","lat":43.3021,"lon":5.39458,"is_reserved":false,"is_disabled":false,"rental_uris":{"android":"levelo://app?vid=6eb05e05-a615-4ac8-8500-9cbc443cd2c5","ios":"levelo://app?vid=6eb05e05-a615-4ac8-8500-9cbc443cd2c5"},"vehicle_type_id":"4","last_reported":1734678509,"current_range_meters":36400,"station_id":"ce4bh0p2rcd13ifvqd70","pricing_plan_id":"cebpf4jnsgd1na2vs0mg"},{"bike_id":"9932f0ef-901c-478b-81c6-b5f135d19e67","system_id":"levelo_inurba_marseille","lat":43.2756,"lon":5.38417,"is_reserved":false,"is_disabled":false,"rental_uris":{"android":"levelo://app?vid=9932f0ef-901c-478b-81c6-b5f135d19e67","ios":"levelo://app?vid=9932f0ef-901c-478b-81c6-b5f135d19e67"},"vehicle_type_id":"4","last_reported":1734678509,"current_range_meters":26000,"station_id":"ce4bhh92rcd13ifvqfi0","pricing_plan_id":"cebpf4jnsgd1na2vs0mg"},{"bike_id":"0dc16632-7f0d-42d8-a5ca-4991b8e80d19","system_id":"levelo_inurba_marseille","lat":43.30595,"lon":5.39358,"is_reserved":false,"is_disabled":false,"rental_uris":{"android":"levelo://app?vid=0dc16632-7f0d-42d8-a5ca-4991b8e80d19","ios":"levelo://app?vid=0dc16632-7f0d-42d8-a5ca-4991b8e80d19"},"vehicle_type_id":"4","last_reported":1734678509,"current_range_meters":29600,"station_id":"ce4bh0p2rcd13ifvqd80","pricing_plan_id":"cebpf4jnsgd1na2vs0mg"},{"bike_id":"cc91e18c-31a1-4d61-8bec-2d478014f9b7","system_id":"levelo_inurba_marseille","lat":43.27379,"lon":5.36258,"is_reserved":false,"is_disabled":false,"rental_uris":{"android":"levelo://app?vid=cc91e18c-31a1-4d61-8bec-2d478014f9b7","ios":"levelo://app?vid=cc91e18c-31a1-4d61-8bec-2d478014f9b7"},"vehicle_type_id":"4","last_reported":1734678509,"current_range_meters":30000,"station_id":"ce4bhbh2rcd13ifvqeo0","pricing_plan_id":"cebpf4jnsgd1na2vs0mg"},{"bike_id":"fdfb3580-1002-4881-8a39-36cd06d2a7b8","system_id":"levelo_inurba_marseille","lat":43.2828,"lon":5.35069,"is_reserved":false,"is_disabled":false,"rental_uris":{"android":"levelo://app?vid=fdfb3580-1002-4881-8a39-36cd06d2a7b8","ios":"levelo://app?vid=fdfb3580-1002-4881-8a39-36cd06d2a7b8"},"vehicle_type_id":"4","last_reported":1734678509,"current_range_meters":35200,"station_id":"ce4bhbp2rcd13ifvqerg","pricing_plan_id":"cebpf4jnsgd1na2vs0mg"},{"bike_id":"494c8398-822e-42ee-a7f1-dfd664d1fba7","system_id":"levelo_inurba_marseille","lat":43.23207,"lon":5.35547,"is_reserved":false,"is_disabled":false,"rental_uris":{"android":"levelo://app?vid=494c8398-822e-42ee-a7f1-dfd664d1fba7","ios":"levelo://app?vid=494c8398-822e-42ee-a7f1-dfd664d1fba7"},"vehicle_type_id":"4","last_reported":1734678509,"current_range_meters":36400,"station_id":"ce4bhu92rcd13ifvqi70","pricing_plan_id":"cebpf4jnsgd1na2vs0mg"},{"bike_id":"16c58b96-bed5-4beb-9756-42ede896921f","system_id":"levelo_inurba_marseille","lat":43.28272,"lon":5.35071,"is_reserved":false,"is_disabled":true,"rental_uris":{"android":"levelo://app?vid=16c58b96-bed5-4beb-9756-42ede896921f","ios":"levelo://app?vid=16c58b96-bed5-4beb-9756-42ede896921f"},"vehicle_type_id":"4","last_reported":1734678509,"current_range_meters":39200,"station_id":"ce4bhbp2rcd13ifvqerg","pricing_plan_id":"cebpf4jnsgd1na2vs0mg"},{"bike_id":"a59dc992-2194-46f2-b1c4-3aa0adf9b8a1","system_id":"levelo_inurba_marseille","lat":43.30288,"lon":5.37707,"is_reserved":false,"is_disabled":true,"rental_uris":{"android":"levelo://app?vid=a59dc992-2194-46f2-b1c4-3aa0adf9b8a1","ios":"levelo://app?vid=a59dc992-2194-46f2-b1c4-3aa0adf9b8a1"},"vehicle_type_id":"4","last_reported":1734678509,"current_range_meters":26000,"station_id":"ce4bguh2rcd13ifvqcj0","pricing_plan_id":"cebpf4jnsgd1na2vs0mg"},{"bike_id":"3c413c58-d255-428b-86c8-72567e764cd9","system_id":"levelo_inurba_marseille","lat":43.28458,"lon":5.35884,"is_reserved":false,"is_disabled":false,"rental_uris":{"android":"levelo://app?vid=3c413c58-d255-428b-86c8-72567e764cd9","ios":"levelo://app?vid=3c413c58-d255-428b-86c8-72567e764cd9"},"vehicle_type_id":"4","last_reported":1734678509,"current_range_meters":38800,"station_id":"ce4bhah2rcd13ifvqei0","pricing_plan_id":"cebpf4jnsgd1na2vs0mg"},{"bike_id":"55fa967f-e3e3-42c4-9dd1-2bcbb5fc2d4d","system_id":"levelo_inurba_marseille","lat":43.27254,"lon":5.39083,"is_reserved":false,"is_disabled":false,"rental_uris":{"android":"levelo://app?vid=55fa967f-e3e3-42c4-9dd1-2bcbb5fc2d4d","ios":"levelo://app?vid=55fa967f-e3e3-42c4-9dd1-2bcbb5fc2d4d"},"vehicle_type_id":"4","last_reported":1734678509,"current_range_meters":25200,"station_id":"","pricing_plan_id":"cebpf4jnsgd1na2vs0mg"},{"bike_id":"9e0a9920-d1ae-4ccd-a58f-c78416388400","system_id":"levelo_inurba_marseille","lat":43.27319,"lon":5.39088,"is_reserved":false,"is_disabled":false,"rental_uris":{"android":"levelo://app?vid=9e0a9920-d1ae-4ccd-a58f-c78416388400","ios":"levelo://app?vid=9e0a9920-d1ae-4ccd-a58f-c78416388400"},"vehicle_type_id":"4","last_reported":1734678509,"current_range_meters":38800,"station_id":"ce4bhgp2rcd13ifvqfe0","pricing_plan_id":"cebpf4jnsgd1na2vs0mg"},{"bike_id":"af3135ba-a13a-46ea-b19c-4da09108ac62","system_id":"levelo_inurba_marseille","lat":43.279367,"lon":5.399273,"is_reserved":false,"is_disabled":false,"rental_uris":{"android":"levelo://app?vid=af3135ba-a13a-46ea-b19c-4da09108ac62","ios":"levelo://app?vid=af3135ba-a13a-46ea-b19c-4da09108ac62"},"vehicle_type_id":"4","last_reported":1734678509,"current_range_meters":27200,"station_id":"ce4bho92rcd13ifvqh4g","pricing_plan_id":"cebpf4jnsgd1na2vs0mg"},{"bike_id":"8e8ddb40-dfef-4f41-8fd9-8dfe2942b813","system_id":"levelo_inurba_marseille","lat":43.31483,"lon":5.37272,"is_reserved":false,"is_disabled":false,"rental_uris":{"android":"levelo://app?vid=8e8ddb40-dfef-4f41-8fd9-8dfe2942b813","ios":"levelo://app?vid=8e8ddb40-dfef-4f41-8fd9-8dfe2942b813"},"vehicle_type_id":"4","last_reported":1734678509,"current_range_meters":12400,"station_id":"ce4bgt12rcd13ifvqcd0","pricing_plan_id":"cebpf4jnsgd1na2vs0mg"},{"bike_id":"a2eba22b-b0ee-4005-9bf3-576bb458d391","system_id":"levelo_inurba_marseille","lat":43.279651,"lon":5.387544,"is_reserved":false,"is_disabled":true,"rental_uris":{"android":"levelo://app?vid=a2eba22b-b0ee-4005-9bf3-576bb458d391","ios":"levelo://app?vid=a2eba22b-b0ee-4005-9bf3-576bb458d391"},"vehicle_type_id":"4","last_reported":1734678509,"current_range_meters":0,"station_id":"","pricing_plan_id":"cebpf4jnsgd1na2vs0mg"},{"bike_id":"c5fe3df7-38c6-4417-926a-4940de79602c","system_id":"levelo_inurba_marseille","lat":43.29888,"lon":5.39739,"is_reserved":false,"is_disabled":false,"rental_uris":{"android":"levelo://app?vid=c5fe3df7-38c6-4417-926a-4940de79602c","ios":"levelo://app?vid=c5fe3df7-38c6-4417-926a-4940de79602c"},"vehicle_type_id":"4","last_reported":1734678509,"current_range_meters":35600,"station_id":"ce4bh0h2rcd13ifvqd50","pricing_plan_id":"cebpf4jnsgd1na2vs0mg"},{"bike_id":"fcf6f42c-9492-49dd-a9e6-322a50636e12","system_id":"levelo_inurba_marseille","lat":43.31748,"lon":5.37738,"is_reserved":false,"is_disabled":false,"rental_uris":{"android":"levelo://app?vid=fcf6f42c-9492-49dd-a9e6-322a50636e12","ios":"levelo://app?vid=fcf6f42c-9492-49dd-a9e6-322a50636e12"},"vehicle_type_id":"4","last_reported":1734678509,"current_range_meters":12000,"station_id":"ce4bgth2rcd13ifvqch0","pricing_plan_id":"cebpf4jnsgd1na2vs0mg"},{"bike_id":"135cbf9d-cf15-446e-96c6-ebfad115d98d","system_id":"levelo_inurba_marseille","lat":43.33702,"lon":5.37442,"is_reserved":false,"is_disabled":false,"rental_uris":{"android":"levelo://app?vid=135cbf9d-cf15-446e-96c6-ebfad115d98d","ios":"levelo://app?vid=135cbf9d-cf15-446e-96c6-ebfad115d98d"},"vehicle_type_id":"4","last_reported":1734678509,"current_range_meters":38800,"station_id":"","pricing_plan_id":"cebpf4jnsgd1na2vs0mg"},{"bike_id":"6e868a60-9f88-474e-adb5-72cc44996f9b","system_id":"levelo_inurba_marseille","lat":43.29529,"lon":5.37495,"is_reserved":false,"is_disabled":true,"rental_uris":{"android":"levelo://app?vid=6e868a60-9f88-474e-adb5-72cc44996f9b","ios":"levelo://app?vid=6e868a60-9f88-474e-adb5-72cc44996f9b"},"vehicle_type_id":"4","last_reported":1734678509,"current_range_meters":36800,"station_id":"ce4bgkp2rcd13ifvqbmg","pricing_plan_id":"cebpf4jnsgd1na2vs0mg"},{"bike_id":"7defd0b3-fac9-4d6e-9dc8-be201cdc19ab","system_id":"levelo_inurba_marseille","lat":43.30188,"lon":5.36608,"is_reserved":false,"is_disabled":false,"rental_uris":{"android":"levelo://app?vid=7defd0b3-fac9-4d6e-9dc8-be201cdc19ab","ios":"levelo://app?vid=7defd0b3-fac9-4d6e-9dc8-be201cdc19ab"},"vehicle_type_id":"4","last_reported":1734678509,"current_range_meters":38800,"station_id":"ce4bgrh2rcd13ifvqc8g","pricing_plan_id":"cebpf4jnsgd1na2vs0mg"},