{"last_updated":1706458036,"ttl":30,"version":"2.2","data":{"bikes":[{"bike_id":"26eb7c4c-d820-4609-a57f-4739d1caec33","system_id":"levelo_inurba_marseille","lat":43.31341,"lon":5.367098,"is_reserved":false,"is_disabled":false,"rental_uris":{"android":"levelo://app?vid=26eb7c4c-d820-4609-a57f-4739d1caec33","ios":"levelo://app?vid=26eb7c4c-d820-4609-a57f-4739d1caec33"},"vehicle_type_id":"4","last_reported":1706458036,"current_range_meters":30000,"station_id":"ce4bgr92rcd13ifvqc6g","pricing_plan_id":"free"},{"bike_id":"869b492d-2884-45ef-b775-ad5e200f5295","system_id":"levelo_inurba_marseille","lat":43.31341,"lon":5.367098,"is_reserved":false,"is_disabled":false,"rental_uris":{"android":"levelo://app?vid=869b492d-2884-45ef-b775-ad5e200f5295","ios":"levelo://app?vid=869b492d-2884-45ef-b775-ad5e200f5295"},"vehicle_type_id":"4","last_reported":1706458036,"current_range_meters":30400,"station_id":"ce4bgr92rcd13ifvqc6g","pricing_plan_id":"free"},{"bike_id":"d868006a-3b81-4772-b20d-5d05480fdbd9","system_id":"levelo_inurba_marseille","lat":43.312239,"lon":5.368562,"is_reserved":false,"is_disabled":false,"rental_uris":{"android":"levelo://app?vid=d868006a-3b81-4772-b20d-5d05480fdbd9","ios":"levelo://app?vid=d868006a-3b81-4772-b20d-5d05480fdbd9"},"vehicle_type_id":"4","last_reported":1706458036,"current_range_meters":1200,"station_id":"ce4bgl92rcd13ifvqbq0","pricing_plan_id":"free"},{"bike_id":"7dd3ff27-4e87-4cff-859a-d94a428d0541","system_id":"levelo_inurba_marseille","lat":43.31226,"lon":5.36858,"is_reserved":false,"is_disabled":false,"rental_uris":{"android":"levelo://app?vid=7dd3ff27-4e87-4cff-859a-d94a428d0541","ios":"levelo://app?vid=7dd3ff27-4e87-4cff-859a-d94a428d0541"},"vehicle_type_id":"4","last_reported":1706458036,"current_range_meters":19600,"station_id":"ce4bgl92rcd13ifvqbq0","pricing_plan_id":"free"},{"bike_id":"735165c4-64c4-4b08-bb51-409503b731c5","system_id":"levelo_inurba_marseille","lat":43.312239,"lon":5.368562,"is_reserved":false,"is_disabled":false,"rental_uris":{"android":"levelo://app?vid=735165c4-64c4-4b08-bb51-409503b731c5","ios":"levelo://app?vid=735165c4-64c4-4b08-bb51-409503b731c5"},"vehicle_type_id":"4","last_reported":1706458036,"current_range_meters":29600,"station_id":"ce4bgl92rcd13ifvqbq0","pricing_plan_id":"free"},{"bike_id":"100937f0-ce09-4bcc-a6d1-37aa82c8a800","system_id":"levelo_inurba_marseille","lat":43.309076,"lon":5.368465,"is_reserved":false,"is_disabled":false,"rental_uris":{"android":"levelo://app?vid=100937f0-ce09-4bcc-a6d1-37aa82c8a800","ios":"levelo://app?vid=100937f0-ce09-4bcc-a6d1-37aa82c8a800"},"vehicle_type_id":"4","last_reported":1706458036,"current_range_meters":10800,"station_id":"ce4bgn92rcd13ifvqbvg","pricing_plan_id":"free"},{"bike_id":"09b19c2a-b822-4aed-9c36-e5427c07e178","system_id":"levelo_inurba_marseille","lat":43.314811,"lon":5.373103,"is_reserved":false,"is_disabled":false,"rental_uris":{"android":"levelo://app?vid=09b19c2a-b822-4aed-9c36-e5427c07e178","ios":"levelo://app?vid=09b19c2a-b822-4aed-9c36-e5427c07e178"},"vehicle_type_id":"4","last_reported":1706458036,"current_range_meters":27600,"station_id":"ce4bgt12rcd13ifvqcd0","pricing_plan_id":"free"},{"bike_id":"8459d3f1-3b3b-4465-9b5e-90b85a407091","system_id":"levelo_inurba_marseille","lat":43.31501,"lon":5.37303,"is_reserved":false,"is_disabled":false,"rental_uris":{"android":"levelo://app?vid=8459d3f1-3b3b-4465-9b5e-90b85a407091","ios":"levelo://app?vid=8459d3f1-3b3b-4465-9b5e-90b85a407091"},"vehicle_type_id":"4","last_reported":1706458036,"current_range_meters":0,"station_id":"ce4bgt12rcd13ifvqcd0","pricing_plan_id":"free"},{"bike_id":"c26d9d98-cd68-4a8a-a849-f715a3d4b2a6","system_id":"levelo_inurba_marseille","lat":43.31496,"lon":5.373073,"is_reserved":false,"is_disabled":false,"rental_uris":{"android":"levelo://app?vid=c26d9d98-cd68-4a8a-a849-f715a3d4b2a6","ios":"levelo://app?vid=c26d9d98-cd68-4a8a-a849-f715a3d4b2a6"},"vehicle_type_id":"4","last_reported":1706458036,"current_range_meters":0,"station_id":"ce4bgt12rcd13ifvqcd0","pricing_plan_id":"free"},{"bike_id":"afabcb22-1981-40e4-a278-9b404052bd69","system_id":"levelo_inurba_marseille","lat":43.305712,"lon":5.365641,"is_reserved":false,"is_disabled":false,"rental_uris":{"android":"levelo://app?vid=afabcb22-1981-40e4-a278-9b404052bd69","ios":"levelo://app?vid=afabcb22-1981-40e4-a278-9b404052bd69"},"vehicle_type_id":"4","last_reported":1706458036,"current_range_meters":6800,"station_id":"ce4bgs12rcd13ifvqcag","pricing_plan_id":"free"},{"bike_id":"6156a903-1c6b-4db5-a0fa-e24965dd5f29","system_id":"levelo_inurba_marseille","lat":43.317075,"lon":5.377367,"is_reserved":false,"is_disabled":false,"rental_uris":{"android":"levelo://app?vid=6156a903-1c6b-4db5-a0fa-e24965dd5f29","ios":"levelo://app?vid=6156a903-1c6b-4db5-a0fa-e24965dd5f29"},"vehicle_type_id":"4","last_reported":1706458036,"current_range_meters":9600,"station_id":"ce4bgth2rcd13ifvqch0","pricing_plan_id":"free"},{"bike_id":"6fff0b7d-2514-4e0c-a138-b6e9cb85be95","system_id":"levelo_inurba_marseille","lat":43.317075,"lon":5.377367,"is_reserved":false,"is_disabled":false,"rental_uris":{"android":"levelo://app?vid=6fff0b7d-2514-4e0c-a138-b6e9cb85be95","ios":"levelo://app?vid=6fff0b7d-2514-4e0c-a138-b6e9cb85be95"},"vehicle_type_id":"4","last_reported":1706458036,"current_range_meters":31200,"station_id":"ce4bgth2rcd13ifvqch0","pricing_plan_id":"free"},{"bike_id":"bf70306f-e475-47ca-8724-a7e42b25d923","system_id":"levelo_inurba_marseille","lat":43.317075,"lon":5.377367,"is_reserved":false,"is_disabled":false,"rental_uris":{"android":"levelo://app?vid=bf70306f-e475-47ca-8724-a7e42b25d923","ios":"levelo://app?vid=bf70306f-e475-47ca-8724-a7e42b25d923"},"vehicle_type_id":"4","last_reported":1706458036,"current_range_meters":30800,"station_id":"ce4bgth2rcd13ifvqch0","pricing_plan_id":"free"},{"bike_id":"b83daeb9-a39c-4884-86e2-16a37c651f7f","system_id":"levelo_inurba_marseille","lat":43.320037,"lon":5.376213,"is_reserved":false,"is_disabled":false,"rental_uris":{"android":"levelo://app?vid=b83daeb9-a39c-4884-86e2-16a37c651f7f","ios":"levelo://app?vid=b83daeb9-a39c-4884-86e2-16a37c651f7f"},"vehicle_type_id":"4","last_reported":1706458036,"current_range_meters":5600,"station_id":"","pricing_plan_id":"free"},{"bike_id":"e5ce94f1-2db0-46ad-a214-8f78a49cdc9b","system_id":"levelo_inurba_marseille","lat":43.301939,"lon":5.366286,"is_reserved":false,"is_disabled":false,"rental_uris":{"android":"levelo://app?vid=e5ce94f1-2db0-46ad-a214-8f78a49cdc9b","ios":"levelo://app?vid=e5ce94f1-2db0-46ad-a214-8f78a49cdc9b"},"vehicle_type_id":"4","last_reported":1706458036,"current_range_meters":6800,"station_id":"ce4bgrh2rcd13ifvqc8g","pricing_plan_id":"free"},{"bike_id":"277999e7-cc91-4735-ab61-ec90ed9943ab","system_id":"levelo_inurba_marseille","lat":43.301939,"lon":5.366286,"is_reserved":false,"is_disabled":false,"rental_uris":{"android":"levelo://app?vid=277999e7-cc91-4735-ab61-ec90ed9943ab","ios":"levelo://app?vid=277999e7-cc91-4735-ab61-ec90ed9943ab"},"vehicle_type_id":"4","last_reported":1706458036,"current_range_meters":6800,"station_id":"ce4bgrh2rcd13ifvqc8g","pricing_plan_id":"free"},{"bike_id":"f304771b-1ad8-42c4-8865-77a6132019e0","system_id":"levelo_inurba_marseille","lat":43.308012,"lon":5.381511,"is_reserved":false,"is_disabled":false,"rental_uris":{"android":"levelo://app?vid=f304771b-1ad8-42c4-8865-77a6132019e0","ios":"levelo://app?vid=f304771b-1ad8-42c4-8865-77a6132019e0"},"vehicle_type_id":"4","last_reported":1706458036,"current_range_meters":7600,"station_id":"ce4bgt12rcd13ifvqce0","pricing_plan_id":"free"},{"bike_id":"dc00bdf8-dc57-4b02-8d44-8ea4906debe3","system_id":"levelo_inurba_marseille","lat":43.324771,"lon":5.36557,"is_reserved":false,"is_disabled":false,"rental_uris":{"android":"levelo://app?vid=dc00bdf8-dc57-4b02-8d44-8ea4906debe3","ios":"levelo://app?vid=dc00bdf8-dc57-4b02-8d44-8ea4906debe3"},"vehicle_type_id":"4","last_reported":1706458036,"current_range_meters":17200,"station_id":"ce4bhs12rcd13ifvqhvg","pricing_plan_id":"free"},{"bike_id":"cba80607-7988-4bdb-a3a6-72f7f91ca945","system_id":"levelo_inurba_marseille","lat":43.302784,"lon":5.377158,"is_reserved":false,"is_disabled":false,"rental_uris":{"android":"levelo://app?vid=cba80607-7988-4bdb-a3a6-72f7f91ca945","ios":"levelo://app?vid=cba80607-7988-4bdb-a3a6-72f7f91ca945"},"vehicle_type_id":"4","last_reported":1706458036,"current_range_meters":15600,"station_id":"ce4bguh2rcd13ifvqcj0","pricing_plan_id":"free"},{"bike_id":"e5557b37-fb9e-4ee2-8588-b032df0f6bfa","system_id":"levelo_inurba_marseille","lat":43.301429,"lon":5.37413,"is_reserved":false,"is_disabled":false,"rental_uris":{"android":"levelo://app?vid=e5557b37-fb9e-4ee2-8588-b032df0f6bfa","ios":"levelo://app?vid=e5557b37-fb9e-4ee2-8588-b032df0f6bfa"},"vehicle_type_id":"4","last_reported":1706458036,"current_range_meters":14800,"station_id":"ce4bgs92rcd13ifvqcc0","pricing_plan_id":"free"},{"bike_id":"b60d169b-f708-4c90-ae74-5399a86031c6","system_id":"levelo_inurba_marseille","lat":43.299724,"lon":5.371829,"is_reserved":false,"is_disabled":false,"rental_uris":{"android":"levelo://app?vid=b60d169b-f708-4c90-ae74-5399a86031c6","ios":"levelo://app?vid=b60d169b-f708-4c90-ae74-5399a86031c6"},"vehicle_type_id":"4","last_reported":1706458036,"current_range_meters":0,"station_id":"ce4bgr92rcd13ifvqc7g","pricing_plan_id":"free"},{"bike_id":"6efff4c9-37a9-42e3-a6e9-9af40bf4fbfb","system_id":"levelo_inurba_marseille","lat":43.299222,"lon":5.365554,"is_reserved":false,"is_disabled":false,"rental_uris":{"android":"levelo://app?vid=6efff4c9-37a9-42e3-a6e9-9af40bf4fbfb","ios":"levelo://app?vid=6efff4c9-37a9-42e3-a6e9-9af40bf4fbfb"},"vehicle_type_id":"4","last_reported":1706458036,"current_range_meters":4800,"station_id":"ce4bgm92rcd13ifvqbr0","pricing_plan_id":"free"},{"bike_id":"c1eebf68-be06-4baa-b34c-6b2fadb41d6d","system_id":"levelo_inurba_marseille","lat":43.299724,"lon":5.371829,"is_reserved":false,"is_disabled":false,"rental_uris":{"android":"levelo://app?vid=c1eebf68-be06-4baa-b34c-6b2fadb41d6d","ios":"levelo://app?vid=c1eebf68-be06-4baa-b34c-6b2fadb41d6d"},"vehicle_type_id":"4","last_reported":1706458036,"current_range_meters":3600,"station_id":"ce4bgr92rcd13ifvqc7g","pricing_plan_id":"free"},{"bike_id":"e2106d41-aa66-4cc1-b983-8b65110ec8b3","system_id":"levelo_inurba_marseille","lat":43.299243,"lon":5.37481,"is_reserved":false,"is_disabled":false,"rental_uris":{"android":"levelo://app?vid=e2106d41-aa66-4cc1-b983-8b65110ec8b3","ios":"levelo://app?vid=e2106d41-aa66-4cc1-b983-8b65110ec8b3"},"vehicle_type_id":"4","last_reported":1706458036,"current_range_meters":16000,"station_id":"ce4bgjh2rcd13ifvqbg0","pricing_plan_id":"free"},{"bike_id":"e1539f0d-02e3-46ca-8fd2-b115fd55a782","system_id":"levelo_inurba_marseille","lat":43.322872,"lon":5.382756,"is_reserved":false,"is_disabled":false,"rental_uris":{"android":"levelo://app?vid=e1539f0d-02e3-46ca-8fd2-b115fd55a782","ios":"levelo://app?vid=e1539f0d-02e3-46ca-8fd2-b115fd55a782"},"vehicle_type_id":"4","last_reported":1706458036,"current_range_meters":24000,"station_id":"ce4bhr12rcd13ifvqhqg","pricing_plan_id":"free"},{"bike_id":"8820e2b9-8d94-4ecf-b398-c5169cc47e3d","system_id":"levelo_inurba_marseille","lat":43.322872,"lon":5.382756,"is_reserved":false,"is_disabled":false,"rental_uris":{"android":"levelo://app?vid=8820e2b9-8d94-4ecf-b398-c5169cc47e3d","ios":"levelo://app?vid=8820e2b9-8d94-4ecf-b398-c5169cc47e3d"},"vehicle_type_id":"4","last_reported":1706458036,"current_range_meters":30800,"station_id":"ce4bhr12rcd13ifvqhqg","pricing_plan_id":"free"},{"bike_id":"0f7b98a3-6434-4866-adac-ccd99f91e009","system_id":"levelo_inurba_marseille","lat":43.32826,"lon":5.36686,"is_reserved":false,"is_disabled":false,"rental_uris":{"android":"levelo://app?vid=0f7b98a3-6434-4866-adac-ccd99f91e009","ios":"levelo://app?vid=0f7b98a3-6434-4866-adac-ccd99f91e009"},"vehicle_type_id":"4","last_reported":1706458036,"current_range_meters":0,"station_id":"ce4bhs92rcd13ifvqi0g","pricing_plan_id":"free"},{"bike_id":"e46bb925-481b-445c-8790-e0bc35914cef","system_id":"levelo_inurba_marseille","lat":43.32828,"lon":5.36674,"is_reserved":false,"is_disabled":false,"rental_uris":{"android":"levelo://app?vid=e46bb925-481b-445c-8790-e0bc35914cef","ios":"levelo://app?vid=e46bb925-481b-445c-8790-e0bc35914cef"},"vehicle_type_id":"4","last_reported":1706458036,"current_range_meters":22400,"station_id":"ce4bhs92rcd13ifvqi0g","pricing_plan_id":"free"},{"bike_id":"12edd8fe-ac42-424b-86a0-ddbc64b4f114","system_id":"levelo_inurba_marseille","lat":43.328371,"lon":5.366909,"is_reserved":false,"is_disabled":false,"rental_uris":{"android":"levelo://app?vid=12edd8fe-ac42-424b-86a0-ddbc64b4f114","ios":"levelo://app?vid=12edd8fe-ac42-424b-86a0-ddbc64b4f114"},"vehicle_type_id":"4","last_reported":1706458036,"current_range_meters":13200,"station_id":"ce4bhs92rcd13ifvqi0g","pricing_plan_id":"free"},{"bike_id":"1e3dac1e-79bb-416e-9a25-92222494a4ee","system_id":"levelo_inurba_marseille","lat":43.328371,"lon":5.366912,"is_reserved":false,"is_disabled":false,"rental_uris":{"android":"levelo://app?vid=1e3dac1e-79bb-416e-9a25-92222494a4ee","ios":"levelo://app?vid=1e3dac1e-79bb-416e-9a25-92222494a4ee"},"vehicle_type_id":"4","last_reported":1706458036,"current_range_meters":17600,"station_id":"ce4bhs92rcd13ifvqi0g","pricing_plan_id":"free"},{"bike_id":"af1c8fc0-8183-4d68-848c-9159b1d2bf45","system_id":"levelo_inurba_marseille","lat":43.328371,"lon":5.366909,"is_reserved":false,"is_disabled":false,"rental_uris":{"android":"levelo://app?vid=af1c8fc0-8183-4d68-848c-9159b1d2bf45","ios":"levelo://app?vid=af1c8fc0-8183-4d68-848c-9159b1d2bf45"},"vehicle_type_id":"4","last_reported":1706458036,"current_range_meters":10000,"station_id":"ce4bhs92rcd13ifvqi0g","pricing_plan_id":"free"},{"bike_id":"5a5b29e1-0adb-408c-a70e-009834e37859","system_id":"levelo_inurba_marseille","lat":43.297163,"lon":5.365866,"is_reserved":false,"is_disabled":false,"rental_uris":{"android":"levelo://app?vid=5a5b29e1-0adb-408c-a70e-009834e37859","ios":"levelo://app?vid=5a5b29e1-0adb-408c-a70e-009834e37859"},"vehicle_type_id":"4","last_reported":1706458036,"current_range_meters":6800,"station_id":"ce4bgn12rcd13ifvqbt0","pricing_plan_id":"free"},{"bike_id":"c1e4ed03-56c0-40eb-bbc3-99162a76ad4f","system_id":"levelo_inurba_marseille","lat":43.297163,"lon":5.365866,"is_reserved":false,"is_disabled":false,"rental_uris":{"android":"levelo://app?vid=c1e4ed03-56c0-40eb-bbc3-99162a76ad4f","ios":"levelo://app?vid=c1e4ed03-56c0-40eb-bbc3-99162a76ad4f"},"vehicle_type_id":"4","last_reported":1706458036,"current_range_meters":22000,"station_id":"ce4bgn12rcd13ifvqbt0","pricing_plan_id":"free"},{"bike_id":"d0e91207-fcfb-462f-a57f-4ce76effe6d9","system_id":"levelo_inurba_marseille","lat":43.297163,"lon":5.365866,"is_reserved":false,"is_disabled":false,"rental_uris":{"android":"levelo://app?vid=d0e91207-fcfb-462f-a57f-4ce76effe6d9","ios":"levelo://app?vid=d0e91207-fcfb-462f-a57f-4ce76effe6d9"},"vehicle_type_id":"4","last_reported":1706458036,"current_range_meters":6000,"station_id":"ce4bgn12rcd13ifvqbt0","pricing_plan_id":"free"},{"bike_id":"2b97c703-cf63-4b23-a996-db82423f5a39","system_id":"levelo_inurba_marseille","lat":43.324653,"lon":5.382897,"is_reserved":false,"is_disabled":false,"rental_uris":{"android":"levelo://app?vid=2b97c703-cf63-4b23-a996-db82423f5a39","ios":"levelo://app?vid=2b97c703-cf63-4b23-a996-db82423f5a39"},"vehicle_type_id":"4","last_reported":1706458036,"current_range_meters":0,"station_id":"","pricing_plan_id":"free"},{"bike_id":"4e110bdc-38c1-4bd7-a256-907014ef02f0","system_id":"levelo_inurba_marseille","lat":43.296131,"lon":5.370773,"is_reserved":false,"is_disabled":false,"rental_uris":{"android":"levelo://app?vid=4e110bdc-38c1-4bd7-a256-907014ef02f0","ios":"levelo://app?vid=4e110bdc-38c1-4bd7-a256-907014ef02f0"},"vehicle_type_id":"4","last_reported":1706458036,"current_range_meters":8000,"station_id":"ce4bgnh2rcd13ifvqc0g","pricing_plan_id":"free"},{"bike_id":"25b5332a-eade-4be2-8835-86b4fba65e06","system_id":"levelo_inurba_marseille","lat":43.29573,"lon":5.367355,"is_reserved":false,"is_disabled":false,"rental_uris":{"android":"levelo://app?vid=25b5332a-eade-4be2-8835-86b4fba65e06","ios":"levelo://app?vid=25b5332a-eade-4be2-8835-86b4fba65e06"},"vehicle_type_id":"4","last_reported":1706458036,"current_range_meters":4800,"station_id":"ce4bgph2rcd13ifvqc2g","pricing_plan_id":"free"},{"bike_id":"ea127cfa-3db3-41c9-aabe-9d98f57ae746","system_id":"levelo_inurba_marseille","lat":43.309589,"lon":5.390258,"is_reserved":false,"is_disabled":false,"rental_uris":{"android":"levelo://app?vid=ea127cfa-3db3-41c9-aabe-9d98f57ae746","ios":"levelo://app?vid=ea127cfa-3db3-41c9-aabe-9d98f57ae746"},"vehicle_type_id":"4","last_reported":1706458036,"current_range_meters":0,"station_id":"ce4bgup2rcd13ifvqco0","pricing_plan_id":"free"},{"bike_id":"aee428d6-5548-4b9a-b25c-b8fd5c851649","system_id":"levelo_inurba_marseille","lat":43.299028,"lon":5.381509,"is_reserved":false,"is_disabled":false,"rental_uris":{"android":"levelo://app?vid=aee428d6-5548-4b9a-b25c-b8fd5c851649","ios":"levelo://app?vid=aee428d6-5548-4b9a-b25c-b8fd5c851649"},"vehicle_type_id":"4","last_reported":1706458036,"current_range_meters":6400,"station_id":"ce4bgj12rcd13ifvqbc0","pricing_plan_id":"free"},{"bike_id":"621cb182-4f29-43f6-9c70-16835d761286","system_id":"levelo_inurba_marseille","lat":43.309589,"lon":5.390258,"is_reserved":false,"is_disabled":false,"rental_uris":{"android":"levelo://app?vid=621cb182-4f29-43f6-9c70-16835d761286","ios":"levelo://app?vid=621cb182-4f29-43f6-9c70-16835d761286"},"vehicle_type_id":"4","last_reported":1706458036,"current_range_meters":800,"station_id":"ce4bgup2rcd13ifvqco0","pricing_plan_id":"free"},{"bike_id":"28fff087-0807-4940-8314-fe915a385792","system_id":"levelo_inurba_marseille","lat":43.298037,"lon":5.381066,"is_reserved":false,"is_disabled":false,"rental_uris":{"android":"levelo://app?vid=28fff087-0807-4940-8314-fe915a385792","ios":"levelo://app?vid=28fff087-0807-4940-8314-fe915a385792"},"vehicle_type_id":"4","last_reported":1706458036,"current_range_meters":0,"station_id":"ce4bgip2rcd13ifvqbb0","pricing_plan_id":"free"},{"bike_id":"ecf1d6b6-b652-4905-a08d-f54a518d3668","system_id":"levelo_inurba_marseille","lat":43.298037,"lon":5.381066,"is_reserved":false,"is_disabled":false,"rental_uris":{"android":"levelo://app?vid=ecf1d6b6-b652-4905-a08d-f54a518d3668","ios":"levelo://app?vid=ecf1d6b6-b652-4905-a08d-f54a518d3668"},"vehicle_type_id":"4","last_reported":1706458036,"current_range_meters":0,"station_id":"ce4bgip2rcd13ifvqbb0","pricing_plan_id":"free"},{"bike_id":"bc78469b-9bfb-418f-9bbe-6edfb8ff8298","system_id":"levelo_inurba_marseille","lat":43.304274,"lon":5.388873,"is_reserved":false,"is_disabled":false,"rental_uris":{"android":"levelo://app?vid=bc78469b-9bfb-418f-9bbe-6edfb8ff8298","ios":"levelo://app?vid=bc78469b-9bfb-418f-9bbe-6edfb8ff8298"},"vehicle_type_id":"4","last_reported":1706458036,"current_range_meters":26800,"station_id":"ce4bgk12rcd13ifvqbi0","pricing_plan_id":"free"},{"bike_id":"7edfac1a-a547-486f-864c-33a2a29ab6cb","system_id":"levelo_inurba_marseille","lat":43.299707,"lon":5.384859,"is_reserved":false,"is_disabled":false,"rental_uris":{"android":"levelo://app?vid=7edfac1a-a547-486f-864c-33a2a29ab6cb","ios":"levelo://app?vid=7edfac1a-a547-486f-864c-33a2a29ab6cb"},"vehicle_type_id":"4","last_reported":1706458036,"current_range_meters":2800,"station_id":"ce4bgj92rcd13ifvqbd0","pricing_plan_id":"free"},{"bike_id":"d68e21e0-f101-4fe4-adad-3edc99116a12","system_id":"levelo_inurba_marseille","lat":43.32367,"lon":5.388836,"is_reserved":false,"is_disabled":false,"rental_uris":{"android":"levelo://app?vid=d68e21e0-f101-4fe4-adad-3edc99116a12","ios":"levelo://app?vid=d68e21e0-f101-4fe4-adad-3edc99116a12"},"vehicle_type_id":"4","last_reported":1706458036,"current_range_meters":18800,"station_id":"ce4bhqp2rcd13ifvqhog","pricing_plan_id":"free"},{"bike_id":"76a09b6e-2244-40dd-a1cb-a99f63e6b537","system_id":"levelo_inurba_marseille","lat":43.29601,"lon":5.381084,"is_reserved":false,"is_disabled":false,"rental_uris":{"android":"levelo://app?vid=76a09b6e-2244-40dd-a1cb-a99f63e6b537","ios":"levelo://app?vid=76a09b6e-2244-40dd-a1cb-a99f63e6b537"},"vehicle_type_id":"4","last_reported":1706458036,"current_range_meters":400,"station_id":"ce4bgl12rcd13ifvqbo0","pricing_plan_id":"free"},{"bike_id":"988cda84-92c8-4a8c-bd16-c9fe457f29f5","system_id":"levelo_inurba_marseille","lat":43.292749,"lon":5.368402,"is_reserved":false,"is_disabled":false,"rental_uris":{"android":"levelo://app?vid=988cda84-92c8-4a8c-bd16-c9fe457f29f5","ios":"levelo://app?vid=988cda84-92c8-4a8c-bd16-c9fe457f29f5"},"vehicle_type_id":"4","last_reported":1706458036,"current_range_meters":0,"station_id":"ce4bhbp2rcd13ifvqesg","pricing_plan_id":"free"},{"bike_id":"58128b24-abf8-4947-a3e4-dfc63ef16dfd","system_id":"levelo_inurba_marseille","lat":43.292749,"lon":5.368402,"is_reserved":false,"is_disabled":false,"rental_uris":{"android":"levelo://app?vid=58128b24-abf8-4947-a3e4-dfc63ef16dfd","ios":"levelo://app?vid=58128b24-abf8-4947-a3e4-dfc63ef16dfd"},"vehicle_type_id":"4","last_reported":1706458036,"current_range_meters":11600,"station_id":"ce4bhbp2rcd13ifvqesg","pricing_plan_id":"free"},{"bike_id":"37f4f7e3-bb85-4f53-8886-452759cccbb5","system_id":"levelo_inurba_marseille","lat":43.29268,"lon":5.36853,"is_reserved":false,"is_disabled":false,"rental_uris":{"android":"levelo://app?vid=37f4f7e3-bb85-4f53-8886-452759cccbb5","ios":"levelo://app?vid=37f4f7e3-bb85-4f53-8886-452759cccbb5"},"vehicle_type_id":"4","last_reported":1706458036,"current_range_meters":0,"station_id":"ce4bhbp2rcd13ifvqesg","pricing_plan_id":"free"},{"bike_id":"8160a596-60b0-490c-8ebc-4db149396981","system_id":"levelo_inurba_marseille","lat":43.293009,"lon":5.374584,"is_reserved":false,"is_disabled":false,"rental_uris":{"android":"levelo://app?vid=8160a596-60b0-490c-8ebc-4db149396981","ios":"levelo://app?vid=8160a596-60b0-490c-8ebc-4db149396981"},"vehicle_type_id":"4","last_reported":1706458036,"current_range_meters":0,"station_id":"ce4bgi12rcd13ifvqb70","pricing_plan_id":"free"},{"bike_id":"bf4fac92-fd73-4902-98b9-8039201ac607","system_id":"levelo_inurba_marseille","lat":43.29316,"lon":5.37478,"is_reserved":false,"is_disabled":false,"rental_uris":{"android":"levelo://app?vid=bf4fac92-fd73-4902-98b9-8039201ac607","ios":"levelo://app?vid=bf4fac92-fd73-4902-98b9-8039201ac607"},"vehicle_type_id":"4","last_reported":1706458036,"current_range_meters":0,"station_id":"ce4bgi12rcd13ifvqb70","pricing_plan_id":"free"},{"bike_id":"90f8a024-415c-4eb3-96d5-34a5300f5f90","system_id":"levelo_inurba_marseille","lat":43.305994,"lon":5.393687,"is_reserved":false,"is_disabled":false,"rental_uris":{"android":"levelo://app?vid=90f8a024-415c-4eb3-96d5-34a5300f5f90","ios":"levelo://app?vid=90f8a024-415c-4eb3-96d5-34a5300f5f90"},"vehicle_type_id":"4","last_reported":1706458036,"current_range_meters":10000,"station_id":"ce4bh0p2rcd13ifvqd80","pricing_plan_id":"free"},{"bike_id":"ca09d715-70be-48f7-8c6f-374c330c6e33","system_id":"levelo_inurba_marseille","lat":43.300852,"lon":5.390859,"is_reserved":false,"is_disabled":false,"rental_uris":{"android":"levelo://app?vid=ca09d715-70be-48f7-8c6f-374c330c6e33","ios":"levelo://app?vid=ca09d715-70be-48f7-8c6f-374c330c6e33"},"vehicle_type_id":"4","last_reported":1706458036,"current_range_meters":17600,"station_id":"ce4bh192rcd13ifvqdb0","pricing_plan_id":"free"},{"bike_id":"85d1dc73-c181-4a45-be8e-17c3658fd45b","system_id":"levelo_inurba_marseille","lat":43.298764,"lon":5.388973,"is_reserved":false,"is_disabled":false,"rental_uris":{"android":"levelo://app?vid=85d1dc73-c181-4a45-be8e-17c3658fd45b","ios":"levelo://app?vid=85d1dc73-c181-4a45-be8e-17c3658fd45b"},"vehicle_type_id":"4","last_reported":1706458036,"current_range_meters":0,"station_id":"ce4bh392rcd13ifvqdl0","pricing_plan_id":"free"},{"bike_id":"413b3af0-ade4-49d7-8ff4-d4a660ceb421","system_id":"levelo_inurba_marseille","lat":43.298764,"lon":5.388973,"is_reserved":false,"is_disabled":false,"rental_uris":{"android":"levelo://app?vid=413b3af0-ade4-49d7-8ff4-d4a660ceb421","ios":"levelo://app?vid=413b3af0-ade4-49d7-8ff4-d4a660ceb421"},"vehicle_type_id":"4","last_reported":1706458036,"current_range_meters":11600,"station_id":"ce4bh392rcd13ifvqdl0","pricing_plan_id":"free"},{"bike_id":"a3b6f584-20d6-41b8-90b5-c310fb9e61d3","system_id":"levelo_inurba_marseille","lat":43.309038,"lon":5.396546,"is_reserved":false,"is_disabled":false,"rental_uris":{"android":"levelo://app?vid=a3b6f584-20d6-41b8-90b5-c310fb9e61d3","ios":"levelo://app?vid=a3b6f584-20d6-41b8-90b5-c310fb9e61d3"},"vehicle_type_id":"4","last_reported":1706458036,"current_range_meters":26400,"station_id":"ce4bh012rcd13ifvqcv0","pricing_plan_id":"free"},{"bike_id":"8a8655db-9cc2-4e5c-836c-6f871de023bb","system_id":"levelo_inurba_marseille","lat":43.313291,"lon":5.396838,"is_reserved":false,"is_disabled":false,"rental_uris":{"android":"levelo://app?vid=8a8655db-9cc2-4e5c-836c-6f871de023bb","ios":"levelo://app?vid=8a8655db-9cc2-4e5c-836c-6f871de023bb"},"vehicle_type_id":"4","last_reported":1706458036,"current_range_meters":13600,"station_id":"ce4bgvp2rcd13ifvqcu0","pricing_plan_id":"free"},{"bike_id":"b9d6ee85-2e6b-4e06-90dd-616edebd68b6","system_id":"levelo_inurba_marseille","lat":43.29064,"lon":5.3716,"is_reserved":false,"is_disabled":false,"rental_uris":{"android":"levelo://app?vid=b9d6ee85-2e6b-4e06-90dd-616edebd68b6","ios":"levelo://app?vid=b9d6ee85-2e6b-4e06-90dd-616edebd68b6"},"vehicle_type_id":"4","last_reported":1706458036,"current_range_meters":0,"station_id":"ce4bh5p2rcd13ifvqe4g","pricing_plan_id":"free"},{"bike_id":"a7190542-bcd0-465d-a6f7-7d0e94af0139","system_id":"levelo_inurba_marseille","lat":43.29529,"lon":5.385581,"is_reserved":false,"is_disabled":false,"rental_uris":{"android":"levelo://app?vid=a7190542-bcd0-465d-a6f7-7d0e94af0139","ios":"levelo://app?vid=a7190542-bcd0-465d-a6f7-7d0e94af0139"},"vehicle_type_id":"4","last_reported":1706458036,"current_range_meters":13200,"station_id":"ce4bgih2rcd13ifvqba0","pricing_plan_id":"free"},{"bike_id":"8549b991-9168-4a45-90d5-1f284aea7879","system_id":"levelo_inurba_marseille","lat":43.290327,"lon":5.375711,"is_reserved":false,"is_disabled":false,"rental_uris":{"android":"levelo://app?vid=8549b991-9168-4a45-90d5-1f284aea7879","ios":"levelo://app?vid=8549b991-9168-4a45-90d5-1f284aea7879"},"vehicle_type_id":"4","last_reported":1706458036,"current_range_meters":0,"station_id":"ce4bh692rcd13ifvqe90","pricing_plan_id":"free"},{"bike_id":"237d73c3-ecd3-49a9-b132-e4bbd57a5494","system_id":"levelo_inurba_marseille","lat":43.294162,"lon":5.386292,"is_reserved":false,"is_disabled":false,"rental_uris":{"android":"levelo://app?vid=237d73c3-ecd3-49a9-b132-e4bbd57a5494","ios":"levelo://app?vid=237d73c3-ecd3-49a9-b132-e4bbd57a5494"},"vehicle_type_id":"4","last_reported":1706458036,"current_range_meters":4800,"station_id":"ce4bh2h2rcd13ifvqdh0","pricing_plan_id":"free"},{"bike_id":"2d16089f-324b-46b7-abe0-d4f706d56044","system_id":"levelo_inurba_marseille","lat":43.289468,"lon":5.363719,"is_reserved":false,"is_disabled":false,"rental_uris":{"android":"levelo://app?vid=2d16089f-324b-46b7-abe0-d4f706d56044","ios":"levelo://app?vid=2d16089f-324b-46b7-abe0-d4f706d56044"},"vehicle_type_id":"4","last_reported":1706458036,"current_range_meters":7600,"station_id":"ce4bhc92rcd13ifvqetg","pricing_plan_id":"free"},{"bike_id":"dba3dfcf-8de3-4104-8182-577e20e398eb","system_id":"levelo_inurba_marseille","lat":43.302008,"lon":5.394694,"is_reserved":false,"is_disabled":false,"rental_uris":{"android":"levelo://app?vid=dba3dfcf-8de3-4104-8182-577e20e398eb","ios":"levelo://app?vid=dba3dfcf-8de3-4104-8182-577e20e398eb"},"vehicle_type_id":"4","last_reported":1706458036,"current_range_meters":0,"station_id":"ce4bh0p2rcd13ifvqd70","pricing_plan_id":"free"},{"bike_id":"0cb6105c-de1c-456c-abe0-1742dc81b715","system_id":"levelo_inurba_marseille","lat":43.292644,"lon":5.384257,"is_reserved":false,"is_disabled":false,"rental_uris":{"android":"levelo://app?vid=0cb6105c-de1c-456c-abe0-1742dc81b715","ios":"levelo://app?vid=0cb6105c-de1c-456c-abe0-1742dc81b715"},"vehicle_type_id":"4","last_reported":1706458036,"current_range_meters":16400,"station_id":"ce4bh692rcd13ifvqea0","pricing_plan_id":"free"},{"bike_id":"75ed72c2-fb22-4d41-9ce6-293a24dd0eee","system_id":"levelo_inurba_marseille","lat":43.292642,"lon":5.384254,"is_reserved":false,"is_disabled":false,"rental_uris":{"android":"levelo://app?vid=75ed72c2-fb22-4d41-9ce6-293a24dd0eee","ios":"levelo://app?vid=75ed72c2-fb22-4d41-9ce6-293a24dd0eee"},"vehicle_type_id":"4","last_reported":1706458036,"current_range_meters":17600,"station_id":"ce4bh692rcd13ifvqea0","pricing_plan_id":"free"},{"bike_id":"489340e1-19c8-44da-beb0-562c9c24d7a9","system_id":"levelo_inurba_marseille","lat":43.292644,"lon":5.384257,"is_reserved":false,"is_disabled":false,"rental_uris":{"android":"levelo://app?vid=489340e1-19c8-44da-beb0-562c9c24d7a9","ios":"levelo://app?vid=489340e1-19c8-44da-beb0-562c9c24d7a9"},"vehicle_type_id":"4","last_reported":1706458036,"current_range_meters":5600,"station_id":"ce4bh692rcd13ifvqea0","pricing_plan_id":"free"},{"bike_id":"71055575-f9f8-4a5b-81f6-e7a2e73285f5","system_id":"levelo_inurba_marseille","lat":43.29004,"lon":5.35608,"is_reserved":false,"is_disabled":false,"rental_uris":{"android":"levelo://app?vid=71055575-f9f8-4a5b-81f6-e7a2e73285f5","ios":"levelo://app?vid=71055575-f9f8-4a5b-81f6-e7a2e73285f5"},"vehicle_type_id":"4","last_reported":1706458036,"current_range_meters":0,"station_id":"ce4bhb92rcd13ifvqen0","pricing_plan_id":"free"},{"bike_id":"e3e97aff-c0d2-4a0f-aea1-75a961de773b","system_id":"levelo_inurba_marseille","lat":43.290104,"lon":5.356111,"is_reserved":false,"is_disabled":false,"rental_uris":{"android":"levelo://app?vid=e3e97aff-c0d2-4a0f-aea1-75a961de773b","ios":"levelo://app?vid=e3e97aff-c0d2-4a0f-aea1-75a961de773b"},"vehicle_type_id":"4","last_reported":1706458036,"current_range_meters":0,"station_id":"ce4bhb92rcd13ifvqen0","pricing_plan_id":"free"},{"bike_id":"10ee0dbb-e633-42a0-b2c9-a43d16d35b67","system_id":"levelo_inurba_marseille","lat":43.290995,"lon":5.381361,"is_reserved":false,"is_disabled":false,"rental_uris":{"android":"levelo://app?vid=10ee0dbb-e633-42a0-b2c9-a43d16d35b67","ios":"levelo://app?vid=10ee0dbb-e633-42a0-b2c9-a43d16d35b67"},"vehicle_type_id":"4","last_reported":1706458036,"current_range_meters":20400,"station_id":"ce4bh512rcd13ifvqe2g","pricing_plan_id":"free"},{"bike_id":"efdf2999-ef6e-4b21-a733-3b593c0bc81d","system_id":"levelo_inurba_marseille","lat":43.29533,"lon":5.39038,"is_reserved":false,"is_disabled":false,"rental_uris":{"android":"levelo://app?vid=efdf2999-ef6e-4b21-a733-3b593c0bc81d","ios":"levelo://app?vid=efdf2999-ef6e-4b21-a733-3b593c0bc81d"},"vehicle_type_id":"4","last_reported":1706458036,"current_range_meters":8400,"station_id":"ce4bh3p2rcd13ifvqdp0","pricing_plan_id":"free"},{"bike_id":"f38d6f48-1662-4a93-8339-84c69e2a7ec6","system_id":"levelo_inurba_marseille","lat":43.29523,"lon":5.39036,"is_reserved":false,"is_disabled":false,"rental_uris":{"android":"levelo://app?vid=f38d6f48-1662-4a93-8339-84c69e2a7ec6","ios":"levelo://app?vid=f38d6f48-1662-4a93-8339-84c69e2a7ec6"},"vehicle_type_id":"4","last_reported":1706458036,"current_range_meters":0,"station_id":"ce4bh3p2rcd13ifvqdp0","pricing_plan_id":"free"},{"bike_id":"c0f51ddb-5048-4d4e-9644-dc1e286384ae","system_id":"levelo_inurba_marseille","lat":43.297815,"lon":5.393548,"is_reserved":false,"is_disabled":false,"rental_uris":{"android":"levelo://app?vid=c0f51ddb-5048-4d4e-9644-dc1e286384ae","ios":"levelo://app?vid=c0f51ddb-5048-4d4e-9644-dc1e286384ae"},"vehicle_type_id":"4","last_reported":1706458036,"current_range_meters":11200,"station_id":"chh1huq6cuj3fo74tm60","pricing_plan_id":"free"},{"bike_id":"9dd1d97d-f445-42d3-a0ec-7e2c2f644900","system_id":"levelo_inurba_marseille","lat":43.2901,"lon":5.381269,"is_reserved":false,"is_disabled":false,"rental_uris":{"android":"levelo://app?vid=9dd1d97d-f445-42d3-a0ec-7e2c2f644900","ios":"levelo://app?vid=9dd1d97d-f445-42d3-a0ec-7e2c2f644900"},"vehicle_type_id":"4","last_reported":1706458036,"current_range_meters":26400,"station_id":"ce4bh4p2rcd13ifvqe1g","pricing_plan_id":"free"},{"bike_id":"fe2d5239-781b-4619-9a40-4fcbfe5faf0b","system_id":"levelo_inurba_marseille","lat":43.2901,"lon":5.381269,"is_reserved":false,"is_disabled":false,"rental_uris":{"android":"levelo://app?vid=fe2d5239-781b-4619-9a40-4fcbfe5faf0b","ios":"levelo://app?vid=fe2d5239-781b-4619-9a40-4fcbfe5faf0b"},"vehicle_type_id":"4","last_reported":1706458036,"current_range_meters":1200,"station_id":"ce4bh4p2rcd13ifvqe1g","pricing_plan_id":"free"},{"bike_id":"d861f7e6-893c-44aa-bc13-6b652b343836","system_id":"levelo_inurba_marseille","lat":43.2901,"lon":5.381269,"is_reserved":false,"is_disabled":false,"rental_uris":{"android":"levelo://app?vid=d861f7e6-893c-44aa-bc13-6b652b343836","ios":"levelo://app?vid=d861f7e6-893c-44aa-bc13-6b652b343836"},"vehicle_type_id":"4","last_reported":1706458036,"current_range_meters":16400,"station_id":"ce4bh4p2rcd13ifvqe1g","pricing_plan_id":"free"},{"bike_id":"32b39de7-a4aa-4abd-b366-5d744bd95aca","system_id":"levelo_inurba_marseille","lat":43.2901,"lon":5.381269,"is_reserved":false,"is_disabled":false,"rental_uris":{"android":"levelo://app?vid=32b39de7-a4aa-4abd-b366-5d744bd95aca","ios":"levelo://app?vid=32b39de7-a4aa-4abd-b366-5d744bd95aca"},"vehicle_type_id":"4","last_reported":1706458036,"current_range_meters":10800,"station_id":"ce4bh4p2rcd13ifvqe1g","pricing_plan_id":"free"},{"bike_id":"ff883f07-9a74-4d55-aa95-6e1523c2d69d","system_id":"levelo_inurba_marseille","lat":43.290104,"lon":5.356111,"is_reserved":false,"is_disabled":false,"rental_uris":{"android":"levelo://app?vid=ff883f07-9a74-4d55-aa95-6e1523c2d69d","ios":"levelo://app?vid=ff883f07-9a74-4d55-aa95-6e1523c2d69d"},"vehicle_type_id":"4","last_reported":1706458036,"current_range_meters":0,"station_id":"ce4bhb92rcd13ifvqen0","pricing_plan_id":"free"},{"bike_id":"0f2c1b5b-2255-427d-8e1c-a2e4920df7dd","system_id":"levelo_inurba_marseille","lat":43.33749,"lon":5.374412,"is_reserved":false,"is_disabled":false,"rental_uris":{"android":"levelo://app?vid=0f2c1b5b-2255-427d-8e1c-a2e4920df7dd","ios":"levelo://app?vid=0f2c1b5b-2255-427d-8e1c-a2e4920df7dd"},"vehicle_type_id":"4","last_reported":1706458036,"current_range_meters":26400,"station_id":"","pricing_plan_id":"free"},{"bike_id":"a563cdbf-78b8-441c-8dce-8da1c3325b92","system_id":"levelo_inurba_marseille","lat":43.337527,"lon":5.374554,"is_reserved":false,"is_disabled":false,"rental_uris":{"android":"levelo://app?vid=a563cdbf-78b8-441c-8dce-8da1c3325b92","ios":"levelo://app?vid=a563cdbf-78b8-441c-8dce-8da1c3325b92"},"vehicle_type_id":"4","last_reported":1706458036,"current_range_meters":19600,"station_id":"","pricing_plan_id":"free"},{"bike_id":"b7f12eab-e0a6-499e-87ec-2b4381c4602a","system_id":"levelo_inurba_marseille","lat":43.337546,"lon":5.374572,"is_reserved":false,"is_disabled":false,"rental_uris":{"android":"levelo://app?vid=b7f12eab-e0a6-499e-87ec-2b4381c4602a","ios":"levelo://app?vid=b7f12eab-e0a6-499e-87ec-2b4381c4602a"},"vehicle_type_id":"4","last_reported":1706458036,"current_range_meters":23600,"station_id":"","pricing_plan_id":"free"},{"bike_id":"ce5cd671-7274-4c76-9ee7-e22a8ce37c17","system_id":"levelo_inurba_marseille","lat":43.337621,"lon":5.374534,"is_reserved":false,"is_disabled":false,"rental_uris":{"android":"levelo://app?vid=ce5cd671-7274-4c76-9ee7-e22a8ce37c17","ios":"levelo://app?vid=ce5cd671-7274-4c76-9ee7-e22a8ce37c17"},"vehicle_type_id":"4","last_reported":1706458036,"current_range_meters":24400,"station_id":"","pricing_plan_id":"free"},{"bike_id":"2fe24097-b1c2-4583-ba1f-cf8501171a4c","system_id":"levelo_inurba_marseille","lat":43.33758,"lon":5.37489,"is_reserved":false,"is_disabled":false,"rental_uris":{"android":"levelo://app?vid=2fe24097-b1c2-4583-ba1f-cf8501171a4c","ios":"levelo://app?vid=2fe24097-b1c2-4583-ba1f-cf8501171a4c"},"vehicle_type_id":"4","last_reported":1706458036,"current_range_meters":11200,"station_id":"","pricing_plan_id":"free"},{"bike_id":"42a59402-0516-4064-b486-4faf2503c80a","system_id":"levelo_inurba_marseille","lat":43.30642,"lon":5.401031,"is_reserved":false,"is_disabled":false,"rental_uris":{"android":"levelo://app?vid=42a59402-0516-4064-b486-4faf2503c80a","ios":"levelo://app?vid=42a59402-0516-4064-b486-4faf2503c80a"},"vehicle_type_id":"4","last_reported":1706458036,"current_range_meters":6400,"station_id":"ce4bh112rcd13ifvqda0","pricing_plan_id":"free"},{"bike_id":"b7d3b81d-d85a-44b5-a0c7-8f9c9f74639e","system_id":"levelo_inurba_marseille","lat":43.33765,"lon":5.374672,"is_reserved":false,"is_disabled":false,"rental_uris":{"android":"levelo://app?vid=b7d3b81d-d85a-44b5-a0c7-8f9c9f74639e","ios":"levelo://app?vid=b7d3b81d-d85a-44b5-a0c7-8f9c9f74639e"},"vehicle_type_id":"4","last_reported":1706458036,"current_range_meters":26400,"station_id":"","pricing_plan_id":"free"},{"bike_id":"4e9f5e74-40c3-4410-94b8-d999c9e0619d","system_id":"levelo_inurba_marseille","lat":43.30642,"lon":5.401031,"is_reserved":false,"is_disabled":false,"rental_uris":{"android":"levelo://app?vid=4e9f5e74-40c3-4410-94b8-d999c9e0619d","ios":"levelo://app?vid=4e9f5e74-40c3-4410-94b8-d999c9e0619d"},"vehicle_type_id":"4","last_reported":1706458036,"current_range_meters":18400,"station_id":"ce4bh112rcd13ifvqda0","pricing_plan_id":"free"},{"bike_id":"1facbbf3-baac-42f8-85eb-cb1e36f3e4b9","system_id":"levelo_inurba_marseille","lat":43.33762,"lon":5.374881,"is_reserved":false,"is_disabled":false,"rental_uris":{"android":"levelo://app?vid=1facbbf3-baac-42f8-85eb-cb1e36f3e4b9","ios":"levelo://app?vid=1facbbf3-baac-42f8-85eb-cb1e36f3e4b9"},"vehicle_type_id":"4","last_reported":1706458036,"current_range_meters":13600,"station_id":"","pricing_plan_id":"free"},{"bike_id":"3aa8a39c-bc50-4102-90fa-12bf0527e8a8","system_id":"levelo_inurba_marseille","lat":43.301117,"lon":5.398795,"is_reserved":false,"is_disabled":false,"rental_uris":{"android":"levelo://app?vid=3aa8a39c-bc50-4102-90fa-12bf0527e8a8","ios":"levelo://app?vid=3aa8a39c-bc50-4102-90fa-12bf0527e8a8"},"vehicle_type_id":"4","last_reported":1706458036,"current_range_meters":1200,"station_id":"ce4bh0h2rcd13ifvqd40","pricing_plan_id":"free"},{"bike_id":"e7d87294-3776-4ca4-852e-7b359e7b3f51","system_id":"levelo_inurba_marseille","lat":43.28727,"lon":5.36078,"is_reserved":false,"is_disabled":false,"rental_uris":{"android":"levelo://app?vid=e7d87294-3776-4ca4-852e-7b359e7b3f51","ios":"levelo://app?vid=e7d87294-3776-4ca4-852e-7b359e7b3f51"},"vehicle_type_id":"4","last_reported":1706458036,"current_range_meters":8000,"station_id":"cki0cbj6b192h4jlfktg","pricing_plan_id":"free"},{"bike_id":"ecc2f9b4-356a-44f9-9ea2-3f302dedf121","system_id":"levelo_inurba_marseille","lat":43.286593,"lon":5.363346,"is_reserved":false,"is_disabled":false,"rental_uris":{"android":"levelo://app?vid=ecc2f9b4-356a-44f9-9ea2-3f302dedf121","ios":"levelo://app?vid=ecc2f9b4-356a-44f9-9ea2-3f302dedf121"},"vehicle_type_id":"4","last_reported":1706458036,"current_range_meters":2000,"station_id":"ce4bhah2rcd13ifvqej0","pricing_plan_id":"free"},{"bike_id":"d6fb93ef-93c5-450f-a371-465a97f59ad7","system_id":"levelo_inurba_marseille","lat":43.286593,"lon":5.363346,"is_reserved":false,"is_disabled":false,"rental_uris":{"android":"levelo://app?vid=d6fb93ef-93c5-450f-a371-465a97f59ad7","ios":"levelo://app?vid=d6fb93ef-93c5-450f-a371-465a97f59ad7"},"vehicle_type_id":"4","last_reported":1706458036,"current_range_meters":29200,"station_id":"ce4bhah2rcd13ifvqej0","pricing_plan_id":"free"},{"bike_id":"687af6ea-c300-41f2-8090-ef0e17f13419","system_id":"levelo_inurba_marseille","lat":43.289307,"lon":5.38406,"is_reserved":false,"is_disabled":false,"rental_uris":{"android":"levelo://app?vid=687af6ea-c300-41f2-8090-ef0e17f13419","ios":"levelo://app?vid=687af6ea-c300-41f2-8090-ef0e17f13419"},"vehicle_type_id":"4","last_reported":1706458036,"current_range_meters":10400,"station_id":"ce4bh612rcd13ifvqe6g","pricing_plan_id":"free"},{"bike_id":"183bb1c1-398f-466c-b05d-327ac4efc436","system_id":"levelo_inurba_marseille","lat":43.302511,"lon":5.400653,"is_reserved":false,"is_disabled":false,"rental_uris":{"android":"levelo://app?vid=183bb1c1-398f-466c-b05d-327ac4efc436","ios":"levelo://app?vid=183bb1c1-398f-466c-b05d-327ac4efc436"},"vehicle_type_id":"4","last_reported":1706458036,"current_range_meters":10400,"station_id":"ce4bgth2rcd13ifvqch0","pricing_plan_id":"free"},{"bike_id":"b9aff27e-3a31-47e2-a6a5-a4d3b6c747a7","system_id":"levelo_inurba_marseille","lat":43.302759,"lon":5.400793,"is_reserved":false,"is_disabled":false,"rental_uris":{"android":"levelo://app?vid=b9aff27e-3a31-47e2-a6a5-a4d3b6c747a7","ios":"levelo://app?vid=b9aff27e-3a31-47e2-a6a5-a4d3b6c747a7"},"vehicle_type_id":"4","last_reported":1706458036,"current_range_meters":8000,"station_id":"ce4bgvh2rcd13ifvqcs0","pricing_plan_id":"free"},{"bike_id":"fa647f19-bcd2-4984-9ee9-55d6d83e09d3","system_id":"levelo_inurba_marseille","lat":43.290336,"lon":5.386425,"is_reserved":false,"is_disabled":false,"rental_uris":{"android":"levelo://app?vid=fa647f19-bcd2-4984-9ee9-55d6d83e09d3","ios":"levelo://app?vid=fa647f19-bcd2-4984-9ee9-55d6d83e09d3"},"vehicle_type_id":"4","last_reported":1706458036,"current_range_meters":8800,"station_id":"ce4bh4p2rcd13ifvqe0g","pricing_plan_id":"free"},{"bike_id":"5c60789a-4a09-430e-8315-52459463a503","system_id":"levelo_inurba_marseille","lat":43.286039,"lon":5.370681,"is_reserved":false,"is_disabled":false,"rental_uris":{"android":"levelo://app?vid=5c60789a-4a09-430e-8315-52459463a503","ios":"levelo://app?vid=5c60789a-4a09-430e-8315-52459463a503"},"vehicle_type_id":"4","last_reported":1706458036,"current_range_meters":0,"station_id":"ce4bht12rcd13ifvqi60","pricing_plan_id":"free"},{"bike_id":"b1d3ace4-1241-498c-ab81-0710b494f943","system_id":"levelo_inurba_marseille","lat":43.286039,"lon":5.370681,"is_reserved":false,"is_disabled":false,"rental_uris":{"android":"levelo://app?vid=b1d3ace4-1241-498c-ab81-0710b494f943","ios":"levelo://app?vid=b1d3ace4-1241-498c-ab81-0710b494f943"},"vehicle_type_id":"4","last_reported":1706458036,"current_range_meters":13600,"station_id":"ce4bht12rcd13ifvqi60","pricing_plan_id":"free"},{"bike_id":"a4e00572-b585-4d65-84a5-8dbfbe4f7e48","system_id":"levelo_inurba_marseille","lat":43.291994,"lon":5.392907,"is_reserved":false,"is_disabled":false,"rental_uris":{"android":"levelo://app?vid=a4e00572-b585-4d65-84a5-8dbfbe4f7e48","ios":"levelo://app?vid=a4e00572-b585-4d65-84a5-8dbfbe4f7e48"},"vehicle_type_id":"4","last_reported":1706458036,"current_range_meters":14800,"station_id":"ce4bh192rcd13ifvqdd0","pricing_plan_id":"free"},{"bike_id":"c4cd0d6b-ac52-4d92-812e-f9bceeb43687","system_id":"levelo_inurba_marseille","lat":43.291994,"lon":5.392907,"is_reserved":false,"is_disabled":false,"rental_uris":{"android":"levelo://app?vid=c4cd0d6b-ac52-4d92-812e-f9bceeb43687","ios":"levelo://app?vid=c4cd0d6b-ac52-4d92-812e-f9bceeb43687"},"vehicle_type_id":"4","last_reported":1706458036,"current_range_meters":15600,"station_id":"ce4bh192rcd13ifvqdd0","pricing_plan_id":"free"},{"bike_id":"4e972987-507e-4904-8813-d4cc0dc36233","system_id":"levelo_inurba_marseille","lat":43.291994,"lon":5.392907,"is_reserved":false,"is_disabled":false,"rental_uris":{"android":"levelo://app?vid=4e972987-507e-4904-8813-d4cc0dc36233","ios":"levelo://app?vid=4e972987-507e-4904-8813-d4cc0dc36233"},"vehicle_type_id":"4","last_reported":1706458036,"current_range_meters":24400,"station_id":"ce4bh192rcd13ifvqdd0","pricing_plan_id":"free"},{"bike_id":"048b2992-be38-4db2-85f4-4f0e5eecc9fe","system_id":"levelo_inurba_marseille","lat":43.294314,"lon":5.397498,"is_reserved":false,"is_disabled":false,"rental_uris":{"android":"levelo://app?vid=048b2992-be38-4db2-85f4-4f0e5eecc9fe","ios":"levelo://app?vid=048b2992-be38-4db2-85f4-4f0e5eecc9fe"},"vehicle_type_id":"4","last_reported":1706458036,"current_range_meters":16400,"station_id":"ce4bh3h2rcd13ifvqdo0","pricing_plan_id":"free"},{"bike_id":"6957382e-7a77-47ee-a1a1-e1878c6fa40b","system_id":"levelo_inurba_marseille","lat":43.297675,"lon":5.400637,"is_reserved":false,"is_disabled":false,"rental_uris":{"android":"levelo://app?vid=6957382e-7a77-47ee-a1a1-e1878c6fa40b","ios":"levelo://app?vid=6957382e-7a77-47ee-a1a1-e1878c6fa40b"},"vehicle_type_id":"4","last_reported":1706458036,"current_range_meters":0,"station_id":"","pricing_plan_id":"free"},{"bike_id":"f1855704-ec5e-44d1-a24b-b04207bf67b6","system_id":"levelo_inurba_marseille","lat":43.285848,"lon":5.350787,"is_reserved":false,"is_disabled":false,"rental_uris":{"android":"levelo://app?vid=f1855704-ec5e-44d1-a24b-b04207bf67b6","ios":"levelo://app?vid=f1855704-ec5e-44d1-a24b-b04207bf67b6"},"vehicle_type_id":"4","last_reported":1706458036,"current_range_meters":0,"station_id":"ce4bhch2rcd13ifvqeug","pricing_plan_id":"free"},{"bike_id":"f26c8e20-36c1-4a53-8d02-a121da915697","system_id":"levelo_inurba_marseille","lat":43.283998,"lon":5.375062,"is_reserved":false,"is_disabled":false,"rental_uris":{"android":"levelo://app?vid=f26c8e20-36c1-4a53-8d02-a121da915697","ios":"levelo://app?vid=f26c8e20-36c1-4a53-8d02-a121da915697"},"vehicle_type_id":"4","last_reported":1706458036,"current_range_meters":2400,"station_id":"ce4bh412rcd13ifvqds0","pricing_plan_id":"free"},{"bike_id":"b7fda867-81a8-4fde-ba07-da1e215cf26a","system_id":"levelo_inurba_marseille","lat":43.283998,"lon":5.375062,"is_reserved":false,"is_disabled":false,"rental_uris":{"android":"levelo://app?vid=b7fda867-81a8-4fde-ba07-da1e215cf26a","ios":"levelo://app?vid=b7fda867-81a8-4fde-ba07-da1e215cf26a"},"vehicle_type_id":"4","last_reported":1706458036,"current_range_meters":5600,"station_id":"ce4bh412rcd13ifvqds0","pricing_plan_id":"free"},{"bike_id":"48c6c56a-97ff-4d14-b920-3a9a1d1f438f","system_id":"levelo_inurba_marseille","lat":43.28414,"lon":5.37509,"is_reserved":false,"is_disabled":false,"rental_uris":{"android":"levelo://app?vid=48c6c56a-97ff-4d14-b920-3a9a1d1f438f","ios":"levelo://app?vid=48c6c56a-97ff-4d14-b920-3a9a1d1f438f"},"vehicle_type_id":"4","last_reported":1706458036,"current_range_meters":24000,"station_id":"ce4bh412rcd13ifvqds0","pricing_plan_id":"free"},{"bike_id":"46671879-2103-4931-a93f-16fe9b184b5c","system_id":"levelo_inurba_marseille","lat":43.28409,"lon":5.37506,"is_reserved":false,"is_disabled":false,"rental_uris":{"android":"levelo://app?vid=46671879-2103-4931-a93f-16fe9b184b5c","ios":"levelo://app?vid=46671879-2103-4931-a93f-16fe9b184b5c"},"vehicle_type_id":"4","last_reported":1706458036,"current_range_meters":16400,"station_id":"ce4bh412rcd13ifvqds0","pricing_plan_id":"free"},{"bike_id":"059d2621-9957-4969-8d35-8db7c46f8910","system_id":"levelo_inurba_marseille","lat":43.28406,"lon":5.37506,"is_reserved":false,"is_disabled":false,"rental_uris":{"android":"levelo://app?vid=059d2621-9957-4969-8d35-8db7c46f8910","ios":"levelo://app?vid=059d2621-9957-4969-8d35-8db7c46f8910"},"vehicle_type_id":"4","last_reported":1706458036,"current_range_meters":2400,"station_id":"ce4bh412rcd13ifvqds0","pricing_plan_id":"free"},{"bike_id":"4ca5d17c-021c-4ab7-976f-355b8c09bcbb","system_id":"levelo_inurba_marseille","lat":43.283998,"lon":5.375062,"is_reserved":false,"is_disabled":false,"rental_uris":{"android":"levelo://app?vid=4ca5d17c-021c-4ab7-976f-355b8c09bcbb","ios":"levelo://app?vid=4ca5d17c-021c-4ab7-976f-355b8c09bcbb"},"vehicle_type_id":"4","last_reported":1706458036,"current_range_meters":12800,"station_id":"ce4bh412rcd13ifvqds0","pricing_plan_id":"free"},{"bike_id":"7d5ef550-f377-4e5c-9d4a-8a5437287416","system_id":"levelo_inurba_marseille","lat":43.28403,"lon":5.37508,"is_reserved":false,"is_disabled":false,"rental_uris":{"android":"levelo://app?vid=7d5ef550-f377-4e5c-9d4a-8a5437287416","ios":"levelo://app?vid=7d5ef550-f377-4e5c-9d4a-8a5437287416"},"vehicle_type_id":"4","last_reported":1706458036,"current_range_meters":0,"station_id":"ce4bh412rcd13ifvqds0","pricing_plan_id":"free"},{"bike_id":"419c5af3-4baa-4b84-baa5-647ce01dabdc","system_id":"levelo_inurba_marseille","lat":43.2901,"lon":5.381269,"is_reserved":false,"is_disabled":false,"rental_uris":{"android":"levelo://app?vid=419c5af3-4baa-4b84-baa5-647ce01dabdc","ios":"levelo://app?vid=419c5af3-4baa-4b84-baa5-647ce01dabdc"},"vehicle_type_id":"4","last_reported":1706458036,"current_range_meters":19200,"station_id":"ce4bh4p2rcd13ifvqe1g","pricing_plan_id":"free"},{"bike_id":"6e604fad-e2b5-4045-8ed5-a2aa98265e8a","system_id":"levelo_inurba_marseille","lat":43.295713,"lon":5.399639,"is_reserved":false,"is_disabled":false,"rental_uris":{"android":"levelo://app?vid=6e604fad-e2b5-4045-8ed5-a2aa98265e8a","ios":"levelo://app?vid=6e604fad-e2b5-4045-8ed5-a2aa98265e8a"},"vehicle_type_id":"4","last_reported":1706458036,"current_range_meters":22000,"station_id":"ce4bh312rcd13ifvqdj0","pricing_plan_id":"free"},{"bike_id":"7133e88b-90dd-4f76-b48c-a1f86d8e1baa","system_id":"levelo_inurba_marseille","lat":43.2867,"lon":5.38669,"is_reserved":false,"is_disabled":false,"rental_uris":{"android":"levelo://app?vid=7133e88b-90dd-4f76-b48c-a1f86d8e1baa","ios":"levelo://app?vid=7133e88b-90dd-4f76-b48c-a1f86d8e1baa"},"vehicle_type_id":"4","last_reported":1706458036,"current_range_meters":12800,"station_id":"ce4bh492rcd13ifvqdug","pricing_plan_id":"free"},{"bike_id":"f887a06d-add3-4d30-abca-814c2f3c63b3","system_id":"levelo_inurba_marseille","lat":43.286595,"lon":5.386795,"is_reserved":false,"is_disabled":false,"rental_uris":{"android":"levelo://app?vid=f887a06d-add3-4d30-abca-814c2f3c63b3","ios":"levelo://app?vid=f887a06d-add3-4d30-abca-814c2f3c63b3"},"vehicle_type_id":"4","last_reported":1706458036,"current_range_meters":24000,"station_id":"ce4bh492rcd13ifvqdug","pricing_plan_id":"free"},{"bike_id":"50b1af7f-697c-456a-b2c0-aaf507c51a13","system_id":"levelo_inurba_marseille","lat":43.33717,"lon":5.391857,"is_reserved":false,"is_disabled":false,"rental_uris":{"android":"levelo://app?vid=50b1af7f-697c-456a-b2c0-aaf507c51a13","ios":"levelo://app?vid=50b1af7f-697c-456a-b2c0-aaf507c51a13"},"vehicle_type_id":"4","last_reported":1706458036,"current_range_meters":27600,"station_id":"ce4bhr92rcd13ifvqhsg","pricing_plan_id":"free"},{"bike_id":"bd91b07f-0a00-43d7-a883-6e4d51c4b01e","system_id":"levelo_inurba_marseille","lat":43.337168,"lon":5.391825,"is_reserved":false,"is_disabled":false,"rental_uris":{"android":"levelo://app?vid=bd91b07f-0a00-43d7-a883-6e4d51c4b01e","ios":"levelo://app?vid=bd91b07f-0a00-43d7-a883-6e4d51c4b01e"},"vehicle_type_id":"4","last_reported":1706458036,"current_range_meters":25200,"station_id":"ce4bhr92rcd13ifvqhsg","pricing_plan_id":"free"},{"bike_id":"0082844e-0a2b-47bb-9501-b691d6d19c80","system_id":"levelo_inurba_marseille","lat":43.284793,"lon":5.384113,"is_reserved":false,"is_disabled":false,"rental_uris":{"android":"levelo://app?vid=0082844e-0a2b-47bb-9501-b691d6d19c80","ios":"levelo://app?vid=0082844e-0a2b-47bb-9501-b691d6d19c80"},"vehicle_type_id":"4","last_reported":1706458036,"current_range_meters":7200,"station_id":"ce4bh512rcd13ifvqe3g","pricing_plan_id":"free"},{"bike_id":"a5060ea9-1c40-448a-8794-3f191191e244","system_id":"levelo_inurba_marseille","lat":43.283494,"lon":5.380945,"is_reserved":false,"is_disabled":false,"rental_uris":{"android":"levelo://app?vid=a5060ea9-1c40-448a-8794-3f191191e244","ios":"levelo://app?vid=a5060ea9-1c40-448a-8794-3f191191e244"},"vehicle_type_id":"4","last_reported":1706458036,"current_range_meters":16800,"station_id":"ce4bh412rcd13ifvqdr0","pricing_plan_id":"free"},{"bike_id":"94c712f0-2471-4cbf-b779-4b1642f80194","system_id":"levelo_inurba_marseille","lat":43.286961,"lon":5.373785,"is_reserved":false,"is_disabled":false,"rental_uris":{"android":"levelo://app?vid=94c712f0-2471-4cbf-b779-4b1642f80194","ios":"levelo://app?vid=94c712f0-2471-4cbf-b779-4b1642f80194"},"vehicle_type_id":"4","last_reported":1706458036,"current_range_meters":2000,"station_id":"ce4bh3p2rcd13ifvqdq0","pricing_plan_id":"free"},{"bike_id":"d49e33e6-9a15-49af-9cc5-b0f786c67ce8","system_id":"levelo_inurba_marseille","lat":43.283494,"lon":5.380945,"is_reserved":false,"is_disabled":false,"rental_uris":{"android":"levelo://app?vid=d49e33e6-9a15-49af-9cc5-b0f786c67ce8","ios":"levelo://app?vid=d49e33e6-9a15-49af-9cc5-b0f786c67ce8"},"vehicle_type_id":"4","last_reported":1706458036,"current_range_meters":400,"station_id":"ce4bh412rcd13ifvqdr0","pricing_plan_id":"free"},{"bike_id":"890b6862-bec4-42d7-9a15-88375b7eff83","system_id":"levelo_inurba_marseille","lat":43.284214,"lon":5.349706,"is_reserved":false,"is_disabled":false,"rental_uris":{"android":"levelo://app?vid=890b6862-bec4-42d7-9a15-88375b7eff83","ios":"levelo://app?vid=890b6862-bec4-42d7-9a15-88375b7eff83"},"vehicle_type_id":"4","last_reported":1706458036,"current_range_meters":13200,"station_id":"ce4bhbh2rcd13ifvqepg","pricing_plan_id":"free"},{"bike_id":"7e862038-48e8-4061-b17b-c99ad8224810","system_id":"levelo_inurba_marseille","lat":43.28424,"lon":5.34984,"is_reserved":false,"is_disabled":false,"rental_uris":{"android":"levelo://app?vid=7e862038-48e8-4061-b17b-c99ad8224810","ios":"levelo://app?vid=7e862038-48e8-4061-b17b-c99ad8224810"},"vehicle_type_id":"4","last_reported":1706458036,"current_range_meters":400,"station_id":"ce4bhbh2rcd13ifvqepg","pricing_plan_id":"free"},{"bike_id":"fb85e627-df28-4083-b75a-b684b99731f8","system_id":"levelo_inurba_marseille","lat":43.28419,"lon":5.34988,"is_reserved":false,"is_disabled":false,"rental_uris":{"android":"levelo://app?vid=fb85e627-df28-4083-b75a-b684b99731f8","ios":"levelo://app?vid=fb85e627-df28-4083-b75a-b684b99731f8"},"vehicle_type_id":"4","last_reported":1706458036,"current_range_meters":29200,"station_id":"ce4bhbh2rcd13ifvqepg","pricing_plan_id":"free"},{"bike_id":"b41bcd76-cb12-4b33-95cd-9444d1e23578","system_id":"levelo_inurba_marseille","lat":43.293556,"lon":5.401561,"is_reserved":false,"is_disabled":false,"rental_uris":{"android":"levelo://app?vid=b41bcd76-cb12-4b33-95cd-9444d1e23578","ios":"levelo://app?vid=b41bcd76-cb12-4b33-95cd-9444d1e23578"},"vehicle_type_id":"4","last_reported":1706458036,"current_range_meters":5600,"station_id":"","pricing_plan_id":"free"},{"bike_id":"6d191f29-0d73-4ff1-8c43-c6f61b09ce5e","system_id":"levelo_inurba_marseille","lat":43.33717,"lon":5.391857,"is_reserved":false,"is_disabled":false,"rental_uris":{"android":"levelo://app?vid=6d191f29-0d73-4ff1-8c43-c6f61b09ce5e","ios":"levelo://app?vid=6d191f29-0d73-4ff1-8c43-c6f61b09ce5e"},"vehicle_type_id":"4","last_reported":1706458036,"current_range_meters":25200,"station_id":"ce4bhr92rcd13ifvqhsg","pricing_plan_id":"free"},{"bike_id":"ebc081b3-d9eb-43e8-9994-accb1a1dd961","system_id":"levelo_inurba_marseille","lat":43.282841,"lon":5.350477,"is_reserved":false,"is_disabled":false,"rental_uris":{"android":"levelo://app?vid=ebc081b3-d9eb-43e8-9994-accb1a1dd961","ios":"levelo://app?vid=ebc081b3-d9eb-43e8-9994-accb1a1dd961"},"vehicle_type_id":"4","last_reported":1706458036,"current_range_meters":17600,"station_id":"ce4bhbp2rcd13ifvqerg","pricing_plan_id":"free"},{"bike_id":"912ba4c6-b506-4266-8015-e6bf89f9ce58","system_id":"levelo_inurba_marseille","lat":43.283502,"lon":5.386471,"is_reserved":false,"is_disabled":false,"rental_uris":{"android":"levelo://app?vid=912ba4c6-b506-4266-8015-e6bf89f9ce58","ios":"levelo://app?vid=912ba4c6-b506-4266-8015-e6bf89f9ce58"},"vehicle_type_id":"4","last_reported":1706458036,"current_range_meters":10800,"station_id":"ce4bh492rcd13ifvqdvg","pricing_plan_id":"free"},{"bike_id":"871cbdf8-9f9e-43d6-902b-7d58700f4692","system_id":"levelo_inurba_marseille","lat":43.283502,"lon":5.386471,"is_reserved":false,"is_disabled":false,"rental_uris":{"android":"levelo://app?vid=871cbdf8-9f9e-43d6-902b-7d58700f4692","ios":"levelo://app?vid=871cbdf8-9f9e-43d6-902b-7d58700f4692"},"vehicle_type_id":"4","last_reported":1706458036,"current_range_meters":26000,"station_id":"ce4bh492rcd13ifvqdvg","pricing_plan_id":"free"},{"bike_id":"7758c4a4-dc43-4f43-936c-9d22ac410fd5","system_id":"levelo_inurba_marseille","lat":43.282744,"lon":5.350533,"is_reserved":false,"is_disabled":false,"rental_uris":{"android":"levelo://app?vid=7758c4a4-dc43-4f43-936c-9d22ac410fd5","ios":"levelo://app?vid=7758c4a4-dc43-4f43-936c-9d22ac410fd5"},"vehicle_type_id":"4","last_reported":1706458036,"current_range_meters":17200,"station_id":"ce4bhbp2rcd13ifvqerg","pricing_plan_id":"free"},{"bike_id":"49f1a44e-b32b-4fcf-ba56-3933e25b3826","system_id":"levelo_inurba_marseille","lat":43.282754,"lon":5.350519,"is_reserved":false,"is_disabled":false,"rental_uris":{"android":"levelo://app?vid=49f1a44e-b32b-4fcf-ba56-3933e25b3826","ios":"levelo://app?vid=49f1a44e-b32b-4fcf-ba56-3933e25b3826"},"vehicle_type_id":"4","last_reported":1706458036,"current_range_meters":28400,"station_id":"ce4bhbp2rcd13ifvqerg","pricing_plan_id":"free"},{"bike_id":"937c729e-acd6-46bf-abab-564b9ccb86da","system_id":"levelo_inurba_marseille","lat":43.29041,"lon":5.399634,"is_reserved":false,"is_disabled":false,"rental_uris":{"android":"levelo://app?vid=937c729e-acd6-46bf-abab-564b9ccb86da","ios":"levelo://app?vid=937c729e-acd6-46bf-abab-564b9ccb86da"},"vehicle_type_id":"4","last_reported":1706458036,"current_range_meters":8000,"station_id":"ce4bh392rcd13ifvqdm0","pricing_plan_id":"free"},{"bike_id":"5c2f1a3a-f569-4f17-b833-bcf242c0b6c9","system_id":"levelo_inurba_marseille","lat":43.28039,"lon":5.369297,"is_reserved":false,"is_disabled":false,"rental_uris":{"android":"levelo://app?vid=5c2f1a3a-f569-4f17-b833-bcf242c0b6c9","ios":"levelo://app?vid=5c2f1a3a-f569-4f17-b833-bcf242c0b6c9"},"vehicle_type_id":"4","last_reported":1706458036,"current_range_meters":400,"station_id":"ce4bha12rcd13ifvqef0","pricing_plan_id":"free"},{"bike_id":"11758fd3-83e0-4690-be90-829190836c50","system_id":"levelo_inurba_marseille","lat":43.285742,"lon":5.395004,"is_reserved":false,"is_disabled":false,"rental_uris":{"android":"levelo://app?vid=11758fd3-83e0-4690-be90-829190836c50","ios":"levelo://app?vid=11758fd3-83e0-4690-be90-829190836c50"},"vehicle_type_id":"4","last_reported":1706458036,"current_range_meters":6400,"station_id":"ce4bh292rcd13ifvqdg0","pricing_plan_id":"free"},{"bike_id":"a539d426-9e55-4e9c-b7bf-13cd28eecf36","system_id":"levelo_inurba_marseille","lat":43.27819,"lon":5.35483,"is_reserved":false,"is_disabled":false,"rental_uris":{"android":"levelo://app?vid=a539d426-9e55-4e9c-b7bf-13cd28eecf36","ios":"levelo://app?vid=a539d426-9e55-4e9c-b7bf-13cd28eecf36"},"vehicle_type_id":"4","last_reported":1706458036,"current_range_meters":8000,"station_id":"","pricing_plan_id":"free"},{"bike_id":"0cbfd314-90b6-49fe-af97-084cb688065a","system_id":"levelo_inurba_marseille","lat":43.320566,"lon":5.415366,"is_reserved":false,"is_disabled":false,"rental_uris":{"android":"levelo://app?vid=0cbfd314-90b6-49fe-af97-084cb688065a","ios":"levelo://app?vid=0cbfd314-90b6-49fe-af97-084cb688065a"},"vehicle_type_id":"4","last_reported":1706458036,"current_range_meters":26800,"station_id":"ce4bhq92rcd13ifvqhkg","pricing_plan_id":"free"},{"bike_id":"6081d5b6-8a05-47ee-94e6-14b857445648","system_id":"levelo_inurba_marseille","lat":43.32065,"lon":5.41545,"is_reserved":false,"is_disabled":false,"rental_uris":{"android":"levelo://app?vid=6081d5b6-8a05-47ee-94e6-14b857445648","ios":"levelo://app?vid=6081d5b6-8a05-47ee-94e6-14b857445648"},"vehicle_type_id":"4","last_reported":1706458036,"current_range_meters":23200,"station_id":"ce4bhq92rcd13ifvqhkg","pricing_plan_id":"free"},{"bike_id":"a20e2fd3-aeef-48e0-9dcc-1ef4296cf4d7","system_id":"levelo_inurba_marseille","lat":43.279742,"lon":5.38744,"is_reserved":false,"is_disabled":false,"rental_uris":{"android":"levelo://app?vid=a20e2fd3-aeef-48e0-9dcc-1ef4296cf4d7","ios":"levelo://app?vid=a20e2fd3-aeef-48e0-9dcc-1ef4296cf4d7"},"vehicle_type_id":"4","last_reported":1706458036,"current_range_meters":21200,"station_id":"ce4bhg12rcd13ifvqf80","pricing_plan_id":"free"},{"bike_id":"3057db62-96d5-485c-aced-c9914352b196","system_id":"levelo_inurba_marseille","lat":43.32063,"lon":5.41551,"is_reserved":false,"is_disabled":false,"rental_uris":{"android":"levelo://app?vid=3057db62-96d5-485c-aced-c9914352b196","ios":"levelo://app?vid=3057db62-96d5-485c-aced-c9914352b196"},"vehicle_type_id":"4","last_reported":1706458036,"current_range_meters":10000,"station_id":"ce4bhq92rcd13ifvqhkg","pricing_plan_id":"free"},{"bike_id":"0d5345b0-880e-4f60-a3c3-b6cd964986e0","system_id":"levelo_inurba_marseille","lat":43.3205,"lon":5.415645,"is_reserved":false,"is_disabled":false,"rental_uris":{"android":"levelo://app?vid=0d5345b0-880e-4f60-a3c3-b6cd964986e0","ios":"levelo://app?vid=0d5345b0-880e-4f60-a3c3-b6cd964986e0"},"vehicle_type_id":"4","last_reported":1706458036,"current_range_meters":25600,"station_id":"ce4bhq92rcd13ifvqhkg","pricing_plan_id":"free"},{"bike_id":"4ea34fb4-1cf0-4d70-80b2-fc6f86ef656e","system_id":"levelo_inurba_marseille","lat":43.292571,"lon":5.409107,"is_reserved":false,"is_disabled":false,"rental_uris":{"android":"levelo://app?vid=4ea34fb4-1cf0-4d70-80b2-fc6f86ef656e","ios":"levelo://app?vid=4ea34fb4-1cf0-4d70-80b2-fc6f86ef656e"},"vehicle_type_id":"4","last_reported":1706458036,"current_range_meters":6800,"station_id":"ce4bh192rcd13ifvqdc0","pricing_plan_id":"free"},{"bike_id":"deb35934-6a7b-4672-a83d-dd25422542e5","system_id":"levelo_inurba_marseille","lat":43.292569,"lon":5.409107,"is_reserved":false,"is_disabled":false,"rental_uris":{"android":"levelo://app?vid=deb35934-6a7b-4672-a83d-dd25422542e5","ios":"levelo://app?vid=deb35934-6a7b-4672-a83d-dd25422542e5"},"vehicle_type_id":"4","last_reported":1706458036,"current_range_meters":21600,"station_id":"ce4bh192rcd13ifvqdc0","pricing_plan_id":"free"},{"bike_id":"19564f7a-5e90-4eb3-97f1-44b1e4d189f2","system_id":"levelo_inurba_marseille","lat":43.292569,"lon":5.409107,"is_reserved":false,"is_disabled":false,"rental_uris":{"android":"levelo://app?vid=19564f7a-5e90-4eb3-97f1-44b1e4d189f2","ios":"levelo://app?vid=19564f7a-5e90-4eb3-97f1-44b1e4d189f2"},"vehicle_type_id":"4","last_reported":1706458036,"current_range_meters":14800,"station_id":"ce4bh192rcd13ifvqdc0","pricing_plan_id":"free"},{"bike_id":"e5720f30-cb50-4894-86e1-498390c6dbbf","system_id":"levelo_inurba_marseille","lat":43.27618,"lon":5.361009,"is_reserved":false,"is_disabled":false,"rental_uris":{"android":"levelo://app?vid=e5720f30-cb50-4894-86e1-498390c6dbbf","ios":"levelo://app?vid=e5720f30-cb50-4894-86e1-498390c6dbbf"},"vehicle_type_id":"4","last_reported":1706458036,"current_range_meters":3200,"station_id":"ce4bgj92rcd13ifvqbe0","pricing_plan_id":"free"},{"bike_id":"c7ff393f-b210-44aa-b6a8-8df578cda838","system_id":"levelo_inurba_marseille","lat":43.325233,"lon":5.414318,"is_reserved":false,"is_disabled":false,"rental_uris":{"android":"levelo://app?vid=c7ff393f-b210-44aa-b6a8-8df578cda838","ios":"levelo://app?vid=c7ff393f-b210-44aa-b6a8-8df578cda838"},"vehicle_type_id":"4","last_reported":1706458036,"current_range_meters":17600,"station_id":"ce4bhq12rcd13ifvqhhg","pricing_plan_id":"free"},{"bike_id":"a41ae808-4eee-4985-bc8a-d09a9154c012","system_id":"levelo_inurba_marseille","lat":43.325233,"lon":5.414318,"is_reserved":false,"is_disabled":false,"rental_uris":{"android":"levelo://app?vid=a41ae808-4eee-4985-bc8a-d09a9154c012","ios":"levelo://app?vid=a41ae808-4eee-4985-bc8a-d09a9154c012"},"vehicle_type_id":"4","last_reported":1706458036,"current_range_meters":22000,"station_id":"ce4bhq12rcd13ifvqhhg","pricing_plan_id":"free"},{"bike_id":"e9f0e598-64d3-4565-ab26-390823fe0775","system_id":"levelo_inurba_marseille","lat":43.27609,"lon":5.36116,"is_reserved":false,"is_disabled":false,"rental_uris":{"android":"levelo://app?vid=e9f0e598-64d3-4565-ab26-390823fe0775","ios":"levelo://app?vid=e9f0e598-64d3-4565-ab26-390823fe0775"},"vehicle_type_id":"4","last_reported":1706458036,"current_range_meters":17200,"station_id":"ce4bgj92rcd13ifvqbe0","pricing_plan_id":"free"},{"bike_id":"13c05d1d-b7ad-460f-99d4-f43b6449833d","system_id":"levelo_inurba_marseille","lat":43.278401,"lon":5.392152,"is_reserved":false,"is_disabled":false,"rental_uris":{"android":"levelo://app?vid=13c05d1d-b7ad-460f-99d4-f43b6449833d","ios":"levelo://app?vid=13c05d1d-b7ad-460f-99d4-f43b6449833d"},"vehicle_type_id":"4","last_reported":1706458036,"current_range_meters":18800,"station_id":"ce4bhjp2rcd13ifvqga0","pricing_plan_id":"free"},{"bike_id":"aa0f517f-ada5-4a72-96f0-a728567ac06e","system_id":"levelo_inurba_marseille","lat":43.27383,"lon":5.36254,"is_reserved":false,"is_disabled":false,"rental_uris":{"android":"levelo://app?vid=aa0f517f-ada5-4a72-96f0-a728567ac06e","ios":"levelo://app?vid=aa0f517f-ada5-4a72-96f0-a728567ac06e"},"vehicle_type_id":"4","last_reported":1706458036,"current_range_meters":30000,"station_id":"ce4bhbh2rcd13ifvqeo0","pricing_plan_id":"free"},{"bike_id":"0f122466-9baa-4361-904c-855373be1344","system_id":"levelo_inurba_marseille","lat":43.27381,"lon":5.36245,"is_reserved":false,"is_disabled":false,"rental_uris":{"android":"levelo://app?vid=0f122466-9baa-4361-904c-855373be1344","ios":"levelo://app?vid=0f122466-9baa-4361-904c-855373be1344"},"vehicle_type_id":"4","last_reported":1706458036,"current_range_meters":28800,"station_id":"ce4bhbh2rcd13ifvqeo0","pricing_plan_id":"free"},{"bike_id":"a13dd372-9444-40e2-b6c6-1f77d905b760","system_id":"levelo_inurba_marseille","lat":43.2738,"lon":5.36245,"is_reserved":false,"is_disabled":false,"rental_uris":{"android":"levelo://app?vid=a13dd372-9444-40e2-b6c6-1f77d905b760","ios":"levelo://app?vid=a13dd372-9444-40e2-b6c6-1f77d905b760"},"vehicle_type_id":"4","last_reported":1706458036,"current_range_meters":30400,"station_id":"ce4bhbh2rcd13ifvqeo0","pricing_plan_id":"free"},{"bike_id":"af8f0c8b-fc2b-497e-a8d6-e5f44e740e9c","system_id":"levelo_inurba_marseille","lat":43.273613,"lon":5.362705,"is_reserved":false,"is_disabled":false,"rental_uris":{"android":"levelo://app?vid=af8f0c8b-fc2b-497e-a8d6-e5f44e740e9c","ios":"levelo://app?vid=af8f0c8b-fc2b-497e-a8d6-e5f44e740e9c"},"vehicle_type_id":"4","last_reported":1706458036,"current_range_meters":28800,"station_id":"ce4bhbh2rcd13ifvqeo0","pricing_plan_id":"free"},{"bike_id":"9ad3d5fa-4b67-4ef2-b795-3f0dde7c4ddb","system_id":"levelo_inurba_marseille","lat":43.27378,"lon":5.36247,"is_reserved":false,"is_disabled":false,"rental_uris":{"android":"levelo://app?vid=9ad3d5fa-4b67-4ef2-b795-3f0dde7c4ddb","ios":"levelo://app?vid=9ad3d5fa-4b67-4ef2-b795-3f0dde7c4ddb"},"vehicle_type_id":"4","last_reported":1706458036,"current_range_meters":30400,"station_id":"ce4bhbh2rcd13ifvqeo0","pricing_plan_id":"free"},{"bike_id":"1ef05613-4564-43d3-9773-b25e98403f64","system_id":"levelo_inurba_marseille","lat":43.27378,"lon":5.36243,"is_reserved":false,"is_disabled":false,"rental_uris":{"android":"levelo://app?vid=1ef05613-4564-43d3-9773-b25e98403f64","ios":"levelo://app?vid=1ef05613-4564-43d3-9773-b25e98403f64"},"vehicle_type_id":"4","last_reported":1706458036,"current_range_meters":29600,"station_id":"ce4bhbh2rcd13ifvqeo0","pricing_plan_id":"free"},{"bike_id":"00181456-910d-4654-a55a-782977addfc0","system_id":"levelo_inurba_marseille","lat":43.273613,"lon":5.362705,"is_reserved":false,"is_disabled":false,"rental_uris":{"android":"levelo://app?vid=00181456-910d-4654-a55a-782977addfc0","ios":"levelo://app?vid=00181456-910d-4654-a55a-782977addfc0"},"vehicle_type_id":"4","last_reported":1706458036,"current_range_meters":14400,"station_id":"ce4bhbh2rcd13ifvqeo0","pricing_plan_id":"free"},{"bike_id":"5c1f947e-07e4-4b53-9017-74f24bea62cf","system_id":"levelo_inurba_marseille","lat":43.273613,"lon":5.362705,"is_reserved":false,"is_disabled":false,"rental_uris":{"android":"levelo://app?vid=5c1f947e-07e4-4b53-9017-74f24bea62cf","ios":"levelo://app?vid=5c1f947e-07e4-4b53-9017-74f24bea62cf"},"vehicle_type_id":"4","last_reported":1706458036,"current_range_meters":8800,"station_id":"ce4bhbh2rcd13ifvqeo0","pricing_plan_id":"free"},{"bike_id":"ba356d12-71b4-4978-aa6f-3bf0b9c5b6af","system_id":"levelo_inurba_marseille","lat":43.27376,"lon":5.36264,"is_reserved":false,"is_disabled":false,"rental_uris":{"android":"levelo://app?vid=ba356d12-71b4-4978-aa6f-3bf0b9c5b6af","ios":"levelo://app?vid=ba356d12-71b4-4978-aa6f-3bf0b9c5b6af"},"vehicle_type_id":"4","last_reported":1706458036,"current_range_meters":31200,"station_id":"ce4bhbh2rcd13ifvqeo0","pricing_plan_id":"free"},{"bike_id":"66164650-0b87-4422-ba49-905ebe3395ff","system_id":"levelo_inurba_marseille","lat":43.273613,"lon":5.362705,"is_reserved":false,"is_disabled":false,"rental_uris":{"android":"levelo://app?vid=66164650-0b87-4422-ba49-905ebe3395ff","ios":"levelo://app?vid=66164650-0b87-4422-ba49-905ebe3395ff"},"vehicle_type_id":"4","last_reported":1706458036,"current_range_meters":27200,"station_id":"ce4bhbh2rcd13ifvqeo0","pricing_plan_id":"free"},{"bike_id":"65f041e4-7942-445e-b7c2-8bb3a14702aa","system_id":"levelo_inurba_marseille","lat":43.273609,"lon":5.362708,"is_reserved":false,"is_disabled":false,"rental_uris":{"android":"levelo://app?vid=65f041e4-7942-445e-b7c2-8bb3a14702aa","ios":"levelo://app?vid=65f041e4-7942-445e-b7c2-8bb3a14702aa"},"vehicle_type_id":"4","last_reported":1706458036,"current_range_meters":29200,"station_id":"ce4bhbh2rcd13ifvqeo0","pricing_plan_id":"free"},{"bike_id":"56f5e8d4-40c1-430e-ba2a-d6585740d71e","system_id":"levelo_inurba_marseille","lat":43.27375,"lon":5.36267,"is_reserved":false,"is_disabled":false,"rental_uris":{"android":"levelo://app?vid=56f5e8d4-40c1-430e-ba2a-d6585740d71e","ios":"levelo://app?vid=56f5e8d4-40c1-430e-ba2a-d6585740d71e"},"vehicle_type_id":"4","last_reported":1706458036,"current_range_meters":24800,"station_id":"ce4bhbh2rcd13ifvqeo0","pricing_plan_id":"free"},{"bike_id":"40b6ea7c-b345-4abd-89ca-27d16990e5cb","system_id":"levelo_inurba_marseille","lat":43.27376,"lon":5.36249,"is_reserved":false,"is_disabled":false,"rental_uris":{"android":"levelo://app?vid=40b6ea7c-b345-4abd-89ca-27d16990e5cb","ios":"levelo://app?vid=40b6ea7c-b345-4abd-89ca-27d16990e5cb"},"vehicle_type_id":"4","last_reported":1706458036,"current_range_meters":26000,"station_id":"ce4bhbh2rcd13ifvqeo0","pricing_plan_id":"free"},{"bike_id":"c0971226-fcae-4d74-b9a7-942a2c35d059","system_id":"levelo_inurba_marseille","lat":43.273613,"lon":5.362705,"is_reserved":false,"is_disabled":false,"rental_uris":{"android":"levelo://app?vid=c0971226-fcae-4d74-b9a7-942a2c35d059","ios":"levelo://app?vid=c0971226-fcae-4d74-b9a7-942a2c35d059"},"vehicle_type_id":"4","last_reported":1706458036,"current_range_meters":7600,"station_id":"ce4bhbh2rcd13ifvqeo0","pricing_plan_id":"free"},{"bike_id":"6ef6cea5-279b-4734-b184-642fd171d26e","system_id":"levelo_inurba_marseille","lat":43.273613,"lon":5.362705,"is_reserved":false,"is_disabled":false,"rental_uris":{"android":"levelo://app?vid=6ef6cea5-279b-4734-b184-642fd171d26e","ios":"levelo://app?vid=6ef6cea5-279b-4734-b184-642fd171d26e"},"vehicle_type_id":"4","last_reported":1706458036,"current_range_meters":11600,"station_id":"ce4bhbh2rcd13ifvqeo0","pricing_plan_id":"free"},{"bike_id":"b218436d-21af-4d28-9466-93b330174481","system_id":"levelo_inurba_marseille","lat":43.273613,"lon":5.362705,"is_reserved":false,"is_disabled":false,"rental_uris":{"android":"levelo://app?vid=b218436d-21af-4d28-9466-93b330174481","ios":"levelo://app?vid=b218436d-21af-4d28-9466-93b330174481"},"vehicle_type_id":"4","last_reported":1706458036,"current_range_meters":9600,"station_id":"ce4bhbh2rcd13ifvqeo0","pricing_plan_id":"free"},{"bike_id":"b25fa1c4-251f-4601-ba24-21edc42bb4a4","system_id":"levelo_inurba_marseille","lat":43.273613,"lon":5.362705,"is_reserved":false,"is_disabled":false,"rental_uris":{"android":"levelo://app?vid=b25fa1c4-251f-4601-ba24-21edc42bb4a4","ios":"levelo://app?vid=b25fa1c4-251f-4601-ba24-21edc42bb4a4"},"vehicle_type_id":"4","last_reported":1706458036,"current_range_meters":26800,"station_id":"ce4bhbh2rcd13ifvqeo0","pricing_plan_id":"free"},{"bike_id":"c62370f5-ed2d-4939-afd3-2a8b3bc2f3d9","system_id":"levelo_inurba_marseille","lat":43.273613,"lon":5.362705,"is_reserved":false,"is_disabled":false,"rental_uris":{"android":"levelo://app?vid=c62370f5-ed2d-4939-afd3-2a8b3bc2f3d9","ios":"levelo://app?vid=c62370f5-ed2d-4939-afd3-2a8b3bc2f3d9"},"vehicle_type_id":"4","last_reported":1706458036,"current_range_meters":31600,"station_id":"ce4bhbh2rcd13ifvqeo0","pricing_plan_id":"free"},{"bike_id":"0b6497df-7812-49f2-816a-cbcb4e8abee7","system_id":"levelo_inurba_marseille","lat":43.27374,"lon":5.3626,"is_reserved":false,"is_disabled":false,"rental_uris":{"android":"levelo://app?vid=0b6497df-7812-49f2-816a-cbcb4e8abee7","ios":"levelo://app?vid=0b6497df-7812-49f2-816a-cbcb4e8abee7"},"vehicle_type_id":"4","last_reported":1706458036,"current_range_meters":3200,"station_id":"ce4bhbh2rcd13ifvqeo0","pricing_plan_id":"free"},{"bike_id":"15f4b0f0-5094-4091-a03e-c5ee270091ef","system_id":"levelo_inurba_marseille","lat":43.27374,"lon":5.36258,"is_reserved":false,"is_disabled":false,"rental_uris":{"android":"levelo://app?vid=15f4b0f0-5094-4091-a03e-c5ee270091ef","ios":"levelo://app?vid=15f4b0f0-5094-4091-a03e-c5ee270091ef"},"vehicle_type_id":"4","last_reported":1706458036,"current_range_meters":7600,"station_id":"ce4bhbh2rcd13ifvqeo0","pricing_plan_id":"free"},{"bike_id":"ac658c15-6ca3-46b2-b438-f669d2af269d","system_id":"levelo_inurba_marseille","lat":43.273609,"lon":5.362708,"is_reserved":false,"is_disabled":false,"rental_uris":{"android":"levelo://app?vid=ac658c15-6ca3-46b2-b438-f669d2af269d","ios":"levelo://app?vid=ac658c15-6ca3-46b2-b438-f669d2af269d"},"vehicle_type_id":"4","last_reported":1706458036,"current_range_meters":13200,"station_id":"ce4bhbh2rcd13ifvqeo0","pricing_plan_id":"free"},{"bike_id":"245fdbf7-1acd-46a5-8c0d-63a104a5a803","system_id":"levelo_inurba_marseille","lat":43.273609,"lon":5.362708,"is_reserved":false,"is_disabled":false,"rental_uris":{"android":"levelo://app?vid=245fdbf7-1acd-46a5-8c0d-63a104a5a803","ios":"levelo://app?vid=245fdbf7-1acd-46a5-8c0d-63a104a5a803"},"vehicle_type_id":"4","last_reported":1706458036,"current_range_meters":14400,"station_id":"ce4bhbh2rcd13ifvqeo0","pricing_plan_id":"free"},{"bike_id":"cff84d80-538b-41ae-af5c-37997cc805be","system_id":"levelo_inurba_marseille","lat":43.273609,"lon":5.362708,"is_reserved":false,"is_disabled":false,"rental_uris":{"android":"levelo://app?vid=cff84d80-538b-41ae-af5c-37997cc805be","ios":"levelo://app?vid=cff84d80-538b-41ae-af5c-37997cc805be"},"vehicle_type_id":"4","last_reported":1706458036,"current_range_meters":6000,"station_id":"ce4bhbh2rcd13ifvqeo0","pricing_plan_id":"free"},{"bike_id":"9855798a-f7df-4e57-aeba-58cb6fa28a1a","system_id":"levelo_inurba_marseille","lat":43.273609,"lon":5.362708,"is_reserved":false,"is_disabled":false,"rental_uris":{"android":"levelo://app?vid=9855798a-f7df-4e57-aeba-58cb6fa28a1a","ios":"levelo://app?vid=9855798a-f7df-4e57-aeba-58cb6fa28a1a"},"vehicle_type_id":"4","last_reported":1706458036,"current_range_meters":21600,"station_id":"ce4bhbh2rcd13ifvqeo0","pricing_plan_id":"free"},{"bike_id":"48f0aa32-5d0f-474a-b960-73b4272b87f5","system_id":"levelo_inurba_marseille","lat":43.273609,"lon":5.362708,"is_reserved":false,"is_disabled":false,"rental_uris":{"android":"levelo://app?vid=48f0aa32-5d0f-474a-b960-73b4272b87f5","ios":"levelo://app?vid=48f0aa32-5d0f-474a-b960-73b4272b87f5"},"vehicle_type_id":"4","last_reported":1706458036,"current_range_meters":30800,"station_id":"ce4bhbh2rcd13ifvqeo0","pricing_plan_id":"free"},{"bike_id":"54049a08-f8b0-490e-99c5-5554c8d366b2","system_id":"levelo_inurba_marseille","lat":43.273609,"lon":5.362708,"is_reserved":false,"is_disabled":false,"rental_uris":{"android":"levelo://app?vid=54049a08-f8b0-490e-99c5-5554c8d366b2","ios":"levelo://app?vid=54049a08-f8b0-490e-99c5-5554c8d366b2"},"vehicle_type_id":"4","last_reported":1706458036,"current_range_meters":30000,"station_id":"ce4bhbh2rcd13ifvqeo0","pricing_plan_id":"free"},{"bike_id":"81e9e01e-1e29-4467-aff8-992019661ef1","system_id":"levelo_inurba_marseille","lat":43.33585,"lon":5.4105,"is_reserved":false,"is_disabled":false,"rental_uris":{"android":"levelo://app?vid=81e9e01e-1e29-4467-aff8-992019661ef1","ios":"levelo://app?vid=81e9e01e-1e29-4467-aff8-992019661ef1"},"vehicle_type_id":"4","last_reported":1706458036,"current_range_meters":0,"station_id":"ce4bhqh2rcd13ifvqhmg","pricing_plan_id":"free"},{"bike_id":"d9731b72-766e-49c3-99d3-2451928d42a1","system_id":"levelo_inurba_marseille","lat":43.276771,"lon":5.388799,"is_reserved":false,"is_disabled":false,"rental_uris":{"android":"levelo://app?vid=d9731b72-766e-49c3-99d3-2451928d42a1","ios":"levelo://app?vid=d9731b72-766e-49c3-99d3-2451928d42a1"},"vehicle_type_id":"4","last_reported":1706458036,"current_range_meters":0,"station_id":"ce4bhi12rcd13ifvqfo0","pricing_plan_id":"free"},{"bike_id":"6f46a34b-d5d1-4592-8607-98eec5146735","system_id":"levelo_inurba_marseille","lat":43.28374,"lon":5.407105,"is_reserved":false,"is_disabled":false,"rental_uris":{"android":"levelo://app?vid=6f46a34b-d5d1-4592-8607-98eec5146735","ios":"levelo://app?vid=6f46a34b-d5d1-4592-8607-98eec5146735"},"vehicle_type_id":"4","last_reported":1706458036,"current_range_meters":2400,"station_id":"","pricing_plan_id":"free"},{"bike_id":"87c998a4-b27c-4b57-8568-42f4629803bf","system_id":"levelo_inurba_marseille","lat":43.27624,"lon":5.39465,"is_reserved":false,"is_disabled":false,"rental_uris":{"android":"levelo://app?vid=87c998a4-b27c-4b57-8568-42f4629803bf","ios":"levelo://app?vid=87c998a4-b27c-4b57-8568-42f4629803bf"},"vehicle_type_id":"4","last_reported":1706458036,"current_range_meters":11600,"station_id":"","pricing_plan_id":"free"},{"bike_id":"c7034082-bffb-4f86-bb91-40ab0c03be2f","system_id":"levelo_inurba_marseille","lat":43.317121,"lon":5.423936,"is_reserved":false,"is_disabled":false,"rental_uris":{"android":"levelo://app?vid=c7034082-bffb-4f86-bb91-40ab0c03be2f","ios":"levelo://app?vid=c7034082-bffb-4f86-bb91-40ab0c03be2f"},"vehicle_type_id":"4","last_reported":1706458036,"current_range_meters":23200,"station_id":"ce4bhp92rcd13ifvqhbg","pricing_plan_id":"free"},{"bike_id":"42177f98-49cb-4f87-9945-e0369f359c5c","system_id":"levelo_inurba_marseille","lat":43.310785,"lon":5.424305,"is_reserved":false,"is_disabled":false,"rental_uris":{"android":"levelo://app?vid=42177f98-49cb-4f87-9945-e0369f359c5c","ios":"levelo://app?vid=42177f98-49cb-4f87-9945-e0369f359c5c"},"vehicle_type_id":"4","last_reported":1706458036,"current_range_meters":14000,"station_id":"ce4bhp92rcd13ifvqhag","pricing_plan_id":"free"},{"bike_id":"de994ca2-6a4e-45a1-a1d8-5826b8cc855b","system_id":"levelo_inurba_marseille","lat":43.340804,"lon":5.410219,"is_reserved":false,"is_disabled":false,"rental_uris":{"android":"levelo://app?vid=de994ca2-6a4e-45a1-a1d8-5826b8cc855b","ios":"levelo://app?vid=de994ca2-6a4e-45a1-a1d8-5826b8cc855b"},"vehicle_type_id":"4","last_reported":1706458036,"current_range_meters":18400,"station_id":"ce4bhqh2rcd13ifvqhlg","pricing_plan_id":"free"},{"bike_id":"12ff87bc-d27c-41cb-b3a6-1d789205cdf7","system_id":"levelo_inurba_marseille","lat":43.273125,"lon":5.390731,"is_reserved":false,"is_disabled":false,"rental_uris":{"android":"levelo://app?vid=12ff87bc-d27c-41cb-b3a6-1d789205cdf7","ios":"levelo://app?vid=12ff87bc-d27c-41cb-b3a6-1d789205cdf7"},"vehicle_type_id":"4","last_reported":1706458036,"current_range_meters":0,"station_id":"ce4bhgp2rcd13ifvqfe0","pricing_plan_id":"free"},{"bike_id":"ba5f58e5-4c97-45de-aa6a-1c96f28cc40c","system_id":"levelo_inurba_marseille","lat":43.274099,"lon":5.394019,"is_reserved":false,"is_disabled":false,"rental_uris":{"android":"levelo://app?vid=ba5f58e5-4c97-45de-aa6a-1c96f28cc40c","ios":"levelo://app?vid=ba5f58e5-4c97-45de-aa6a-1c96f28cc40c"},"vehicle_type_id":"4","last_reported":1706458036,"current_range_meters":26400,"station_id":"ce4bhdp2rcd13ifvqf20","pricing_plan_id":"free"},{"bike_id":"36b19ef0-7259-432b-af83-bb3aa797ff18","system_id":"levelo_inurba_marseille","lat":43.274099,"lon":5.394019,"is_reserved":false,"is_disabled":false,"rental_uris":{"android":"levelo://app?vid=36b19ef0-7259-432b-af83-bb3aa797ff18","ios":"levelo://app?vid=36b19ef0-7259-432b-af83-bb3aa797ff18"},"vehicle_type_id":"4","last_reported":1706458036,"current_range_meters":19200,"station_id":"ce4bhdp2rcd13ifvqf20","pricing_plan_id":"free"},{"bike_id":"2753c47e-6089-44c4-b68c-898ad82fe18b","system_id":"levelo_inurba_marseille","lat":43.304096,"lon":5.425385,"is_reserved":false,"is_disabled":false,"rental_uris":{"android":"levelo://app?vid=2753c47e-6089-44c4-b68c-898ad82fe18b","ios":"levelo://app?vid=2753c47e-6089-44c4-b68c-898ad82fe18b"},"vehicle_type_id":"4","last_reported":1706458036,"current_range_meters":20400,"station_id":"ce4bhoh2rcd13ifvqh6g","pricing_plan_id":"free"},{"bike_id":"94248867-12fb-4536-a236-fe578a754616","system_id":"levelo_inurba_marseille","lat":43.274099,"lon":5.394019,"is_reserved":false,"is_disabled":false,"rental_uris":{"android":"levelo://app?vid=94248867-12fb-4536-a236-fe578a754616","ios":"levelo://app?vid=94248867-12fb-4536-a236-fe578a754616"},"vehicle_type_id":"4","last_reported":1706458036,"current_range_meters":2400,"station_id":"ce4bhdp2rcd13ifvqf20","pricing_plan_id":"free"},{"bike_id":"2c1dbbc5-9434-40ec-b6a7-210d08a19857","system_id":"levelo_inurba_marseille","lat":43.295523,"lon":5.422926,"is_reserved":false,"is_disabled":false,"rental_uris":{"android":"levelo://app?vid=2c1dbbc5-9434-40ec-b6a7-210d08a19857","ios":"levelo://app?vid=2c1dbbc5-9434-40ec-b6a7-210d08a19857"},"vehicle_type_id":"4","last_reported":1706458036,"current_range_meters":2000,"station_id":"ce4bhph2rcd13ifvqhdg","pricing_plan_id":"free"},{"bike_id":"6fe4555c-13a8-443a-bc04-01ca818a618f","system_id":"levelo_inurba_marseille","lat":43.295388,"lon":5.423081,"is_reserved":false,"is_disabled":false,"rental_uris":{"android":"levelo://app?vid=6fe4555c-13a8-443a-bc04-01ca818a618f","ios":"levelo://app?vid=6fe4555c-13a8-443a-bc04-01ca818a618f"},"vehicle_type_id":"4","last_reported":1706458036,"current_range_meters":20400,"station_id":"ce4bhph2rcd13ifvqhdg","pricing_plan_id":"free"},{"bike_id":"7e9edb07-3492-4671-85d9-1311cb0e8eb3","system_id":"levelo_inurba_marseille","lat":43.272124,"lon":5.391768,"is_reserved":false,"is_disabled":false,"rental_uris":{"android":"levelo://app?vid=7e9edb07-3492-4671-85d9-1311cb0e8eb3","ios":"levelo://app?vid=7e9edb07-3492-4671-85d9-1311cb0e8eb3"},"vehicle_type_id":"4","last_reported":1706458036,"current_range_meters":0,"station_id":"ce4bhhp2rcd13ifvqfm0","pricing_plan_id":"free"},{"bike_id":"348de323-c032-47d2-8dd0-ec85bc5bc768","system_id":"levelo_inurba_marseille","lat":43.272116,"lon":5.391763,"is_reserved":false,"is_disabled":false,"rental_uris":{"android":"levelo://app?vid=348de323-c032-47d2-8dd0-ec85bc5bc768","ios":"levelo://app?vid=348de323-c032-47d2-8dd0-ec85bc5bc768"},"vehicle_type_id":"4","last_reported":1706458036,"current_range_meters":16400,"station_id":"ce4bhhp2rcd13ifvqfm0","pricing_plan_id":"free"},{"bike_id":"4371c208-e065-4be2-8c9f-f342409b79d2","system_id":"levelo_inurba_marseille","lat":43.272118,"lon":5.391758,"is_reserved":false,"is_disabled":false,"rental_uris":{"android":"levelo://app?vid=4371c208-e065-4be2-8c9f-f342409b79d2","ios":"levelo://app?vid=4371c208-e065-4be2-8c9f-f342409b79d2"},"vehicle_type_id":"4","last_reported":1706458036,"current_range_meters":0,"station_id":"ce4bhhp2rcd13ifvqfm0","pricing_plan_id":"free"},{"bike_id":"3d14cb8c-ebba-4e29-af31-4761cadfc2f6","system_id":"levelo_inurba_marseille","lat":43.27206,"lon":5.39189,"is_reserved":false,"is_disabled":false,"rental_uris":{"android":"levelo://app?vid=3d14cb8c-ebba-4e29-af31-4761cadfc2f6","ios":"levelo://app?vid=3d14cb8c-ebba-4e29-af31-4761cadfc2f6"},"vehicle_type_id":"4","last_reported":1706458036,"current_range_meters":0,"station_id":"ce4bhhp2rcd13ifvqfm0","pricing_plan_id":"free"},{"bike_id":"4185e999-9991-408a-a5e8-049632240d64","system_id":"levelo_inurba_marseille","lat":43.272118,"lon":5.391758,"is_reserved":false,"is_disabled":false,"rental_uris":{"android":"levelo://app?vid=4185e999-9991-408a-a5e8-049632240d64","ios":"levelo://app?vid=4185e999-9991-408a-a5e8-049632240d64"},"vehicle_type_id":"4","last_reported":1706458036,"current_range_meters":9200,"station_id":"ce4bhhp2rcd13ifvqfm0","pricing_plan_id":"free"},{"bike_id":"8358a918-fc15-4e7c-a873-9aa5631e9250","system_id":"levelo_inurba_marseille","lat":43.27203,"lon":5.39189,"is_reserved":false,"is_disabled":false,"rental_uris":{"android":"levelo://app?vid=8358a918-fc15-4e7c-a873-9aa5631e9250","ios":"levelo://app?vid=8358a918-fc15-4e7c-a873-9aa5631e9250"},"vehicle_type_id":"4","last_reported":1706458036,"current_range_meters":13600,"station_id":"ce4bhhp2rcd13ifvqfm0","pricing_plan_id":"free"},{"bike_id":"ed2e9f2c-ce92-4725-827c-471f4aa9c38f","system_id":"levelo_inurba_marseille","lat":43.278128,"lon":5.407195,"is_reserved":false,"is_disabled":false,"rental_uris":{"android":"levelo://app?vid=ed2e9f2c-ce92-4725-827c-471f4aa9c38f","ios":"levelo://app?vid=ed2e9f2c-ce92-4725-827c-471f4aa9c38f"},"vehicle_type_id":"4","last_reported":1706458036,"current_range_meters":6400,"station_id":"ce4bhnh2rcd13ifvqgtg","pricing_plan_id":"free"},{"bike_id":"db2bc78c-3d33-4189-8a70-9479c857cb10","system_id":"levelo_inurba_marseille","lat":43.269467,"lon":5.386439,"is_reserved":false,"is_disabled":false,"rental_uris":{"android":"levelo://app?vid=db2bc78c-3d33-4189-8a70-9479c857cb10","ios":"levelo://app?vid=db2bc78c-3d33-4189-8a70-9479c857cb10"},"vehicle_type_id":"4","last_reported":1706458036,"current_range_meters":20000,"station_id":"ce4bhh92rcd13ifvqfh0","pricing_plan_id":"free"},{"bike_id":"78ae4324-4bd2-4de4-ae70-6e4bbae45a0e","system_id":"levelo_inurba_marseille","lat":43.269467,"lon":5.386439,"is_reserved":false,"is_disabled":false,"rental_uris":{"android":"levelo://app?vid=78ae4324-4bd2-4de4-ae70-6e4bbae45a0e","ios":"levelo://app?vid=78ae4324-4bd2-4de4-ae70-6e4bbae45a0e"},"vehicle_type_id":"4","last_reported":1706458036,"current_range_meters":400,"station_id":"ce4bhh92rcd13ifvqfh0","pricing_plan_id":"free"},{"bike_id":"913d3bf4-47ac-44c5-a45d-00df0dac5c4b","system_id":"levelo_inurba_marseille","lat":43.295523,"lon":5.422926,"is_reserved":false,"is_disabled":false,"rental_uris":{"android":"levelo://app?vid=913d3bf4-47ac-44c5-a45d-00df0dac5c4b","ios":"levelo://app?vid=913d3bf4-47ac-44c5-a45d-00df0dac5c4b"},"vehicle_type_id":"4","last_reported":1706458036,"current_range_meters":14000,"station_id":"ce4bhph2rcd13ifvqhdg","pricing_plan_id":"free"},{"bike_id":"6a4d3b92-990b-4c9b-8a90-f28c3b363667","system_id":"levelo_inurba_marseille","lat":43.27996,"lon":5.416624,"is_reserved":false,"is_disabled":false,"rental_uris":{"android":"levelo://app?vid=6a4d3b92-990b-4c9b-8a90-f28c3b363667","ios":"levelo://app?vid=6a4d3b92-990b-4c9b-8a90-f28c3b363667"},"vehicle_type_id":"4","last_reported":1706458036,"current_range_meters":6800,"station_id":"ce4bho12rcd13ifvqh1g","pricing_plan_id":"free"},{"bike_id":"1ef24a3a-9316-4846-9c1c-60b4be2dcac9","system_id":"levelo_inurba_marseille","lat":43.27996,"lon":5.416624,"is_reserved":false,"is_disabled":false,"rental_uris":{"android":"levelo://app?vid=1ef24a3a-9316-4846-9c1c-60b4be2dcac9","ios":"levelo://app?vid=1ef24a3a-9316-4846-9c1c-60b4be2dcac9"},"vehicle_type_id":"4","last_reported":1706458036,"current_range_meters":19200,"station_id":"ce4bho12rcd13ifvqh1g","pricing_plan_id":"free"},{"bike_id":"c74a0cbf-1c79-473d-ab5f-eac65f7901f9","system_id":"levelo_inurba_marseille","lat":43.267966,"lon":5.393976,"is_reserved":false,"is_disabled":false,"rental_uris":{"android":"levelo://app?vid=c74a0cbf-1c79-473d-ab5f-eac65f7901f9","ios":"levelo://app?vid=c74a0cbf-1c79-473d-ab5f-eac65f7901f9"},"vehicle_type_id":"4","last_reported":1706458036,"current_range_meters":0,"station_id":"ce4bhh12rcd13ifvqfg0","pricing_plan_id":"free"},{"bike_id":"3ef014fb-79b8-425e-8ce8-353e7702b4aa","system_id":"levelo_inurba_marseille","lat":43.267966,"lon":5.393976,"is_reserved":false,"is_disabled":false,"rental_uris":{"android":"levelo://app?vid=3ef014fb-79b8-425e-8ce8-353e7702b4aa","ios":"levelo://app?vid=3ef014fb-79b8-425e-8ce8-353e7702b4aa"},"vehicle_type_id":"4","last_reported":1706458036,"current_range_meters":10400,"station_id":"ce4bhh12rcd13ifvqfg0","pricing_plan_id":"free"},{"bike_id":"63d95574-1b72-4eb8-be0c-0f955f9841c0","system_id":"levelo_inurba_marseille","lat":43.308051,"lon":5.43527,"is_reserved":false,"is_disabled":false,"rental_uris":{"android":"levelo://app?vid=63d95574-1b72-4eb8-be0c-0f955f9841c0","ios":"levelo://app?vid=63d95574-1b72-4eb8-be0c-0f955f9841c0"},"vehicle_type_id":"4","last_reported":1706458036,"current_range_meters":6400,"station_id":"ce4bhph2rcd13ifvqheg","pricing_plan_id":"free"},{"bike_id":"7ccea28d-ca73-45f6-9d92-a1bd046b49a0","system_id":"levelo_inurba_marseille","lat":43.265569,"lon":5.390047,"is_reserved":false,"is_disabled":false,"rental_uris":{"android":"levelo://app?vid=7ccea28d-ca73-45f6-9d92-a1bd046b49a0","ios":"levelo://app?vid=7ccea28d-ca73-45f6-9d92-a1bd046b49a0"},"vehicle_type_id":"4","last_reported":1706458036,"current_range_meters":22800,"station_id":"ce4bhe12rcd13ifvqf30","pricing_plan_id":"free"},{"bike_id":"a0c1da5c-da2c-4591-819f-e09460076444","system_id":"levelo_inurba_marseille","lat":43.334187,"lon":5.42896,"is_reserved":false,"is_disabled":false,"rental_uris":{"android":"levelo://app?vid=a0c1da5c-da2c-4591-819f-e09460076444","ios":"levelo://app?vid=a0c1da5c-da2c-4591-819f-e09460076444"},"vehicle_type_id":"4","last_reported":1706458036,"current_range_meters":3600,"station_id":"","pricing_plan_id":"free"},{"bike_id":"e3a00466-6bcc-43be-9e9a-7a1cffebc2cc","system_id":"levelo_inurba_marseille","lat":43.265569,"lon":5.390047,"is_reserved":false,"is_disabled":false,"rental_uris":{"android":"levelo://app?vid=e3a00466-6bcc-43be-9e9a-7a1cffebc2cc","ios":"levelo://app?vid=e3a00466-6bcc-43be-9e9a-7a1cffebc2cc"},"vehicle_type_id":"4","last_reported":1706458036,"current_range_meters":0,"station_id":"ce4bhe12rcd13ifvqf30","pricing_plan_id":"free"},{"bike_id":"39d407b2-9b6e-408f-b9be-16a75c4ce1c8","system_id":"levelo_inurba_marseille","lat":43.261782,"lon":5.374515,"is_reserved":false,"is_disabled":false,"rental_uris":{"android":"levelo://app?vid=39d407b2-9b6e-408f-b9be-16a75c4ce1c8","ios":"levelo://app?vid=39d407b2-9b6e-408f-b9be-16a75c4ce1c8"},"vehicle_type_id":"4","last_reported":1706458036,"current_range_meters":4000,"station_id":"ce4bhgp2rcd13ifvqfc0","pricing_plan_id":"free"},{"bike_id":"1a6c77c5-1aa9-4146-9d20-3779c8840879","system_id":"levelo_inurba_marseille","lat":43.261782,"lon":5.374515,"is_reserved":false,"is_disabled":false,"rental_uris":{"android":"levelo://app?vid=1a6c77c5-1aa9-4146-9d20-3779c8840879","ios":"levelo://app?vid=1a6c77c5-1aa9-4146-9d20-3779c8840879"},"vehicle_type_id":"4","last_reported":1706458036,"current_range_meters":800,"station_id":"ce4bhgp2rcd13ifvqfc0","pricing_plan_id":"free"},{"bike_id":"0e1586b7-ee20-4af2-87fb-92dd1bfe499b","system_id":"levelo_inurba_marseille","lat":43.317104,"lon":5.436818,"is_reserved":false,"is_disabled":false,"rental_uris":{"android":"levelo://app?vid=0e1586b7-ee20-4af2-87fb-92dd1bfe499b","ios":"levelo://app?vid=0e1586b7-ee20-4af2-87fb-92dd1bfe499b"},"vehicle_type_id":"4","last_reported":1706458036,"current_range_meters":14400,"station_id":"ce4bhp92rcd13ifvqhcg","pricing_plan_id":"free"},{"bike_id":"0cb77635-8a12-4f2d-a42c-1e36336f5964","system_id":"levelo_inurba_marseille","lat":43.262012,"lon":5.379307,"is_reserved":false,"is_disabled":false,"rental_uris":{"android":"levelo://app?vid=0cb77635-8a12-4f2d-a42c-1e36336f5964","ios":"levelo://app?vid=0cb77635-8a12-4f2d-a42c-1e36336f5964"},"vehicle_type_id":"4","last_reported":1706458036,"current_range_meters":5600,"station_id":"ce4bhjp2rcd13ifvqg90","pricing_plan_id":"free"},{"bike_id":"16b7575f-3c57-4c6d-a94a-f05f7def18e1","system_id":"levelo_inurba_marseille","lat":43.271388,"lon":5.409269,"is_reserved":false,"is_disabled":false,"rental_uris":{"android":"levelo://app?vid=16b7575f-3c57-4c6d-a94a-f05f7def18e1","ios":"levelo://app?vid=16b7575f-3c57-4c6d-a94a-f05f7def18e1"},"vehicle_type_id":"4","last_reported":1706458036,"current_range_meters":27600,"station_id":"ce4bhl12rcd13ifvqgf0","pricing_plan_id":"free"},{"bike_id":"045fbbc9-ee2c-4d58-ad15-8fe03097e2ea","system_id":"levelo_inurba_marseille","lat":43.271368,"lon":5.40928,"is_reserved":false,"is_disabled":false,"rental_uris":{"android":"levelo://app?vid=045fbbc9-ee2c-4d58-ad15-8fe03097e2ea","ios":"levelo://app?vid=045fbbc9-ee2c-4d58-ad15-8fe03097e2ea"},"vehicle_type_id":"4","last_reported":1706458036,"current_range_meters":26000,"station_id":"ce4bhl12rcd13ifvqgf0","pricing_plan_id":"free"},{"bike_id":"a16ba5bf-4f32-4b8c-9273-ccb117f48b08","system_id":"levelo_inurba_marseille","lat":43.271368,"lon":5.40928,"is_reserved":false,"is_disabled":false,"rental_uris":{"android":"levelo://app?vid=a16ba5bf-4f32-4b8c-9273-ccb117f48b08","ios":"levelo://app?vid=a16ba5bf-4f32-4b8c-9273-ccb117f48b08"},"vehicle_type_id":"4","last_reported":1706458036,"current_range_meters":30400,"station_id":"ce4bhl12rcd13ifvqgf0","pricing_plan_id":"free"},{"bike_id":"04c17a24-a02a-450b-9bd0-8d8711dc0959","system_id":"levelo_inurba_marseille","lat":43.267959,"lon":5.402685,"is_reserved":false,"is_disabled":false,"rental_uris":{"android":"levelo://app?vid=04c17a24-a02a-450b-9bd0-8d8711dc0959","ios":"levelo://app?vid=04c17a24-a02a-450b-9bd0-8d8711dc0959"},"vehicle_type_id":"4","last_reported":1706458036,"current_range_meters":26400,"station_id":"ce501612rcd8frsf0b60","pricing_plan_id":"free"},{"bike_id":"b70e1889-fbb4-4987-8e0c-472bb3b16863","system_id":"levelo_inurba_marseille","lat":43.267959,"lon":5.402685,"is_reserved":false,"is_disabled":false,"rental_uris":{"android":"levelo://app?vid=b70e1889-fbb4-4987-8e0c-472bb3b16863","ios":"levelo://app?vid=b70e1889-fbb4-4987-8e0c-472bb3b16863"},"vehicle_type_id":"4","last_reported":1706458036,"current_range_meters":3200,"station_id":"ce501612rcd8frsf0b60","pricing_plan_id":"free"},{"bike_id":"c5d3ccfc-98de-43b0-8d89-5d67745238d4","system_id":"levelo_inurba_marseille","lat":43.267959,"lon":5.402685,"is_reserved":false,"is_disabled":false,"rental_uris":{"android":"levelo://app?vid=c5d3ccfc-98de-43b0-8d89-5d67745238d4","ios":"levelo://app?vid=c5d3ccfc-98de-43b0-8d89-5d67745238d4"},"vehicle_type_id":"4","last_reported":1706458036,"current_range_meters":20000,"station_id":"ce501612rcd8frsf0b60","pricing_plan_id":"free"},{"bike_id":"d74f509f-7a93-4c8c-8676-81762b3db143","system_id":"levelo_inurba_marseille","lat":43.26177,"lon":5.3806,"is_reserved":false,"is_disabled":false,"rental_uris":{"android":"levelo://app?vid=d74f509f-7a93-4c8c-8676-81762b3db143","ios":"levelo://app?vid=d74f509f-7a93-4c8c-8676-81762b3db143"},"vehicle_type_id":"4","last_reported":1706458036,"current_range_meters":12000,"station_id":"","pricing_plan_id":"free"},{"bike_id":"bed3dc10-2901-446f-a08a-41822302f877","system_id":"levelo_inurba_marseille","lat":43.264946,"lon":5.395416,"is_reserved":false,"is_disabled":false,"rental_uris":{"android":"levelo://app?vid=bed3dc10-2901-446f-a08a-41822302f877","ios":"levelo://app?vid=bed3dc10-2901-446f-a08a-41822302f877"},"vehicle_type_id":"4","last_reported":1706458036,"current_range_meters":0,"station_id":"ce4bhi12rcd13ifvqfq0","pricing_plan_id":"free"},{"bike_id":"12997fb5-883c-4230-99a8-176a3a81dbcf","system_id":"levelo_inurba_marseille","lat":43.29898,"lon":5.43665,"is_reserved":false,"is_disabled":false,"rental_uris":{"android":"levelo://app?vid=12997fb5-883c-4230-99a8-176a3a81dbcf","ios":"levelo://app?vid=12997fb5-883c-4230-99a8-176a3a81dbcf"},"vehicle_type_id":"4","last_reported":1706458036,"current_range_meters":26000,"station_id":"ce4bhpp2rcd13ifvqhfg","pricing_plan_id":"free"},{"bike_id":"753d6921-1f8f-42a9-a695-776f5a15aa39","system_id":"levelo_inurba_marseille","lat":43.29897,"lon":5.436648,"is_reserved":false,"is_disabled":false,"rental_uris":{"android":"levelo://app?vid=753d6921-1f8f-42a9-a695-776f5a15aa39","ios":"levelo://app?vid=753d6921-1f8f-42a9-a695-776f5a15aa39"},"vehicle_type_id":"4","last_reported":1706458036,"current_range_meters":27200,"station_id":"ce4bhpp2rcd13ifvqhfg","pricing_plan_id":"free"},{"bike_id":"294d5a81-90a5-448e-8dff-44f90a983101","system_id":"levelo_inurba_marseille","lat":43.29897,"lon":5.43665,"is_reserved":false,"is_disabled":false,"rental_uris":{"android":"levelo://app?vid=294d5a81-90a5-448e-8dff-44f90a983101","ios":"levelo://app?vid=294d5a81-90a5-448e-8dff-44f90a983101"},"vehicle_type_id":"4","last_reported":1706458036,"current_range_meters":22000,"station_id":"ce4bhpp2rcd13ifvqhfg","pricing_plan_id":"free"},{"bike_id":"19b6c936-7624-4b1b-abf3-c3b6c72d9f1e","system_id":"levelo_inurba_marseille","lat":43.29897,"lon":5.43673,"is_reserved":false,"is_disabled":false,"rental_uris":{"android":"levelo://app?vid=19b6c936-7624-4b1b-abf3-c3b6c72d9f1e","ios":"levelo://app?vid=19b6c936-7624-4b1b-abf3-c3b6c72d9f1e"},"vehicle_type_id":"4","last_reported":1706458036,"current_range_meters":0,"station_id":"ce4bhpp2rcd13ifvqhfg","pricing_plan_id":"free"},{"bike_id":"b9c297e9-a4f0-43ee-b803-e7cc171f3969","system_id":"levelo_inurba_marseille","lat":43.28157,"lon":5.42643,"is_reserved":false,"is_disabled":false,"rental_uris":{"android":"levelo://app?vid=b9c297e9-a4f0-43ee-b803-e7cc171f3969","ios":"levelo://app?vid=b9c297e9-a4f0-43ee-b803-e7cc171f3969"},"vehicle_type_id":"4","last_reported":1706458036,"current_range_meters":0,"station_id":"ce4bhnh2rcd13ifvqgug","pricing_plan_id":"free"},{"bike_id":"878751e1-ddfb-457f-aa6f-f71b34a3f5ee","system_id":"levelo_inurba_marseille","lat":43.281548,"lon":5.42643,"is_reserved":false,"is_disabled":false,"rental_uris":{"android":"levelo://app?vid=878751e1-ddfb-457f-aa6f-f71b34a3f5ee","ios":"levelo://app?vid=878751e1-ddfb-457f-aa6f-f71b34a3f5ee"},"vehicle_type_id":"4","last_reported":1706458036,"current_range_meters":18400,"station_id":"ce4bhnh2rcd13ifvqgug","pricing_plan_id":"free"},{"bike_id":"0ae55a9b-4fac-4307-93a4-3081d0859a4f","system_id":"levelo_inurba_marseille","lat":43.326157,"lon":5.43815,"is_reserved":false,"is_disabled":false,"rental_uris":{"android":"levelo://app?vid=0ae55a9b-4fac-4307-93a4-3081d0859a4f","ios":"levelo://app?vid=0ae55a9b-4fac-4307-93a4-3081d0859a4f"},"vehicle_type_id":"4","last_reported":1706458036,"current_range_meters":18800,"station_id":"","pricing_plan_id":"free"},{"bike_id":"135f9e87-e836-47f2-bcad-8d53513c1150","system_id":"levelo_inurba_marseille","lat":43.2607,"lon":5.393983,"is_reserved":false,"is_disabled":false,"rental_uris":{"android":"levelo://app?vid=135f9e87-e836-47f2-bcad-8d53513c1150","ios":"levelo://app?vid=135f9e87-e836-47f2-bcad-8d53513c1150"},"vehicle_type_id":"4","last_reported":1706458036,"current_range_meters":20400,"station_id":"ce4bhh92rcd13ifvqfj0","pricing_plan_id":"free"},{"bike_id":"8349dec1-a5c2-45df-9264-4799e71e5621","system_id":"levelo_inurba_marseille","lat":43.2607,"lon":5.393983,"is_reserved":false,"is_disabled":false,"rental_uris":{"android":"levelo://app?vid=8349dec1-a5c2-45df-9264-4799e71e5621","ios":"levelo://app?vid=8349dec1-a5c2-45df-9264-4799e71e5621"},"vehicle_type_id":"4","last_reported":1706458036,"current_range_meters":0,"station_id":"ce4bhh92rcd13ifvqfj0","pricing_plan_id":"free"},{"bike_id":"cfc4b1dd-e628-4917-bf3c-41e8678cc630","system_id":"levelo_inurba_marseille","lat":43.275028,"lon":5.424534,"is_reserved":false,"is_disabled":false,"rental_uris":{"android":"levelo://app?vid=cfc4b1dd-e628-4917-bf3c-41e8678cc630","ios":"levelo://app?vid=cfc4b1dd-e628-4917-bf3c-41e8678cc630"},"vehicle_type_id":"4","last_reported":1706458036,"current_range_meters":31200,"station_id":"ce4bhn92rcd13ifvqgrg","pricing_plan_id":"free"},{"bike_id":"9e840305-fbd9-4f32-87ff-66ac5fd91d30","system_id":"levelo_inurba_marseille","lat":43.275028,"lon":5.424534,"is_reserved":false,"is_disabled":false,"rental_uris":{"android":"levelo://app?vid=9e840305-fbd9-4f32-87ff-66ac5fd91d30","ios":"levelo://app?vid=9e840305-fbd9-4f32-87ff-66ac5fd91d30"},"vehicle_type_id":"4","last_reported":1706458036,"current_range_meters":24000,"station_id":"ce4bhn92rcd13ifvqgrg","pricing_plan_id":"free"},