{"last_updated":1746353381,"ttl":60,"version":"2.2","data":{"bikes":[{"bike_id":"587033e8-9114-4237-990e-deafe4f5ad79","system_id":"levelo_inurba_marseille","lat":43.24265,"lon":5.3706,"is_reserved":false,"is_disabled":true,"rental_uris":{"android":"levelo://app?vid=587033e8-9114-4237-990e-deafe4f5ad79","ios":"levelo://app?vid=587033e8-9114-4237-990e-deafe4f5ad79"},"vehicle_type_id":"4","last_reported":1746353381,"current_range_meters":0,"station_id":"","pricing_plan_id":"cebpf4jnsgd1na2vs0mg"},{"bike_id":"809bed10-4535-4849-82b6-9eb9b3abb1f1","system_id":"levelo_inurba_marseille","lat":43.31194,"lon":5.38434,"is_reserved":false,"is_disabled":true,"rental_uris":{"android":"levelo://app?vid=809bed10-4535-4849-82b6-9eb9b3abb1f1","ios":"levelo://app?vid=809bed10-4535-4849-82b6-9eb9b3abb1f1"},"vehicle_type_id":"4","last_reported":1746353381,"current_range_meters":0,"station_id":"","pricing_plan_id":"cebpf4jnsgd1na2vs0mg"},{"bike_id":"473f7f60-227e-489e-8741-76484dd86a32","system_id":"levelo_inurba_marseille","lat":43.247356,"lon":5.374013,"is_reserved":false,"is_disabled":true,"rental_uris":{"android":"levelo://app?vid=473f7f60-227e-489e-8741-76484dd86a32","ios":"levelo://app?vid=473f7f60-227e-489e-8741-76484dd86a32"},"vehicle_type_id":"4","last_reported":1746353381,"current_range_meters":0,"station_id":"","pricing_plan_id":"cebpf4jnsgd1na2vs0mg"},{"bike_id":"2d87f24b-bb92-4f5a-9c64-611905425c8d","system_id":"levelo_inurba_marseille","lat":43.23667,"lon":5.39143,"is_reserved":false,"is_disabled":true,"rental_uris":{"android":"levelo://app?vid=2d87f24b-bb92-4f5a-9c64-611905425c8d","ios":"levelo://app?vid=2d87f24b-bb92-4f5a-9c64-611905425c8d"},"vehicle_type_id":"4","last_reported":1746353381,"current_range_meters":0,"station_id":"","pricing_plan_id":"cebpf4jnsgd1na2vs0mg"},{"bike_id":"f8ed3da3-257f-43f9-aeb2-c30049fb8137","system_id":"levelo_inurba_marseille","lat":43.233284,"lon":5.361424,"is_reserved":false,"is_disabled":true,"rental_uris":{"android":"levelo://app?vid=f8ed3da3-257f-43f9-aeb2-c30049fb8137","ios":"levelo://app?vid=f8ed3da3-257f-43f9-aeb2-c30049fb8137"},"vehicle_type_id":"4","last_reported":1746353381,"current_range_meters":0,"station_id":"","pricing_plan_id":"cebpf4jnsgd1na2vs0mg"},{"bike_id":"f35a4c3e-288c-46e6-a156-ce98b822e31c","system_id":"levelo_inurba_marseille","lat":43.26606,"lon":5.39383,"is_reserved":false,"is_disabled":true,"rental_uris":{"android":"levelo://app?vid=f35a4c3e-288c-46e6-a156-ce98b822e31c","ios":"levelo://app?vid=f35a4c3e-288c-46e6-a156-ce98b822e31c"},"vehicle_type_id":"4","last_reported":1746353381,"current_range_meters":0,"station_id":"","pricing_plan_id":"cebpf4jnsgd1na2vs0mg"},{"bike_id":"7f770ba9-2e48-47c9-8bb4-942855273bad","system_id":"levelo_inurba_marseille","lat":43.25318,"lon":5.4241,"is_reserved":false,"is_disabled":true,"rental_uris":{"android":"levelo://app?vid=7f770ba9-2e48-47c9-8bb4-942855273bad","ios":"levelo://app?vid=7f770ba9-2e48-47c9-8bb4-942855273bad"},"vehicle_type_id":"4","last_reported":1746353381,"current_range_meters":0,"station_id":"","pricing_plan_id":"cebpf4jnsgd1na2vs0mg"},{"bike_id":"f73daf93-45c7-48c0-a61a-2d28ac89db8d","system_id":"levelo_inurba_marseille","lat":43.33899,"lon":5.42046,"is_reserved":false,"is_disabled":true,"rental_uris":{"android":"levelo://app?vid=f73daf93-45c7-48c0-a61a-2d28ac89db8d","ios":"levelo://app?vid=f73daf93-45c7-48c0-a61a-2d28ac89db8d"},"vehicle_type_id":"4","last_reported":1746353381,"current_range_meters":0,"station_id":"","pricing_plan_id":"cebpf4jnsgd1na2vs0mg"},{"bike_id":"e93b949e-1738-47f2-ad13-8f512df2ffaf","system_id":"levelo_inurba_marseille","lat":43.28141,"lon":5.44381,"is_reserved":false,"is_disabled":true,"rental_uris":{"android":"levelo://app?vid=e93b949e-1738-47f2-ad13-8f512df2ffaf","ios":"levelo://app?vid=e93b949e-1738-47f2-ad13-8f512df2ffaf"},"vehicle_type_id":"4","last_reported":1746353381,"current_range_meters":0,"station_id":"","pricing_plan_id":"cebpf4jnsgd1na2vs0mg"},{"bike_id":"fc957e4a-6d17-4a74-87c3-72c3cf5ce821","system_id":"levelo_inurba_marseille","lat":43.30729,"lon":5.4243,"is_reserved":false,"is_disabled":true,"rental_uris":{"android":"levelo://app?vid=fc957e4a-6d17-4a74-87c3-72c3cf5ce821","ios":"levelo://app?vid=fc957e4a-6d17-4a74-87c3-72c3cf5ce821"},"vehicle_type_id":"4","last_reported":1746353381,"current_range_meters":0,"station_id":"st_cvj6ca6bvosntc0bfgr0","pricing_plan_id":"cebpf4jnsgd1na2vs0mg"},{"bike_id":"25158299-13cd-4e74-b68f-833a4cc69dce","system_id":"levelo_inurba_marseille","lat":43.30309,"lon":5.39198,"is_reserved":false,"is_disabled":true,"rental_uris":{"android":"levelo://app?vid=25158299-13cd-4e74-b68f-833a4cc69dce","ios":"levelo://app?vid=25158299-13cd-4e74-b68f-833a4cc69dce"},"vehicle_type_id":"4","last_reported":1746353381,"current_range_meters":800,"station_id":"ce4bgkh2rcd13ifvqbk0","pricing_plan_id":"cebpf4jnsgd1na2vs0mg"},{"bike_id":"5cb92efc-d8d4-484d-a43e-2a1cc351b386","system_id":"levelo_inurba_marseille","lat":43.2417,"lon":5.36383,"is_reserved":false,"is_disabled":true,"rental_uris":{"android":"levelo://app?vid=5cb92efc-d8d4-484d-a43e-2a1cc351b386","ios":"levelo://app?vid=5cb92efc-d8d4-484d-a43e-2a1cc351b386"},"vehicle_type_id":"4","last_reported":1746353381,"current_range_meters":2000,"station_id":"cpo36qri1sfpv3e86is0","pricing_plan_id":"cebpf4jnsgd1na2vs0mg"},{"bike_id":"20a0161f-8c97-41c6-b725-2c48f8bc5d22","system_id":"levelo_inurba_marseille","lat":43.33051,"lon":5.3944,"is_reserved":false,"is_disabled":false,"rental_uris":{"android":"levelo://app?vid=20a0161f-8c97-41c6-b725-2c48f8bc5d22","ios":"levelo://app?vid=20a0161f-8c97-41c6-b725-2c48f8bc5d22"},"vehicle_type_id":"4","last_reported":1746353381,"current_range_meters":2800,"station_id":"","pricing_plan_id":"cebpf4jnsgd1na2vs0mg"},{"bike_id":"20128e84-93ae-4d65-b261-8c473a3a46a7","system_id":"levelo_inurba_marseille","lat":43.31541,"lon":5.380306,"is_reserved":false,"is_disabled":false,"rental_uris":{"android":"levelo://app?vid=20128e84-93ae-4d65-b261-8c473a3a46a7","ios":"levelo://app?vid=20128e84-93ae-4d65-b261-8c473a3a46a7"},"vehicle_type_id":"4","last_reported":1746353381,"current_range_meters":3200,"station_id":"ce4bhsp2rcd13ifvqi50","pricing_plan_id":"cebpf4jnsgd1na2vs0mg"},{"bike_id":"343558bc-7f35-44a3-aec0-03f28380f248","system_id":"levelo_inurba_marseille","lat":43.2619,"lon":5.37466,"is_reserved":false,"is_disabled":false,"rental_uris":{"android":"levelo://app?vid=343558bc-7f35-44a3-aec0-03f28380f248","ios":"levelo://app?vid=343558bc-7f35-44a3-aec0-03f28380f248"},"vehicle_type_id":"4","last_reported":1746353381,"current_range_meters":4000,"station_id":"ce4bhgp2rcd13ifvqfc0","pricing_plan_id":"cebpf4jnsgd1na2vs0mg"},{"bike_id":"edc29d32-60c0-4525-a5e6-e9854285e519","system_id":"levelo_inurba_marseille","lat":43.28353,"lon":5.38105,"is_reserved":false,"is_disabled":false,"rental_uris":{"android":"levelo://app?vid=edc29d32-60c0-4525-a5e6-e9854285e519","ios":"levelo://app?vid=edc29d32-60c0-4525-a5e6-e9854285e519"},"vehicle_type_id":"4","last_reported":1746353381,"current_range_meters":4400,"station_id":"ce4bh412rcd13ifvqdr0","pricing_plan_id":"cebpf4jnsgd1na2vs0mg"},{"bike_id":"570b486c-50df-4f1f-97df-caa86c0d419e","system_id":"levelo_inurba_marseille","lat":43.33711,"lon":5.35557,"is_reserved":false,"is_disabled":false,"rental_uris":{"android":"levelo://app?vid=570b486c-50df-4f1f-97df-caa86c0d419e","ios":"levelo://app?vid=570b486c-50df-4f1f-97df-caa86c0d419e"},"vehicle_type_id":"4","last_reported":1746353381,"current_range_meters":5600,"station_id":"","pricing_plan_id":"cebpf4jnsgd1na2vs0mg"},{"bike_id":"909825d5-7ad2-409e-b0de-cec7d5b4fa06","system_id":"levelo_inurba_marseille","lat":43.242121,"lon":5.367428,"is_reserved":false,"is_disabled":false,"rental_uris":{"android":"levelo://app?vid=909825d5-7ad2-409e-b0de-cec7d5b4fa06","ios":"levelo://app?vid=909825d5-7ad2-409e-b0de-cec7d5b4fa06"},"vehicle_type_id":"4","last_reported":1746353381,"current_range_meters":5600,"station_id":"","pricing_plan_id":"cebpf4jnsgd1na2vs0mg"},{"bike_id":"dd735efb-16eb-4258-b59b-9df53ee8c86d","system_id":"levelo_inurba_marseille","lat":43.28934,"lon":5.39627,"is_reserved":false,"is_disabled":false,"rental_uris":{"android":"levelo://app?vid=dd735efb-16eb-4258-b59b-9df53ee8c86d","ios":"levelo://app?vid=dd735efb-16eb-4258-b59b-9df53ee8c86d"},"vehicle_type_id":"4","last_reported":1746353381,"current_range_meters":5600,"station_id":"ce4bh3h2rcd13ifvqdn0","pricing_plan_id":"cebpf4jnsgd1na2vs0mg"},{"bike_id":"fb0ef1b7-8d63-4e2e-9300-17046a3c70f7","system_id":"levelo_inurba_marseille","lat":43.28416,"lon":5.37512,"is_reserved":false,"is_disabled":false,"rental_uris":{"android":"levelo://app?vid=fb0ef1b7-8d63-4e2e-9300-17046a3c70f7","ios":"levelo://app?vid=fb0ef1b7-8d63-4e2e-9300-17046a3c70f7"},"vehicle_type_id":"4","last_reported":1746353381,"current_range_meters":5600,"station_id":"ce4bh412rcd13ifvqds0","pricing_plan_id":"cebpf4jnsgd1na2vs0mg"},{"bike_id":"e27ce41e-d31e-4411-a762-387f29d91877","system_id":"levelo_inurba_marseille","lat":43.29596,"lon":5.42196,"is_reserved":false,"is_disabled":false,"rental_uris":{"android":"levelo://app?vid=e27ce41e-d31e-4411-a762-387f29d91877","ios":"levelo://app?vid=e27ce41e-d31e-4411-a762-387f29d91877"},"vehicle_type_id":"4","last_reported":1746353381,"current_range_meters":6000,"station_id":"","pricing_plan_id":"cebpf4jnsgd1na2vs0mg"},{"bike_id":"f079f1ef-ae30-43bb-81fc-cf5a82bf6df9","system_id":"levelo_inurba_marseille","lat":43.31489,"lon":5.3731,"is_reserved":false,"is_disabled":false,"rental_uris":{"android":"levelo://app?vid=f079f1ef-ae30-43bb-81fc-cf5a82bf6df9","ios":"levelo://app?vid=f079f1ef-ae30-43bb-81fc-cf5a82bf6df9"},"vehicle_type_id":"4","last_reported":1746353381,"current_range_meters":6000,"station_id":"ce4bgt12rcd13ifvqcd0","pricing_plan_id":"cebpf4jnsgd1na2vs0mg"},{"bike_id":"ace3c8a8-5487-4453-aa85-37b1b80b1fda","system_id":"levelo_inurba_marseille","lat":43.26687,"lon":5.38271,"is_reserved":false,"is_disabled":false,"rental_uris":{"android":"levelo://app?vid=ace3c8a8-5487-4453-aa85-37b1b80b1fda","ios":"levelo://app?vid=ace3c8a8-5487-4453-aa85-37b1b80b1fda"},"vehicle_type_id":"4","last_reported":1746353381,"current_range_meters":6000,"station_id":"ce4bhg92rcd13ifvqf90","pricing_plan_id":"cebpf4jnsgd1na2vs0mg"},{"bike_id":"39d83911-e17e-4776-b8f2-6450602c8696","system_id":"levelo_inurba_marseille","lat":43.298943,"lon":5.436586,"is_reserved":false,"is_disabled":false,"rental_uris":{"android":"levelo://app?vid=39d83911-e17e-4776-b8f2-6450602c8696","ios":"levelo://app?vid=39d83911-e17e-4776-b8f2-6450602c8696"},"vehicle_type_id":"4","last_reported":1746353381,"current_range_meters":6000,"station_id":"ce4bhpp2rcd13ifvqhfg","pricing_plan_id":"cebpf4jnsgd1na2vs0mg"},{"bike_id":"069410e1-cf42-4548-9474-15893b2c2e8b","system_id":"levelo_inurba_marseille","lat":43.29844,"lon":5.36275,"is_reserved":false,"is_disabled":false,"rental_uris":{"android":"levelo://app?vid=069410e1-cf42-4548-9474-15893b2c2e8b","ios":"levelo://app?vid=069410e1-cf42-4548-9474-15893b2c2e8b"},"vehicle_type_id":"4","last_reported":1746353381,"current_range_meters":6400,"station_id":"ce4bgpp2rcd13ifvqc3g","pricing_plan_id":"cebpf4jnsgd1na2vs0mg"},{"bike_id":"db9be0c1-80d5-4315-9367-2a96fca91123","system_id":"levelo_inurba_marseille","lat":43.30638,"lon":5.40064,"is_reserved":false,"is_disabled":false,"rental_uris":{"android":"levelo://app?vid=db9be0c1-80d5-4315-9367-2a96fca91123","ios":"levelo://app?vid=db9be0c1-80d5-4315-9367-2a96fca91123"},"vehicle_type_id":"4","last_reported":1746353381,"current_range_meters":6400,"station_id":"ce4bh112rcd13ifvqda0","pricing_plan_id":"cebpf4jnsgd1na2vs0mg"},{"bike_id":"6012e73f-a97d-4080-8451-31be47c04cb3","system_id":"levelo_inurba_marseille","lat":43.241611,"lon":5.397232,"is_reserved":false,"is_disabled":false,"rental_uris":{"android":"levelo://app?vid=6012e73f-a97d-4080-8451-31be47c04cb3","ios":"levelo://app?vid=6012e73f-a97d-4080-8451-31be47c04cb3"},"vehicle_type_id":"4","last_reported":1746353381,"current_range_meters":6400,"station_id":"ce4bhn12rcd13ifvqgpg","pricing_plan_id":"cebpf4jnsgd1na2vs0mg"},{"bike_id":"125ca05d-5a4c-4327-ae64-e200198cedf3","system_id":"levelo_inurba_marseille","lat":43.29556,"lon":5.42289,"is_reserved":false,"is_disabled":false,"rental_uris":{"android":"levelo://app?vid=125ca05d-5a4c-4327-ae64-e200198cedf3","ios":"levelo://app?vid=125ca05d-5a4c-4327-ae64-e200198cedf3"},"vehicle_type_id":"4","last_reported":1746353381,"current_range_meters":6400,"station_id":"ce4bhph2rcd13ifvqhdg","pricing_plan_id":"cebpf4jnsgd1na2vs0mg"},{"bike_id":"b7351ae1-b7b6-4733-8649-24bbbdfba4ca","system_id":"levelo_inurba_marseille","lat":43.21771,"lon":5.34591,"is_reserved":false,"is_disabled":false,"rental_uris":{"android":"levelo://app?vid=b7351ae1-b7b6-4733-8649-24bbbdfba4ca","ios":"levelo://app?vid=b7351ae1-b7b6-4733-8649-24bbbdfba4ca"},"vehicle_type_id":"4","last_reported":1746353381,"current_range_meters":6400,"station_id":"st_cvj6r9ubvosntc0bgbag","pricing_plan_id":"cebpf4jnsgd1na2vs0mg"},{"bike_id":"fefd08ec-5881-4aed-9781-2a8173dd5fb9","system_id":"levelo_inurba_marseille","lat":43.29442,"lon":5.38254,"is_reserved":false,"is_disabled":false,"rental_uris":{"android":"levelo://app?vid=fefd08ec-5881-4aed-9781-2a8173dd5fb9","ios":"levelo://app?vid=fefd08ec-5881-4aed-9781-2a8173dd5fb9"},"vehicle_type_id":"4","last_reported":1746353381,"current_range_meters":6800,"station_id":"","pricing_plan_id":"cebpf4jnsgd1na2vs0mg"},{"bike_id":"427a5f53-4d84-40c9-ac3d-8452b02eb96e","system_id":"levelo_inurba_marseille","lat":43.30424,"lon":5.39736,"is_reserved":false,"is_disabled":false,"rental_uris":{"android":"levelo://app?vid=427a5f53-4d84-40c9-ac3d-8452b02eb96e","ios":"levelo://app?vid=427a5f53-4d84-40c9-ac3d-8452b02eb96e"},"vehicle_type_id":"4","last_reported":1746353381,"current_range_meters":6800,"station_id":"ce4bh092rcd13ifvqd20","pricing_plan_id":"cebpf4jnsgd1na2vs0mg"},{"bike_id":"dfb3396e-96f5-457c-af11-f6f27dad33e9","system_id":"levelo_inurba_marseille","lat":43.27195,"lon":5.36467,"is_reserved":false,"is_disabled":false,"rental_uris":{"android":"levelo://app?vid=dfb3396e-96f5-457c-af11-f6f27dad33e9","ios":"levelo://app?vid=dfb3396e-96f5-457c-af11-f6f27dad33e9"},"vehicle_type_id":"4","last_reported":1746353381,"current_range_meters":7200,"station_id":"","pricing_plan_id":"cebpf4jnsgd1na2vs0mg"},{"bike_id":"8df6e310-0880-40a9-a691-cd475dfa3928","system_id":"levelo_inurba_marseille","lat":43.28586,"lon":5.44256,"is_reserved":false,"is_disabled":false,"rental_uris":{"android":"levelo://app?vid=8df6e310-0880-40a9-a691-cd475dfa3928","ios":"levelo://app?vid=8df6e310-0880-40a9-a691-cd475dfa3928"},"vehicle_type_id":"4","last_reported":1746353381,"current_range_meters":7200,"station_id":"","pricing_plan_id":"cebpf4jnsgd1na2vs0mg"},{"bike_id":"6bcb6bbd-6faf-4695-b734-9958f31ebb04","system_id":"levelo_inurba_marseille","lat":43.255,"lon":5.37649,"is_reserved":false,"is_disabled":false,"rental_uris":{"android":"levelo://app?vid=6bcb6bbd-6faf-4695-b734-9958f31ebb04","ios":"levelo://app?vid=6bcb6bbd-6faf-4695-b734-9958f31ebb04"},"vehicle_type_id":"4","last_reported":1746353381,"current_range_meters":7200,"station_id":"ce4bhh12rcd13ifvqff0","pricing_plan_id":"cebpf4jnsgd1na2vs0mg"},{"bike_id":"d1b80fc2-f795-44b4-b467-b83495b681df","system_id":"levelo_inurba_marseille","lat":43.30421,"lon":5.41286,"is_reserved":false,"is_disabled":false,"rental_uris":{"android":"levelo://app?vid=d1b80fc2-f795-44b4-b467-b83495b681df","ios":"levelo://app?vid=d1b80fc2-f795-44b4-b467-b83495b681df"},"vehicle_type_id":"4","last_reported":1746353381,"current_range_meters":7200,"station_id":"ce4bhop2rcd13ifvqh8g","pricing_plan_id":"cebpf4jnsgd1na2vs0mg"},{"bike_id":"de98dd11-d3ad-4e41-9e04-ac96760764e1","system_id":"levelo_inurba_marseille","lat":43.30397,"lon":5.41289,"is_reserved":false,"is_disabled":false,"rental_uris":{"android":"levelo://app?vid=de98dd11-d3ad-4e41-9e04-ac96760764e1","ios":"levelo://app?vid=de98dd11-d3ad-4e41-9e04-ac96760764e1"},"vehicle_type_id":"4","last_reported":1746353381,"current_range_meters":7200,"station_id":"ce4bhop2rcd13ifvqh8g","pricing_plan_id":"cebpf4jnsgd1na2vs0mg"},{"bike_id":"8df37787-a611-4ce6-9e65-032cb168f59b","system_id":"levelo_inurba_marseille","lat":43.21196,"lon":5.35068,"is_reserved":false,"is_disabled":false,"rental_uris":{"android":"levelo://app?vid=8df37787-a611-4ce6-9e65-032cb168f59b","ios":"levelo://app?vid=8df37787-a611-4ce6-9e65-032cb168f59b"},"vehicle_type_id":"4","last_reported":1746353381,"current_range_meters":7200,"station_id":"st_cvj6sg6p6f1abm77japg","pricing_plan_id":"cebpf4jnsgd1na2vs0mg"},{"bike_id":"d51bd1f8-5797-40a8-8b2d-1b322c3a66a4","system_id":"levelo_inurba_marseille","lat":43.30939,"lon":5.4013,"is_reserved":false,"is_disabled":false,"rental_uris":{"android":"levelo://app?vid=d51bd1f8-5797-40a8-8b2d-1b322c3a66a4","ios":"levelo://app?vid=d51bd1f8-5797-40a8-8b2d-1b322c3a66a4"},"vehicle_type_id":"4","last_reported":1746353381,"current_range_meters":8000,"station_id":"ce4bgvp2rcd13ifvqct0","pricing_plan_id":"cebpf4jnsgd1na2vs0mg"},{"bike_id":"600732d3-9514-449e-b769-247fee58edd3","system_id":"levelo_inurba_marseille","lat":43.29276,"lon":5.40113,"is_reserved":false,"is_disabled":false,"rental_uris":{"android":"levelo://app?vid=600732d3-9514-449e-b769-247fee58edd3","ios":"levelo://app?vid=600732d3-9514-449e-b769-247fee58edd3"},"vehicle_type_id":"4","last_reported":1746353381,"current_range_meters":8000,"station_id":"ce4bh312rcd13ifvqdk0","pricing_plan_id":"cebpf4jnsgd1na2vs0mg"},{"bike_id":"6d8a9333-00af-4b44-aa91-159a377c0c94","system_id":"levelo_inurba_marseille","lat":43.28266,"lon":5.35066,"is_reserved":false,"is_disabled":false,"rental_uris":{"android":"levelo://app?vid=6d8a9333-00af-4b44-aa91-159a377c0c94","ios":"levelo://app?vid=6d8a9333-00af-4b44-aa91-159a377c0c94"},"vehicle_type_id":"4","last_reported":1746353381,"current_range_meters":8000,"station_id":"ce4bhbp2rcd13ifvqerg","pricing_plan_id":"cebpf4jnsgd1na2vs0mg"},{"bike_id":"ee6fc684-f760-429d-b603-077f5f37f4bb","system_id":"levelo_inurba_marseille","lat":43.24385,"lon":5.37055,"is_reserved":false,"is_disabled":false,"rental_uris":{"android":"levelo://app?vid=ee6fc684-f760-429d-b603-077f5f37f4bb","ios":"levelo://app?vid=ee6fc684-f760-429d-b603-077f5f37f4bb"},"vehicle_type_id":"4","last_reported":1746353381,"current_range_meters":8000,"station_id":"ce4bhhh2rcd13ifvqfk0","pricing_plan_id":"cebpf4jnsgd1na2vs0mg"},{"bike_id":"f1ffd2b9-91e9-4bf5-a319-6e95940b0de6","system_id":"levelo_inurba_marseille","lat":43.295573,"lon":5.422804,"is_reserved":false,"is_disabled":false,"rental_uris":{"android":"levelo://app?vid=f1ffd2b9-91e9-4bf5-a319-6e95940b0de6","ios":"levelo://app?vid=f1ffd2b9-91e9-4bf5-a319-6e95940b0de6"},"vehicle_type_id":"4","last_reported":1746353381,"current_range_meters":8000,"station_id":"ce4bhph2rcd13ifvqhdg","pricing_plan_id":"cebpf4jnsgd1na2vs0mg"},{"bike_id":"6ae9068b-8534-47e2-832a-cb0e5255371d","system_id":"levelo_inurba_marseille","lat":43.337444,"lon":5.374475,"is_reserved":false,"is_disabled":false,"rental_uris":{"android":"levelo://app?vid=6ae9068b-8534-47e2-832a-cb0e5255371d","ios":"levelo://app?vid=6ae9068b-8534-47e2-832a-cb0e5255371d"},"vehicle_type_id":"4","last_reported":1746353381,"current_range_meters":8400,"station_id":"ce4bgvp2rcd13ifvqct0","pricing_plan_id":"cebpf4jnsgd1na2vs0mg"},{"bike_id":"8e84c543-c0b8-43f4-b752-e63ad30beb02","system_id":"levelo_inurba_marseille","lat":43.25498,"lon":5.37648,"is_reserved":false,"is_disabled":false,"rental_uris":{"android":"levelo://app?vid=8e84c543-c0b8-43f4-b752-e63ad30beb02","ios":"levelo://app?vid=8e84c543-c0b8-43f4-b752-e63ad30beb02"},"vehicle_type_id":"4","last_reported":1746353381,"current_range_meters":8400,"station_id":"ce4bhh12rcd13ifvqff0","pricing_plan_id":"cebpf4jnsgd1na2vs0mg"},{"bike_id":"f0259f55-382d-4317-a5a3-c63365a0d76b","system_id":"levelo_inurba_marseille","lat":43.25532,"lon":5.41794,"is_reserved":false,"is_disabled":false,"rental_uris":{"android":"levelo://app?vid=f0259f55-382d-4317-a5a3-c63365a0d76b","ios":"levelo://app?vid=f0259f55-382d-4317-a5a3-c63365a0d76b"},"vehicle_type_id":"4","last_reported":1746353381,"current_range_meters":8800,"station_id":"","pricing_plan_id":"cebpf4jnsgd1na2vs0mg"},{"bike_id":"24114e0a-929d-4272-ac4b-1ebc3c1c4c3f","system_id":"levelo_inurba_marseille","lat":43.31326,"lon":5.3969,"is_reserved":false,"is_disabled":false,"rental_uris":{"android":"levelo://app?vid=24114e0a-929d-4272-ac4b-1ebc3c1c4c3f","ios":"levelo://app?vid=24114e0a-929d-4272-ac4b-1ebc3c1c4c3f"},"vehicle_type_id":"4","last_reported":1746353381,"current_range_meters":8800,"station_id":"ce4bgvp2rcd13ifvqcu0","pricing_plan_id":"cebpf4jnsgd1na2vs0mg"},{"bike_id":"4d9c785a-6a14-4f60-8bcb-eb74d56c9262","system_id":"levelo_inurba_marseille","lat":43.271,"lon":5.42313,"is_reserved":false,"is_disabled":false,"rental_uris":{"android":"levelo://app?vid=4d9c785a-6a14-4f60-8bcb-eb74d56c9262","ios":"levelo://app?vid=4d9c785a-6a14-4f60-8bcb-eb74d56c9262"},"vehicle_type_id":"4","last_reported":1746353381,"current_range_meters":8800,"station_id":"ce4bhk92rcd13ifvqgb0","pricing_plan_id":"cebpf4jnsgd1na2vs0mg"},{"bike_id":"2f2e2422-0ca9-4635-8561-f770e540dc91","system_id":"levelo_inurba_marseille","lat":43.29803,"lon":5.36996,"is_reserved":false,"is_disabled":false,"rental_uris":{"android":"levelo://app?vid=2f2e2422-0ca9-4635-8561-f770e540dc91","ios":"levelo://app?vid=2f2e2422-0ca9-4635-8561-f770e540dc91"},"vehicle_type_id":"4","last_reported":1746353381,"current_range_meters":9200,"station_id":"","pricing_plan_id":"cebpf4jnsgd1na2vs0mg"},{"bike_id":"e4856e11-0139-477e-a022-4b979369719b","system_id":"levelo_inurba_marseille","lat":43.23958,"lon":5.3664,"is_reserved":false,"is_disabled":false,"rental_uris":{"android":"levelo://app?vid=e4856e11-0139-477e-a022-4b979369719b","ios":"levelo://app?vid=e4856e11-0139-477e-a022-4b979369719b"},"vehicle_type_id":"4","last_reported":1746353381,"current_range_meters":9600,"station_id":"ce4bhi12rcd13ifvqfp0","pricing_plan_id":"cebpf4jnsgd1na2vs0mg"},{"bike_id":"fd2c3c67-23a6-4380-b7ca-8f23c8f78921","system_id":"levelo_inurba_marseille","lat":43.323558,"lon":5.367473,"is_reserved":false,"is_disabled":false,"rental_uris":{"android":"levelo://app?vid=fd2c3c67-23a6-4380-b7ca-8f23c8f78921","ios":"levelo://app?vid=fd2c3c67-23a6-4380-b7ca-8f23c8f78921"},"vehicle_type_id":"4","last_reported":1746353381,"current_range_meters":9600,"station_id":"ce4bhsh2rcd13ifvqi2g","pricing_plan_id":"cebpf4jnsgd1na2vs0mg"},{"bike_id":"7c9f302f-84ec-4062-ae0c-5788a6786ad9","system_id":"levelo_inurba_marseille","lat":43.21746,"lon":5.3461,"is_reserved":false,"is_disabled":false,"rental_uris":{"android":"levelo://app?vid=7c9f302f-84ec-4062-ae0c-5788a6786ad9","ios":"levelo://app?vid=7c9f302f-84ec-4062-ae0c-5788a6786ad9"},"vehicle_type_id":"4","last_reported":1746353381,"current_range_meters":9600,"station_id":"st_cvj6r9ubvosntc0bgbag","pricing_plan_id":"cebpf4jnsgd1na2vs0mg"},{"bike_id":"c2c5beff-ec8e-48ee-825a-e3cdf2e54b49","system_id":"levelo_inurba_marseille","lat":43.292278,"lon":5.400061,"is_reserved":false,"is_disabled":false,"rental_uris":{"android":"levelo://app?vid=c2c5beff-ec8e-48ee-825a-e3cdf2e54b49","ios":"levelo://app?vid=c2c5beff-ec8e-48ee-825a-e3cdf2e54b49"},"vehicle_type_id":"4","last_reported":1746353381,"current_range_meters":10000,"station_id":"","pricing_plan_id":"cebpf4jnsgd1na2vs0mg"},{"bike_id":"6338e318-2f80-4349-ae11-615c887b4fb9","system_id":"levelo_inurba_marseille","lat":43.25915,"lon":5.40892,"is_reserved":false,"is_disabled":false,"rental_uris":{"android":"levelo://app?vid=6338e318-2f80-4349-ae11-615c887b4fb9","ios":"levelo://app?vid=6338e318-2f80-4349-ae11-615c887b4fb9"},"vehicle_type_id":"4","last_reported":1746353381,"current_range_meters":10000,"station_id":"ce4bhm92rcd13ifvqglg","pricing_plan_id":"cebpf4jnsgd1na2vs0mg"},{"bike_id":"ca7a629c-6dce-47e8-8b04-8b57930ea53a","system_id":"levelo_inurba_marseille","lat":43.241833,"lon":5.397258,"is_reserved":false,"is_disabled":false,"rental_uris":{"android":"levelo://app?vid=ca7a629c-6dce-47e8-8b04-8b57930ea53a","ios":"levelo://app?vid=ca7a629c-6dce-47e8-8b04-8b57930ea53a"},"vehicle_type_id":"4","last_reported":1746353381,"current_range_meters":10000,"station_id":"ce4bhn12rcd13ifvqgpg","pricing_plan_id":"cebpf4jnsgd1na2vs0mg"},{"bike_id":"d55c8237-2304-4efd-993e-dc727f0f1b6a","system_id":"levelo_inurba_marseille","lat":43.224891,"lon":5.347852,"is_reserved":false,"is_disabled":false,"rental_uris":{"android":"levelo://app?vid=d55c8237-2304-4efd-993e-dc727f0f1b6a","ios":"levelo://app?vid=d55c8237-2304-4efd-993e-dc727f0f1b6a"},"vehicle_type_id":"4","last_reported":1746353381,"current_range_meters":10000,"station_id":"st_cvj5dfep6f1abm77gieg","pricing_plan_id":"cebpf4jnsgd1na2vs0mg"},{"bike_id":"aedf206f-89f3-4f30-9da6-56fb7ff8915b","system_id":"levelo_inurba_marseille","lat":43.28111,"lon":5.403944,"is_reserved":false,"is_disabled":false,"rental_uris":{"android":"levelo://app?vid=aedf206f-89f3-4f30-9da6-56fb7ff8915b","ios":"levelo://app?vid=aedf206f-89f3-4f30-9da6-56fb7ff8915b"},"vehicle_type_id":"4","last_reported":1746353381,"current_range_meters":10800,"station_id":"","pricing_plan_id":"cebpf4jnsgd1na2vs0mg"},{"bike_id":"8418805a-0260-402d-aa6b-ec5b4da977d9","system_id":"levelo_inurba_marseille","lat":43.29165,"lon":5.37156,"is_reserved":false,"is_disabled":false,"rental_uris":{"android":"levelo://app?vid=8418805a-0260-402d-aa6b-ec5b4da977d9","ios":"levelo://app?vid=8418805a-0260-402d-aa6b-ec5b4da977d9"},"vehicle_type_id":"4","last_reported":1746353381,"current_range_meters":10800,"station_id":"ce4bha92rcd13ifvqeh0","pricing_plan_id":"cebpf4jnsgd1na2vs0mg"},{"bike_id":"4badb9b6-3851-4c8c-a36e-7c02f91ea1d9","system_id":"levelo_inurba_marseille","lat":43.21203,"lon":5.35056,"is_reserved":false,"is_disabled":false,"rental_uris":{"android":"levelo://app?vid=4badb9b6-3851-4c8c-a36e-7c02f91ea1d9","ios":"levelo://app?vid=4badb9b6-3851-4c8c-a36e-7c02f91ea1d9"},"vehicle_type_id":"4","last_reported":1746353381,"current_range_meters":10800,"station_id":"st_cvj6sg6p6f1abm77japg","pricing_plan_id":"cebpf4jnsgd1na2vs0mg"},{"bike_id":"0edfcdff-cc1d-4439-adaa-ea9e56b46c49","system_id":"levelo_inurba_marseille","lat":43.29043,"lon":5.39957,"is_reserved":false,"is_disabled":false,"rental_uris":{"android":"levelo://app?vid=0edfcdff-cc1d-4439-adaa-ea9e56b46c49","ios":"levelo://app?vid=0edfcdff-cc1d-4439-adaa-ea9e56b46c49"},"vehicle_type_id":"4","last_reported":1746353381,"current_range_meters":11200,"station_id":"ce4bh392rcd13ifvqdm0","pricing_plan_id":"cebpf4jnsgd1na2vs0mg"},{"bike_id":"eaf13fef-d394-46d7-897a-37d283c3f523","system_id":"levelo_inurba_marseille","lat":43.26578,"lon":5.37314,"is_reserved":false,"is_disabled":false,"rental_uris":{"android":"levelo://app?vid=eaf13fef-d394-46d7-897a-37d283c3f523","ios":"levelo://app?vid=eaf13fef-d394-46d7-897a-37d283c3f523"},"vehicle_type_id":"4","last_reported":1746353381,"current_range_meters":11200,"station_id":"ce4bhg12rcd13ifvqf70","pricing_plan_id":"cebpf4jnsgd1na2vs0mg"},{"bike_id":"77e5fc0c-8247-4eae-976e-b65c5c479c47","system_id":"levelo_inurba_marseille","lat":43.24396,"lon":5.37058,"is_reserved":false,"is_disabled":false,"rental_uris":{"android":"levelo://app?vid=77e5fc0c-8247-4eae-976e-b65c5c479c47","ios":"levelo://app?vid=77e5fc0c-8247-4eae-976e-b65c5c479c47"},"vehicle_type_id":"4","last_reported":1746353381,"current_range_meters":11600,"station_id":"ce4bhhh2rcd13ifvqfk0","pricing_plan_id":"cebpf4jnsgd1na2vs0mg"},{"bike_id":"e14f0e0b-57ce-42d5-80f6-e3d891b564d1","system_id":"levelo_inurba_marseille","lat":43.27071,"lon":5.4228,"is_reserved":false,"is_disabled":false,"rental_uris":{"android":"levelo://app?vid=e14f0e0b-57ce-42d5-80f6-e3d891b564d1","ios":"levelo://app?vid=e14f0e0b-57ce-42d5-80f6-e3d891b564d1"},"vehicle_type_id":"4","last_reported":1746353381,"current_range_meters":12400,"station_id":"ce4bhk92rcd13ifvqgb0","pricing_plan_id":"cebpf4jnsgd1na2vs0mg"},{"bike_id":"dffda755-2feb-41dd-8db8-12eafc41bdf7","system_id":"levelo_inurba_marseille","lat":43.31534,"lon":5.38026,"is_reserved":false,"is_disabled":false,"rental_uris":{"android":"levelo://app?vid=dffda755-2feb-41dd-8db8-12eafc41bdf7","ios":"levelo://app?vid=dffda755-2feb-41dd-8db8-12eafc41bdf7"},"vehicle_type_id":"4","last_reported":1746353381,"current_range_meters":12400,"station_id":"ce4bhsp2rcd13ifvqi50","pricing_plan_id":"cebpf4jnsgd1na2vs0mg"},{"bike_id":"b51e8583-0fb2-49ca-9c11-9dbce28dfa5d","system_id":"levelo_inurba_marseille","lat":43.23185,"lon":5.35549,"is_reserved":false,"is_disabled":false,"rental_uris":{"android":"levelo://app?vid=b51e8583-0fb2-49ca-9c11-9dbce28dfa5d","ios":"levelo://app?vid=b51e8583-0fb2-49ca-9c11-9dbce28dfa5d"},"vehicle_type_id":"4","last_reported":1746353381,"current_range_meters":12800,"station_id":"ce4bhu92rcd13ifvqi70","pricing_plan_id":"cebpf4jnsgd1na2vs0mg"},{"bike_id":"05fb8e53-690e-4c91-83ac-d946606b1d9d","system_id":"levelo_inurba_marseille","lat":43.31269,"lon":5.4017,"is_reserved":false,"is_disabled":false,"rental_uris":{"android":"levelo://app?vid=05fb8e53-690e-4c91-83ac-d946606b1d9d","ios":"levelo://app?vid=05fb8e53-690e-4c91-83ac-d946606b1d9d"},"vehicle_type_id":"4","last_reported":1746353381,"current_range_meters":13600,"station_id":"ce4bh092rcd13ifvqd30","pricing_plan_id":"cebpf4jnsgd1na2vs0mg"},{"bike_id":"d447b317-7fe8-4b25-a86f-02fbc65ddcfa","system_id":"levelo_inurba_marseille","lat":43.23149,"lon":5.43721,"is_reserved":false,"is_disabled":false,"rental_uris":{"android":"levelo://app?vid=d447b317-7fe8-4b25-a86f-02fbc65ddcfa","ios":"levelo://app?vid=d447b317-7fe8-4b25-a86f-02fbc65ddcfa"},"vehicle_type_id":"4","last_reported":1746353381,"current_range_meters":14000,"station_id":"ce4bhmp2rcd13ifvqgog","pricing_plan_id":"cebpf4jnsgd1na2vs0mg"},{"bike_id":"986ed733-1181-4f78-b119-7e644dd19458","system_id":"levelo_inurba_marseille","lat":43.30805,"lon":5.43519,"is_reserved":false,"is_disabled":false,"rental_uris":{"android":"levelo://app?vid=986ed733-1181-4f78-b119-7e644dd19458","ios":"levelo://app?vid=986ed733-1181-4f78-b119-7e644dd19458"},"vehicle_type_id":"4","last_reported":1746353381,"current_range_meters":14400,"station_id":"ce4bhph2rcd13ifvqheg","pricing_plan_id":"cebpf4jnsgd1na2vs0mg"},{"bike_id":"312e6dc5-5a5f-4ce6-98e3-476dd90df103","system_id":"levelo_inurba_marseille","lat":43.30146,"lon":5.38085,"is_reserved":false,"is_disabled":false,"rental_uris":{"android":"levelo://app?vid=312e6dc5-5a5f-4ce6-98e3-476dd90df103","ios":"levelo://app?vid=312e6dc5-5a5f-4ce6-98e3-476dd90df103"},"vehicle_type_id":"4","last_reported":1746353381,"current_range_meters":14800,"station_id":"ce4bgjp2rcd13ifvqbh0","pricing_plan_id":"cebpf4jnsgd1na2vs0mg"},{"bike_id":"b11eb535-5fd8-4c88-b2de-0a424a5727ce","system_id":"levelo_inurba_marseille","lat":43.2958,"lon":5.36752,"is_reserved":false,"is_disabled":false,"rental_uris":{"android":"levelo://app?vid=b11eb535-5fd8-4c88-b2de-0a424a5727ce","ios":"levelo://app?vid=b11eb535-5fd8-4c88-b2de-0a424a5727ce"},"vehicle_type_id":"4","last_reported":1746353381,"current_range_meters":14800,"station_id":"ce4bgph2rcd13ifvqc2g","pricing_plan_id":"cebpf4jnsgd1na2vs0mg"},{"bike_id":"696b71f0-972e-4fa6-831c-b2001014ab23","system_id":"levelo_inurba_marseille","lat":43.25119,"lon":5.40331,"is_reserved":false,"is_disabled":false,"rental_uris":{"android":"levelo://app?vid=696b71f0-972e-4fa6-831c-b2001014ab23","ios":"levelo://app?vid=696b71f0-972e-4fa6-831c-b2001014ab23"},"vehicle_type_id":"4","last_reported":1746353381,"current_range_meters":14800,"station_id":"ce4bhlh2rcd13ifvqgig","pricing_plan_id":"cebpf4jnsgd1na2vs0mg"},{"bike_id":"a9a52913-3211-4831-93c0-d5a3260c5002","system_id":"levelo_inurba_marseille","lat":43.24662,"lon":5.38168,"is_reserved":false,"is_disabled":false,"rental_uris":{"android":"levelo://app?vid=a9a52913-3211-4831-93c0-d5a3260c5002","ios":"levelo://app?vid=a9a52913-3211-4831-93c0-d5a3260c5002"},"vehicle_type_id":"4","last_reported":1746353381,"current_range_meters":15200,"station_id":"ce4bhih2rcd13ifvqfr0","pricing_plan_id":"cebpf4jnsgd1na2vs0mg"},{"bike_id":"073ee896-7ffd-4eeb-ba0c-a255d4c8e537","system_id":"levelo_inurba_marseille","lat":43.25705,"lon":5.41114,"is_reserved":false,"is_disabled":false,"rental_uris":{"android":"levelo://app?vid=073ee896-7ffd-4eeb-ba0c-a255d4c8e537","ios":"levelo://app?vid=073ee896-7ffd-4eeb-ba0c-a255d4c8e537"},"vehicle_type_id":"4","last_reported":1746353381,"current_range_meters":15200,"station_id":"ce4bhkp2rcd13ifvqgd0","pricing_plan_id":"cebpf4jnsgd1na2vs0mg"},{"bike_id":"ce7e06eb-b040-4a1c-b1b9-b8a759460472","system_id":"levelo_inurba_marseille","lat":43.25104,"lon":5.40338,"is_reserved":false,"is_disabled":false,"rental_uris":{"android":"levelo://app?vid=ce7e06eb-b040-4a1c-b1b9-b8a759460472","ios":"levelo://app?vid=ce7e06eb-b040-4a1c-b1b9-b8a759460472"},"vehicle_type_id":"4","last_reported":1746353381,"current_range_meters":15200,"station_id":"ce4bhlh2rcd13ifvqgig","pricing_plan_id":"cebpf4jnsgd1na2vs0mg"},{"bike_id":"e84eee43-7ebe-4b56-a08b-27d6e58561fd","system_id":"levelo_inurba_marseille","lat":43.241793,"lon":5.397321,"is_reserved":false,"is_disabled":false,"rental_uris":{"android":"levelo://app?vid=e84eee43-7ebe-4b56-a08b-27d6e58561fd","ios":"levelo://app?vid=e84eee43-7ebe-4b56-a08b-27d6e58561fd"},"vehicle_type_id":"4","last_reported":1746353381,"current_range_meters":15200,"station_id":"ce4bhn12rcd13ifvqgpg","pricing_plan_id":"cebpf4jnsgd1na2vs0mg"},{"bike_id":"fdef9e55-be0f-41e0-8526-8e8fa7260880","system_id":"levelo_inurba_marseille","lat":43.312823,"lon":5.37415,"is_reserved":false,"is_disabled":false,"rental_uris":{"android":"levelo://app?vid=fdef9e55-be0f-41e0-8526-8e8fa7260880","ios":"levelo://app?vid=fdef9e55-be0f-41e0-8526-8e8fa7260880"},"vehicle_type_id":"4","last_reported":1746353381,"current_range_meters":16000,"station_id":"","pricing_plan_id":"cebpf4jnsgd1na2vs0mg"},{"bike_id":"8a1c92bd-6777-477a-9eaf-2b1631a1f0a6","system_id":"levelo_inurba_marseille","lat":43.30931,"lon":5.40141,"is_reserved":false,"is_disabled":false,"rental_uris":{"android":"levelo://app?vid=8a1c92bd-6777-477a-9eaf-2b1631a1f0a6","ios":"levelo://app?vid=8a1c92bd-6777-477a-9eaf-2b1631a1f0a6"},"vehicle_type_id":"4","last_reported":1746353381,"current_range_meters":16000,"station_id":"ce4bgvp2rcd13ifvqct0","pricing_plan_id":"cebpf4jnsgd1na2vs0mg"},{"bike_id":"7ebb70cc-fd03-475b-980f-aca77de5d23a","system_id":"levelo_inurba_marseille","lat":43.3093,"lon":5.4016,"is_reserved":false,"is_disabled":false,"rental_uris":{"android":"levelo://app?vid=7ebb70cc-fd03-475b-980f-aca77de5d23a","ios":"levelo://app?vid=7ebb70cc-fd03-475b-980f-aca77de5d23a"},"vehicle_type_id":"4","last_reported":1746353381,"current_range_meters":16000,"station_id":"ce4bgvp2rcd13ifvqct0","pricing_plan_id":"cebpf4jnsgd1na2vs0mg"},{"bike_id":"43f220ab-0408-46b3-abe5-60437ce3bc1e","system_id":"levelo_inurba_marseille","lat":43.231886,"lon":5.355612,"is_reserved":false,"is_disabled":false,"rental_uris":{"android":"levelo://app?vid=43f220ab-0408-46b3-abe5-60437ce3bc1e","ios":"levelo://app?vid=43f220ab-0408-46b3-abe5-60437ce3bc1e"},"vehicle_type_id":"4","last_reported":1746353381,"current_range_meters":16000,"station_id":"ce4bhu92rcd13ifvqi70","pricing_plan_id":"cebpf4jnsgd1na2vs0mg"},{"bike_id":"95bc48de-36b0-4032-80c5-402f0231642b","system_id":"levelo_inurba_marseille","lat":43.31716,"lon":5.40429,"is_reserved":false,"is_disabled":false,"rental_uris":{"android":"levelo://app?vid=95bc48de-36b0-4032-80c5-402f0231642b","ios":"levelo://app?vid=95bc48de-36b0-4032-80c5-402f0231642b"},"vehicle_type_id":"4","last_reported":1746353381,"current_range_meters":16400,"station_id":"","pricing_plan_id":"cebpf4jnsgd1na2vs0mg"},{"bike_id":"d94ace2f-a694-4d2b-9fa0-6d215239b455","system_id":"levelo_inurba_marseille","lat":43.243872,"lon":5.370686,"is_reserved":false,"is_disabled":false,"rental_uris":{"android":"levelo://app?vid=d94ace2f-a694-4d2b-9fa0-6d215239b455","ios":"levelo://app?vid=d94ace2f-a694-4d2b-9fa0-6d215239b455"},"vehicle_type_id":"4","last_reported":1746353381,"current_range_meters":16800,"station_id":"ce4bhhh2rcd13ifvqfk0","pricing_plan_id":"cebpf4jnsgd1na2vs0mg"},{"bike_id":"44a4c1aa-e659-41ae-8ef4-e3bc1e502d2a","system_id":"levelo_inurba_marseille","lat":43.323593,"lon":5.367542,"is_reserved":false,"is_disabled":false,"rental_uris":{"android":"levelo://app?vid=44a4c1aa-e659-41ae-8ef4-e3bc1e502d2a","ios":"levelo://app?vid=44a4c1aa-e659-41ae-8ef4-e3bc1e502d2a"},"vehicle_type_id":"4","last_reported":1746353381,"current_range_meters":16800,"station_id":"ce4bhsh2rcd13ifvqi2g","pricing_plan_id":"cebpf4jnsgd1na2vs0mg"},{"bike_id":"0abe7365-362a-4c2d-949a-e32faf9d4099","system_id":"levelo_inurba_marseille","lat":43.212,"lon":5.35046,"is_reserved":false,"is_disabled":false,"rental_uris":{"android":"levelo://app?vid=0abe7365-362a-4c2d-949a-e32faf9d4099","ios":"levelo://app?vid=0abe7365-362a-4c2d-949a-e32faf9d4099"},"vehicle_type_id":"4","last_reported":1746353381,"current_range_meters":17600,"station_id":"","pricing_plan_id":"cebpf4jnsgd1na2vs0mg"},{"bike_id":"0a0ece37-539d-4aa3-b235-deb8a4daf593","system_id":"levelo_inurba_marseille","lat":43.33077,"lon":5.4083,"is_reserved":false,"is_disabled":false,"rental_uris":{"android":"levelo://app?vid=0a0ece37-539d-4aa3-b235-deb8a4daf593","ios":"levelo://app?vid=0a0ece37-539d-4aa3-b235-deb8a4daf593"},"vehicle_type_id":"4","last_reported":1746353381,"current_range_meters":17600,"station_id":"","pricing_plan_id":"cebpf4jnsgd1na2vs0mg"},{"bike_id":"f861928d-54fe-4602-a72a-3e73aa56b797","system_id":"levelo_inurba_marseille","lat":43.27087,"lon":5.42267,"is_reserved":false,"is_disabled":false,"rental_uris":{"android":"levelo://app?vid=f861928d-54fe-4602-a72a-3e73aa56b797","ios":"levelo://app?vid=f861928d-54fe-4602-a72a-3e73aa56b797"},"vehicle_type_id":"4","last_reported":1746353381,"current_range_meters":18000,"station_id":"ce4bhk92rcd13ifvqgb0","pricing_plan_id":"cebpf4jnsgd1na2vs0mg"},{"bike_id":"2e0107ea-16d0-4586-b083-e458fd6adb9f","system_id":"levelo_inurba_marseille","lat":43.2318,"lon":5.399835,"is_reserved":false,"is_disabled":false,"rental_uris":{"android":"levelo://app?vid=2e0107ea-16d0-4586-b083-e458fd6adb9f","ios":"levelo://app?vid=2e0107ea-16d0-4586-b083-e458fd6adb9f"},"vehicle_type_id":"4","last_reported":1746353381,"current_range_meters":18000,"station_id":"ce4bhn12rcd13ifvqgqg","pricing_plan_id":"cebpf4jnsgd1na2vs0mg"},{"bike_id":"1e4c8eca-44f1-4bf0-b96f-01b79f3e652f","system_id":"levelo_inurba_marseille","lat":43.27944,"lon":5.41026,"is_reserved":false,"is_disabled":false,"rental_uris":{"android":"levelo://app?vid=1e4c8eca-44f1-4bf0-b96f-01b79f3e652f","ios":"levelo://app?vid=1e4c8eca-44f1-4bf0-b96f-01b79f3e652f"},"vehicle_type_id":"4","last_reported":1746353381,"current_range_meters":18000,"station_id":"ce4bhnp2rcd13ifvqh0g","pricing_plan_id":"cebpf4jnsgd1na2vs0mg"},{"bike_id":"1885e4e4-787e-4399-a182-13afb5671e8f","system_id":"levelo_inurba_marseille","lat":43.31773,"lon":5.38986,"is_reserved":false,"is_disabled":false,"rental_uris":{"android":"levelo://app?vid=1885e4e4-787e-4399-a182-13afb5671e8f","ios":"levelo://app?vid=1885e4e4-787e-4399-a182-13afb5671e8f"},"vehicle_type_id":"4","last_reported":1746353381,"current_range_meters":18000,"station_id":"ce4bhqp2rcd13ifvqhng","pricing_plan_id":"cebpf4jnsgd1na2vs0mg"},{"bike_id":"afcbf708-64a7-42f7-a839-2de9d22b5866","system_id":"levelo_inurba_marseille","lat":43.29027,"lon":5.39959,"is_reserved":false,"is_disabled":false,"rental_uris":{"android":"levelo://app?vid=afcbf708-64a7-42f7-a839-2de9d22b5866","ios":"levelo://app?vid=afcbf708-64a7-42f7-a839-2de9d22b5866"},"vehicle_type_id":"4","last_reported":1746353381,"current_range_meters":18800,"station_id":"ce4bh392rcd13ifvqdm0","pricing_plan_id":"cebpf4jnsgd1na2vs0mg"},{"bike_id":"8c71a0e4-eeb7-4f68-8026-134a953bb5f4","system_id":"levelo_inurba_marseille","lat":43.32542,"lon":5.41456,"is_reserved":false,"is_disabled":false,"rental_uris":{"android":"levelo://app?vid=8c71a0e4-eeb7-4f68-8026-134a953bb5f4","ios":"levelo://app?vid=8c71a0e4-eeb7-4f68-8026-134a953bb5f4"},"vehicle_type_id":"4","last_reported":1746353381,"current_range_meters":18800,"station_id":"ce4bhq12rcd13ifvqhhg","pricing_plan_id":"cebpf4jnsgd1na2vs0mg"},{"bike_id":"7ad04c1b-fc26-4c94-a72f-89c6e3ca5c32","system_id":"levelo_inurba_marseille","lat":43.3119,"lon":5.40761,"is_reserved":false,"is_disabled":false,"rental_uris":{"android":"levelo://app?vid=7ad04c1b-fc26-4c94-a72f-89c6e3ca5c32","ios":"levelo://app?vid=7ad04c1b-fc26-4c94-a72f-89c6e3ca5c32"},"vehicle_type_id":"4","last_reported":1746353381,"current_range_meters":19200,"station_id":"","pricing_plan_id":"cebpf4jnsgd1na2vs0mg"},{"bike_id":"2a83f628-6bc6-4805-bbb5-042e251d7a0f","system_id":"levelo_inurba_marseille","lat":43.31532,"lon":5.38037,"is_reserved":false,"is_disabled":false,"rental_uris":{"android":"levelo://app?vid=2a83f628-6bc6-4805-bbb5-042e251d7a0f","ios":"levelo://app?vid=2a83f628-6bc6-4805-bbb5-042e251d7a0f"},"vehicle_type_id":"4","last_reported":1746353381,"current_range_meters":19200,"station_id":"ce4bhsp2rcd13ifvqi50","pricing_plan_id":"cebpf4jnsgd1na2vs0mg"},{"bike_id":"a7393548-1ca4-426f-bec8-e094325f844e","system_id":"levelo_inurba_marseille","lat":43.26309,"lon":5.37426,"is_reserved":false,"is_disabled":false,"rental_uris":{"android":"levelo://app?vid=a7393548-1ca4-426f-bec8-e094325f844e","ios":"levelo://app?vid=a7393548-1ca4-426f-bec8-e094325f844e"},"vehicle_type_id":"4","last_reported":1746353381,"current_range_meters":19600,"station_id":"","pricing_plan_id":"cebpf4jnsgd1na2vs0mg"},{"bike_id":"c43b1397-4c89-4556-9d3f-5e63a1b69a9b","system_id":"levelo_inurba_marseille","lat":43.29549,"lon":5.42272,"is_reserved":false,"is_disabled":false,"rental_uris":{"android":"levelo://app?vid=c43b1397-4c89-4556-9d3f-5e63a1b69a9b","ios":"levelo://app?vid=c43b1397-4c89-4556-9d3f-5e63a1b69a9b"},"vehicle_type_id":"4","last_reported":1746353381,"current_range_meters":19600,"station_id":"ce4bhph2rcd13ifvqhdg","pricing_plan_id":"cebpf4jnsgd1na2vs0mg"},{"bike_id":"aa7b8acc-9a89-40dd-bb10-682b7be499d8","system_id":"levelo_inurba_marseille","lat":43.23197,"lon":5.35552,"is_reserved":false,"is_disabled":false,"rental_uris":{"android":"levelo://app?vid=aa7b8acc-9a89-40dd-bb10-682b7be499d8","ios":"levelo://app?vid=aa7b8acc-9a89-40dd-bb10-682b7be499d8"},"vehicle_type_id":"4","last_reported":1746353381,"current_range_meters":19600,"station_id":"ce4bhu92rcd13ifvqi70","pricing_plan_id":"cebpf4jnsgd1na2vs0mg"},{"bike_id":"d62eceed-23eb-4f3d-a6fe-a61cd2ad4365","system_id":"levelo_inurba_marseille","lat":43.28406,"lon":5.35575,"is_reserved":false,"is_disabled":false,"rental_uris":{"android":"levelo://app?vid=d62eceed-23eb-4f3d-a6fe-a61cd2ad4365","ios":"levelo://app?vid=d62eceed-23eb-4f3d-a6fe-a61cd2ad4365"},"vehicle_type_id":"4","last_reported":1746353381,"current_range_meters":20000,"station_id":"","pricing_plan_id":"cebpf4jnsgd1na2vs0mg"},{"bike_id":"b49abcf2-c321-4828-9597-b785de8121d6","system_id":"levelo_inurba_marseille","lat":43.23187,"lon":5.39988,"is_reserved":false,"is_disabled":false,"rental_uris":{"android":"levelo://app?vid=b49abcf2-c321-4828-9597-b785de8121d6","ios":"levelo://app?vid=b49abcf2-c321-4828-9597-b785de8121d6"},"vehicle_type_id":"4","last_reported":1746353381,"current_range_meters":20000,"station_id":"ce4bhn12rcd13ifvqgqg","pricing_plan_id":"cebpf4jnsgd1na2vs0mg"},{"bike_id":"b68ba021-b718-46d3-870c-7608c18b8003","system_id":"levelo_inurba_marseille","lat":43.296734,"lon":5.365754,"is_reserved":false,"is_disabled":false,"rental_uris":{"android":"levelo://app?vid=b68ba021-b718-46d3-870c-7608c18b8003","ios":"levelo://app?vid=b68ba021-b718-46d3-870c-7608c18b8003"},"vehicle_type_id":"4","last_reported":1746353381,"current_range_meters":20400,"station_id":"ce4bgn12rcd13ifvqbt0","pricing_plan_id":"cebpf4jnsgd1na2vs0mg"},{"bike_id":"0f5bd1a4-16e1-4c7d-8308-977a21f0ff80","system_id":"levelo_inurba_marseille","lat":43.23179,"lon":5.39991,"is_reserved":false,"is_disabled":false,"rental_uris":{"android":"levelo://app?vid=0f5bd1a4-16e1-4c7d-8308-977a21f0ff80","ios":"levelo://app?vid=0f5bd1a4-16e1-4c7d-8308-977a21f0ff80"},"vehicle_type_id":"4","last_reported":1746353381,"current_range_meters":20400,"station_id":"ce4bhn12rcd13ifvqgqg","pricing_plan_id":"cebpf4jnsgd1na2vs0mg"},{"bike_id":"bbba4a42-41f1-4d4c-a0ec-15062e1d6496","system_id":"levelo_inurba_marseille","lat":43.30811,"lon":5.4353,"is_reserved":false,"is_disabled":false,"rental_uris":{"android":"levelo://app?vid=bbba4a42-41f1-4d4c-a0ec-15062e1d6496","ios":"levelo://app?vid=bbba4a42-41f1-4d4c-a0ec-15062e1d6496"},"vehicle_type_id":"4","last_reported":1746353381,"current_range_meters":20400,"station_id":"ce4bhph2rcd13ifvqheg","pricing_plan_id":"cebpf4jnsgd1na2vs0mg"},{"bike_id":"283188e5-2787-40ff-86fd-fde6d8cade7f","system_id":"levelo_inurba_marseille","lat":43.29033,"lon":5.38652,"is_reserved":false,"is_disabled":false,"rental_uris":{"android":"levelo://app?vid=283188e5-2787-40ff-86fd-fde6d8cade7f","ios":"levelo://app?vid=283188e5-2787-40ff-86fd-fde6d8cade7f"},"vehicle_type_id":"4","last_reported":1746353381,"current_range_meters":20800,"station_id":"ce4bh4p2rcd13ifvqe0g","pricing_plan_id":"cebpf4jnsgd1na2vs0mg"},{"bike_id":"07e477ea-c00e-448b-ba9f-00905c5a9425","system_id":"levelo_inurba_marseille","lat":43.24311,"lon":5.37009,"is_reserved":false,"is_disabled":false,"rental_uris":{"android":"levelo://app?vid=07e477ea-c00e-448b-ba9f-00905c5a9425","ios":"levelo://app?vid=07e477ea-c00e-448b-ba9f-00905c5a9425"},"vehicle_type_id":"4","last_reported":1746353381,"current_range_meters":21600,"station_id":"","pricing_plan_id":"cebpf4jnsgd1na2vs0mg"},{"bike_id":"67228852-9364-4264-8911-ef9778c0a6b7","system_id":"levelo_inurba_marseille","lat":43.31687,"lon":5.40459,"is_reserved":false,"is_disabled":false,"rental_uris":{"android":"levelo://app?vid=67228852-9364-4264-8911-ef9778c0a6b7","ios":"levelo://app?vid=67228852-9364-4264-8911-ef9778c0a6b7"},"vehicle_type_id":"4","last_reported":1746353381,"current_range_meters":21600,"station_id":"ce4bh012rcd13ifvqd00","pricing_plan_id":"cebpf4jnsgd1na2vs0mg"},{"bike_id":"1ce5faab-c057-44d0-b6f7-996b2962169c","system_id":"levelo_inurba_marseille","lat":43.32361,"lon":5.36745,"is_reserved":false,"is_disabled":false,"rental_uris":{"android":"levelo://app?vid=1ce5faab-c057-44d0-b6f7-996b2962169c","ios":"levelo://app?vid=1ce5faab-c057-44d0-b6f7-996b2962169c"},"vehicle_type_id":"4","last_reported":1746353381,"current_range_meters":21600,"station_id":"ce4bhsh2rcd13ifvqi2g","pricing_plan_id":"cebpf4jnsgd1na2vs0mg"},{"bike_id":"9e174534-0b7f-41f7-9bb7-f68172cda9ce","system_id":"levelo_inurba_marseille","lat":43.21186,"lon":5.35064,"is_reserved":false,"is_disabled":false,"rental_uris":{"android":"levelo://app?vid=9e174534-0b7f-41f7-9bb7-f68172cda9ce","ios":"levelo://app?vid=9e174534-0b7f-41f7-9bb7-f68172cda9ce"},"vehicle_type_id":"4","last_reported":1746353381,"current_range_meters":21600,"station_id":"st_cvj6sg6p6f1abm77japg","pricing_plan_id":"cebpf4jnsgd1na2vs0mg"},{"bike_id":"2dce38cf-a8d4-49cd-9fcf-ef494d90a125","system_id":"levelo_inurba_marseille","lat":43.27143,"lon":5.36356,"is_reserved":false,"is_disabled":false,"rental_uris":{"android":"levelo://app?vid=2dce38cf-a8d4-49cd-9fcf-ef494d90a125","ios":"levelo://app?vid=2dce38cf-a8d4-49cd-9fcf-ef494d90a125"},"vehicle_type_id":"4","last_reported":1746353381,"current_range_meters":22000,"station_id":"","pricing_plan_id":"cebpf4jnsgd1na2vs0mg"},{"bike_id":"cdc7ac9c-c447-4ee8-baa4-4f091898a62c","system_id":"levelo_inurba_marseille","lat":43.29565,"lon":5.37505,"is_reserved":false,"is_disabled":false,"rental_uris":{"android":"levelo://app?vid=cdc7ac9c-c447-4ee8-baa4-4f091898a62c","ios":"levelo://app?vid=cdc7ac9c-c447-4ee8-baa4-4f091898a62c"},"vehicle_type_id":"4","last_reported":1746353381,"current_range_meters":22000,"station_id":"ce4bgh92rcd13ifvqb50","pricing_plan_id":"cebpf4jnsgd1na2vs0mg"},{"bike_id":"53365178-fafe-4641-abe2-1b6cdbb827d1","system_id":"levelo_inurba_marseille","lat":43.28152,"lon":5.4264,"is_reserved":false,"is_disabled":false,"rental_uris":{"android":"levelo://app?vid=53365178-fafe-4641-abe2-1b6cdbb827d1","ios":"levelo://app?vid=53365178-fafe-4641-abe2-1b6cdbb827d1"},"vehicle_type_id":"4","last_reported":1746353381,"current_range_meters":22000,"station_id":"ce4bhnh2rcd13ifvqgug","pricing_plan_id":"cebpf4jnsgd1na2vs0mg"},{"bike_id":"bcdc0033-282e-4006-acda-7c1e0fdfff9e","system_id":"levelo_inurba_marseille","lat":43.31714,"lon":5.42397,"is_reserved":false,"is_disabled":false,"rental_uris":{"android":"levelo://app?vid=bcdc0033-282e-4006-acda-7c1e0fdfff9e","ios":"levelo://app?vid=bcdc0033-282e-4006-acda-7c1e0fdfff9e"},"vehicle_type_id":"4","last_reported":1746353381,"current_range_meters":22000,"station_id":"ce4bhp92rcd13ifvqhbg","pricing_plan_id":"cebpf4jnsgd1na2vs0mg"},{"bike_id":"2d9904fd-9ff6-42ea-be87-2f058626b510","system_id":"levelo_inurba_marseille","lat":43.25585,"lon":5.3823,"is_reserved":false,"is_disabled":false,"rental_uris":{"android":"levelo://app?vid=2d9904fd-9ff6-42ea-be87-2f058626b510","ios":"levelo://app?vid=2d9904fd-9ff6-42ea-be87-2f058626b510"},"vehicle_type_id":"4","last_reported":1746353381,"current_range_meters":22400,"station_id":"","pricing_plan_id":"cebpf4jnsgd1na2vs0mg"},{"bike_id":"55e2365c-b270-4dfe-a830-699a54b79cdb","system_id":"levelo_inurba_marseille","lat":43.255708,"lon":5.42101,"is_reserved":false,"is_disabled":false,"rental_uris":{"android":"levelo://app?vid=55e2365c-b270-4dfe-a830-699a54b79cdb","ios":"levelo://app?vid=55e2365c-b270-4dfe-a830-699a54b79cdb"},"vehicle_type_id":"4","last_reported":1746353381,"current_range_meters":22800,"station_id":"","pricing_plan_id":"cebpf4jnsgd1na2vs0mg"},{"bike_id":"ce435601-3e22-477f-b9a1-17e9c2810b38","system_id":"levelo_inurba_marseille","lat":43.31224,"lon":5.3686,"is_reserved":false,"is_disabled":false,"rental_uris":{"android":"levelo://app?vid=ce435601-3e22-477f-b9a1-17e9c2810b38","ios":"levelo://app?vid=ce435601-3e22-477f-b9a1-17e9c2810b38"},"vehicle_type_id":"4","last_reported":1746353381,"current_range_meters":22800,"station_id":"ce4bgl92rcd13ifvqbq0","pricing_plan_id":"cebpf4jnsgd1na2vs0mg"},{"bike_id":"cb18f575-9c1e-4e54-ba38-fab988ce4b38","system_id":"levelo_inurba_marseille","lat":43.29297,"lon":5.40903,"is_reserved":false,"is_disabled":false,"rental_uris":{"android":"levelo://app?vid=cb18f575-9c1e-4e54-ba38-fab988ce4b38","ios":"levelo://app?vid=cb18f575-9c1e-4e54-ba38-fab988ce4b38"},"vehicle_type_id":"4","last_reported":1746353381,"current_range_meters":22800,"station_id":"ce4bh192rcd13ifvqdc0","pricing_plan_id":"cebpf4jnsgd1na2vs0mg"},{"bike_id":"ba1a37e3-2913-4048-9b8e-3f2ca883b25c","system_id":"levelo_inurba_marseille","lat":43.24394,"lon":5.37058,"is_reserved":false,"is_disabled":false,"rental_uris":{"android":"levelo://app?vid=ba1a37e3-2913-4048-9b8e-3f2ca883b25c","ios":"levelo://app?vid=ba1a37e3-2913-4048-9b8e-3f2ca883b25c"},"vehicle_type_id":"4","last_reported":1746353381,"current_range_meters":22800,"station_id":"ce4bhhh2rcd13ifvqfk0","pricing_plan_id":"cebpf4jnsgd1na2vs0mg"},{"bike_id":"05f72166-866f-4b12-a198-7e2a645d62f6","system_id":"levelo_inurba_marseille","lat":43.33024,"lon":5.39036,"is_reserved":false,"is_disabled":false,"rental_uris":{"android":"levelo://app?vid=05f72166-866f-4b12-a198-7e2a645d62f6","ios":"levelo://app?vid=05f72166-866f-4b12-a198-7e2a645d62f6"},"vehicle_type_id":"4","last_reported":1746353381,"current_range_meters":22800,"station_id":"ce4bhr92rcd13ifvqhrg","pricing_plan_id":"cebpf4jnsgd1na2vs0mg"},{"bike_id":"e8f2f41f-2260-4788-99a4-535c3054c780","system_id":"levelo_inurba_marseille","lat":43.28351,"lon":5.381,"is_reserved":false,"is_disabled":false,"rental_uris":{"android":"levelo://app?vid=e8f2f41f-2260-4788-99a4-535c3054c780","ios":"levelo://app?vid=e8f2f41f-2260-4788-99a4-535c3054c780"},"vehicle_type_id":"4","last_reported":1746353381,"current_range_meters":23200,"station_id":"ce4bh412rcd13ifvqdr0","pricing_plan_id":"cebpf4jnsgd1na2vs0mg"},{"bike_id":"479f3ae0-ea05-4367-9567-c6d0ca850563","system_id":"levelo_inurba_marseille","lat":43.27496,"lon":5.4245,"is_reserved":false,"is_disabled":false,"rental_uris":{"android":"levelo://app?vid=479f3ae0-ea05-4367-9567-c6d0ca850563","ios":"levelo://app?vid=479f3ae0-ea05-4367-9567-c6d0ca850563"},"vehicle_type_id":"4","last_reported":1746353381,"current_range_meters":23200,"station_id":"ce4bhn92rcd13ifvqgrg","pricing_plan_id":"cebpf4jnsgd1na2vs0mg"},{"bike_id":"99caa5c9-73c6-4674-850e-ae7cd663deab","system_id":"levelo_inurba_marseille","lat":43.21189,"lon":5.35072,"is_reserved":false,"is_disabled":false,"rental_uris":{"android":"levelo://app?vid=99caa5c9-73c6-4674-850e-ae7cd663deab","ios":"levelo://app?vid=99caa5c9-73c6-4674-850e-ae7cd663deab"},"vehicle_type_id":"4","last_reported":1746353381,"current_range_meters":23200,"station_id":"st_cvj6sg6p6f1abm77japg","pricing_plan_id":"cebpf4jnsgd1na2vs0mg"},{"bike_id":"07da4003-e539-45c2-9ee9-2d6b1aaa8c6a","system_id":"levelo_inurba_marseille","lat":43.2895,"lon":5.3963,"is_reserved":false,"is_disabled":false,"rental_uris":{"android":"levelo://app?vid=07da4003-e539-45c2-9ee9-2d6b1aaa8c6a","ios":"levelo://app?vid=07da4003-e539-45c2-9ee9-2d6b1aaa8c6a"},"vehicle_type_id":"4","last_reported":1746353381,"current_range_meters":24000,"station_id":"ce4bh3h2rcd13ifvqdn0","pricing_plan_id":"cebpf4jnsgd1na2vs0mg"},{"bike_id":"d16c5285-25ba-40bc-a783-f5a4e78a3b23","system_id":"levelo_inurba_marseille","lat":43.2318,"lon":5.39993,"is_reserved":false,"is_disabled":false,"rental_uris":{"android":"levelo://app?vid=d16c5285-25ba-40bc-a783-f5a4e78a3b23","ios":"levelo://app?vid=d16c5285-25ba-40bc-a783-f5a4e78a3b23"},"vehicle_type_id":"4","last_reported":1746353381,"current_range_meters":24000,"station_id":"ce4bhn12rcd13ifvqgqg","pricing_plan_id":"cebpf4jnsgd1na2vs0mg"},{"bike_id":"d0bcf1fb-cbba-4142-876b-db3b580f0e4d","system_id":"levelo_inurba_marseille","lat":43.295607,"lon":5.422814,"is_reserved":false,"is_disabled":false,"rental_uris":{"android":"levelo://app?vid=d0bcf1fb-cbba-4142-876b-db3b580f0e4d","ios":"levelo://app?vid=d0bcf1fb-cbba-4142-876b-db3b580f0e4d"},"vehicle_type_id":"4","last_reported":1746353381,"current_range_meters":24000,"station_id":"ce4bhph2rcd13ifvqhdg","pricing_plan_id":"cebpf4jnsgd1na2vs0mg"},{"bike_id":"febadd93-43e2-4bc6-aca9-ac265dd384a7","system_id":"levelo_inurba_marseille","lat":43.290315,"lon":5.399651,"is_reserved":false,"is_disabled":false,"rental_uris":{"android":"levelo://app?vid=febadd93-43e2-4bc6-aca9-ac265dd384a7","ios":"levelo://app?vid=febadd93-43e2-4bc6-aca9-ac265dd384a7"},"vehicle_type_id":"4","last_reported":1746353381,"current_range_meters":24400,"station_id":"ce4bh392rcd13ifvqdm0","pricing_plan_id":"cebpf4jnsgd1na2vs0mg"},{"bike_id":"321e8ec9-5896-4299-914b-01dee7a1fc43","system_id":"levelo_inurba_marseille","lat":43.24393,"lon":5.37046,"is_reserved":false,"is_disabled":false,"rental_uris":{"android":"levelo://app?vid=321e8ec9-5896-4299-914b-01dee7a1fc43","ios":"levelo://app?vid=321e8ec9-5896-4299-914b-01dee7a1fc43"},"vehicle_type_id":"4","last_reported":1746353381,"current_range_meters":24400,"station_id":"ce4bhhh2rcd13ifvqfk0","pricing_plan_id":"cebpf4jnsgd1na2vs0mg"},{"bike_id":"36c9e463-0515-4310-b3e7-a83191a269f8","system_id":"levelo_inurba_marseille","lat":43.23176,"lon":5.39985,"is_reserved":false,"is_disabled":false,"rental_uris":{"android":"levelo://app?vid=36c9e463-0515-4310-b3e7-a83191a269f8","ios":"levelo://app?vid=36c9e463-0515-4310-b3e7-a83191a269f8"},"vehicle_type_id":"4","last_reported":1746353381,"current_range_meters":24400,"station_id":"ce4bhn12rcd13ifvqgqg","pricing_plan_id":"cebpf4jnsgd1na2vs0mg"},{"bike_id":"ed3ce873-fbb4-4328-a36b-6567024c3b23","system_id":"levelo_inurba_marseille","lat":43.30811,"lon":5.43526,"is_reserved":false,"is_disabled":false,"rental_uris":{"android":"levelo://app?vid=ed3ce873-fbb4-4328-a36b-6567024c3b23","ios":"levelo://app?vid=ed3ce873-fbb4-4328-a36b-6567024c3b23"},"vehicle_type_id":"4","last_reported":1746353381,"current_range_meters":24400,"station_id":"ce4bhph2rcd13ifvqheg","pricing_plan_id":"cebpf4jnsgd1na2vs0mg"},{"bike_id":"4866809e-6692-4bb1-8cc5-75481e30a24b","system_id":"levelo_inurba_marseille","lat":43.31566,"lon":5.40942,"is_reserved":false,"is_disabled":false,"rental_uris":{"android":"levelo://app?vid=4866809e-6692-4bb1-8cc5-75481e30a24b","ios":"levelo://app?vid=4866809e-6692-4bb1-8cc5-75481e30a24b"},"vehicle_type_id":"4","last_reported":1746353381,"current_range_meters":24800,"station_id":"","pricing_plan_id":"cebpf4jnsgd1na2vs0mg"},{"bike_id":"f4c1cc31-91cd-42b2-bac7-2dc46b08bba2","system_id":"levelo_inurba_marseille","lat":43.24691,"lon":5.38156,"is_reserved":false,"is_disabled":false,"rental_uris":{"android":"levelo://app?vid=f4c1cc31-91cd-42b2-bac7-2dc46b08bba2","ios":"levelo://app?vid=f4c1cc31-91cd-42b2-bac7-2dc46b08bba2"},"vehicle_type_id":"4","last_reported":1746353381,"current_range_meters":24800,"station_id":"ce4bhih2rcd13ifvqfr0","pricing_plan_id":"cebpf4jnsgd1na2vs0mg"},{"bike_id":"12a894e1-abf6-4939-b841-4700f53bab5c","system_id":"levelo_inurba_marseille","lat":43.2707,"lon":5.42265,"is_reserved":false,"is_disabled":false,"rental_uris":{"android":"levelo://app?vid=12a894e1-abf6-4939-b841-4700f53bab5c","ios":"levelo://app?vid=12a894e1-abf6-4939-b841-4700f53bab5c"},"vehicle_type_id":"4","last_reported":1746353381,"current_range_meters":24800,"station_id":"ce4bhk92rcd13ifvqgb0","pricing_plan_id":"cebpf4jnsgd1na2vs0mg"},{"bike_id":"48406110-a345-43b2-b145-b3298828c686","system_id":"levelo_inurba_marseille","lat":43.29534,"lon":5.42293,"is_reserved":false,"is_disabled":false,"rental_uris":{"android":"levelo://app?vid=48406110-a345-43b2-b145-b3298828c686","ios":"levelo://app?vid=48406110-a345-43b2-b145-b3298828c686"},"vehicle_type_id":"4","last_reported":1746353381,"current_range_meters":24800,"station_id":"ce4bhph2rcd13ifvqhdg","pricing_plan_id":"cebpf4jnsgd1na2vs0mg"},{"bike_id":"b0073925-9c20-40a0-908e-6f85a05fd27e","system_id":"levelo_inurba_marseille","lat":43.29579,"lon":5.36744,"is_reserved":false,"is_disabled":false,"rental_uris":{"android":"levelo://app?vid=b0073925-9c20-40a0-908e-6f85a05fd27e","ios":"levelo://app?vid=b0073925-9c20-40a0-908e-6f85a05fd27e"},"vehicle_type_id":"4","last_reported":1746353381,"current_range_meters":25200,"station_id":"ce4bgph2rcd13ifvqc2g","pricing_plan_id":"cebpf4jnsgd1na2vs0mg"},{"bike_id":"40acae5c-ecfd-4f23-908a-b88acfbbf3cc","system_id":"levelo_inurba_marseille","lat":43.30899,"lon":5.37196,"is_reserved":false,"is_disabled":false,"rental_uris":{"android":"levelo://app?vid=40acae5c-ecfd-4f23-908a-b88acfbbf3cc","ios":"levelo://app?vid=40acae5c-ecfd-4f23-908a-b88acfbbf3cc"},"vehicle_type_id":"4","last_reported":1746353381,"current_range_meters":25200,"station_id":"ce4bguh2rcd13ifvqckg","pricing_plan_id":"cebpf4jnsgd1na2vs0mg"},{"bike_id":"1c18fa7b-4337-4618-8b7c-5bd40251b6b6","system_id":"levelo_inurba_marseille","lat":43.28271,"lon":5.35054,"is_reserved":false,"is_disabled":false,"rental_uris":{"android":"levelo://app?vid=1c18fa7b-4337-4618-8b7c-5bd40251b6b6","ios":"levelo://app?vid=1c18fa7b-4337-4618-8b7c-5bd40251b6b6"},"vehicle_type_id":"4","last_reported":1746353381,"current_range_meters":25200,"station_id":"ce4bhbp2rcd13ifvqerg","pricing_plan_id":"cebpf4jnsgd1na2vs0mg"},{"bike_id":"8bcc6079-f9a5-4a43-b5fe-9b5ee9cfedd3","system_id":"levelo_inurba_marseille","lat":43.30378,"lon":5.42483,"is_reserved":false,"is_disabled":false,"rental_uris":{"android":"levelo://app?vid=8bcc6079-f9a5-4a43-b5fe-9b5ee9cfedd3","ios":"levelo://app?vid=8bcc6079-f9a5-4a43-b5fe-9b5ee9cfedd3"},"vehicle_type_id":"4","last_reported":1746353381,"current_range_meters":25200,"station_id":"ce4bhoh2rcd13ifvqh6g","pricing_plan_id":"cebpf4jnsgd1na2vs0mg"},{"bike_id":"788046ab-4020-4c6e-a0e2-de3aee25f874","system_id":"levelo_inurba_marseille","lat":43.21196,"lon":5.35067,"is_reserved":false,"is_disabled":false,"rental_uris":{"android":"levelo://app?vid=788046ab-4020-4c6e-a0e2-de3aee25f874","ios":"levelo://app?vid=788046ab-4020-4c6e-a0e2-de3aee25f874"},"vehicle_type_id":"4","last_reported":1746353381,"current_range_meters":25200,"station_id":"st_cvj6sg6p6f1abm77japg","pricing_plan_id":"cebpf4jnsgd1na2vs0mg"},{"bike_id":"a37b555a-e13e-4df2-bf39-1733553fc96e","system_id":"levelo_inurba_marseille","lat":43.292496,"lon":5.409084,"is_reserved":false,"is_disabled":false,"rental_uris":{"android":"levelo://app?vid=a37b555a-e13e-4df2-bf39-1733553fc96e","ios":"levelo://app?vid=a37b555a-e13e-4df2-bf39-1733553fc96e"},"vehicle_type_id":"4","last_reported":1746353381,"current_range_meters":25600,"station_id":"ce4bh192rcd13ifvqdc0","pricing_plan_id":"cebpf4jnsgd1na2vs0mg"},{"bike_id":"a391a533-43c7-48f6-bbca-9ca6a4014308","system_id":"levelo_inurba_marseille","lat":43.30126,"lon":5.38791,"is_reserved":false,"is_disabled":false,"rental_uris":{"android":"levelo://app?vid=a391a533-43c7-48f6-bbca-9ca6a4014308","ios":"levelo://app?vid=a391a533-43c7-48f6-bbca-9ca6a4014308"},"vehicle_type_id":"4","last_reported":1746353381,"current_range_meters":26000,"station_id":"ce4bghh2rcd13ifvqb60","pricing_plan_id":"cebpf4jnsgd1na2vs0mg"},{"bike_id":"ed7d5755-ef19-48c3-9024-32a5356cd2e7","system_id":"levelo_inurba_marseille","lat":43.31707,"lon":5.40454,"is_reserved":false,"is_disabled":false,"rental_uris":{"android":"levelo://app?vid=ed7d5755-ef19-48c3-9024-32a5356cd2e7","ios":"levelo://app?vid=ed7d5755-ef19-48c3-9024-32a5356cd2e7"},"vehicle_type_id":"4","last_reported":1746353381,"current_range_meters":26000,"station_id":"ce4bh012rcd13ifvqd00","pricing_plan_id":"cebpf4jnsgd1na2vs0mg"},{"bike_id":"ab8c1907-c685-4800-bc95-63cf90a0656f","system_id":"levelo_inurba_marseille","lat":43.30197,"lon":5.39474,"is_reserved":false,"is_disabled":false,"rental_uris":{"android":"levelo://app?vid=ab8c1907-c685-4800-bc95-63cf90a0656f","ios":"levelo://app?vid=ab8c1907-c685-4800-bc95-63cf90a0656f"},"vehicle_type_id":"4","last_reported":1746353381,"current_range_meters":26000,"station_id":"ce4bh0p2rcd13ifvqd70","pricing_plan_id":"cebpf4jnsgd1na2vs0mg"},{"bike_id":"5659183f-5a1b-4a72-a657-aa0073554816","system_id":"levelo_inurba_marseille","lat":43.2417,"lon":5.39715,"is_reserved":false,"is_disabled":false,"rental_uris":{"android":"levelo://app?vid=5659183f-5a1b-4a72-a657-aa0073554816","ios":"levelo://app?vid=5659183f-5a1b-4a72-a657-aa0073554816"},"vehicle_type_id":"4","last_reported":1746353381,"current_range_meters":26000,"station_id":"ce4bhn12rcd13ifvqgpg","pricing_plan_id":"cebpf4jnsgd1na2vs0mg"},{"bike_id":"c05a2c3b-c2e1-465c-9f4c-485cdd7d3ce5","system_id":"levelo_inurba_marseille","lat":43.28162,"lon":5.42645,"is_reserved":false,"is_disabled":false,"rental_uris":{"android":"levelo://app?vid=c05a2c3b-c2e1-465c-9f4c-485cdd7d3ce5","ios":"levelo://app?vid=c05a2c3b-c2e1-465c-9f4c-485cdd7d3ce5"},"vehicle_type_id":"4","last_reported":1746353381,"current_range_meters":26000,"station_id":"ce4bhnh2rcd13ifvqgug","pricing_plan_id":"cebpf4jnsgd1na2vs0mg"},{"bike_id":"78359120-16cb-40b6-a039-0bed80a247f0","system_id":"levelo_inurba_marseille","lat":43.22933,"lon":5.35379,"is_reserved":false,"is_disabled":false,"rental_uris":{"android":"levelo://app?vid=78359120-16cb-40b6-a039-0bed80a247f0","ios":"levelo://app?vid=78359120-16cb-40b6-a039-0bed80a247f0"},"vehicle_type_id":"4","last_reported":1746353381,"current_range_meters":26000,"station_id":"cpo3532slgdg3j2ikp40","pricing_plan_id":"cebpf4jnsgd1na2vs0mg"},{"bike_id":"e1fea8e4-ce01-48e8-9ccb-ed4b27d62a66","system_id":"levelo_inurba_marseille","lat":43.25578,"lon":5.38254,"is_reserved":false,"is_disabled":false,"rental_uris":{"android":"levelo://app?vid=e1fea8e4-ce01-48e8-9ccb-ed4b27d62a66","ios":"levelo://app?vid=e1fea8e4-ce01-48e8-9ccb-ed4b27d62a66"},"vehicle_type_id":"4","last_reported":1746353381,"current_range_meters":26800,"station_id":"ce4bhih2rcd13ifvqfs0","pricing_plan_id":"cebpf4jnsgd1na2vs0mg"},{"bike_id":"3e372582-d79a-4a34-9ad2-63cdc1b4ebe3","system_id":"levelo_inurba_marseille","lat":43.27043,"lon":5.40294,"is_reserved":false,"is_disabled":false,"rental_uris":{"android":"levelo://app?vid=3e372582-d79a-4a34-9ad2-63cdc1b4ebe3","ios":"levelo://app?vid=3e372582-d79a-4a34-9ad2-63cdc1b4ebe3"},"vehicle_type_id":"4","last_reported":1746353381,"current_range_meters":26800,"station_id":"ce4bhk92rcd13ifvqgc0","pricing_plan_id":"cebpf4jnsgd1na2vs0mg"},{"bike_id":"0ff18444-7a08-4eca-a075-7fa4609ecba3","system_id":"levelo_inurba_marseille","lat":43.25115,"lon":5.40326,"is_reserved":false,"is_disabled":false,"rental_uris":{"android":"levelo://app?vid=0ff18444-7a08-4eca-a075-7fa4609ecba3","ios":"levelo://app?vid=0ff18444-7a08-4eca-a075-7fa4609ecba3"},"vehicle_type_id":"4","last_reported":1746353381,"current_range_meters":26800,"station_id":"ce4bhlh2rcd13ifvqgig","pricing_plan_id":"cebpf4jnsgd1na2vs0mg"},{"bike_id":"79d4c3f6-5924-4d77-b9cd-3457b219ff71","system_id":"levelo_inurba_marseille","lat":43.30131,"lon":5.3986,"is_reserved":false,"is_disabled":false,"rental_uris":{"android":"levelo://app?vid=79d4c3f6-5924-4d77-b9cd-3457b219ff71","ios":"levelo://app?vid=79d4c3f6-5924-4d77-b9cd-3457b219ff71"},"vehicle_type_id":"4","last_reported":1746353381,"current_range_meters":27200,"station_id":"ce4bh0h2rcd13ifvqd40","pricing_plan_id":"cebpf4jnsgd1na2vs0mg"},{"bike_id":"a7af5df1-eff7-42d0-b469-0f868bb15bbd","system_id":"levelo_inurba_marseille","lat":43.29052,"lon":5.3999,"is_reserved":false,"is_disabled":false,"rental_uris":{"android":"levelo://app?vid=a7af5df1-eff7-42d0-b469-0f868bb15bbd","ios":"levelo://app?vid=a7af5df1-eff7-42d0-b469-0f868bb15bbd"},"vehicle_type_id":"4","last_reported":1746353381,"current_range_meters":27200,"station_id":"ce4bh392rcd13ifvqdm0","pricing_plan_id":"cebpf4jnsgd1na2vs0mg"},{"bike_id":"dc3933d1-e10e-4d05-bac4-9074ee5ad64c","system_id":"levelo_inurba_marseille","lat":43.29273,"lon":5.3684,"is_reserved":false,"is_disabled":false,"rental_uris":{"android":"levelo://app?vid=dc3933d1-e10e-4d05-bac4-9074ee5ad64c","ios":"levelo://app?vid=dc3933d1-e10e-4d05-bac4-9074ee5ad64c"},"vehicle_type_id":"4","last_reported":1746353381,"current_range_meters":27200,"station_id":"ce4bhbp2rcd13ifvqesg","pricing_plan_id":"cebpf4jnsgd1na2vs0mg"},{"bike_id":"a9746714-3a3f-4835-b9b5-a0413ee75b28","system_id":"levelo_inurba_marseille","lat":43.25493,"lon":5.37654,"is_reserved":false,"is_disabled":false,"rental_uris":{"android":"levelo://app?vid=a9746714-3a3f-4835-b9b5-a0413ee75b28","ios":"levelo://app?vid=a9746714-3a3f-4835-b9b5-a0413ee75b28"},"vehicle_type_id":"4","last_reported":1746353381,"current_range_meters":27200,"station_id":"ce4bhh12rcd13ifvqff0","pricing_plan_id":"cebpf4jnsgd1na2vs0mg"},{"bike_id":"ced7c0de-4ddf-4b50-b172-7ad528f8426d","system_id":"levelo_inurba_marseille","lat":43.25496,"lon":5.37663,"is_reserved":false,"is_disabled":false,"rental_uris":{"android":"levelo://app?vid=ced7c0de-4ddf-4b50-b172-7ad528f8426d","ios":"levelo://app?vid=ced7c0de-4ddf-4b50-b172-7ad528f8426d"},"vehicle_type_id":"4","last_reported":1746353381,"current_range_meters":27200,"station_id":"ce4bhh12rcd13ifvqff0","pricing_plan_id":"cebpf4jnsgd1na2vs0mg"},{"bike_id":"af34379a-afa2-40fe-86f3-a884dbf176a0","system_id":"levelo_inurba_marseille","lat":43.28435,"lon":5.39162,"is_reserved":false,"is_disabled":false,"rental_uris":{"android":"levelo://app?vid=af34379a-afa2-40fe-86f3-a884dbf176a0","ios":"levelo://app?vid=af34379a-afa2-40fe-86f3-a884dbf176a0"},"vehicle_type_id":"4","last_reported":1746353381,"current_range_meters":27200,"station_id":"ce4bhoh2rcd13ifvqh5g","pricing_plan_id":"cebpf4jnsgd1na2vs0mg"},{"bike_id":"373dc6f5-aa67-4e3f-8756-53a0848d3e3f","system_id":"levelo_inurba_marseille","lat":43.21752,"lon":5.34597,"is_reserved":false,"is_disabled":false,"rental_uris":{"android":"levelo://app?vid=373dc6f5-aa67-4e3f-8756-53a0848d3e3f","ios":"levelo://app?vid=373dc6f5-aa67-4e3f-8756-53a0848d3e3f"},"vehicle_type_id":"4","last_reported":1746353381,"current_range_meters":27600,"station_id":"","pricing_plan_id":"cebpf4jnsgd1na2vs0mg"},{"bike_id":"70931f74-c678-47c2-b96e-6054c0a672e4","system_id":"levelo_inurba_marseille","lat":43.31277,"lon":5.40155,"is_reserved":false,"is_disabled":false,"rental_uris":{"android":"levelo://app?vid=70931f74-c678-47c2-b96e-6054c0a672e4","ios":"levelo://app?vid=70931f74-c678-47c2-b96e-6054c0a672e4"},"vehicle_type_id":"4","last_reported":1746353381,"current_range_meters":27600,"station_id":"ce4bh092rcd13ifvqd30","pricing_plan_id":"cebpf4jnsgd1na2vs0mg"},{"bike_id":"745bddd3-3df0-4cd5-a445-c89ceaf5e348","system_id":"levelo_inurba_marseille","lat":43.28858,"lon":5.35851,"is_reserved":false,"is_disabled":false,"rental_uris":{"android":"levelo://app?vid=745bddd3-3df0-4cd5-a445-c89ceaf5e348","ios":"levelo://app?vid=745bddd3-3df0-4cd5-a445-c89ceaf5e348"},"vehicle_type_id":"4","last_reported":1746353381,"current_range_meters":27600,"station_id":"ce4bhb12rcd13ifvqem0","pricing_plan_id":"cebpf4jnsgd1na2vs0mg"},{"bike_id":"a246935a-f993-44ec-8dbc-0242846ca295","system_id":"levelo_inurba_marseille","lat":43.28268,"lon":5.35063,"is_reserved":false,"is_disabled":false,"rental_uris":{"android":"levelo://app?vid=a246935a-f993-44ec-8dbc-0242846ca295","ios":"levelo://app?vid=a246935a-f993-44ec-8dbc-0242846ca295"},"vehicle_type_id":"4","last_reported":1746353381,"current_range_meters":27600,"station_id":"ce4bhbp2rcd13ifvqerg","pricing_plan_id":"cebpf4jnsgd1na2vs0mg"},{"bike_id":"fff989e9-64dd-40de-8a4c-e30222516b94","system_id":"levelo_inurba_marseille","lat":43.28156,"lon":5.42635,"is_reserved":false,"is_disabled":false,"rental_uris":{"android":"levelo://app?vid=fff989e9-64dd-40de-8a4c-e30222516b94","ios":"levelo://app?vid=fff989e9-64dd-40de-8a4c-e30222516b94"},"vehicle_type_id":"4","last_reported":1746353381,"current_range_meters":27600,"station_id":"ce4bhnh2rcd13ifvqgug","pricing_plan_id":"cebpf4jnsgd1na2vs0mg"},{"bike_id":"40265329-de58-46b1-85b1-f9af1246ad39","system_id":"levelo_inurba_marseille","lat":43.28272,"lon":5.35065,"is_reserved":false,"is_disabled":false,"rental_uris":{"android":"levelo://app?vid=40265329-de58-46b1-85b1-f9af1246ad39","ios":"levelo://app?vid=40265329-de58-46b1-85b1-f9af1246ad39"},"vehicle_type_id":"4","last_reported":1746353381,"current_range_meters":28000,"station_id":"","pricing_plan_id":"cebpf4jnsgd1na2vs0mg"},{"bike_id":"4816de97-e264-468b-b3c3-74f635f7af5b","system_id":"levelo_inurba_marseille","lat":43.322,"lon":5.38264,"is_reserved":false,"is_disabled":false,"rental_uris":{"android":"levelo://app?vid=4816de97-e264-468b-b3c3-74f635f7af5b","ios":"levelo://app?vid=4816de97-e264-468b-b3c3-74f635f7af5b"},"vehicle_type_id":"4","last_reported":1746353381,"current_range_meters":28000,"station_id":"","pricing_plan_id":"cebpf4jnsgd1na2vs0mg"},{"bike_id":"2acc1f26-5153-4e98-afe0-80d86d9d7520","system_id":"levelo_inurba_marseille","lat":43.3174,"lon":5.40472,"is_reserved":false,"is_disabled":false,"rental_uris":{"android":"levelo://app?vid=2acc1f26-5153-4e98-afe0-80d86d9d7520","ios":"levelo://app?vid=2acc1f26-5153-4e98-afe0-80d86d9d7520"},"vehicle_type_id":"4","last_reported":1746353381,"current_range_meters":28000,"station_id":"","pricing_plan_id":"cebpf4jnsgd1na2vs0mg"},{"bike_id":"f2f7d0aa-f20b-4ef4-9401-3df7e3d59603","system_id":"levelo_inurba_marseille","lat":43.3171,"lon":5.4044,"is_reserved":false,"is_disabled":false,"rental_uris":{"android":"levelo://app?vid=f2f7d0aa-f20b-4ef4-9401-3df7e3d59603","ios":"levelo://app?vid=f2f7d0aa-f20b-4ef4-9401-3df7e3d59603"},"vehicle_type_id":"4","last_reported":1746353381,"current_range_meters":28000,"station_id":"ce4bh012rcd13ifvqd00","pricing_plan_id":"cebpf4jnsgd1na2vs0mg"},{"bike_id":"0ef6235a-ecc0-4d93-b767-d220b2ee1146","system_id":"levelo_inurba_marseille","lat":43.29073,"lon":5.39933,"is_reserved":false,"is_disabled":false,"rental_uris":{"android":"levelo://app?vid=0ef6235a-ecc0-4d93-b767-d220b2ee1146","ios":"levelo://app?vid=0ef6235a-ecc0-4d93-b767-d220b2ee1146"},"vehicle_type_id":"4","last_reported":1746353381,"current_range_meters":28000,"station_id":"ce4bh392rcd13ifvqdm0","pricing_plan_id":"cebpf4jnsgd1na2vs0mg"},{"bike_id":"fbe1d9ba-bfc1-4d98-9708-d861a3280cb6","system_id":"levelo_inurba_marseille","lat":43.25495,"lon":5.37648,"is_reserved":false,"is_disabled":false,"rental_uris":{"android":"levelo://app?vid=fbe1d9ba-bfc1-4d98-9708-d861a3280cb6","ios":"levelo://app?vid=fbe1d9ba-bfc1-4d98-9708-d861a3280cb6"},"vehicle_type_id":"4","last_reported":1746353381,"current_range_meters":28000,"station_id":"ce4bhh12rcd13ifvqff0","pricing_plan_id":"cebpf4jnsgd1na2vs0mg"},{"bike_id":"048ce1fa-041f-4560-bddf-fd3245b53423","system_id":"levelo_inurba_marseille","lat":43.3372,"lon":5.39183,"is_reserved":false,"is_disabled":false,"rental_uris":{"android":"levelo://app?vid=048ce1fa-041f-4560-bddf-fd3245b53423","ios":"levelo://app?vid=048ce1fa-041f-4560-bddf-fd3245b53423"},"vehicle_type_id":"4","last_reported":1746353381,"current_range_meters":28000,"station_id":"ce4bhr92rcd13ifvqhsg","pricing_plan_id":"cebpf4jnsgd1na2vs0mg"},{"bike_id":"3a63acc5-b352-4e5e-8ce6-37badecb6507","system_id":"levelo_inurba_marseille","lat":43.29495,"lon":5.41839,"is_reserved":false,"is_disabled":false,"rental_uris":{"android":"levelo://app?vid=3a63acc5-b352-4e5e-8ce6-37badecb6507","ios":"levelo://app?vid=3a63acc5-b352-4e5e-8ce6-37badecb6507"},"vehicle_type_id":"4","last_reported":1746353381,"current_range_meters":28400,"station_id":"","pricing_plan_id":"cebpf4jnsgd1na2vs0mg"},{"bike_id":"e157a2f5-4cac-4343-9846-357b56cf8540","system_id":"levelo_inurba_marseille","lat":43.290609,"lon":5.359257,"is_reserved":false,"is_disabled":false,"rental_uris":{"android":"levelo://app?vid=e157a2f5-4cac-4343-9846-357b56cf8540","ios":"levelo://app?vid=e157a2f5-4cac-4343-9846-357b56cf8540"},"vehicle_type_id":"4","last_reported":1746353381,"current_range_meters":28400,"station_id":"ce4bha92rcd13ifvqeg0","pricing_plan_id":"cebpf4jnsgd1na2vs0mg"},{"bike_id":"90faec8f-223d-4bb9-b8de-c7956dbf748e","system_id":"levelo_inurba_marseille","lat":43.27371,"lon":5.36262,"is_reserved":false,"is_disabled":false,"rental_uris":{"android":"levelo://app?vid=90faec8f-223d-4bb9-b8de-c7956dbf748e","ios":"levelo://app?vid=90faec8f-223d-4bb9-b8de-c7956dbf748e"},"vehicle_type_id":"4","last_reported":1746353381,"current_range_meters":28400,"station_id":"ce4bhbh2rcd13ifvqeo0","pricing_plan_id":"cebpf4jnsgd1na2vs0mg"},{"bike_id":"f88ffc64-2083-4f58-84ca-5979fd9cb816","system_id":"levelo_inurba_marseille","lat":43.27921,"lon":5.41002,"is_reserved":false,"is_disabled":false,"rental_uris":{"android":"levelo://app?vid=f88ffc64-2083-4f58-84ca-5979fd9cb816","ios":"levelo://app?vid=f88ffc64-2083-4f58-84ca-5979fd9cb816"},"vehicle_type_id":"4","last_reported":1746353381,"current_range_meters":28800,"station_id":"","pricing_plan_id":"cebpf4jnsgd1na2vs0mg"},{"bike_id":"a2fc5e6f-e89b-4b5e-a803-a6a2319d0c3e","system_id":"levelo_inurba_marseille","lat":43.30561,"lon":5.3656,"is_reserved":false,"is_disabled":false,"rental_uris":{"android":"levelo://app?vid=a2fc5e6f-e89b-4b5e-a803-a6a2319d0c3e","ios":"levelo://app?vid=a2fc5e6f-e89b-4b5e-a803-a6a2319d0c3e"},"vehicle_type_id":"4","last_reported":1746353381,"current_range_meters":28800,"station_id":"ce4bgs12rcd13ifvqcag","pricing_plan_id":"cebpf4jnsgd1na2vs0mg"},{"bike_id":"d3a9fa37-2139-4ebc-a657-903e7789ad7f","system_id":"levelo_inurba_marseille","lat":43.31276,"lon":5.40164,"is_reserved":false,"is_disabled":false,"rental_uris":{"android":"levelo://app?vid=d3a9fa37-2139-4ebc-a657-903e7789ad7f","ios":"levelo://app?vid=d3a9fa37-2139-4ebc-a657-903e7789ad7f"},"vehicle_type_id":"4","last_reported":1746353381,"current_range_meters":28800,"station_id":"ce4bh092rcd13ifvqd30","pricing_plan_id":"cebpf4jnsgd1na2vs0mg"},{"bike_id":"a15b755c-21c5-46bf-a272-6fbb48002fba","system_id":"levelo_inurba_marseille","lat":43.29033,"lon":5.39984,"is_reserved":false,"is_disabled":false,"rental_uris":{"android":"levelo://app?vid=a15b755c-21c5-46bf-a272-6fbb48002fba","ios":"levelo://app?vid=a15b755c-21c5-46bf-a272-6fbb48002fba"},"vehicle_type_id":"4","last_reported":1746353381,"current_range_meters":28800,"station_id":"ce4bh392rcd13ifvqdm0","pricing_plan_id":"cebpf4jnsgd1na2vs0mg"},{"bike_id":"11dcfe98-2a9a-4568-9fea-ae385cc613bf","system_id":"levelo_inurba_marseille","lat":43.28274,"lon":5.3506,"is_reserved":false,"is_disabled":false,"rental_uris":{"android":"levelo://app?vid=11dcfe98-2a9a-4568-9fea-ae385cc613bf","ios":"levelo://app?vid=11dcfe98-2a9a-4568-9fea-ae385cc613bf"},"vehicle_type_id":"4","last_reported":1746353381,"current_range_meters":28800,"station_id":"ce4bhbp2rcd13ifvqerg","pricing_plan_id":"cebpf4jnsgd1na2vs0mg"},{"bike_id":"899a204a-5ced-4c68-bf66-e64263b6b16f","system_id":"levelo_inurba_marseille","lat":43.282705,"lon":5.350589,"is_reserved":false,"is_disabled":false,"rental_uris":{"android":"levelo://app?vid=899a204a-5ced-4c68-bf66-e64263b6b16f","ios":"levelo://app?vid=899a204a-5ced-4c68-bf66-e64263b6b16f"},"vehicle_type_id":"4","last_reported":1746353381,"current_range_meters":28800,"station_id":"ce4bhbp2rcd13ifvqerg","pricing_plan_id":"cebpf4jnsgd1na2vs0mg"},{"bike_id":"9762ecb4-f236-4a66-b689-a70660269118","system_id":"levelo_inurba_marseille","lat":43.28947,"lon":5.36635,"is_reserved":false,"is_disabled":false,"rental_uris":{"android":"levelo://app?vid=9762ecb4-f236-4a66-b689-a70660269118","ios":"levelo://app?vid=9762ecb4-f236-4a66-b689-a70660269118"},"vehicle_type_id":"4","last_reported":1746353381,"current_range_meters":29600,"station_id":"ce4bhap2rcd13ifvqek0","pricing_plan_id":"cebpf4jnsgd1na2vs0mg"},{"bike_id":"ded42051-0039-4cc2-a841-aeed54376989","system_id":"levelo_inurba_marseille","lat":43.265136,"lon":5.424476,"is_reserved":false,"is_disabled":false,"rental_uris":{"android":"levelo://app?vid=ded42051-0039-4cc2-a841-aeed54376989","ios":"levelo://app?vid=ded42051-0039-4cc2-a841-aeed54376989"},"vehicle_type_id":"4","last_reported":1746353381,"current_range_meters":30000,"station_id":"","pricing_plan_id":"cebpf4jnsgd1na2vs0mg"},{"bike_id":"1bcedd05-90fb-4c2c-b71e-896ea9a48d5f","system_id":"levelo_inurba_marseille","lat":43.2932,"lon":5.43437,"is_reserved":false,"is_disabled":false,"rental_uris":{"android":"levelo://app?vid=1bcedd05-90fb-4c2c-b71e-896ea9a48d5f","ios":"levelo://app?vid=1bcedd05-90fb-4c2c-b71e-896ea9a48d5f"},"vehicle_type_id":"4","last_reported":1746353381,"current_range_meters":30000,"station_id":"","pricing_plan_id":"cebpf4jnsgd1na2vs0mg"},{"bike_id":"3fa837f6-3012-43fe-8f91-d362c258afaf","system_id":"levelo_inurba_marseille","lat":43.29977,"lon":5.37181,"is_reserved":false,"is_disabled":false,"rental_uris":{"android":"levelo://app?vid=3fa837f6-3012-43fe-8f91-d362c258afaf","ios":"levelo://app?vid=3fa837f6-3012-43fe-8f91-d362c258afaf"},"vehicle_type_id":"4","last_reported":1746353381,"current_range_meters":30000,"station_id":"ce4bgr92rcd13ifvqc7g","pricing_plan_id":"cebpf4jnsgd1na2vs0mg"},{"bike_id":"e8bfcb43-129e-4d9d-8b17-3248a2eae59f","system_id":"levelo_inurba_marseille","lat":43.30936,"lon":5.40133,"is_reserved":false,"is_disabled":false,"rental_uris":{"android":"levelo://app?vid=e8bfcb43-129e-4d9d-8b17-3248a2eae59f","ios":"levelo://app?vid=e8bfcb43-129e-4d9d-8b17-3248a2eae59f"},"vehicle_type_id":"4","last_reported":1746353381,"current_range_meters":30000,"station_id":"ce4bgvp2rcd13ifvqct0","pricing_plan_id":"cebpf4jnsgd1na2vs0mg"},{"bike_id":"9c1d27bb-ccb6-4c3d-9a89-be05b0a6ff4a","system_id":"levelo_inurba_marseille","lat":43.28406,"lon":5.37512,"is_reserved":false,"is_disabled":false,"rental_uris":{"android":"levelo://app?vid=9c1d27bb-ccb6-4c3d-9a89-be05b0a6ff4a","ios":"levelo://app?vid=9c1d27bb-ccb6-4c3d-9a89-be05b0a6ff4a"},"vehicle_type_id":"4","last_reported":1746353381,"current_range_meters":30000,"station_id":"ce4bh412rcd13ifvqds0","pricing_plan_id":"cebpf4jnsgd1na2vs0mg"},{"bike_id":"55a87ff8-9cb4-4033-b8f6-1ca649eed6fd","system_id":"levelo_inurba_marseille","lat":43.29226,"lon":5.36062,"is_reserved":false,"is_disabled":false,"rental_uris":{"android":"levelo://app?vid=55a87ff8-9cb4-4033-b8f6-1ca649eed6fd","ios":"levelo://app?vid=55a87ff8-9cb4-4033-b8f6-1ca649eed6fd"},"vehicle_type_id":"4","last_reported":1746353381,"current_range_meters":30000,"station_id":"ce4bhbh2rcd13ifvqeqg","pricing_plan_id":"cebpf4jnsgd1na2vs0mg"},{"bike_id":"8e6487aa-800f-4998-a3be-e79a975a06d5","system_id":"levelo_inurba_marseille","lat":43.34142,"lon":5.40908,"is_reserved":false,"is_disabled":false,"rental_uris":{"android":"levelo://app?vid=8e6487aa-800f-4998-a3be-e79a975a06d5","ios":"levelo://app?vid=8e6487aa-800f-4998-a3be-e79a975a06d5"},"vehicle_type_id":"4","last_reported":1746353381,"current_range_meters":30000,"station_id":"ce4bhqh2rcd13ifvqhlg","pricing_plan_id":"cebpf4jnsgd1na2vs0mg"},{"bike_id":"38214a63-ce33-4893-9845-0c7338a97e1e","system_id":"levelo_inurba_marseille","lat":43.32291,"lon":5.38299,"is_reserved":false,"is_disabled":false,"rental_uris":{"android":"levelo://app?vid=38214a63-ce33-4893-9845-0c7338a97e1e","ios":"levelo://app?vid=38214a63-ce33-4893-9845-0c7338a97e1e"},"vehicle_type_id":"4","last_reported":1746353381,"current_range_meters":30000,"station_id":"ce4bhr12rcd13ifvqhqg","pricing_plan_id":"cebpf4jnsgd1na2vs0mg"},{"bike_id":"505c6cb0-9945-457b-8566-a850f9d80017","system_id":"levelo_inurba_marseille","lat":43.21747,"lon":5.34605,"is_reserved":false,"is_disabled":false,"rental_uris":{"android":"levelo://app?vid=505c6cb0-9945-457b-8566-a850f9d80017","ios":"levelo://app?vid=505c6cb0-9945-457b-8566-a850f9d80017"},"vehicle_type_id":"4","last_reported":1746353381,"current_range_meters":30400,"station_id":"","pricing_plan_id":"cebpf4jnsgd1na2vs0mg"},{"bike_id":"5b3c375b-5917-4930-beac-3ad9b887e5ed","system_id":"levelo_inurba_marseille","lat":43.30791,"lon":5.37663,"is_reserved":false,"is_disabled":false,"rental_uris":{"android":"levelo://app?vid=5b3c375b-5917-4930-beac-3ad9b887e5ed","ios":"levelo://app?vid=5b3c375b-5917-4930-beac-3ad9b887e5ed"},"vehicle_type_id":"4","last_reported":1746353381,"current_range_meters":30400,"station_id":"ce4bgv92rcd13ifvqcq0","pricing_plan_id":"cebpf4jnsgd1na2vs0mg"},{"bike_id":"4ada9ae5-1fdb-4b04-97e5-f6e979f4579d","system_id":"levelo_inurba_marseille","lat":43.31273,"lon":5.40187,"is_reserved":false,"is_disabled":false,"rental_uris":{"android":"levelo://app?vid=4ada9ae5-1fdb-4b04-97e5-f6e979f4579d","ios":"levelo://app?vid=4ada9ae5-1fdb-4b04-97e5-f6e979f4579d"},"vehicle_type_id":"4","last_reported":1746353381,"current_range_meters":30400,"station_id":"ce4bh092rcd13ifvqd30","pricing_plan_id":"cebpf4jnsgd1na2vs0mg"},{"bike_id":"d919555e-c032-4529-9e6e-00f4925c6d8d","system_id":"levelo_inurba_marseille","lat":43.24393,"lon":5.37038,"is_reserved":false,"is_disabled":false,"rental_uris":{"android":"levelo://app?vid=d919555e-c032-4529-9e6e-00f4925c6d8d","ios":"levelo://app?vid=d919555e-c032-4529-9e6e-00f4925c6d8d"},"vehicle_type_id":"4","last_reported":1746353381,"current_range_meters":30400,"station_id":"ce4bhhh2rcd13ifvqfk0","pricing_plan_id":"cebpf4jnsgd1na2vs0mg"},{"bike_id":"aa38dfad-dbce-41c3-ba85-e4dfddae97a1","system_id":"levelo_inurba_marseille","lat":43.29261,"lon":5.37632,"is_reserved":false,"is_disabled":false,"rental_uris":{"android":"levelo://app?vid=aa38dfad-dbce-41c3-ba85-e4dfddae97a1","ios":"levelo://app?vid=aa38dfad-dbce-41c3-ba85-e4dfddae97a1"},"vehicle_type_id":"4","last_reported":1746353381,"current_range_meters":30800,"station_id":"ce4bgi12rcd13ifvqb80","pricing_plan_id":"cebpf4jnsgd1na2vs0mg"},{"bike_id":"fc305499-9f95-400f-a421-bd9579897e38","system_id":"levelo_inurba_marseille","lat":43.30553,"lon":5.3655,"is_reserved":false,"is_disabled":false,"rental_uris":{"android":"levelo://app?vid=fc305499-9f95-400f-a421-bd9579897e38","ios":"levelo://app?vid=fc305499-9f95-400f-a421-bd9579897e38"},"vehicle_type_id":"4","last_reported":1746353381,"current_range_meters":30800,"station_id":"ce4bgs12rcd13ifvqcag","pricing_plan_id":"cebpf4jnsgd1na2vs0mg"},{"bike_id":"9206c91c-e2a9-4956-9eea-e8fdf4ff3172","system_id":"levelo_inurba_marseille","lat":43.25004,"lon":5.38937,"is_reserved":false,"is_disabled":false,"rental_uris":{"android":"levelo://app?vid=9206c91c-e2a9-4956-9eea-e8fdf4ff3172","ios":"levelo://app?vid=9206c91c-e2a9-4956-9eea-e8fdf4ff3172"},"vehicle_type_id":"4","last_reported":1746353381,"current_range_meters":30800,"station_id":"ce4bhgp2rcd13ifvqfd0","pricing_plan_id":"cebpf4jnsgd1na2vs0mg"},{"bike_id":"f060288a-5fac-4dac-bb91-bd7be56ed4a6","system_id":"levelo_inurba_marseille","lat":43.30302,"lon":5.39204,"is_reserved":false,"is_disabled":false,"rental_uris":{"android":"levelo://app?vid=f060288a-5fac-4dac-bb91-bd7be56ed4a6","ios":"levelo://app?vid=f060288a-5fac-4dac-bb91-bd7be56ed4a6"},"vehicle_type_id":"4","last_reported":1746353381,"current_range_meters":31200,"station_id":"ce4bgkh2rcd13ifvqbk0","pricing_plan_id":"cebpf4jnsgd1na2vs0mg"},{"bike_id":"237268a8-56ce-4c36-92c1-26e506952c86","system_id":"levelo_inurba_marseille","lat":43.31112,"lon":5.37753,"is_reserved":false,"is_disabled":false,"rental_uris":{"android":"levelo://app?vid=237268a8-56ce-4c36-92c1-26e506952c86","ios":"levelo://app?vid=237268a8-56ce-4c36-92c1-26e506952c86"},"vehicle_type_id":"4","last_reported":1746353381,"current_range_meters":31200,"station_id":"ce4bgt92rcd13ifvqcg0","pricing_plan_id":"cebpf4jnsgd1na2vs0mg"},{"bike_id":"dc668fac-8499-4cb4-a3c8-a75804db9b7c","system_id":"levelo_inurba_marseille","lat":43.286834,"lon":5.373891,"is_reserved":false,"is_disabled":false,"rental_uris":{"android":"levelo://app?vid=dc668fac-8499-4cb4-a3c8-a75804db9b7c","ios":"levelo://app?vid=dc668fac-8499-4cb4-a3c8-a75804db9b7c"},"vehicle_type_id":"4","last_reported":1746353381,"current_range_meters":31200,"station_id":"ce4bh3p2rcd13ifvqdq0","pricing_plan_id":"cebpf4jnsgd1na2vs0mg"},{"bike_id":"da6552e8-5e9a-4fd3-9001-895d00c43165","system_id":"levelo_inurba_marseille","lat":43.28343,"lon":5.38107,"is_reserved":false,"is_disabled":false,"rental_uris":{"android":"levelo://app?vid=da6552e8-5e9a-4fd3-9001-895d00c43165","ios":"levelo://app?vid=da6552e8-5e9a-4fd3-9001-895d00c43165"},"vehicle_type_id":"4","last_reported":1746353381,"current_range_meters":31200,"station_id":"ce4bh412rcd13ifvqdr0","pricing_plan_id":"cebpf4jnsgd1na2vs0mg"},{"bike_id":"f40bd52b-7555-4a4b-a365-0ee50e956171","system_id":"levelo_inurba_marseille","lat":43.29165,"lon":5.37159,"is_reserved":false,"is_disabled":false,"rental_uris":{"android":"levelo://app?vid=f40bd52b-7555-4a4b-a365-0ee50e956171","ios":"levelo://app?vid=f40bd52b-7555-4a4b-a365-0ee50e956171"},"vehicle_type_id":"4","last_reported":1746353381,"current_range_meters":31200,"station_id":"ce4bha92rcd13ifvqeh0","pricing_plan_id":"cebpf4jnsgd1na2vs0mg"},{"bike_id":"5f56f333-de02-4f6f-a5b1-d3e56027e0b2","system_id":"levelo_inurba_marseille","lat":43.23959,"lon":5.36627,"is_reserved":false,"is_disabled":false,"rental_uris":{"android":"levelo://app?vid=5f56f333-de02-4f6f-a5b1-d3e56027e0b2","ios":"levelo://app?vid=5f56f333-de02-4f6f-a5b1-d3e56027e0b2"},"vehicle_type_id":"4","last_reported":1746353381,"current_range_meters":31200,"station_id":"ce4bhi12rcd13ifvqfp0","pricing_plan_id":"cebpf4jnsgd1na2vs0mg"},{"bike_id":"0e35b2b4-a2be-42f3-b6b8-171aec81caea","system_id":"levelo_inurba_marseille","lat":43.279382,"lon":5.41059,"is_reserved":false,"is_disabled":false,"rental_uris":{"android":"levelo://app?vid=0e35b2b4-a2be-42f3-b6b8-171aec81caea","ios":"levelo://app?vid=0e35b2b4-a2be-42f3-b6b8-171aec81caea"},"vehicle_type_id":"4","last_reported":1746353381,"current_range_meters":31200,"station_id":"ce4bhnp2rcd13ifvqh0g","pricing_plan_id":"cebpf4jnsgd1na2vs0mg"},{"bike_id":"7515860d-853e-4aff-9408-85c0a7872c1e","system_id":"levelo_inurba_marseille","lat":43.34454,"lon":5.35908,"is_reserved":false,"is_disabled":false,"rental_uris":{"android":"levelo://app?vid=7515860d-853e-4aff-9408-85c0a7872c1e","ios":"levelo://app?vid=7515860d-853e-4aff-9408-85c0a7872c1e"},"vehicle_type_id":"4","last_reported":1746353381,"current_range_meters":32000,"station_id":"","pricing_plan_id":"cebpf4jnsgd1na2vs0mg"},{"bike_id":"1da5bea2-5eee-45a1-8726-85ec05a0bcd1","system_id":"levelo_inurba_marseille","lat":43.28479,"lon":5.38425,"is_reserved":false,"is_disabled":false,"rental_uris":{"android":"levelo://app?vid=1da5bea2-5eee-45a1-8726-85ec05a0bcd1","ios":"levelo://app?vid=1da5bea2-5eee-45a1-8726-85ec05a0bcd1"},"vehicle_type_id":"4","last_reported":1746353381,"current_range_meters":32000,"station_id":"ce4bh512rcd13ifvqe3g","pricing_plan_id":"cebpf4jnsgd1na2vs0mg"},{"bike_id":"da405137-394f-4343-bf6f-fa43c24d159c","system_id":"levelo_inurba_marseille","lat":43.28474,"lon":5.38418,"is_reserved":false,"is_disabled":false,"rental_uris":{"android":"levelo://app?vid=da405137-394f-4343-bf6f-fa43c24d159c","ios":"levelo://app?vid=da405137-394f-4343-bf6f-fa43c24d159c"},"vehicle_type_id":"4","last_reported":1746353381,"current_range_meters":32000,"station_id":"ce4bh512rcd13ifvqe3g","pricing_plan_id":"cebpf4jnsgd1na2vs0mg"},{"bike_id":"85e507e8-6226-4bce-ae83-530c2f2a4249","system_id":"levelo_inurba_marseille","lat":43.25504,"lon":5.37648,"is_reserved":false,"is_disabled":false,"rental_uris":{"android":"levelo://app?vid=85e507e8-6226-4bce-ae83-530c2f2a4249","ios":"levelo://app?vid=85e507e8-6226-4bce-ae83-530c2f2a4249"},"vehicle_type_id":"4","last_reported":1746353381,"current_range_meters":32000,"station_id":"ce4bhh12rcd13ifvqff0","pricing_plan_id":"cebpf4jnsgd1na2vs0mg"},{"bike_id":"bf8fc610-7e18-470c-96e2-8e44c831b3c7","system_id":"levelo_inurba_marseille","lat":43.32362,"lon":5.36754,"is_reserved":false,"is_disabled":false,"rental_uris":{"android":"levelo://app?vid=bf8fc610-7e18-470c-96e2-8e44c831b3c7","ios":"levelo://app?vid=bf8fc610-7e18-470c-96e2-8e44c831b3c7"},"vehicle_type_id":"4","last_reported":1746353381,"current_range_meters":32000,"station_id":"ce4bhsh2rcd13ifvqi2g","pricing_plan_id":"cebpf4jnsgd1na2vs0mg"},{"bike_id":"4fc45c9c-759e-43bb-8f90-9172c11c6dcc","system_id":"levelo_inurba_marseille","lat":43.23203,"lon":5.35555,"is_reserved":false,"is_disabled":false,"rental_uris":{"android":"levelo://app?vid=4fc45c9c-759e-43bb-8f90-9172c11c6dcc","ios":"levelo://app?vid=4fc45c9c-759e-43bb-8f90-9172c11c6dcc"},"vehicle_type_id":"4","last_reported":1746353381,"current_range_meters":32000,"station_id":"ce4bhu92rcd13ifvqi70","pricing_plan_id":"cebpf4jnsgd1na2vs0mg"},{"bike_id":"dbe4256e-5378-4753-be43-1d440aeede33","system_id":"levelo_inurba_marseille","lat":43.29588,"lon":5.36739,"is_reserved":false,"is_disabled":false,"rental_uris":{"android":"levelo://app?vid=dbe4256e-5378-4753-be43-1d440aeede33","ios":"levelo://app?vid=dbe4256e-5378-4753-be43-1d440aeede33"},"vehicle_type_id":"4","last_reported":1746353381,"current_range_meters":32400,"station_id":"ce4bgph2rcd13ifvqc2g","pricing_plan_id":"cebpf4jnsgd1na2vs0mg"},{"bike_id":"a80f049d-bbc1-4322-aae8-fa641c99e04a","system_id":"levelo_inurba_marseille","lat":43.30933,"lon":5.40152,"is_reserved":false,"is_disabled":false,"rental_uris":{"android":"levelo://app?vid=a80f049d-bbc1-4322-aae8-fa641c99e04a","ios":"levelo://app?vid=a80f049d-bbc1-4322-aae8-fa641c99e04a"},"vehicle_type_id":"4","last_reported":1746353381,"current_range_meters":32400,"station_id":"ce4bgvp2rcd13ifvqct0","pricing_plan_id":"cebpf4jnsgd1na2vs0mg"},{"bike_id":"3a6e98a1-f881-46da-b2e2-1a691f2806e6","system_id":"levelo_inurba_marseille","lat":43.28911,"lon":5.36405,"is_reserved":false,"is_disabled":false,"rental_uris":{"android":"levelo://app?vid=3a6e98a1-f881-46da-b2e2-1a691f2806e6","ios":"levelo://app?vid=3a6e98a1-f881-46da-b2e2-1a691f2806e6"},"vehicle_type_id":"4","last_reported":1746353381,"current_range_meters":32400,"station_id":"ce4bhc92rcd13ifvqetg","pricing_plan_id":"cebpf4jnsgd1na2vs0mg"},{"bike_id":"d121b293-6364-4c3a-8874-23e8de75304d","system_id":"levelo_inurba_marseille","lat":43.243859,"lon":5.370569,"is_reserved":false,"is_disabled":false,"rental_uris":{"android":"levelo://app?vid=d121b293-6364-4c3a-8874-23e8de75304d","ios":"levelo://app?vid=d121b293-6364-4c3a-8874-23e8de75304d"},"vehicle_type_id":"4","last_reported":1746353381,"current_range_meters":32400,"station_id":"ce4bhhh2rcd13ifvqfk0","pricing_plan_id":"cebpf4jnsgd1na2vs0mg"},{"bike_id":"856531ac-1e03-4142-8961-89c5c65a6a43","system_id":"levelo_inurba_marseille","lat":43.27074,"lon":5.42281,"is_reserved":false,"is_disabled":false,"rental_uris":{"android":"levelo://app?vid=856531ac-1e03-4142-8961-89c5c65a6a43","ios":"levelo://app?vid=856531ac-1e03-4142-8961-89c5c65a6a43"},"vehicle_type_id":"4","last_reported":1746353381,"current_range_meters":32400,"station_id":"ce4bhk92rcd13ifvqgb0","pricing_plan_id":"cebpf4jnsgd1na2vs0mg"},{"bike_id":"85f159be-b53e-4a26-af6f-13ecb4281090","system_id":"levelo_inurba_marseille","lat":43.30134,"lon":5.38779,"is_reserved":false,"is_disabled":false,"rental_uris":{"android":"levelo://app?vid=85f159be-b53e-4a26-af6f-13ecb4281090","ios":"levelo://app?vid=85f159be-b53e-4a26-af6f-13ecb4281090"},"vehicle_type_id":"4","last_reported":1746353381,"current_range_meters":32800,"station_id":"ce4bghh2rcd13ifvqb60","pricing_plan_id":"cebpf4jnsgd1na2vs0mg"},{"bike_id":"33be80c1-73bf-4461-a750-c4039acc02a1","system_id":"levelo_inurba_marseille","lat":43.29279,"lon":5.40122,"is_reserved":false,"is_disabled":false,"rental_uris":{"android":"levelo://app?vid=33be80c1-73bf-4461-a750-c4039acc02a1","ios":"levelo://app?vid=33be80c1-73bf-4461-a750-c4039acc02a1"},"vehicle_type_id":"4","last_reported":1746353381,"current_range_meters":32800,"station_id":"ce4bh312rcd13ifvqdk0","pricing_plan_id":"cebpf4jnsgd1na2vs0mg"},{"bike_id":"77b6c810-7e39-49cb-9fc3-8eea7ca09866","system_id":"levelo_inurba_marseille","lat":43.29222,"lon":5.36075,"is_reserved":false,"is_disabled":false,"rental_uris":{"android":"levelo://app?vid=77b6c810-7e39-49cb-9fc3-8eea7ca09866","ios":"levelo://app?vid=77b6c810-7e39-49cb-9fc3-8eea7ca09866"},"vehicle_type_id":"4","last_reported":1746353381,"current_range_meters":32800,"station_id":"ce4bhbh2rcd13ifvqeqg","pricing_plan_id":"cebpf4jnsgd1na2vs0mg"},{"bike_id":"c24e91d4-c3f8-46f4-8526-164dec99391f","system_id":"levelo_inurba_marseille","lat":43.24995,"lon":5.3893,"is_reserved":false,"is_disabled":false,"rental_uris":{"android":"levelo://app?vid=c24e91d4-c3f8-46f4-8526-164dec99391f","ios":"levelo://app?vid=c24e91d4-c3f8-46f4-8526-164dec99391f"},"vehicle_type_id":"4","last_reported":1746353381,"current_range_meters":32800,"station_id":"ce4bhgp2rcd13ifvqfd0","pricing_plan_id":"cebpf4jnsgd1na2vs0mg"},{"bike_id":"8e539eab-4306-49f8-968b-782cbb25082e","system_id":"levelo_inurba_marseille","lat":43.2456,"lon":5.39528,"is_reserved":false,"is_disabled":false,"rental_uris":{"android":"levelo://app?vid=8e539eab-4306-49f8-968b-782cbb25082e","ios":"levelo://app?vid=8e539eab-4306-49f8-968b-782cbb25082e"},"vehicle_type_id":"4","last_reported":1746353381,"current_range_meters":32800,"station_id":"ce4bhlp2rcd13ifvqgjg","pricing_plan_id":"cebpf4jnsgd1na2vs0mg"},{"bike_id":"86628a19-a87e-4f00-8b2c-8a75262234e2","system_id":"levelo_inurba_marseille","lat":43.32303,"lon":5.38283,"is_reserved":false,"is_disabled":false,"rental_uris":{"android":"levelo://app?vid=86628a19-a87e-4f00-8b2c-8a75262234e2","ios":"levelo://app?vid=86628a19-a87e-4f00-8b2c-8a75262234e2"},"vehicle_type_id":"4","last_reported":1746353381,"current_range_meters":32800,"station_id":"ce4bhr12rcd13ifvqhqg","pricing_plan_id":"cebpf4jnsgd1na2vs0mg"},{"bike_id":"6f10c397-2fb9-4802-915f-b2f2dce9e14a","system_id":"levelo_inurba_marseille","lat":43.23047,"lon":5.35491,"is_reserved":false,"is_disabled":false,"rental_uris":{"android":"levelo://app?vid=6f10c397-2fb9-4802-915f-b2f2dce9e14a","ios":"levelo://app?vid=6f10c397-2fb9-4802-915f-b2f2dce9e14a"},"vehicle_type_id":"4","last_reported":1746353381,"current_range_meters":32800,"station_id":"cpo3342slgdg3j2ifvpg","pricing_plan_id":"cebpf4jnsgd1na2vs0mg"},{"bike_id":"6a6b9ad8-b5fd-4932-ac62-ad78a761eb5a","system_id":"levelo_inurba_marseille","lat":43.27979,"lon":5.38654,"is_reserved":false,"is_disabled":false,"rental_uris":{"android":"levelo://app?vid=6a6b9ad8-b5fd-4932-ac62-ad78a761eb5a","ios":"levelo://app?vid=6a6b9ad8-b5fd-4932-ac62-ad78a761eb5a"},"vehicle_type_id":"4","last_reported":1746353381,"current_range_meters":33200,"station_id":"","pricing_plan_id":"cebpf4jnsgd1na2vs0mg"},{"bike_id":"2596162b-35d9-496d-8216-3b25ca95b12d","system_id":"levelo_inurba_marseille","lat":43.2959,"lon":5.42213,"is_reserved":false,"is_disabled":false,"rental_uris":{"android":"levelo://app?vid=2596162b-35d9-496d-8216-3b25ca95b12d","ios":"levelo://app?vid=2596162b-35d9-496d-8216-3b25ca95b12d"},"vehicle_type_id":"4","last_reported":1746353381,"current_range_meters":33200,"station_id":"","pricing_plan_id":"cebpf4jnsgd1na2vs0mg"},{"bike_id":"2b17e36a-eb9d-4510-bef6-bc342dbd42a3","system_id":"levelo_inurba_marseille","lat":43.30431,"lon":5.38887,"is_reserved":false,"is_disabled":false,"rental_uris":{"android":"levelo://app?vid=2b17e36a-eb9d-4510-bef6-bc342dbd42a3","ios":"levelo://app?vid=2b17e36a-eb9d-4510-bef6-bc342dbd42a3"},"vehicle_type_id":"4","last_reported":1746353381,"current_range_meters":33200,"station_id":"ce4bgk12rcd13ifvqbi0","pricing_plan_id":"cebpf4jnsgd1na2vs0mg"},{"bike_id":"c704c09e-535d-42e1-8586-e38087418a20","system_id":"levelo_inurba_marseille","lat":43.29836,"lon":5.36271,"is_reserved":false,"is_disabled":false,"rental_uris":{"android":"levelo://app?vid=c704c09e-535d-42e1-8586-e38087418a20","ios":"levelo://app?vid=c704c09e-535d-42e1-8586-e38087418a20"},"vehicle_type_id":"4","last_reported":1746353381,"current_range_meters":33200,"station_id":"ce4bgpp2rcd13ifvqc3g","pricing_plan_id":"cebpf4jnsgd1na2vs0mg"},{"bike_id":"f46d2fe0-f71c-4445-bf44-be7d64e01ab4","system_id":"levelo_inurba_marseille","lat":43.27215,"lon":5.39117,"is_reserved":false,"is_disabled":false,"rental_uris":{"android":"levelo://app?vid=f46d2fe0-f71c-4445-bf44-be7d64e01ab4","ios":"levelo://app?vid=f46d2fe0-f71c-4445-bf44-be7d64e01ab4"},"vehicle_type_id":"4","last_reported":1746353381,"current_range_meters":33200,"station_id":"ce4bhhp2rcd13ifvqfm0","pricing_plan_id":"cebpf4jnsgd1na2vs0mg"},{"bike_id":"dc9fd0b7-cf7f-4cff-b469-b6b743aaad3f","system_id":"levelo_inurba_marseille","lat":43.27068,"lon":5.42276,"is_reserved":false,"is_disabled":false,"rental_uris":{"android":"levelo://app?vid=dc9fd0b7-cf7f-4cff-b469-b6b743aaad3f","ios":"levelo://app?vid=dc9fd0b7-cf7f-4cff-b469-b6b743aaad3f"},"vehicle_type_id":"4","last_reported":1746353381,"current_range_meters":33200,"station_id":"ce4bhk92rcd13ifvqgb0","pricing_plan_id":"cebpf4jnsgd1na2vs0mg"},{"bike_id":"4402ca4d-5b46-4081-a282-4dd8a7566b12","system_id":"levelo_inurba_marseille","lat":43.25943,"lon":5.40891,"is_reserved":false,"is_disabled":false,"rental_uris":{"android":"levelo://app?vid=4402ca4d-5b46-4081-a282-4dd8a7566b12","ios":"levelo://app?vid=4402ca4d-5b46-4081-a282-4dd8a7566b12"},"vehicle_type_id":"4","last_reported":1746353381,"current_range_meters":33200,"station_id":"ce4bhm92rcd13ifvqglg","pricing_plan_id":"cebpf4jnsgd1na2vs0mg"},{"bike_id":"26d50e72-8f5c-4f2f-a74e-971fae1d0c96","system_id":"levelo_inurba_marseille","lat":43.32662,"lon":5.40992,"is_reserved":false,"is_disabled":false,"rental_uris":{"android":"levelo://app?vid=26d50e72-8f5c-4f2f-a74e-971fae1d0c96","ios":"levelo://app?vid=26d50e72-8f5c-4f2f-a74e-971fae1d0c96"},"vehicle_type_id":"4","last_reported":1746353381,"current_range_meters":33200,"station_id":"ce4bhpp2rcd13ifvqhgg","pricing_plan_id":"cebpf4jnsgd1na2vs0mg"},{"bike_id":"06035d18-0a5f-45e3-bfe0-68b6d2a10cc4","system_id":"levelo_inurba_marseille","lat":43.323659,"lon":5.367682,"is_reserved":false,"is_disabled":false,"rental_uris":{"android":"levelo://app?vid=06035d18-0a5f-45e3-bfe0-68b6d2a10cc4","ios":"levelo://app?vid=06035d18-0a5f-45e3-bfe0-68b6d2a10cc4"},"vehicle_type_id":"4","last_reported":1746353381,"current_range_meters":33200,"station_id":"ce4bhsh2rcd13ifvqi2g","pricing_plan_id":"cebpf4jnsgd1na2vs0mg"},{"bike_id":"a6ef1a95-4d7b-4fa1-aca4-666b791716c9","system_id":"levelo_inurba_marseille","lat":43.33581,"lon":5.42846,"is_reserved":false,"is_disabled":false,"rental_uris":{"android":"levelo://app?vid=a6ef1a95-4d7b-4fa1-aca4-666b791716c9","ios":"levelo://app?vid=a6ef1a95-4d7b-4fa1-aca4-666b791716c9"},