{"last_updated":1710555158,"ttl":30,"version":"2.2","data":{"bikes":[{"bike_id":"a4a6c5fc-5dc6-4dd2-bfab-c778f985f900","system_id":"levelo_inurba_marseille","lat":43.313391,"lon":5.36706,"is_reserved":false,"is_disabled":false,"rental_uris":{"android":"levelo://app?vid=a4a6c5fc-5dc6-4dd2-bfab-c778f985f900","ios":"levelo://app?vid=a4a6c5fc-5dc6-4dd2-bfab-c778f985f900"},"vehicle_type_id":"4","last_reported":1710555158,"current_range_meters":26400,"station_id":"ce4bgr92rcd13ifvqc6g","pricing_plan_id":"cebpf4jnsgd1na2vs0mg"},{"bike_id":"4ab2ed7f-1543-4466-9561-5d04c3f5286a","system_id":"levelo_inurba_marseille","lat":43.313391,"lon":5.36706,"is_reserved":false,"is_disabled":false,"rental_uris":{"android":"levelo://app?vid=4ab2ed7f-1543-4466-9561-5d04c3f5286a","ios":"levelo://app?vid=4ab2ed7f-1543-4466-9561-5d04c3f5286a"},"vehicle_type_id":"4","last_reported":1710555158,"current_range_meters":10000,"station_id":"ce4bgr92rcd13ifvqc6g","pricing_plan_id":"cebpf4jnsgd1na2vs0mg"},{"bike_id":"9abf7bd3-4822-4c1e-918f-fe9e88dee659","system_id":"levelo_inurba_marseille","lat":43.312239,"lon":5.368562,"is_reserved":false,"is_disabled":false,"rental_uris":{"android":"levelo://app?vid=9abf7bd3-4822-4c1e-918f-fe9e88dee659","ios":"levelo://app?vid=9abf7bd3-4822-4c1e-918f-fe9e88dee659"},"vehicle_type_id":"4","last_reported":1710555158,"current_range_meters":25600,"station_id":"ce4bgl92rcd13ifvqbq0","pricing_plan_id":"cebpf4jnsgd1na2vs0mg"},{"bike_id":"d5668bc7-3f5e-4428-98d3-5c4e76e7e401","system_id":"levelo_inurba_marseille","lat":43.31225,"lon":5.368563,"is_reserved":false,"is_disabled":false,"rental_uris":{"android":"levelo://app?vid=d5668bc7-3f5e-4428-98d3-5c4e76e7e401","ios":"levelo://app?vid=d5668bc7-3f5e-4428-98d3-5c4e76e7e401"},"vehicle_type_id":"4","last_reported":1710555158,"current_range_meters":0,"station_id":"ce4bgl92rcd13ifvqbq0","pricing_plan_id":"cebpf4jnsgd1na2vs0mg"},{"bike_id":"b732392b-abb1-4c0c-ba55-62f2824723ee","system_id":"levelo_inurba_marseille","lat":43.312239,"lon":5.368562,"is_reserved":false,"is_disabled":false,"rental_uris":{"android":"levelo://app?vid=b732392b-abb1-4c0c-ba55-62f2824723ee","ios":"levelo://app?vid=b732392b-abb1-4c0c-ba55-62f2824723ee"},"vehicle_type_id":"4","last_reported":1710555158,"current_range_meters":12400,"station_id":"ce4bgl92rcd13ifvqbq0","pricing_plan_id":"cebpf4jnsgd1na2vs0mg"},{"bike_id":"ed8bedfb-dc64-4e1a-9c6d-c0292576b4b5","system_id":"levelo_inurba_marseille","lat":43.309076,"lon":5.368465,"is_reserved":false,"is_disabled":false,"rental_uris":{"android":"levelo://app?vid=ed8bedfb-dc64-4e1a-9c6d-c0292576b4b5","ios":"levelo://app?vid=ed8bedfb-dc64-4e1a-9c6d-c0292576b4b5"},"vehicle_type_id":"4","last_reported":1710555158,"current_range_meters":20000,"station_id":"ce4bgn92rcd13ifvqbvg","pricing_plan_id":"cebpf4jnsgd1na2vs0mg"},{"bike_id":"b20d0b79-32d8-43e2-aa29-7207578948d4","system_id":"levelo_inurba_marseille","lat":43.309076,"lon":5.368465,"is_reserved":false,"is_disabled":false,"rental_uris":{"android":"levelo://app?vid=b20d0b79-32d8-43e2-aa29-7207578948d4","ios":"levelo://app?vid=b20d0b79-32d8-43e2-aa29-7207578948d4"},"vehicle_type_id":"4","last_reported":1710555158,"current_range_meters":25200,"station_id":"ce4bgn92rcd13ifvqbvg","pricing_plan_id":"cebpf4jnsgd1na2vs0mg"},{"bike_id":"f4bfcc8e-ea18-4848-ac39-9c789c5f99f3","system_id":"levelo_inurba_marseille","lat":43.314811,"lon":5.373103,"is_reserved":false,"is_disabled":false,"rental_uris":{"android":"levelo://app?vid=f4bfcc8e-ea18-4848-ac39-9c789c5f99f3","ios":"levelo://app?vid=f4bfcc8e-ea18-4848-ac39-9c789c5f99f3"},"vehicle_type_id":"4","last_reported":1710555158,"current_range_meters":20400,"station_id":"ce4bgt12rcd13ifvqcd0","pricing_plan_id":"cebpf4jnsgd1na2vs0mg"},{"bike_id":"62852216-5499-4100-8561-e368d4933336","system_id":"levelo_inurba_marseille","lat":43.314811,"lon":5.373103,"is_reserved":false,"is_disabled":false,"rental_uris":{"android":"levelo://app?vid=62852216-5499-4100-8561-e368d4933336","ios":"levelo://app?vid=62852216-5499-4100-8561-e368d4933336"},"vehicle_type_id":"4","last_reported":1710555158,"current_range_meters":14000,"station_id":"ce4bgt12rcd13ifvqcd0","pricing_plan_id":"cebpf4jnsgd1na2vs0mg"},{"bike_id":"622594b4-00d9-4960-a910-1bce9047698f","system_id":"levelo_inurba_marseille","lat":43.314811,"lon":5.373103,"is_reserved":false,"is_disabled":false,"rental_uris":{"android":"levelo://app?vid=622594b4-00d9-4960-a910-1bce9047698f","ios":"levelo://app?vid=622594b4-00d9-4960-a910-1bce9047698f"},"vehicle_type_id":"4","last_reported":1710555158,"current_range_meters":20800,"station_id":"ce4bgt12rcd13ifvqcd0","pricing_plan_id":"cebpf4jnsgd1na2vs0mg"},{"bike_id":"edcde6ed-90e9-438a-9fef-c640acbcabd9","system_id":"levelo_inurba_marseille","lat":43.314811,"lon":5.373103,"is_reserved":false,"is_disabled":false,"rental_uris":{"android":"levelo://app?vid=edcde6ed-90e9-438a-9fef-c640acbcabd9","ios":"levelo://app?vid=edcde6ed-90e9-438a-9fef-c640acbcabd9"},"vehicle_type_id":"4","last_reported":1710555158,"current_range_meters":9200,"station_id":"ce4bgt12rcd13ifvqcd0","pricing_plan_id":"cebpf4jnsgd1na2vs0mg"},{"bike_id":"9f111b70-f0f7-4990-a1ae-e3c3ec30e657","system_id":"levelo_inurba_marseille","lat":43.314811,"lon":5.373103,"is_reserved":false,"is_disabled":false,"rental_uris":{"android":"levelo://app?vid=9f111b70-f0f7-4990-a1ae-e3c3ec30e657","ios":"levelo://app?vid=9f111b70-f0f7-4990-a1ae-e3c3ec30e657"},"vehicle_type_id":"4","last_reported":1710555158,"current_range_meters":22400,"station_id":"ce4bgt12rcd13ifvqcd0","pricing_plan_id":"cebpf4jnsgd1na2vs0mg"},{"bike_id":"252fe404-9315-4e92-bc6e-82a90e2c6ff6","system_id":"levelo_inurba_marseille","lat":43.314811,"lon":5.373104,"is_reserved":false,"is_disabled":false,"rental_uris":{"android":"levelo://app?vid=252fe404-9315-4e92-bc6e-82a90e2c6ff6","ios":"levelo://app?vid=252fe404-9315-4e92-bc6e-82a90e2c6ff6"},"vehicle_type_id":"4","last_reported":1710555158,"current_range_meters":31600,"station_id":"ce4bgt12rcd13ifvqcd0","pricing_plan_id":"cebpf4jnsgd1na2vs0mg"},{"bike_id":"9b9ae445-60c2-4f81-ac19-878d59ec9f0a","system_id":"levelo_inurba_marseille","lat":43.314811,"lon":5.373104,"is_reserved":false,"is_disabled":false,"rental_uris":{"android":"levelo://app?vid=9b9ae445-60c2-4f81-ac19-878d59ec9f0a","ios":"levelo://app?vid=9b9ae445-60c2-4f81-ac19-878d59ec9f0a"},"vehicle_type_id":"4","last_reported":1710555158,"current_range_meters":17200,"station_id":"ce4bgt12rcd13ifvqcd0","pricing_plan_id":"cebpf4jnsgd1na2vs0mg"},{"bike_id":"6a5a9d1f-c889-426f-ac84-9b01975a6584","system_id":"levelo_inurba_marseille","lat":43.31504,"lon":5.37302,"is_reserved":false,"is_disabled":false,"rental_uris":{"android":"levelo://app?vid=6a5a9d1f-c889-426f-ac84-9b01975a6584","ios":"levelo://app?vid=6a5a9d1f-c889-426f-ac84-9b01975a6584"},"vehicle_type_id":"4","last_reported":1710555158,"current_range_meters":0,"station_id":"ce4bgt12rcd13ifvqcd0","pricing_plan_id":"cebpf4jnsgd1na2vs0mg"},{"bike_id":"41aa5aa4-c201-42bb-b4eb-40abcb3d38ad","system_id":"levelo_inurba_marseille","lat":43.314811,"lon":5.373104,"is_reserved":false,"is_disabled":false,"rental_uris":{"android":"levelo://app?vid=41aa5aa4-c201-42bb-b4eb-40abcb3d38ad","ios":"levelo://app?vid=41aa5aa4-c201-42bb-b4eb-40abcb3d38ad"},"vehicle_type_id":"4","last_reported":1710555158,"current_range_meters":17600,"station_id":"ce4bgt12rcd13ifvqcd0","pricing_plan_id":"cebpf4jnsgd1na2vs0mg"},{"bike_id":"daae0b88-be70-4bb4-b60b-001cf97b9afb","system_id":"levelo_inurba_marseille","lat":43.314811,"lon":5.373104,"is_reserved":false,"is_disabled":false,"rental_uris":{"android":"levelo://app?vid=daae0b88-be70-4bb4-b60b-001cf97b9afb","ios":"levelo://app?vid=daae0b88-be70-4bb4-b60b-001cf97b9afb"},"vehicle_type_id":"4","last_reported":1710555158,"current_range_meters":31600,"station_id":"ce4bgt12rcd13ifvqcd0","pricing_plan_id":"cebpf4jnsgd1na2vs0mg"},{"bike_id":"af1c6c27-6eb8-4694-b10c-c13d66caef56","system_id":"levelo_inurba_marseille","lat":43.314811,"lon":5.373103,"is_reserved":false,"is_disabled":false,"rental_uris":{"android":"levelo://app?vid=af1c6c27-6eb8-4694-b10c-c13d66caef56","ios":"levelo://app?vid=af1c6c27-6eb8-4694-b10c-c13d66caef56"},"vehicle_type_id":"4","last_reported":1710555158,"current_range_meters":20400,"station_id":"ce4bgt12rcd13ifvqcd0","pricing_plan_id":"cebpf4jnsgd1na2vs0mg"},{"bike_id":"fe4abe62-1a1f-4538-a948-658e76329453","system_id":"levelo_inurba_marseille","lat":43.309034,"lon":5.371783,"is_reserved":false,"is_disabled":false,"rental_uris":{"android":"levelo://app?vid=fe4abe62-1a1f-4538-a948-658e76329453","ios":"levelo://app?vid=fe4abe62-1a1f-4538-a948-658e76329453"},"vehicle_type_id":"4","last_reported":1710555158,"current_range_meters":25600,"station_id":"ce4bguh2rcd13ifvqckg","pricing_plan_id":"cebpf4jnsgd1na2vs0mg"},{"bike_id":"dabf5db4-5327-44b2-9ab4-24c134637115","system_id":"levelo_inurba_marseille","lat":43.309039,"lon":5.371797,"is_reserved":false,"is_disabled":false,"rental_uris":{"android":"levelo://app?vid=dabf5db4-5327-44b2-9ab4-24c134637115","ios":"levelo://app?vid=dabf5db4-5327-44b2-9ab4-24c134637115"},"vehicle_type_id":"4","last_reported":1710555158,"current_range_meters":9200,"station_id":"ce4bguh2rcd13ifvqckg","pricing_plan_id":"cebpf4jnsgd1na2vs0mg"},{"bike_id":"6357c94c-27d6-45a1-b706-a2a76cf31c02","system_id":"levelo_inurba_marseille","lat":43.309039,"lon":5.371797,"is_reserved":false,"is_disabled":false,"rental_uris":{"android":"levelo://app?vid=6357c94c-27d6-45a1-b706-a2a76cf31c02","ios":"levelo://app?vid=6357c94c-27d6-45a1-b706-a2a76cf31c02"},"vehicle_type_id":"4","last_reported":1710555158,"current_range_meters":30400,"station_id":"ce4bguh2rcd13ifvqckg","pricing_plan_id":"cebpf4jnsgd1na2vs0mg"},{"bike_id":"57a9a273-37d6-426c-ae9a-ce6e5859cd40","system_id":"levelo_inurba_marseille","lat":43.306831,"lon":5.366155,"is_reserved":false,"is_disabled":false,"rental_uris":{"android":"levelo://app?vid=57a9a273-37d6-426c-ae9a-ce6e5859cd40","ios":"levelo://app?vid=57a9a273-37d6-426c-ae9a-ce6e5859cd40"},"vehicle_type_id":"4","last_reported":1710555158,"current_range_meters":14000,"station_id":"","pricing_plan_id":"cebpf4jnsgd1na2vs0mg"},{"bike_id":"9b4cda45-c16e-46ee-8694-c8c9313612d5","system_id":"levelo_inurba_marseille","lat":43.305368,"lon":5.367343,"is_reserved":false,"is_disabled":false,"rental_uris":{"android":"levelo://app?vid=9b4cda45-c16e-46ee-8694-c8c9313612d5","ios":"levelo://app?vid=9b4cda45-c16e-46ee-8694-c8c9313612d5"},"vehicle_type_id":"4","last_reported":1710555158,"current_range_meters":25200,"station_id":"ce4bgrp2rcd13ifvqc9g","pricing_plan_id":"cebpf4jnsgd1na2vs0mg"},{"bike_id":"c7f657e1-d2e3-4736-9a6f-29d53e78c2c1","system_id":"levelo_inurba_marseille","lat":43.30534,"lon":5.367,"is_reserved":false,"is_disabled":false,"rental_uris":{"android":"levelo://app?vid=c7f657e1-d2e3-4736-9a6f-29d53e78c2c1","ios":"levelo://app?vid=c7f657e1-d2e3-4736-9a6f-29d53e78c2c1"},"vehicle_type_id":"4","last_reported":1710555158,"current_range_meters":0,"station_id":"ce4bgrp2rcd13ifvqc9g","pricing_plan_id":"cebpf4jnsgd1na2vs0mg"},{"bike_id":"df9e8d3f-a717-4f29-8a40-6017bfe0cd97","system_id":"levelo_inurba_marseille","lat":43.305989,"lon":5.37225,"is_reserved":false,"is_disabled":false,"rental_uris":{"android":"levelo://app?vid=df9e8d3f-a717-4f29-8a40-6017bfe0cd97","ios":"levelo://app?vid=df9e8d3f-a717-4f29-8a40-6017bfe0cd97"},"vehicle_type_id":"4","last_reported":1710555158,"current_range_meters":31600,"station_id":"ce4bgqh2rcd13ifvqc4g","pricing_plan_id":"cebpf4jnsgd1na2vs0mg"},{"bike_id":"25b4c706-18d6-434d-8e8e-ff73ea12e72f","system_id":"levelo_inurba_marseille","lat":43.305989,"lon":5.37225,"is_reserved":false,"is_disabled":false,"rental_uris":{"android":"levelo://app?vid=25b4c706-18d6-434d-8e8e-ff73ea12e72f","ios":"levelo://app?vid=25b4c706-18d6-434d-8e8e-ff73ea12e72f"},"vehicle_type_id":"4","last_reported":1710555158,"current_range_meters":14000,"station_id":"ce4bgqh2rcd13ifvqc4g","pricing_plan_id":"cebpf4jnsgd1na2vs0mg"},{"bike_id":"58a6c2dc-8bf9-4191-8159-7bd0ba921b0d","system_id":"levelo_inurba_marseille","lat":43.311125,"lon":5.377624,"is_reserved":false,"is_disabled":false,"rental_uris":{"android":"levelo://app?vid=58a6c2dc-8bf9-4191-8159-7bd0ba921b0d","ios":"levelo://app?vid=58a6c2dc-8bf9-4191-8159-7bd0ba921b0d"},"vehicle_type_id":"4","last_reported":1710555158,"current_range_meters":24400,"station_id":"ce4bgt92rcd13ifvqcg0","pricing_plan_id":"cebpf4jnsgd1na2vs0mg"},{"bike_id":"abc65ae5-faf8-4455-b405-48d8a3f2a361","system_id":"levelo_inurba_marseille","lat":43.311125,"lon":5.377624,"is_reserved":false,"is_disabled":false,"rental_uris":{"android":"levelo://app?vid=abc65ae5-faf8-4455-b405-48d8a3f2a361","ios":"levelo://app?vid=abc65ae5-faf8-4455-b405-48d8a3f2a361"},"vehicle_type_id":"4","last_reported":1710555158,"current_range_meters":29600,"station_id":"ce4bgt92rcd13ifvqcg0","pricing_plan_id":"cebpf4jnsgd1na2vs0mg"},{"bike_id":"5863dce5-4f73-4b06-8198-9713ee098168","system_id":"levelo_inurba_marseille","lat":43.311125,"lon":5.377624,"is_reserved":false,"is_disabled":false,"rental_uris":{"android":"levelo://app?vid=5863dce5-4f73-4b06-8198-9713ee098168","ios":"levelo://app?vid=5863dce5-4f73-4b06-8198-9713ee098168"},"vehicle_type_id":"4","last_reported":1710555158,"current_range_meters":1600,"station_id":"ce4bgt92rcd13ifvqcg0","pricing_plan_id":"cebpf4jnsgd1na2vs0mg"},{"bike_id":"d9a419fe-2ffa-4d7d-aa92-8fa5f21a8ab5","system_id":"levelo_inurba_marseille","lat":43.311125,"lon":5.377624,"is_reserved":false,"is_disabled":false,"rental_uris":{"android":"levelo://app?vid=d9a419fe-2ffa-4d7d-aa92-8fa5f21a8ab5","ios":"levelo://app?vid=d9a419fe-2ffa-4d7d-aa92-8fa5f21a8ab5"},"vehicle_type_id":"4","last_reported":1710555158,"current_range_meters":15200,"station_id":"ce4bgt92rcd13ifvqcg0","pricing_plan_id":"cebpf4jnsgd1na2vs0mg"},{"bike_id":"3b328f20-ad98-4c20-8539-d2b727ae8ea6","system_id":"levelo_inurba_marseille","lat":43.311131,"lon":5.377651,"is_reserved":false,"is_disabled":false,"rental_uris":{"android":"levelo://app?vid=3b328f20-ad98-4c20-8539-d2b727ae8ea6","ios":"levelo://app?vid=3b328f20-ad98-4c20-8539-d2b727ae8ea6"},"vehicle_type_id":"4","last_reported":1710555158,"current_range_meters":19200,"station_id":"ce4bgt92rcd13ifvqcg0","pricing_plan_id":"cebpf4jnsgd1na2vs0mg"},{"bike_id":"e4f6a704-57f3-4a68-a21f-d7fa3564a193","system_id":"levelo_inurba_marseille","lat":43.311125,"lon":5.377624,"is_reserved":false,"is_disabled":false,"rental_uris":{"android":"levelo://app?vid=e4f6a704-57f3-4a68-a21f-d7fa3564a193","ios":"levelo://app?vid=e4f6a704-57f3-4a68-a21f-d7fa3564a193"},"vehicle_type_id":"4","last_reported":1710555158,"current_range_meters":19200,"station_id":"ce4bgt92rcd13ifvqcg0","pricing_plan_id":"cebpf4jnsgd1na2vs0mg"},{"bike_id":"8cc855a4-98c8-42b4-9984-8d87ca1d13b2","system_id":"levelo_inurba_marseille","lat":43.307945,"lon":5.376487,"is_reserved":false,"is_disabled":false,"rental_uris":{"android":"levelo://app?vid=8cc855a4-98c8-42b4-9984-8d87ca1d13b2","ios":"levelo://app?vid=8cc855a4-98c8-42b4-9984-8d87ca1d13b2"},"vehicle_type_id":"4","last_reported":1710555158,"current_range_meters":31600,"station_id":"ce4bgv92rcd13ifvqcq0","pricing_plan_id":"cebpf4jnsgd1na2vs0mg"},{"bike_id":"107dbcab-2efb-4998-a326-59015cae38fc","system_id":"levelo_inurba_marseille","lat":43.307945,"lon":5.376487,"is_reserved":false,"is_disabled":false,"rental_uris":{"android":"levelo://app?vid=107dbcab-2efb-4998-a326-59015cae38fc","ios":"levelo://app?vid=107dbcab-2efb-4998-a326-59015cae38fc"},"vehicle_type_id":"4","last_reported":1710555158,"current_range_meters":9600,"station_id":"ce4bgv92rcd13ifvqcq0","pricing_plan_id":"cebpf4jnsgd1na2vs0mg"},{"bike_id":"4e62ce70-0446-486a-82fe-c09240faf567","system_id":"levelo_inurba_marseille","lat":43.307945,"lon":5.376487,"is_reserved":false,"is_disabled":false,"rental_uris":{"android":"levelo://app?vid=4e62ce70-0446-486a-82fe-c09240faf567","ios":"levelo://app?vid=4e62ce70-0446-486a-82fe-c09240faf567"},"vehicle_type_id":"4","last_reported":1710555158,"current_range_meters":11600,"station_id":"ce4bgv92rcd13ifvqcq0","pricing_plan_id":"cebpf4jnsgd1na2vs0mg"},{"bike_id":"9bea9bdf-433b-41b5-b5d4-e813dd8388da","system_id":"levelo_inurba_marseille","lat":43.307945,"lon":5.376487,"is_reserved":false,"is_disabled":false,"rental_uris":{"android":"levelo://app?vid=9bea9bdf-433b-41b5-b5d4-e813dd8388da","ios":"levelo://app?vid=9bea9bdf-433b-41b5-b5d4-e813dd8388da"},"vehicle_type_id":"4","last_reported":1710555158,"current_range_meters":24400,"station_id":"ce4bgv92rcd13ifvqcq0","pricing_plan_id":"cebpf4jnsgd1na2vs0mg"},{"bike_id":"200a3e8f-4927-4f6e-9231-f7e799e7658f","system_id":"levelo_inurba_marseille","lat":43.307945,"lon":5.376487,"is_reserved":false,"is_disabled":false,"rental_uris":{"android":"levelo://app?vid=200a3e8f-4927-4f6e-9231-f7e799e7658f","ios":"levelo://app?vid=200a3e8f-4927-4f6e-9231-f7e799e7658f"},"vehicle_type_id":"4","last_reported":1710555158,"current_range_meters":14800,"station_id":"ce4bgv92rcd13ifvqcq0","pricing_plan_id":"cebpf4jnsgd1na2vs0mg"},{"bike_id":"0de5107a-89e5-4190-9b39-efaa5fddc668","system_id":"levelo_inurba_marseille","lat":43.3042,"lon":5.36543,"is_reserved":false,"is_disabled":false,"rental_uris":{"android":"levelo://app?vid=0de5107a-89e5-4190-9b39-efaa5fddc668","ios":"levelo://app?vid=0de5107a-89e5-4190-9b39-efaa5fddc668"},"vehicle_type_id":"4","last_reported":1710555158,"current_range_meters":4400,"station_id":"","pricing_plan_id":"cebpf4jnsgd1na2vs0mg"},{"bike_id":"abb32d38-9a83-42c5-b817-44207ed101e1","system_id":"levelo_inurba_marseille","lat":43.317075,"lon":5.377367,"is_reserved":false,"is_disabled":false,"rental_uris":{"android":"levelo://app?vid=abb32d38-9a83-42c5-b817-44207ed101e1","ios":"levelo://app?vid=abb32d38-9a83-42c5-b817-44207ed101e1"},"vehicle_type_id":"4","last_reported":1710555158,"current_range_meters":21600,"station_id":"ce4bgth2rcd13ifvqch0","pricing_plan_id":"cebpf4jnsgd1na2vs0mg"},{"bike_id":"71da1db9-7584-48e8-925b-1aabc9729239","system_id":"levelo_inurba_marseille","lat":43.317075,"lon":5.377367,"is_reserved":false,"is_disabled":false,"rental_uris":{"android":"levelo://app?vid=71da1db9-7584-48e8-925b-1aabc9729239","ios":"levelo://app?vid=71da1db9-7584-48e8-925b-1aabc9729239"},"vehicle_type_id":"4","last_reported":1710555158,"current_range_meters":10800,"station_id":"ce4bgth2rcd13ifvqch0","pricing_plan_id":"cebpf4jnsgd1na2vs0mg"},{"bike_id":"7c03cb85-9fb8-4e93-b1ef-90fa42e389de","system_id":"levelo_inurba_marseille","lat":43.317075,"lon":5.377367,"is_reserved":false,"is_disabled":false,"rental_uris":{"android":"levelo://app?vid=7c03cb85-9fb8-4e93-b1ef-90fa42e389de","ios":"levelo://app?vid=7c03cb85-9fb8-4e93-b1ef-90fa42e389de"},"vehicle_type_id":"4","last_reported":1710555158,"current_range_meters":22800,"station_id":"ce4bgth2rcd13ifvqch0","pricing_plan_id":"cebpf4jnsgd1na2vs0mg"},{"bike_id":"d0d485fc-3c25-4763-ad86-65c86de180cb","system_id":"levelo_inurba_marseille","lat":43.31708,"lon":5.37747,"is_reserved":false,"is_disabled":false,"rental_uris":{"android":"levelo://app?vid=d0d485fc-3c25-4763-ad86-65c86de180cb","ios":"levelo://app?vid=d0d485fc-3c25-4763-ad86-65c86de180cb"},"vehicle_type_id":"4","last_reported":1710555158,"current_range_meters":10400,"station_id":"ce4bgth2rcd13ifvqch0","pricing_plan_id":"cebpf4jnsgd1na2vs0mg"},{"bike_id":"d0365cdb-ac18-4b51-af08-e78a881a8201","system_id":"levelo_inurba_marseille","lat":43.317075,"lon":5.377367,"is_reserved":false,"is_disabled":false,"rental_uris":{"android":"levelo://app?vid=d0365cdb-ac18-4b51-af08-e78a881a8201","ios":"levelo://app?vid=d0365cdb-ac18-4b51-af08-e78a881a8201"},"vehicle_type_id":"4","last_reported":1710555158,"current_range_meters":18800,"station_id":"ce4bgth2rcd13ifvqch0","pricing_plan_id":"cebpf4jnsgd1na2vs0mg"},{"bike_id":"53f1669c-29ff-41ab-91ca-4f91d8b1a36f","system_id":"levelo_inurba_marseille","lat":43.317075,"lon":5.377367,"is_reserved":false,"is_disabled":false,"rental_uris":{"android":"levelo://app?vid=53f1669c-29ff-41ab-91ca-4f91d8b1a36f","ios":"levelo://app?vid=53f1669c-29ff-41ab-91ca-4f91d8b1a36f"},"vehicle_type_id":"4","last_reported":1710555158,"current_range_meters":26400,"station_id":"ce4bgth2rcd13ifvqch0","pricing_plan_id":"cebpf4jnsgd1na2vs0mg"},{"bike_id":"6df8a519-a704-46e9-b3eb-42b1fb917e85","system_id":"levelo_inurba_marseille","lat":43.31775,"lon":5.37785,"is_reserved":false,"is_disabled":false,"rental_uris":{"android":"levelo://app?vid=6df8a519-a704-46e9-b3eb-42b1fb917e85","ios":"levelo://app?vid=6df8a519-a704-46e9-b3eb-42b1fb917e85"},"vehicle_type_id":"4","last_reported":1710555158,"current_range_meters":13200,"station_id":"","pricing_plan_id":"cebpf4jnsgd1na2vs0mg"},{"bike_id":"8faad2b2-d09f-449e-b462-9f411dd78bbc","system_id":"levelo_inurba_marseille","lat":43.303046,"lon":5.368981,"is_reserved":false,"is_disabled":false,"rental_uris":{"android":"levelo://app?vid=8faad2b2-d09f-449e-b462-9f411dd78bbc","ios":"levelo://app?vid=8faad2b2-d09f-449e-b462-9f411dd78bbc"},"vehicle_type_id":"4","last_reported":1710555158,"current_range_meters":10000,"station_id":"ce4bgqh2rcd13ifvqc5g","pricing_plan_id":"cebpf4jnsgd1na2vs0mg"},{"bike_id":"9c06e85a-d641-4aff-bb97-602501bef69b","system_id":"levelo_inurba_marseille","lat":43.303046,"lon":5.368981,"is_reserved":false,"is_disabled":false,"rental_uris":{"android":"levelo://app?vid=9c06e85a-d641-4aff-bb97-602501bef69b","ios":"levelo://app?vid=9c06e85a-d641-4aff-bb97-602501bef69b"},"vehicle_type_id":"4","last_reported":1710555158,"current_range_meters":9600,"station_id":"ce4bgqh2rcd13ifvqc5g","pricing_plan_id":"cebpf4jnsgd1na2vs0mg"},{"bike_id":"665916da-2097-4ab5-a14d-9ad94b1eb0a7","system_id":"levelo_inurba_marseille","lat":43.303046,"lon":5.368981,"is_reserved":false,"is_disabled":false,"rental_uris":{"android":"levelo://app?vid=665916da-2097-4ab5-a14d-9ad94b1eb0a7","ios":"levelo://app?vid=665916da-2097-4ab5-a14d-9ad94b1eb0a7"},"vehicle_type_id":"4","last_reported":1710555158,"current_range_meters":24000,"station_id":"ce4bgqh2rcd13ifvqc5g","pricing_plan_id":"cebpf4jnsgd1na2vs0mg"},{"bike_id":"e48597da-5a15-4635-b5f8-16fcfe571221","system_id":"levelo_inurba_marseille","lat":43.303046,"lon":5.368981,"is_reserved":false,"is_disabled":false,"rental_uris":{"android":"levelo://app?vid=e48597da-5a15-4635-b5f8-16fcfe571221","ios":"levelo://app?vid=e48597da-5a15-4635-b5f8-16fcfe571221"},"vehicle_type_id":"4","last_reported":1710555158,"current_range_meters":1600,"station_id":"ce4bgqh2rcd13ifvqc5g","pricing_plan_id":"cebpf4jnsgd1na2vs0mg"},{"bike_id":"010fe15c-25bd-463f-8c96-dad3b2db9c4e","system_id":"levelo_inurba_marseille","lat":43.303046,"lon":5.368981,"is_reserved":false,"is_disabled":false,"rental_uris":{"android":"levelo://app?vid=010fe15c-25bd-463f-8c96-dad3b2db9c4e","ios":"levelo://app?vid=010fe15c-25bd-463f-8c96-dad3b2db9c4e"},"vehicle_type_id":"4","last_reported":1710555158,"current_range_meters":2000,"station_id":"ce4bgqh2rcd13ifvqc5g","pricing_plan_id":"cebpf4jnsgd1na2vs0mg"},{"bike_id":"205b789d-ddc1-4865-ac3e-fe9deb0f2892","system_id":"levelo_inurba_marseille","lat":43.303046,"lon":5.368981,"is_reserved":false,"is_disabled":false,"rental_uris":{"android":"levelo://app?vid=205b789d-ddc1-4865-ac3e-fe9deb0f2892","ios":"levelo://app?vid=205b789d-ddc1-4865-ac3e-fe9deb0f2892"},"vehicle_type_id":"4","last_reported":1710555158,"current_range_meters":0,"station_id":"ce4bgqh2rcd13ifvqc5g","pricing_plan_id":"cebpf4jnsgd1na2vs0mg"},{"bike_id":"75acbb7a-844c-4262-98aa-3529cada0940","system_id":"levelo_inurba_marseille","lat":43.315289,"lon":5.380349,"is_reserved":false,"is_disabled":false,"rental_uris":{"android":"levelo://app?vid=75acbb7a-844c-4262-98aa-3529cada0940","ios":"levelo://app?vid=75acbb7a-844c-4262-98aa-3529cada0940"},"vehicle_type_id":"4","last_reported":1710555158,"current_range_meters":30800,"station_id":"ce4bhsp2rcd13ifvqi50","pricing_plan_id":"cebpf4jnsgd1na2vs0mg"},{"bike_id":"3608d763-66fd-497b-a690-4b174f8b5ff5","system_id":"levelo_inurba_marseille","lat":43.315293,"lon":5.380349,"is_reserved":false,"is_disabled":false,"rental_uris":{"android":"levelo://app?vid=3608d763-66fd-497b-a690-4b174f8b5ff5","ios":"levelo://app?vid=3608d763-66fd-497b-a690-4b174f8b5ff5"},"vehicle_type_id":"4","last_reported":1710555158,"current_range_meters":31200,"station_id":"ce4bhsp2rcd13ifvqi50","pricing_plan_id":"cebpf4jnsgd1na2vs0mg"},{"bike_id":"7429b32f-de69-4fb1-828f-d41736e79a39","system_id":"levelo_inurba_marseille","lat":43.31528,"lon":5.38039,"is_reserved":false,"is_disabled":false,"rental_uris":{"android":"levelo://app?vid=7429b32f-de69-4fb1-828f-d41736e79a39","ios":"levelo://app?vid=7429b32f-de69-4fb1-828f-d41736e79a39"},"vehicle_type_id":"4","last_reported":1710555158,"current_range_meters":19200,"station_id":"ce4bhsp2rcd13ifvqi50","pricing_plan_id":"cebpf4jnsgd1na2vs0mg"},{"bike_id":"ba1c52a6-7639-4561-82e4-038a8bbab5e4","system_id":"levelo_inurba_marseille","lat":43.301939,"lon":5.366286,"is_reserved":false,"is_disabled":false,"rental_uris":{"android":"levelo://app?vid=ba1c52a6-7639-4561-82e4-038a8bbab5e4","ios":"levelo://app?vid=ba1c52a6-7639-4561-82e4-038a8bbab5e4"},"vehicle_type_id":"4","last_reported":1710555158,"current_range_meters":16800,"station_id":"ce4bgrh2rcd13ifvqc8g","pricing_plan_id":"cebpf4jnsgd1na2vs0mg"},{"bike_id":"0f7f48bc-4122-4700-acc1-7a83a67f42db","system_id":"levelo_inurba_marseille","lat":43.30807,"lon":5.38137,"is_reserved":false,"is_disabled":false,"rental_uris":{"android":"levelo://app?vid=0f7f48bc-4122-4700-acc1-7a83a67f42db","ios":"levelo://app?vid=0f7f48bc-4122-4700-acc1-7a83a67f42db"},"vehicle_type_id":"4","last_reported":1710555158,"current_range_meters":22000,"station_id":"ce4bgt12rcd13ifvqce0","pricing_plan_id":"cebpf4jnsgd1na2vs0mg"},{"bike_id":"40aa3d7a-4369-4262-9192-2de5c3430f0b","system_id":"levelo_inurba_marseille","lat":43.308012,"lon":5.381511,"is_reserved":false,"is_disabled":false,"rental_uris":{"android":"levelo://app?vid=40aa3d7a-4369-4262-9192-2de5c3430f0b","ios":"levelo://app?vid=40aa3d7a-4369-4262-9192-2de5c3430f0b"},"vehicle_type_id":"4","last_reported":1710555158,"current_range_meters":27200,"station_id":"ce4bgt12rcd13ifvqce0","pricing_plan_id":"cebpf4jnsgd1na2vs0mg"},{"bike_id":"a53e911e-f5bd-4d60-bb1e-363927a1a799","system_id":"levelo_inurba_marseille","lat":43.308012,"lon":5.381511,"is_reserved":false,"is_disabled":false,"rental_uris":{"android":"levelo://app?vid=a53e911e-f5bd-4d60-bb1e-363927a1a799","ios":"levelo://app?vid=a53e911e-f5bd-4d60-bb1e-363927a1a799"},"vehicle_type_id":"4","last_reported":1710555158,"current_range_meters":13600,"station_id":"ce4bgt12rcd13ifvqce0","pricing_plan_id":"cebpf4jnsgd1na2vs0mg"},{"bike_id":"6802935c-cc97-425e-8137-06e5e14db9b5","system_id":"levelo_inurba_marseille","lat":43.308012,"lon":5.381511,"is_reserved":false,"is_disabled":false,"rental_uris":{"android":"levelo://app?vid=6802935c-cc97-425e-8137-06e5e14db9b5","ios":"levelo://app?vid=6802935c-cc97-425e-8137-06e5e14db9b5"},"vehicle_type_id":"4","last_reported":1710555158,"current_range_meters":11200,"station_id":"ce4bgt12rcd13ifvqce0","pricing_plan_id":"cebpf4jnsgd1na2vs0mg"},{"bike_id":"9884e60a-e042-45f1-b58f-d8b08aa28aa0","system_id":"levelo_inurba_marseille","lat":43.30793,"lon":5.38159,"is_reserved":false,"is_disabled":false,"rental_uris":{"android":"levelo://app?vid=9884e60a-e042-45f1-b58f-d8b08aa28aa0","ios":"levelo://app?vid=9884e60a-e042-45f1-b58f-d8b08aa28aa0"},"vehicle_type_id":"4","last_reported":1710555158,"current_range_meters":18000,"station_id":"ce4bgt12rcd13ifvqce0","pricing_plan_id":"cebpf4jnsgd1na2vs0mg"},{"bike_id":"306e963e-85e5-400c-bb90-9ab4be1bbc39","system_id":"levelo_inurba_marseille","lat":43.308012,"lon":5.381511,"is_reserved":false,"is_disabled":false,"rental_uris":{"android":"levelo://app?vid=306e963e-85e5-400c-bb90-9ab4be1bbc39","ios":"levelo://app?vid=306e963e-85e5-400c-bb90-9ab4be1bbc39"},"vehicle_type_id":"4","last_reported":1710555158,"current_range_meters":21600,"station_id":"ce4bgt12rcd13ifvqce0","pricing_plan_id":"cebpf4jnsgd1na2vs0mg"},{"bike_id":"47a9ca4c-c775-484e-a592-ef44adbf3952","system_id":"levelo_inurba_marseille","lat":43.320281,"lon":5.379543,"is_reserved":false,"is_disabled":false,"rental_uris":{"android":"levelo://app?vid=47a9ca4c-c775-484e-a592-ef44adbf3952","ios":"levelo://app?vid=47a9ca4c-c775-484e-a592-ef44adbf3952"},"vehicle_type_id":"4","last_reported":1710555158,"current_range_meters":2000,"station_id":"","pricing_plan_id":"cebpf4jnsgd1na2vs0mg"},{"bike_id":"bcf82d94-a403-431e-9d65-3795d175886f","system_id":"levelo_inurba_marseille","lat":43.30467,"lon":5.37906,"is_reserved":false,"is_disabled":false,"rental_uris":{"android":"levelo://app?vid=bcf82d94-a403-431e-9d65-3795d175886f","ios":"levelo://app?vid=bcf82d94-a403-431e-9d65-3795d175886f"},"vehicle_type_id":"4","last_reported":1710555158,"current_range_meters":24400,"station_id":"ce4bgup2rcd13ifvqcn0","pricing_plan_id":"cebpf4jnsgd1na2vs0mg"},{"bike_id":"1fad90b3-ff8e-4e6e-8c30-8e54eeb051a1","system_id":"levelo_inurba_marseille","lat":43.324771,"lon":5.36557,"is_reserved":false,"is_disabled":false,"rental_uris":{"android":"levelo://app?vid=1fad90b3-ff8e-4e6e-8c30-8e54eeb051a1","ios":"levelo://app?vid=1fad90b3-ff8e-4e6e-8c30-8e54eeb051a1"},"vehicle_type_id":"4","last_reported":1710555158,"current_range_meters":5200,"station_id":"ce4bhs12rcd13ifvqhvg","pricing_plan_id":"cebpf4jnsgd1na2vs0mg"},{"bike_id":"39592264-8806-4a31-a6a2-556b8abe3cbd","system_id":"levelo_inurba_marseille","lat":43.324771,"lon":5.36557,"is_reserved":false,"is_disabled":false,"rental_uris":{"android":"levelo://app?vid=39592264-8806-4a31-a6a2-556b8abe3cbd","ios":"levelo://app?vid=39592264-8806-4a31-a6a2-556b8abe3cbd"},"vehicle_type_id":"4","last_reported":1710555158,"current_range_meters":9600,"station_id":"ce4bhs12rcd13ifvqhvg","pricing_plan_id":"cebpf4jnsgd1na2vs0mg"},{"bike_id":"c0cc4b46-b357-4a80-98cc-afe13efe41f1","system_id":"levelo_inurba_marseille","lat":43.324771,"lon":5.36557,"is_reserved":false,"is_disabled":false,"rental_uris":{"android":"levelo://app?vid=c0cc4b46-b357-4a80-98cc-afe13efe41f1","ios":"levelo://app?vid=c0cc4b46-b357-4a80-98cc-afe13efe41f1"},"vehicle_type_id":"4","last_reported":1710555158,"current_range_meters":3600,"station_id":"ce4bhs12rcd13ifvqhvg","pricing_plan_id":"cebpf4jnsgd1na2vs0mg"},{"bike_id":"45c182d4-c42c-4114-9e74-abc1eba34bef","system_id":"levelo_inurba_marseille","lat":43.32482,"lon":5.365782,"is_reserved":false,"is_disabled":false,"rental_uris":{"android":"levelo://app?vid=45c182d4-c42c-4114-9e74-abc1eba34bef","ios":"levelo://app?vid=45c182d4-c42c-4114-9e74-abc1eba34bef"},"vehicle_type_id":"4","last_reported":1710555158,"current_range_meters":23600,"station_id":"ce4bhs12rcd13ifvqhvg","pricing_plan_id":"cebpf4jnsgd1na2vs0mg"},{"bike_id":"5408e4c7-2fa4-4dab-a5a0-a5ab8acdc782","system_id":"levelo_inurba_marseille","lat":43.324771,"lon":5.36557,"is_reserved":false,"is_disabled":false,"rental_uris":{"android":"levelo://app?vid=5408e4c7-2fa4-4dab-a5a0-a5ab8acdc782","ios":"levelo://app?vid=5408e4c7-2fa4-4dab-a5a0-a5ab8acdc782"},"vehicle_type_id":"4","last_reported":1710555158,"current_range_meters":5600,"station_id":"ce4bhs12rcd13ifvqhvg","pricing_plan_id":"cebpf4jnsgd1na2vs0mg"},{"bike_id":"18fc47d4-f43a-4eed-abb4-9d13f9e04f59","system_id":"levelo_inurba_marseille","lat":43.324771,"lon":5.36557,"is_reserved":false,"is_disabled":false,"rental_uris":{"android":"levelo://app?vid=18fc47d4-f43a-4eed-abb4-9d13f9e04f59","ios":"levelo://app?vid=18fc47d4-f43a-4eed-abb4-9d13f9e04f59"},"vehicle_type_id":"4","last_reported":1710555158,"current_range_meters":19600,"station_id":"ce4bhs12rcd13ifvqhvg","pricing_plan_id":"cebpf4jnsgd1na2vs0mg"},{"bike_id":"0beae27c-8e15-427f-98a8-4f6c1fff4039","system_id":"levelo_inurba_marseille","lat":43.324771,"lon":5.36557,"is_reserved":false,"is_disabled":false,"rental_uris":{"android":"levelo://app?vid=0beae27c-8e15-427f-98a8-4f6c1fff4039","ios":"levelo://app?vid=0beae27c-8e15-427f-98a8-4f6c1fff4039"},"vehicle_type_id":"4","last_reported":1710555158,"current_range_meters":7200,"station_id":"ce4bhs12rcd13ifvqhvg","pricing_plan_id":"cebpf4jnsgd1na2vs0mg"},{"bike_id":"12c419ff-5d5f-445b-9471-a4225b24c594","system_id":"levelo_inurba_marseille","lat":43.324771,"lon":5.36557,"is_reserved":false,"is_disabled":false,"rental_uris":{"android":"levelo://app?vid=12c419ff-5d5f-445b-9471-a4225b24c594","ios":"levelo://app?vid=12c419ff-5d5f-445b-9471-a4225b24c594"},"vehicle_type_id":"4","last_reported":1710555158,"current_range_meters":4800,"station_id":"ce4bhs12rcd13ifvqhvg","pricing_plan_id":"cebpf4jnsgd1na2vs0mg"},{"bike_id":"3636e797-ae37-4ed8-ae31-11958c8b0dde","system_id":"levelo_inurba_marseille","lat":43.324771,"lon":5.36557,"is_reserved":false,"is_disabled":false,"rental_uris":{"android":"levelo://app?vid=3636e797-ae37-4ed8-ae31-11958c8b0dde","ios":"levelo://app?vid=3636e797-ae37-4ed8-ae31-11958c8b0dde"},"vehicle_type_id":"4","last_reported":1710555158,"current_range_meters":14000,"station_id":"ce4bhs12rcd13ifvqhvg","pricing_plan_id":"cebpf4jnsgd1na2vs0mg"},{"bike_id":"113d257f-3d99-4968-969b-9895ca8399f9","system_id":"levelo_inurba_marseille","lat":43.324771,"lon":5.36557,"is_reserved":false,"is_disabled":false,"rental_uris":{"android":"levelo://app?vid=113d257f-3d99-4968-969b-9895ca8399f9","ios":"levelo://app?vid=113d257f-3d99-4968-969b-9895ca8399f9"},"vehicle_type_id":"4","last_reported":1710555158,"current_range_meters":10000,"station_id":"ce4bhs12rcd13ifvqhvg","pricing_plan_id":"cebpf4jnsgd1na2vs0mg"},{"bike_id":"87866b20-3ee8-46eb-ae0a-460adce11195","system_id":"levelo_inurba_marseille","lat":43.301666,"lon":5.373749,"is_reserved":false,"is_disabled":false,"rental_uris":{"android":"levelo://app?vid=87866b20-3ee8-46eb-ae0a-460adce11195","ios":"levelo://app?vid=87866b20-3ee8-46eb-ae0a-460adce11195"},"vehicle_type_id":"4","last_reported":1710555158,"current_range_meters":25600,"station_id":"ce4bgs92rcd13ifvqcc0","pricing_plan_id":"cebpf4jnsgd1na2vs0mg"},{"bike_id":"96ade1c6-b8f4-4248-a16c-9ca6451e8605","system_id":"levelo_inurba_marseille","lat":43.324771,"lon":5.36557,"is_reserved":false,"is_disabled":false,"rental_uris":{"android":"levelo://app?vid=96ade1c6-b8f4-4248-a16c-9ca6451e8605","ios":"levelo://app?vid=96ade1c6-b8f4-4248-a16c-9ca6451e8605"},"vehicle_type_id":"4","last_reported":1710555158,"current_range_meters":20800,"station_id":"ce4bhs12rcd13ifvqhvg","pricing_plan_id":"cebpf4jnsgd1na2vs0mg"},{"bike_id":"fd026dca-4b8c-431d-8323-f2b08edbd1af","system_id":"levelo_inurba_marseille","lat":43.310682,"lon":5.383535,"is_reserved":false,"is_disabled":false,"rental_uris":{"android":"levelo://app?vid=fd026dca-4b8c-431d-8323-f2b08edbd1af","ios":"levelo://app?vid=fd026dca-4b8c-431d-8323-f2b08edbd1af"},"vehicle_type_id":"4","last_reported":1710555158,"current_range_meters":6000,"station_id":"ce4bgv92rcd13ifvqcr0","pricing_plan_id":"cebpf4jnsgd1na2vs0mg"},{"bike_id":"f610b90d-46a7-4e77-8ba3-f2b117391d6f","system_id":"levelo_inurba_marseille","lat":43.31063,"lon":5.383544,"is_reserved":false,"is_disabled":false,"rental_uris":{"android":"levelo://app?vid=f610b90d-46a7-4e77-8ba3-f2b117391d6f","ios":"levelo://app?vid=f610b90d-46a7-4e77-8ba3-f2b117391d6f"},"vehicle_type_id":"4","last_reported":1710555158,"current_range_meters":10000,"station_id":"ce4bgv92rcd13ifvqcr0","pricing_plan_id":"cebpf4jnsgd1na2vs0mg"},{"bike_id":"be7ec1cd-5e3b-4e04-b458-f3ac44cba066","system_id":"levelo_inurba_marseille","lat":43.310804,"lon":5.38359,"is_reserved":false,"is_disabled":false,"rental_uris":{"android":"levelo://app?vid=be7ec1cd-5e3b-4e04-b458-f3ac44cba066","ios":"levelo://app?vid=be7ec1cd-5e3b-4e04-b458-f3ac44cba066"},"vehicle_type_id":"4","last_reported":1710555158,"current_range_meters":21200,"station_id":"ce4bgv92rcd13ifvqcr0","pricing_plan_id":"cebpf4jnsgd1na2vs0mg"},{"bike_id":"048ce724-c9c2-4b2d-9d8a-5a6daa01f8cc","system_id":"levelo_inurba_marseille","lat":43.310804,"lon":5.38359,"is_reserved":false,"is_disabled":false,"rental_uris":{"android":"levelo://app?vid=048ce724-c9c2-4b2d-9d8a-5a6daa01f8cc","ios":"levelo://app?vid=048ce724-c9c2-4b2d-9d8a-5a6daa01f8cc"},"vehicle_type_id":"4","last_reported":1710555158,"current_range_meters":21200,"station_id":"ce4bgv92rcd13ifvqcr0","pricing_plan_id":"cebpf4jnsgd1na2vs0mg"},{"bike_id":"45307d9d-40ce-49d7-b37b-653ef099eb36","system_id":"levelo_inurba_marseille","lat":43.310804,"lon":5.38359,"is_reserved":false,"is_disabled":false,"rental_uris":{"android":"levelo://app?vid=45307d9d-40ce-49d7-b37b-653ef099eb36","ios":"levelo://app?vid=45307d9d-40ce-49d7-b37b-653ef099eb36"},"vehicle_type_id":"4","last_reported":1710555158,"current_range_meters":0,"station_id":"ce4bgv92rcd13ifvqcr0","pricing_plan_id":"cebpf4jnsgd1na2vs0mg"},{"bike_id":"26f8ae32-857c-49d4-9477-7288971ce8c8","system_id":"levelo_inurba_marseille","lat":43.30283,"lon":5.37695,"is_reserved":false,"is_disabled":false,"rental_uris":{"android":"levelo://app?vid=26f8ae32-857c-49d4-9477-7288971ce8c8","ios":"levelo://app?vid=26f8ae32-857c-49d4-9477-7288971ce8c8"},"vehicle_type_id":"4","last_reported":1710555158,"current_range_meters":28800,"station_id":"ce4bguh2rcd13ifvqcj0","pricing_plan_id":"cebpf4jnsgd1na2vs0mg"},{"bike_id":"50800b19-c787-4811-aac2-678358d56860","system_id":"levelo_inurba_marseille","lat":43.310804,"lon":5.38359,"is_reserved":false,"is_disabled":false,"rental_uris":{"android":"levelo://app?vid=50800b19-c787-4811-aac2-678358d56860","ios":"levelo://app?vid=50800b19-c787-4811-aac2-678358d56860"},"vehicle_type_id":"4","last_reported":1710555158,"current_range_meters":17600,"station_id":"ce4bgv92rcd13ifvqcr0","pricing_plan_id":"cebpf4jnsgd1na2vs0mg"},{"bike_id":"6a094714-4435-4667-bedc-2859bef0c8d5","system_id":"levelo_inurba_marseille","lat":43.310804,"lon":5.38359,"is_reserved":false,"is_disabled":false,"rental_uris":{"android":"levelo://app?vid=6a094714-4435-4667-bedc-2859bef0c8d5","ios":"levelo://app?vid=6a094714-4435-4667-bedc-2859bef0c8d5"},"vehicle_type_id":"4","last_reported":1710555158,"current_range_meters":11600,"station_id":"ce4bgv92rcd13ifvqcr0","pricing_plan_id":"cebpf4jnsgd1na2vs0mg"},{"bike_id":"04dd163c-b7d3-4084-9442-c137f68ee111","system_id":"levelo_inurba_marseille","lat":43.301429,"lon":5.37413,"is_reserved":false,"is_disabled":false,"rental_uris":{"android":"levelo://app?vid=04dd163c-b7d3-4084-9442-c137f68ee111","ios":"levelo://app?vid=04dd163c-b7d3-4084-9442-c137f68ee111"},"vehicle_type_id":"4","last_reported":1710555158,"current_range_meters":12000,"station_id":"ce4bgs92rcd13ifvqcc0","pricing_plan_id":"cebpf4jnsgd1na2vs0mg"},{"bike_id":"0a5b0c2b-d9bd-47b4-8ac0-51d09ccf11d5","system_id":"levelo_inurba_marseille","lat":43.302784,"lon":5.377158,"is_reserved":false,"is_disabled":false,"rental_uris":{"android":"levelo://app?vid=0a5b0c2b-d9bd-47b4-8ac0-51d09ccf11d5","ios":"levelo://app?vid=0a5b0c2b-d9bd-47b4-8ac0-51d09ccf11d5"},"vehicle_type_id":"4","last_reported":1710555158,"current_range_meters":29200,"station_id":"ce4bguh2rcd13ifvqcj0","pricing_plan_id":"cebpf4jnsgd1na2vs0mg"},{"bike_id":"156799b8-4031-4170-80ca-897d8b83e9ba","system_id":"levelo_inurba_marseille","lat":43.30143,"lon":5.37413,"is_reserved":false,"is_disabled":false,"rental_uris":{"android":"levelo://app?vid=156799b8-4031-4170-80ca-897d8b83e9ba","ios":"levelo://app?vid=156799b8-4031-4170-80ca-897d8b83e9ba"},"vehicle_type_id":"4","last_reported":1710555158,"current_range_meters":19200,"station_id":"ce4bgs92rcd13ifvqcc0","pricing_plan_id":"cebpf4jnsgd1na2vs0mg"},{"bike_id":"0722c6c7-1400-4e19-ada5-4aae06290f43","system_id":"levelo_inurba_marseille","lat":43.30143,"lon":5.37413,"is_reserved":false,"is_disabled":false,"rental_uris":{"android":"levelo://app?vid=0722c6c7-1400-4e19-ada5-4aae06290f43","ios":"levelo://app?vid=0722c6c7-1400-4e19-ada5-4aae06290f43"},"vehicle_type_id":"4","last_reported":1710555158,"current_range_meters":14400,"station_id":"ce4bgs92rcd13ifvqcc0","pricing_plan_id":"cebpf4jnsgd1na2vs0mg"},{"bike_id":"47d6b41c-1973-4424-80b8-0897b650cbfd","system_id":"levelo_inurba_marseille","lat":43.30143,"lon":5.37413,"is_reserved":false,"is_disabled":false,"rental_uris":{"android":"levelo://app?vid=47d6b41c-1973-4424-80b8-0897b650cbfd","ios":"levelo://app?vid=47d6b41c-1973-4424-80b8-0897b650cbfd"},"vehicle_type_id":"4","last_reported":1710555158,"current_range_meters":23200,"station_id":"ce4bgs92rcd13ifvqcc0","pricing_plan_id":"cebpf4jnsgd1na2vs0mg"},{"bike_id":"94b17c3b-e229-4a08-aae7-10af8364042d","system_id":"levelo_inurba_marseille","lat":43.30143,"lon":5.37413,"is_reserved":false,"is_disabled":false,"rental_uris":{"android":"levelo://app?vid=94b17c3b-e229-4a08-aae7-10af8364042d","ios":"levelo://app?vid=94b17c3b-e229-4a08-aae7-10af8364042d"},"vehicle_type_id":"4","last_reported":1710555158,"current_range_meters":30000,"station_id":"ce4bgs92rcd13ifvqcc0","pricing_plan_id":"cebpf4jnsgd1na2vs0mg"},{"bike_id":"047bfaaa-aa6b-49b2-8002-e870a4645c6c","system_id":"levelo_inurba_marseille","lat":43.319935,"lon":5.381699,"is_reserved":false,"is_disabled":false,"rental_uris":{"android":"levelo://app?vid=047bfaaa-aa6b-49b2-8002-e870a4645c6c","ios":"levelo://app?vid=047bfaaa-aa6b-49b2-8002-e870a4645c6c"},"vehicle_type_id":"4","last_reported":1710555158,"current_range_meters":16800,"station_id":"ce4bhr12rcd13ifvqhpg","pricing_plan_id":"cebpf4jnsgd1na2vs0mg"},{"bike_id":"a46f3b86-7dc1-46bc-b469-645f5d47ddad","system_id":"levelo_inurba_marseille","lat":43.319935,"lon":5.381699,"is_reserved":false,"is_disabled":false,"rental_uris":{"android":"levelo://app?vid=a46f3b86-7dc1-46bc-b469-645f5d47ddad","ios":"levelo://app?vid=a46f3b86-7dc1-46bc-b469-645f5d47ddad"},"vehicle_type_id":"4","last_reported":1710555158,"current_range_meters":18400,"station_id":"ce4bhr12rcd13ifvqhpg","pricing_plan_id":"cebpf4jnsgd1na2vs0mg"},{"bike_id":"b2273e34-f3b1-45d8-a7c1-e0a5296f08a5","system_id":"levelo_inurba_marseille","lat":43.319935,"lon":5.381699,"is_reserved":false,"is_disabled":false,"rental_uris":{"android":"levelo://app?vid=b2273e34-f3b1-45d8-a7c1-e0a5296f08a5","ios":"levelo://app?vid=b2273e34-f3b1-45d8-a7c1-e0a5296f08a5"},"vehicle_type_id":"4","last_reported":1710555158,"current_range_meters":18800,"station_id":"ce4bhr12rcd13ifvqhpg","pricing_plan_id":"cebpf4jnsgd1na2vs0mg"},{"bike_id":"5e3113e3-29f6-4f14-a9c5-2af5d9ac0333","system_id":"levelo_inurba_marseille","lat":43.319965,"lon":5.381488,"is_reserved":false,"is_disabled":false,"rental_uris":{"android":"levelo://app?vid=5e3113e3-29f6-4f14-a9c5-2af5d9ac0333","ios":"levelo://app?vid=5e3113e3-29f6-4f14-a9c5-2af5d9ac0333"},"vehicle_type_id":"4","last_reported":1710555158,"current_range_meters":8400,"station_id":"ce4bhr12rcd13ifvqhpg","pricing_plan_id":"cebpf4jnsgd1na2vs0mg"},{"bike_id":"32f5d04a-4a49-412d-8179-8f69e2f51ddc","system_id":"levelo_inurba_marseille","lat":43.31996,"lon":5.3815,"is_reserved":false,"is_disabled":false,"rental_uris":{"android":"levelo://app?vid=32f5d04a-4a49-412d-8179-8f69e2f51ddc","ios":"levelo://app?vid=32f5d04a-4a49-412d-8179-8f69e2f51ddc"},"vehicle_type_id":"4","last_reported":1710555158,"current_range_meters":5200,"station_id":"ce4bhr12rcd13ifvqhpg","pricing_plan_id":"cebpf4jnsgd1na2vs0mg"},{"bike_id":"747ec0e5-a700-4ed0-859f-8b01d77434a9","system_id":"levelo_inurba_marseille","lat":43.319935,"lon":5.381699,"is_reserved":false,"is_disabled":false,"rental_uris":{"android":"levelo://app?vid=747ec0e5-a700-4ed0-859f-8b01d77434a9","ios":"levelo://app?vid=747ec0e5-a700-4ed0-859f-8b01d77434a9"},"vehicle_type_id":"4","last_reported":1710555158,"current_range_meters":0,"station_id":"ce4bhr12rcd13ifvqhpg","pricing_plan_id":"cebpf4jnsgd1na2vs0mg"},{"bike_id":"38c46328-ff8a-40ab-8c7a-a6efaf570b9d","system_id":"levelo_inurba_marseille","lat":43.313571,"lon":5.384829,"is_reserved":false,"is_disabled":false,"rental_uris":{"android":"levelo://app?vid=38c46328-ff8a-40ab-8c7a-a6efaf570b9d","ios":"levelo://app?vid=38c46328-ff8a-40ab-8c7a-a6efaf570b9d"},"vehicle_type_id":"4","last_reported":1710555158,"current_range_meters":20800,"station_id":"ce4bgt92rcd13ifvqcf0","pricing_plan_id":"cebpf4jnsgd1na2vs0mg"},{"bike_id":"21a9500f-23b7-4ed3-90fd-cc6396091454","system_id":"levelo_inurba_marseille","lat":43.313571,"lon":5.384829,"is_reserved":false,"is_disabled":false,"rental_uris":{"android":"levelo://app?vid=21a9500f-23b7-4ed3-90fd-cc6396091454","ios":"levelo://app?vid=21a9500f-23b7-4ed3-90fd-cc6396091454"},"vehicle_type_id":"4","last_reported":1710555158,"current_range_meters":18400,"station_id":"ce4bgt92rcd13ifvqcf0","pricing_plan_id":"cebpf4jnsgd1na2vs0mg"},{"bike_id":"36649fda-dc1e-454d-bf48-eb522f861c19","system_id":"levelo_inurba_marseille","lat":43.313571,"lon":5.384829,"is_reserved":false,"is_disabled":false,"rental_uris":{"android":"levelo://app?vid=36649fda-dc1e-454d-bf48-eb522f861c19","ios":"levelo://app?vid=36649fda-dc1e-454d-bf48-eb522f861c19"},"vehicle_type_id":"4","last_reported":1710555158,"current_range_meters":15200,"station_id":"ce4bgt92rcd13ifvqcf0","pricing_plan_id":"cebpf4jnsgd1na2vs0mg"},{"bike_id":"62fd71c3-cd37-48db-a498-a656d24390c1","system_id":"levelo_inurba_marseille","lat":43.313571,"lon":5.384829,"is_reserved":false,"is_disabled":false,"rental_uris":{"android":"levelo://app?vid=62fd71c3-cd37-48db-a498-a656d24390c1","ios":"levelo://app?vid=62fd71c3-cd37-48db-a498-a656d24390c1"},"vehicle_type_id":"4","last_reported":1710555158,"current_range_meters":25200,"station_id":"ce4bgt92rcd13ifvqcf0","pricing_plan_id":"cebpf4jnsgd1na2vs0mg"},{"bike_id":"07d540ed-1152-42ac-aaf4-decd333ba858","system_id":"levelo_inurba_marseille","lat":43.313571,"lon":5.384829,"is_reserved":false,"is_disabled":false,"rental_uris":{"android":"levelo://app?vid=07d540ed-1152-42ac-aaf4-decd333ba858","ios":"levelo://app?vid=07d540ed-1152-42ac-aaf4-decd333ba858"},"vehicle_type_id":"4","last_reported":1710555158,"current_range_meters":22400,"station_id":"ce4bgt92rcd13ifvqcf0","pricing_plan_id":"cebpf4jnsgd1na2vs0mg"},{"bike_id":"83a79c9f-df2c-4f7c-91df-7874e74f6cae","system_id":"levelo_inurba_marseille","lat":43.313571,"lon":5.384829,"is_reserved":false,"is_disabled":false,"rental_uris":{"android":"levelo://app?vid=83a79c9f-df2c-4f7c-91df-7874e74f6cae","ios":"levelo://app?vid=83a79c9f-df2c-4f7c-91df-7874e74f6cae"},"vehicle_type_id":"4","last_reported":1710555158,"current_range_meters":14800,"station_id":"ce4bgt92rcd13ifvqcf0","pricing_plan_id":"cebpf4jnsgd1na2vs0mg"},{"bike_id":"0b695897-c5b7-4ed4-9f34-4856b597bed7","system_id":"levelo_inurba_marseille","lat":43.313571,"lon":5.384829,"is_reserved":false,"is_disabled":false,"rental_uris":{"android":"levelo://app?vid=0b695897-c5b7-4ed4-9f34-4856b597bed7","ios":"levelo://app?vid=0b695897-c5b7-4ed4-9f34-4856b597bed7"},"vehicle_type_id":"4","last_reported":1710555158,"current_range_meters":23600,"station_id":"ce4bgt92rcd13ifvqcf0","pricing_plan_id":"cebpf4jnsgd1na2vs0mg"},{"bike_id":"7c50995c-d5e2-4eee-93ad-73e1379c9e24","system_id":"levelo_inurba_marseille","lat":43.313571,"lon":5.384829,"is_reserved":false,"is_disabled":false,"rental_uris":{"android":"levelo://app?vid=7c50995c-d5e2-4eee-93ad-73e1379c9e24","ios":"levelo://app?vid=7c50995c-d5e2-4eee-93ad-73e1379c9e24"},"vehicle_type_id":"4","last_reported":1710555158,"current_range_meters":23200,"station_id":"ce4bgt92rcd13ifvqcf0","pricing_plan_id":"cebpf4jnsgd1na2vs0mg"},{"bike_id":"0c5344ff-b80e-45bc-90c8-bdf821e6c51d","system_id":"levelo_inurba_marseille","lat":43.3136,"lon":5.38498,"is_reserved":false,"is_disabled":false,"rental_uris":{"android":"levelo://app?vid=0c5344ff-b80e-45bc-90c8-bdf821e6c51d","ios":"levelo://app?vid=0c5344ff-b80e-45bc-90c8-bdf821e6c51d"},"vehicle_type_id":"4","last_reported":1710555158,"current_range_meters":18800,"station_id":"ce4bgt92rcd13ifvqcf0","pricing_plan_id":"cebpf4jnsgd1na2vs0mg"},{"bike_id":"207be1e0-5bf2-441e-8508-b207b44a7b66","system_id":"levelo_inurba_marseille","lat":43.313571,"lon":5.384829,"is_reserved":false,"is_disabled":false,"rental_uris":{"android":"levelo://app?vid=207be1e0-5bf2-441e-8508-b207b44a7b66","ios":"levelo://app?vid=207be1e0-5bf2-441e-8508-b207b44a7b66"},"vehicle_type_id":"4","last_reported":1710555158,"current_range_meters":29600,"station_id":"ce4bgt92rcd13ifvqcf0","pricing_plan_id":"cebpf4jnsgd1na2vs0mg"},{"bike_id":"c8136d0b-e04c-42b9-a175-193cf297b9fb","system_id":"levelo_inurba_marseille","lat":43.313571,"lon":5.384829,"is_reserved":false,"is_disabled":false,"rental_uris":{"android":"levelo://app?vid=c8136d0b-e04c-42b9-a175-193cf297b9fb","ios":"levelo://app?vid=c8136d0b-e04c-42b9-a175-193cf297b9fb"},"vehicle_type_id":"4","last_reported":1710555158,"current_range_meters":31600,"station_id":"ce4bgt92rcd13ifvqcf0","pricing_plan_id":"cebpf4jnsgd1na2vs0mg"},{"bike_id":"cdee254d-f7bd-426c-a982-84b983b141a9","system_id":"levelo_inurba_marseille","lat":43.31389,"lon":5.38507,"is_reserved":false,"is_disabled":false,"rental_uris":{"android":"levelo://app?vid=cdee254d-f7bd-426c-a982-84b983b141a9","ios":"levelo://app?vid=cdee254d-f7bd-426c-a982-84b983b141a9"},"vehicle_type_id":"4","last_reported":1710555158,"current_range_meters":15200,"station_id":"ce4bgt92rcd13ifvqcf0","pricing_plan_id":"cebpf4jnsgd1na2vs0mg"},{"bike_id":"9f975209-9b45-40ce-ad9b-6622061e9fd6","system_id":"levelo_inurba_marseille","lat":43.299724,"lon":5.371829,"is_reserved":false,"is_disabled":false,"rental_uris":{"android":"levelo://app?vid=9f975209-9b45-40ce-ad9b-6622061e9fd6","ios":"levelo://app?vid=9f975209-9b45-40ce-ad9b-6622061e9fd6"},"vehicle_type_id":"4","last_reported":1710555158,"current_range_meters":6000,"station_id":"ce4bgr92rcd13ifvqc7g","pricing_plan_id":"cebpf4jnsgd1na2vs0mg"},{"bike_id":"5a3775af-bfff-4a57-a984-4a15eea9675a","system_id":"levelo_inurba_marseille","lat":43.299724,"lon":5.371829,"is_reserved":false,"is_disabled":false,"rental_uris":{"android":"levelo://app?vid=5a3775af-bfff-4a57-a984-4a15eea9675a","ios":"levelo://app?vid=5a3775af-bfff-4a57-a984-4a15eea9675a"},"vehicle_type_id":"4","last_reported":1710555158,"current_range_meters":0,"station_id":"ce4bgr92rcd13ifvqc7g","pricing_plan_id":"cebpf4jnsgd1na2vs0mg"},{"bike_id":"26915e38-5812-44ba-b819-72e211aab989","system_id":"levelo_inurba_marseille","lat":43.299724,"lon":5.371829,"is_reserved":false,"is_disabled":false,"rental_uris":{"android":"levelo://app?vid=26915e38-5812-44ba-b819-72e211aab989","ios":"levelo://app?vid=26915e38-5812-44ba-b819-72e211aab989"},"vehicle_type_id":"4","last_reported":1710555158,"current_range_meters":26400,"station_id":"ce4bgr92rcd13ifvqc7g","pricing_plan_id":"cebpf4jnsgd1na2vs0mg"},{"bike_id":"c88d55ba-4bad-4421-89ec-3711ba37f6b9","system_id":"levelo_inurba_marseille","lat":43.305364,"lon":5.384119,"is_reserved":false,"is_disabled":false,"rental_uris":{"android":"levelo://app?vid=c88d55ba-4bad-4421-89ec-3711ba37f6b9","ios":"levelo://app?vid=c88d55ba-4bad-4421-89ec-3711ba37f6b9"},"vehicle_type_id":"4","last_reported":1710555158,"current_range_meters":14000,"station_id":"ce4bgg92rcd13ifvqb30","pricing_plan_id":"cebpf4jnsgd1na2vs0mg"},{"bike_id":"a48938c8-37e7-4642-a2f3-11e5336e442a","system_id":"levelo_inurba_marseille","lat":43.311755,"lon":5.38708,"is_reserved":false,"is_disabled":false,"rental_uris":{"android":"levelo://app?vid=a48938c8-37e7-4642-a2f3-11e5336e442a","ios":"levelo://app?vid=a48938c8-37e7-4642-a2f3-11e5336e442a"},"vehicle_type_id":"4","last_reported":1710555158,"current_range_meters":12800,"station_id":"ce4bgv12rcd13ifvqcp0","pricing_plan_id":"cebpf4jnsgd1na2vs0mg"},{"bike_id":"ac6ae13e-c402-44d5-8161-02e2f80e2659","system_id":"levelo_inurba_marseille","lat":43.311722,"lon":5.387247,"is_reserved":false,"is_disabled":false,"rental_uris":{"android":"levelo://app?vid=ac6ae13e-c402-44d5-8161-02e2f80e2659","ios":"levelo://app?vid=ac6ae13e-c402-44d5-8161-02e2f80e2659"},"vehicle_type_id":"4","last_reported":1710555158,"current_range_meters":27600,"station_id":"ce4bgv12rcd13ifvqcp0","pricing_plan_id":"cebpf4jnsgd1na2vs0mg"},{"bike_id":"be6f9526-a2f3-494b-9fbe-1a08bea6ab77","system_id":"levelo_inurba_marseille","lat":43.311722,"lon":5.387247,"is_reserved":false,"is_disabled":false,"rental_uris":{"android":"levelo://app?vid=be6f9526-a2f3-494b-9fbe-1a08bea6ab77","ios":"levelo://app?vid=be6f9526-a2f3-494b-9fbe-1a08bea6ab77"},"vehicle_type_id":"4","last_reported":1710555158,"current_range_meters":25600,"station_id":"ce4bgv12rcd13ifvqcp0","pricing_plan_id":"cebpf4jnsgd1na2vs0mg"},{"bike_id":"3037e1f4-83a1-4aa7-ba91-b0f2e7596062","system_id":"levelo_inurba_marseille","lat":43.31173,"lon":5.3871,"is_reserved":false,"is_disabled":false,"rental_uris":{"android":"levelo://app?vid=3037e1f4-83a1-4aa7-ba91-b0f2e7596062","ios":"levelo://app?vid=3037e1f4-83a1-4aa7-ba91-b0f2e7596062"},"vehicle_type_id":"4","last_reported":1710555158,"current_range_meters":18800,"station_id":"ce4bgv12rcd13ifvqcp0","pricing_plan_id":"cebpf4jnsgd1na2vs0mg"},{"bike_id":"0a131335-9bd8-47cd-b183-85f3b5aaa77a","system_id":"levelo_inurba_marseille","lat":43.311717,"lon":5.3871,"is_reserved":false,"is_disabled":false,"rental_uris":{"android":"levelo://app?vid=0a131335-9bd8-47cd-b183-85f3b5aaa77a","ios":"levelo://app?vid=0a131335-9bd8-47cd-b183-85f3b5aaa77a"},"vehicle_type_id":"4","last_reported":1710555158,"current_range_meters":2400,"station_id":"ce4bgv12rcd13ifvqcp0","pricing_plan_id":"cebpf4jnsgd1na2vs0mg"},{"bike_id":"bacb1e40-fff6-4e4a-92e3-394c6bc5c467","system_id":"levelo_inurba_marseille","lat":43.311722,"lon":5.387247,"is_reserved":false,"is_disabled":false,"rental_uris":{"android":"levelo://app?vid=bacb1e40-fff6-4e4a-92e3-394c6bc5c467","ios":"levelo://app?vid=bacb1e40-fff6-4e4a-92e3-394c6bc5c467"},"vehicle_type_id":"4","last_reported":1710555158,"current_range_meters":30800,"station_id":"ce4bgv12rcd13ifvqcp0","pricing_plan_id":"cebpf4jnsgd1na2vs0mg"},{"bike_id":"a28dd07b-1aba-4074-bb73-5e82e0dbd99f","system_id":"levelo_inurba_marseille","lat":43.311716,"lon":5.387114,"is_reserved":false,"is_disabled":false,"rental_uris":{"android":"levelo://app?vid=a28dd07b-1aba-4074-bb73-5e82e0dbd99f","ios":"levelo://app?vid=a28dd07b-1aba-4074-bb73-5e82e0dbd99f"},"vehicle_type_id":"4","last_reported":1710555158,"current_range_meters":6800,"station_id":"ce4bgv12rcd13ifvqcp0","pricing_plan_id":"cebpf4jnsgd1na2vs0mg"},{"bike_id":"7ad2b8cb-003e-4197-b1c7-158a5d649eb8","system_id":"levelo_inurba_marseille","lat":43.311722,"lon":5.387247,"is_reserved":false,"is_disabled":false,"rental_uris":{"android":"levelo://app?vid=7ad2b8cb-003e-4197-b1c7-158a5d649eb8","ios":"levelo://app?vid=7ad2b8cb-003e-4197-b1c7-158a5d649eb8"},"vehicle_type_id":"4","last_reported":1710555158,"current_range_meters":17600,"station_id":"ce4bgv12rcd13ifvqcp0","pricing_plan_id":"cebpf4jnsgd1na2vs0mg"},{"bike_id":"1c89c781-4287-4256-8bd1-05cf0727e235","system_id":"levelo_inurba_marseille","lat":43.31174,"lon":5.38713,"is_reserved":false,"is_disabled":false,"rental_uris":{"android":"levelo://app?vid=1c89c781-4287-4256-8bd1-05cf0727e235","ios":"levelo://app?vid=1c89c781-4287-4256-8bd1-05cf0727e235"},"vehicle_type_id":"4","last_reported":1710555158,"current_range_meters":16000,"station_id":"ce4bgv12rcd13ifvqcp0","pricing_plan_id":"cebpf4jnsgd1na2vs0mg"},{"bike_id":"cd1a11d9-01f8-46b3-bba3-8329fc63cfdd","system_id":"levelo_inurba_marseille","lat":43.3118,"lon":5.387147,"is_reserved":false,"is_disabled":false,"rental_uris":{"android":"levelo://app?vid=cd1a11d9-01f8-46b3-bba3-8329fc63cfdd","ios":"levelo://app?vid=cd1a11d9-01f8-46b3-bba3-8329fc63cfdd"},"vehicle_type_id":"4","last_reported":1710555158,"current_range_meters":12000,"station_id":"ce4bgv12rcd13ifvqcp0","pricing_plan_id":"cebpf4jnsgd1na2vs0mg"},{"bike_id":"927bfb3e-6cf2-410c-a72a-508729679877","system_id":"levelo_inurba_marseille","lat":43.311722,"lon":5.387247,"is_reserved":false,"is_disabled":false,"rental_uris":{"android":"levelo://app?vid=927bfb3e-6cf2-410c-a72a-508729679877","ios":"levelo://app?vid=927bfb3e-6cf2-410c-a72a-508729679877"},"vehicle_type_id":"4","last_reported":1710555158,"current_range_meters":6000,"station_id":"ce4bgv12rcd13ifvqcp0","pricing_plan_id":"cebpf4jnsgd1na2vs0mg"},{"bike_id":"f5736afd-79f4-4808-a336-f85a2c8bb429","system_id":"levelo_inurba_marseille","lat":43.31167,"lon":5.387143,"is_reserved":false,"is_disabled":false,"rental_uris":{"android":"levelo://app?vid=f5736afd-79f4-4808-a336-f85a2c8bb429","ios":"levelo://app?vid=f5736afd-79f4-4808-a336-f85a2c8bb429"},"vehicle_type_id":"4","last_reported":1710555158,"current_range_meters":5600,"station_id":"ce4bgv12rcd13ifvqcp0","pricing_plan_id":"cebpf4jnsgd1na2vs0mg"},{"bike_id":"64d974af-b901-4a74-9f67-76c189962e2f","system_id":"levelo_inurba_marseille","lat":43.311791,"lon":5.387155,"is_reserved":false,"is_disabled":false,"rental_uris":{"android":"levelo://app?vid=64d974af-b901-4a74-9f67-76c189962e2f","ios":"levelo://app?vid=64d974af-b901-4a74-9f67-76c189962e2f"},"vehicle_type_id":"4","last_reported":1710555158,"current_range_meters":21200,"station_id":"ce4bgv12rcd13ifvqcp0","pricing_plan_id":"cebpf4jnsgd1na2vs0mg"},{"bike_id":"dcb2349d-dd68-4ce1-aa86-fda52b7a3a70","system_id":"levelo_inurba_marseille","lat":43.299243,"lon":5.374807,"is_reserved":false,"is_disabled":false,"rental_uris":{"android":"levelo://app?vid=dcb2349d-dd68-4ce1-aa86-fda52b7a3a70","ios":"levelo://app?vid=dcb2349d-dd68-4ce1-aa86-fda52b7a3a70"},"vehicle_type_id":"4","last_reported":1710555158,"current_range_meters":19200,"station_id":"ce4bgjh2rcd13ifvqbg0","pricing_plan_id":"cebpf4jnsgd1na2vs0mg"},{"bike_id":"7f065908-baf0-4279-9dcc-a820d373c426","system_id":"levelo_inurba_marseille","lat":43.311722,"lon":5.387247,"is_reserved":false,"is_disabled":false,"rental_uris":{"android":"levelo://app?vid=7f065908-baf0-4279-9dcc-a820d373c426","ios":"levelo://app?vid=7f065908-baf0-4279-9dcc-a820d373c426"},"vehicle_type_id":"4","last_reported":1710555158,"current_range_meters":2400,"station_id":"ce4bgv12rcd13ifvqcp0","pricing_plan_id":"cebpf4jnsgd1na2vs0mg"},{"bike_id":"b9deb7ec-a851-48d0-b5e9-700e802b82ad","system_id":"levelo_inurba_marseille","lat":43.31178,"lon":5.38717,"is_reserved":false,"is_disabled":false,"rental_uris":{"android":"levelo://app?vid=b9deb7ec-a851-48d0-b5e9-700e802b82ad","ios":"levelo://app?vid=b9deb7ec-a851-48d0-b5e9-700e802b82ad"},"vehicle_type_id":"4","last_reported":1710555158,"current_range_meters":9200,"station_id":"ce4bgv12rcd13ifvqcp0","pricing_plan_id":"cebpf4jnsgd1na2vs0mg"},{"bike_id":"c448002a-1740-41a6-89f7-ee0b4e09ec04","system_id":"levelo_inurba_marseille","lat":43.299243,"lon":5.37481,"is_reserved":false,"is_disabled":false,"rental_uris":{"android":"levelo://app?vid=c448002a-1740-41a6-89f7-ee0b4e09ec04","ios":"levelo://app?vid=c448002a-1740-41a6-89f7-ee0b4e09ec04"},"vehicle_type_id":"4","last_reported":1710555158,"current_range_meters":8000,"station_id":"ce4bgjh2rcd13ifvqbg0","pricing_plan_id":"cebpf4jnsgd1na2vs0mg"},{"bike_id":"48c57b69-98a8-4292-9f40-a4657b692564","system_id":"levelo_inurba_marseille","lat":43.297794,"lon":5.370888,"is_reserved":false,"is_disabled":false,"rental_uris":{"android":"levelo://app?vid=48c57b69-98a8-4292-9f40-a4657b692564","ios":"levelo://app?vid=48c57b69-98a8-4292-9f40-a4657b692564"},"vehicle_type_id":"4","last_reported":1710555158,"current_range_meters":20800,"station_id":"ce4bgop2rcd13ifvqc1g","pricing_plan_id":"cebpf4jnsgd1na2vs0mg"},{"bike_id":"1bbe4bb9-029b-4137-8af9-d38f2c95b687","system_id":"levelo_inurba_marseille","lat":43.297899,"lon":5.37089,"is_reserved":false,"is_disabled":false,"rental_uris":{"android":"levelo://app?vid=1bbe4bb9-029b-4137-8af9-d38f2c95b687","ios":"levelo://app?vid=1bbe4bb9-029b-4137-8af9-d38f2c95b687"},"vehicle_type_id":"4","last_reported":1710555158,"current_range_meters":0,"station_id":"ce4bgop2rcd13ifvqc1g","pricing_plan_id":"cebpf4jnsgd1na2vs0mg"},{"bike_id":"0b9da407-e1d3-4701-855c-07dea8719590","system_id":"levelo_inurba_marseille","lat":43.29783,"lon":5.37088,"is_reserved":false,"is_disabled":false,"rental_uris":{"android":"levelo://app?vid=0b9da407-e1d3-4701-855c-07dea8719590","ios":"levelo://app?vid=0b9da407-e1d3-4701-855c-07dea8719590"},"vehicle_type_id":"4","last_reported":1710555158,"current_range_meters":23200,"station_id":"ce4bgop2rcd13ifvqc1g","pricing_plan_id":"cebpf4jnsgd1na2vs0mg"},{"bike_id":"a1ea46c0-4921-4767-a801-a177044432f3","system_id":"levelo_inurba_marseille","lat":43.322872,"lon":5.382756,"is_reserved":false,"is_disabled":false,"rental_uris":{"android":"levelo://app?vid=a1ea46c0-4921-4767-a801-a177044432f3","ios":"levelo://app?vid=a1ea46c0-4921-4767-a801-a177044432f3"},"vehicle_type_id":"4","last_reported":1710555158,"current_range_meters":31600,"station_id":"ce4bhr12rcd13ifvqhqg","pricing_plan_id":"cebpf4jnsgd1na2vs0mg"},{"bike_id":"051523b2-359d-4ef6-923e-195ba4a7c735","system_id":"levelo_inurba_marseille","lat":43.297774,"lon":5.370875,"is_reserved":false,"is_disabled":false,"rental_uris":{"android":"levelo://app?vid=051523b2-359d-4ef6-923e-195ba4a7c735","ios":"levelo://app?vid=051523b2-359d-4ef6-923e-195ba4a7c735"},"vehicle_type_id":"4","last_reported":1710555158,"current_range_meters":31600,"station_id":"ce4bgop2rcd13ifvqc1g","pricing_plan_id":"cebpf4jnsgd1na2vs0mg"},{"bike_id":"81071808-a1ee-4cff-b968-4be967fb42de","system_id":"levelo_inurba_marseille","lat":43.322872,"lon":5.382756,"is_reserved":false,"is_disabled":false,"rental_uris":{"android":"levelo://app?vid=81071808-a1ee-4cff-b968-4be967fb42de","ios":"levelo://app?vid=81071808-a1ee-4cff-b968-4be967fb42de"},"vehicle_type_id":"4","last_reported":1710555158,"current_range_meters":0,"station_id":"ce4bhr12rcd13ifvqhqg","pricing_plan_id":"cebpf4jnsgd1na2vs0mg"},{"bike_id":"3ff125a5-dff1-4591-b6cc-449dc2424878","system_id":"levelo_inurba_marseille","lat":43.322899,"lon":5.382714,"is_reserved":false,"is_disabled":false,"rental_uris":{"android":"levelo://app?vid=3ff125a5-dff1-4591-b6cc-449dc2424878","ios":"levelo://app?vid=3ff125a5-dff1-4591-b6cc-449dc2424878"},"vehicle_type_id":"4","last_reported":1710555158,"current_range_meters":22800,"station_id":"ce4bhr12rcd13ifvqhqg","pricing_plan_id":"cebpf4jnsgd1na2vs0mg"},{"bike_id":"41a964d5-3943-4f24-b8cf-62a929f835d5","system_id":"levelo_inurba_marseille","lat":43.322872,"lon":5.382756,"is_reserved":false,"is_disabled":false,"rental_uris":{"android":"levelo://app?vid=41a964d5-3943-4f24-b8cf-62a929f835d5","ios":"levelo://app?vid=41a964d5-3943-4f24-b8cf-62a929f835d5"},"vehicle_type_id":"4","last_reported":1710555158,"current_range_meters":22400,"station_id":"ce4bhr12rcd13ifvqhqg","pricing_plan_id":"cebpf4jnsgd1na2vs0mg"},{"bike_id":"36727d06-0af4-4c64-88de-4193d3d2494b","system_id":"levelo_inurba_marseille","lat":43.322872,"lon":5.382756,"is_reserved":false,"is_disabled":false,"rental_uris":{"android":"levelo://app?vid=36727d06-0af4-4c64-88de-4193d3d2494b","ios":"levelo://app?vid=36727d06-0af4-4c64-88de-4193d3d2494b"},"vehicle_type_id":"4","last_reported":1710555158,"current_range_meters":21200,"station_id":"ce4bhr12rcd13ifvqhqg","pricing_plan_id":"cebpf4jnsgd1na2vs0mg"},{"bike_id":"c7138234-dee1-496b-a4b5-ec50ce387339","system_id":"levelo_inurba_marseille","lat":43.322872,"lon":5.382756,"is_reserved":false,"is_disabled":false,"rental_uris":{"android":"levelo://app?vid=c7138234-dee1-496b-a4b5-ec50ce387339","ios":"levelo://app?vid=c7138234-dee1-496b-a4b5-ec50ce387339"},"vehicle_type_id":"4","last_reported":1710555158,"current_range_meters":18400,"station_id":"ce4bhr12rcd13ifvqhqg","pricing_plan_id":"cebpf4jnsgd1na2vs0mg"},{"bike_id":"26a6f107-4553-428a-b878-f3d63b74f859","system_id":"levelo_inurba_marseille","lat":43.322872,"lon":5.382756,"is_reserved":false,"is_disabled":false,"rental_uris":{"android":"levelo://app?vid=26a6f107-4553-428a-b878-f3d63b74f859","ios":"levelo://app?vid=26a6f107-4553-428a-b878-f3d63b74f859"},"vehicle_type_id":"4","last_reported":1710555158,"current_range_meters":13200,"station_id":"ce4bhr12rcd13ifvqhqg","pricing_plan_id":"cebpf4jnsgd1na2vs0mg"},{"bike_id":"7d711117-8f24-4ca5-af35-2d207110a750","system_id":"levelo_inurba_marseille","lat":43.322872,"lon":5.382756,"is_reserved":false,"is_disabled":false,"rental_uris":{"android":"levelo://app?vid=7d711117-8f24-4ca5-af35-2d207110a750","ios":"levelo://app?vid=7d711117-8f24-4ca5-af35-2d207110a750"},"vehicle_type_id":"4","last_reported":1710555158,"current_range_meters":31600,"station_id":"ce4bhr12rcd13ifvqhqg","pricing_plan_id":"cebpf4jnsgd1na2vs0mg"},{"bike_id":"2d6887a7-62ae-4d89-8c19-2ea133424140","system_id":"levelo_inurba_marseille","lat":43.322872,"lon":5.382756,"is_reserved":false,"is_disabled":false,"rental_uris":{"android":"levelo://app?vid=2d6887a7-62ae-4d89-8c19-2ea133424140","ios":"levelo://app?vid=2d6887a7-62ae-4d89-8c19-2ea133424140"},"vehicle_type_id":"4","last_reported":1710555158,"current_range_meters":6800,"station_id":"ce4bhr12rcd13ifvqhqg","pricing_plan_id":"cebpf4jnsgd1na2vs0mg"},{"bike_id":"9be1610f-c31d-4ce8-90f5-92648a7ce7bd","system_id":"levelo_inurba_marseille","lat":43.322872,"lon":5.382756,"is_reserved":false,"is_disabled":false,"rental_uris":{"android":"levelo://app?vid=9be1610f-c31d-4ce8-90f5-92648a7ce7bd","ios":"levelo://app?vid=9be1610f-c31d-4ce8-90f5-92648a7ce7bd"},"vehicle_type_id":"4","last_reported":1710555158,"current_range_meters":23600,"station_id":"ce4bhr12rcd13ifvqhqg","pricing_plan_id":"cebpf4jnsgd1na2vs0mg"},{"bike_id":"c9a420ab-613c-4d78-8e7f-2d9c73b52f44","system_id":"levelo_inurba_marseille","lat":43.297163,"lon":5.365866,"is_reserved":false,"is_disabled":false,"rental_uris":{"android":"levelo://app?vid=c9a420ab-613c-4d78-8e7f-2d9c73b52f44","ios":"levelo://app?vid=c9a420ab-613c-4d78-8e7f-2d9c73b52f44"},"vehicle_type_id":"4","last_reported":1710555158,"current_range_meters":27600,"station_id":"ce4bgn12rcd13ifvqbt0","pricing_plan_id":"cebpf4jnsgd1na2vs0mg"},{"bike_id":"2ace87de-636d-4939-9bd6-f3ab547a5bed","system_id":"levelo_inurba_marseille","lat":43.297163,"lon":5.365866,"is_reserved":false,"is_disabled":false,"rental_uris":{"android":"levelo://app?vid=2ace87de-636d-4939-9bd6-f3ab547a5bed","ios":"levelo://app?vid=2ace87de-636d-4939-9bd6-f3ab547a5bed"},"vehicle_type_id":"4","last_reported":1710555158,"current_range_meters":13600,"station_id":"ce4bgn12rcd13ifvqbt0","pricing_plan_id":"cebpf4jnsgd1na2vs0mg"},{"bike_id":"2260d1ed-aa5d-4698-96f4-7bca6a95f3f4","system_id":"levelo_inurba_marseille","lat":43.305364,"lon":5.384119,"is_reserved":false,"is_disabled":false,"rental_uris":{"android":"levelo://app?vid=2260d1ed-aa5d-4698-96f4-7bca6a95f3f4","ios":"levelo://app?vid=2260d1ed-aa5d-4698-96f4-7bca6a95f3f4"},"vehicle_type_id":"4","last_reported":1710555158,"current_range_meters":15200,"station_id":"ce4bgg92rcd13ifvqb30","pricing_plan_id":"cebpf4jnsgd1na2vs0mg"},{"bike_id":"5cf26d1f-7503-47a6-b6e5-e85e5ad51882","system_id":"levelo_inurba_marseille","lat":43.29573,"lon":5.367355,"is_reserved":false,"is_disabled":false,"rental_uris":{"android":"levelo://app?vid=5cf26d1f-7503-47a6-b6e5-e85e5ad51882","ios":"levelo://app?vid=5cf26d1f-7503-47a6-b6e5-e85e5ad51882"},"vehicle_type_id":"4","last_reported":1710555158,"current_range_meters":14800,"station_id":"ce4bgph2rcd13ifvqc2g","pricing_plan_id":"cebpf4jnsgd1na2vs0mg"},{"bike_id":"e9c476d1-1f47-4ef1-8bad-f5034351341a","system_id":"levelo_inurba_marseille","lat":43.296935,"lon":5.376544,"is_reserved":false,"is_disabled":false,"rental_uris":{"android":"levelo://app?vid=e9c476d1-1f47-4ef1-8bad-f5034351341a","ios":"levelo://app?vid=e9c476d1-1f47-4ef1-8bad-f5034351341a"},"vehicle_type_id":"4","last_reported":1710555158,"current_range_meters":14800,"station_id":"ce4bgkh2rcd13ifvqbl0","pricing_plan_id":"cebpf4jnsgd1na2vs0mg"},{"bike_id":"ffe8688a-df08-40c7-bfb2-d98b22a2db1e","system_id":"levelo_inurba_marseille","lat":43.309589,"lon":5.390258,"is_reserved":false,"is_disabled":false,"rental_uris":{"android":"levelo://app?vid=ffe8688a-df08-40c7-bfb2-d98b22a2db1e","ios":"levelo://app?vid=ffe8688a-df08-40c7-bfb2-d98b22a2db1e"},"vehicle_type_id":"4","last_reported":1710555158,"current_range_meters":27600,"station_id":"ce4bgup2rcd13ifvqco0","pricing_plan_id":"cebpf4jnsgd1na2vs0mg"},{"bike_id":"74c7587b-18a8-4b52-994e-e68432f468ac","system_id":"levelo_inurba_marseille","lat":43.299028,"lon":5.381509,"is_reserved":false,"is_disabled":false,"rental_uris":{"android":"levelo://app?vid=74c7587b-18a8-4b52-994e-e68432f468ac","ios":"levelo://app?vid=74c7587b-18a8-4b52-994e-e68432f468ac"},"vehicle_type_id":"4","last_reported":1710555158,"current_range_meters":18400,"station_id":"ce4bgj12rcd13ifvqbc0","pricing_plan_id":"cebpf4jnsgd1na2vs0mg"},{"bike_id":"38ac194c-b54b-47ac-b0a7-67d3047e80a1","system_id":"levelo_inurba_marseille","lat":43.30954,"lon":5.39031,"is_reserved":false,"is_disabled":false,"rental_uris":{"android":"levelo://app?vid=38ac194c-b54b-47ac-b0a7-67d3047e80a1","ios":"levelo://app?vid=38ac194c-b54b-47ac-b0a7-67d3047e80a1"},"vehicle_type_id":"4","last_reported":1710555158,"current_range_meters":20000,"station_id":"ce4bgup2rcd13ifvqco0","pricing_plan_id":"cebpf4jnsgd1na2vs0mg"},{"bike_id":"c1c6c7fa-63b5-4cc7-82e3-276c1e0cbda2","system_id":"levelo_inurba_marseille","lat":43.309446,"lon":5.390368,"is_reserved":false,"is_disabled":false,"rental_uris":{"android":"levelo://app?vid=c1c6c7fa-63b5-4cc7-82e3-276c1e0cbda2","ios":"levelo://app?vid=c1c6c7fa-63b5-4cc7-82e3-276c1e0cbda2"},"vehicle_type_id":"4","last_reported":1710555158,"current_range_meters":6400,"station_id":"ce4bgup2rcd13ifvqco0","pricing_plan_id":"cebpf4jnsgd1na2vs0mg"},{"bike_id":"9d205d71-ae7c-4343-a350-d70e5d6930c7","system_id":"levelo_inurba_marseille","lat":43.309589,"lon":5.390258,"is_reserved":false,"is_disabled":false,"rental_uris":{"android":"levelo://app?vid=9d205d71-ae7c-4343-a350-d70e5d6930c7","ios":"levelo://app?vid=9d205d71-ae7c-4343-a350-d70e5d6930c7"},"vehicle_type_id":"4","last_reported":1710555158,"current_range_meters":19600,"station_id":"ce4bgup2rcd13ifvqco0","pricing_plan_id":"cebpf4jnsgd1na2vs0mg"},{"bike_id":"a3c3df53-3944-47f0-b242-df6dc27b2921","system_id":"levelo_inurba_marseille","lat":43.31757,"lon":5.39015,"is_reserved":false,"is_disabled":false,"rental_uris":{"android":"levelo://app?vid=a3c3df53-3944-47f0-b242-df6dc27b2921","ios":"levelo://app?vid=a3c3df53-3944-47f0-b242-df6dc27b2921"},"vehicle_type_id":"4","last_reported":1710555158,"current_range_meters":24000,"station_id":"ce4bhqp2rcd13ifvqhng","pricing_plan_id":"cebpf4jnsgd1na2vs0mg"},{"bike_id":"403ef41a-4eb2-4456-bf75-ba8be3eae1da","system_id":"levelo_inurba_marseille","lat":43.31751,"lon":5.39018,"is_reserved":false,"is_disabled":false,"rental_uris":{"android":"levelo://app?vid=403ef41a-4eb2-4456-bf75-ba8be3eae1da","ios":"levelo://app?vid=403ef41a-4eb2-4456-bf75-ba8be3eae1da"},"vehicle_type_id":"4","last_reported":1710555158,"current_range_meters":14800,"station_id":"ce4bhqp2rcd13ifvqhng","pricing_plan_id":"cebpf4jnsgd1na2vs0mg"},{"bike_id":"78d37b44-015c-46f6-a064-6b0fe0d8c1b6","system_id":"levelo_inurba_marseille","lat":43.30459,"lon":5.38877,"is_reserved":false,"is_disabled":false,"rental_uris":{"android":"levelo://app?vid=78d37b44-015c-46f6-a064-6b0fe0d8c1b6","ios":"levelo://app?vid=78d37b44-015c-46f6-a064-6b0fe0d8c1b6"},"vehicle_type_id":"4","last_reported":1710555158,"current_range_meters":23200,"station_id":"ce4bgk12rcd13ifvqbi0","pricing_plan_id":"cebpf4jnsgd1na2vs0mg"},{"bike_id":"8f172a52-b1d5-456f-9d15-6cb713a66d22","system_id":"levelo_inurba_marseille","lat":43.304335,"lon":5.388845,"is_reserved":false,"is_disabled":false,"rental_uris":{"android":"levelo://app?vid=8f172a52-b1d5-456f-9d15-6cb713a66d22","ios":"levelo://app?vid=8f172a52-b1d5-456f-9d15-6cb713a66d22"},"vehicle_type_id":"4","last_reported":1710555158,"current_range_meters":4800,"station_id":"ce4bgk12rcd13ifvqbi0","pricing_plan_id":"cebpf4jnsgd1na2vs0mg"},{"bike_id":"8a2404d3-c33d-4e49-bbb2-66cce3f855ca","system_id":"levelo_inurba_marseille","lat":43.30437,"lon":5.3889,"is_reserved":false,"is_disabled":false,"rental_uris":{"android":"levelo://app?vid=8a2404d3-c33d-4e49-bbb2-66cce3f855ca","ios":"levelo://app?vid=8a2404d3-c33d-4e49-bbb2-66cce3f855ca"},"vehicle_type_id":"4","last_reported":1710555158,"current_range_meters":0,"station_id":"ce4bgk12rcd13ifvqbi0","pricing_plan_id":"cebpf4jnsgd1na2vs0mg"},{"bike_id":"c300c1c4-99fa-4d22-aee3-95a82c6356d6","system_id":"levelo_inurba_marseille","lat":43.298023,"lon":5.381283,"is_reserved":false,"is_disabled":false,"rental_uris":{"android":"levelo://app?vid=c300c1c4-99fa-4d22-aee3-95a82c6356d6","ios":"levelo://app?vid=c300c1c4-99fa-4d22-aee3-95a82c6356d6"},"vehicle_type_id":"4","last_reported":1710555158,"current_range_meters":30400,"station_id":"ce4bgip2rcd13ifvqbb0","pricing_plan_id":"cebpf4jnsgd1na2vs0mg"},{"bike_id":"15d95df0-17eb-4914-b13b-d57784b28096","system_id":"levelo_inurba_marseille","lat":43.30448,"lon":5.38898,"is_reserved":false,"is_disabled":false,"rental_uris":{"android":"levelo://app?vid=15d95df0-17eb-4914-b13b-d57784b28096","ios":"levelo://app?vid=15d95df0-17eb-4914-b13b-d57784b28096"},"vehicle_type_id":"4","last_reported":1710555158,"current_range_meters":4400,"station_id":"ce4bgk12rcd13ifvqbi0","pricing_plan_id":"cebpf4jnsgd1na2vs0mg"},{"bike_id":"ed61a634-6b63-4842-9a3d-1f7b2da7671c","system_id":"levelo_inurba_marseille","lat":43.304365,"lon":5.3889,"is_reserved":false,"is_disabled":false,"rental_uris":{"android":"levelo://app?vid=ed61a634-6b63-4842-9a3d-1f7b2da7671c","ios":"levelo://app?vid=ed61a634-6b63-4842-9a3d-1f7b2da7671c"},"vehicle_type_id":"4","last_reported":1710555158,"current_range_meters":7600,"station_id":"ce4bgk12rcd13ifvqbi0","pricing_plan_id":"cebpf4jnsgd1na2vs0mg"},{"bike_id":"58ecc53b-a19e-42d9-b6cf-535d25a43cfb","system_id":"levelo_inurba_marseille","lat":43.30439,"lon":5.38893,"is_reserved":false,"is_disabled":false,"rental_uris":{"android":"levelo://app?vid=58ecc53b-a19e-42d9-b6cf-535d25a43cfb","ios":"levelo://app?vid=58ecc53b-a19e-42d9-b6cf-535d25a43cfb"},"vehicle_type_id":"4","last_reported":1710555158,"current_range_meters":17600,"station_id":"ce4bgk12rcd13ifvqbi0","pricing_plan_id":"cebpf4jnsgd1na2vs0mg"},{"bike_id":"69a4a838-c496-43b6-8e11-ad9bc2de0b59","system_id":"levelo_inurba_marseille","lat":43.304274,"lon":5.388873,"is_reserved":false,"is_disabled":false,"rental_uris":{"android":"levelo://app?vid=69a4a838-c496-43b6-8e11-ad9bc2de0b59","ios":"levelo://app?vid=69a4a838-c496-43b6-8e11-ad9bc2de0b59"},"vehicle_type_id":"4","last_reported":1710555158,"current_range_meters":23200,"station_id":"ce4bgk12rcd13ifvqbi0","pricing_plan_id":"cebpf4jnsgd1na2vs0mg"},{"bike_id":"5271b12f-a9c4-4080-85c9-c9811d554a17","system_id":"levelo_inurba_marseille","lat":43.304274,"lon":5.388873,"is_reserved":false,"is_disabled":false,"rental_uris":{"android":"levelo://app?vid=5271b12f-a9c4-4080-85c9-c9811d554a17","ios":"levelo://app?vid=5271b12f-a9c4-4080-85c9-c9811d554a17"},"vehicle_type_id":"4","last_reported":1710555158,"current_range_meters":22000,"station_id":"ce4bgk12rcd13ifvqbi0","pricing_plan_id":"cebpf4jnsgd1na2vs0mg"},{"bike_id":"b06414c0-36e8-4f1c-8b6c-2e8e3a99279b","system_id":"levelo_inurba_marseille","lat":43.30436,"lon":5.38894,"is_reserved":false,"is_disabled":false,"rental_uris":{"android":"levelo://app?vid=b06414c0-36e8-4f1c-8b6c-2e8e3a99279b","ios":"levelo://app?vid=b06414c0-36e8-4f1c-8b6c-2e8e3a99279b"},"vehicle_type_id":"4","last_reported":1710555158,"current_range_meters":17200,"station_id":"ce4bgk12rcd13ifvqbi0","pricing_plan_id":"cebpf4jnsgd1na2vs0mg"},{"bike_id":"76300e3b-3cfa-4d90-bb9a-9721e46179dd","system_id":"levelo_inurba_marseille","lat":43.304274,"lon":5.388873,"is_reserved":false,"is_disabled":false,"rental_uris":{"android":"levelo://app?vid=76300e3b-3cfa-4d90-bb9a-9721e46179dd","ios":"levelo://app?vid=76300e3b-3cfa-4d90-bb9a-9721e46179dd"},"vehicle_type_id":"4","last_reported":1710555158,"current_range_meters":15600,"station_id":"ce4bgk12rcd13ifvqbi0","pricing_plan_id":"cebpf4jnsgd1na2vs0mg"},{"bike_id":"52f6bbdf-d701-4948-840d-ca525d995b27","system_id":"levelo_inurba_marseille","lat":43.30438,"lon":5.38897,"is_reserved":false,"is_disabled":false,"rental_uris":{"android":"levelo://app?vid=52f6bbdf-d701-4948-840d-ca525d995b27","ios":"levelo://app?vid=52f6bbdf-d701-4948-840d-ca525d995b27"},"vehicle_type_id":"4","last_reported":1710555158,"current_range_meters":7200,"station_id":"ce4bgk12rcd13ifvqbi0","pricing_plan_id":"cebpf4jnsgd1na2vs0mg"},{"bike_id":"ee4a3ac2-71ac-4712-afb0-20c994c9aa28","system_id":"levelo_inurba_marseille","lat":43.30432,"lon":5.38893,"is_reserved":false,"is_disabled":false,"rental_uris":{"android":"levelo://app?vid=ee4a3ac2-71ac-4712-afb0-20c994c9aa28","ios":"levelo://app?vid=ee4a3ac2-71ac-4712-afb0-20c994c9aa28"},"vehicle_type_id":"4","last_reported":1710555158,"current_range_meters":16400,"station_id":"","pricing_plan_id":"cebpf4jnsgd1na2vs0mg"},{"bike_id":"5947c8a9-77fe-414b-ad9d-a287687c81d4","system_id":"levelo_inurba_marseille","lat":43.30426,"lon":5.38894,"is_reserved":false,"is_disabled":false,"rental_uris":{"android":"levelo://app?vid=5947c8a9-77fe-414b-ad9d-a287687c81d4","ios":"levelo://app?vid=5947c8a9-77fe-414b-ad9d-a287687c81d4"},"vehicle_type_id":"4","last_reported":1710555158,"current_range_meters":0,"station_id":"ce4bgk12rcd13ifvqbi0","pricing_plan_id":"cebpf4jnsgd1na2vs0mg"},{"bike_id":"c06156ac-6c2c-4acf-a0e0-ff946ab52a4c","system_id":"levelo_inurba_marseille","lat":43.2997,"lon":5.38496,"is_reserved":false,"is_disabled":false,"rental_uris":{"android":"levelo://app?vid=c06156ac-6c2c-4acf-a0e0-ff946ab52a4c","ios":"levelo://app?vid=c06156ac-6c2c-4acf-a0e0-ff946ab52a4c"},"vehicle_type_id":"4","last_reported":1710555158,"current_range_meters":3600,"station_id":"ce4bgj92rcd13ifvqbd0","pricing_plan_id":"cebpf4jnsgd1na2vs0mg"},{"bike_id":"9b79f06a-0f16-468c-96e9-4ddb47a35d9b","system_id":"levelo_inurba_marseille","lat":43.295471,"lon":5.378187,"is_reserved":false,"is_disabled":false,"rental_uris":{"android":"levelo://app?vid=9b79f06a-0f16-468c-96e9-4ddb47a35d9b","ios":"levelo://app?vid=9b79f06a-0f16-468c-96e9-4ddb47a35d9b"},"vehicle_type_id":"4","last_reported":1710555158,"current_range_meters":2000,"station_id":"","pricing_plan_id":"cebpf4jnsgd1na2vs0mg"},{"bike_id":"6cb74780-5cde-4826-85a2-4d15c8c0c805","system_id":"levelo_inurba_marseille","lat":43.32356,"lon":5.38886,"is_reserved":false,"is_disabled":false,"rental_uris":{"android":"levelo://app?vid=6cb74780-5cde-4826-85a2-4d15c8c0c805","ios":"levelo://app?vid=6cb74780-5cde-4826-85a2-4d15c8c0c805"},"vehicle_type_id":"4","last_reported":1710555158,"current_range_meters":15600,"station_id":"ce4bhqp2rcd13ifvqhog","pricing_plan_id":"cebpf4jnsgd1na2vs0mg"},{"bike_id":"601549c9-17b6-4663-bb1f-1fc3c0514675","system_id":"levelo_inurba_marseille","lat":43.32363,"lon":5.38885,"is_reserved":false,"is_disabled":false,"rental_uris":{"android":"levelo://app?vid=601549c9-17b6-4663-bb1f-1fc3c0514675","ios":"levelo://app?vid=601549c9-17b6-4663-bb1f-1fc3c0514675"},"vehicle_type_id":"4","last_reported":1710555158,"current_range_meters":14000,"station_id":"ce4bhqp2rcd13ifvqhog","pricing_plan_id":"cebpf4jnsgd1na2vs0mg"},{"bike_id":"40e2eb8a-4357-46b9-90f8-84a1e303713d","system_id":"levelo_inurba_marseille","lat":43.323641,"lon":5.388857,"is_reserved":false,"is_disabled":false,"rental_uris":{"android":"levelo://app?vid=40e2eb8a-4357-46b9-90f8-84a1e303713d","ios":"levelo://app?vid=40e2eb8a-4357-46b9-90f8-84a1e303713d"},"vehicle_type_id":"4","last_reported":1710555158,"current_range_meters":5200,"station_id":"ce4bhqp2rcd13ifvqhog","pricing_plan_id":"cebpf4jnsgd1na2vs0mg"},{"bike_id":"eaf421f3-46ac-4e30-949b-910710944134","system_id":"levelo_inurba_marseille","lat":43.32363,"lon":5.38887,"is_reserved":false,"is_disabled":false,"rental_uris":{"android":"levelo://app?vid=eaf421f3-46ac-4e30-949b-910710944134","ios":"levelo://app?vid=eaf421f3-46ac-4e30-949b-910710944134"},"vehicle_type_id":"4","last_reported":1710555158,"current_range_meters":8400,"station_id":"ce4bhqp2rcd13ifvqhog","pricing_plan_id":"cebpf4jnsgd1na2vs0mg"},{"bike_id":"fabfa73f-5084-4820-a827-515b7447769f","system_id":"levelo_inurba_marseille","lat":43.32362,"lon":5.38888,"is_reserved":false,"is_disabled":false,"rental_uris":{"android":"levelo://app?vid=fabfa73f-5084-4820-a827-515b7447769f","ios":"levelo://app?vid=fabfa73f-5084-4820-a827-515b7447769f"},"vehicle_type_id":"4","last_reported":1710555158,"current_range_meters":400,"station_id":"ce4bhqp2rcd13ifvqhog","pricing_plan_id":"cebpf4jnsgd1na2vs0mg"},{"bike_id":"dd14b498-2cf9-410c-8524-ecd6f68bd780","system_id":"levelo_inurba_marseille","lat":43.32368,"lon":5.38884,"is_reserved":false,"is_disabled":false,"rental_uris":{"android":"levelo://app?vid=dd14b498-2cf9-410c-8524-ecd6f68bd780","ios":"levelo://app?vid=dd14b498-2cf9-410c-8524-ecd6f68bd780"},"vehicle_type_id":"4","last_reported":1710555158,"current_range_meters":18800,"station_id":"ce4bhqp2rcd13ifvqhog","pricing_plan_id":"cebpf4jnsgd1na2vs0mg"},{"bike_id":"73189312-5711-4f07-9ba2-a07b812fa614","system_id":"levelo_inurba_marseille","lat":43.32367,"lon":5.388836,"is_reserved":false,"is_disabled":false,"rental_uris":{"android":"levelo://app?vid=73189312-5711-4f07-9ba2-a07b812fa614","ios":"levelo://app?vid=73189312-5711-4f07-9ba2-a07b812fa614"},"vehicle_type_id":"4","last_reported":1710555158,"current_range_meters":24800,"station_id":"ce4bhqp2rcd13ifvqhog","pricing_plan_id":"cebpf4jnsgd1na2vs0mg"},{"bike_id":"543d4186-714b-4866-a911-93293b5ebde7","system_id":"levelo_inurba_marseille","lat":43.32365,"lon":5.38887,"is_reserved":false,"is_disabled":false,"rental_uris":{"android":"levelo://app?vid=543d4186-714b-4866-a911-93293b5ebde7","ios":"levelo://app?vid=543d4186-714b-4866-a911-93293b5ebde7"},"vehicle_type_id":"4","last_reported":1710555158,"current_range_meters":10000,"station_id":"ce4bhqp2rcd13ifvqhog","pricing_plan_id":"cebpf4jnsgd1na2vs0mg"},{"bike_id":"775cf867-e75b-4fd5-b02f-97c73260f4b7","system_id":"levelo_inurba_marseille","lat":43.32366,"lon":5.38891,"is_reserved":false,"is_disabled":false,"rental_uris":{"android":"levelo://app?vid=775cf867-e75b-4fd5-b02f-97c73260f4b7","ios":"levelo://app?vid=775cf867-e75b-4fd5-b02f-97c73260f4b7"},"vehicle_type_id":"4","last_reported":1710555158,"current_range_meters":5200,"station_id":"ce4bhqp2rcd13ifvqhog","pricing_plan_id":"cebpf4jnsgd1na2vs0mg"},{"bike_id":"e7defb13-07db-447b-afd9-2164da423aef","system_id":"levelo_inurba_marseille","lat":43.32367,"lon":5.388836,"is_reserved":false,"is_disabled":false,"rental_uris":{"android":"levelo://app?vid=e7defb13-07db-447b-afd9-2164da423aef","ios":"levelo://app?vid=e7defb13-07db-447b-afd9-2164da423aef"},"vehicle_type_id":"4","last_reported":1710555158,"current_range_meters":21200,"station_id":"ce4bhqp2rcd13ifvqhog","pricing_plan_id":"cebpf4jnsgd1na2vs0mg"},{"bike_id":"3987cddb-4ed7-405b-96ca-b1abeb478286","system_id":"levelo_inurba_marseille","lat":43.32367,"lon":5.388836,"is_reserved":false,"is_disabled":false,"rental_uris":{"android":"levelo://app?vid=3987cddb-4ed7-405b-96ca-b1abeb478286","ios":"levelo://app?vid=3987cddb-4ed7-405b-96ca-b1abeb478286"},"vehicle_type_id":"4","last_reported":1710555158,"current_range_meters":20800,"station_id":"ce4bhqp2rcd13ifvqhog","pricing_plan_id":"cebpf4jnsgd1na2vs0mg"},{"bike_id":"98c893c2-7601-480f-b687-9b8b6030928a","system_id":"levelo_inurba_marseille","lat":43.32367,"lon":5.388836,"is_reserved":false,"is_disabled":false,"rental_uris":{"android":"levelo://app?vid=98c893c2-7601-480f-b687-9b8b6030928a","ios":"levelo://app?vid=98c893c2-7601-480f-b687-9b8b6030928a"},"vehicle_type_id":"4","last_reported":1710555158,"current_range_meters":3200,"station_id":"ce4bhqp2rcd13ifvqhog","pricing_plan_id":"cebpf4jnsgd1na2vs0mg"},{"bike_id":"e619867d-ed24-47a1-b74d-d5d99033d4ec","system_id":"levelo_inurba_marseille","lat":43.29587,"lon":5.38094,"is_reserved":false,"is_disabled":false,"rental_uris":{"android":"levelo://app?vid=e619867d-ed24-47a1-b74d-d5d99033d4ec","ios":"levelo://app?vid=e619867d-ed24-47a1-b74d-d5d99033d4ec"},"vehicle_type_id":"4","last_reported":1710555158,"current_range_meters":0,"station_id":"ce4bgl12rcd13ifvqbo0","pricing_plan_id":"cebpf4jnsgd1na2vs0mg"},{"bike_id":"24761d19-a96b-46a4-8a4b-696525fc41ce","system_id":"levelo_inurba_marseille","lat":43.292749,"lon":5.368398,"is_reserved":false,"is_disabled":false,"rental_uris":{"android":"levelo://app?vid=24761d19-a96b-46a4-8a4b-696525fc41ce","ios":"levelo://app?vid=24761d19-a96b-46a4-8a4b-696525fc41ce"},"vehicle_type_id":"4","last_reported":1710555158,"current_range_meters":21200,"station_id":"ce4bhbp2rcd13ifvqesg","pricing_plan_id":"cebpf4jnsgd1na2vs0mg"},{"bike_id":"71e4dd1d-1ce0-4f58-859c-634a8e535b1f","system_id":"levelo_inurba_marseille","lat":43.292749,"lon":5.368402,"is_reserved":false,"is_disabled":false,"rental_uris":{"android":"levelo://app?vid=71e4dd1d-1ce0-4f58-859c-634a8e535b1f","ios":"levelo://app?vid=71e4dd1d-1ce0-4f58-859c-634a8e535b1f"},"vehicle_type_id":"4","last_reported":1710555158,"current_range_meters":0,"station_id":"ce4bhbp2rcd13ifvqesg","pricing_plan_id":"cebpf4jnsgd1na2vs0mg"},{"bike_id":"8f4ef3ab-d2da-45ab-8a0c-0bff8f2200b8","system_id":"levelo_inurba_marseille","lat":43.292749,"lon":5.368398,"is_reserved":false,"is_disabled":false,"rental_uris":{"android":"levelo://app?vid=8f4ef3ab-d2da-45ab-8a0c-0bff8f2200b8","ios":"levelo://app?vid=8f4ef3ab-d2da-45ab-8a0c-0bff8f2200b8"},"vehicle_type_id":"4","last_reported":1710555158,"current_range_meters":26400,"station_id":"ce4bhbp2rcd13ifvqesg","pricing_plan_id":"cebpf4jnsgd1na2vs0mg"},{"bike_id":"59c613b0-b7b3-432c-9f9e-3fbfff7d376b","system_id":"levelo_inurba_marseille","lat":43.29602,"lon":5.381084,"is_reserved":false,"is_disabled":false,"rental_uris":{"android":"levelo://app?vid=59c613b0-b7b3-432c-9f9e-3fbfff7d376b","ios":"levelo://app?vid=59c613b0-b7b3-432c-9f9e-3fbfff7d376b"},"vehicle_type_id":"4","last_reported":1710555158,"current_range_meters":10400,"station_id":"ce4bgl12rcd13ifvqbo0","pricing_plan_id":"cebpf4jnsgd1na2vs0mg"},{"bike_id":"6da427a1-f752-4c2a-99a4-c1a42feab270","system_id":"levelo_inurba_marseille","lat":43.292749,"lon":5.368402,"is_reserved":false,"is_disabled":false,"rental_uris":{"android":"levelo://app?vid=6da427a1-f752-4c2a-99a4-c1a42feab270","ios":"levelo://app?vid=6da427a1-f752-4c2a-99a4-c1a42feab270"},"vehicle_type_id":"4","last_reported":1710555158,"current_range_meters":12000,"station_id":"ce4bhbp2rcd13ifvqesg","pricing_plan_id":"cebpf4jnsgd1na2vs0mg"},{"bike_id":"5ebd3e76-1883-474a-b3a9-c15fe95f82f2","system_id":"levelo_inurba_marseille","lat":43.293023,"lon":5.371758,"is_reserved":false,"is_disabled":false,"rental_uris":{"android":"levelo://app?vid=5ebd3e76-1883-474a-b3a9-c15fe95f82f2","ios":"levelo://app?vid=5ebd3e76-1883-474a-b3a9-c15fe95f82f2"},"vehicle_type_id":"4","last_reported":1710555158,"current_range_meters":0,"station_id":"ce4bgh92rcd13ifvqb40","pricing_plan_id":"cebpf4jnsgd1na2vs0mg"},{"bike_id":"737623da-f174-4f49-b942-d8db0805921a","system_id":"levelo_inurba_marseille","lat":43.292749,"lon":5.368402,"is_reserved":false,"is_disabled":false,"rental_uris":{"android":"levelo://app?vid=737623da-f174-4f49-b942-d8db0805921a","ios":"levelo://app?vid=737623da-f174-4f49-b942-d8db0805921a"},"vehicle_type_id":"4","last_reported":1710555158,"current_range_meters":24800,"station_id":"ce4bhbp2rcd13ifvqesg","pricing_plan_id":"cebpf4jnsgd1na2vs0mg"},{"bike_id":"d3c0bb2b-16fa-491a-9739-f33d723943cf","system_id":"levelo_inurba_marseille","lat":43.292749,"lon":5.368402,"is_reserved":false,"is_disabled":false,"rental_uris":{"android":"levelo://app?vid=d3c0bb2b-16fa-491a-9739-f33d723943cf","ios":"levelo://app?vid=d3c0bb2b-16fa-491a-9739-f33d723943cf"},"vehicle_type_id":"4","last_reported":1710555158,"current_range_meters":26800,"station_id":"ce4bhbp2rcd13ifvqesg","pricing_plan_id":"cebpf4jnsgd1na2vs0mg"},{"bike_id":"4d00bbea-195f-490d-b172-271222ef2976","system_id":"levelo_inurba_marseille","lat":43.292749,"lon":5.368398,"is_reserved":false,"is_disabled":false,"rental_uris":{"android":"levelo://app?vid=4d00bbea-195f-490d-b172-271222ef2976","ios":"levelo://app?vid=4d00bbea-195f-490d-b172-271222ef2976"},"vehicle_type_id":"4","last_reported":1710555158,"current_range_meters":31200,"station_id":"ce4bhbp2rcd13ifvqesg","pricing_plan_id":"cebpf4jnsgd1na2vs0mg"},{"bike_id":"c5817a73-71f0-40ce-871f-90e884e208b9","system_id":"levelo_inurba_marseille","lat":43.292749,"lon":5.368402,"is_reserved":false,"is_disabled":false,"rental_uris":{"android":"levelo://app?vid=c5817a73-71f0-40ce-871f-90e884e208b9","ios":"levelo://app?vid=c5817a73-71f0-40ce-871f-90e884e208b9"},"vehicle_type_id":"4","last_reported":1710555158,"current_range_meters":23200,"station_id":"ce4bhbp2rcd13ifvqesg","pricing_plan_id":"cebpf4jnsgd1na2vs0mg"},{"bike_id":"1dadfead-5b99-4435-95ff-7d4b978378ad","system_id":"levelo_inurba_marseille","lat":43.292749,"lon":5.368402,"is_reserved":false,"is_disabled":false,"rental_uris":{"android":"levelo://app?vid=1dadfead-5b99-4435-95ff-7d4b978378ad","ios":"levelo://app?vid=1dadfead-5b99-4435-95ff-7d4b978378ad"},"vehicle_type_id":"4","last_reported":1710555158,"current_range_meters":26400,"station_id":"ce4bhbp2rcd13ifvqesg","pricing_plan_id":"cebpf4jnsgd1na2vs0mg"},{"bike_id":"355f6d57-47af-402b-ae95-b38c2bfda8ef","system_id":"levelo_inurba_marseille","lat":43.292749,"lon":5.368402,"is_reserved":false,"is_disabled":false,"rental_uris":{"android":"levelo://app?vid=355f6d57-47af-402b-ae95-b38c2bfda8ef","ios":"levelo://app?vid=355f6d57-47af-402b-ae95-b38c2bfda8ef"},"vehicle_type_id":"4","last_reported":1710555158,"current_range_meters":30000,"station_id":"ce4bhbp2rcd13ifvqesg","pricing_plan_id":"cebpf4jnsgd1na2vs0mg"},{"bike_id":"1bfa7c17-09bf-4090-83f1-29d0694702f5","system_id":"levelo_inurba_marseille","lat":43.305994,"lon":5.393687,"is_reserved":false,"is_disabled":false,"rental_uris":{"android":"levelo://app?vid=1bfa7c17-09bf-4090-83f1-29d0694702f5","ios":"levelo://app?vid=1bfa7c17-09bf-4090-83f1-29d0694702f5"},"vehicle_type_id":"4","last_reported":1710555158,"current_range_meters":0,"station_id":"ce4bh0p2rcd13ifvqd80","pricing_plan_id":"cebpf4jnsgd1na2vs0mg"},{"bike_id":"fdd05281-f644-4667-b9f1-5131dc6be041","system_id":"levelo_inurba_marseille","lat":43.305994,"lon":5.393687,"is_reserved":false,"is_disabled":false,"rental_uris":{"android":"levelo://app?vid=fdd05281-f644-4667-b9f1-5131dc6be041","ios":"levelo://app?vid=fdd05281-f644-4667-b9f1-5131dc6be041"},"vehicle_type_id":"4","last_reported":1710555158,"current_range_meters":31600,"station_id":"ce4bh0p2rcd13ifvqd80","pricing_plan_id":"cebpf4jnsgd1na2vs0mg"},{"bike_id":"c39a9ccf-5984-42a0-92ca-29b4460b5a1d","system_id":"levelo_inurba_marseille","lat":43.305994,"lon":5.393687,"is_reserved":false,"is_disabled":false,"rental_uris":{"android":"levelo://app?vid=c39a9ccf-5984-42a0-92ca-29b4460b5a1d","ios":"levelo://app?vid=c39a9ccf-5984-42a0-92ca-29b4460b5a1d"},"vehicle_type_id":"4","last_reported":1710555158,"current_range_meters":12000,"station_id":"ce4bh0p2rcd13ifvqd80","pricing_plan_id":"cebpf4jnsgd1na2vs0mg"},{"bike_id":"5ac1d09d-b7c4-482d-9d9b-02e0688d7430","system_id":"levelo_inurba_marseille","lat":43.30308,"lon":5.39201,"is_reserved":false,"is_disabled":false,"rental_uris":{"android":"levelo://app?vid=5ac1d09d-b7c4-482d-9d9b-02e0688d7430","ios":"levelo://app?vid=5ac1d09d-b7c4-482d-9d9b-02e0688d7430"},"vehicle_type_id":"4","last_reported":1710555158,"current_range_meters":28800,"station_id":"ce4bgkh2rcd13ifvqbk0","pricing_plan_id":"cebpf4jnsgd1na2vs0mg"},{"bike_id":"ddd35103-1fd1-4edf-ac93-a4a86777c7cf","system_id":"levelo_inurba_marseille","lat":43.30309,"lon":5.39212,"is_reserved":false,"is_disabled":false,"rental_uris":{"android":"levelo://app?vid=ddd35103-1fd1-4edf-ac93-a4a86777c7cf","ios":"levelo://app?vid=ddd35103-1fd1-4edf-ac93-a4a86777c7cf"},"vehicle_type_id":"4","last_reported":1710555158,"current_range_meters":7200,"station_id":"ce4bgkh2rcd13ifvqbk0","pricing_plan_id":"cebpf4jnsgd1na2vs0mg"},{"bike_id":"4d44972d-be7d-4c54-9f5c-80869b65ae11","system_id":"levelo_inurba_marseille","lat":43.30085,"lon":5.390856,"is_reserved":false,"is_disabled":false,"rental_uris":{"android":"levelo://app?vid=4d44972d-be7d-4c54-9f5c-80869b65ae11","ios":"levelo://app?vid=4d44972d-be7d-4c54-9f5c-80869b65ae11"},"vehicle_type_id":"4","last_reported":1710555158,"current_range_meters":17600,"station_id":"ce4bh192rcd13ifvqdb0","pricing_plan_id":"cebpf4jnsgd1na2vs0mg"},{"bike_id":"9c220351-5f2a-4777-858b-e4814f992da8","system_id":"levelo_inurba_marseille","lat":43.300852,"lon":5.390859,"is_reserved":false,"is_disabled":false,"rental_uris":{"android":"levelo://app?vid=9c220351-5f2a-4777-858b-e4814f992da8","ios":"levelo://app?vid=9c220351-5f2a-4777-858b-e4814f992da8"},"vehicle_type_id":"4","last_reported":1710555158,"current_range_meters":27600,"station_id":"ce4bh192rcd13ifvqdb0","pricing_plan_id":"cebpf4jnsgd1na2vs0mg"},{"bike_id":"79007dbf-3bf6-4114-9653-6f0f2a5a1e19","system_id":"levelo_inurba_marseille","lat":43.298764,"lon":5.388973,"is_reserved":false,"is_disabled":false,"rental_uris":{"android":"levelo://app?vid=79007dbf-3bf6-4114-9653-6f0f2a5a1e19","ios":"levelo://app?vid=79007dbf-3bf6-4114-9653-6f0f2a5a1e19"},"vehicle_type_id":"4","last_reported":1710555158,"current_range_meters":12400,"station_id":"ce4bh392rcd13ifvqdl0","pricing_plan_id":"cebpf4jnsgd1na2vs0mg"},{"bike_id":"798192cd-5679-47aa-bc3a-99a3d941e452","system_id":"levelo_inurba_marseille","lat":43.298764,"lon":5.388973,"is_reserved":false,"is_disabled":false,"rental_uris":{"android":"levelo://app?vid=798192cd-5679-47aa-bc3a-99a3d941e452","ios":"levelo://app?vid=798192cd-5679-47aa-bc3a-99a3d941e452"},"vehicle_type_id":"4","last_reported":1710555158,"current_range_meters":18400,"station_id":"ce4bh392rcd13ifvqdl0","pricing_plan_id":"cebpf4jnsgd1na2vs0mg"},{"bike_id":"f6d5133e-7c4a-4a4e-9b36-f20776666401","system_id":"levelo_inurba_marseille","lat":43.293009,"lon":5.374584,"is_reserved":false,"is_disabled":false,"rental_uris":{"android":"levelo://app?vid=f6d5133e-7c4a-4a4e-9b36-f20776666401","ios":"levelo://app?vid=f6d5133e-7c4a-4a4e-9b36-f20776666401"},"vehicle_type_id":"4","last_reported":1710555158,"current_range_meters":12800,"station_id":"ce4bgi12rcd13ifvqb70","pricing_plan_id":"cebpf4jnsgd1na2vs0mg"},{"bike_id":"b966187f-a06f-4e59-991c-ed24952382ce","system_id":"levelo_inurba_marseille","lat":43.293009,"lon":5.374584,"is_reserved":false,"is_disabled":false,"rental_uris":{"android":"levelo://app?vid=b966187f-a06f-4e59-991c-ed24952382ce","ios":"levelo://app?vid=b966187f-a06f-4e59-991c-ed24952382ce"},"vehicle_type_id":"4","last_reported":1710555158,"current_range_meters":20800,"station_id":"ce4bgi12rcd13ifvqb70","pricing_plan_id":"cebpf4jnsgd1na2vs0mg"},{"bike_id":"fb528579-77ca-4667-9518-0034b4fa96d0","system_id":"levelo_inurba_marseille","lat":43.291675,"lon":5.371583,"is_reserved":false,"is_disabled":false,"rental_uris":{"android":"levelo://app?vid=fb528579-77ca-4667-9518-0034b4fa96d0","ios":"levelo://app?vid=fb528579-77ca-4667-9518-0034b4fa96d0"},"vehicle_type_id":"4","last_reported":1710555158,"current_range_meters":13600,"station_id":"ce4bha92rcd13ifvqeh0","pricing_plan_id":"cebpf4jnsgd1na2vs0mg"},{"bike_id":"8571aa2a-8f11-4566-bcab-0de6333ad9cc","system_id":"levelo_inurba_marseille","lat":43.291675,"lon":5.371583,"is_reserved":false,"is_disabled":false,"rental_uris":{"android":"levelo://app?vid=8571aa2a-8f11-4566-bcab-0de6333ad9cc","ios":"levelo://app?vid=8571aa2a-8f11-4566-bcab-0de6333ad9cc"},"vehicle_type_id":"4","last_reported":1710555158,"current_range_meters":20000,"station_id":"ce4bha92rcd13ifvqeh0","pricing_plan_id":"cebpf4jnsgd1na2vs0mg"},{"bike_id":"411acbae-f00c-4791-9e6b-69ef1bb91499","system_id":"levelo_inurba_marseille","lat":43.29164,"lon":5.3716,"is_reserved":false,"is_disabled":false,"rental_uris":{"android":"levelo://app?vid=411acbae-f00c-4791-9e6b-69ef1bb91499","ios":"levelo://app?vid=411acbae-f00c-4791-9e6b-69ef1bb91499"},"vehicle_type_id":"4","last_reported":1710555158,"current_range_meters":3200,"station_id":"ce4bha92rcd13ifvqeh0","pricing_plan_id":"cebpf4jnsgd1na2vs0mg"},{"bike_id":"d6935287-cc2f-4a57-b4ef-f08f02822758","system_id":"levelo_inurba_marseille","lat":43.291595,"lon":5.371523,"is_reserved":false,"is_disabled":false,"rental_uris":{"android":"levelo://app?vid=d6935287-cc2f-4a57-b4ef-f08f02822758","ios":"levelo://app?vid=d6935287-cc2f-4a57-b4ef-f08f02822758"},"vehicle_type_id":"4","last_reported":1710555158,"current_range_meters":30800,"station_id":"ce4bha92rcd13ifvqeh0","pricing_plan_id":"cebpf4jnsgd1na2vs0mg"},{"bike_id":"4c824500-4aef-4818-8fed-fb2decdf94a4","system_id":"levelo_inurba_marseille","lat":43.309038,"lon":5.396546,"is_reserved":false,"is_disabled":false,"rental_uris":{"android":"levelo://app?vid=4c824500-4aef-4818-8fed-fb2decdf94a4","ios":"levelo://app?vid=4c824500-4aef-4818-8fed-fb2decdf94a4"},"vehicle_type_id":"4","last_reported":1710555158,"current_range_meters":9200,"station_id":"ce4bh012rcd13ifvqcv0","pricing_plan_id":"cebpf4jnsgd1na2vs0mg"},{"bike_id":"2a0adf7d-709e-4082-9be0-938f7badf636","system_id":"levelo_inurba_marseille","lat":43.309047,"lon":5.396551,"is_reserved":false,"is_disabled":false,"rental_uris":{"android":"levelo://app?vid=2a0adf7d-709e-4082-9be0-938f7badf636","ios":"levelo://app?vid=2a0adf7d-709e-4082-9be0-938f7badf636"},"vehicle_type_id":"4","last_reported":1710555158,"current_range_meters":27600,"station_id":"ce4bh012rcd13ifvqcv0","pricing_plan_id":"cebpf4jnsgd1na2vs0mg"},{"bike_id":"cb72a8b5-237e-4d82-bed8-6297ffa42b54","system_id":"levelo_inurba_marseille","lat":43.309047,"lon":5.396551,"is_reserved":false,"is_disabled":false,"rental_uris":{"android":"levelo://app?vid=cb72a8b5-237e-4d82-bed8-6297ffa42b54","ios":"levelo://app?vid=cb72a8b5-237e-4d82-bed8-6297ffa42b54"},"vehicle_type_id":"4","last_reported":1710555158,"current_range_meters":1600,"station_id":"ce4bh012rcd13ifvqcv0","pricing_plan_id":"cebpf4jnsgd1na2vs0mg"},{"bike_id":"dc0b7ffd-3ac8-4ff2-86a4-ee7f79005c41","system_id":"levelo_inurba_marseille","lat":43.313283,"lon":5.396837,"is_reserved":false,"is_disabled":false,"rental_uris":{"android":"levelo://app?vid=dc0b7ffd-3ac8-4ff2-86a4-ee7f79005c41","ios":"levelo://app?vid=dc0b7ffd-3ac8-4ff2-86a4-ee7f79005c41"},"vehicle_type_id":"4","last_reported":1710555158,"current_range_meters":4400,"station_id":"ce4bgvp2rcd13ifvqcu0","pricing_plan_id":"cebpf4jnsgd1na2vs0mg"},{"bike_id":"a9c8b584-4f2c-4199-87d2-63313a757f18","system_id":"levelo_inurba_marseille","lat":43.31322,"lon":5.39685,"is_reserved":false,"is_disabled":false,"rental_uris":{"android":"levelo://app?vid=a9c8b584-4f2c-4199-87d2-63313a757f18","ios":"levelo://app?vid=a9c8b584-4f2c-4199-87d2-63313a757f18"},"vehicle_type_id":"4","last_reported":1710555158,"current_range_meters":8800,"station_id":"ce4bgvp2rcd13ifvqcu0","pricing_plan_id":"cebpf4jnsgd1na2vs0mg"},{"bike_id":"aefa0cfe-30b4-40e3-ab5d-a5c17bf189f8","system_id":"levelo_inurba_marseille","lat":43.313291,"lon":5.396838,"is_reserved":false,"is_disabled":false,"rental_uris":{"android":"levelo://app?vid=aefa0cfe-30b4-40e3-ab5d-a5c17bf189f8","ios":"levelo://app?vid=aefa0cfe-30b4-40e3-ab5d-a5c17bf189f8"},"vehicle_type_id":"4","last_reported":1710555158,"current_range_meters":22800,"station_id":"ce4bgvp2rcd13ifvqcu0","pricing_plan_id":"cebpf4jnsgd1na2vs0mg"},{"bike_id":"105e922c-5b84-4f7d-a6c3-d64b832c9251","system_id":"levelo_inurba_marseille","lat":43.309047,"lon":5.396551,"is_reserved":false,"is_disabled":false,"rental_uris":{"android":"levelo://app?vid=105e922c-5b84-4f7d-a6c3-d64b832c9251","ios":"levelo://app?vid=105e922c-5b84-4f7d-a6c3-d64b832c9251"},"vehicle_type_id":"4","last_reported":1710555158,"current_range_meters":28000,"station_id":"ce4bh012rcd13ifvqcv0","pricing_plan_id":"cebpf4jnsgd1na2vs0mg"},{"bike_id":"e44b8a71-81c2-4bdd-af98-37a0c65d0d14","system_id":"levelo_inurba_marseille","lat":43.291994,"lon":5.357886,"is_reserved":false,"is_disabled":false,"rental_uris":{"android":"levelo://app?vid=e44b8a71-81c2-4bdd-af98-37a0c65d0d14","ios":"levelo://app?vid=e44b8a71-81c2-4bdd-af98-37a0c65d0d14"},"vehicle_type_id":"4","last_reported":1710555158,"current_range_meters":7200,"station_id":"ce4bhb12rcd13ifvqel0","pricing_plan_id":"cebpf4jnsgd1na2vs0mg"},