{"last_updated":1768922400,"ttl":60,"version":"2.2","data":{"bikes":[{"bike_id":"437c422e-1029-4dc3-af00-79d1c0837616","system_id":"levelo_inurba_marseille","lat":43.30443,"lon":5.39751,"is_reserved":false,"is_disabled":false,"rental_uris":{"android":"levelo://app?vid=437c422e-1029-4dc3-af00-79d1c0837616","ios":"levelo://app?vid=437c422e-1029-4dc3-af00-79d1c0837616"},"vehicle_type_id":"4","last_reported":1768922401,"current_range_meters":2800,"station_id":"ce4bh092rcd13ifvqd20","pricing_plan_id":"cebpf4jnsgd1na2vs0mg"},{"bike_id":"c00f219f-db41-49f6-b2f7-df581160b5fa","system_id":"levelo_inurba_marseille","lat":43.29035,"lon":5.37566,"is_reserved":false,"is_disabled":false,"rental_uris":{"android":"levelo://app?vid=c00f219f-db41-49f6-b2f7-df581160b5fa","ios":"levelo://app?vid=c00f219f-db41-49f6-b2f7-df581160b5fa"},"vehicle_type_id":"4","last_reported":1768922401,"current_range_meters":2800,"station_id":"ce4bh692rcd13ifvqe90","pricing_plan_id":"cebpf4jnsgd1na2vs0mg"},{"bike_id":"425ae759-4c6d-4238-8b22-bd8b4c917247","system_id":"levelo_inurba_marseille","lat":43.31233,"lon":5.36853,"is_reserved":false,"is_disabled":false,"rental_uris":{"android":"levelo://app?vid=425ae759-4c6d-4238-8b22-bd8b4c917247","ios":"levelo://app?vid=425ae759-4c6d-4238-8b22-bd8b4c917247"},"vehicle_type_id":"4","last_reported":1768922401,"current_range_meters":2800,"station_id":"ce4bgl92rcd13ifvqbq0","pricing_plan_id":"cebpf4jnsgd1na2vs0mg"},{"bike_id":"4b5aa404-a223-4202-a9b4-4364010f0fb4","system_id":"levelo_inurba_marseille","lat":43.33758,"lon":5.37493,"is_reserved":false,"is_disabled":false,"rental_uris":{"android":"levelo://app?vid=4b5aa404-a223-4202-a9b4-4364010f0fb4","ios":"levelo://app?vid=4b5aa404-a223-4202-a9b4-4364010f0fb4"},"vehicle_type_id":"4","last_reported":1768922401,"current_range_meters":2800,"station_id":"","pricing_plan_id":"cebpf4jnsgd1na2vs0mg"},{"bike_id":"1af80c1a-b0d4-4c2c-abaf-c31326f7004a","system_id":"levelo_inurba_marseille","lat":43.28027,"lon":5.36946,"is_reserved":false,"is_disabled":false,"rental_uris":{"android":"levelo://app?vid=1af80c1a-b0d4-4c2c-abaf-c31326f7004a","ios":"levelo://app?vid=1af80c1a-b0d4-4c2c-abaf-c31326f7004a"},"vehicle_type_id":"4","last_reported":1768922401,"current_range_meters":2800,"station_id":"ce4bha12rcd13ifvqef0","pricing_plan_id":"cebpf4jnsgd1na2vs0mg"},{"bike_id":"0352f83e-42c9-4b95-aab1-5eb895fe3a3d","system_id":"levelo_inurba_marseille","lat":43.22568,"lon":5.4162,"is_reserved":false,"is_disabled":false,"rental_uris":{"android":"levelo://app?vid=0352f83e-42c9-4b95-aab1-5eb895fe3a3d","ios":"levelo://app?vid=0352f83e-42c9-4b95-aab1-5eb895fe3a3d"},"vehicle_type_id":"4","last_reported":1768922401,"current_range_meters":2800,"station_id":"st_d2o4gvlbi1j2169b742g","pricing_plan_id":"cebpf4jnsgd1na2vs0mg"},{"bike_id":"f4704682-aa96-4a0b-a789-56d1976bc4dd","system_id":"levelo_inurba_marseille","lat":43.24391,"lon":5.37051,"is_reserved":false,"is_disabled":false,"rental_uris":{"android":"levelo://app?vid=f4704682-aa96-4a0b-a789-56d1976bc4dd","ios":"levelo://app?vid=f4704682-aa96-4a0b-a789-56d1976bc4dd"},"vehicle_type_id":"4","last_reported":1768922401,"current_range_meters":2800,"station_id":"ce4bhhh2rcd13ifvqfk0","pricing_plan_id":"cebpf4jnsgd1na2vs0mg"},{"bike_id":"24c89c87-4e34-4758-98ab-4279f78b4108","system_id":"levelo_inurba_marseille","lat":43.25846,"lon":5.39407,"is_reserved":false,"is_disabled":false,"rental_uris":{"android":"levelo://app?vid=24c89c87-4e34-4758-98ab-4279f78b4108","ios":"levelo://app?vid=24c89c87-4e34-4758-98ab-4279f78b4108"},"vehicle_type_id":"4","last_reported":1768922401,"current_range_meters":2800,"station_id":"ce4bhip2rcd13ifvqft0","pricing_plan_id":"cebpf4jnsgd1na2vs0mg"},{"bike_id":"85a6b46c-a128-40d6-a9ce-2cd8dd72b543","system_id":"levelo_inurba_marseille","lat":43.272085,"lon":5.391768,"is_reserved":false,"is_disabled":false,"rental_uris":{"android":"levelo://app?vid=85a6b46c-a128-40d6-a9ce-2cd8dd72b543","ios":"levelo://app?vid=85a6b46c-a128-40d6-a9ce-2cd8dd72b543"},"vehicle_type_id":"4","last_reported":1768922401,"current_range_meters":2800,"station_id":"ce4bhhp2rcd13ifvqfm0","pricing_plan_id":"cebpf4jnsgd1na2vs0mg"},{"bike_id":"d94b0719-67c8-4a98-823a-17ee81ceae99","system_id":"levelo_inurba_marseille","lat":43.27993,"lon":5.39986,"is_reserved":false,"is_disabled":false,"rental_uris":{"android":"levelo://app?vid=d94b0719-67c8-4a98-823a-17ee81ceae99","ios":"levelo://app?vid=d94b0719-67c8-4a98-823a-17ee81ceae99"},"vehicle_type_id":"4","last_reported":1768922401,"current_range_meters":2800,"station_id":"ce4bho92rcd13ifvqh4g","pricing_plan_id":"cebpf4jnsgd1na2vs0mg"},{"bike_id":"83a27adc-f08b-4f3c-9386-51ca11678b54","system_id":"levelo_inurba_marseille","lat":43.33607,"lon":5.41027,"is_reserved":false,"is_disabled":true,"rental_uris":{"android":"levelo://app?vid=83a27adc-f08b-4f3c-9386-51ca11678b54","ios":"levelo://app?vid=83a27adc-f08b-4f3c-9386-51ca11678b54"},"vehicle_type_id":"4","last_reported":1768922401,"current_range_meters":2800,"station_id":"ce4bhqh2rcd13ifvqhmg","pricing_plan_id":"cebpf4jnsgd1na2vs0mg"},{"bike_id":"4e482957-f0dc-4002-9b34-5f058909a1a1","system_id":"levelo_inurba_marseille","lat":43.26945,"lon":5.38632,"is_reserved":false,"is_disabled":false,"rental_uris":{"android":"levelo://app?vid=4e482957-f0dc-4002-9b34-5f058909a1a1","ios":"levelo://app?vid=4e482957-f0dc-4002-9b34-5f058909a1a1"},"vehicle_type_id":"4","last_reported":1768922401,"current_range_meters":2800,"station_id":"ce4bhh92rcd13ifvqfh0","pricing_plan_id":"cebpf4jnsgd1na2vs0mg"},{"bike_id":"2b1c6622-8449-4f83-b902-f84c268c9e8b","system_id":"levelo_inurba_marseille","lat":43.29005,"lon":5.35602,"is_reserved":false,"is_disabled":false,"rental_uris":{"android":"levelo://app?vid=2b1c6622-8449-4f83-b902-f84c268c9e8b","ios":"levelo://app?vid=2b1c6622-8449-4f83-b902-f84c268c9e8b"},"vehicle_type_id":"4","last_reported":1768922401,"current_range_meters":3200,"station_id":"ce4bhb92rcd13ifvqen0","pricing_plan_id":"cebpf4jnsgd1na2vs0mg"},{"bike_id":"01a9dfdc-fec3-4957-aa4e-69893e0976c5","system_id":"levelo_inurba_marseille","lat":43.30571,"lon":5.36719,"is_reserved":false,"is_disabled":false,"rental_uris":{"android":"levelo://app?vid=01a9dfdc-fec3-4957-aa4e-69893e0976c5","ios":"levelo://app?vid=01a9dfdc-fec3-4957-aa4e-69893e0976c5"},"vehicle_type_id":"4","last_reported":1768922401,"current_range_meters":3200,"station_id":"ce4bgrp2rcd13ifvqc9g","pricing_plan_id":"cebpf4jnsgd1na2vs0mg"},{"bike_id":"d58d1d7f-ae37-418b-87fb-0776ea7034b8","system_id":"levelo_inurba_marseille","lat":43.23196,"lon":5.39975,"is_reserved":false,"is_disabled":false,"rental_uris":{"android":"levelo://app?vid=d58d1d7f-ae37-418b-87fb-0776ea7034b8","ios":"levelo://app?vid=d58d1d7f-ae37-418b-87fb-0776ea7034b8"},"vehicle_type_id":"4","last_reported":1768922401,"current_range_meters":3200,"station_id":"ce4bhn12rcd13ifvqgqg","pricing_plan_id":"cebpf4jnsgd1na2vs0mg"},{"bike_id":"5ad760e8-a1d6-434c-92af-05387a384ed9","system_id":"levelo_inurba_marseille","lat":43.24948,"lon":5.40489,"is_reserved":false,"is_disabled":false,"rental_uris":{"android":"levelo://app?vid=5ad760e8-a1d6-434c-92af-05387a384ed9","ios":"levelo://app?vid=5ad760e8-a1d6-434c-92af-05387a384ed9"},"vehicle_type_id":"4","last_reported":1768922401,"current_range_meters":3200,"station_id":"st_d2ngiaodas8pm72gd1h0","pricing_plan_id":"cebpf4jnsgd1na2vs0mg"},{"bike_id":"6f7f755c-c203-431d-bef1-e0582d5f140d","system_id":"levelo_inurba_marseille","lat":43.24634,"lon":5.43135,"is_reserved":false,"is_disabled":false,"rental_uris":{"android":"levelo://app?vid=6f7f755c-c203-431d-bef1-e0582d5f140d","ios":"levelo://app?vid=6f7f755c-c203-431d-bef1-e0582d5f140d"},"vehicle_type_id":"4","last_reported":1768922401,"current_range_meters":3200,"station_id":"st_d2m6c4gdas8pm72e190g","pricing_plan_id":"cebpf4jnsgd1na2vs0mg"},{"bike_id":"e5afdae1-8536-48ae-affe-93a7f04d1b80","system_id":"levelo_inurba_marseille","lat":43.28362,"lon":5.39427,"is_reserved":false,"is_disabled":false,"rental_uris":{"android":"levelo://app?vid=e5afdae1-8536-48ae-affe-93a7f04d1b80","ios":"levelo://app?vid=e5afdae1-8536-48ae-affe-93a7f04d1b80"},"vehicle_type_id":"4","last_reported":1768922401,"current_range_meters":3200,"station_id":"","pricing_plan_id":"cebpf4jnsgd1na2vs0mg"},{"bike_id":"6ff95acc-2984-4def-8ef1-d69f5109eab1","system_id":"levelo_inurba_marseille","lat":43.244627,"lon":5.425367,"is_reserved":false,"is_disabled":false,"rental_uris":{"android":"levelo://app?vid=6ff95acc-2984-4def-8ef1-d69f5109eab1","ios":"levelo://app?vid=6ff95acc-2984-4def-8ef1-d69f5109eab1"},"vehicle_type_id":"4","last_reported":1768922401,"current_range_meters":3200,"station_id":"st_d4a3vfp97mjs738cd8kg","pricing_plan_id":"cebpf4jnsgd1na2vs0mg"},{"bike_id":"e06565ab-e9a6-4dd0-8b84-1fcb423d61af","system_id":"levelo_inurba_marseille","lat":43.26062,"lon":5.39389,"is_reserved":false,"is_disabled":false,"rental_uris":{"android":"levelo://app?vid=e06565ab-e9a6-4dd0-8b84-1fcb423d61af","ios":"levelo://app?vid=e06565ab-e9a6-4dd0-8b84-1fcb423d61af"},"vehicle_type_id":"4","last_reported":1768922401,"current_range_meters":3200,"station_id":"ce4bhh92rcd13ifvqfj0","pricing_plan_id":"cebpf4jnsgd1na2vs0mg"},{"bike_id":"526b8503-7faf-448a-b0f6-00cc94ab5971","system_id":"levelo_inurba_marseille","lat":43.24468,"lon":5.42546,"is_reserved":false,"is_disabled":false,"rental_uris":{"android":"levelo://app?vid=526b8503-7faf-448a-b0f6-00cc94ab5971","ios":"levelo://app?vid=526b8503-7faf-448a-b0f6-00cc94ab5971"},"vehicle_type_id":"4","last_reported":1768922401,"current_range_meters":3600,"station_id":"st_d4a3vfp97mjs738cd8kg","pricing_plan_id":"cebpf4jnsgd1na2vs0mg"},{"bike_id":"65fa859c-fd52-4fc1-bf24-0348f651f61b","system_id":"levelo_inurba_marseille","lat":43.27993,"lon":5.40015,"is_reserved":false,"is_disabled":false,"rental_uris":{"android":"levelo://app?vid=65fa859c-fd52-4fc1-bf24-0348f651f61b","ios":"levelo://app?vid=65fa859c-fd52-4fc1-bf24-0348f651f61b"},"vehicle_type_id":"4","last_reported":1768922401,"current_range_meters":3600,"station_id":"ce4bho92rcd13ifvqh4g","pricing_plan_id":"cebpf4jnsgd1na2vs0mg"},{"bike_id":"4f2dd164-7013-43b2-a24e-bc13e5296f6a","system_id":"levelo_inurba_marseille","lat":43.241732,"lon":5.397258,"is_reserved":false,"is_disabled":false,"rental_uris":{"android":"levelo://app?vid=4f2dd164-7013-43b2-a24e-bc13e5296f6a","ios":"levelo://app?vid=4f2dd164-7013-43b2-a24e-bc13e5296f6a"},"vehicle_type_id":"4","last_reported":1768922401,"current_range_meters":3600,"station_id":"ce4bhn12rcd13ifvqgpg","pricing_plan_id":"cebpf4jnsgd1na2vs0mg"},{"bike_id":"b129582d-2c63-48d7-8138-529469f94ac5","system_id":"levelo_inurba_marseille","lat":43.261443,"lon":5.403487,"is_reserved":false,"is_disabled":false,"rental_uris":{"android":"levelo://app?vid=b129582d-2c63-48d7-8138-529469f94ac5","ios":"levelo://app?vid=b129582d-2c63-48d7-8138-529469f94ac5"},"vehicle_type_id":"4","last_reported":1768922401,"current_range_meters":3600,"station_id":"","pricing_plan_id":"cebpf4jnsgd1na2vs0mg"},{"bike_id":"1d60ae28-e913-4062-9c11-0e0818ac2d03","system_id":"levelo_inurba_marseille","lat":43.27939,"lon":5.41047,"is_reserved":false,"is_disabled":false,"rental_uris":{"android":"levelo://app?vid=1d60ae28-e913-4062-9c11-0e0818ac2d03","ios":"levelo://app?vid=1d60ae28-e913-4062-9c11-0e0818ac2d03"},"vehicle_type_id":"4","last_reported":1768922401,"current_range_meters":3600,"station_id":"ce4bhnp2rcd13ifvqh0g","pricing_plan_id":"cebpf4jnsgd1na2vs0mg"},{"bike_id":"ae8bf250-6ed5-431f-b1af-178c3f2df1ef","system_id":"levelo_inurba_marseille","lat":43.26695,"lon":5.38257,"is_reserved":false,"is_disabled":false,"rental_uris":{"android":"levelo://app?vid=ae8bf250-6ed5-431f-b1af-178c3f2df1ef","ios":"levelo://app?vid=ae8bf250-6ed5-431f-b1af-178c3f2df1ef"},"vehicle_type_id":"4","last_reported":1768922401,"current_range_meters":4000,"station_id":"ce4bhg92rcd13ifvqf90","pricing_plan_id":"cebpf4jnsgd1na2vs0mg"},{"bike_id":"2a7e72c7-7fdf-46b5-8e98-fbe8666dc7c0","system_id":"levelo_inurba_marseille","lat":43.248,"lon":5.37477,"is_reserved":false,"is_disabled":false,"rental_uris":{"android":"levelo://app?vid=2a7e72c7-7fdf-46b5-8e98-fbe8666dc7c0","ios":"levelo://app?vid=2a7e72c7-7fdf-46b5-8e98-fbe8666dc7c0"},"vehicle_type_id":"4","last_reported":1768922401,"current_range_meters":4000,"station_id":"ce4bhgh2rcd13ifvqfb0","pricing_plan_id":"cebpf4jnsgd1na2vs0mg"},{"bike_id":"06bc447b-16e0-4732-afcc-36d4f751f25b","system_id":"levelo_inurba_marseille","lat":43.23162,"lon":5.43703,"is_reserved":false,"is_disabled":false,"rental_uris":{"android":"levelo://app?vid=06bc447b-16e0-4732-afcc-36d4f751f25b","ios":"levelo://app?vid=06bc447b-16e0-4732-afcc-36d4f751f25b"},"vehicle_type_id":"4","last_reported":1768922401,"current_range_meters":4000,"station_id":"ce4bhmp2rcd13ifvqgog","pricing_plan_id":"cebpf4jnsgd1na2vs0mg"},{"bike_id":"dc8c1109-459c-4368-859d-186168c2462d","system_id":"levelo_inurba_marseille","lat":43.24171,"lon":5.36421,"is_reserved":false,"is_disabled":false,"rental_uris":{"android":"levelo://app?vid=dc8c1109-459c-4368-859d-186168c2462d","ios":"levelo://app?vid=dc8c1109-459c-4368-859d-186168c2462d"},"vehicle_type_id":"4","last_reported":1768922401,"current_range_meters":4000,"station_id":"cpo36qri1sfpv3e86is0","pricing_plan_id":"cebpf4jnsgd1na2vs0mg"},{"bike_id":"0cd9094e-138f-48a6-9034-6b1709b867c8","system_id":"levelo_inurba_marseille","lat":43.28037,"lon":5.36945,"is_reserved":false,"is_disabled":false,"rental_uris":{"android":"levelo://app?vid=0cd9094e-138f-48a6-9034-6b1709b867c8","ios":"levelo://app?vid=0cd9094e-138f-48a6-9034-6b1709b867c8"},"vehicle_type_id":"4","last_reported":1768922401,"current_range_meters":4000,"station_id":"ce4bha12rcd13ifvqef0","pricing_plan_id":"cebpf4jnsgd1na2vs0mg"},{"bike_id":"e30883dd-96d3-4b00-8b5d-c5c36c37f796","system_id":"levelo_inurba_marseille","lat":43.255702,"lon":5.382393,"is_reserved":false,"is_disabled":false,"rental_uris":{"android":"levelo://app?vid=e30883dd-96d3-4b00-8b5d-c5c36c37f796","ios":"levelo://app?vid=e30883dd-96d3-4b00-8b5d-c5c36c37f796"},"vehicle_type_id":"4","last_reported":1768922401,"current_range_meters":4000,"station_id":"ce4bhih2rcd13ifvqfs0","pricing_plan_id":"cebpf4jnsgd1na2vs0mg"},{"bike_id":"26fa87a8-64e8-4574-88ad-3ef617745c36","system_id":"levelo_inurba_marseille","lat":43.2782,"lon":5.4069,"is_reserved":false,"is_disabled":false,"rental_uris":{"android":"levelo://app?vid=26fa87a8-64e8-4574-88ad-3ef617745c36","ios":"levelo://app?vid=26fa87a8-64e8-4574-88ad-3ef617745c36"},"vehicle_type_id":"4","last_reported":1768922401,"current_range_meters":4000,"station_id":"ce4bhnh2rcd13ifvqgtg","pricing_plan_id":"cebpf4jnsgd1na2vs0mg"},{"bike_id":"3299dc67-7236-4443-ae9d-83bdb1d9d6d3","system_id":"levelo_inurba_marseille","lat":43.26498,"lon":5.39557,"is_reserved":false,"is_disabled":false,"rental_uris":{"android":"levelo://app?vid=3299dc67-7236-4443-ae9d-83bdb1d9d6d3","ios":"levelo://app?vid=3299dc67-7236-4443-ae9d-83bdb1d9d6d3"},"vehicle_type_id":"4","last_reported":1768922401,"current_range_meters":4000,"station_id":"ce4bhi12rcd13ifvqfq0","pricing_plan_id":"cebpf4jnsgd1na2vs0mg"},{"bike_id":"f949b1a8-0099-4897-af1c-b4c1c497f28f","system_id":"levelo_inurba_marseille","lat":43.25809,"lon":5.39435,"is_reserved":false,"is_disabled":false,"rental_uris":{"android":"levelo://app?vid=f949b1a8-0099-4897-af1c-b4c1c497f28f","ios":"levelo://app?vid=f949b1a8-0099-4897-af1c-b4c1c497f28f"},"vehicle_type_id":"4","last_reported":1768922401,"current_range_meters":4000,"station_id":"ce4bhip2rcd13ifvqft0","pricing_plan_id":"cebpf4jnsgd1na2vs0mg"},{"bike_id":"3a53e1c6-5c5b-4e8e-9b99-8d056c960bd7","system_id":"levelo_inurba_marseille","lat":43.28438,"lon":5.39184,"is_reserved":false,"is_disabled":false,"rental_uris":{"android":"levelo://app?vid=3a53e1c6-5c5b-4e8e-9b99-8d056c960bd7","ios":"levelo://app?vid=3a53e1c6-5c5b-4e8e-9b99-8d056c960bd7"},"vehicle_type_id":"4","last_reported":1768922401,"current_range_meters":4000,"station_id":"ce4bhoh2rcd13ifvqh5g","pricing_plan_id":"cebpf4jnsgd1na2vs0mg"},{"bike_id":"d0a70439-b068-41ba-bc8d-4fbe10ec4141","system_id":"levelo_inurba_marseille","lat":43.281313,"lon":5.426434,"is_reserved":false,"is_disabled":false,"rental_uris":{"android":"levelo://app?vid=d0a70439-b068-41ba-bc8d-4fbe10ec4141","ios":"levelo://app?vid=d0a70439-b068-41ba-bc8d-4fbe10ec4141"},"vehicle_type_id":"4","last_reported":1768922401,"current_range_meters":4000,"station_id":"ce4bhnh2rcd13ifvqgug","pricing_plan_id":"cebpf4jnsgd1na2vs0mg"},{"bike_id":"71f428f0-7078-4b8c-ac98-cf141cac017d","system_id":"levelo_inurba_marseille","lat":43.24992,"lon":5.38942,"is_reserved":false,"is_disabled":false,"rental_uris":{"android":"levelo://app?vid=71f428f0-7078-4b8c-ac98-cf141cac017d","ios":"levelo://app?vid=71f428f0-7078-4b8c-ac98-cf141cac017d"},"vehicle_type_id":"4","last_reported":1768922401,"current_range_meters":4000,"station_id":"ce4bhgp2rcd13ifvqfd0","pricing_plan_id":"cebpf4jnsgd1na2vs0mg"},{"bike_id":"bc94c79c-824d-4aa8-adb8-c4312bf8f8b0","system_id":"levelo_inurba_marseille","lat":43.28659,"lon":5.36348,"is_reserved":false,"is_disabled":false,"rental_uris":{"android":"levelo://app?vid=bc94c79c-824d-4aa8-adb8-c4312bf8f8b0","ios":"levelo://app?vid=bc94c79c-824d-4aa8-adb8-c4312bf8f8b0"},"vehicle_type_id":"4","last_reported":1768922401,"current_range_meters":4000,"station_id":"ce4bhah2rcd13ifvqej0","pricing_plan_id":"cebpf4jnsgd1na2vs0mg"},{"bike_id":"9cde565e-751f-4d1c-94ae-7977c2021c32","system_id":"levelo_inurba_marseille","lat":43.32485,"lon":5.3657,"is_reserved":false,"is_disabled":false,"rental_uris":{"android":"levelo://app?vid=9cde565e-751f-4d1c-94ae-7977c2021c32","ios":"levelo://app?vid=9cde565e-751f-4d1c-94ae-7977c2021c32"},"vehicle_type_id":"4","last_reported":1768922401,"current_range_meters":4000,"station_id":"ce4bhs12rcd13ifvqhvg","pricing_plan_id":"cebpf4jnsgd1na2vs0mg"},{"bike_id":"6536c873-54a8-4c9e-a567-0138702fa1e4","system_id":"levelo_inurba_marseille","lat":43.29018,"lon":5.38642,"is_reserved":false,"is_disabled":false,"rental_uris":{"android":"levelo://app?vid=6536c873-54a8-4c9e-a567-0138702fa1e4","ios":"levelo://app?vid=6536c873-54a8-4c9e-a567-0138702fa1e4"},"vehicle_type_id":"4","last_reported":1768922401,"current_range_meters":4400,"station_id":"ce4bh4p2rcd13ifvqe0g","pricing_plan_id":"cebpf4jnsgd1na2vs0mg"},{"bike_id":"abae9e18-ea31-4fba-ac11-58e57502a543","system_id":"levelo_inurba_marseille","lat":43.2916,"lon":5.37162,"is_reserved":false,"is_disabled":false,"rental_uris":{"android":"levelo://app?vid=abae9e18-ea31-4fba-ac11-58e57502a543","ios":"levelo://app?vid=abae9e18-ea31-4fba-ac11-58e57502a543"},"vehicle_type_id":"4","last_reported":1768922401,"current_range_meters":4400,"station_id":"ce4bha92rcd13ifvqeh0","pricing_plan_id":"cebpf4jnsgd1na2vs0mg"},{"bike_id":"b51cce8e-e9b5-4b97-978d-1099a003ae3f","system_id":"levelo_inurba_marseille","lat":43.29168,"lon":5.37159,"is_reserved":false,"is_disabled":false,"rental_uris":{"android":"levelo://app?vid=b51cce8e-e9b5-4b97-978d-1099a003ae3f","ios":"levelo://app?vid=b51cce8e-e9b5-4b97-978d-1099a003ae3f"},"vehicle_type_id":"4","last_reported":1768922401,"current_range_meters":4400,"station_id":"ce4bha92rcd13ifvqeh0","pricing_plan_id":"cebpf4jnsgd1na2vs0mg"},{"bike_id":"21f50b97-f757-4b22-b09f-63c12ac2a456","system_id":"levelo_inurba_marseille","lat":43.29199,"lon":5.3581,"is_reserved":false,"is_disabled":false,"rental_uris":{"android":"levelo://app?vid=21f50b97-f757-4b22-b09f-63c12ac2a456","ios":"levelo://app?vid=21f50b97-f757-4b22-b09f-63c12ac2a456"},"vehicle_type_id":"4","last_reported":1768922401,"current_range_meters":4400,"station_id":"ce4bhb12rcd13ifvqel0","pricing_plan_id":"cebpf4jnsgd1na2vs0mg"},{"bike_id":"8b3b35ee-4654-42a4-974d-1c2e5ab7ef51","system_id":"levelo_inurba_marseille","lat":43.30312,"lon":5.39214,"is_reserved":false,"is_disabled":false,"rental_uris":{"android":"levelo://app?vid=8b3b35ee-4654-42a4-974d-1c2e5ab7ef51","ios":"levelo://app?vid=8b3b35ee-4654-42a4-974d-1c2e5ab7ef51"},"vehicle_type_id":"4","last_reported":1768922401,"current_range_meters":4400,"station_id":"ce4bgkh2rcd13ifvqbk0","pricing_plan_id":"cebpf4jnsgd1na2vs0mg"},{"bike_id":"149cf39d-ec5e-4ddc-991d-299094aba0e5","system_id":"levelo_inurba_marseille","lat":43.27207,"lon":5.3917,"is_reserved":false,"is_disabled":false,"rental_uris":{"android":"levelo://app?vid=149cf39d-ec5e-4ddc-991d-299094aba0e5","ios":"levelo://app?vid=149cf39d-ec5e-4ddc-991d-299094aba0e5"},"vehicle_type_id":"4","last_reported":1768922401,"current_range_meters":4400,"station_id":"ce4bhhp2rcd13ifvqfm0","pricing_plan_id":"cebpf4jnsgd1na2vs0mg"},{"bike_id":"1d96bc89-a55a-4036-8519-21c71a49b3da","system_id":"levelo_inurba_marseille","lat":43.31153,"lon":5.37984,"is_reserved":false,"is_disabled":false,"rental_uris":{"android":"levelo://app?vid=1d96bc89-a55a-4036-8519-21c71a49b3da","ios":"levelo://app?vid=1d96bc89-a55a-4036-8519-21c71a49b3da"},"vehicle_type_id":"4","last_reported":1768922401,"current_range_meters":4400,"station_id":"","pricing_plan_id":"cebpf4jnsgd1na2vs0mg"},{"bike_id":"d98680e2-8519-4eb7-88a9-6aba4c293400","system_id":"levelo_inurba_marseille","lat":43.27997,"lon":5.39994,"is_reserved":false,"is_disabled":false,"rental_uris":{"android":"levelo://app?vid=d98680e2-8519-4eb7-88a9-6aba4c293400","ios":"levelo://app?vid=d98680e2-8519-4eb7-88a9-6aba4c293400"},"vehicle_type_id":"4","last_reported":1768922401,"current_range_meters":4800,"station_id":"ce4bho92rcd13ifvqh4g","pricing_plan_id":"cebpf4jnsgd1na2vs0mg"},{"bike_id":"36dc61e8-b517-4c14-bf5c-bafbe79cf9e7","system_id":"levelo_inurba_marseille","lat":43.28267,"lon":5.3506,"is_reserved":false,"is_disabled":false,"rental_uris":{"android":"levelo://app?vid=36dc61e8-b517-4c14-bf5c-bafbe79cf9e7","ios":"levelo://app?vid=36dc61e8-b517-4c14-bf5c-bafbe79cf9e7"},"vehicle_type_id":"4","last_reported":1768922401,"current_range_meters":4800,"station_id":"ce4bhbp2rcd13ifvqerg","pricing_plan_id":"cebpf4jnsgd1na2vs0mg"},{"bike_id":"1b870259-ea93-468a-9828-0d232475abf0","system_id":"levelo_inurba_marseille","lat":43.25499,"lon":5.37649,"is_reserved":false,"is_disabled":false,"rental_uris":{"android":"levelo://app?vid=1b870259-ea93-468a-9828-0d232475abf0","ios":"levelo://app?vid=1b870259-ea93-468a-9828-0d232475abf0"},"vehicle_type_id":"4","last_reported":1768922401,"current_range_meters":4800,"station_id":"ce4bhh12rcd13ifvqff0","pricing_plan_id":"cebpf4jnsgd1na2vs0mg"},{"bike_id":"fc17e8b9-2adb-4e96-bbab-76941e2577c9","system_id":"levelo_inurba_marseille","lat":43.25735,"lon":5.38968,"is_reserved":false,"is_disabled":false,"rental_uris":{"android":"levelo://app?vid=fc17e8b9-2adb-4e96-bbab-76941e2577c9","ios":"levelo://app?vid=fc17e8b9-2adb-4e96-bbab-76941e2577c9"},"vehicle_type_id":"4","last_reported":1768922401,"current_range_meters":4800,"station_id":"","pricing_plan_id":"cebpf4jnsgd1na2vs0mg"},{"bike_id":"172e30bf-0a58-4bdb-b6b1-cef562f3508e","system_id":"levelo_inurba_marseille","lat":43.28992,"lon":5.38116,"is_reserved":false,"is_disabled":false,"rental_uris":{"android":"levelo://app?vid=172e30bf-0a58-4bdb-b6b1-cef562f3508e","ios":"levelo://app?vid=172e30bf-0a58-4bdb-b6b1-cef562f3508e"},"vehicle_type_id":"4","last_reported":1768922401,"current_range_meters":4800,"station_id":"ce4bh4p2rcd13ifvqe1g","pricing_plan_id":"cebpf4jnsgd1na2vs0mg"},{"bike_id":"42b5ad2d-acd8-454f-95e3-acdb00543462","system_id":"levelo_inurba_marseille","lat":43.26063,"lon":5.39383,"is_reserved":false,"is_disabled":false,"rental_uris":{"android":"levelo://app?vid=42b5ad2d-acd8-454f-95e3-acdb00543462","ios":"levelo://app?vid=42b5ad2d-acd8-454f-95e3-acdb00543462"},"vehicle_type_id":"4","last_reported":1768922401,"current_range_meters":4800,"station_id":"ce4bhh92rcd13ifvqfj0","pricing_plan_id":"cebpf4jnsgd1na2vs0mg"},{"bike_id":"6dd047f2-a91a-4e21-aaba-02725dff3f64","system_id":"levelo_inurba_marseille","lat":43.2257,"lon":5.41642,"is_reserved":false,"is_disabled":false,"rental_uris":{"android":"levelo://app?vid=6dd047f2-a91a-4e21-aaba-02725dff3f64","ios":"levelo://app?vid=6dd047f2-a91a-4e21-aaba-02725dff3f64"},"vehicle_type_id":"4","last_reported":1768922401,"current_range_meters":4800,"station_id":"st_d2o4gvlbi1j2169b742g","pricing_plan_id":"cebpf4jnsgd1na2vs0mg"},{"bike_id":"d1656b93-1b71-4e85-bf98-22a1e92bb468","system_id":"levelo_inurba_marseille","lat":43.28872,"lon":5.42495,"is_reserved":false,"is_disabled":false,"rental_uris":{"android":"levelo://app?vid=d1656b93-1b71-4e85-bf98-22a1e92bb468","ios":"levelo://app?vid=d1656b93-1b71-4e85-bf98-22a1e92bb468"},"vehicle_type_id":"4","last_reported":1768922401,"current_range_meters":4800,"station_id":"st_d3b462108ojc7389ooeg","pricing_plan_id":"cebpf4jnsgd1na2vs0mg"},{"bike_id":"be62e594-ab11-4940-821f-47ec2a30c34b","system_id":"levelo_inurba_marseille","lat":43.324881,"lon":5.365561,"is_reserved":false,"is_disabled":false,"rental_uris":{"android":"levelo://app?vid=be62e594-ab11-4940-821f-47ec2a30c34b","ios":"levelo://app?vid=be62e594-ab11-4940-821f-47ec2a30c34b"},"vehicle_type_id":"4","last_reported":1768922401,"current_range_meters":4800,"station_id":"ce4bhs12rcd13ifvqhvg","pricing_plan_id":"cebpf4jnsgd1na2vs0mg"},{"bike_id":"5029ffd5-3583-4cd3-9fca-797c9a6390d2","system_id":"levelo_inurba_marseille","lat":43.28269,"lon":5.35059,"is_reserved":false,"is_disabled":false,"rental_uris":{"android":"levelo://app?vid=5029ffd5-3583-4cd3-9fca-797c9a6390d2","ios":"levelo://app?vid=5029ffd5-3583-4cd3-9fca-797c9a6390d2"},"vehicle_type_id":"4","last_reported":1768922401,"current_range_meters":4800,"station_id":"ce4bhbp2rcd13ifvqerg","pricing_plan_id":"cebpf4jnsgd1na2vs0mg"},{"bike_id":"a8d2063b-b136-4ccb-ad44-f4ea411c2cb1","system_id":"levelo_inurba_marseille","lat":43.24642,"lon":5.4315,"is_reserved":false,"is_disabled":false,"rental_uris":{"android":"levelo://app?vid=a8d2063b-b136-4ccb-ad44-f4ea411c2cb1","ios":"levelo://app?vid=a8d2063b-b136-4ccb-ad44-f4ea411c2cb1"},"vehicle_type_id":"4","last_reported":1768922401,"current_range_meters":5600,"station_id":"st_d2m6c4gdas8pm72e190g","pricing_plan_id":"cebpf4jnsgd1na2vs0mg"},{"bike_id":"b4d4d78b-c7ae-46d1-84aa-0c58c638c8ea","system_id":"levelo_inurba_marseille","lat":43.27991,"lon":5.41665,"is_reserved":false,"is_disabled":false,"rental_uris":{"android":"levelo://app?vid=b4d4d78b-c7ae-46d1-84aa-0c58c638c8ea","ios":"levelo://app?vid=b4d4d78b-c7ae-46d1-84aa-0c58c638c8ea"},"vehicle_type_id":"4","last_reported":1768922401,"current_range_meters":5600,"station_id":"ce4bho12rcd13ifvqh1g","pricing_plan_id":"cebpf4jnsgd1na2vs0mg"},{"bike_id":"6e7007a4-50a4-410a-b7bd-d0ebb7830797","system_id":"levelo_inurba_marseille","lat":43.24171,"lon":5.3971,"is_reserved":false,"is_disabled":false,"rental_uris":{"android":"levelo://app?vid=6e7007a4-50a4-410a-b7bd-d0ebb7830797","ios":"levelo://app?vid=6e7007a4-50a4-410a-b7bd-d0ebb7830797"},"vehicle_type_id":"4","last_reported":1768922401,"current_range_meters":5600,"station_id":"ce4bhn12rcd13ifvqgpg","pricing_plan_id":"cebpf4jnsgd1na2vs0mg"},{"bike_id":"013bd396-d92f-43a2-b1ee-317297e0b67c","system_id":"levelo_inurba_marseille","lat":43.29002,"lon":5.35612,"is_reserved":false,"is_disabled":false,"rental_uris":{"android":"levelo://app?vid=013bd396-d92f-43a2-b1ee-317297e0b67c","ios":"levelo://app?vid=013bd396-d92f-43a2-b1ee-317297e0b67c"},"vehicle_type_id":"4","last_reported":1768922401,"current_range_meters":5600,"station_id":"ce4bhb92rcd13ifvqen0","pricing_plan_id":"cebpf4jnsgd1na2vs0mg"},{"bike_id":"f650aff8-e742-48ca-8e77-f4fd3b3eebb9","system_id":"levelo_inurba_marseille","lat":43.26866,"lon":5.3958,"is_reserved":false,"is_disabled":false,"rental_uris":{"android":"levelo://app?vid=f650aff8-e742-48ca-8e77-f4fd3b3eebb9","ios":"levelo://app?vid=f650aff8-e742-48ca-8e77-f4fd3b3eebb9"},"vehicle_type_id":"4","last_reported":1768922401,"current_range_meters":5600,"station_id":"","pricing_plan_id":"cebpf4jnsgd1na2vs0mg"},{"bike_id":"97096676-429c-4f07-9652-1523f48f5442","system_id":"levelo_inurba_marseille","lat":43.30266,"lon":5.43429,"is_reserved":false,"is_disabled":false,"rental_uris":{"android":"levelo://app?vid=97096676-429c-4f07-9652-1523f48f5442","ios":"levelo://app?vid=97096676-429c-4f07-9652-1523f48f5442"},"vehicle_type_id":"4","last_reported":1768922401,"current_range_meters":5600,"station_id":"","pricing_plan_id":"cebpf4jnsgd1na2vs0mg"},{"bike_id":"aaff8d94-1fa8-4cba-bdbc-2775e2b840f4","system_id":"levelo_inurba_marseille","lat":43.30934,"lon":5.38031,"is_reserved":false,"is_disabled":false,"rental_uris":{"android":"levelo://app?vid=aaff8d94-1fa8-4cba-bdbc-2775e2b840f4","ios":"levelo://app?vid=aaff8d94-1fa8-4cba-bdbc-2775e2b840f4"},"vehicle_type_id":"4","last_reported":1768922401,"current_range_meters":5600,"station_id":"","pricing_plan_id":"cebpf4jnsgd1na2vs0mg"},{"bike_id":"37bdb184-236c-422b-a01e-e1e9fb01ddf0","system_id":"levelo_inurba_marseille","lat":43.30555,"lon":5.367,"is_reserved":false,"is_disabled":false,"rental_uris":{"android":"levelo://app?vid=37bdb184-236c-422b-a01e-e1e9fb01ddf0","ios":"levelo://app?vid=37bdb184-236c-422b-a01e-e1e9fb01ddf0"},"vehicle_type_id":"4","last_reported":1768922401,"current_range_meters":5600,"station_id":"ce4bgrp2rcd13ifvqc9g","pricing_plan_id":"cebpf4jnsgd1na2vs0mg"},{"bike_id":"b04d5093-283e-48c4-a43f-b6700cdb751f","system_id":"levelo_inurba_marseille","lat":43.26569,"lon":5.40318,"is_reserved":false,"is_disabled":false,"rental_uris":{"android":"levelo://app?vid=b04d5093-283e-48c4-a43f-b6700cdb751f","ios":"levelo://app?vid=b04d5093-283e-48c4-a43f-b6700cdb751f"},"vehicle_type_id":"4","last_reported":1768922401,"current_range_meters":5600,"station_id":"ce4bhmp2rcd13ifvqgng","pricing_plan_id":"cebpf4jnsgd1na2vs0mg"},{"bike_id":"9a6fa9d6-bd85-41a0-a1be-8f3bc0337c0a","system_id":"levelo_inurba_marseille","lat":43.24465,"lon":5.42536,"is_reserved":false,"is_disabled":false,"rental_uris":{"android":"levelo://app?vid=9a6fa9d6-bd85-41a0-a1be-8f3bc0337c0a","ios":"levelo://app?vid=9a6fa9d6-bd85-41a0-a1be-8f3bc0337c0a"},"vehicle_type_id":"4","last_reported":1768922401,"current_range_meters":6000,"station_id":"st_d4a3vfp97mjs738cd8kg","pricing_plan_id":"cebpf4jnsgd1na2vs0mg"},{"bike_id":"757ad566-5603-4e77-bb33-82c80d01b8cd","system_id":"levelo_inurba_marseille","lat":43.27323,"lon":5.39083,"is_reserved":false,"is_disabled":false,"rental_uris":{"android":"levelo://app?vid=757ad566-5603-4e77-bb33-82c80d01b8cd","ios":"levelo://app?vid=757ad566-5603-4e77-bb33-82c80d01b8cd"},"vehicle_type_id":"4","last_reported":1768922401,"current_range_meters":6000,"station_id":"ce4bhgp2rcd13ifvqfe0","pricing_plan_id":"cebpf4jnsgd1na2vs0mg"},{"bike_id":"13c3c180-4420-439e-b9f8-58e7b33ffdd2","system_id":"levelo_inurba_marseille","lat":43.30885,"lon":5.39647,"is_reserved":false,"is_disabled":false,"rental_uris":{"android":"levelo://app?vid=13c3c180-4420-439e-b9f8-58e7b33ffdd2","ios":"levelo://app?vid=13c3c180-4420-439e-b9f8-58e7b33ffdd2"},"vehicle_type_id":"4","last_reported":1768922401,"current_range_meters":6000,"station_id":"ce4bh012rcd13ifvqcv0","pricing_plan_id":"cebpf4jnsgd1na2vs0mg"},{"bike_id":"904d8f98-ad5c-45d0-b76b-38f569b867cf","system_id":"levelo_inurba_marseille","lat":43.2953,"lon":5.37485,"is_reserved":false,"is_disabled":false,"rental_uris":{"android":"levelo://app?vid=904d8f98-ad5c-45d0-b76b-38f569b867cf","ios":"levelo://app?vid=904d8f98-ad5c-45d0-b76b-38f569b867cf"},"vehicle_type_id":"4","last_reported":1768922401,"current_range_meters":6000,"station_id":"ce4bgkp2rcd13ifvqbmg","pricing_plan_id":"cebpf4jnsgd1na2vs0mg"},{"bike_id":"32b9055d-85b8-4b54-b386-56f3f6117604","system_id":"levelo_inurba_marseille","lat":43.30785,"lon":5.3764,"is_reserved":false,"is_disabled":false,"rental_uris":{"android":"levelo://app?vid=32b9055d-85b8-4b54-b386-56f3f6117604","ios":"levelo://app?vid=32b9055d-85b8-4b54-b386-56f3f6117604"},"vehicle_type_id":"4","last_reported":1768922401,"current_range_meters":6000,"station_id":"ce4bgv92rcd13ifvqcq0","pricing_plan_id":"cebpf4jnsgd1na2vs0mg"},{"bike_id":"9005e431-9c14-4005-af0f-9a7de320525f","system_id":"levelo_inurba_marseille","lat":43.24069,"lon":5.37759,"is_reserved":false,"is_disabled":false,"rental_uris":{"android":"levelo://app?vid=9005e431-9c14-4005-af0f-9a7de320525f","ios":"levelo://app?vid=9005e431-9c14-4005-af0f-9a7de320525f"},"vehicle_type_id":"4","last_reported":1768922401,"current_range_meters":6000,"station_id":"ce4bhnp2rcd13ifvqgvg","pricing_plan_id":"cebpf4jnsgd1na2vs0mg"},{"bike_id":"c924bcfe-ed9b-4839-aa36-488cc6ed3c06","system_id":"levelo_inurba_marseille","lat":43.31719,"lon":5.37756,"is_reserved":false,"is_disabled":false,"rental_uris":{"android":"levelo://app?vid=c924bcfe-ed9b-4839-aa36-488cc6ed3c06","ios":"levelo://app?vid=c924bcfe-ed9b-4839-aa36-488cc6ed3c06"},"vehicle_type_id":"4","last_reported":1768922401,"current_range_meters":6000,"station_id":"ce4bgth2rcd13ifvqch0","pricing_plan_id":"cebpf4jnsgd1na2vs0mg"},{"bike_id":"efa38cb7-a84d-49d1-a1ea-367fe8bf17b7","system_id":"levelo_inurba_marseille","lat":43.30319,"lon":5.36912,"is_reserved":false,"is_disabled":false,"rental_uris":{"android":"levelo://app?vid=efa38cb7-a84d-49d1-a1ea-367fe8bf17b7","ios":"levelo://app?vid=efa38cb7-a84d-49d1-a1ea-367fe8bf17b7"},"vehicle_type_id":"4","last_reported":1768922401,"current_range_meters":6000,"station_id":"ce4bgqh2rcd13ifvqc5g","pricing_plan_id":"cebpf4jnsgd1na2vs0mg"},{"bike_id":"dc7f2cde-f394-4ae1-b0e4-a51d66aa1255","system_id":"levelo_inurba_marseille","lat":43.28145,"lon":5.43168,"is_reserved":false,"is_disabled":false,"rental_uris":{"android":"levelo://app?vid=dc7f2cde-f394-4ae1-b0e4-a51d66aa1255","ios":"levelo://app?vid=dc7f2cde-f394-4ae1-b0e4-a51d66aa1255"},"vehicle_type_id":"4","last_reported":1768922401,"current_range_meters":6000,"station_id":"","pricing_plan_id":"cebpf4jnsgd1na2vs0mg"},{"bike_id":"cc08d2b6-69fb-4c32-9f0f-91f88c556b74","system_id":"levelo_inurba_marseille","lat":43.2293,"lon":5.35386,"is_reserved":false,"is_disabled":false,"rental_uris":{"android":"levelo://app?vid=cc08d2b6-69fb-4c32-9f0f-91f88c556b74","ios":"levelo://app?vid=cc08d2b6-69fb-4c32-9f0f-91f88c556b74"},"vehicle_type_id":"4","last_reported":1768922401,"current_range_meters":6000,"station_id":"cpo3532slgdg3j2ikp40","pricing_plan_id":"cebpf4jnsgd1na2vs0mg"},{"bike_id":"5c0b6085-ef5d-4ca2-80ac-5c60db0558a8","system_id":"levelo_inurba_marseille","lat":43.31227,"lon":5.36821,"is_reserved":false,"is_disabled":false,"rental_uris":{"android":"levelo://app?vid=5c0b6085-ef5d-4ca2-80ac-5c60db0558a8","ios":"levelo://app?vid=5c0b6085-ef5d-4ca2-80ac-5c60db0558a8"},"vehicle_type_id":"4","last_reported":1768922401,"current_range_meters":6400,"station_id":"ce4bgl92rcd13ifvqbq0","pricing_plan_id":"cebpf4jnsgd1na2vs0mg"},{"bike_id":"c9fc643e-c809-4366-80b3-8aff0898d318","system_id":"levelo_inurba_marseille","lat":43.25933,"lon":5.40918,"is_reserved":false,"is_disabled":false,"rental_uris":{"android":"levelo://app?vid=c9fc643e-c809-4366-80b3-8aff0898d318","ios":"levelo://app?vid=c9fc643e-c809-4366-80b3-8aff0898d318"},"vehicle_type_id":"4","last_reported":1768922401,"current_range_meters":6400,"station_id":"ce4bhm92rcd13ifvqglg","pricing_plan_id":"cebpf4jnsgd1na2vs0mg"},{"bike_id":"2351e1c9-97c0-42ed-8ba7-93d168c64106","system_id":"levelo_inurba_marseille","lat":43.29771,"lon":5.42773,"is_reserved":false,"is_disabled":false,"rental_uris":{"android":"levelo://app?vid=2351e1c9-97c0-42ed-8ba7-93d168c64106","ios":"levelo://app?vid=2351e1c9-97c0-42ed-8ba7-93d168c64106"},"vehicle_type_id":"4","last_reported":1768922401,"current_range_meters":6400,"station_id":"st_d3md5207bmas73dh9klg","pricing_plan_id":"cebpf4jnsgd1na2vs0mg"},{"bike_id":"826aeb2d-9384-4062-9da4-ff770f5b59dd","system_id":"levelo_inurba_marseille","lat":43.26058,"lon":5.39395,"is_reserved":false,"is_disabled":false,"rental_uris":{"android":"levelo://app?vid=826aeb2d-9384-4062-9da4-ff770f5b59dd","ios":"levelo://app?vid=826aeb2d-9384-4062-9da4-ff770f5b59dd"},"vehicle_type_id":"4","last_reported":1768922401,"current_range_meters":6400,"station_id":"ce4bhh92rcd13ifvqfj0","pricing_plan_id":"cebpf4jnsgd1na2vs0mg"},{"bike_id":"2c2e3403-16a2-41a8-b9d5-528e23d49e57","system_id":"levelo_inurba_marseille","lat":43.2991,"lon":5.37473,"is_reserved":false,"is_disabled":false,"rental_uris":{"android":"levelo://app?vid=2c2e3403-16a2-41a8-b9d5-528e23d49e57","ios":"levelo://app?vid=2c2e3403-16a2-41a8-b9d5-528e23d49e57"},"vehicle_type_id":"4","last_reported":1768922401,"current_range_meters":6400,"station_id":"ce4bgjh2rcd13ifvqbg0","pricing_plan_id":"cebpf4jnsgd1na2vs0mg"},{"bike_id":"9cff5037-b95f-4160-aed4-0c6a74c5919b","system_id":"levelo_inurba_marseille","lat":43.28488,"lon":5.484,"is_reserved":false,"is_disabled":false,"rental_uris":{"android":"levelo://app?vid=9cff5037-b95f-4160-aed4-0c6a74c5919b","ios":"levelo://app?vid=9cff5037-b95f-4160-aed4-0c6a74c5919b"},"vehicle_type_id":"4","last_reported":1768922401,"current_range_meters":6400,"station_id":"","pricing_plan_id":"cebpf4jnsgd1na2vs0mg"},{"bike_id":"de0f4678-7dd3-4b16-840c-20ba2737ca6a","system_id":"levelo_inurba_marseille","lat":43.24099,"lon":5.37782,"is_reserved":false,"is_disabled":false,"rental_uris":{"android":"levelo://app?vid=de0f4678-7dd3-4b16-840c-20ba2737ca6a","ios":"levelo://app?vid=de0f4678-7dd3-4b16-840c-20ba2737ca6a"},"vehicle_type_id":"4","last_reported":1768922401,"current_range_meters":6400,"station_id":"ce4bhnp2rcd13ifvqgvg","pricing_plan_id":"cebpf4jnsgd1na2vs0mg"},{"bike_id":"f1d4233d-2911-4edf-a268-ad1589486129","system_id":"levelo_inurba_marseille","lat":43.241799,"lon":5.397349,"is_reserved":false,"is_disabled":false,"rental_uris":{"android":"levelo://app?vid=f1d4233d-2911-4edf-a268-ad1589486129","ios":"levelo://app?vid=f1d4233d-2911-4edf-a268-ad1589486129"},"vehicle_type_id":"4","last_reported":1768922401,"current_range_meters":6400,"station_id":"ce4bhn12rcd13ifvqgpg","pricing_plan_id":"cebpf4jnsgd1na2vs0mg"},{"bike_id":"f30acacb-ebc4-4a73-99fc-63475fe7e592","system_id":"levelo_inurba_marseille","lat":43.2962,"lon":5.37718,"is_reserved":false,"is_disabled":false,"rental_uris":{"android":"levelo://app?vid=f30acacb-ebc4-4a73-99fc-63475fe7e592","ios":"levelo://app?vid=f30acacb-ebc4-4a73-99fc-63475fe7e592"},"vehicle_type_id":"4","last_reported":1768922401,"current_range_meters":6400,"station_id":"ce4bgi92rcd13ifvqb90","pricing_plan_id":"cebpf4jnsgd1na2vs0mg"},{"bike_id":"855173a0-3379-49a2-8d48-56dd2230240e","system_id":"levelo_inurba_marseille","lat":43.27487,"lon":5.42465,"is_reserved":false,"is_disabled":false,"rental_uris":{"android":"levelo://app?vid=855173a0-3379-49a2-8d48-56dd2230240e","ios":"levelo://app?vid=855173a0-3379-49a2-8d48-56dd2230240e"},"vehicle_type_id":"4","last_reported":1768922401,"current_range_meters":6400,"station_id":"ce4bhn92rcd13ifvqgrg","pricing_plan_id":"cebpf4jnsgd1na2vs0mg"},{"bike_id":"e3caaaee-f8d9-44b6-b3d8-e04b5e8c88ba","system_id":"levelo_inurba_marseille","lat":43.27811,"lon":5.40712,"is_reserved":false,"is_disabled":false,"rental_uris":{"android":"levelo://app?vid=e3caaaee-f8d9-44b6-b3d8-e04b5e8c88ba","ios":"levelo://app?vid=e3caaaee-f8d9-44b6-b3d8-e04b5e8c88ba"},"vehicle_type_id":"4","last_reported":1768922401,"current_range_meters":6400,"station_id":"ce4bhnh2rcd13ifvqgtg","pricing_plan_id":"cebpf4jnsgd1na2vs0mg"},{"bike_id":"b005335c-6b18-438b-8b3c-63321309c058","system_id":"levelo_inurba_marseille","lat":43.3135,"lon":5.36756,"is_reserved":false,"is_disabled":false,"rental_uris":{"android":"levelo://app?vid=b005335c-6b18-438b-8b3c-63321309c058","ios":"levelo://app?vid=b005335c-6b18-438b-8b3c-63321309c058"},"vehicle_type_id":"4","last_reported":1768922401,"current_range_meters":6400,"station_id":"ce4bgr92rcd13ifvqc6g","pricing_plan_id":"cebpf4jnsgd1na2vs0mg"},{"bike_id":"01e4e376-9453-4b50-9db6-b5d810b90c59","system_id":"levelo_inurba_marseille","lat":43.26197,"lon":5.37447,"is_reserved":false,"is_disabled":false,"rental_uris":{"android":"levelo://app?vid=01e4e376-9453-4b50-9db6-b5d810b90c59","ios":"levelo://app?vid=01e4e376-9453-4b50-9db6-b5d810b90c59"},"vehicle_type_id":"4","last_reported":1768922401,"current_range_meters":6400,"station_id":"ce4bhgp2rcd13ifvqfc0","pricing_plan_id":"cebpf4jnsgd1na2vs0mg"},{"bike_id":"ea1b6251-046e-45fa-99ed-c6d51993189a","system_id":"levelo_inurba_marseille","lat":43.23933,"lon":5.36673,"is_reserved":false,"is_disabled":false,"rental_uris":{"android":"levelo://app?vid=ea1b6251-046e-45fa-99ed-c6d51993189a","ios":"levelo://app?vid=ea1b6251-046e-45fa-99ed-c6d51993189a"},"vehicle_type_id":"4","last_reported":1768922401,"current_range_meters":6400,"station_id":"ce4bhi12rcd13ifvqfp0","pricing_plan_id":"cebpf4jnsgd1na2vs0mg"},{"bike_id":"45962084-3fab-4b52-a3c7-7cf22102c873","system_id":"levelo_inurba_marseille","lat":43.29725,"lon":5.37712,"is_reserved":false,"is_disabled":false,"rental_uris":{"android":"levelo://app?vid=45962084-3fab-4b52-a3c7-7cf22102c873","ios":"levelo://app?vid=45962084-3fab-4b52-a3c7-7cf22102c873"},"vehicle_type_id":"4","last_reported":1768922401,"current_range_meters":6400,"station_id":"ce4bgkh2rcd13ifvqbl0","pricing_plan_id":"cebpf4jnsgd1na2vs0mg"},{"bike_id":"705085e2-9b40-490f-8b97-ff135b7389a2","system_id":"levelo_inurba_marseille","lat":43.27498,"lon":5.42438,"is_reserved":false,"is_disabled":false,"rental_uris":{"android":"levelo://app?vid=705085e2-9b40-490f-8b97-ff135b7389a2","ios":"levelo://app?vid=705085e2-9b40-490f-8b97-ff135b7389a2"},"vehicle_type_id":"4","last_reported":1768922401,"current_range_meters":6400,"station_id":"ce4bhn92rcd13ifvqgrg","pricing_plan_id":"cebpf4jnsgd1na2vs0mg"},{"bike_id":"9127ecbb-abff-4cc1-9efe-8daec1b6596b","system_id":"levelo_inurba_marseille","lat":43.26501,"lon":5.39528,"is_reserved":false,"is_disabled":false,"rental_uris":{"android":"levelo://app?vid=9127ecbb-abff-4cc1-9efe-8daec1b6596b","ios":"levelo://app?vid=9127ecbb-abff-4cc1-9efe-8daec1b6596b"},"vehicle_type_id":"4","last_reported":1768922401,"current_range_meters":6400,"station_id":"ce4bhi12rcd13ifvqfq0","pricing_plan_id":"cebpf4jnsgd1na2vs0mg"},{"bike_id":"be7171b6-2f58-47d0-883a-8c4ce3a8e9dc","system_id":"levelo_inurba_marseille","lat":43.2886,"lon":5.35839,"is_reserved":false,"is_disabled":false,"rental_uris":{"android":"levelo://app?vid=be7171b6-2f58-47d0-883a-8c4ce3a8e9dc","ios":"levelo://app?vid=be7171b6-2f58-47d0-883a-8c4ce3a8e9dc"},"vehicle_type_id":"4","last_reported":1768922401,"current_range_meters":6400,"station_id":"ce4bhb12rcd13ifvqem0","pricing_plan_id":"cebpf4jnsgd1na2vs0mg"},{"bike_id":"85c08aa5-29a6-4378-a34a-4b44d3f93913","system_id":"levelo_inurba_marseille","lat":43.31331,"lon":5.367414,"is_reserved":false,"is_disabled":false,"rental_uris":{"android":"levelo://app?vid=85c08aa5-29a6-4378-a34a-4b44d3f93913","ios":"levelo://app?vid=85c08aa5-29a6-4378-a34a-4b44d3f93913"},"vehicle_type_id":"4","last_reported":1768922401,"current_range_meters":6800,"station_id":"ce4bgr92rcd13ifvqc6g","pricing_plan_id":"cebpf4jnsgd1na2vs0mg"},{"bike_id":"4e3b79d6-1ca4-4b3b-b159-15e780bdacb3","system_id":"levelo_inurba_marseille","lat":43.29622,"lon":5.37714,"is_reserved":false,"is_disabled":false,"rental_uris":{"android":"levelo://app?vid=4e3b79d6-1ca4-4b3b-b159-15e780bdacb3","ios":"levelo://app?vid=4e3b79d6-1ca4-4b3b-b159-15e780bdacb3"},"vehicle_type_id":"4","last_reported":1768922401,"current_range_meters":6800,"station_id":"ce4bgi92rcd13ifvqb90","pricing_plan_id":"cebpf4jnsgd1na2vs0mg"},{"bike_id":"d1b1cf6a-870f-4034-b895-5100ce4a3332","system_id":"levelo_inurba_marseille","lat":43.29567,"lon":5.42271,"is_reserved":false,"is_disabled":false,"rental_uris":{"android":"levelo://app?vid=d1b1cf6a-870f-4034-b895-5100ce4a3332","ios":"levelo://app?vid=d1b1cf6a-870f-4034-b895-5100ce4a3332"},"vehicle_type_id":"4","last_reported":1768922401,"current_range_meters":6800,"station_id":"ce4bhph2rcd13ifvqhdg","pricing_plan_id":"cebpf4jnsgd1na2vs0mg"},{"bike_id":"ee88d5c5-7bf3-4e5b-8b24-823611a7357c","system_id":"levelo_inurba_marseille","lat":43.2882,"lon":5.35834,"is_reserved":false,"is_disabled":false,"rental_uris":{"android":"levelo://app?vid=ee88d5c5-7bf3-4e5b-8b24-823611a7357c","ios":"levelo://app?vid=ee88d5c5-7bf3-4e5b-8b24-823611a7357c"},"vehicle_type_id":"4","last_reported":1768922401,"current_range_meters":6800,"station_id":"ce4bhb12rcd13ifvqem0","pricing_plan_id":"cebpf4jnsgd1na2vs0mg"},{"bike_id":"1cd68235-0dd0-4a18-b47e-f8a039dc8288","system_id":"levelo_inurba_marseille","lat":43.26355,"lon":5.41066,"is_reserved":false,"is_disabled":false,"rental_uris":{"android":"levelo://app?vid=1cd68235-0dd0-4a18-b47e-f8a039dc8288","ios":"levelo://app?vid=1cd68235-0dd0-4a18-b47e-f8a039dc8288"},"vehicle_type_id":"4","last_reported":1768922401,"current_range_meters":6800,"station_id":"st_d4e5ca6na9uc73bfl5fg","pricing_plan_id":"cebpf4jnsgd1na2vs0mg"},{"bike_id":"fe9d92c6-6bf2-42de-b9d6-1a1baad0a909","system_id":"levelo_inurba_marseille","lat":43.27954,"lon":5.38694,"is_reserved":false,"is_disabled":false,"rental_uris":{"android":"levelo://app?vid=fe9d92c6-6bf2-42de-b9d6-1a1baad0a909","ios":"levelo://app?vid=fe9d92c6-6bf2-42de-b9d6-1a1baad0a909"},"vehicle_type_id":"4","last_reported":1768922401,"current_range_meters":6800,"station_id":"ce4bhg12rcd13ifvqf80","pricing_plan_id":"cebpf4jnsgd1na2vs0mg"},{"bike_id":"6c3a5c15-7423-4a25-87ba-05f3c8d2d87e","system_id":"levelo_inurba_marseille","lat":43.32354,"lon":5.36729,"is_reserved":false,"is_disabled":false,"rental_uris":{"android":"levelo://app?vid=6c3a5c15-7423-4a25-87ba-05f3c8d2d87e","ios":"levelo://app?vid=6c3a5c15-7423-4a25-87ba-05f3c8d2d87e"},"vehicle_type_id":"4","last_reported":1768922401,"current_range_meters":6800,"station_id":"ce4bhsh2rcd13ifvqi2g","pricing_plan_id":"cebpf4jnsgd1na2vs0mg"},{"bike_id":"c848ef88-9bba-440c-bccf-3dad8e3c10e5","system_id":"levelo_inurba_marseille","lat":43.30544,"lon":5.36501,"is_reserved":false,"is_disabled":false,"rental_uris":{"android":"levelo://app?vid=c848ef88-9bba-440c-bccf-3dad8e3c10e5","ios":"levelo://app?vid=c848ef88-9bba-440c-bccf-3dad8e3c10e5"},"vehicle_type_id":"4","last_reported":1768922401,"current_range_meters":6800,"station_id":"","pricing_plan_id":"cebpf4jnsgd1na2vs0mg"},{"bike_id":"955e7998-872d-4ab7-813b-4e4d79f533ce","system_id":"levelo_inurba_marseille","lat":43.29891,"lon":5.38893,"is_reserved":false,"is_disabled":false,"rental_uris":{"android":"levelo://app?vid=955e7998-872d-4ab7-813b-4e4d79f533ce","ios":"levelo://app?vid=955e7998-872d-4ab7-813b-4e4d79f533ce"},"vehicle_type_id":"4","last_reported":1768922401,"current_range_meters":6800,"station_id":"ce4bh392rcd13ifvqdl0","pricing_plan_id":"cebpf4jnsgd1na2vs0mg"},{"bike_id":"d09c304f-2976-4964-997f-836d46d1ef2d","system_id":"levelo_inurba_marseille","lat":43.24169,"lon":5.36391,"is_reserved":false,"is_disabled":false,"rental_uris":{"android":"levelo://app?vid=d09c304f-2976-4964-997f-836d46d1ef2d","ios":"levelo://app?vid=d09c304f-2976-4964-997f-836d46d1ef2d"},"vehicle_type_id":"4","last_reported":1768922401,"current_range_meters":6800,"station_id":"cpo36qri1sfpv3e86is0","pricing_plan_id":"cebpf4jnsgd1na2vs0mg"},{"bike_id":"5d6ec190-4e3f-4728-8145-239caf53150f","system_id":"levelo_inurba_marseille","lat":43.30684,"lon":5.40298,"is_reserved":false,"is_disabled":false,"rental_uris":{"android":"levelo://app?vid=5d6ec190-4e3f-4728-8145-239caf53150f","ios":"levelo://app?vid=5d6ec190-4e3f-4728-8145-239caf53150f"},"vehicle_type_id":"4","last_reported":1768922401,"current_range_meters":6800,"station_id":"","pricing_plan_id":"cebpf4jnsgd1na2vs0mg"},{"bike_id":"140f9f8c-f8d6-4094-bee8-4ae0a9f5dc5d","system_id":"levelo_inurba_marseille","lat":43.28358,"lon":5.38644,"is_reserved":false,"is_disabled":false,"rental_uris":{"android":"levelo://app?vid=140f9f8c-f8d6-4094-bee8-4ae0a9f5dc5d","ios":"levelo://app?vid=140f9f8c-f8d6-4094-bee8-4ae0a9f5dc5d"},"vehicle_type_id":"4","last_reported":1768922401,"current_range_meters":7200,"station_id":"ce4bh492rcd13ifvqdvg","pricing_plan_id":"cebpf4jnsgd1na2vs0mg"},{"bike_id":"526d26c0-396b-4353-b988-5a07ce2663a2","system_id":"levelo_inurba_marseille","lat":43.309433,"lon":5.390375,"is_reserved":false,"is_disabled":false,"rental_uris":{"android":"levelo://app?vid=526d26c0-396b-4353-b988-5a07ce2663a2","ios":"levelo://app?vid=526d26c0-396b-4353-b988-5a07ce2663a2"},"vehicle_type_id":"4","last_reported":1768922401,"current_range_meters":7200,"station_id":"ce4bgup2rcd13ifvqco0","pricing_plan_id":"cebpf4jnsgd1na2vs0mg"},{"bike_id":"c90f8d49-c464-4abb-b50f-a6f2833250ba","system_id":"levelo_inurba_marseille","lat":43.26083,"lon":5.39381,"is_reserved":false,"is_disabled":false,"rental_uris":{"android":"levelo://app?vid=c90f8d49-c464-4abb-b50f-a6f2833250ba","ios":"levelo://app?vid=c90f8d49-c464-4abb-b50f-a6f2833250ba"},"vehicle_type_id":"4","last_reported":1768922401,"current_range_meters":7200,"station_id":"ce4bhh92rcd13ifvqfj0","pricing_plan_id":"cebpf4jnsgd1na2vs0mg"},{"bike_id":"de773d31-c0ae-4fe9-90d5-b0353b585a1e","system_id":"levelo_inurba_marseille","lat":43.264555,"lon":5.395861,"is_reserved":false,"is_disabled":false,"rental_uris":{"android":"levelo://app?vid=de773d31-c0ae-4fe9-90d5-b0353b585a1e","ios":"levelo://app?vid=de773d31-c0ae-4fe9-90d5-b0353b585a1e"},"vehicle_type_id":"4","last_reported":1768922401,"current_range_meters":7200,"station_id":"","pricing_plan_id":"cebpf4jnsgd1na2vs0mg"},{"bike_id":"19da54de-4602-49e5-a196-11068ea61238","system_id":"levelo_inurba_marseille","lat":43.30698,"lon":5.36546,"is_reserved":false,"is_disabled":false,"rental_uris":{"android":"levelo://app?vid=19da54de-4602-49e5-a196-11068ea61238","ios":"levelo://app?vid=19da54de-4602-49e5-a196-11068ea61238"},"vehicle_type_id":"4","last_reported":1768922401,"current_range_meters":7200,"station_id":"","pricing_plan_id":"cebpf4jnsgd1na2vs0mg"},{"bike_id":"4ca32394-f8f1-4623-8df9-31249aca63fc","system_id":"levelo_inurba_marseille","lat":43.23185,"lon":5.39992,"is_reserved":false,"is_disabled":false,"rental_uris":{"android":"levelo://app?vid=4ca32394-f8f1-4623-8df9-31249aca63fc","ios":"levelo://app?vid=4ca32394-f8f1-4623-8df9-31249aca63fc"},"vehicle_type_id":"4","last_reported":1768922401,"current_range_meters":7200,"station_id":"ce4bhn12rcd13ifvqgqg","pricing_plan_id":"cebpf4jnsgd1na2vs0mg"},{"bike_id":"ab62c2c7-778e-423c-8864-1a3f3a3a4fe7","system_id":"levelo_inurba_marseille","lat":43.27709,"lon":5.40811,"is_reserved":false,"is_disabled":false,"rental_uris":{"android":"levelo://app?vid=ab62c2c7-778e-423c-8864-1a3f3a3a4fe7","ios":"levelo://app?vid=ab62c2c7-778e-423c-8864-1a3f3a3a4fe7"},"vehicle_type_id":"4","last_reported":1768922401,"current_range_meters":7200,"station_id":"","pricing_plan_id":"cebpf4jnsgd1na2vs0mg"},{"bike_id":"fbbedfeb-5767-4a40-9eeb-fb558ba05242","system_id":"levelo_inurba_marseille","lat":43.25022,"lon":5.38913,"is_reserved":false,"is_disabled":false,"rental_uris":{"android":"levelo://app?vid=fbbedfeb-5767-4a40-9eeb-fb558ba05242","ios":"levelo://app?vid=fbbedfeb-5767-4a40-9eeb-fb558ba05242"},"vehicle_type_id":"4","last_reported":1768922401,"current_range_meters":7200,"station_id":"ce4bhgp2rcd13ifvqfd0","pricing_plan_id":"cebpf4jnsgd1na2vs0mg"},{"bike_id":"c766203c-fe51-459b-bf74-dd6b3df74629","system_id":"levelo_inurba_marseille","lat":43.23172,"lon":5.40003,"is_reserved":false,"is_disabled":false,"rental_uris":{"android":"levelo://app?vid=c766203c-fe51-459b-bf74-dd6b3df74629","ios":"levelo://app?vid=c766203c-fe51-459b-bf74-dd6b3df74629"},"vehicle_type_id":"4","last_reported":1768922401,"current_range_meters":7200,"station_id":"ce4bhn12rcd13ifvqgqg","pricing_plan_id":"cebpf4jnsgd1na2vs0mg"},{"bike_id":"6ed8c7ae-caef-4abd-a9d4-aaf7d0882a8a","system_id":"levelo_inurba_marseille","lat":43.29611,"lon":5.37715,"is_reserved":false,"is_disabled":true,"rental_uris":{"android":"levelo://app?vid=6ed8c7ae-caef-4abd-a9d4-aaf7d0882a8a","ios":"levelo://app?vid=6ed8c7ae-caef-4abd-a9d4-aaf7d0882a8a"},"vehicle_type_id":"4","last_reported":1768922401,"current_range_meters":7200,"station_id":"ce4bgi92rcd13ifvqb90","pricing_plan_id":"cebpf4jnsgd1na2vs0mg"},{"bike_id":"40e2667e-f23a-4ded-8ddb-fef4d5eb0dfe","system_id":"levelo_inurba_marseille","lat":43.255317,"lon":5.376632,"is_reserved":false,"is_disabled":false,"rental_uris":{"android":"levelo://app?vid=40e2667e-f23a-4ded-8ddb-fef4d5eb0dfe","ios":"levelo://app?vid=40e2667e-f23a-4ded-8ddb-fef4d5eb0dfe"},"vehicle_type_id":"4","last_reported":1768922401,"current_range_meters":7200,"station_id":"ce4bhh12rcd13ifvqff0","pricing_plan_id":"cebpf4jnsgd1na2vs0mg"},{"bike_id":"4d9fb050-4361-4bab-ba3c-960b4264587c","system_id":"levelo_inurba_marseille","lat":43.33081,"lon":5.3905,"is_reserved":false,"is_disabled":false,"rental_uris":{"android":"levelo://app?vid=4d9fb050-4361-4bab-ba3c-960b4264587c","ios":"levelo://app?vid=4d9fb050-4361-4bab-ba3c-960b4264587c"},"vehicle_type_id":"4","last_reported":1768922401,"current_range_meters":7200,"station_id":"","pricing_plan_id":"cebpf4jnsgd1na2vs0mg"},{"bike_id":"10483c0a-1726-407f-8492-2530493c0d67","system_id":"levelo_inurba_marseille","lat":43.250107,"lon":5.38924,"is_reserved":false,"is_disabled":false,"rental_uris":{"android":"levelo://app?vid=10483c0a-1726-407f-8492-2530493c0d67","ios":"levelo://app?vid=10483c0a-1726-407f-8492-2530493c0d67"},"vehicle_type_id":"4","last_reported":1768922401,"current_range_meters":7200,"station_id":"ce4bhgp2rcd13ifvqfd0","pricing_plan_id":"cebpf4jnsgd1na2vs0mg"},{"bike_id":"64564d81-7fa9-470c-84f7-e881a2d2d1a5","system_id":"levelo_inurba_marseille","lat":43.24461,"lon":5.42542,"is_reserved":false,"is_disabled":false,"rental_uris":{"android":"levelo://app?vid=64564d81-7fa9-470c-84f7-e881a2d2d1a5","ios":"levelo://app?vid=64564d81-7fa9-470c-84f7-e881a2d2d1a5"},"vehicle_type_id":"4","last_reported":1768922401,"current_range_meters":7200,"station_id":"st_d4a3vfp97mjs738cd8kg","pricing_plan_id":"cebpf4jnsgd1na2vs0mg"},{"bike_id":"2522ac39-599d-48d7-a6b3-b5f430b2d245","system_id":"levelo_inurba_marseille","lat":43.28569,"lon":5.39488,"is_reserved":false,"is_disabled":false,"rental_uris":{"android":"levelo://app?vid=2522ac39-599d-48d7-a6b3-b5f430b2d245","ios":"levelo://app?vid=2522ac39-599d-48d7-a6b3-b5f430b2d245"},"vehicle_type_id":"4","last_reported":1768922401,"current_range_meters":7200,"station_id":"ce4bh292rcd13ifvqdg0","pricing_plan_id":"cebpf4jnsgd1na2vs0mg"},{"bike_id":"d3465023-47a0-4a04-9c4b-30d7ebfc56cc","system_id":"levelo_inurba_marseille","lat":43.28163,"lon":5.42638,"is_reserved":false,"is_disabled":false,"rental_uris":{"android":"levelo://app?vid=d3465023-47a0-4a04-9c4b-30d7ebfc56cc","ios":"levelo://app?vid=d3465023-47a0-4a04-9c4b-30d7ebfc56cc"},"vehicle_type_id":"4","last_reported":1768922401,"current_range_meters":7200,"station_id":"ce4bhnh2rcd13ifvqgug","pricing_plan_id":"cebpf4jnsgd1na2vs0mg"},{"bike_id":"ce65da15-5103-4c08-86e5-b4783ea2b238","system_id":"levelo_inurba_marseille","lat":43.29313,"lon":5.37181,"is_reserved":false,"is_disabled":false,"rental_uris":{"android":"levelo://app?vid=ce65da15-5103-4c08-86e5-b4783ea2b238","ios":"levelo://app?vid=ce65da15-5103-4c08-86e5-b4783ea2b238"},"vehicle_type_id":"4","last_reported":1768922401,"current_range_meters":7200,"station_id":"ce4bgh92rcd13ifvqb40","pricing_plan_id":"cebpf4jnsgd1na2vs0mg"},{"bike_id":"3f155f0c-a1bd-400f-8289-4fd480af1e73","system_id":"levelo_inurba_marseille","lat":43.29127,"lon":5.38274,"is_reserved":false,"is_disabled":false,"rental_uris":{"android":"levelo://app?vid=3f155f0c-a1bd-400f-8289-4fd480af1e73","ios":"levelo://app?vid=3f155f0c-a1bd-400f-8289-4fd480af1e73"},"vehicle_type_id":"4","last_reported":1768922401,"current_range_meters":7200,"station_id":"","pricing_plan_id":"cebpf4jnsgd1na2vs0mg"},{"bike_id":"544ad0c6-321a-4014-a5c3-ffb32ae71cca","system_id":"levelo_inurba_marseille","lat":43.284769,"lon":5.484042,"is_reserved":false,"is_disabled":false,"rental_uris":{"android":"levelo://app?vid=544ad0c6-321a-4014-a5c3-ffb32ae71cca","ios":"levelo://app?vid=544ad0c6-321a-4014-a5c3-ffb32ae71cca"},"vehicle_type_id":"4","last_reported":1768922401,"current_range_meters":7200,"station_id":"","pricing_plan_id":"cebpf4jnsgd1na2vs0mg"},{"bike_id":"00926366-40d2-4692-a7fe-1fb3b69e53b6","system_id":"levelo_inurba_marseille","lat":43.32491,"lon":5.36558,"is_reserved":false,"is_disabled":false,"rental_uris":{"android":"levelo://app?vid=00926366-40d2-4692-a7fe-1fb3b69e53b6","ios":"levelo://app?vid=00926366-40d2-4692-a7fe-1fb3b69e53b6"},"vehicle_type_id":"4","last_reported":1768922401,"current_range_meters":8000,"station_id":"ce4bhs12rcd13ifvqhvg","pricing_plan_id":"cebpf4jnsgd1na2vs0mg"},{"bike_id":"e056eead-b375-4d78-8b2f-d7ad36f8e589","system_id":"levelo_inurba_marseille","lat":43.28464,"lon":5.35887,"is_reserved":false,"is_disabled":false,"rental_uris":{"android":"levelo://app?vid=e056eead-b375-4d78-8b2f-d7ad36f8e589","ios":"levelo://app?vid=e056eead-b375-4d78-8b2f-d7ad36f8e589"},"vehicle_type_id":"4","last_reported":1768922401,"current_range_meters":8000,"station_id":"ce4bhah2rcd13ifvqei0","pricing_plan_id":"cebpf4jnsgd1na2vs0mg"},{"bike_id":"d466e173-51b3-4260-bdba-320b58be2104","system_id":"levelo_inurba_marseille","lat":43.26568,"lon":5.37286,"is_reserved":false,"is_disabled":false,"rental_uris":{"android":"levelo://app?vid=d466e173-51b3-4260-bdba-320b58be2104","ios":"levelo://app?vid=d466e173-51b3-4260-bdba-320b58be2104"},"vehicle_type_id":"4","last_reported":1768922401,"current_range_meters":8000,"station_id":"ce4bhg12rcd13ifvqf70","pricing_plan_id":"cebpf4jnsgd1na2vs0mg"},{"bike_id":"65f2e28d-b6c3-4183-a528-4abf22dd5335","system_id":"levelo_inurba_marseille","lat":43.23952,"lon":5.36649,"is_reserved":false,"is_disabled":false,"rental_uris":{"android":"levelo://app?vid=65f2e28d-b6c3-4183-a528-4abf22dd5335","ios":"levelo://app?vid=65f2e28d-b6c3-4183-a528-4abf22dd5335"},"vehicle_type_id":"4","last_reported":1768922401,"current_range_meters":8000,"station_id":"ce4bhi12rcd13ifvqfp0","pricing_plan_id":"cebpf4jnsgd1na2vs0mg"},{"bike_id":"71143c75-a2fb-4dc9-985f-7d3de52d80b7","system_id":"levelo_inurba_marseille","lat":43.29434,"lon":5.39761,"is_reserved":false,"is_disabled":false,"rental_uris":{"android":"levelo://app?vid=71143c75-a2fb-4dc9-985f-7d3de52d80b7","ios":"levelo://app?vid=71143c75-a2fb-4dc9-985f-7d3de52d80b7"},"vehicle_type_id":"4","last_reported":1768922401,"current_range_meters":8000,"station_id":"ce4bh3h2rcd13ifvqdo0","pricing_plan_id":"cebpf4jnsgd1na2vs0mg"},{"bike_id":"636bdde4-1bfe-425e-b6ab-b084a1d29a2f","system_id":"levelo_inurba_marseille","lat":43.31109,"lon":5.37753,"is_reserved":false,"is_disabled":false,"rental_uris":{"android":"levelo://app?vid=636bdde4-1bfe-425e-b6ab-b084a1d29a2f","ios":"levelo://app?vid=636bdde4-1bfe-425e-b6ab-b084a1d29a2f"},"vehicle_type_id":"4","last_reported":1768922401,"current_range_meters":8000,"station_id":"ce4bgt92rcd13ifvqcg0","pricing_plan_id":"cebpf4jnsgd1na2vs0mg"},{"bike_id":"2966ce43-b4e0-468d-90b7-bfebc38d523e","system_id":"levelo_inurba_marseille","lat":43.30131,"lon":5.37431,"is_reserved":false,"is_disabled":false,"rental_uris":{"android":"levelo://app?vid=2966ce43-b4e0-468d-90b7-bfebc38d523e","ios":"levelo://app?vid=2966ce43-b4e0-468d-90b7-bfebc38d523e"},"vehicle_type_id":"4","last_reported":1768922401,"current_range_meters":8000,"station_id":"ce4bgs92rcd13ifvqcc0","pricing_plan_id":"cebpf4jnsgd1na2vs0mg"},{"bike_id":"350a79a1-2120-443a-849c-814a0e198d1b","system_id":"levelo_inurba_marseille","lat":43.255106,"lon":5.376463,"is_reserved":false,"is_disabled":false,"rental_uris":{"android":"levelo://app?vid=350a79a1-2120-443a-849c-814a0e198d1b","ios":"levelo://app?vid=350a79a1-2120-443a-849c-814a0e198d1b"},"vehicle_type_id":"4","last_reported":1768922401,"current_range_meters":8000,"station_id":"ce4bhh12rcd13ifvqff0","pricing_plan_id":"cebpf4jnsgd1na2vs0mg"},{"bike_id":"f58dc067-4dd9-4635-8ae5-365aced9c977","system_id":"levelo_inurba_marseille","lat":43.26236,"lon":5.40423,"is_reserved":false,"is_disabled":false,"rental_uris":{"android":"levelo://app?vid=f58dc067-4dd9-4635-8ae5-365aced9c977","ios":"levelo://app?vid=f58dc067-4dd9-4635-8ae5-365aced9c977"},"vehicle_type_id":"4","last_reported":1768922401,"current_range_meters":8000,"station_id":"ce4bhmh2rcd13ifvqgmg","pricing_plan_id":"cebpf4jnsgd1na2vs0mg"},{"bike_id":"470d11ff-6533-496b-9b42-604d9a3c30ea","system_id":"levelo_inurba_marseille","lat":43.31601,"lon":5.36864,"is_reserved":false,"is_disabled":false,"rental_uris":{"android":"levelo://app?vid=470d11ff-6533-496b-9b42-604d9a3c30ea","ios":"levelo://app?vid=470d11ff-6533-496b-9b42-604d9a3c30ea"},"vehicle_type_id":"4","last_reported":1768922401,"current_range_meters":8000,"station_id":"","pricing_plan_id":"cebpf4jnsgd1na2vs0mg"},{"bike_id":"da1775b4-f964-4c31-a42d-2a7370b74fae","system_id":"levelo_inurba_marseille","lat":43.28148,"lon":5.42627,"is_reserved":false,"is_disabled":false,"rental_uris":{"android":"levelo://app?vid=da1775b4-f964-4c31-a42d-2a7370b74fae","ios":"levelo://app?vid=da1775b4-f964-4c31-a42d-2a7370b74fae"},"vehicle_type_id":"4","last_reported":1768922401,"current_range_meters":8000,"station_id":"ce4bhnh2rcd13ifvqgug","pricing_plan_id":"cebpf4jnsgd1na2vs0mg"},{"bike_id":"0e84440f-1425-4251-a28c-38177f781258","system_id":"levelo_inurba_marseille","lat":43.28482,"lon":5.48398,"is_reserved":false,"is_disabled":false,"rental_uris":{"android":"levelo://app?vid=0e84440f-1425-4251-a28c-38177f781258","ios":"levelo://app?vid=0e84440f-1425-4251-a28c-38177f781258"},"vehicle_type_id":"4","last_reported":1768922401,"current_range_meters":8000,"station_id":"","pricing_plan_id":"cebpf4jnsgd1na2vs0mg"},{"bike_id":"35eb0f0f-42a8-4fd5-956e-bec6aa3f7ee3","system_id":"levelo_inurba_marseille","lat":43.23187,"lon":5.39993,"is_reserved":false,"is_disabled":false,"rental_uris":{"android":"levelo://app?vid=35eb0f0f-42a8-4fd5-956e-bec6aa3f7ee3","ios":"levelo://app?vid=35eb0f0f-42a8-4fd5-956e-bec6aa3f7ee3"},"vehicle_type_id":"4","last_reported":1768922401,"current_range_meters":8000,"station_id":"ce4bhn12rcd13ifvqgqg","pricing_plan_id":"cebpf4jnsgd1na2vs0mg"},{"bike_id":"e775e37a-88b9-408c-8364-888bc63e91d3","system_id":"levelo_inurba_marseille","lat":43.24455,"lon":5.37023,"is_reserved":false,"is_disabled":false,"rental_uris":{"android":"levelo://app?vid=e775e37a-88b9-408c-8364-888bc63e91d3","ios":"levelo://app?vid=e775e37a-88b9-408c-8364-888bc63e91d3"},"vehicle_type_id":"4","last_reported":1768922401,"current_range_meters":8000,"station_id":"ce4bhhh2rcd13ifvqfk0","pricing_plan_id":"cebpf4jnsgd1na2vs0mg"},{"bike_id":"7cf18d94-e1a1-4160-915c-04b24e4ca41c","system_id":"levelo_inurba_marseille","lat":43.29608,"lon":5.38088,"is_reserved":false,"is_disabled":false,"rental_uris":{"android":"levelo://app?vid=7cf18d94-e1a1-4160-915c-04b24e4ca41c","ios":"levelo://app?vid=7cf18d94-e1a1-4160-915c-04b24e4ca41c"},"vehicle_type_id":"4","last_reported":1768922401,"current_range_meters":8000,"station_id":"ce4bgl12rcd13ifvqbo0","pricing_plan_id":"cebpf4jnsgd1na2vs0mg"},{"bike_id":"281a5987-d8fd-4354-9f60-c305177213a0","system_id":"levelo_inurba_marseille","lat":43.25872,"lon":5.39899,"is_reserved":false,"is_disabled":false,"rental_uris":{"android":"levelo://app?vid=281a5987-d8fd-4354-9f60-c305177213a0","ios":"levelo://app?vid=281a5987-d8fd-4354-9f60-c305177213a0"},"vehicle_type_id":"4","last_reported":1768922401,"current_range_meters":8000,"station_id":"ce4bhl92rcd13ifvqghg","pricing_plan_id":"cebpf4jnsgd1na2vs0mg"},{"bike_id":"3d502311-68a0-4c9f-8d55-6701e303ebbb","system_id":"levelo_inurba_marseille","lat":43.31517,"lon":5.37282,"is_reserved":false,"is_disabled":false,"rental_uris":{"android":"levelo://app?vid=3d502311-68a0-4c9f-8d55-6701e303ebbb","ios":"levelo://app?vid=3d502311-68a0-4c9f-8d55-6701e303ebbb"},"vehicle_type_id":"4","last_reported":1768922401,"current_range_meters":8000,"station_id":"ce4bgt12rcd13ifvqcd0","pricing_plan_id":"cebpf4jnsgd1na2vs0mg"},{"bike_id":"290c050b-3b33-4486-adf0-4f5aca9312b6","system_id":"levelo_inurba_marseille","lat":43.26547,"lon":5.37287,"is_reserved":false,"is_disabled":false,"rental_uris":{"android":"levelo://app?vid=290c050b-3b33-4486-adf0-4f5aca9312b6","ios":"levelo://app?vid=290c050b-3b33-4486-adf0-4f5aca9312b6"},"vehicle_type_id":"4","last_reported":1768922401,"current_range_meters":8000,"station_id":"ce4bhg12rcd13ifvqf70","pricing_plan_id":"cebpf4jnsgd1na2vs0mg"},{"bike_id":"d48841b3-81ac-4401-8476-3c1c4e35f3d0","system_id":"levelo_inurba_marseille","lat":43.29173,"lon":5.37162,"is_reserved":false,"is_disabled":false,"rental_uris":{"android":"levelo://app?vid=d48841b3-81ac-4401-8476-3c1c4e35f3d0","ios":"levelo://app?vid=d48841b3-81ac-4401-8476-3c1c4e35f3d0"},"vehicle_type_id":"4","last_reported":1768922401,"current_range_meters":8000,"station_id":"ce4bha92rcd13ifvqeh0","pricing_plan_id":"cebpf4jnsgd1na2vs0mg"},{"bike_id":"c9632c24-d4ba-453f-a643-952c5a012a8a","system_id":"levelo_inurba_marseille","lat":43.22574,"lon":5.41628,"is_reserved":false,"is_disabled":false,"rental_uris":{"android":"levelo://app?vid=c9632c24-d4ba-453f-a643-952c5a012a8a","ios":"levelo://app?vid=c9632c24-d4ba-453f-a643-952c5a012a8a"},"vehicle_type_id":"4","last_reported":1768922401,"current_range_meters":8400,"station_id":"st_d2o4gvlbi1j2169b742g","pricing_plan_id":"cebpf4jnsgd1na2vs0mg"},{"bike_id":"f2bccffe-a4f0-4793-bfaa-8fbb6939cb95","system_id":"levelo_inurba_marseille","lat":43.246478,"lon":5.388915,"is_reserved":false,"is_disabled":false,"rental_uris":{"android":"levelo://app?vid=f2bccffe-a4f0-4793-bfaa-8fbb6939cb95","ios":"levelo://app?vid=f2bccffe-a4f0-4793-bfaa-8fbb6939cb95"},"vehicle_type_id":"4","last_reported":1768922401,"current_range_meters":8400,"station_id":"ce4bhg12rcd13ifvqf60","pricing_plan_id":"cebpf4jnsgd1na2vs0mg"},{"bike_id":"dcc6a235-8f61-4a3a-9f0a-2e585a917704","system_id":"levelo_inurba_marseille","lat":43.30107,"lon":5.39823,"is_reserved":false,"is_disabled":false,"rental_uris":{"android":"levelo://app?vid=dcc6a235-8f61-4a3a-9f0a-2e585a917704","ios":"levelo://app?vid=dcc6a235-8f61-4a3a-9f0a-2e585a917704"},"vehicle_type_id":"4","last_reported":1768922401,"current_range_meters":8400,"station_id":"ce4bh0h2rcd13ifvqd40","pricing_plan_id":"cebpf4jnsgd1na2vs0mg"},{"bike_id":"04d1fa74-7078-4e54-86c0-c9d3f7b08c45","system_id":"levelo_inurba_marseille","lat":43.2558,"lon":5.38238,"is_reserved":false,"is_disabled":false,"rental_uris":{"android":"levelo://app?vid=04d1fa74-7078-4e54-86c0-c9d3f7b08c45","ios":"levelo://app?vid=04d1fa74-7078-4e54-86c0-c9d3f7b08c45"},"vehicle_type_id":"4","last_reported":1768922401,"current_range_meters":8400,"station_id":"ce4bhih2rcd13ifvqfs0","pricing_plan_id":"cebpf4jnsgd1na2vs0mg"},{"bike_id":"6440c4eb-d5a9-46a0-9da1-061c231b2028","system_id":"levelo_inurba_marseille","lat":43.29624,"lon":5.37167,"is_reserved":false,"is_disabled":false,"rental_uris":{"android":"levelo://app?vid=6440c4eb-d5a9-46a0-9da1-061c231b2028","ios":"levelo://app?vid=6440c4eb-d5a9-46a0-9da1-061c231b2028"},"vehicle_type_id":"4","last_reported":1768922401,"current_range_meters":8400,"station_id":"ce4bgnh2rcd13ifvqc0g","pricing_plan_id":"cebpf4jnsgd1na2vs0mg"},{"bike_id":"f47a1b6d-b131-4665-bbf4-a03c420f278d","system_id":"levelo_inurba_marseille","lat":43.30129,"lon":5.374087,"is_reserved":false,"is_disabled":false,"rental_uris":{"android":"levelo://app?vid=f47a1b6d-b131-4665-bbf4-a03c420f278d","ios":"levelo://app?vid=f47a1b6d-b131-4665-bbf4-a03c420f278d"},"vehicle_type_id":"4","last_reported":1768922401,"current_range_meters":8400,"station_id":"ce4bgs92rcd13ifvqcc0","pricing_plan_id":"cebpf4jnsgd1na2vs0mg"},{"bike_id":"0c80884c-9c03-40f4-a5db-26696ff4abea","system_id":"levelo_inurba_marseille","lat":43.30563,"lon":5.36584,"is_reserved":false,"is_disabled":false,"rental_uris":{"android":"levelo://app?vid=0c80884c-9c03-40f4-a5db-26696ff4abea","ios":"levelo://app?vid=0c80884c-9c03-40f4-a5db-26696ff4abea"},"vehicle_type_id":"4","last_reported":1768922401,"current_range_meters":8400,"station_id":"ce4bgs12rcd13ifvqcag","pricing_plan_id":"cebpf4jnsgd1na2vs0mg"},{"bike_id":"db7ec8da-0c31-45ee-9fa6-ff73adc2db8c","system_id":"levelo_inurba_marseille","lat":43.25579,"lon":5.38227,"is_reserved":false,"is_disabled":false,"rental_uris":{"android":"levelo://app?vid=db7ec8da-0c31-45ee-9fa6-ff73adc2db8c","ios":"levelo://app?vid=db7ec8da-0c31-45ee-9fa6-ff73adc2db8c"},"vehicle_type_id":"4","last_reported":1768922401,"current_range_meters":8400,"station_id":"ce4bhih2rcd13ifvqfs0","pricing_plan_id":"cebpf4jnsgd1na2vs0mg"},{"bike_id":"7d2f250a-191b-441d-876b-7325dd6245a6","system_id":"levelo_inurba_marseille","lat":43.25002,"lon":5.38932,"is_reserved":false,"is_disabled":false,"rental_uris":{"android":"levelo://app?vid=7d2f250a-191b-441d-876b-7325dd6245a6","ios":"levelo://app?vid=7d2f250a-191b-441d-876b-7325dd6245a6"},"vehicle_type_id":"4","last_reported":1768922401,"current_range_meters":8400,"station_id":"ce4bhgp2rcd13ifvqfd0","pricing_plan_id":"cebpf4jnsgd1na2vs0mg"},{"bike_id":"5f65347f-3f32-4020-a719-79b95209ec08","system_id":"levelo_inurba_marseille","lat":43.28343,"lon":5.38109,"is_reserved":false,"is_disabled":false,"rental_uris":{"android":"levelo://app?vid=5f65347f-3f32-4020-a719-79b95209ec08","ios":"levelo://app?vid=5f65347f-3f32-4020-a719-79b95209ec08"},"vehicle_type_id":"4","last_reported":1768922401,"current_range_meters":8400,"station_id":"ce4bh412rcd13ifvqdr0","pricing_plan_id":"cebpf4jnsgd1na2vs0mg"},{"bike_id":"bd47c088-7a9b-44ec-a68f-65b726393761","system_id":"levelo_inurba_marseille","lat":43.27976,"lon":5.40562,"is_reserved":false,"is_disabled":false,"rental_uris":{"android":"levelo://app?vid=bd47c088-7a9b-44ec-a68f-65b726393761","ios":"levelo://app?vid=bd47c088-7a9b-44ec-a68f-65b726393761"},"vehicle_type_id":"4","last_reported":1768922401,"current_range_meters":8400,"station_id":"","pricing_plan_id":"cebpf4jnsgd1na2vs0mg"},{"bike_id":"a5e5c619-8bc5-4328-9a09-ce54be33b975","system_id":"levelo_inurba_marseille","lat":43.24392,"lon":5.37055,"is_reserved":false,"is_disabled":false,"rental_uris":{"android":"levelo://app?vid=a5e5c619-8bc5-4328-9a09-ce54be33b975","ios":"levelo://app?vid=a5e5c619-8bc5-4328-9a09-ce54be33b975"},"vehicle_type_id":"4","last_reported":1768922401,"current_range_meters":8400,"station_id":"ce4bhhh2rcd13ifvqfk0","pricing_plan_id":"cebpf4jnsgd1na2vs0mg"},{"bike_id":"a11c1441-b150-417d-b265-6e960475c20d","system_id":"levelo_inurba_marseille","lat":43.26208,"lon":5.3792,"is_reserved":false,"is_disabled":false,"rental_uris":{"android":"levelo://app?vid=a11c1441-b150-417d-b265-6e960475c20d","ios":"levelo://app?vid=a11c1441-b150-417d-b265-6e960475c20d"},"vehicle_type_id":"4","last_reported":1768922401,"current_range_meters":8400,"station_id":"ce4bhjp2rcd13ifvqg90","pricing_plan_id":"cebpf4jnsgd1na2vs0mg"},{"bike_id":"82083f02-67d3-46a9-beaf-bc86cb863617","system_id":"levelo_inurba_marseille","lat":43.30523,"lon":5.36527,"is_reserved":false,"is_disabled":false,"rental_uris":{"android":"levelo://app?vid=82083f02-67d3-46a9-beaf-bc86cb863617","ios":"levelo://app?vid=82083f02-67d3-46a9-beaf-bc86cb863617"},"vehicle_type_id":"4","last_reported":1768922401,"current_range_meters":8400,"station_id":"","pricing_plan_id":"cebpf4jnsgd1na2vs0mg"},{"bike_id":"29b3fe27-3155-4bb1-9d12-be92f522d733","system_id":"levelo_inurba_marseille","lat":43.29759,"lon":5.42781,"is_reserved":false,"is_disabled":false,"rental_uris":{"android":"levelo://app?vid=29b3fe27-3155-4bb1-9d12-be92f522d733","ios":"levelo://app?vid=29b3fe27-3155-4bb1-9d12-be92f522d733"},"vehicle_type_id":"4","last_reported":1768922401,"current_range_meters":8400,"station_id":"st_d3md5207bmas73dh9klg","pricing_plan_id":"cebpf4jnsgd1na2vs0mg"},{"bike_id":"52c85b02-607c-4226-bd7b-fd246dd2dae8","system_id":"levelo_inurba_marseille","lat":43.22563,"lon":5.41614,"is_reserved":false,"is_disabled":false,"rental_uris":{"android":"levelo://app?vid=52c85b02-607c-4226-bd7b-fd246dd2dae8","ios":"levelo://app?vid=52c85b02-607c-4226-bd7b-fd246dd2dae8"},"vehicle_type_id":"4","last_reported":1768922401,"current_range_meters":8400,"station_id":"st_d2o4gvlbi1j2169b742g","pricing_plan_id":"cebpf4jnsgd1na2vs0mg"},{"bike_id":"ba1a4609-795c-4220-8926-bfdd65f5d3a2","system_id":"levelo_inurba_marseille","lat":43.26549,"lon":5.37279,"is_reserved":false,"is_disabled":false,"rental_uris":{"android":"levelo://app?vid=ba1a4609-795c-4220-8926-bfdd65f5d3a2","ios":"levelo://app?vid=ba1a4609-795c-4220-8926-bfdd65f5d3a2"},"vehicle_type_id":"4","last_reported":1768922401,"current_range_meters":8400,"station_id":"ce4bhg12rcd13ifvqf70","pricing_plan_id":"cebpf4jnsgd1na2vs0mg"},{"bike_id":"3e57c784-076f-487c-b622-a075cc851190","system_id":"levelo_inurba_marseille","lat":43.26335,"lon":5.37779,"is_reserved":false,"is_disabled":false,"rental_uris":{"android":"levelo://app?vid=3e57c784-076f-487c-b622-a075cc851190","ios":"levelo://app?vid=3e57c784-076f-487c-b622-a075cc851190"},"vehicle_type_id":"4","last_reported":1768922401,"current_range_meters":8400,"station_id":"ce4bhjp2rcd13ifvqg90","pricing_plan_id":"cebpf4jnsgd1na2vs0mg"},{"bike_id":"73b2a6ad-aa05-4760-8ce9-1b290a76d921","system_id":"levelo_inurba_marseille","lat":43.29572,"lon":5.39981,"is_reserved":false,"is_disabled":false,"rental_uris":{"android":"levelo://app?vid=73b2a6ad-aa05-4760-8ce9-1b290a76d921","ios":"levelo://app?vid=73b2a6ad-aa05-4760-8ce9-1b290a76d921"},"vehicle_type_id":"4","last_reported":1768922401,"current_range_meters":8400,"station_id":"ce4bh312rcd13ifvqdj0","pricing_plan_id":"cebpf4jnsgd1na2vs0mg"},{"bike_id":"3ca85858-1c4f-4ad2-b471-e77dd1bff75a","system_id":"levelo_inurba_marseille","lat":43.27328,"lon":5.39073,"is_reserved":false,"is_disabled":false,"rental_uris":{"android":"levelo://app?vid=3ca85858-1c4f-4ad2-b471-e77dd1bff75a","ios":"levelo://app?vid=3ca85858-1c4f-4ad2-b471-e77dd1bff75a"},"vehicle_type_id":"4","last_reported":1768922401,"current_range_meters":8400,"station_id":"ce4bhgp2rcd13ifvqfe0","pricing_plan_id":"cebpf4jnsgd1na2vs0mg"},{"bike_id":"55dcf0f7-b8ea-4a56-9214-ebf3cbcd70e2","system_id":"levelo_inurba_marseille","lat":43.29909,"lon":5.38147,"is_reserved":false,"is_disabled":false,"rental_uris":{"android":"levelo://app?vid=55dcf0f7-b8ea-4a56-9214-ebf3cbcd70e2","ios":"levelo://app?vid=55dcf0f7-b8ea-4a56-9214-ebf3cbcd70e2"},"vehicle_type_id":"4","last_reported":1768922401,"current_range_meters":8400,"station_id":"ce4bgj12rcd13ifvqbc0","pricing_plan_id":"cebpf4jnsgd1na2vs0mg"},{"bike_id":"9dff9bae-d519-49ab-850f-a6b93762d1fc","system_id":"levelo_inurba_marseille","lat":43.253392,"lon":5.421684,"is_reserved":false,"is_disabled":false,"rental_uris":{"android":"levelo://app?vid=9dff9bae-d519-49ab-850f-a6b93762d1fc","ios":"levelo://app?vid=9dff9bae-d519-49ab-850f-a6b93762d1fc"},"vehicle_type_id":"4","last_reported":1768922401,"current_range_meters":8400,"station_id":"st_d2m65c5bi1j21697t3ng","pricing_plan_id":"cebpf4jnsgd1na2vs0mg"},{"bike_id":"ab4a1c40-bde0-44c2-86f5-2da65e7d8702","system_id":"levelo_inurba_marseille","lat":43.28435,"lon":5.39188,"is_reserved":false,"is_disabled":false,"rental_uris":{"android":"levelo://app?vid=ab4a1c40-bde0-44c2-86f5-2da65e7d8702","ios":"levelo://app?vid=ab4a1c40-bde0-44c2-86f5-2da65e7d8702"},"vehicle_type_id":"4","last_reported":1768922401,"current_range_meters":8800,"station_id":"ce4bhoh2rcd13ifvqh5g","pricing_plan_id":"cebpf4jnsgd1na2vs0mg"},{"bike_id":"80f2d7a9-ea8b-4f2f-8a0e-cbf1a38f2ddf","system_id":"levelo_inurba_marseille","lat":43.25588,"lon":5.38229,"is_reserved":false,"is_disabled":false,"rental_uris":{"android":"levelo://app?vid=80f2d7a9-ea8b-4f2f-8a0e-cbf1a38f2ddf","ios":"levelo://app?vid=80f2d7a9-ea8b-4f2f-8a0e-cbf1a38f2ddf"},"vehicle_type_id":"4","last_reported":1768922401,"current_range_meters":8800,"station_id":"ce4bhih2rcd13ifvqfs0","pricing_plan_id":"cebpf4jnsgd1na2vs0mg"},{"bike_id":"a347af28-da2b-4eb3-ba68-46d7fd30594b","system_id":"levelo_inurba_marseille","lat":43.25701,"lon":5.41135,"is_reserved":false,"is_disabled":false,"rental_uris":{"android":"levelo://app?vid=a347af28-da2b-4eb3-ba68-46d7fd30594b","ios":"levelo://app?vid=a347af28-da2b-4eb3-ba68-46d7fd30594b"},"vehicle_type_id":"4","last_reported":1768922401,"current_range_meters":8800,"station_id":"ce4bhkp2rcd13ifvqgd0","pricing_plan_id":"cebpf4jnsgd1na2vs0mg"},{"bike_id":"b7d7c2db-c2fc-4cd2-9978-528223c5de8e","system_id":"levelo_inurba_marseille","lat":43.27206,"lon":5.39197,"is_reserved":false,"is_disabled":false,"rental_uris":{"android":"levelo://app?vid=b7d7c2db-c2fc-4cd2-9978-528223c5de8e","ios":"levelo://app?vid=b7d7c2db-c2fc-4cd2-9978-528223c5de8e"},"vehicle_type_id":"4","last_reported":1768922401,"current_range_meters":8800,"station_id":"ce4bhhp2rcd13ifvqfm0","pricing_plan_id":"cebpf4jnsgd1na2vs0mg"},{"bike_id":"fe4b8d92-6b74-4f7f-be90-48717fca1ec3","system_id":"levelo_inurba_marseille","lat":43.337444,"lon":5.374475,"is_reserved":false,"is_disabled":false,"rental_uris":{"android":"levelo://app?vid=fe4b8d92-6b74-4f7f-be90-48717fca1ec3","ios":"levelo://app?vid=fe4b8d92-6b74-4f7f-be90-48717fca1ec3"},"vehicle_type_id":"4","last_reported":1768922401,"current_range_meters":8800,"station_id":"","pricing_plan_id":"cebpf4jnsgd1na2vs0mg"},{"bike_id":"8be23c8f-0ff3-47cf-81b2-0793bab5bb1f","system_id":"levelo_inurba_marseille","lat":43.24178,"lon":5.3971,"is_reserved":false,"is_disabled":false,"rental_uris":{"android":"levelo://app?vid=8be23c8f-0ff3-47cf-81b2-0793bab5bb1f","ios":"levelo://app?vid=8be23c8f-0ff3-47cf-81b2-0793bab5bb1f"},"vehicle_type_id":"4","last_reported":1768922401,"current_range_meters":8800,"station_id":"ce4bhn12rcd13ifvqgpg","pricing_plan_id":"cebpf4jnsgd1na2vs0mg"},{"bike_id":"d65ecb9a-6bda-4676-a531-deb2c8e6f520","system_id":"levelo_inurba_marseille","lat":43.309011,"lon":5.368564,"is_reserved":false,"is_disabled":false,"rental_uris":{"android":"levelo://app?vid=d65ecb9a-6bda-4676-a531-deb2c8e6f520","ios":"levelo://app?vid=d65ecb9a-6bda-4676-a531-deb2c8e6f520"},"vehicle_type_id":"4","last_reported":1768922401,"current_range_meters":8800,"station_id":"ce4bgn92rcd13ifvqbvg","pricing_plan_id":"cebpf4jnsgd1na2vs0mg"},{"bike_id":"82be7d97-718d-4ca3-a208-795195883a7c","system_id":"levelo_inurba_marseille","lat":43.25818,"lon":5.39423,"is_reserved":false,"is_disabled":false,"rental_uris":{"android":"levelo://app?vid=82be7d97-718d-4ca3-a208-795195883a7c","ios":"levelo://app?vid=82be7d97-718d-4ca3-a208-795195883a7c"},"vehicle_type_id":"4","last_reported":1768922401,"current_range_meters":8800,"station_id":"ce4bhip2rcd13ifvqft0","pricing_plan_id":"cebpf4jnsgd1na2vs0mg"},{"bike_id":"9a2ad800-0a03-43fa-8c40-1fdb282b6422","system_id":"levelo_inurba_marseille","lat":43.32476,"lon":5.36553,"is_reserved":false,"is_disabled":false,"rental_uris":{"android":"levelo://app?vid=9a2ad800-0a03-43fa-8c40-1fdb282b6422","ios":"levelo://app?vid=9a2ad800-0a03-43fa-8c40-1fdb282b6422"},"vehicle_type_id":"4","last_reported":1768922401,"current_range_meters":8800,"station_id":"ce4bhs12rcd13ifvqhvg","pricing_plan_id":"cebpf4jnsgd1na2vs0mg"},{"bike_id":"c648ce05-faa1-4b25-b283-bb371b3c83ac","system_id":"levelo_inurba_marseille","lat":43.28894,"lon":5.38183,"is_reserved":false,"is_disabled":false,"rental_uris":{"android":"levelo://app?vid=c648ce05-faa1-4b25-b283-bb371b3c83ac","ios":"levelo://app?vid=c648ce05-faa1-4b25-b283-bb371b3c83ac"},"vehicle_type_id":"4","last_reported":1768922401,"current_range_meters":8800,"station_id":"","pricing_plan_id":"cebpf4jnsgd1na2vs0mg"},{"bike_id":"03c8b8f6-26d6-43f0-b06e-1c354011d6d4","system_id":"levelo_inurba_marseille","lat":43.30544,"lon":5.36526,"is_reserved":false,"is_disabled":false,"rental_uris":{"android":"levelo://app?vid=03c8b8f6-26d6-43f0-b06e-1c354011d6d4","ios":"levelo://app?vid=03c8b8f6-26d6-43f0-b06e-1c354011d6d4"},"vehicle_type_id":"4","last_reported":1768922401,"current_range_meters":8800,"station_id":"ce4bgs12rcd13ifvqcag","pricing_plan_id":"cebpf4jnsgd1na2vs0mg"},{"bike_id":"b3b51a6b-2421-4b77-9215-4368c6501a43","system_id":"levelo_inurba_marseille","lat":43.29935,"lon":5.36543,"is_reserved":false,"is_disabled":false,"rental_uris":{"android":"levelo://app?vid=b3b51a6b-2421-4b77-9215-4368c6501a43","ios":"levelo://app?vid=b3b51a6b-2421-4b77-9215-4368c6501a43"},"vehicle_type_id":"4","last_reported":1768922401,"current_range_meters":8800,"station_id":"ce4bgm92rcd13ifvqbr0","pricing_plan_id":"cebpf4jnsgd1na2vs0mg"},{"bike_id":"89099d15-aab5-4fd3-91c4-ba522e3bc616","system_id":"levelo_inurba_marseille","lat":43.28615,"lon":5.35104,"is_reserved":false,"is_disabled":false,"rental_uris":{"android":"levelo://app?vid=89099d15-aab5-4fd3-91c4-ba522e3bc616","ios":"levelo://app?vid=89099d15-aab5-4fd3-91c4-ba522e3bc616"},"vehicle_type_id":"4","last_reported":1768922401,"current_range_meters":8800,"station_id":"ce4bhch2rcd13ifvqeug","pricing_plan_id":"cebpf4jnsgd1na2vs0mg"},{"bike_id":"d6cd796c-ce30-4e18-a8ac-0259e62aaa47","system_id":"levelo_inurba_marseille","lat":43.25923,"lon":5.40893,"is_reserved":false,"is_disabled":false,"rental_uris":{"android":"levelo://app?vid=d6cd796c-ce30-4e18-a8ac-0259e62aaa47","ios":"levelo://app?vid=d6cd796c-ce30-4e18-a8ac-0259e62aaa47"},"vehicle_type_id":"4","last_reported":1768922401,"current_range_meters":8800,"station_id":"ce4bhm92rcd13ifvqglg","pricing_plan_id":"cebpf4jnsgd1na2vs0mg"},{"bike_id":"3f4e4e0f-b8e1-4a3d-a07d-e6788420d14d","system_id":"levelo_inurba_marseille","lat":43.28666,"lon":5.38663,"is_reserved":false,"is_disabled":false,"rental_uris":{"android":"levelo://app?vid=3f4e4e0f-b8e1-4a3d-a07d-e6788420d14d","ios":"levelo://app?vid=3f4e4e0f-b8e1-4a3d-a07d-e6788420d14d"},"vehicle_type_id":"4","last_reported":1768922401,"current_range_meters":8800,"station_id":"ce4bh492rcd13ifvqdug","pricing_plan_id":"cebpf4jnsgd1na2vs0mg"},{"bike_id":"b605c901-010e-4de7-af0a-94e21ae9d836","system_id":"levelo_inurba_marseille","lat":43.32487,"lon":5.38293,"is_reserved":false,"is_disabled":false,"rental_uris":{"android":"levelo://app?vid=b605c901-010e-4de7-af0a-94e21ae9d836","ios":"levelo://app?vid=b605c901-010e-4de7-af0a-94e21ae9d836"},"vehicle_type_id":"4","last_reported":1768922401,"current_range_meters":8800,"station_id":"st_d4asgbiv49dc73anf9m0","pricing_plan_id":"cebpf4jnsgd1na2vs0mg"},{"bike_id":"5dbfcf3f-7cec-4c29-8168-14f9c37f7762","system_id":"levelo_inurba_marseille","lat":43.225603,"lon":5.416328,"is_reserved":false,"is_disabled":false,"rental_uris":{"android":"levelo://app?vid=5dbfcf3f-7cec-4c29-8168-14f9c37f7762","ios":"levelo://app?vid=5dbfcf3f-7cec-4c29-8168-14f9c37f7762"},"vehicle_type_id":"4","last_reported":1768922401,"current_range_meters":8800,"station_id":"st_d2o4gvlbi1j2169b742g","pricing_plan_id":"cebpf4jnsgd1na2vs0mg"},{"bike_id":"2cf1ea64-26bb-4964-939a-03465aee6659","system_id":"levelo_inurba_marseille","lat":43.22557,"lon":5.41623,"is_reserved":false,"is_disabled":false,"rental_uris":{"android":"levelo://app?vid=2cf1ea64-26bb-4964-939a-03465aee6659","ios":"levelo://app?vid=2cf1ea64-26bb-4964-939a-03465aee6659"},"vehicle_type_id":"4","last_reported":1768922401,"current_range_meters":8800,"station_id":"st_d2o4gvlbi1j2169b742g","pricing_plan_id":"cebpf4jnsgd1na2vs0mg"},{"bike_id":"8155f86b-6d64-4287-9ed7-7fbe9d103dde","system_id":"levelo_inurba_marseille","lat":43.2257,"lon":5.41634,"is_reserved":false,"is_disabled":false,"rental_uris":{"android":"levelo://app?vid=8155f86b-6d64-4287-9ed7-7fbe9d103dde","ios":"levelo://app?vid=8155f86b-6d64-4287-9ed7-7fbe9d103dde"},"vehicle_type_id":"4","last_reported":1768922401,"current_range_meters":8800,"station_id":"st_d2o4gvlbi1j2169b742g","pricing_plan_id":"cebpf4jnsgd1na2vs0mg"},{"bike_id":"d26e6b95-e3c6-4a51-ad6e-476f361ae8e8","system_id":"levelo_inurba_marseille","lat":43.31751,"lon":5.38995,"is_reserved":false,"is_disabled":false,"rental_uris":{"android":"levelo://app?vid=d26e6b95-e3c6-4a51-ad6e-476f361ae8e8","ios":"levelo://app?vid=d26e6b95-e3c6-4a51-ad6e-476f361ae8e8"},"vehicle_type_id":"4","last_reported":1768922401,"current_range_meters":8800,"station_id":"ce4bhqp2rcd13ifvqhng","pricing_plan_id":"cebpf4jnsgd1na2vs0mg"},{"bike_id":"a2b251b5-393a-49c3-992b-d635e00cb9e3","system_id":"levelo_inurba_marseille","lat":43.276673,"lon":5.389186,"is_reserved":false,"is_disabled":false,"rental_uris":{"android":"levelo://app?vid=a2b251b5-393a-49c3-992b-d635e00cb9e3","ios":"levelo://app?vid=a2b251b5-393a-49c3-992b-d635e00cb9e3"},"vehicle_type_id":"4","last_reported":1768922401,"current_range_meters":8800,"station_id":"ce4bhi12rcd13ifvqfo0","pricing_plan_id":"cebpf4jnsgd1na2vs0mg"},{"bike_id":"7f57e4b7-adcc-40f6-a2f9-1294ef7abba0","system_id":"levelo_inurba_marseille","lat":43.309,"lon":5.36876,"is_reserved":false,"is_disabled":false,"rental_uris":{"android":"levelo://app?vid=7f57e4b7-adcc-40f6-a2f9-1294ef7abba0","ios":"levelo://app?vid=7f57e4b7-adcc-40f6-a2f9-1294ef7abba0"},"vehicle_type_id":"4","last_reported":1768922401,"current_range_meters":9200,"station_id":"ce4bgn92rcd13ifvqbvg","pricing_plan_id":"cebpf4jnsgd1na2vs0mg"},{"bike_id":"9fe9b7fa-bf5e-456b-b148-d56a572e2392","system_id":"levelo_inurba_marseille","lat":43.22565,"lon":5.41622,"is_reserved":false,"is_disabled":false,"rental_uris":{"android":"levelo://app?vid=9fe9b7fa-bf5e-456b-b148-d56a572e2392","ios":"levelo://app?vid=9fe9b7fa-bf5e-456b-b148-d56a572e2392"},"vehicle_type_id":"4","last_reported":1768922401,"current_range_meters":9200,"station_id":"st_d2o4gvlbi1j2169b742g","pricing_plan_id":"cebpf4jnsgd1na2vs0mg"},{"bike_id":"56496f15-285b-4dff-92b3-54ffdff3e399","system_id":"levelo_inurba_marseille","lat":43.268188,"lon":5.396305,"is_reserved":false,"is_disabled":false,"rental_uris":{"android":"levelo://app?vid=56496f15-285b-4dff-92b3-54ffdff3e399","ios":"levelo://app?vid=56496f15-285b-4dff-92b3-54ffdff3e399"},"vehicle_type_id":"4","last_reported":1768922401,"current_range_meters":9200,"station_id":"","pricing_plan_id":"cebpf4jnsgd1na2vs0mg"},{"bike_id":"4eba8ab0-a760-4c8f-be2e-adcd88a4d0b1","system_id":"levelo_inurba_marseille","lat":43.26625,"lon":5.39422,"is_reserved":false,"is_disabled":false,"rental_uris":{"android":"levelo://app?vid=4eba8ab0-a760-4c8f-be2e-adcd88a4d0b1","ios":"levelo://app?vid=4eba8ab0-a760-4c8f-be2e-adcd88a4d0b1"},"vehicle_type_id":"4","last_reported":1768922401,"current_range_meters":9200,"station_id":"","pricing_plan_id":"cebpf4jnsgd1na2vs0mg"},{"bike_id":"dc99e887-99d3-438b-b7ee-d27d4781096e","system_id":"levelo_inurba_marseille","lat":43.30134,"lon":5.43088,"is_reserved":false,"is_disabled":false,"rental_uris":{"android":"levelo://app?vid=dc99e887-99d3-438b-b7ee-d27d4781096e","ios":"levelo://app?vid=dc99e887-99d3-438b-b7ee-d27d4781096e"},"vehicle_type_id":"4","last_reported":1768922401,"current_range_meters":9200,"station_id":"st_d3js3co5814s73ftftug","pricing_plan_id":"cebpf4jnsgd1na2vs0mg"},{"bike_id":"33fa26f0-0d41-40f0-937f-42edd0fc6d0d","system_id":"levelo_inurba_marseille","lat":43.25579,"lon":5.38223,"is_reserved":false,"is_disabled":false,"rental_uris":{"android":"levelo://app?vid=33fa26f0-0d41-40f0-937f-42edd0fc6d0d","ios":"levelo://app?vid=33fa26f0-0d41-40f0-937f-42edd0fc6d0d"},"vehicle_type_id":"4","last_reported":1768922401,"current_range_meters":9200,"station_id":"ce4bhih2rcd13ifvqfs0","pricing_plan_id":"cebpf4jnsgd1na2vs0mg"},{"bike_id":"ab30be93-f3bc-4651-99c2-0b47a22aed38","system_id":"levelo_inurba_marseille","lat":43.31186,"lon":5.36805,"is_reserved":false,"is_disabled":false,"rental_uris":{"android":"levelo://app?vid=ab30be93-f3bc-4651-99c2-0b47a22aed38","ios":"levelo://app?vid=ab30be93-f3bc-4651-99c2-0b47a22aed38"},"vehicle_type_id":"4","last_reported":1768922401,"current_range_meters":9200,"station_id":"","pricing_plan_id":"cebpf4jnsgd1na2vs0mg"},{"bike_id":"4718ff4a-0503-4f23-8908-6000912f2b73","system_id":"levelo_inurba_marseille","lat":43.300622,"lon":5.389843,"is_reserved":false,"is_disabled":false,"rental_uris":{"android":"levelo://app?vid=4718ff4a-0503-4f23-8908-6000912f2b73","ios":"levelo://app?vid=4718ff4a-0503-4f23-8908-6000912f2b73"},"vehicle_type_id":"4","last_reported":1768922401,"current_range_meters":9200,"station_id":"ce4bh392rcd13ifvqdl0","pricing_plan_id":"cebpf4jnsgd1na2vs0mg"},{"bike_id":"3b354a2e-ec16-4128-9f6e-f06cb1073091","system_id":"levelo_inurba_marseille","lat":43.2446,"lon":5.42553,"is_reserved":false,"is_disabled":false,"rental_uris":{"android":"levelo://app?vid=3b354a2e-ec16-4128-9f6e-f06cb1073091","ios":"levelo://app?vid=3b354a2e-ec16-4128-9f6e-f06cb1073091"},"vehicle_type_id":"4","last_reported":1768922401,"current_range_meters":9200,"station_id":"st_d4a3vfp97mjs738cd8kg","pricing_plan_id":"cebpf4jnsgd1na2vs0mg"},{"bike_id":"29bfec45-ad76-429c-882a-34b6f5ca4191","system_id":"levelo_inurba_marseille","lat":43.32101,"lon":5.36805,"is_reserved":false,"is_disabled":false,"rental_uris":{"android":"levelo://app?vid=29bfec45-ad76-429c-882a-34b6f5ca4191","ios":"levelo://app?vid=29bfec45-ad76-429c-882a-34b6f5ca4191"},"vehicle_type_id":"4","last_reported":1768922401,"current_range_meters":9200,"station_id":"ce4bhrh2rcd13ifvqhug","pricing_plan_id":"cebpf4jnsgd1na2vs0mg"},{"bike_id":"416786c9-5441-4ae2-97be-8dd18ff4a833","system_id":"levelo_inurba_marseille","lat":43.26559,"lon":5.40317,"is_reserved":false,"is_disabled":false,"rental_uris":{"android":"levelo://app?vid=416786c9-5441-4ae2-97be-8dd18ff4a833","ios":"levelo://app?vid=416786c9-5441-4ae2-97be-8dd18ff4a833"},"vehicle_type_id":"4","last_reported":1768922401,"current_range_meters":9200,"station_id":"ce4bhmp2rcd13ifvqgng","pricing_plan_id":"cebpf4jnsgd1na2vs0mg"},{"bike_id":"67ff9a75-4fe8-45e7-914d-fc416a457597","system_id":"levelo_inurba_marseille","lat":43.32115,"lon":5.3677,"is_reserved":false,"is_disabled":false,"rental_uris":{"android":"levelo://app?vid=67ff9a75-4fe8-45e7-914d-fc416a457597","ios":"levelo://app?vid=67ff9a75-4fe8-45e7-914d-fc416a457597"},"vehicle_type_id":"4","last_reported":1768922401,"current_range_meters":9600,"station_id":"ce4bhrh2rcd13ifvqhug","pricing_plan_id":"cebpf4jnsgd1na2vs0mg"},{"bike_id":"99d65f09-c0e6-4f0f-b72f-6e110c0f1bd4","system_id":"levelo_inurba_marseille","lat":43.29007,"lon":5.3759,"is_reserved":false,"is_disabled":false,"rental_uris":{"android":"levelo://app?vid=99d65f09-c0e6-4f0f-b72f-6e110c0f1bd4","ios":"levelo://app?vid=99d65f09-c0e6-4f0f-b72f-6e110c0f1bd4"},"vehicle_type_id":"4","last_reported":1768922401,"current_range_meters":9600,"station_id":"ce4bh692rcd13ifvqe90","pricing_plan_id":"cebpf4jnsgd1na2vs0mg"},{"bike_id":"5f477738-733e-4c98-961a-33429c5938fd","system_id":"levelo_inurba_marseille","lat":43.260586,"lon":5.393984,"is_reserved":false,"is_disabled":false,"rental_uris":{"android":"levelo://app?vid=5f477738-733e-4c98-961a-33429c5938fd","ios":"levelo://app?vid=5f477738-733e-4c98-961a-33429c5938fd"},"vehicle_type_id":"4","last_reported":1768922401,"current_range_meters":9600,"station_id":"ce4bhh92rcd13ifvqfj0","pricing_plan_id":"cebpf4jnsgd1na2vs0mg"},{"bike_id":"15ccdf78-0a1e-4fd5-b0c4-4f6e9767e515","system_id":"levelo_inurba_marseille","lat":43.2756,"lon":5.38417,"is_reserved":false,"is_disabled":false,"rental_uris":{"android":"levelo://app?vid=15ccdf78-0a1e-4fd5-b0c4-4f6e9767e515","ios":"levelo://app?vid=15ccdf78-0a1e-4fd5-b0c4-4f6e9767e515"},"vehicle_type_id":"4","last_reported":1768922401,"current_range_meters":9600,"station_id":"ce4bhh92rcd13ifvqfi0","pricing_plan_id":"cebpf4jnsgd1na2vs0mg"},{"bike_id":"054e163b-1e47-4a0a-a038-a7939885860e","system_id":"levelo_inurba_marseille","lat":43.32358,"lon":5.36759,"is_reserved":false,"is_disabled":false,"rental_uris":{"android":"levelo://app?vid=054e163b-1e47-4a0a-a038-a7939885860e","ios":"levelo://app?vid=054e163b-1e47-4a0a-a038-a7939885860e"},"vehicle_type_id":"4","last_reported":1768922401,"current_range_meters":9600,"station_id":"ce4bhsh2rcd13ifvqi2g","pricing_plan_id":"cebpf4jnsgd1na2vs0mg"},{"bike_id":"f6c21c56-f326-4185-9ff4-2e991fd6aae5","system_id":"levelo_inurba_marseille","lat":43.310553,"lon":5.371699,"is_reserved":false,"is_disabled":false,"rental_uris":{"android":"levelo://app?vid=f6c21c56-f326-4185-9ff4-2e991fd6aae5","ios":"levelo://app?vid=f6c21c56-f326-4185-9ff4-2e991fd6aae5"},"vehicle_type_id":"4","last_reported":1768922401,"current_range_meters":9600,"station_id":"st_d4kl2rp97mjs73e7tdfg","pricing_plan_id":"cebpf4jnsgd1na2vs0mg"},{"bike_id":"3add45f3-adea-4d6b-962f-31a9074e8e8f","system_id":"levelo_inurba_marseille","lat":43.24183,"lon":5.3969,"is_reserved":false,"is_disabled":false,"rental_uris":{"android":"levelo://app?vid=3add45f3-adea-4d6b-962f-31a9074e8e8f","ios":"levelo://app?vid=3add45f3-adea-4d6b-962f-31a9074e8e8f"},"vehicle_type_id":"4","last_reported":1768922401,"current_range_meters":9600,"station_id":"ce4bhn12rcd13ifvqgpg","pricing_plan_id":"cebpf4jnsgd1na2vs0mg"},{"bike_id":"99930023-4f93-4749-9faf-99c0761e2fac","system_id":"levelo_inurba_marseille","lat":43.27803,"lon":5.40703,"is_reserved":false,"is_disabled":false,"rental_uris":{"android":"levelo://app?vid=99930023-4f93-4749-9faf-99c0761e2fac","ios":"levelo://app?vid=99930023-4f93-4749-9faf-99c0761e2fac"},"vehicle_type_id":"4","last_reported":1768922401,"current_range_meters":9600,"station_id":"ce4bhnh2rcd13ifvqgtg","pricing_plan_id":"cebpf4jnsgd1na2vs0mg"},{"bike_id":"303ea08f-80a6-447c-b007-f273ffea8055","system_id":"levelo_inurba_marseille","lat":43.26571,"lon":5.39008,"is_reserved":false,"is_disabled":false,"rental_uris":{"android":"levelo://app?vid=303ea08f-80a6-447c-b007-f273ffea8055","ios":"levelo://app?vid=303ea08f-80a6-447c-b007-f273ffea8055"},"vehicle_type_id":"4","last_reported":1768922401,"current_range_meters":9600,"station_id":"ce4bhe12rcd13ifvqf30","pricing_plan_id":"cebpf4jnsgd1na2vs0mg"},{"bike_id":"31c21be6-18ca-494d-8d01-2f205767068d","system_id":"levelo_inurba_marseille","lat":43.31852,"lon":5.37457,"is_reserved":false,"is_disabled":false,"rental_uris":{"android":"levelo://app?vid=31c21be6-18ca-494d-8d01-2f205767068d","ios":"levelo://app?vid=31c21be6-18ca-494d-8d01-2f205767068d"},"vehicle_type_id":"4","last_reported":1768922401,"current_range_meters":9600,"station_id":"","pricing_plan_id":"cebpf4jnsgd1na2vs0mg"},{"bike_id":"87651664-a394-44b3-a88d-1c7bf46288bb","system_id":"levelo_inurba_marseille","lat":43.3254,"lon":5.41425,"is_reserved":false,"is_disabled":false,"rental_uris":{"android":"levelo://app?vid=87651664-a394-44b3-a88d-1c7bf46288bb","ios":"levelo://app?vid=87651664-a394-44b3-a88d-1c7bf46288bb"},"vehicle_type_id":"4","last_reported":1768922401,"current_range_meters":9600,"station_id":"ce4bhq12rcd13ifvqhhg","pricing_plan_id":"cebpf4jnsgd1na2vs0mg"},{"bike_id":"9da4c6f8-188e-4645-be17-0cc850e7558c","system_id":"levelo_inurba_marseille","lat":43.23176,"lon":5.39986,"is_reserved":false,"is_disabled":false,"rental_uris":{"android":"levelo://app?vid=9da4c6f8-188e-4645-be17-0cc850e7558c","ios":"levelo://app?vid=9da4c6f8-188e-4645-be17-0cc850e7558c"},"vehicle_type_id":"4","last_reported":1768922401,"current_range_meters":9600,"station_id":"ce4bhn12rcd13ifvqgqg","pricing_plan_id":"cebpf4jnsgd1na2vs0mg"},{"bike_id":"e71d7be0-4c20-4596-8edf-a9c20c73c110","system_id":"levelo_inurba_marseille","lat":43.27998,"lon":5.41674,"is_reserved":false,"is_disabled":false,"rental_uris":{"android":"levelo://app?vid=e71d7be0-4c20-4596-8edf-a9c20c73c110","ios":"levelo://app?vid=e71d7be0-4c20-4596-8edf-a9c20c73c110"},"vehicle_type_id":"4","last_reported":1768922401,"current_range_meters":9600,"station_id":"ce4bho12rcd13ifvqh1g","pricing_plan_id":"cebpf4jnsgd1na2vs0mg"},{"bike_id":"92c0b22f-316b-4f82-b4b3-18c42c106805","system_id":"levelo_inurba_marseille","lat":43.24149,"lon":5.39729,"is_reserved":false,"is_disabled":false,"rental_uris":{"android":"levelo://app?vid=92c0b22f-316b-4f82-b4b3-18c42c106805","ios":"levelo://app?vid=92c0b22f-316b-4f82-b4b3-18c42c106805"},"vehicle_type_id":"4","last_reported":1768922401,"current_range_meters":9600,"station_id":"ce4bhn12rcd13ifvqgpg","pricing_plan_id":"cebpf4jnsgd1na2vs0mg"},{"bike_id":"2c0995a4-2dde-4941-9bf7-449a4c636ac0","system_id":"levelo_inurba_marseille","lat":43.24409,"lon":5.37075,"is_reserved":false,"is_disabled":false,"rental_uris":{"android":"levelo://app?vid=2c0995a4-2dde-4941-9bf7-449a4c636ac0","ios":"levelo://app?vid=2c0995a4-2dde-4941-9bf7-449a4c636ac0"},"vehicle_type_id":"4","last_reported":1768922401,"current_range_meters":9600,"station_id":"ce4bhhh2rcd13ifvqfk0","pricing_plan_id":"cebpf4jnsgd1na2vs0mg"},{"bike_id":"e2c28729-8d62-45b4-8926-9ab1e71d898f","system_id":"levelo_inurba_marseille","lat":43.29822,"lon":5.36561,"is_reserved":false,"is_disabled":false,"rental_uris":{"android":"levelo://app?vid=e2c28729-8d62-45b4-8926-9ab1e71d898f","ios":"levelo://app?vid=e2c28729-8d62-45b4-8926-9ab1e71d898f"},"vehicle_type_id":"4","last_reported":1768922401,"current_range_meters":9600,"station_id":"","pricing_plan_id":"cebpf4jnsgd1na2vs0mg"},{"bike_id":"f6588e0a-1212-4ee4-af80-9b48ab226ff3","system_id":"levelo_inurba_marseille","lat":43.29985,"lon":5.3716,"is_reserved":false,"is_disabled":false,"rental_uris":{"android":"levelo://app?vid=f6588e0a-1212-4ee4-af80-9b48ab226ff3","ios":"levelo://app?vid=f6588e0a-1212-4ee4-af80-9b48ab226ff3"},"vehicle_type_id":"4","last_reported":1768922401,"current_range_meters":9600,"station_id":"ce4bgr92rcd13ifvqc7g","pricing_plan_id":"cebpf4jnsgd1na2vs0mg"},{"bike_id":"e47dfb0a-fd42-4915-8bd4-c942b77cb4c9","system_id":"levelo_inurba_marseille","lat":43.25575,"lon":5.38244,"is_reserved":false,"is_disabled":false,"rental_uris":{"android":"levelo://app?vid=e47dfb0a-fd42-4915-8bd4-c942b77cb4c9","ios":"levelo://app?vid=e47dfb0a-fd42-4915-8bd4-c942b77cb4c9"},"vehicle_type_id":"4","last_reported":1768922401,"current_range_meters":9600,"station_id":"ce4bhih2rcd13ifvqfs0","pricing_plan_id":"cebpf4jnsgd1na2vs0mg"},{"bike_id":"0dbe140c-5263-4255-8ab7-a1e58b4e4290","system_id":"levelo_inurba_marseille","lat":43.27494,"lon":5.42449,"is_reserved":false,"is_disabled":false,"rental_uris":{"android":"levelo://app?vid=0dbe140c-5263-4255-8ab7-a1e58b4e4290","ios":"levelo://app?vid=0dbe140c-5263-4255-8ab7-a1e58b4e4290"},"vehicle_type_id":"4","last_reported":1768922401,"current_range_meters":9600,"station_id":"ce4bhn92rcd13ifvqgrg","pricing_plan_id":"cebpf4jnsgd1na2vs0mg"},{"bike_id":"83098069-1cb7-423e-af0c-9e55721265a8","system_id":"levelo_inurba_marseille","lat":43.31468,"lon":5.45419,"is_reserved":false,"is_disabled":false,"rental_uris":{"android":"levelo://app?vid=83098069-1cb7-423e-af0c-9e55721265a8","ios":"levelo://app?vid=83098069-1cb7-423e-af0c-9e55721265a8"},"vehicle_type_id":"4","last_reported":1768922401,"current_range_meters":9600,"station_id":"","pricing_plan_id":"cebpf4jnsgd1na2vs0mg"},{"bike_id":"3ce5fa2e-c28c-488d-ae3c-3bf16a92a7cc","system_id":"levelo_inurba_marseille","lat":43.24652,"lon":5.43136,"is_reserved":false,"is_disabled":false,"rental_uris":{"android":"levelo://app?vid=3ce5fa2e-c28c-488d-ae3c-3bf16a92a7cc","ios":"levelo://app?vid=3ce5fa2e-c28c-488d-ae3c-3bf16a92a7cc"},"vehicle_type_id":"4","last_reported":1768922401,"current_range_meters":10000,"station_id":"st_d2m6c4gdas8pm72e190g","pricing_plan_id":"cebpf4jnsgd1na2vs0mg"},{"bike_id":"472260dc-8c79-4799-832c-8159c68cfde1","system_id":"levelo_inurba_marseille","lat":43.29533,"lon":5.37495,"is_reserved":false,"is_disabled":false,"rental_uris":{"android":"levelo://app?vid=472260dc-8c79-4799-832c-8159c68cfde1","ios":"levelo://app?vid=472260dc-8c79-4799-832c-8159c68cfde1"},"vehicle_type_id":"4","last_reported":1768922401,"current_range_meters":10000,"station_id":"ce4bgkp2rcd13ifvqbmg","pricing_plan_id":"cebpf4jnsgd1na2vs0mg"},{"bike_id":"49ce5988-d898-4ca4-9740-4914274f0091","system_id":"levelo_inurba_marseille","lat":43.32131,"lon":5.36806,"is_reserved":false,"is_disabled":false,"rental_uris":{"android":"levelo://app?vid=49ce5988-d898-4ca4-9740-4914274f0091","ios":"levelo://app?vid=49ce5988-d898-4ca4-9740-4914274f0091"},"vehicle_type_id":"4","last_reported":1768922401,"current_range_meters":10000,"station_id":"ce4bhrh2rcd13ifvqhug","pricing_plan_id":"cebpf4jnsgd1na2vs0mg"},{"bike_id":"f73788f7-dec5-4308-a431-6e346b811946","system_id":"levelo_inurba_marseille","lat":43.30203,"lon":5.38053,"is_reserved":false,"is_disabled":false,"rental_uris":{"android":"levelo://app?vid=f73788f7-dec5-4308-a431-6e346b811946","ios":"levelo://app?vid=f73788f7-dec5-4308-a431-6e346b811946"},"vehicle_type_id":"4","last_reported":1768922401,"current_range_meters":10000,"station_id":"","pricing_plan_id":"cebpf4jnsgd1na2vs0mg"},