{"last_updated":1751116827,"ttl":60,"version":"2.2","data":{"bikes":[{"bike_id":"3da29fb8-fc97-44c6-b9ac-31dd456b2fd4","system_id":"levelo_inurba_marseille","lat":43.33771,"lon":5.37424,"is_reserved":false,"is_disabled":true,"rental_uris":{"android":"levelo://app?vid=3da29fb8-fc97-44c6-b9ac-31dd456b2fd4","ios":"levelo://app?vid=3da29fb8-fc97-44c6-b9ac-31dd456b2fd4"},"vehicle_type_id":"4","last_reported":1751116828,"current_range_meters":0,"station_id":"","pricing_plan_id":"cebpf4jnsgd1na2vs0mg"},{"bike_id":"01861ad8-a8d7-4be6-816e-651927c87584","system_id":"levelo_inurba_marseille","lat":43.33751,"lon":5.37456,"is_reserved":false,"is_disabled":true,"rental_uris":{"android":"levelo://app?vid=01861ad8-a8d7-4be6-816e-651927c87584","ios":"levelo://app?vid=01861ad8-a8d7-4be6-816e-651927c87584"},"vehicle_type_id":"4","last_reported":1751116828,"current_range_meters":0,"station_id":"","pricing_plan_id":"cebpf4jnsgd1na2vs0mg"},{"bike_id":"77673b0f-fa8d-4a5f-802e-e3125964cb45","system_id":"levelo_inurba_marseille","lat":43.33097,"lon":5.36491,"is_reserved":false,"is_disabled":true,"rental_uris":{"android":"levelo://app?vid=77673b0f-fa8d-4a5f-802e-e3125964cb45","ios":"levelo://app?vid=77673b0f-fa8d-4a5f-802e-e3125964cb45"},"vehicle_type_id":"4","last_reported":1751116828,"current_range_meters":0,"station_id":"","pricing_plan_id":"cebpf4jnsgd1na2vs0mg"},{"bike_id":"e9a7f2ce-f5b2-41e5-b572-5533013492a4","system_id":"levelo_inurba_marseille","lat":43.337444,"lon":5.374475,"is_reserved":false,"is_disabled":true,"rental_uris":{"android":"levelo://app?vid=e9a7f2ce-f5b2-41e5-b572-5533013492a4","ios":"levelo://app?vid=e9a7f2ce-f5b2-41e5-b572-5533013492a4"},"vehicle_type_id":"4","last_reported":1751116828,"current_range_meters":0,"station_id":"","pricing_plan_id":"cebpf4jnsgd1na2vs0mg"},{"bike_id":"c9f46188-712e-40bf-99a0-bfaf90c06564","system_id":"levelo_inurba_marseille","lat":43.23187,"lon":5.35617,"is_reserved":false,"is_disabled":true,"rental_uris":{"android":"levelo://app?vid=c9f46188-712e-40bf-99a0-bfaf90c06564","ios":"levelo://app?vid=c9f46188-712e-40bf-99a0-bfaf90c06564"},"vehicle_type_id":"4","last_reported":1751116828,"current_range_meters":0,"station_id":"","pricing_plan_id":"cebpf4jnsgd1na2vs0mg"},{"bike_id":"11157c85-18e9-4dd9-8640-2dc58a5c587d","system_id":"levelo_inurba_marseille","lat":43.311123,"lon":5.377687,"is_reserved":false,"is_disabled":true,"rental_uris":{"android":"levelo://app?vid=11157c85-18e9-4dd9-8640-2dc58a5c587d","ios":"levelo://app?vid=11157c85-18e9-4dd9-8640-2dc58a5c587d"},"vehicle_type_id":"4","last_reported":1751116828,"current_range_meters":0,"station_id":"ce4bgt92rcd13ifvqcg0","pricing_plan_id":"cebpf4jnsgd1na2vs0mg"},{"bike_id":"a0aa7f48-2c07-453d-845a-eaeace62b973","system_id":"levelo_inurba_marseille","lat":43.31104,"lon":5.37765,"is_reserved":false,"is_disabled":true,"rental_uris":{"android":"levelo://app?vid=a0aa7f48-2c07-453d-845a-eaeace62b973","ios":"levelo://app?vid=a0aa7f48-2c07-453d-845a-eaeace62b973"},"vehicle_type_id":"4","last_reported":1751116828,"current_range_meters":0,"station_id":"ce4bgt92rcd13ifvqcg0","pricing_plan_id":"cebpf4jnsgd1na2vs0mg"},{"bike_id":"ffba12b6-f6d4-4ab8-9ed9-ebad66326c7e","system_id":"levelo_inurba_marseille","lat":43.28674,"lon":5.38658,"is_reserved":false,"is_disabled":true,"rental_uris":{"android":"levelo://app?vid=ffba12b6-f6d4-4ab8-9ed9-ebad66326c7e","ios":"levelo://app?vid=ffba12b6-f6d4-4ab8-9ed9-ebad66326c7e"},"vehicle_type_id":"4","last_reported":1751116828,"current_range_meters":0,"station_id":"ce4bh492rcd13ifvqdug","pricing_plan_id":"cebpf4jnsgd1na2vs0mg"},{"bike_id":"3989d234-0e42-4292-9150-5e1285da93a1","system_id":"levelo_inurba_marseille","lat":43.26213,"lon":5.37439,"is_reserved":false,"is_disabled":true,"rental_uris":{"android":"levelo://app?vid=3989d234-0e42-4292-9150-5e1285da93a1","ios":"levelo://app?vid=3989d234-0e42-4292-9150-5e1285da93a1"},"vehicle_type_id":"4","last_reported":1751116828,"current_range_meters":0,"station_id":"ce4bhgp2rcd13ifvqfc0","pricing_plan_id":"cebpf4jnsgd1na2vs0mg"},{"bike_id":"85072197-e9fe-4fc0-a926-3d1345b26b94","system_id":"levelo_inurba_marseille","lat":43.267846,"lon":5.394191,"is_reserved":false,"is_disabled":true,"rental_uris":{"android":"levelo://app?vid=85072197-e9fe-4fc0-a926-3d1345b26b94","ios":"levelo://app?vid=85072197-e9fe-4fc0-a926-3d1345b26b94"},"vehicle_type_id":"4","last_reported":1751116828,"current_range_meters":0,"station_id":"ce4bhh12rcd13ifvqfg0","pricing_plan_id":"cebpf4jnsgd1na2vs0mg"},{"bike_id":"71eaeb64-91da-45ad-b086-cb828ebcd35b","system_id":"levelo_inurba_marseille","lat":43.24378,"lon":5.37087,"is_reserved":false,"is_disabled":true,"rental_uris":{"android":"levelo://app?vid=71eaeb64-91da-45ad-b086-cb828ebcd35b","ios":"levelo://app?vid=71eaeb64-91da-45ad-b086-cb828ebcd35b"},"vehicle_type_id":"4","last_reported":1751116828,"current_range_meters":0,"station_id":"ce4bhhh2rcd13ifvqfk0","pricing_plan_id":"cebpf4jnsgd1na2vs0mg"},{"bike_id":"e2c79a58-e269-44a4-a0ea-f3d46e866747","system_id":"levelo_inurba_marseille","lat":43.27173,"lon":5.4099,"is_reserved":false,"is_disabled":true,"rental_uris":{"android":"levelo://app?vid=e2c79a58-e269-44a4-a0ea-f3d46e866747","ios":"levelo://app?vid=e2c79a58-e269-44a4-a0ea-f3d46e866747"},"vehicle_type_id":"4","last_reported":1751116828,"current_range_meters":0,"station_id":"ce4bhl12rcd13ifvqgf0","pricing_plan_id":"cebpf4jnsgd1na2vs0mg"},{"bike_id":"6c62fe15-b37d-45e6-866e-a8f84312c5b8","system_id":"levelo_inurba_marseille","lat":43.284856,"lon":5.385639,"is_reserved":false,"is_disabled":true,"rental_uris":{"android":"levelo://app?vid=6c62fe15-b37d-45e6-866e-a8f84312c5b8","ios":"levelo://app?vid=6c62fe15-b37d-45e6-866e-a8f84312c5b8"},"vehicle_type_id":"4","last_reported":1751116828,"current_range_meters":0,"station_id":"ce4bhnp2rcd13ifvqgvg","pricing_plan_id":"cebpf4jnsgd1na2vs0mg"},{"bike_id":"92d3bb11-4cf3-47e6-bc0f-ff80eea58ad1","system_id":"levelo_inurba_marseille","lat":43.30392,"lon":5.42481,"is_reserved":false,"is_disabled":true,"rental_uris":{"android":"levelo://app?vid=92d3bb11-4cf3-47e6-bc0f-ff80eea58ad1","ios":"levelo://app?vid=92d3bb11-4cf3-47e6-bc0f-ff80eea58ad1"},"vehicle_type_id":"4","last_reported":1751116828,"current_range_meters":0,"station_id":"ce4bhoh2rcd13ifvqh6g","pricing_plan_id":"cebpf4jnsgd1na2vs0mg"},{"bike_id":"c8ce0351-fe68-40b1-beb5-45d8ee0eed11","system_id":"levelo_inurba_marseille","lat":43.30376,"lon":5.42491,"is_reserved":false,"is_disabled":true,"rental_uris":{"android":"levelo://app?vid=c8ce0351-fe68-40b1-beb5-45d8ee0eed11","ios":"levelo://app?vid=c8ce0351-fe68-40b1-beb5-45d8ee0eed11"},"vehicle_type_id":"4","last_reported":1751116828,"current_range_meters":0,"station_id":"ce4bhoh2rcd13ifvqh6g","pricing_plan_id":"cebpf4jnsgd1na2vs0mg"},{"bike_id":"fde70215-ce15-4258-a0bf-27a465a43a0d","system_id":"levelo_inurba_marseille","lat":43.32104,"lon":5.36764,"is_reserved":false,"is_disabled":true,"rental_uris":{"android":"levelo://app?vid=fde70215-ce15-4258-a0bf-27a465a43a0d","ios":"levelo://app?vid=fde70215-ce15-4258-a0bf-27a465a43a0d"},"vehicle_type_id":"4","last_reported":1751116828,"current_range_meters":0,"station_id":"ce4bhrh2rcd13ifvqhug","pricing_plan_id":"cebpf4jnsgd1na2vs0mg"},{"bike_id":"b8a69c99-4549-4eea-88eb-6e37d0f68364","system_id":"levelo_inurba_marseille","lat":43.23194,"lon":5.3555,"is_reserved":false,"is_disabled":true,"rental_uris":{"android":"levelo://app?vid=b8a69c99-4549-4eea-88eb-6e37d0f68364","ios":"levelo://app?vid=b8a69c99-4549-4eea-88eb-6e37d0f68364"},"vehicle_type_id":"4","last_reported":1751116828,"current_range_meters":0,"station_id":"ce4bhu92rcd13ifvqi70","pricing_plan_id":"cebpf4jnsgd1na2vs0mg"},{"bike_id":"736654d6-01bb-4a6c-ace7-5bb6a310dfae","system_id":"levelo_inurba_marseille","lat":43.231986,"lon":5.355522,"is_reserved":false,"is_disabled":true,"rental_uris":{"android":"levelo://app?vid=736654d6-01bb-4a6c-ace7-5bb6a310dfae","ios":"levelo://app?vid=736654d6-01bb-4a6c-ace7-5bb6a310dfae"},"vehicle_type_id":"4","last_reported":1751116828,"current_range_meters":0,"station_id":"ce4bhu92rcd13ifvqi70","pricing_plan_id":"cebpf4jnsgd1na2vs0mg"},{"bike_id":"070a5204-3e73-4cf5-9fda-520c8795969f","system_id":"levelo_inurba_marseille","lat":43.21764,"lon":5.34614,"is_reserved":false,"is_disabled":true,"rental_uris":{"android":"levelo://app?vid=070a5204-3e73-4cf5-9fda-520c8795969f","ios":"levelo://app?vid=070a5204-3e73-4cf5-9fda-520c8795969f"},"vehicle_type_id":"4","last_reported":1751116828,"current_range_meters":0,"station_id":"st_cvj6r9ubvosntc0bgbag","pricing_plan_id":"cebpf4jnsgd1na2vs0mg"},{"bike_id":"9660d42f-62ac-4258-8a45-8063dd7e7505","system_id":"levelo_inurba_marseille","lat":43.22484,"lon":5.34796,"is_reserved":false,"is_disabled":true,"rental_uris":{"android":"levelo://app?vid=9660d42f-62ac-4258-8a45-8063dd7e7505","ios":"levelo://app?vid=9660d42f-62ac-4258-8a45-8063dd7e7505"},"vehicle_type_id":"4","last_reported":1751116828,"current_range_meters":400,"station_id":"","pricing_plan_id":"cebpf4jnsgd1na2vs0mg"},{"bike_id":"2d250612-db8f-44f9-8e23-0787ff89bb70","system_id":"levelo_inurba_marseille","lat":43.31713,"lon":5.40453,"is_reserved":false,"is_disabled":true,"rental_uris":{"android":"levelo://app?vid=2d250612-db8f-44f9-8e23-0787ff89bb70","ios":"levelo://app?vid=2d250612-db8f-44f9-8e23-0787ff89bb70"},"vehicle_type_id":"4","last_reported":1751116828,"current_range_meters":400,"station_id":"ce4bh012rcd13ifvqd00","pricing_plan_id":"cebpf4jnsgd1na2vs0mg"},{"bike_id":"53872d4e-44df-4658-b755-9c70d886c33b","system_id":"levelo_inurba_marseille","lat":43.30209,"lon":5.39464,"is_reserved":false,"is_disabled":true,"rental_uris":{"android":"levelo://app?vid=53872d4e-44df-4658-b755-9c70d886c33b","ios":"levelo://app?vid=53872d4e-44df-4658-b755-9c70d886c33b"},"vehicle_type_id":"4","last_reported":1751116828,"current_range_meters":400,"station_id":"ce4bh0p2rcd13ifvqd70","pricing_plan_id":"cebpf4jnsgd1na2vs0mg"},{"bike_id":"ce98f834-95be-4ad4-bb7d-83ac142eb419","system_id":"levelo_inurba_marseille","lat":43.23199,"lon":5.3554,"is_reserved":false,"is_disabled":true,"rental_uris":{"android":"levelo://app?vid=ce98f834-95be-4ad4-bb7d-83ac142eb419","ios":"levelo://app?vid=ce98f834-95be-4ad4-bb7d-83ac142eb419"},"vehicle_type_id":"4","last_reported":1751116828,"current_range_meters":400,"station_id":"ce4bhu92rcd13ifvqi70","pricing_plan_id":"cebpf4jnsgd1na2vs0mg"},{"bike_id":"f47876d7-9c85-474e-92c5-7a242e08b67c","system_id":"levelo_inurba_marseille","lat":43.305528,"lon":5.375481,"is_reserved":false,"is_disabled":true,"rental_uris":{"android":"levelo://app?vid=f47876d7-9c85-474e-92c5-7a242e08b67c","ios":"levelo://app?vid=f47876d7-9c85-474e-92c5-7a242e08b67c"},"vehicle_type_id":"4","last_reported":1751116828,"current_range_meters":800,"station_id":"","pricing_plan_id":"cebpf4jnsgd1na2vs0mg"},{"bike_id":"289a7b61-3eba-4d0d-ae05-9704b6f10bf8","system_id":"levelo_inurba_marseille","lat":43.2958,"lon":5.367453,"is_reserved":false,"is_disabled":true,"rental_uris":{"android":"levelo://app?vid=289a7b61-3eba-4d0d-ae05-9704b6f10bf8","ios":"levelo://app?vid=289a7b61-3eba-4d0d-ae05-9704b6f10bf8"},"vehicle_type_id":"4","last_reported":1751116828,"current_range_meters":800,"station_id":"ce4bgph2rcd13ifvqc2g","pricing_plan_id":"cebpf4jnsgd1na2vs0mg"},{"bike_id":"68417b21-671e-4403-b8be-399ae4aef3b1","system_id":"levelo_inurba_marseille","lat":43.24389,"lon":5.37054,"is_reserved":false,"is_disabled":true,"rental_uris":{"android":"levelo://app?vid=68417b21-671e-4403-b8be-399ae4aef3b1","ios":"levelo://app?vid=68417b21-671e-4403-b8be-399ae4aef3b1"},"vehicle_type_id":"4","last_reported":1751116828,"current_range_meters":800,"station_id":"ce4bhhh2rcd13ifvqfk0","pricing_plan_id":"cebpf4jnsgd1na2vs0mg"},{"bike_id":"c75318bb-8881-4dbb-bf28-8b83db842bae","system_id":"levelo_inurba_marseille","lat":43.26202,"lon":5.37926,"is_reserved":false,"is_disabled":true,"rental_uris":{"android":"levelo://app?vid=c75318bb-8881-4dbb-bf28-8b83db842bae","ios":"levelo://app?vid=c75318bb-8881-4dbb-bf28-8b83db842bae"},"vehicle_type_id":"4","last_reported":1751116828,"current_range_meters":1200,"station_id":"ce4bhjp2rcd13ifvqg90","pricing_plan_id":"cebpf4jnsgd1na2vs0mg"},{"bike_id":"2e4b3190-9cc9-47cf-87ca-5dc482ba5b0d","system_id":"levelo_inurba_marseille","lat":43.2315,"lon":5.43706,"is_reserved":false,"is_disabled":true,"rental_uris":{"android":"levelo://app?vid=2e4b3190-9cc9-47cf-87ca-5dc482ba5b0d","ios":"levelo://app?vid=2e4b3190-9cc9-47cf-87ca-5dc482ba5b0d"},"vehicle_type_id":"4","last_reported":1751116828,"current_range_meters":1200,"station_id":"ce4bhmp2rcd13ifvqgog","pricing_plan_id":"cebpf4jnsgd1na2vs0mg"},{"bike_id":"1a197631-b7a2-4fb4-96b6-9aead19ef801","system_id":"levelo_inurba_marseille","lat":43.3025,"lon":5.40062,"is_reserved":false,"is_disabled":true,"rental_uris":{"android":"levelo://app?vid=1a197631-b7a2-4fb4-96b6-9aead19ef801","ios":"levelo://app?vid=1a197631-b7a2-4fb4-96b6-9aead19ef801"},"vehicle_type_id":"4","last_reported":1751116828,"current_range_meters":1600,"station_id":"ce4bgvh2rcd13ifvqcs0","pricing_plan_id":"cebpf4jnsgd1na2vs0mg"},{"bike_id":"3ed97791-4fd1-4beb-9e6b-4998740d59d9","system_id":"levelo_inurba_marseille","lat":43.271719,"lon":5.410008,"is_reserved":false,"is_disabled":true,"rental_uris":{"android":"levelo://app?vid=3ed97791-4fd1-4beb-9e6b-4998740d59d9","ios":"levelo://app?vid=3ed97791-4fd1-4beb-9e6b-4998740d59d9"},"vehicle_type_id":"4","last_reported":1751116828,"current_range_meters":2000,"station_id":"","pricing_plan_id":"cebpf4jnsgd1na2vs0mg"},{"bike_id":"5c08a8f3-861a-44b1-b21a-7d04a3596adc","system_id":"levelo_inurba_marseille","lat":43.30426,"lon":5.39751,"is_reserved":false,"is_disabled":true,"rental_uris":{"android":"levelo://app?vid=5c08a8f3-861a-44b1-b21a-7d04a3596adc","ios":"levelo://app?vid=5c08a8f3-861a-44b1-b21a-7d04a3596adc"},"vehicle_type_id":"4","last_reported":1751116828,"current_range_meters":2000,"station_id":"ce4bh092rcd13ifvqd20","pricing_plan_id":"cebpf4jnsgd1na2vs0mg"},{"bike_id":"0bedb05d-dfe7-4fc9-880f-8fc19ea5e9b6","system_id":"levelo_inurba_marseille","lat":43.26808,"lon":5.4026,"is_reserved":false,"is_disabled":true,"rental_uris":{"android":"levelo://app?vid=0bedb05d-dfe7-4fc9-880f-8fc19ea5e9b6","ios":"levelo://app?vid=0bedb05d-dfe7-4fc9-880f-8fc19ea5e9b6"},"vehicle_type_id":"4","last_reported":1751116828,"current_range_meters":2000,"station_id":"ce501612rcd8frsf0b60","pricing_plan_id":"cebpf4jnsgd1na2vs0mg"},{"bike_id":"666ef40e-8142-4330-a1bf-355f72ca0910","system_id":"levelo_inurba_marseille","lat":43.26352,"lon":5.40143,"is_reserved":false,"is_disabled":false,"rental_uris":{"android":"levelo://app?vid=666ef40e-8142-4330-a1bf-355f72ca0910","ios":"levelo://app?vid=666ef40e-8142-4330-a1bf-355f72ca0910"},"vehicle_type_id":"4","last_reported":1751116828,"current_range_meters":2800,"station_id":"","pricing_plan_id":"cebpf4jnsgd1na2vs0mg"},{"bike_id":"5d07c5c9-0fd6-4a82-acd5-3d7d6609d9f1","system_id":"levelo_inurba_marseille","lat":43.31116,"lon":5.37759,"is_reserved":false,"is_disabled":false,"rental_uris":{"android":"levelo://app?vid=5d07c5c9-0fd6-4a82-acd5-3d7d6609d9f1","ios":"levelo://app?vid=5d07c5c9-0fd6-4a82-acd5-3d7d6609d9f1"},"vehicle_type_id":"4","last_reported":1751116828,"current_range_meters":2800,"station_id":"ce4bgt92rcd13ifvqcg0","pricing_plan_id":"cebpf4jnsgd1na2vs0mg"},{"bike_id":"b5f78157-cae1-4e13-9218-a42bfc23339b","system_id":"levelo_inurba_marseille","lat":43.25496,"lon":5.37654,"is_reserved":false,"is_disabled":false,"rental_uris":{"android":"levelo://app?vid=b5f78157-cae1-4e13-9218-a42bfc23339b","ios":"levelo://app?vid=b5f78157-cae1-4e13-9218-a42bfc23339b"},"vehicle_type_id":"4","last_reported":1751116828,"current_range_meters":2800,"station_id":"ce4bhh12rcd13ifvqff0","pricing_plan_id":"cebpf4jnsgd1na2vs0mg"},{"bike_id":"c7630044-57c7-43ad-bb1f-d15e1cc35457","system_id":"levelo_inurba_marseille","lat":43.32654,"lon":5.40987,"is_reserved":false,"is_disabled":false,"rental_uris":{"android":"levelo://app?vid=c7630044-57c7-43ad-bb1f-d15e1cc35457","ios":"levelo://app?vid=c7630044-57c7-43ad-bb1f-d15e1cc35457"},"vehicle_type_id":"4","last_reported":1751116828,"current_range_meters":2800,"station_id":"ce4bhpp2rcd13ifvqhgg","pricing_plan_id":"cebpf4jnsgd1na2vs0mg"},{"bike_id":"416ff97f-b496-45d1-a451-5405d9d6b8ae","system_id":"levelo_inurba_marseille","lat":43.31185,"lon":5.37241,"is_reserved":false,"is_disabled":false,"rental_uris":{"android":"levelo://app?vid=416ff97f-b496-45d1-a451-5405d9d6b8ae","ios":"levelo://app?vid=416ff97f-b496-45d1-a451-5405d9d6b8ae"},"vehicle_type_id":"4","last_reported":1751116828,"current_range_meters":3200,"station_id":"","pricing_plan_id":"cebpf4jnsgd1na2vs0mg"},{"bike_id":"5ff49e25-404d-467f-89e0-2257d428a51b","system_id":"levelo_inurba_marseille","lat":43.28409,"lon":5.3752,"is_reserved":false,"is_disabled":false,"rental_uris":{"android":"levelo://app?vid=5ff49e25-404d-467f-89e0-2257d428a51b","ios":"levelo://app?vid=5ff49e25-404d-467f-89e0-2257d428a51b"},"vehicle_type_id":"4","last_reported":1751116828,"current_range_meters":3200,"station_id":"ce4bh412rcd13ifvqds0","pricing_plan_id":"cebpf4jnsgd1na2vs0mg"},{"bike_id":"5548bb2b-6f1e-47a9-91d3-4f47de040af7","system_id":"levelo_inurba_marseille","lat":43.262143,"lon":5.374418,"is_reserved":false,"is_disabled":false,"rental_uris":{"android":"levelo://app?vid=5548bb2b-6f1e-47a9-91d3-4f47de040af7","ios":"levelo://app?vid=5548bb2b-6f1e-47a9-91d3-4f47de040af7"},"vehicle_type_id":"4","last_reported":1751116828,"current_range_meters":3200,"station_id":"ce4bhgp2rcd13ifvqfc0","pricing_plan_id":"cebpf4jnsgd1na2vs0mg"},{"bike_id":"94e84186-d780-461a-b647-8d1cf3f036ad","system_id":"levelo_inurba_marseille","lat":43.3173,"lon":5.3776,"is_reserved":false,"is_disabled":false,"rental_uris":{"android":"levelo://app?vid=94e84186-d780-461a-b647-8d1cf3f036ad","ios":"levelo://app?vid=94e84186-d780-461a-b647-8d1cf3f036ad"},"vehicle_type_id":"4","last_reported":1751116828,"current_range_meters":3600,"station_id":"ce4bgth2rcd13ifvqch0","pricing_plan_id":"cebpf4jnsgd1na2vs0mg"},{"bike_id":"9b2348c2-0ba7-4295-ac9d-5e491847d613","system_id":"levelo_inurba_marseille","lat":43.27204,"lon":5.39181,"is_reserved":false,"is_disabled":false,"rental_uris":{"android":"levelo://app?vid=9b2348c2-0ba7-4295-ac9d-5e491847d613","ios":"levelo://app?vid=9b2348c2-0ba7-4295-ac9d-5e491847d613"},"vehicle_type_id":"4","last_reported":1751116828,"current_range_meters":4000,"station_id":"ce4bhhp2rcd13ifvqfm0","pricing_plan_id":"cebpf4jnsgd1na2vs0mg"},{"bike_id":"a4c72be0-3226-4d5c-a841-94842c79c5e5","system_id":"levelo_inurba_marseille","lat":43.30421,"lon":5.412874,"is_reserved":false,"is_disabled":false,"rental_uris":{"android":"levelo://app?vid=a4c72be0-3226-4d5c-a841-94842c79c5e5","ios":"levelo://app?vid=a4c72be0-3226-4d5c-a841-94842c79c5e5"},"vehicle_type_id":"4","last_reported":1751116828,"current_range_meters":4000,"station_id":"ce4bhop2rcd13ifvqh8g","pricing_plan_id":"cebpf4jnsgd1na2vs0mg"},{"bike_id":"79d5ed5d-24bb-42cf-ac0d-0a19ea0d085b","system_id":"levelo_inurba_marseille","lat":43.229279,"lon":5.353767,"is_reserved":false,"is_disabled":false,"rental_uris":{"android":"levelo://app?vid=79d5ed5d-24bb-42cf-ac0d-0a19ea0d085b","ios":"levelo://app?vid=79d5ed5d-24bb-42cf-ac0d-0a19ea0d085b"},"vehicle_type_id":"4","last_reported":1751116828,"current_range_meters":4000,"station_id":"cpo3532slgdg3j2ikp40","pricing_plan_id":"cebpf4jnsgd1na2vs0mg"},{"bike_id":"275b69d7-d94a-4bd0-8dea-9be204d9a328","system_id":"levelo_inurba_marseille","lat":43.29582,"lon":5.36747,"is_reserved":false,"is_disabled":false,"rental_uris":{"android":"levelo://app?vid=275b69d7-d94a-4bd0-8dea-9be204d9a328","ios":"levelo://app?vid=275b69d7-d94a-4bd0-8dea-9be204d9a328"},"vehicle_type_id":"4","last_reported":1751116828,"current_range_meters":4400,"station_id":"","pricing_plan_id":"cebpf4jnsgd1na2vs0mg"},{"bike_id":"5fb0eda0-ea24-4e91-ba0f-70cb38d2dce9","system_id":"levelo_inurba_marseille","lat":43.2732,"lon":5.39173,"is_reserved":false,"is_disabled":false,"rental_uris":{"android":"levelo://app?vid=5fb0eda0-ea24-4e91-ba0f-70cb38d2dce9","ios":"levelo://app?vid=5fb0eda0-ea24-4e91-ba0f-70cb38d2dce9"},"vehicle_type_id":"4","last_reported":1751116828,"current_range_meters":4400,"station_id":"","pricing_plan_id":"cebpf4jnsgd1na2vs0mg"},{"bike_id":"0a034962-a078-4cd8-ab5c-29a2f15ac163","system_id":"levelo_inurba_marseille","lat":43.29907,"lon":5.43654,"is_reserved":false,"is_disabled":false,"rental_uris":{"android":"levelo://app?vid=0a034962-a078-4cd8-ab5c-29a2f15ac163","ios":"levelo://app?vid=0a034962-a078-4cd8-ab5c-29a2f15ac163"},"vehicle_type_id":"4","last_reported":1751116828,"current_range_meters":4400,"station_id":"ce4bhpp2rcd13ifvqhfg","pricing_plan_id":"cebpf4jnsgd1na2vs0mg"},{"bike_id":"17bf16ee-a97a-4a1b-969f-da47bd1b96f3","system_id":"levelo_inurba_marseille","lat":43.32338,"lon":5.40598,"is_reserved":false,"is_disabled":false,"rental_uris":{"android":"levelo://app?vid=17bf16ee-a97a-4a1b-969f-da47bd1b96f3","ios":"levelo://app?vid=17bf16ee-a97a-4a1b-969f-da47bd1b96f3"},"vehicle_type_id":"4","last_reported":1751116828,"current_range_meters":4400,"station_id":"ce4bhq92rcd13ifvqhjg","pricing_plan_id":"cebpf4jnsgd1na2vs0mg"},{"bike_id":"0e42f7c4-d881-45e6-b141-134ac6a57354","system_id":"levelo_inurba_marseille","lat":43.25582,"lon":5.38231,"is_reserved":false,"is_disabled":false,"rental_uris":{"android":"levelo://app?vid=0e42f7c4-d881-45e6-b141-134ac6a57354","ios":"levelo://app?vid=0e42f7c4-d881-45e6-b141-134ac6a57354"},"vehicle_type_id":"4","last_reported":1751116828,"current_range_meters":4800,"station_id":"ce4bhih2rcd13ifvqfs0","pricing_plan_id":"cebpf4jnsgd1na2vs0mg"},{"bike_id":"dcea07ca-9323-4b9b-98f6-e1fc9b106559","system_id":"levelo_inurba_marseille","lat":43.30315,"lon":5.37636,"is_reserved":false,"is_disabled":false,"rental_uris":{"android":"levelo://app?vid=dcea07ca-9323-4b9b-98f6-e1fc9b106559","ios":"levelo://app?vid=dcea07ca-9323-4b9b-98f6-e1fc9b106559"},"vehicle_type_id":"4","last_reported":1751116828,"current_range_meters":5600,"station_id":"","pricing_plan_id":"cebpf4jnsgd1na2vs0mg"},{"bike_id":"cba22f9a-a9b8-427c-b2e9-cee1498a6b96","system_id":"levelo_inurba_marseille","lat":43.29845,"lon":5.362797,"is_reserved":false,"is_disabled":false,"rental_uris":{"android":"levelo://app?vid=cba22f9a-a9b8-427c-b2e9-cee1498a6b96","ios":"levelo://app?vid=cba22f9a-a9b8-427c-b2e9-cee1498a6b96"},"vehicle_type_id":"4","last_reported":1751116828,"current_range_meters":5600,"station_id":"ce4bgpp2rcd13ifvqc3g","pricing_plan_id":"cebpf4jnsgd1na2vs0mg"},{"bike_id":"bc1fd692-09a6-4b20-81e6-6577ed1e7210","system_id":"levelo_inurba_marseille","lat":43.26214,"lon":5.3744,"is_reserved":false,"is_disabled":false,"rental_uris":{"android":"levelo://app?vid=bc1fd692-09a6-4b20-81e6-6577ed1e7210","ios":"levelo://app?vid=bc1fd692-09a6-4b20-81e6-6577ed1e7210"},"vehicle_type_id":"4","last_reported":1751116828,"current_range_meters":5600,"station_id":"ce4bhgp2rcd13ifvqfc0","pricing_plan_id":"cebpf4jnsgd1na2vs0mg"},{"bike_id":"476f9898-d204-453e-98a6-6b2482b0e936","system_id":"levelo_inurba_marseille","lat":43.29957,"lon":5.41317,"is_reserved":false,"is_disabled":false,"rental_uris":{"android":"levelo://app?vid=476f9898-d204-453e-98a6-6b2482b0e936","ios":"levelo://app?vid=476f9898-d204-453e-98a6-6b2482b0e936"},"vehicle_type_id":"4","last_reported":1751116828,"current_range_meters":5600,"station_id":"ce4bhp12rcd13ifvqh9g","pricing_plan_id":"cebpf4jnsgd1na2vs0mg"},{"bike_id":"73a03650-973e-42b0-bad4-545481e15f73","system_id":"levelo_inurba_marseille","lat":43.31239,"lon":5.39075,"is_reserved":false,"is_disabled":false,"rental_uris":{"android":"levelo://app?vid=73a03650-973e-42b0-bad4-545481e15f73","ios":"levelo://app?vid=73a03650-973e-42b0-bad4-545481e15f73"},"vehicle_type_id":"4","last_reported":1751116828,"current_range_meters":6000,"station_id":"","pricing_plan_id":"cebpf4jnsgd1na2vs0mg"},{"bike_id":"1a8ba9c9-859b-4ae8-9fa1-c31cc4c64d01","system_id":"levelo_inurba_marseille","lat":43.30135,"lon":5.38784,"is_reserved":false,"is_disabled":false,"rental_uris":{"android":"levelo://app?vid=1a8ba9c9-859b-4ae8-9fa1-c31cc4c64d01","ios":"levelo://app?vid=1a8ba9c9-859b-4ae8-9fa1-c31cc4c64d01"},"vehicle_type_id":"4","last_reported":1751116828,"current_range_meters":6000,"station_id":"ce4bghh2rcd13ifvqb60","pricing_plan_id":"cebpf4jnsgd1na2vs0mg"},{"bike_id":"703df58a-ef75-4ae2-b700-970a1de18756","system_id":"levelo_inurba_marseille","lat":43.29834,"lon":5.40399,"is_reserved":false,"is_disabled":false,"rental_uris":{"android":"levelo://app?vid=703df58a-ef75-4ae2-b700-970a1de18756","ios":"levelo://app?vid=703df58a-ef75-4ae2-b700-970a1de18756"},"vehicle_type_id":"4","last_reported":1751116828,"current_range_meters":6000,"station_id":"ce4bh112rcd13ifvqd90","pricing_plan_id":"cebpf4jnsgd1na2vs0mg"},{"bike_id":"32910c86-f40b-49bb-a1d8-aed9a66a4d81","system_id":"levelo_inurba_marseille","lat":43.25005,"lon":5.38927,"is_reserved":false,"is_disabled":false,"rental_uris":{"android":"levelo://app?vid=32910c86-f40b-49bb-a1d8-aed9a66a4d81","ios":"levelo://app?vid=32910c86-f40b-49bb-a1d8-aed9a66a4d81"},"vehicle_type_id":"4","last_reported":1751116828,"current_range_meters":6000,"station_id":"ce4bhgp2rcd13ifvqfd0","pricing_plan_id":"cebpf4jnsgd1na2vs0mg"},{"bike_id":"22a939b1-aad6-4834-93d8-70ef1d9bcec6","system_id":"levelo_inurba_marseille","lat":43.24179,"lon":5.39738,"is_reserved":false,"is_disabled":false,"rental_uris":{"android":"levelo://app?vid=22a939b1-aad6-4834-93d8-70ef1d9bcec6","ios":"levelo://app?vid=22a939b1-aad6-4834-93d8-70ef1d9bcec6"},"vehicle_type_id":"4","last_reported":1751116828,"current_range_meters":6000,"station_id":"ce4bhn12rcd13ifvqgpg","pricing_plan_id":"cebpf4jnsgd1na2vs0mg"},{"bike_id":"4b8da722-ee9e-48a4-a5e5-3a8a10364708","system_id":"levelo_inurba_marseille","lat":43.312219,"lon":5.37822,"is_reserved":false,"is_disabled":false,"rental_uris":{"android":"levelo://app?vid=4b8da722-ee9e-48a4-a5e5-3a8a10364708","ios":"levelo://app?vid=4b8da722-ee9e-48a4-a5e5-3a8a10364708"},"vehicle_type_id":"4","last_reported":1751116828,"current_range_meters":6400,"station_id":"","pricing_plan_id":"cebpf4jnsgd1na2vs0mg"},{"bike_id":"3b98316d-da7a-4694-a630-224bb8fccada","system_id":"levelo_inurba_marseille","lat":43.284149,"lon":5.349773,"is_reserved":false,"is_disabled":false,"rental_uris":{"android":"levelo://app?vid=3b98316d-da7a-4694-a630-224bb8fccada","ios":"levelo://app?vid=3b98316d-da7a-4694-a630-224bb8fccada"},"vehicle_type_id":"4","last_reported":1751116828,"current_range_meters":6400,"station_id":"ce4bhbh2rcd13ifvqepg","pricing_plan_id":"cebpf4jnsgd1na2vs0mg"},{"bike_id":"8231a8d0-a0c1-4018-bfd6-89735448ce49","system_id":"levelo_inurba_marseille","lat":43.27209,"lon":5.39191,"is_reserved":false,"is_disabled":false,"rental_uris":{"android":"levelo://app?vid=8231a8d0-a0c1-4018-bfd6-89735448ce49","ios":"levelo://app?vid=8231a8d0-a0c1-4018-bfd6-89735448ce49"},"vehicle_type_id":"4","last_reported":1751116828,"current_range_meters":6400,"station_id":"ce4bhhp2rcd13ifvqfm0","pricing_plan_id":"cebpf4jnsgd1na2vs0mg"},{"bike_id":"b7d0d8a1-c5dd-4278-8b3b-f5786872fe32","system_id":"levelo_inurba_marseille","lat":43.320964,"lon":5.36764,"is_reserved":false,"is_disabled":false,"rental_uris":{"android":"levelo://app?vid=b7d0d8a1-c5dd-4278-8b3b-f5786872fe32","ios":"levelo://app?vid=b7d0d8a1-c5dd-4278-8b3b-f5786872fe32"},"vehicle_type_id":"4","last_reported":1751116828,"current_range_meters":6400,"station_id":"ce4bhrh2rcd13ifvqhug","pricing_plan_id":"cebpf4jnsgd1na2vs0mg"},{"bike_id":"1422aae9-4428-4bc5-9f1e-88df6f664dde","system_id":"levelo_inurba_marseille","lat":43.3006,"lon":5.37111,"is_reserved":false,"is_disabled":false,"rental_uris":{"android":"levelo://app?vid=1422aae9-4428-4bc5-9f1e-88df6f664dde","ios":"levelo://app?vid=1422aae9-4428-4bc5-9f1e-88df6f664dde"},"vehicle_type_id":"4","last_reported":1751116828,"current_range_meters":6800,"station_id":"","pricing_plan_id":"cebpf4jnsgd1na2vs0mg"},{"bike_id":"a440f2f6-8cf8-4348-9ba1-e21002a18a07","system_id":"levelo_inurba_marseille","lat":43.32099,"lon":5.36746,"is_reserved":false,"is_disabled":false,"rental_uris":{"android":"levelo://app?vid=a440f2f6-8cf8-4348-9ba1-e21002a18a07","ios":"levelo://app?vid=a440f2f6-8cf8-4348-9ba1-e21002a18a07"},"vehicle_type_id":"4","last_reported":1751116828,"current_range_meters":6800,"station_id":"ce4bhrh2rcd13ifvqhug","pricing_plan_id":"cebpf4jnsgd1na2vs0mg"},{"bike_id":"8888a7f3-9c15-437d-90e1-90646bc04b41","system_id":"levelo_inurba_marseille","lat":43.23194,"lon":5.35551,"is_reserved":false,"is_disabled":false,"rental_uris":{"android":"levelo://app?vid=8888a7f3-9c15-437d-90e1-90646bc04b41","ios":"levelo://app?vid=8888a7f3-9c15-437d-90e1-90646bc04b41"},"vehicle_type_id":"4","last_reported":1751116828,"current_range_meters":6800,"station_id":"ce4bhu92rcd13ifvqi70","pricing_plan_id":"cebpf4jnsgd1na2vs0mg"},{"bike_id":"299f5a58-0ee9-4474-b692-ff33dc495446","system_id":"levelo_inurba_marseille","lat":43.265816,"lon":5.372854,"is_reserved":false,"is_disabled":false,"rental_uris":{"android":"levelo://app?vid=299f5a58-0ee9-4474-b692-ff33dc495446","ios":"levelo://app?vid=299f5a58-0ee9-4474-b692-ff33dc495446"},"vehicle_type_id":"4","last_reported":1751116828,"current_range_meters":7200,"station_id":"ce4bhjp2rcd13ifvqg90","pricing_plan_id":"cebpf4jnsgd1na2vs0mg"},{"bike_id":"5a611344-0646-43d6-8457-8d719a286f09","system_id":"levelo_inurba_marseille","lat":43.23197,"lon":5.35551,"is_reserved":false,"is_disabled":false,"rental_uris":{"android":"levelo://app?vid=5a611344-0646-43d6-8457-8d719a286f09","ios":"levelo://app?vid=5a611344-0646-43d6-8457-8d719a286f09"},"vehicle_type_id":"4","last_reported":1751116828,"current_range_meters":7200,"station_id":"ce4bhu92rcd13ifvqi70","pricing_plan_id":"cebpf4jnsgd1na2vs0mg"},{"bike_id":"ea043f2b-eb5f-4aa1-b255-ff04c91e7d69","system_id":"levelo_inurba_marseille","lat":43.2668,"lon":5.38264,"is_reserved":false,"is_disabled":false,"rental_uris":{"android":"levelo://app?vid=ea043f2b-eb5f-4aa1-b255-ff04c91e7d69","ios":"levelo://app?vid=ea043f2b-eb5f-4aa1-b255-ff04c91e7d69"},"vehicle_type_id":"4","last_reported":1751116828,"current_range_meters":8000,"station_id":"ce4bhg92rcd13ifvqf90","pricing_plan_id":"cebpf4jnsgd1na2vs0mg"},{"bike_id":"b75c9cb8-fd78-4a80-9d1b-540023d5ad53","system_id":"levelo_inurba_marseille","lat":43.34133,"lon":5.40893,"is_reserved":false,"is_disabled":false,"rental_uris":{"android":"levelo://app?vid=b75c9cb8-fd78-4a80-9d1b-540023d5ad53","ios":"levelo://app?vid=b75c9cb8-fd78-4a80-9d1b-540023d5ad53"},"vehicle_type_id":"4","last_reported":1751116828,"current_range_meters":8000,"station_id":"ce4bhqh2rcd13ifvqhlg","pricing_plan_id":"cebpf4jnsgd1na2vs0mg"},{"bike_id":"de0ba27c-9f2c-4c4d-abca-31aa5df09b3a","system_id":"levelo_inurba_marseille","lat":43.21744,"lon":5.3461,"is_reserved":false,"is_disabled":false,"rental_uris":{"android":"levelo://app?vid=de0ba27c-9f2c-4c4d-abca-31aa5df09b3a","ios":"levelo://app?vid=de0ba27c-9f2c-4c4d-abca-31aa5df09b3a"},"vehicle_type_id":"4","last_reported":1751116828,"current_range_meters":8000,"station_id":"st_cvj6r9ubvosntc0bgbag","pricing_plan_id":"cebpf4jnsgd1na2vs0mg"},{"bike_id":"d93518a7-acea-49d1-8b1d-66917831e25a","system_id":"levelo_inurba_marseille","lat":43.28379,"lon":5.39607,"is_reserved":false,"is_disabled":false,"rental_uris":{"android":"levelo://app?vid=d93518a7-acea-49d1-8b1d-66917831e25a","ios":"levelo://app?vid=d93518a7-acea-49d1-8b1d-66917831e25a"},"vehicle_type_id":"4","last_reported":1751116828,"current_range_meters":8400,"station_id":"","pricing_plan_id":"cebpf4jnsgd1na2vs0mg"},{"bike_id":"766f344c-2511-48c4-a14c-685ae07edc61","system_id":"levelo_inurba_marseille","lat":43.28259,"lon":5.35072,"is_reserved":false,"is_disabled":false,"rental_uris":{"android":"levelo://app?vid=766f344c-2511-48c4-a14c-685ae07edc61","ios":"levelo://app?vid=766f344c-2511-48c4-a14c-685ae07edc61"},"vehicle_type_id":"4","last_reported":1751116828,"current_range_meters":8400,"station_id":"ce4bhbp2rcd13ifvqerg","pricing_plan_id":"cebpf4jnsgd1na2vs0mg"},{"bike_id":"25d4fc04-80fb-4942-b53b-19627ba1b64f","system_id":"levelo_inurba_marseille","lat":43.27063,"lon":5.40267,"is_reserved":false,"is_disabled":false,"rental_uris":{"android":"levelo://app?vid=25d4fc04-80fb-4942-b53b-19627ba1b64f","ios":"levelo://app?vid=25d4fc04-80fb-4942-b53b-19627ba1b64f"},"vehicle_type_id":"4","last_reported":1751116828,"current_range_meters":8400,"station_id":"ce4bhk92rcd13ifvqgc0","pricing_plan_id":"cebpf4jnsgd1na2vs0mg"},{"bike_id":"1c8ab180-05fd-405f-9922-b2b2c2d5142f","system_id":"levelo_inurba_marseille","lat":43.321324,"lon":5.367257,"is_reserved":false,"is_disabled":false,"rental_uris":{"android":"levelo://app?vid=1c8ab180-05fd-405f-9922-b2b2c2d5142f","ios":"levelo://app?vid=1c8ab180-05fd-405f-9922-b2b2c2d5142f"},"vehicle_type_id":"4","last_reported":1751116828,"current_range_meters":8400,"station_id":"ce4bhrh2rcd13ifvqhug","pricing_plan_id":"cebpf4jnsgd1na2vs0mg"},{"bike_id":"5a01ae6d-9064-484c-8d77-2d9e141e2313","system_id":"levelo_inurba_marseille","lat":43.24484,"lon":5.39029,"is_reserved":false,"is_disabled":false,"rental_uris":{"android":"levelo://app?vid=5a01ae6d-9064-484c-8d77-2d9e141e2313","ios":"levelo://app?vid=5a01ae6d-9064-484c-8d77-2d9e141e2313"},"vehicle_type_id":"4","last_reported":1751116828,"current_range_meters":8800,"station_id":"","pricing_plan_id":"cebpf4jnsgd1na2vs0mg"},{"bike_id":"4d098ebf-d077-4043-81d6-8a42d8f8723b","system_id":"levelo_inurba_marseille","lat":43.30926,"lon":5.40141,"is_reserved":false,"is_disabled":false,"rental_uris":{"android":"levelo://app?vid=4d098ebf-d077-4043-81d6-8a42d8f8723b","ios":"levelo://app?vid=4d098ebf-d077-4043-81d6-8a42d8f8723b"},"vehicle_type_id":"4","last_reported":1751116828,"current_range_meters":8800,"station_id":"ce4bgvp2rcd13ifvqct0","pricing_plan_id":"cebpf4jnsgd1na2vs0mg"},{"bike_id":"c8a3b34a-54cf-41a8-8061-3222e5b192d3","system_id":"levelo_inurba_marseille","lat":43.30086,"lon":5.39065,"is_reserved":false,"is_disabled":false,"rental_uris":{"android":"levelo://app?vid=c8a3b34a-54cf-41a8-8061-3222e5b192d3","ios":"levelo://app?vid=c8a3b34a-54cf-41a8-8061-3222e5b192d3"},"vehicle_type_id":"4","last_reported":1751116828,"current_range_meters":8800,"station_id":"ce4bh192rcd13ifvqdb0","pricing_plan_id":"cebpf4jnsgd1na2vs0mg"},{"bike_id":"fe899312-7c32-4db0-84e5-45656165fec8","system_id":"levelo_inurba_marseille","lat":43.26212,"lon":5.37442,"is_reserved":false,"is_disabled":false,"rental_uris":{"android":"levelo://app?vid=fe899312-7c32-4db0-84e5-45656165fec8","ios":"levelo://app?vid=fe899312-7c32-4db0-84e5-45656165fec8"},"vehicle_type_id":"4","last_reported":1751116828,"current_range_meters":8800,"station_id":"ce4bhgp2rcd13ifvqfc0","pricing_plan_id":"cebpf4jnsgd1na2vs0mg"},{"bike_id":"1008cd10-b924-4bb7-9c51-e372b3bc6fef","system_id":"levelo_inurba_marseille","lat":43.25929,"lon":5.4091,"is_reserved":false,"is_disabled":false,"rental_uris":{"android":"levelo://app?vid=1008cd10-b924-4bb7-9c51-e372b3bc6fef","ios":"levelo://app?vid=1008cd10-b924-4bb7-9c51-e372b3bc6fef"},"vehicle_type_id":"4","last_reported":1751116828,"current_range_meters":8800,"station_id":"ce4bhm92rcd13ifvqglg","pricing_plan_id":"cebpf4jnsgd1na2vs0mg"},{"bike_id":"910f185a-5431-4969-b2b4-68135db2e343","system_id":"levelo_inurba_marseille","lat":43.28858,"lon":5.35856,"is_reserved":false,"is_disabled":false,"rental_uris":{"android":"levelo://app?vid=910f185a-5431-4969-b2b4-68135db2e343","ios":"levelo://app?vid=910f185a-5431-4969-b2b4-68135db2e343"},"vehicle_type_id":"4","last_reported":1751116828,"current_range_meters":9200,"station_id":"ce4bhb12rcd13ifvqem0","pricing_plan_id":"cebpf4jnsgd1na2vs0mg"},{"bike_id":"75a54af4-de85-4c99-b95d-823ca1b73583","system_id":"levelo_inurba_marseille","lat":43.24168,"lon":5.36405,"is_reserved":false,"is_disabled":false,"rental_uris":{"android":"levelo://app?vid=75a54af4-de85-4c99-b95d-823ca1b73583","ios":"levelo://app?vid=75a54af4-de85-4c99-b95d-823ca1b73583"},"vehicle_type_id":"4","last_reported":1751116828,"current_range_meters":9200,"station_id":"cpo36qri1sfpv3e86is0","pricing_plan_id":"cebpf4jnsgd1na2vs0mg"},{"bike_id":"b9b5fecb-9519-46e5-b5e7-cbb61489d21a","system_id":"levelo_inurba_marseille","lat":43.21746,"lon":5.34602,"is_reserved":false,"is_disabled":false,"rental_uris":{"android":"levelo://app?vid=b9b5fecb-9519-46e5-b5e7-cbb61489d21a","ios":"levelo://app?vid=b9b5fecb-9519-46e5-b5e7-cbb61489d21a"},"vehicle_type_id":"4","last_reported":1751116828,"current_range_meters":9200,"station_id":"st_cvj6r9ubvosntc0bgbag","pricing_plan_id":"cebpf4jnsgd1na2vs0mg"},{"bike_id":"03047c0b-d3f2-4299-b292-04c7da92b080","system_id":"levelo_inurba_marseille","lat":43.21194,"lon":5.35084,"is_reserved":false,"is_disabled":false,"rental_uris":{"android":"levelo://app?vid=03047c0b-d3f2-4299-b292-04c7da92b080","ios":"levelo://app?vid=03047c0b-d3f2-4299-b292-04c7da92b080"},"vehicle_type_id":"4","last_reported":1751116828,"current_range_meters":9600,"station_id":"","pricing_plan_id":"cebpf4jnsgd1na2vs0mg"},{"bike_id":"923bcbf5-8b7a-4cd5-a013-04babe14815c","system_id":"levelo_inurba_marseille","lat":43.28261,"lon":5.35066,"is_reserved":false,"is_disabled":false,"rental_uris":{"android":"levelo://app?vid=923bcbf5-8b7a-4cd5-a013-04babe14815c","ios":"levelo://app?vid=923bcbf5-8b7a-4cd5-a013-04babe14815c"},"vehicle_type_id":"4","last_reported":1751116828,"current_range_meters":9600,"station_id":"ce4bhbp2rcd13ifvqerg","pricing_plan_id":"cebpf4jnsgd1na2vs0mg"},{"bike_id":"46e89470-494e-4013-8658-1e7bbfedff2b","system_id":"levelo_inurba_marseille","lat":43.265571,"lon":5.372891,"is_reserved":false,"is_disabled":false,"rental_uris":{"android":"levelo://app?vid=46e89470-494e-4013-8658-1e7bbfedff2b","ios":"levelo://app?vid=46e89470-494e-4013-8658-1e7bbfedff2b"},"vehicle_type_id":"4","last_reported":1751116828,"current_range_meters":9600,"station_id":"ce4bhg12rcd13ifvqf70","pricing_plan_id":"cebpf4jnsgd1na2vs0mg"},{"bike_id":"f48fdea1-2a26-4196-80fe-6c19cdd467cf","system_id":"levelo_inurba_marseille","lat":43.31079,"lon":5.42453,"is_reserved":false,"is_disabled":false,"rental_uris":{"android":"levelo://app?vid=f48fdea1-2a26-4196-80fe-6c19cdd467cf","ios":"levelo://app?vid=f48fdea1-2a26-4196-80fe-6c19cdd467cf"},"vehicle_type_id":"4","last_reported":1751116828,"current_range_meters":9600,"station_id":"ce4bhp92rcd13ifvqhag","pricing_plan_id":"cebpf4jnsgd1na2vs0mg"},{"bike_id":"6e799467-1e05-4e77-b50a-03b764a4062e","system_id":"levelo_inurba_marseille","lat":43.2997,"lon":5.38492,"is_reserved":false,"is_disabled":false,"rental_uris":{"android":"levelo://app?vid=6e799467-1e05-4e77-b50a-03b764a4062e","ios":"levelo://app?vid=6e799467-1e05-4e77-b50a-03b764a4062e"},"vehicle_type_id":"4","last_reported":1751116828,"current_range_meters":10000,"station_id":"ce4bgj92rcd13ifvqbd0","pricing_plan_id":"cebpf4jnsgd1na2vs0mg"},{"bike_id":"4a7d531b-5868-4272-bb5f-4348d064fd8a","system_id":"levelo_inurba_marseille","lat":43.28679,"lon":5.3866,"is_reserved":false,"is_disabled":false,"rental_uris":{"android":"levelo://app?vid=4a7d531b-5868-4272-bb5f-4348d064fd8a","ios":"levelo://app?vid=4a7d531b-5868-4272-bb5f-4348d064fd8a"},"vehicle_type_id":"4","last_reported":1751116828,"current_range_meters":10000,"station_id":"ce4bh492rcd13ifvqdug","pricing_plan_id":"cebpf4jnsgd1na2vs0mg"},{"bike_id":"21467389-e553-492d-ae64-b97e60a743d7","system_id":"levelo_inurba_marseille","lat":43.28105,"lon":5.37832,"is_reserved":false,"is_disabled":false,"rental_uris":{"android":"levelo://app?vid=21467389-e553-492d-ae64-b97e60a743d7","ios":"levelo://app?vid=21467389-e553-492d-ae64-b97e60a743d7"},"vehicle_type_id":"4","last_reported":1751116828,"current_range_meters":10000,"station_id":"ce4bha12rcd13ifvqee0","pricing_plan_id":"cebpf4jnsgd1na2vs0mg"},{"bike_id":"731a380a-70ac-44ae-8ee2-e0a516d82f21","system_id":"levelo_inurba_marseille","lat":43.27375,"lon":5.36266,"is_reserved":false,"is_disabled":false,"rental_uris":{"android":"levelo://app?vid=731a380a-70ac-44ae-8ee2-e0a516d82f21","ios":"levelo://app?vid=731a380a-70ac-44ae-8ee2-e0a516d82f21"},"vehicle_type_id":"4","last_reported":1751116828,"current_range_meters":10000,"station_id":"ce4bhbh2rcd13ifvqeo0","pricing_plan_id":"cebpf4jnsgd1na2vs0mg"},{"bike_id":"d5e70777-ad97-4594-91b6-43ede9611b14","system_id":"levelo_inurba_marseille","lat":43.321123,"lon":5.367706,"is_reserved":false,"is_disabled":false,"rental_uris":{"android":"levelo://app?vid=d5e70777-ad97-4594-91b6-43ede9611b14","ios":"levelo://app?vid=d5e70777-ad97-4594-91b6-43ede9611b14"},"vehicle_type_id":"4","last_reported":1751116828,"current_range_meters":10000,"station_id":"ce4bhrh2rcd13ifvqhug","pricing_plan_id":"cebpf4jnsgd1na2vs0mg"},{"bike_id":"d641659c-64fc-486a-91a2-3cc8072043e6","system_id":"levelo_inurba_marseille","lat":43.32125,"lon":5.36762,"is_reserved":false,"is_disabled":false,"rental_uris":{"android":"levelo://app?vid=d641659c-64fc-486a-91a2-3cc8072043e6","ios":"levelo://app?vid=d641659c-64fc-486a-91a2-3cc8072043e6"},"vehicle_type_id":"4","last_reported":1751116828,"current_range_meters":10000,"station_id":"ce4bhrh2rcd13ifvqhug","pricing_plan_id":"cebpf4jnsgd1na2vs0mg"},{"bike_id":"a41f7b32-63cb-4a95-9297-02432a55c56f","system_id":"levelo_inurba_marseille","lat":43.29568,"lon":5.39975,"is_reserved":false,"is_disabled":false,"rental_uris":{"android":"levelo://app?vid=a41f7b32-63cb-4a95-9297-02432a55c56f","ios":"levelo://app?vid=a41f7b32-63cb-4a95-9297-02432a55c56f"},"vehicle_type_id":"4","last_reported":1751116828,"current_range_meters":10800,"station_id":"ce4bh312rcd13ifvqdj0","pricing_plan_id":"cebpf4jnsgd1na2vs0mg"},{"bike_id":"bcc0e172-8c9f-4c9e-a4bd-acfcfa94b3fa","system_id":"levelo_inurba_marseille","lat":43.28263,"lon":5.3506,"is_reserved":false,"is_disabled":false,"rental_uris":{"android":"levelo://app?vid=bcc0e172-8c9f-4c9e-a4bd-acfcfa94b3fa","ios":"levelo://app?vid=bcc0e172-8c9f-4c9e-a4bd-acfcfa94b3fa"},"vehicle_type_id":"4","last_reported":1751116828,"current_range_meters":10800,"station_id":"ce4bhbp2rcd13ifvqerg","pricing_plan_id":"cebpf4jnsgd1na2vs0mg"},{"bike_id":"10e0cc2e-10cc-4c9b-ba21-9d4c088b1b63","system_id":"levelo_inurba_marseille","lat":43.29902,"lon":5.43661,"is_reserved":false,"is_disabled":false,"rental_uris":{"android":"levelo://app?vid=10e0cc2e-10cc-4c9b-ba21-9d4c088b1b63","ios":"levelo://app?vid=10e0cc2e-10cc-4c9b-ba21-9d4c088b1b63"},"vehicle_type_id":"4","last_reported":1751116828,"current_range_meters":10800,"station_id":"ce4bhpp2rcd13ifvqhfg","pricing_plan_id":"cebpf4jnsgd1na2vs0mg"},{"bike_id":"bbc4a376-bee7-4ad5-a49a-1022d27c1489","system_id":"levelo_inurba_marseille","lat":43.320807,"lon":5.367685,"is_reserved":false,"is_disabled":false,"rental_uris":{"android":"levelo://app?vid=bbc4a376-bee7-4ad5-a49a-1022d27c1489","ios":"levelo://app?vid=bbc4a376-bee7-4ad5-a49a-1022d27c1489"},"vehicle_type_id":"4","last_reported":1751116828,"current_range_meters":10800,"station_id":"ce4bhrh2rcd13ifvqhug","pricing_plan_id":"cebpf4jnsgd1na2vs0mg"},{"bike_id":"e6ce70f7-9138-485c-a4db-2c9174614cff","system_id":"levelo_inurba_marseille","lat":43.317792,"lon":5.368514,"is_reserved":false,"is_disabled":false,"rental_uris":{"android":"levelo://app?vid=e6ce70f7-9138-485c-a4db-2c9174614cff","ios":"levelo://app?vid=e6ce70f7-9138-485c-a4db-2c9174614cff"},"vehicle_type_id":"4","last_reported":1751116828,"current_range_meters":11200,"station_id":"","pricing_plan_id":"cebpf4jnsgd1na2vs0mg"},{"bike_id":"a030e09e-6025-4bf3-94ca-3962cb108236","system_id":"levelo_inurba_marseille","lat":43.30947,"lon":5.39021,"is_reserved":false,"is_disabled":false,"rental_uris":{"android":"levelo://app?vid=a030e09e-6025-4bf3-94ca-3962cb108236","ios":"levelo://app?vid=a030e09e-6025-4bf3-94ca-3962cb108236"},"vehicle_type_id":"4","last_reported":1751116828,"current_range_meters":11200,"station_id":"ce4bgup2rcd13ifvqco0","pricing_plan_id":"cebpf4jnsgd1na2vs0mg"},{"bike_id":"c7396d38-e122-4b74-87b9-36d364b3e5f2","system_id":"levelo_inurba_marseille","lat":43.28266,"lon":5.35062,"is_reserved":false,"is_disabled":false,"rental_uris":{"android":"levelo://app?vid=c7396d38-e122-4b74-87b9-36d364b3e5f2","ios":"levelo://app?vid=c7396d38-e122-4b74-87b9-36d364b3e5f2"},"vehicle_type_id":"4","last_reported":1751116828,"current_range_meters":11200,"station_id":"ce4bhbp2rcd13ifvqerg","pricing_plan_id":"cebpf4jnsgd1na2vs0mg"},{"bike_id":"a2588648-26dc-4121-bee2-c283e3f6b0c1","system_id":"levelo_inurba_marseille","lat":43.34134,"lon":5.40914,"is_reserved":false,"is_disabled":false,"rental_uris":{"android":"levelo://app?vid=a2588648-26dc-4121-bee2-c283e3f6b0c1","ios":"levelo://app?vid=a2588648-26dc-4121-bee2-c283e3f6b0c1"},"vehicle_type_id":"4","last_reported":1751116828,"current_range_meters":11200,"station_id":"ce4bhqh2rcd13ifvqhlg","pricing_plan_id":"cebpf4jnsgd1na2vs0mg"},{"bike_id":"dd61221e-ea4d-4de0-af25-1d0dd620f297","system_id":"levelo_inurba_marseille","lat":43.33599,"lon":5.41031,"is_reserved":false,"is_disabled":false,"rental_uris":{"android":"levelo://app?vid=dd61221e-ea4d-4de0-af25-1d0dd620f297","ios":"levelo://app?vid=dd61221e-ea4d-4de0-af25-1d0dd620f297"},"vehicle_type_id":"4","last_reported":1751116828,"current_range_meters":11200,"station_id":"ce4bhqh2rcd13ifvqhmg","pricing_plan_id":"cebpf4jnsgd1na2vs0mg"},{"bike_id":"13726ea4-91b3-4b24-87ce-db653217d50c","system_id":"levelo_inurba_marseille","lat":43.32126,"lon":5.36787,"is_reserved":false,"is_disabled":false,"rental_uris":{"android":"levelo://app?vid=13726ea4-91b3-4b24-87ce-db653217d50c","ios":"levelo://app?vid=13726ea4-91b3-4b24-87ce-db653217d50c"},"vehicle_type_id":"4","last_reported":1751116828,"current_range_meters":11200,"station_id":"ce4bhrh2rcd13ifvqhug","pricing_plan_id":"cebpf4jnsgd1na2vs0mg"},{"bike_id":"b266b36d-c328-4691-8298-fd36d6e08d51","system_id":"levelo_inurba_marseille","lat":43.22937,"lon":5.35384,"is_reserved":false,"is_disabled":false,"rental_uris":{"android":"levelo://app?vid=b266b36d-c328-4691-8298-fd36d6e08d51","ios":"levelo://app?vid=b266b36d-c328-4691-8298-fd36d6e08d51"},"vehicle_type_id":"4","last_reported":1751116828,"current_range_meters":11200,"station_id":"cpo3532slgdg3j2ikp40","pricing_plan_id":"cebpf4jnsgd1na2vs0mg"},{"bike_id":"828d8821-81e4-46b4-8f8d-85911226e6b8","system_id":"levelo_inurba_marseille","lat":43.28454,"lon":5.35886,"is_reserved":false,"is_disabled":false,"rental_uris":{"android":"levelo://app?vid=828d8821-81e4-46b4-8f8d-85911226e6b8","ios":"levelo://app?vid=828d8821-81e4-46b4-8f8d-85911226e6b8"},"vehicle_type_id":"4","last_reported":1751116828,"current_range_meters":11600,"station_id":"ce4bhah2rcd13ifvqei0","pricing_plan_id":"cebpf4jnsgd1na2vs0mg"},{"bike_id":"3e69fb4f-7c8a-4752-9909-712c19cbd3ec","system_id":"levelo_inurba_marseille","lat":43.24073,"lon":5.37765,"is_reserved":false,"is_disabled":false,"rental_uris":{"android":"levelo://app?vid=3e69fb4f-7c8a-4752-9909-712c19cbd3ec","ios":"levelo://app?vid=3e69fb4f-7c8a-4752-9909-712c19cbd3ec"},"vehicle_type_id":"4","last_reported":1751116828,"current_range_meters":11600,"station_id":"ce4bhnp2rcd13ifvqgvg","pricing_plan_id":"cebpf4jnsgd1na2vs0mg"},{"bike_id":"44b677c8-76ed-4eac-8888-58151f9d5d6e","system_id":"levelo_inurba_marseille","lat":43.31952,"lon":5.36736,"is_reserved":false,"is_disabled":false,"rental_uris":{"android":"levelo://app?vid=44b677c8-76ed-4eac-8888-58151f9d5d6e","ios":"levelo://app?vid=44b677c8-76ed-4eac-8888-58151f9d5d6e"},"vehicle_type_id":"4","last_reported":1751116828,"current_range_meters":12000,"station_id":"","pricing_plan_id":"cebpf4jnsgd1na2vs0mg"},{"bike_id":"fc1b2037-d372-4709-acc9-fbdfbc627e35","system_id":"levelo_inurba_marseille","lat":43.28352,"lon":5.38633,"is_reserved":false,"is_disabled":false,"rental_uris":{"android":"levelo://app?vid=fc1b2037-d372-4709-acc9-fbdfbc627e35","ios":"levelo://app?vid=fc1b2037-d372-4709-acc9-fbdfbc627e35"},"vehicle_type_id":"4","last_reported":1751116828,"current_range_meters":12000,"station_id":"ce4bh492rcd13ifvqdvg","pricing_plan_id":"cebpf4jnsgd1na2vs0mg"},{"bike_id":"2cbd26d7-8ccb-4bca-b892-7ed090bc3322","system_id":"levelo_inurba_marseille","lat":43.231954,"lon":5.355501,"is_reserved":false,"is_disabled":false,"rental_uris":{"android":"levelo://app?vid=2cbd26d7-8ccb-4bca-b892-7ed090bc3322","ios":"levelo://app?vid=2cbd26d7-8ccb-4bca-b892-7ed090bc3322"},"vehicle_type_id":"4","last_reported":1751116828,"current_range_meters":12000,"station_id":"ce4bhu92rcd13ifvqi70","pricing_plan_id":"cebpf4jnsgd1na2vs0mg"},{"bike_id":"fd042fc4-dc45-40c4-8df6-ee57d470eb1a","system_id":"levelo_inurba_marseille","lat":43.28721,"lon":5.36081,"is_reserved":false,"is_disabled":false,"rental_uris":{"android":"levelo://app?vid=fd042fc4-dc45-40c4-8df6-ee57d470eb1a","ios":"levelo://app?vid=fd042fc4-dc45-40c4-8df6-ee57d470eb1a"},"vehicle_type_id":"4","last_reported":1751116828,"current_range_meters":12000,"station_id":"cki0cbj6b192h4jlfktg","pricing_plan_id":"cebpf4jnsgd1na2vs0mg"},{"bike_id":"8a50aac5-39f1-4536-bea7-43efb3a7f1fe","system_id":"levelo_inurba_marseille","lat":43.21765,"lon":5.34645,"is_reserved":false,"is_disabled":false,"rental_uris":{"android":"levelo://app?vid=8a50aac5-39f1-4536-bea7-43efb3a7f1fe","ios":"levelo://app?vid=8a50aac5-39f1-4536-bea7-43efb3a7f1fe"},"vehicle_type_id":"4","last_reported":1751116828,"current_range_meters":12000,"station_id":"st_cvj6r9ubvosntc0bgbag","pricing_plan_id":"cebpf4jnsgd1na2vs0mg"},{"bike_id":"a0dba401-b1cc-4426-ba9b-d31b09bd8210","system_id":"levelo_inurba_marseille","lat":43.25501,"lon":5.37651,"is_reserved":false,"is_disabled":false,"rental_uris":{"android":"levelo://app?vid=a0dba401-b1cc-4426-ba9b-d31b09bd8210","ios":"levelo://app?vid=a0dba401-b1cc-4426-ba9b-d31b09bd8210"},"vehicle_type_id":"4","last_reported":1751116828,"current_range_meters":12400,"station_id":"ce4bhh12rcd13ifvqff0","pricing_plan_id":"cebpf4jnsgd1na2vs0mg"},{"bike_id":"fef317d5-e263-4c1e-9aa2-b8ccdae83e8a","system_id":"levelo_inurba_marseille","lat":43.27566,"lon":5.38435,"is_reserved":false,"is_disabled":false,"rental_uris":{"android":"levelo://app?vid=fef317d5-e263-4c1e-9aa2-b8ccdae83e8a","ios":"levelo://app?vid=fef317d5-e263-4c1e-9aa2-b8ccdae83e8a"},"vehicle_type_id":"4","last_reported":1751116828,"current_range_meters":12400,"station_id":"ce4bhh92rcd13ifvqfi0","pricing_plan_id":"cebpf4jnsgd1na2vs0mg"},{"bike_id":"fe3b5a53-e17f-416a-a335-007f46827ad4","system_id":"levelo_inurba_marseille","lat":43.28669,"lon":5.38659,"is_reserved":false,"is_disabled":false,"rental_uris":{"android":"levelo://app?vid=fe3b5a53-e17f-416a-a335-007f46827ad4","ios":"levelo://app?vid=fe3b5a53-e17f-416a-a335-007f46827ad4"},"vehicle_type_id":"4","last_reported":1751116828,"current_range_meters":12800,"station_id":"ce4bh492rcd13ifvqdug","pricing_plan_id":"cebpf4jnsgd1na2vs0mg"},{"bike_id":"cf984e9c-fafd-4539-8384-f53854da8be6","system_id":"levelo_inurba_marseille","lat":43.274,"lon":5.3628,"is_reserved":false,"is_disabled":false,"rental_uris":{"android":"levelo://app?vid=cf984e9c-fafd-4539-8384-f53854da8be6","ios":"levelo://app?vid=cf984e9c-fafd-4539-8384-f53854da8be6"},"vehicle_type_id":"4","last_reported":1751116828,"current_range_meters":12800,"station_id":"ce4bhbh2rcd13ifvqeo0","pricing_plan_id":"cebpf4jnsgd1na2vs0mg"},{"bike_id":"e33cafd1-8c4d-4f35-aba6-5250478e97ac","system_id":"levelo_inurba_marseille","lat":43.28403,"lon":5.34984,"is_reserved":false,"is_disabled":false,"rental_uris":{"android":"levelo://app?vid=e33cafd1-8c4d-4f35-aba6-5250478e97ac","ios":"levelo://app?vid=e33cafd1-8c4d-4f35-aba6-5250478e97ac"},"vehicle_type_id":"4","last_reported":1751116828,"current_range_meters":12800,"station_id":"ce4bhbh2rcd13ifvqepg","pricing_plan_id":"cebpf4jnsgd1na2vs0mg"},{"bike_id":"259e3f4a-7641-4583-9297-4f761226d81f","system_id":"levelo_inurba_marseille","lat":43.27321,"lon":5.39115,"is_reserved":false,"is_disabled":false,"rental_uris":{"android":"levelo://app?vid=259e3f4a-7641-4583-9297-4f761226d81f","ios":"levelo://app?vid=259e3f4a-7641-4583-9297-4f761226d81f"},"vehicle_type_id":"4","last_reported":1751116828,"current_range_meters":12800,"station_id":"ce4bhgp2rcd13ifvqfe0","pricing_plan_id":"cebpf4jnsgd1na2vs0mg"},{"bike_id":"9c63e9b2-2323-48f2-93ab-713cdd6ccb8e","system_id":"levelo_inurba_marseille","lat":43.32038,"lon":5.41575,"is_reserved":false,"is_disabled":false,"rental_uris":{"android":"levelo://app?vid=9c63e9b2-2323-48f2-93ab-713cdd6ccb8e","ios":"levelo://app?vid=9c63e9b2-2323-48f2-93ab-713cdd6ccb8e"},"vehicle_type_id":"4","last_reported":1751116828,"current_range_meters":12800,"station_id":"ce4bhq92rcd13ifvqhkg","pricing_plan_id":"cebpf4jnsgd1na2vs0mg"},{"bike_id":"6e86d068-d85e-4bf4-8963-42f8c40a4e34","system_id":"levelo_inurba_marseille","lat":43.26024,"lon":5.37553,"is_reserved":false,"is_disabled":false,"rental_uris":{"android":"levelo://app?vid=6e86d068-d85e-4bf4-8963-42f8c40a4e34","ios":"levelo://app?vid=6e86d068-d85e-4bf4-8963-42f8c40a4e34"},"vehicle_type_id":"4","last_reported":1751116828,"current_range_meters":13600,"station_id":"ce4bhgh2rcd13ifvqfa0","pricing_plan_id":"cebpf4jnsgd1na2vs0mg"},{"bike_id":"7d8771fd-8f87-4671-a9b9-c4991f65c3de","system_id":"levelo_inurba_marseille","lat":43.24389,"lon":5.37061,"is_reserved":false,"is_disabled":false,"rental_uris":{"android":"levelo://app?vid=7d8771fd-8f87-4671-a9b9-c4991f65c3de","ios":"levelo://app?vid=7d8771fd-8f87-4671-a9b9-c4991f65c3de"},"vehicle_type_id":"4","last_reported":1751116828,"current_range_meters":13600,"station_id":"ce4bhhh2rcd13ifvqfk0","pricing_plan_id":"cebpf4jnsgd1na2vs0mg"},{"bike_id":"32983323-0cd0-407c-af59-7a38a9d92fd7","system_id":"levelo_inurba_marseille","lat":43.23192,"lon":5.39985,"is_reserved":false,"is_disabled":false,"rental_uris":{"android":"levelo://app?vid=32983323-0cd0-407c-af59-7a38a9d92fd7","ios":"levelo://app?vid=32983323-0cd0-407c-af59-7a38a9d92fd7"},"vehicle_type_id":"4","last_reported":1751116828,"current_range_meters":13600,"station_id":"ce4bhn12rcd13ifvqgqg","pricing_plan_id":"cebpf4jnsgd1na2vs0mg"},{"bike_id":"ef396abd-4df3-4ab5-97a6-e930bc5b3585","system_id":"levelo_inurba_marseille","lat":43.28705,"lon":5.39983,"is_reserved":false,"is_disabled":false,"rental_uris":{"android":"levelo://app?vid=ef396abd-4df3-4ab5-97a6-e930bc5b3585","ios":"levelo://app?vid=ef396abd-4df3-4ab5-97a6-e930bc5b3585"},"vehicle_type_id":"4","last_reported":1751116828,"current_range_meters":13600,"station_id":"ce4bho92rcd13ifvqh3g","pricing_plan_id":"cebpf4jnsgd1na2vs0mg"},{"bike_id":"873ce198-d36d-4815-8778-b72bd2ca0116","system_id":"levelo_inurba_marseille","lat":43.32132,"lon":5.36796,"is_reserved":false,"is_disabled":false,"rental_uris":{"android":"levelo://app?vid=873ce198-d36d-4815-8778-b72bd2ca0116","ios":"levelo://app?vid=873ce198-d36d-4815-8778-b72bd2ca0116"},"vehicle_type_id":"4","last_reported":1751116828,"current_range_meters":13600,"station_id":"ce4bhrh2rcd13ifvqhug","pricing_plan_id":"cebpf4jnsgd1na2vs0mg"},{"bike_id":"a7883090-0e10-4075-944b-a3cca54bc544","system_id":"levelo_inurba_marseille","lat":43.22508,"lon":5.34796,"is_reserved":false,"is_disabled":false,"rental_uris":{"android":"levelo://app?vid=a7883090-0e10-4075-944b-a3cca54bc544","ios":"levelo://app?vid=a7883090-0e10-4075-944b-a3cca54bc544"},"vehicle_type_id":"4","last_reported":1751116828,"current_range_meters":13600,"station_id":"st_cvj5dfep6f1abm77gieg","pricing_plan_id":"cebpf4jnsgd1na2vs0mg"},{"bike_id":"db6aaebb-75a1-4c34-bf9a-52b3d4679d75","system_id":"levelo_inurba_marseille","lat":43.21749,"lon":5.34627,"is_reserved":false,"is_disabled":false,"rental_uris":{"android":"levelo://app?vid=db6aaebb-75a1-4c34-bf9a-52b3d4679d75","ios":"levelo://app?vid=db6aaebb-75a1-4c34-bf9a-52b3d4679d75"},"vehicle_type_id":"4","last_reported":1751116828,"current_range_meters":13600,"station_id":"st_cvj6r9ubvosntc0bgbag","pricing_plan_id":"cebpf4jnsgd1na2vs0mg"},{"bike_id":"879aed41-7c37-478a-8a43-0fb85b03ecb4","system_id":"levelo_inurba_marseille","lat":43.21194,"lon":5.35077,"is_reserved":false,"is_disabled":false,"rental_uris":{"android":"levelo://app?vid=879aed41-7c37-478a-8a43-0fb85b03ecb4","ios":"levelo://app?vid=879aed41-7c37-478a-8a43-0fb85b03ecb4"},"vehicle_type_id":"4","last_reported":1751116828,"current_range_meters":13600,"station_id":"st_cvj6sg6p6f1abm77japg","pricing_plan_id":"cebpf4jnsgd1na2vs0mg"},{"bike_id":"13fabc0f-5bfd-4dc8-9136-84b1659cd66b","system_id":"levelo_inurba_marseille","lat":43.211927,"lon":5.350776,"is_reserved":false,"is_disabled":false,"rental_uris":{"android":"levelo://app?vid=13fabc0f-5bfd-4dc8-9136-84b1659cd66b","ios":"levelo://app?vid=13fabc0f-5bfd-4dc8-9136-84b1659cd66b"},"vehicle_type_id":"4","last_reported":1751116828,"current_range_meters":13600,"station_id":"st_cvj6sg6p6f1abm77japg","pricing_plan_id":"cebpf4jnsgd1na2vs0mg"},{"bike_id":"12c7fc9f-7c7b-4185-9b2f-badd0c17e36b","system_id":"levelo_inurba_marseille","lat":43.2473,"lon":5.37439,"is_reserved":false,"is_disabled":false,"rental_uris":{"android":"levelo://app?vid=12c7fc9f-7c7b-4185-9b2f-badd0c17e36b","ios":"levelo://app?vid=12c7fc9f-7c7b-4185-9b2f-badd0c17e36b"},"vehicle_type_id":"4","last_reported":1751116828,"current_range_meters":14000,"station_id":"","pricing_plan_id":"cebpf4jnsgd1na2vs0mg"},{"bike_id":"721165c1-ef6f-40cc-8d33-af3a7999864b","system_id":"levelo_inurba_marseille","lat":43.32637,"lon":5.37902,"is_reserved":false,"is_disabled":false,"rental_uris":{"android":"levelo://app?vid=721165c1-ef6f-40cc-8d33-af3a7999864b","ios":"levelo://app?vid=721165c1-ef6f-40cc-8d33-af3a7999864b"},"vehicle_type_id":"4","last_reported":1751116828,"current_range_meters":14000,"station_id":"","pricing_plan_id":"cebpf4jnsgd1na2vs0mg"},{"bike_id":"0608f7c0-c5c6-4c4b-aefa-8adc1f78aece","system_id":"levelo_inurba_marseille","lat":43.29776,"lon":5.37096,"is_reserved":false,"is_disabled":false,"rental_uris":{"android":"levelo://app?vid=0608f7c0-c5c6-4c4b-aefa-8adc1f78aece","ios":"levelo://app?vid=0608f7c0-c5c6-4c4b-aefa-8adc1f78aece"},"vehicle_type_id":"4","last_reported":1751116828,"current_range_meters":14000,"station_id":"ce4bgop2rcd13ifvqc1g","pricing_plan_id":"cebpf4jnsgd1na2vs0mg"},{"bike_id":"465d715d-c466-435a-83c2-03d320454a0a","system_id":"levelo_inurba_marseille","lat":43.28407,"lon":5.34998,"is_reserved":false,"is_disabled":false,"rental_uris":{"android":"levelo://app?vid=465d715d-c466-435a-83c2-03d320454a0a","ios":"levelo://app?vid=465d715d-c466-435a-83c2-03d320454a0a"},"vehicle_type_id":"4","last_reported":1751116828,"current_range_meters":14000,"station_id":"ce4bhbh2rcd13ifvqepg","pricing_plan_id":"cebpf4jnsgd1na2vs0mg"},{"bike_id":"93fb9e8a-2df2-41a2-afce-e0f72f6b7c05","system_id":"levelo_inurba_marseille","lat":43.23188,"lon":5.399893,"is_reserved":false,"is_disabled":false,"rental_uris":{"android":"levelo://app?vid=93fb9e8a-2df2-41a2-afce-e0f72f6b7c05","ios":"levelo://app?vid=93fb9e8a-2df2-41a2-afce-e0f72f6b7c05"},"vehicle_type_id":"4","last_reported":1751116828,"current_range_meters":14000,"station_id":"ce4bhn12rcd13ifvqgqg","pricing_plan_id":"cebpf4jnsgd1na2vs0mg"},{"bike_id":"14e8ef37-e834-4d76-9946-e98f7a083a2f","system_id":"levelo_inurba_marseille","lat":43.21192,"lon":5.35115,"is_reserved":false,"is_disabled":false,"rental_uris":{"android":"levelo://app?vid=14e8ef37-e834-4d76-9946-e98f7a083a2f","ios":"levelo://app?vid=14e8ef37-e834-4d76-9946-e98f7a083a2f"},"vehicle_type_id":"4","last_reported":1751116828,"current_range_meters":14000,"station_id":"st_cvj6sg6p6f1abm77japg","pricing_plan_id":"cebpf4jnsgd1na2vs0mg"},{"bike_id":"a8c57fea-cc06-455e-ba8b-890b8a88fdb2","system_id":"levelo_inurba_marseille","lat":43.298061,"lon":5.380912,"is_reserved":false,"is_disabled":false,"rental_uris":{"android":"levelo://app?vid=a8c57fea-cc06-455e-ba8b-890b8a88fdb2","ios":"levelo://app?vid=a8c57fea-cc06-455e-ba8b-890b8a88fdb2"},"vehicle_type_id":"4","last_reported":1751116828,"current_range_meters":14400,"station_id":"ce4bgip2rcd13ifvqbb0","pricing_plan_id":"cebpf4jnsgd1na2vs0mg"},{"bike_id":"c92b1d14-6727-44c4-b524-81490e184e51","system_id":"levelo_inurba_marseille","lat":43.29835,"lon":5.36276,"is_reserved":false,"is_disabled":false,"rental_uris":{"android":"levelo://app?vid=c92b1d14-6727-44c4-b524-81490e184e51","ios":"levelo://app?vid=c92b1d14-6727-44c4-b524-81490e184e51"},"vehicle_type_id":"4","last_reported":1751116828,"current_range_meters":14400,"station_id":"ce4bgpp2rcd13ifvqc3g","pricing_plan_id":"cebpf4jnsgd1na2vs0mg"},{"bike_id":"0b957ade-6683-45a3-971a-83842cef1a0e","system_id":"levelo_inurba_marseille","lat":43.2738,"lon":5.3625,"is_reserved":false,"is_disabled":false,"rental_uris":{"android":"levelo://app?vid=0b957ade-6683-45a3-971a-83842cef1a0e","ios":"levelo://app?vid=0b957ade-6683-45a3-971a-83842cef1a0e"},"vehicle_type_id":"4","last_reported":1751116828,"current_range_meters":14400,"station_id":"ce4bhbh2rcd13ifvqeo0","pricing_plan_id":"cebpf4jnsgd1na2vs0mg"},{"bike_id":"137a946d-57d1-488d-b092-46a93fc05b12","system_id":"levelo_inurba_marseille","lat":43.28262,"lon":5.35069,"is_reserved":false,"is_disabled":false,"rental_uris":{"android":"levelo://app?vid=137a946d-57d1-488d-b092-46a93fc05b12","ios":"levelo://app?vid=137a946d-57d1-488d-b092-46a93fc05b12"},"vehicle_type_id":"4","last_reported":1751116828,"current_range_meters":14400,"station_id":"ce4bhbp2rcd13ifvqerg","pricing_plan_id":"cebpf4jnsgd1na2vs0mg"},{"bike_id":"ef64fbab-eb22-4f6b-8145-d37c14a78520","system_id":"levelo_inurba_marseille","lat":43.2781,"lon":5.4071,"is_reserved":false,"is_disabled":false,"rental_uris":{"android":"levelo://app?vid=ef64fbab-eb22-4f6b-8145-d37c14a78520","ios":"levelo://app?vid=ef64fbab-eb22-4f6b-8145-d37c14a78520"},"vehicle_type_id":"4","last_reported":1751116828,"current_range_meters":14400,"station_id":"ce4bhnh2rcd13ifvqgtg","pricing_plan_id":"cebpf4jnsgd1na2vs0mg"},{"bike_id":"0ca717a1-45d0-467a-befd-9d85a9b7f044","system_id":"levelo_inurba_marseille","lat":43.30317,"lon":5.40119,"is_reserved":false,"is_disabled":false,"rental_uris":{"android":"levelo://app?vid=0ca717a1-45d0-467a-befd-9d85a9b7f044","ios":"levelo://app?vid=0ca717a1-45d0-467a-befd-9d85a9b7f044"},"vehicle_type_id":"4","last_reported":1751116828,"current_range_meters":14800,"station_id":"","pricing_plan_id":"cebpf4jnsgd1na2vs0mg"},{"bike_id":"762acdc5-9b99-47a0-bda1-ee8060271245","system_id":"levelo_inurba_marseille","lat":43.21165,"lon":5.35084,"is_reserved":false,"is_disabled":false,"rental_uris":{"android":"levelo://app?vid=762acdc5-9b99-47a0-bda1-ee8060271245","ios":"levelo://app?vid=762acdc5-9b99-47a0-bda1-ee8060271245"},"vehicle_type_id":"4","last_reported":1751116828,"current_range_meters":14800,"station_id":"","pricing_plan_id":"cebpf4jnsgd1na2vs0mg"},{"bike_id":"0c803610-f6e9-41d4-936d-0b433fa62796","system_id":"levelo_inurba_marseille","lat":43.29329,"lon":5.37136,"is_reserved":false,"is_disabled":false,"rental_uris":{"android":"levelo://app?vid=0c803610-f6e9-41d4-936d-0b433fa62796","ios":"levelo://app?vid=0c803610-f6e9-41d4-936d-0b433fa62796"},"vehicle_type_id":"4","last_reported":1751116828,"current_range_meters":14800,"station_id":"ce4bgh92rcd13ifvqb40","pricing_plan_id":"cebpf4jnsgd1na2vs0mg"},{"bike_id":"52e3af44-39f3-41b5-a62b-2cf18eb00f91","system_id":"levelo_inurba_marseille","lat":43.29617,"lon":5.37731,"is_reserved":false,"is_disabled":false,"rental_uris":{"android":"levelo://app?vid=52e3af44-39f3-41b5-a62b-2cf18eb00f91","ios":"levelo://app?vid=52e3af44-39f3-41b5-a62b-2cf18eb00f91"},"vehicle_type_id":"4","last_reported":1751116828,"current_range_meters":14800,"station_id":"ce4bgi92rcd13ifvqb90","pricing_plan_id":"cebpf4jnsgd1na2vs0mg"},{"bike_id":"03e0de36-bf27-4790-823b-078c473638df","system_id":"levelo_inurba_marseille","lat":43.295882,"lon":5.367391,"is_reserved":false,"is_disabled":false,"rental_uris":{"android":"levelo://app?vid=03e0de36-bf27-4790-823b-078c473638df","ios":"levelo://app?vid=03e0de36-bf27-4790-823b-078c473638df"},"vehicle_type_id":"4","last_reported":1751116828,"current_range_meters":14800,"station_id":"ce4bgph2rcd13ifvqc2g","pricing_plan_id":"cebpf4jnsgd1na2vs0mg"},{"bike_id":"3e932676-69f4-4d1f-8efe-f04119a399f0","system_id":"levelo_inurba_marseille","lat":43.29844,"lon":5.36282,"is_reserved":false,"is_disabled":false,"rental_uris":{"android":"levelo://app?vid=3e932676-69f4-4d1f-8efe-f04119a399f0","ios":"levelo://app?vid=3e932676-69f4-4d1f-8efe-f04119a399f0"},"vehicle_type_id":"4","last_reported":1751116828,"current_range_meters":14800,"station_id":"ce4bgpp2rcd13ifvqc3g","pricing_plan_id":"cebpf4jnsgd1na2vs0mg"},{"bike_id":"2e643bcf-a796-4ada-840a-66c2de1b9a04","system_id":"levelo_inurba_marseille","lat":43.31327,"lon":5.39696,"is_reserved":false,"is_disabled":false,"rental_uris":{"android":"levelo://app?vid=2e643bcf-a796-4ada-840a-66c2de1b9a04","ios":"levelo://app?vid=2e643bcf-a796-4ada-840a-66c2de1b9a04"},"vehicle_type_id":"4","last_reported":1751116828,"current_range_meters":14800,"station_id":"ce4bgvp2rcd13ifvqcu0","pricing_plan_id":"cebpf4jnsgd1na2vs0mg"},{"bike_id":"59daec13-2ee2-43a9-8a43-ff82fd9cfd45","system_id":"levelo_inurba_marseille","lat":43.29002,"lon":5.35609,"is_reserved":false,"is_disabled":false,"rental_uris":{"android":"levelo://app?vid=59daec13-2ee2-43a9-8a43-ff82fd9cfd45","ios":"levelo://app?vid=59daec13-2ee2-43a9-8a43-ff82fd9cfd45"},"vehicle_type_id":"4","last_reported":1751116828,"current_range_meters":14800,"station_id":"ce4bhb92rcd13ifvqen0","pricing_plan_id":"cebpf4jnsgd1na2vs0mg"},{"bike_id":"f0057ca2-de2d-4464-8902-068dc3677e00","system_id":"levelo_inurba_marseille","lat":43.21195,"lon":5.35077,"is_reserved":false,"is_disabled":false,"rental_uris":{"android":"levelo://app?vid=f0057ca2-de2d-4464-8902-068dc3677e00","ios":"levelo://app?vid=f0057ca2-de2d-4464-8902-068dc3677e00"},"vehicle_type_id":"4","last_reported":1751116828,"current_range_meters":14800,"station_id":"st_cvj6sg6p6f1abm77japg","pricing_plan_id":"cebpf4jnsgd1na2vs0mg"},{"bike_id":"f431d4f4-100f-497f-a0bd-4eb7d23f37b8","system_id":"levelo_inurba_marseille","lat":43.31698,"lon":5.37819,"is_reserved":false,"is_disabled":false,"rental_uris":{"android":"levelo://app?vid=f431d4f4-100f-497f-a0bd-4eb7d23f37b8","ios":"levelo://app?vid=f431d4f4-100f-497f-a0bd-4eb7d23f37b8"},"vehicle_type_id":"4","last_reported":1751116828,"current_range_meters":15200,"station_id":"ce4bgth2rcd13ifvqch0","pricing_plan_id":"cebpf4jnsgd1na2vs0mg"},{"bike_id":"83f1b87f-21fa-4a78-9925-2a1d4f41e075","system_id":"levelo_inurba_marseille","lat":43.28451,"lon":5.35886,"is_reserved":false,"is_disabled":false,"rental_uris":{"android":"levelo://app?vid=83f1b87f-21fa-4a78-9925-2a1d4f41e075","ios":"levelo://app?vid=83f1b87f-21fa-4a78-9925-2a1d4f41e075"},"vehicle_type_id":"4","last_reported":1751116828,"current_range_meters":15200,"station_id":"ce4bhah2rcd13ifvqei0","pricing_plan_id":"cebpf4jnsgd1na2vs0mg"},{"bike_id":"a02a4cb9-df47-4851-a1e9-0476259e4369","system_id":"levelo_inurba_marseille","lat":43.27383,"lon":5.36268,"is_reserved":false,"is_disabled":false,"rental_uris":{"android":"levelo://app?vid=a02a4cb9-df47-4851-a1e9-0476259e4369","ios":"levelo://app?vid=a02a4cb9-df47-4851-a1e9-0476259e4369"},"vehicle_type_id":"4","last_reported":1751116828,"current_range_meters":15200,"station_id":"ce4bhbh2rcd13ifvqeo0","pricing_plan_id":"cebpf4jnsgd1na2vs0mg"},{"bike_id":"1c65bfc3-ae68-44a0-8cca-6287af1d3354","system_id":"levelo_inurba_marseille","lat":43.26552,"lon":5.37292,"is_reserved":false,"is_disabled":false,"rental_uris":{"android":"levelo://app?vid=1c65bfc3-ae68-44a0-8cca-6287af1d3354","ios":"levelo://app?vid=1c65bfc3-ae68-44a0-8cca-6287af1d3354"},"vehicle_type_id":"4","last_reported":1751116828,"current_range_meters":15200,"station_id":"ce4bhg12rcd13ifvqf70","pricing_plan_id":"cebpf4jnsgd1na2vs0mg"},{"bike_id":"30514489-4d8b-430f-a683-d7e38c63b449","system_id":"levelo_inurba_marseille","lat":43.26956,"lon":5.38633,"is_reserved":false,"is_disabled":false,"rental_uris":{"android":"levelo://app?vid=30514489-4d8b-430f-a683-d7e38c63b449","ios":"levelo://app?vid=30514489-4d8b-430f-a683-d7e38c63b449"},"vehicle_type_id":"4","last_reported":1751116828,"current_range_meters":15200,"station_id":"ce4bhh92rcd13ifvqfh0","pricing_plan_id":"cebpf4jnsgd1na2vs0mg"},{"bike_id":"6af79a00-84aa-4908-a347-34425e08c383","system_id":"levelo_inurba_marseille","lat":43.30291,"lon":5.375703,"is_reserved":false,"is_disabled":false,"rental_uris":{"android":"levelo://app?vid=6af79a00-84aa-4908-a347-34425e08c383","ios":"levelo://app?vid=6af79a00-84aa-4908-a347-34425e08c383"},"vehicle_type_id":"4","last_reported":1751116828,"current_range_meters":16000,"station_id":"","pricing_plan_id":"cebpf4jnsgd1na2vs0mg"},{"bike_id":"a16b2650-a578-40c8-8d0c-ea49ed926342","system_id":"levelo_inurba_marseille","lat":43.25497,"lon":5.37652,"is_reserved":false,"is_disabled":false,"rental_uris":{"android":"levelo://app?vid=a16b2650-a578-40c8-8d0c-ea49ed926342","ios":"levelo://app?vid=a16b2650-a578-40c8-8d0c-ea49ed926342"},"vehicle_type_id":"4","last_reported":1751116828,"current_range_meters":16000,"station_id":"","pricing_plan_id":"cebpf4jnsgd1na2vs0mg"},{"bike_id":"687ff563-4138-4c2b-87e1-dfc4bc4ee91c","system_id":"levelo_inurba_marseille","lat":43.29781,"lon":5.38086,"is_reserved":false,"is_disabled":false,"rental_uris":{"android":"levelo://app?vid=687ff563-4138-4c2b-87e1-dfc4bc4ee91c","ios":"levelo://app?vid=687ff563-4138-4c2b-87e1-dfc4bc4ee91c"},"vehicle_type_id":"4","last_reported":1751116828,"current_range_meters":16000,"station_id":"ce4bgip2rcd13ifvqbb0","pricing_plan_id":"cebpf4jnsgd1na2vs0mg"},{"bike_id":"802b2630-8376-4119-a81f-42e77fef6b85","system_id":"levelo_inurba_marseille","lat":43.28415,"lon":5.35013,"is_reserved":false,"is_disabled":false,"rental_uris":{"android":"levelo://app?vid=802b2630-8376-4119-a81f-42e77fef6b85","ios":"levelo://app?vid=802b2630-8376-4119-a81f-42e77fef6b85"},"vehicle_type_id":"4","last_reported":1751116828,"current_range_meters":16000,"station_id":"ce4bhbh2rcd13ifvqepg","pricing_plan_id":"cebpf4jnsgd1na2vs0mg"},{"bike_id":"5f81423f-d6ff-4fb7-90e9-a69952dfe54c","system_id":"levelo_inurba_marseille","lat":43.29218,"lon":5.36089,"is_reserved":false,"is_disabled":false,"rental_uris":{"android":"levelo://app?vid=5f81423f-d6ff-4fb7-90e9-a69952dfe54c","ios":"levelo://app?vid=5f81423f-d6ff-4fb7-90e9-a69952dfe54c"},"vehicle_type_id":"4","last_reported":1751116828,"current_range_meters":16000,"station_id":"ce4bhbh2rcd13ifvqeqg","pricing_plan_id":"cebpf4jnsgd1na2vs0mg"},{"bike_id":"19eea77e-e563-4047-9453-c646ca2fb303","system_id":"levelo_inurba_marseille","lat":43.27908,"lon":5.39599,"is_reserved":false,"is_disabled":false,"rental_uris":{"android":"levelo://app?vid=19eea77e-e563-4047-9453-c646ca2fb303","ios":"levelo://app?vid=19eea77e-e563-4047-9453-c646ca2fb303"},"vehicle_type_id":"4","last_reported":1751116828,"current_range_meters":16000,"station_id":"ce4bhf92rcd13ifvqf40","pricing_plan_id":"cebpf4jnsgd1na2vs0mg"},{"bike_id":"7025df18-330e-42a4-bc8d-a4cf9b4b300e","system_id":"levelo_inurba_marseille","lat":43.248,"lon":5.3745,"is_reserved":false,"is_disabled":false,"rental_uris":{"android":"levelo://app?vid=7025df18-330e-42a4-bc8d-a4cf9b4b300e","ios":"levelo://app?vid=7025df18-330e-42a4-bc8d-a4cf9b4b300e"},"vehicle_type_id":"4","last_reported":1751116828,"current_range_meters":16000,"station_id":"ce4bhgh2rcd13ifvqfb0","pricing_plan_id":"cebpf4jnsgd1na2vs0mg"},{"bike_id":"c870983c-4eb0-42f1-89d5-2233cba5405b","system_id":"levelo_inurba_marseille","lat":43.32043,"lon":5.41549,"is_reserved":false,"is_disabled":false,"rental_uris":{"android":"levelo://app?vid=c870983c-4eb0-42f1-89d5-2233cba5405b","ios":"levelo://app?vid=c870983c-4eb0-42f1-89d5-2233cba5405b"},"vehicle_type_id":"4","last_reported":1751116828,"current_range_meters":16400,"station_id":"ce4bhq92rcd13ifvqhkg","pricing_plan_id":"cebpf4jnsgd1na2vs0mg"},{"bike_id":"f810be2a-3c00-446f-9ba1-1f3840ce349d","system_id":"levelo_inurba_marseille","lat":43.321,"lon":5.3677,"is_reserved":false,"is_disabled":false,"rental_uris":{"android":"levelo://app?vid=f810be2a-3c00-446f-9ba1-1f3840ce349d","ios":"levelo://app?vid=f810be2a-3c00-446f-9ba1-1f3840ce349d"},"vehicle_type_id":"4","last_reported":1751116828,"current_range_meters":16400,"station_id":"ce4bhrh2rcd13ifvqhug","pricing_plan_id":"cebpf4jnsgd1na2vs0mg"},{"bike_id":"bf525adf-9539-4b47-9dea-a6c9ac31b7a5","system_id":"levelo_inurba_marseille","lat":43.229346,"lon":5.353889,"is_reserved":false,"is_disabled":false,"rental_uris":{"android":"levelo://app?vid=bf525adf-9539-4b47-9dea-a6c9ac31b7a5","ios":"levelo://app?vid=bf525adf-9539-4b47-9dea-a6c9ac31b7a5"},"vehicle_type_id":"4","last_reported":1751116828,"current_range_meters":16400,"station_id":"cpo3532slgdg3j2ikp40","pricing_plan_id":"cebpf4jnsgd1na2vs0mg"},{"bike_id":"c0a2de0a-20e3-4e62-848e-f0dbd6b2e588","system_id":"levelo_inurba_marseille","lat":43.22512,"lon":5.34787,"is_reserved":false,"is_disabled":false,"rental_uris":{"android":"levelo://app?vid=c0a2de0a-20e3-4e62-848e-f0dbd6b2e588","ios":"levelo://app?vid=c0a2de0a-20e3-4e62-848e-f0dbd6b2e588"},"vehicle_type_id":"4","last_reported":1751116828,"current_range_meters":16400,"station_id":"st_cvj5dfep6f1abm77gieg","pricing_plan_id":"cebpf4jnsgd1na2vs0mg"},{"bike_id":"2a9a5366-8dad-42f1-bee6-ffb042c54776","system_id":"levelo_inurba_marseille","lat":43.21195,"lon":5.35085,"is_reserved":false,"is_disabled":false,"rental_uris":{"android":"levelo://app?vid=2a9a5366-8dad-42f1-bee6-ffb042c54776","ios":"levelo://app?vid=2a9a5366-8dad-42f1-bee6-ffb042c54776"},"vehicle_type_id":"4","last_reported":1751116828,"current_range_meters":16400,"station_id":"st_cvj6sg6p6f1abm77japg","pricing_plan_id":"cebpf4jnsgd1na2vs0mg"},{"bike_id":"e5e9e78b-4730-43b1-8651-5c571c638bbb","system_id":"levelo_inurba_marseille","lat":43.21193,"lon":5.35076,"is_reserved":false,"is_disabled":false,"rental_uris":{"android":"levelo://app?vid=e5e9e78b-4730-43b1-8651-5c571c638bbb","ios":"levelo://app?vid=e5e9e78b-4730-43b1-8651-5c571c638bbb"},"vehicle_type_id":"4","last_reported":1751116828,"current_range_meters":16400,"station_id":"st_cvj6sg6p6f1abm77japg","pricing_plan_id":"cebpf4jnsgd1na2vs0mg"},{"bike_id":"6f4919b0-d9c4-4c52-b108-ac1dd2e153c7","system_id":"levelo_inurba_marseille","lat":43.31288,"lon":5.36889,"is_reserved":false,"is_disabled":false,"rental_uris":{"android":"levelo://app?vid=6f4919b0-d9c4-4c52-b108-ac1dd2e153c7","ios":"levelo://app?vid=6f4919b0-d9c4-4c52-b108-ac1dd2e153c7"},"vehicle_type_id":"4","last_reported":1751116828,"current_range_meters":16800,"station_id":"","pricing_plan_id":"cebpf4jnsgd1na2vs0mg"},{"bike_id":"d88f7a9b-532d-4f16-a895-aad8a6fdc835","system_id":"levelo_inurba_marseille","lat":43.295735,"lon":5.367287,"is_reserved":false,"is_disabled":false,"rental_uris":{"android":"levelo://app?vid=d88f7a9b-532d-4f16-a895-aad8a6fdc835","ios":"levelo://app?vid=d88f7a9b-532d-4f16-a895-aad8a6fdc835"},"vehicle_type_id":"4","last_reported":1751116828,"current_range_meters":16800,"station_id":"ce4bgph2rcd13ifvqc2g","pricing_plan_id":"cebpf4jnsgd1na2vs0mg"},{"bike_id":"e37329cc-de3e-4375-bbc0-0334dea0d5fc","system_id":"levelo_inurba_marseille","lat":43.28456,"lon":5.35884,"is_reserved":false,"is_disabled":false,"rental_uris":{"android":"levelo://app?vid=e37329cc-de3e-4375-bbc0-0334dea0d5fc","ios":"levelo://app?vid=e37329cc-de3e-4375-bbc0-0334dea0d5fc"},"vehicle_type_id":"4","last_reported":1751116828,"current_range_meters":16800,"station_id":"ce4bhah2rcd13ifvqei0","pricing_plan_id":"cebpf4jnsgd1na2vs0mg"},{"bike_id":"bcf0587e-7f88-4460-8702-f702ba62a6fc","system_id":"levelo_inurba_marseille","lat":43.28406,"lon":5.34976,"is_reserved":false,"is_disabled":false,"rental_uris":{"android":"levelo://app?vid=bcf0587e-7f88-4460-8702-f702ba62a6fc","ios":"levelo://app?vid=bcf0587e-7f88-4460-8702-f702ba62a6fc"},"vehicle_type_id":"4","last_reported":1751116828,"current_range_meters":16800,"station_id":"ce4bhbh2rcd13ifvqepg","pricing_plan_id":"cebpf4jnsgd1na2vs0mg"},{"bike_id":"9a721d67-8eef-475d-96f7-78188a5b0787","system_id":"levelo_inurba_marseille","lat":43.28413,"lon":5.34978,"is_reserved":false,"is_disabled":false,"rental_uris":{"android":"levelo://app?vid=9a721d67-8eef-475d-96f7-78188a5b0787","ios":"levelo://app?vid=9a721d67-8eef-475d-96f7-78188a5b0787"},"vehicle_type_id":"4","last_reported":1751116828,"current_range_meters":16800,"station_id":"ce4bhbh2rcd13ifvqepg","pricing_plan_id":"cebpf4jnsgd1na2vs0mg"},{"bike_id":"1c52be4d-e3b4-48b8-a2fb-9956dafa91b4","system_id":"levelo_inurba_marseille","lat":43.26483,"lon":5.39548,"is_reserved":false,"is_disabled":false,"rental_uris":{"android":"levelo://app?vid=1c52be4d-e3b4-48b8-a2fb-9956dafa91b4","ios":"levelo://app?vid=1c52be4d-e3b4-48b8-a2fb-9956dafa91b4"},"vehicle_type_id":"4","last_reported":1751116828,"current_range_meters":16800,"station_id":"ce4bhi12rcd13ifvqfq0","pricing_plan_id":"cebpf4jnsgd1na2vs0mg"},{"bike_id":"4f7da216-f811-4c57-9e64-cdee7467bddd","system_id":"levelo_inurba_marseille","lat":43.225019,"lon":5.347835,"is_reserved":false,"is_disabled":false,"rental_uris":{"android":"levelo://app?vid=4f7da216-f811-4c57-9e64-cdee7467bddd","ios":"levelo://app?vid=4f7da216-f811-4c57-9e64-cdee7467bddd"},"vehicle_type_id":"4","last_reported":1751116828,"current_range_meters":16800,"station_id":"st_cvj5dfep6f1abm77gieg","pricing_plan_id":"cebpf4jnsgd1na2vs0mg"},{"bike_id":"de478231-6b12-4efe-b2ea-f1ebc98ee95c","system_id":"levelo_inurba_marseille","lat":43.21212,"lon":5.35082,"is_reserved":false,"is_disabled":false,"rental_uris":{"android":"levelo://app?vid=de478231-6b12-4efe-b2ea-f1ebc98ee95c","ios":"levelo://app?vid=de478231-6b12-4efe-b2ea-f1ebc98ee95c"},"vehicle_type_id":"4","last_reported":1751116828,"current_range_meters":16800,"station_id":"st_cvj6sg6p6f1abm77japg","pricing_plan_id":"cebpf4jnsgd1na2vs0mg"},{"bike_id":"d308c658-b19c-49c0-8014-5506ff26f69a","system_id":"levelo_inurba_marseille","lat":43.23085,"lon":5.40524,"is_reserved":false,"is_disabled":false,"rental_uris":{"android":"levelo://app?vid=d308c658-b19c-49c0-8014-5506ff26f69a","ios":"levelo://app?vid=d308c658-b19c-49c0-8014-5506ff26f69a"},"vehicle_type_id":"4","last_reported":1751116828,"current_range_meters":17200,"station_id":"","pricing_plan_id":"cebpf4jnsgd1na2vs0mg"},{"bike_id":"bc1f2ccc-c8d5-4935-9ccb-9b5e45b836cb","system_id":"levelo_inurba_marseille","lat":43.29848,"lon":5.36274,"is_reserved":false,"is_disabled":false,"rental_uris":{"android":"levelo://app?vid=bc1f2ccc-c8d5-4935-9ccb-9b5e45b836cb","ios":"levelo://app?vid=bc1f2ccc-c8d5-4935-9ccb-9b5e45b836cb"},"vehicle_type_id":"4","last_reported":1751116828,"current_range_meters":17200,"station_id":"ce4bgpp2rcd13ifvqc3g","pricing_plan_id":"cebpf4jnsgd1na2vs0mg"},{"bike_id":"ec1641df-6975-481a-9083-9175bcb48235","system_id":"levelo_inurba_marseille","lat":43.31517,"lon":5.37297,"is_reserved":false,"is_disabled":false,"rental_uris":{"android":"levelo://app?vid=ec1641df-6975-481a-9083-9175bcb48235","ios":"levelo://app?vid=ec1641df-6975-481a-9083-9175bcb48235"},"vehicle_type_id":"4","last_reported":1751116828,"current_range_meters":17200,"station_id":"ce4bgt12rcd13ifvqcd0","pricing_plan_id":"cebpf4jnsgd1na2vs0mg"},{"bike_id":"15cd9c2a-4803-413e-8413-a6a9d6517804","system_id":"levelo_inurba_marseille","lat":43.28463,"lon":5.35897,"is_reserved":false,"is_disabled":false,"rental_uris":{"android":"levelo://app?vid=15cd9c2a-4803-413e-8413-a6a9d6517804","ios":"levelo://app?vid=15cd9c2a-4803-413e-8413-a6a9d6517804"},"vehicle_type_id":"4","last_reported":1751116828,"current_range_meters":17200,"station_id":"ce4bhah2rcd13ifvqei0","pricing_plan_id":"cebpf4jnsgd1na2vs0mg"},{"bike_id":"910652eb-a9d3-4ea9-95a8-4aadc7afb032","system_id":"levelo_inurba_marseille","lat":43.28425,"lon":5.35015,"is_reserved":false,"is_disabled":false,"rental_uris":{"android":"levelo://app?vid=910652eb-a9d3-4ea9-95a8-4aadc7afb032","ios":"levelo://app?vid=910652eb-a9d3-4ea9-95a8-4aadc7afb032"},"vehicle_type_id":"4","last_reported":1751116828,"current_range_meters":17200,"station_id":"ce4bhbh2rcd13ifvqepg","pricing_plan_id":"cebpf4jnsgd1na2vs0mg"},{"bike_id":"2d64210f-bc56-457a-9e63-d4602ac1eb88","system_id":"levelo_inurba_marseille","lat":43.26199,"lon":5.37476,"is_reserved":false,"is_disabled":false,"rental_uris":{"android":"levelo://app?vid=2d64210f-bc56-457a-9e63-d4602ac1eb88","ios":"levelo://app?vid=2d64210f-bc56-457a-9e63-d4602ac1eb88"},"vehicle_type_id":"4","last_reported":1751116828,"current_range_meters":17200,"station_id":"ce4bhgp2rcd13ifvqfc0","pricing_plan_id":"cebpf4jnsgd1na2vs0mg"},{"bike_id":"0f5ec463-740d-4184-b443-d3874bbc31ac","system_id":"levelo_inurba_marseille","lat":43.27316,"lon":5.39072,"is_reserved":false,"is_disabled":false,"rental_uris":{"android":"levelo://app?vid=0f5ec463-740d-4184-b443-d3874bbc31ac","ios":"levelo://app?vid=0f5ec463-740d-4184-b443-d3874bbc31ac"},"vehicle_type_id":"4","last_reported":1751116828,"current_range_meters":17200,"station_id":"ce4bhgp2rcd13ifvqfe0","pricing_plan_id":"cebpf4jnsgd1na2vs0mg"},{"bike_id":"e5e3cd02-05df-4eb6-ae19-0375beaace7c","system_id":"levelo_inurba_marseille","lat":43.24162,"lon":5.36424,"is_reserved":false,"is_disabled":false,"rental_uris":{"android":"levelo://app?vid=e5e3cd02-05df-4eb6-ae19-0375beaace7c","ios":"levelo://app?vid=e5e3cd02-05df-4eb6-ae19-0375beaace7c"},"vehicle_type_id":"4","last_reported":1751116828,"current_range_meters":17200,"station_id":"cpo36qri1sfpv3e86is0","pricing_plan_id":"cebpf4jnsgd1na2vs0mg"},{"bike_id":"aff4423e-c2af-4b70-b9bd-2bdc17fafffc","system_id":"levelo_inurba_marseille","lat":43.24169,"lon":5.36404,"is_reserved":false,"is_disabled":false,"rental_uris":{"android":"levelo://app?vid=aff4423e-c2af-4b70-b9bd-2bdc17fafffc","ios":"levelo://app?vid=aff4423e-c2af-4b70-b9bd-2bdc17fafffc"},"vehicle_type_id":"4","last_reported":1751116828,"current_range_meters":17200,"station_id":"cpo36qri1sfpv3e86is0","pricing_plan_id":"cebpf4jnsgd1na2vs0mg"},{"bike_id":"5d5e13a4-10cc-485c-a362-06d02242e666","system_id":"levelo_inurba_marseille","lat":43.211881,"lon":5.350763,"is_reserved":false,"is_disabled":false,"rental_uris":{"android":"levelo://app?vid=5d5e13a4-10cc-485c-a362-06d02242e666","ios":"levelo://app?vid=5d5e13a4-10cc-485c-a362-06d02242e666"},"vehicle_type_id":"4","last_reported":1751116828,"current_range_meters":17200,"station_id":"st_cvj6sg6p6f1abm77japg","pricing_plan_id":"cebpf4jnsgd1na2vs0mg"},{"bike_id":"b13877a6-4825-4d82-b46b-67fa8ad66c5d","system_id":"levelo_inurba_marseille","lat":43.21188,"lon":5.35068,"is_reserved":false,"is_disabled":false,"rental_uris":{"android":"levelo://app?vid=b13877a6-4825-4d82-b46b-67fa8ad66c5d","ios":"levelo://app?vid=b13877a6-4825-4d82-b46b-67fa8ad66c5d"},"vehicle_type_id":"4","last_reported":1751116828,"current_range_meters":17200,"station_id":"st_cvj6sg6p6f1abm77japg","pricing_plan_id":"cebpf4jnsgd1na2vs0mg"},{"bike_id":"9063a283-04e6-416a-b7fe-b3ed16db32dd","system_id":"levelo_inurba_marseille","lat":43.21188,"lon":5.35098,"is_reserved":false,"is_disabled":false,"rental_uris":{"android":"levelo://app?vid=9063a283-04e6-416a-b7fe-b3ed16db32dd","ios":"levelo://app?vid=9063a283-04e6-416a-b7fe-b3ed16db32dd"},"vehicle_type_id":"4","last_reported":1751116828,"current_range_meters":17200,"station_id":"st_cvj6sg6p6f1abm77japg","pricing_plan_id":"cebpf4jnsgd1na2vs0mg"},{"bike_id":"735fb3ec-51d3-42a0-b0e0-35a6ef148211","system_id":"levelo_inurba_marseille","lat":43.31286,"lon":5.37303,"is_reserved":false,"is_disabled":false,"rental_uris":{"android":"levelo://app?vid=735fb3ec-51d3-42a0-b0e0-35a6ef148211","ios":"levelo://app?vid=735fb3ec-51d3-42a0-b0e0-35a6ef148211"},"vehicle_type_id":"4","last_reported":1751116828,"current_range_meters":17600,"station_id":"","pricing_plan_id":"cebpf4jnsgd1na2vs0mg"},{"bike_id":"3367abdb-bfbc-4eaa-8300-39fa59528352","system_id":"levelo_inurba_marseille","lat":43.28261,"lon":5.35075,"is_reserved":false,"is_disabled":false,"rental_uris":{"android":"levelo://app?vid=3367abdb-bfbc-4eaa-8300-39fa59528352","ios":"levelo://app?vid=3367abdb-bfbc-4eaa-8300-39fa59528352"},"vehicle_type_id":"4","last_reported":1751116828,"current_range_meters":17600,"station_id":"ce4bhbp2rcd13ifvqerg","pricing_plan_id":"cebpf4jnsgd1na2vs0mg"},{"bike_id":"1878645a-1a24-4fd6-a45f-79cb1f2bf6e4","system_id":"levelo_inurba_marseille","lat":43.24807,"lon":5.37472,"is_reserved":false,"is_disabled":false,"rental_uris":{"android":"levelo://app?vid=1878645a-1a24-4fd6-a45f-79cb1f2bf6e4","ios":"levelo://app?vid=1878645a-1a24-4fd6-a45f-79cb1f2bf6e4"},"vehicle_type_id":"4","last_reported":1751116828,"current_range_meters":17600,"station_id":"ce4bhgh2rcd13ifvqfb0","pricing_plan_id":"cebpf4jnsgd1na2vs0mg"},{"bike_id":"6fa337ad-535f-434b-85d3-ef8fe2518c55","system_id":"levelo_inurba_marseille","lat":43.30417,"lon":5.41296,"is_reserved":false,"is_disabled":false,"rental_uris":{"android":"levelo://app?vid=6fa337ad-535f-434b-85d3-ef8fe2518c55","ios":"levelo://app?vid=6fa337ad-535f-434b-85d3-ef8fe2518c55"},"vehicle_type_id":"4","last_reported":1751116828,"current_range_meters":17600,"station_id":"ce4bhop2rcd13ifvqh8g","pricing_plan_id":"cebpf4jnsgd1na2vs0mg"},{"bike_id":"908cd11d-d19a-40a4-a488-254614ce5263","system_id":"levelo_inurba_marseille","lat":43.23058,"lon":5.35489,"is_reserved":false,"is_disabled":false,"rental_uris":{"android":"levelo://app?vid=908cd11d-d19a-40a4-a488-254614ce5263","ios":"levelo://app?vid=908cd11d-d19a-40a4-a488-254614ce5263"},"vehicle_type_id":"4","last_reported":1751116828,"current_range_meters":17600,"station_id":"cpo3342slgdg3j2ifvpg","pricing_plan_id":"cebpf4jnsgd1na2vs0mg"},{"bike_id":"825e166b-6115-40a8-8f2f-179c774061fd","system_id":"levelo_inurba_marseille","lat":43.21747,"lon":5.34612,"is_reserved":false,"is_disabled":false,"rental_uris":{"android":"levelo://app?vid=825e166b-6115-40a8-8f2f-179c774061fd","ios":"levelo://app?vid=825e166b-6115-40a8-8f2f-179c774061fd"},"vehicle_type_id":"4","last_reported":1751116828,"current_range_meters":17600,"station_id":"st_cvj6r9ubvosntc0bgbag","pricing_plan_id":"cebpf4jnsgd1na2vs0mg"},{"bike_id":"00232df6-47e0-4159-9a64-03051f9ea3a1","system_id":"levelo_inurba_marseille","lat":43.28139,"lon":5.39893,"is_reserved":false,"is_disabled":false,"rental_uris":{"android":"levelo://app?vid=00232df6-47e0-4159-9a64-03051f9ea3a1","ios":"levelo://app?vid=00232df6-47e0-4159-9a64-03051f9ea3a1"},"vehicle_type_id":"4","last_reported":1751116828,"current_range_meters":18000,"station_id":"","pricing_plan_id":"cebpf4jnsgd1na2vs0mg"},{"bike_id":"c595d0e1-c778-4abe-9c79-a9dd74f54e27","system_id":"levelo_inurba_marseille","lat":43.244721,"lon":5.372234,"is_reserved":false,"is_disabled":false,"rental_uris":{"android":"levelo://app?vid=c595d0e1-c778-4abe-9c79-a9dd74f54e27","ios":"levelo://app?vid=c595d0e1-c778-4abe-9c79-a9dd74f54e27"},"vehicle_type_id":"4","last_reported":1751116828,"current_range_meters":18000,"station_id":"","pricing_plan_id":"cebpf4jnsgd1na2vs0mg"},{"bike_id":"4d7bde02-7e46-4eec-9231-0e6121ce565c","system_id":"levelo_inurba_marseille","lat":43.27313,"lon":5.39102,"is_reserved":false,"is_disabled":false,"rental_uris":{"android":"levelo://app?vid=4d7bde02-7e46-4eec-9231-0e6121ce565c","ios":"levelo://app?vid=4d7bde02-7e46-4eec-9231-0e6121ce565c"},"vehicle_type_id":"4","last_reported":1751116828,"current_range_meters":18000,"station_id":"ce4bhgp2rcd13ifvqfe0","pricing_plan_id":"cebpf4jnsgd1na2vs0mg"},{"bike_id":"ebb4429a-5f0a-4a79-8af3-b27bee1db28b","system_id":"levelo_inurba_marseille","lat":43.25494,"lon":5.3766,"is_reserved":false,"is_disabled":false,"rental_uris":{"android":"levelo://app?vid=ebb4429a-5f0a-4a79-8af3-b27bee1db28b","ios":"levelo://app?vid=ebb4429a-5f0a-4a79-8af3-b27bee1db28b"},"vehicle_type_id":"4","last_reported":1751116828,"current_range_meters":18000,"station_id":"ce4bhh12rcd13ifvqff0","pricing_plan_id":"cebpf4jnsgd1na2vs0mg"},{"bike_id":"37d19bb1-924a-4481-81ad-150c3a97924b","system_id":"levelo_inurba_marseille","lat":43.24399,"lon":5.37036,"is_reserved":false,"is_disabled":false,"rental_uris":{"android":"levelo://app?vid=37d19bb1-924a-4481-81ad-150c3a97924b","ios":"levelo://app?vid=37d19bb1-924a-4481-81ad-150c3a97924b"},"vehicle_type_id":"4","last_reported":1751116828,"current_range_meters":18000,"station_id":"ce4bhhh2rcd13ifvqfk0","pricing_plan_id":"cebpf4jnsgd1na2vs0mg"},{"bike_id":"1c1e2c7a-f6a1-441d-9a07-f1850a88b957","system_id":"levelo_inurba_marseille","lat":43.32665,"lon":5.40986,"is_reserved":false,"is_disabled":false,"rental_uris":{"android":"levelo://app?vid=1c1e2c7a-f6a1-441d-9a07-f1850a88b957","ios":"levelo://app?vid=1c1e2c7a-f6a1-441d-9a07-f1850a88b957"},"vehicle_type_id":"4","last_reported":1751116828,"current_range_meters":18000,"station_id":"ce4bhpp2rcd13ifvqhgg","pricing_plan_id":"cebpf4jnsgd1na2vs0mg"},{"bike_id":"66abb35b-0e37-4ddd-bf66-70dc62e8f63c","system_id":"levelo_inurba_marseille","lat":43.22924,"lon":5.35376,"is_reserved":false,"is_disabled":false,"rental_uris":{"android":"levelo://app?vid=66abb35b-0e37-4ddd-bf66-70dc62e8f63c","ios":"levelo://app?vid=66abb35b-0e37-4ddd-bf66-70dc62e8f63c"},"vehicle_type_id":"4","last_reported":1751116828,"current_range_meters":18000,"station_id":"cpo3532slgdg3j2ikp40","pricing_plan_id":"cebpf4jnsgd1na2vs0mg"},{"bike_id":"8e41df63-5922-4cd3-94e1-83a309f71dc9","system_id":"levelo_inurba_marseille","lat":43.21183,"lon":5.35058,"is_reserved":false,"is_disabled":false,"rental_uris":{"android":"levelo://app?vid=8e41df63-5922-4cd3-94e1-83a309f71dc9","ios":"levelo://app?vid=8e41df63-5922-4cd3-94e1-83a309f71dc9"},"vehicle_type_id":"4","last_reported":1751116828,"current_range_meters":18000,"station_id":"st_cvj6sg6p6f1abm77japg","pricing_plan_id":"cebpf4jnsgd1na2vs0mg"},{"bike_id":"e74c12e3-87e0-4b8a-83be-385330dd67e5","system_id":"levelo_inurba_marseille","lat":43.2119,"lon":5.35096,"is_reserved":false,"is_disabled":false,"rental_uris":{"android":"levelo://app?vid=e74c12e3-87e0-4b8a-83be-385330dd67e5","ios":"levelo://app?vid=e74c12e3-87e0-4b8a-83be-385330dd67e5"},"vehicle_type_id":"4","last_reported":1751116828,"current_range_meters":18000,"station_id":"st_cvj6sg6p6f1abm77japg","pricing_plan_id":"cebpf4jnsgd1na2vs0mg"},{"bike_id":"f982334d-72e8-4b3a-b3eb-f6cf8245eee2","system_id":"levelo_inurba_marseille","lat":43.33762,"lon":5.37425,"is_reserved":false,"is_disabled":false,"rental_uris":{"android":"levelo://app?vid=f982334d-72e8-4b3a-b3eb-f6cf8245eee2","ios":"levelo://app?vid=f982334d-72e8-4b3a-b3eb-f6cf8245eee2"},"vehicle_type_id":"4","last_reported":1751116828,"current_range_meters":18800,"station_id":"","pricing_plan_id":"cebpf4jnsgd1na2vs0mg"},{"bike_id":"3a7e54b5-a2f5-42f3-a085-743ac5e93398","system_id":"levelo_inurba_marseille","lat":43.25194,"lon":5.42188,"is_reserved":false,"is_disabled":false,"rental_uris":{"android":"levelo://app?vid=3a7e54b5-a2f5-42f3-a085-743ac5e93398","ios":"levelo://app?vid=3a7e54b5-a2f5-42f3-a085-743ac5e93398"},"vehicle_type_id":"4","last_reported":1751116828,"current_range_meters":18800,"station_id":"","pricing_plan_id":"cebpf4jnsgd1na2vs0mg"},{"bike_id":"63cd8d22-aafd-45ff-8715-14b5a5b0080b","system_id":"levelo_inurba_marseille","lat":43.30882,"lon":5.37182,"is_reserved":false,"is_disabled":false,"rental_uris":{"android":"levelo://app?vid=63cd8d22-aafd-45ff-8715-14b5a5b0080b","ios":"levelo://app?vid=63cd8d22-aafd-45ff-8715-14b5a5b0080b"},"vehicle_type_id":"4","last_reported":1751116828,"current_range_meters":18800,"station_id":"ce4bguh2rcd13ifvqckg","pricing_plan_id":"cebpf4jnsgd1na2vs0mg"},{"bike_id":"c6a3a7a2-db67-473a-bbb2-4344e2f4c861","system_id":"levelo_inurba_marseille","lat":43.296174,"lon":5.378059,"is_reserved":false,"is_disabled":false,"rental_uris":{"android":"levelo://app?vid=c6a3a7a2-db67-473a-bbb2-4344e2f4c861","ios":"levelo://app?vid=c6a3a7a2-db67-473a-bbb2-4344e2f4c861"},"vehicle_type_id":"4","last_reported":1751116828,"current_range_meters":18800,"station_id":"ce4bh192rcd13ifvqdb0","pricing_plan_id":"cebpf4jnsgd1na2vs0mg"},{"bike_id":"b18670cb-dfc0-44c9-9f9a-405cfe4ca685","system_id":"levelo_inurba_marseille","lat":43.27386,"lon":5.36275,"is_reserved":false,"is_disabled":false,"rental_uris":{"android":"levelo://app?vid=b18670cb-dfc0-44c9-9f9a-405cfe4ca685","ios":"levelo://app?vid=b18670cb-dfc0-44c9-9f9a-405cfe4ca685"},"vehicle_type_id":"4","last_reported":1751116828,"current_range_meters":18800,"station_id":"ce4bhbh2rcd13ifvqeo0","pricing_plan_id":"cebpf4jnsgd1na2vs0mg"},{"bike_id":"a1c95680-b010-4145-91d7-f19d109cc082","system_id":"levelo_inurba_marseille","lat":43.25576,"lon":5.38235,"is_reserved":false,"is_disabled":false,"rental_uris":{"android":"levelo://app?vid=a1c95680-b010-4145-91d7-f19d109cc082","ios":"levelo://app?vid=a1c95680-b010-4145-91d7-f19d109cc082"},"vehicle_type_id":"4","last_reported":1751116828,"current_range_meters":18800,"station_id":"ce4bhih2rcd13ifvqfs0","pricing_plan_id":"cebpf4jnsgd1na2vs0mg"},{"bike_id":"e0d25799-cb17-4211-bfde-68ae2503bf1f","system_id":"levelo_inurba_marseille","lat":43.230662,"lon":5.35518,"is_reserved":false,"is_disabled":false,"rental_uris":{"android":"levelo://app?vid=e0d25799-cb17-4211-bfde-68ae2503bf1f","ios":"levelo://app?vid=e0d25799-cb17-4211-bfde-68ae2503bf1f"},"vehicle_type_id":"4","last_reported":1751116828,"current_range_meters":18800,"station_id":"cpo3342slgdg3j2ifvpg","pricing_plan_id":"cebpf4jnsgd1na2vs0mg"},{"bike_id":"e8ea605e-e138-4e5e-ba06-7b44d8d7c125","system_id":"levelo_inurba_marseille","lat":43.21209,"lon":5.35077,"is_reserved":false,"is_disabled":false,"rental_uris":{"android":"levelo://app?vid=e8ea605e-e138-4e5e-ba06-7b44d8d7c125","ios":"levelo://app?vid=e8ea605e-e138-4e5e-ba06-7b44d8d7c125"},"vehicle_type_id":"4","last_reported":1751116828,"current_range_meters":18800,"station_id":"st_cvj6sg6p6f1abm77japg","pricing_plan_id":"cebpf4jnsgd1na2vs0mg"},{"bike_id":"6db4f614-07f7-439d-985f-ed1d8ae26a0d","system_id":"levelo_inurba_marseille","lat":43.30886,"lon":5.37186,"is_reserved":false,"is_disabled":false,"rental_uris":{"android":"levelo://app?vid=6db4f614-07f7-439d-985f-ed1d8ae26a0d","ios":"levelo://app?vid=6db4f614-07f7-439d-985f-ed1d8ae26a0d"},"vehicle_type_id":"4","last_reported":1751116828,"current_range_meters":19200,"station_id":"ce4bguh2rcd13ifvqckg","pricing_plan_id":"cebpf4jnsgd1na2vs0mg"},{"bike_id":"fede116f-fe8f-4996-bd86-bef08c43bb15","system_id":"levelo_inurba_marseille","lat":43.2841,"lon":5.34982,"is_reserved":false,"is_disabled":false,"rental_uris":{"android":"levelo://app?vid=fede116f-fe8f-4996-bd86-bef08c43bb15","ios":"levelo://app?vid=fede116f-fe8f-4996-bd86-bef08c43bb15"},"vehicle_type_id":"4","last_reported":1751116828,"current_range_meters":19200,"station_id":"ce4bhbh2rcd13ifvqepg","pricing_plan_id":"cebpf4jnsgd1na2vs0mg"},{"bike_id":"39391c58-0ced-47c1-ad0c-ead1501fc7b8","system_id":"levelo_inurba_marseille","lat":43.21765,"lon":5.34653,"is_reserved":false,"is_disabled":false,"rental_uris":{"android":"levelo://app?vid=39391c58-0ced-47c1-ad0c-ead1501fc7b8","ios":"levelo://app?vid=39391c58-0ced-47c1-ad0c-ead1501fc7b8"},"vehicle_type_id":"4","last_reported":1751116828,"current_range_meters":19600,"station_id":"","pricing_plan_id":"cebpf4jnsgd1na2vs0mg"},{"bike_id":"818ee4b7-31e6-44dc-86be-67f7b3013149","system_id":"levelo_inurba_marseille","lat":43.28415,"lon":5.34978,"is_reserved":false,"is_disabled":false,"rental_uris":{"android":"levelo://app?vid=818ee4b7-31e6-44dc-86be-67f7b3013149","ios":"levelo://app?vid=818ee4b7-31e6-44dc-86be-67f7b3013149"},"vehicle_type_id":"4","last_reported":1751116828,"current_range_meters":19600,"station_id":"ce4bhbh2rcd13ifvqepg","pricing_plan_id":"cebpf4jnsgd1na2vs0mg"},{"bike_id":"bc0333fd-1397-4952-b6c9-b389233d6324","system_id":"levelo_inurba_marseille","lat":43.25507,"lon":5.37672,"is_reserved":false,"is_disabled":false,"rental_uris":{"android":"levelo://app?vid=bc0333fd-1397-4952-b6c9-b389233d6324","ios":"levelo://app?vid=bc0333fd-1397-4952-b6c9-b389233d6324"},"vehicle_type_id":"4","last_reported":1751116828,"current_range_meters":19600,"station_id":"ce4bhh12rcd13ifvqff0","pricing_plan_id":"cebpf4jnsgd1na2vs0mg"},{"bike_id":"de5a4984-744b-4767-8e96-2268f6f61c99","system_id":"levelo_inurba_marseille","lat":43.28443,"lon":5.39202,"is_reserved":false,"is_disabled":false,"rental_uris":{"android":"levelo://app?vid=de5a4984-744b-4767-8e96-2268f6f61c99","ios":"levelo://app?vid=de5a4984-744b-4767-8e96-2268f6f61c99"},"vehicle_type_id":"4","last_reported":1751116828,"current_range_meters":19600,"station_id":"ce4bhoh2rcd13ifvqh5g","pricing_plan_id":"cebpf4jnsgd1na2vs0mg"},{"bike_id":"72df8c60-f190-4633-b0af-a27bfeb7314d","system_id":"levelo_inurba_marseille","lat":43.24166,"lon":5.36393,"is_reserved":false,"is_disabled":false,"rental_uris":{"android":"levelo://app?vid=72df8c60-f190-4633-b0af-a27bfeb7314d","ios":"levelo://app?vid=72df8c60-f190-4633-b0af-a27bfeb7314d"},"vehicle_type_id":"4","last_reported":1751116828,"current_range_meters":19600,"station_id":"cpo36qri1sfpv3e86is0","pricing_plan_id":"cebpf4jnsgd1na2vs0mg"},{"bike_id":"3e82f598-9d1d-4257-8afa-a4dc7305de09","system_id":"levelo_inurba_marseille","lat":43.21219,"lon":5.35089,"is_reserved":false,"is_disabled":false,"rental_uris":{"android":"levelo://app?vid=3e82f598-9d1d-4257-8afa-a4dc7305de09","ios":"levelo://app?vid=3e82f598-9d1d-4257-8afa-a4dc7305de09"},"vehicle_type_id":"4","last_reported":1751116828,"current_range_meters":19600,"station_id":"st_cvj6sg6p6f1abm77japg","pricing_plan_id":"cebpf4jnsgd1na2vs0mg"},{"bike_id":"7cd73daf-6410-4b72-a872-e5224e9d29ff","system_id":"levelo_inurba_marseille","lat":43.274243,"lon":5.41207,"is_reserved":false,"is_disabled":false,"rental_uris":{"android":"levelo://app?vid=7cd73daf-6410-4b72-a872-e5224e9d29ff","ios":"levelo://app?vid=7cd73daf-6410-4b72-a872-e5224e9d29ff"},"vehicle_type_id":"4","last_reported":1751116828,"current_range_meters":20000,"station_id":"","pricing_plan_id":"cebpf4jnsgd1na2vs0mg"},{"bike_id":"6e53ad1f-d4f5-4de6-9418-67b290ec993f","system_id":"levelo_inurba_marseille","lat":43.30941,"lon":5.4103,"is_reserved":false,"is_disabled":false,"rental_uris":{"android":"levelo://app?vid=6e53ad1f-d4f5-4de6-9418-67b290ec993f","ios":"levelo://app?vid=6e53ad1f-d4f5-4de6-9418-67b290ec993f"},"vehicle_type_id":"4","last_reported":1751116828,"current_range_meters":20000,"station_id":"","pricing_plan_id":"cebpf4jnsgd1na2vs0mg"},{"bike_id":"34826f5a-c882-45e8-92a5-b8e29c870d5c","system_id":"levelo_inurba_marseille","lat":43.31073,"lon":5.3836,"is_reserved":false,"is_disabled":false,"rental_uris":{"android":"levelo://app?vid=34826f5a-c882-45e8-92a5-b8e29c870d5c","ios":"levelo://app?vid=34826f5a-c882-45e8-92a5-b8e29c870d5c"},"vehicle_type_id":"4","last_reported":1751116828,"current_range_meters":20000,"station_id":"ce4bgv92rcd13ifvqcr0","pricing_plan_id":"cebpf4jnsgd1na2vs0mg"},{"bike_id":"1fe0e82c-e627-42f8-bb3d-72d12c2d8f05","system_id":"levelo_inurba_marseille","lat":43.29263,"lon":5.38434,"is_reserved":false,"is_disabled":false,"rental_uris":{"android":"levelo://app?vid=1fe0e82c-e627-42f8-bb3d-72d12c2d8f05","ios":"levelo://app?vid=1fe0e82c-e627-42f8-bb3d-72d12c2d8f05"},"vehicle_type_id":"4","last_reported":1751116828,"current_range_meters":20000,"station_id":"ce4bh692rcd13ifvqea0","pricing_plan_id":"cebpf4jnsgd1na2vs0mg"},{"bike_id":"e1adbbdd-857e-4933-a2b8-a2b2d178186b","system_id":"levelo_inurba_marseille","lat":43.28099,"lon":5.37833,"is_reserved":false,"is_disabled":false,"rental_uris":{"android":"levelo://app?vid=e1adbbdd-857e-4933-a2b8-a2b2d178186b","ios":"levelo://app?vid=e1adbbdd-857e-4933-a2b8-a2b2d178186b"},"vehicle_type_id":"4","last_reported":1751116828,"current_range_meters":20000,"station_id":"ce4bha12rcd13ifvqee0","pricing_plan_id":"cebpf4jnsgd1na2vs0mg"},{"bike_id":"0a1203e3-3345-4740-a48b-5e2fc41187b1","system_id":"levelo_inurba_marseille","lat":43.33722,"lon":5.39175,"is_reserved":false,"is_disabled":false,"rental_uris":{"android":"levelo://app?vid=0a1203e3-3345-4740-a48b-5e2fc41187b1","ios":"levelo://app?vid=0a1203e3-3345-4740-a48b-5e2fc41187b1"},"vehicle_type_id":"4","last_reported":1751116828,"current_range_meters":20000,"station_id":"ce4bhr92rcd13ifvqhsg","pricing_plan_id":"cebpf4jnsgd1na2vs0mg"},