{"last_updated":1751364750,"ttl":60,"version":"2.2","data":{"bikes":[{"bike_id":"3da29fb8-fc97-44c6-b9ac-31dd456b2fd4","system_id":"levelo_inurba_marseille","lat":43.33771,"lon":5.37424,"is_reserved":false,"is_disabled":true,"rental_uris":{"android":"levelo://app?vid=3da29fb8-fc97-44c6-b9ac-31dd456b2fd4","ios":"levelo://app?vid=3da29fb8-fc97-44c6-b9ac-31dd456b2fd4"},"vehicle_type_id":"4","last_reported":1751364751,"current_range_meters":0,"station_id":"","pricing_plan_id":"cebpf4jnsgd1na2vs0mg"},{"bike_id":"01861ad8-a8d7-4be6-816e-651927c87584","system_id":"levelo_inurba_marseille","lat":43.33751,"lon":5.37456,"is_reserved":false,"is_disabled":true,"rental_uris":{"android":"levelo://app?vid=01861ad8-a8d7-4be6-816e-651927c87584","ios":"levelo://app?vid=01861ad8-a8d7-4be6-816e-651927c87584"},"vehicle_type_id":"4","last_reported":1751364751,"current_range_meters":0,"station_id":"","pricing_plan_id":"cebpf4jnsgd1na2vs0mg"},{"bike_id":"3168b9fb-97d2-4a0e-b7ee-673bb8cf7525","system_id":"levelo_inurba_marseille","lat":43.2777,"lon":5.35566,"is_reserved":false,"is_disabled":true,"rental_uris":{"android":"levelo://app?vid=3168b9fb-97d2-4a0e-b7ee-673bb8cf7525","ios":"levelo://app?vid=3168b9fb-97d2-4a0e-b7ee-673bb8cf7525"},"vehicle_type_id":"4","last_reported":1751364751,"current_range_meters":0,"station_id":"","pricing_plan_id":"cebpf4jnsgd1na2vs0mg"},{"bike_id":"1d934d30-6a85-4b30-9a35-9bb4ad4cb2ca","system_id":"levelo_inurba_marseille","lat":43.32715,"lon":5.42369,"is_reserved":false,"is_disabled":true,"rental_uris":{"android":"levelo://app?vid=1d934d30-6a85-4b30-9a35-9bb4ad4cb2ca","ios":"levelo://app?vid=1d934d30-6a85-4b30-9a35-9bb4ad4cb2ca"},"vehicle_type_id":"4","last_reported":1751364751,"current_range_meters":0,"station_id":"","pricing_plan_id":"cebpf4jnsgd1na2vs0mg"},{"bike_id":"3378c13c-e4e0-45be-9bfe-f3a4bc2c600e","system_id":"levelo_inurba_marseille","lat":43.29768,"lon":5.459924,"is_reserved":false,"is_disabled":true,"rental_uris":{"android":"levelo://app?vid=3378c13c-e4e0-45be-9bfe-f3a4bc2c600e","ios":"levelo://app?vid=3378c13c-e4e0-45be-9bfe-f3a4bc2c600e"},"vehicle_type_id":"4","last_reported":1751364751,"current_range_meters":0,"station_id":"","pricing_plan_id":"cebpf4jnsgd1na2vs0mg"},{"bike_id":"2ccccc82-c8a9-4c3b-909d-52c0bf697aa3","system_id":"levelo_inurba_marseille","lat":43.276087,"lon":5.358673,"is_reserved":false,"is_disabled":true,"rental_uris":{"android":"levelo://app?vid=2ccccc82-c8a9-4c3b-909d-52c0bf697aa3","ios":"levelo://app?vid=2ccccc82-c8a9-4c3b-909d-52c0bf697aa3"},"vehicle_type_id":"4","last_reported":1751364751,"current_range_meters":0,"station_id":"","pricing_plan_id":"cebpf4jnsgd1na2vs0mg"},{"bike_id":"c9700359-7f1e-4ea5-8eb5-d9c4ea1b8ef7","system_id":"levelo_inurba_marseille","lat":43.263194,"lon":5.373951,"is_reserved":false,"is_disabled":true,"rental_uris":{"android":"levelo://app?vid=c9700359-7f1e-4ea5-8eb5-d9c4ea1b8ef7","ios":"levelo://app?vid=c9700359-7f1e-4ea5-8eb5-d9c4ea1b8ef7"},"vehicle_type_id":"4","last_reported":1751364751,"current_range_meters":0,"station_id":"","pricing_plan_id":"cebpf4jnsgd1na2vs0mg"},{"bike_id":"453d087c-a682-476a-ba85-3e6771fb57ff","system_id":"levelo_inurba_marseille","lat":43.27947,"lon":5.38683,"is_reserved":false,"is_disabled":true,"rental_uris":{"android":"levelo://app?vid=453d087c-a682-476a-ba85-3e6771fb57ff","ios":"levelo://app?vid=453d087c-a682-476a-ba85-3e6771fb57ff"},"vehicle_type_id":"4","last_reported":1751364751,"current_range_meters":0,"station_id":"","pricing_plan_id":"cebpf4jnsgd1na2vs0mg"},{"bike_id":"289203e1-8390-4fd2-a184-a4735cc5bd92","system_id":"levelo_inurba_marseille","lat":43.30536,"lon":5.3654,"is_reserved":false,"is_disabled":true,"rental_uris":{"android":"levelo://app?vid=289203e1-8390-4fd2-a184-a4735cc5bd92","ios":"levelo://app?vid=289203e1-8390-4fd2-a184-a4735cc5bd92"},"vehicle_type_id":"4","last_reported":1751364751,"current_range_meters":0,"station_id":"ce4bgs12rcd13ifvqcag","pricing_plan_id":"cebpf4jnsgd1na2vs0mg"},{"bike_id":"b897820f-43fd-4b1b-9dc8-153a18c5cc08","system_id":"levelo_inurba_marseille","lat":43.3093,"lon":5.40132,"is_reserved":false,"is_disabled":true,"rental_uris":{"android":"levelo://app?vid=b897820f-43fd-4b1b-9dc8-153a18c5cc08","ios":"levelo://app?vid=b897820f-43fd-4b1b-9dc8-153a18c5cc08"},"vehicle_type_id":"4","last_reported":1751364751,"current_range_meters":0,"station_id":"ce4bgvp2rcd13ifvqct0","pricing_plan_id":"cebpf4jnsgd1na2vs0mg"},{"bike_id":"f68b26fd-0870-487c-b03e-14ebb77faaee","system_id":"levelo_inurba_marseille","lat":43.30662,"lon":5.40079,"is_reserved":false,"is_disabled":true,"rental_uris":{"android":"levelo://app?vid=f68b26fd-0870-487c-b03e-14ebb77faaee","ios":"levelo://app?vid=f68b26fd-0870-487c-b03e-14ebb77faaee"},"vehicle_type_id":"4","last_reported":1751364751,"current_range_meters":0,"station_id":"ce4bh112rcd13ifvqda0","pricing_plan_id":"cebpf4jnsgd1na2vs0mg"},{"bike_id":"2ae493e7-0b40-4dd1-b7ab-75e1a5842ae1","system_id":"levelo_inurba_marseille","lat":43.3009,"lon":5.39062,"is_reserved":false,"is_disabled":false,"rental_uris":{"android":"levelo://app?vid=2ae493e7-0b40-4dd1-b7ab-75e1a5842ae1","ios":"levelo://app?vid=2ae493e7-0b40-4dd1-b7ab-75e1a5842ae1"},"vehicle_type_id":"4","last_reported":1751364751,"current_range_meters":0,"station_id":"ce4bh192rcd13ifvqdb0","pricing_plan_id":"cebpf4jnsgd1na2vs0mg"},{"bike_id":"cd29420b-0cc5-4803-8083-fb96f7dd7463","system_id":"levelo_inurba_marseille","lat":43.28496,"lon":5.38415,"is_reserved":false,"is_disabled":true,"rental_uris":{"android":"levelo://app?vid=cd29420b-0cc5-4803-8083-fb96f7dd7463","ios":"levelo://app?vid=cd29420b-0cc5-4803-8083-fb96f7dd7463"},"vehicle_type_id":"4","last_reported":1751364751,"current_range_meters":0,"station_id":"ce4bh512rcd13ifvqe3g","pricing_plan_id":"cebpf4jnsgd1na2vs0mg"},{"bike_id":"a6d4db2b-a6bc-4cae-8781-90f849051a4d","system_id":"levelo_inurba_marseille","lat":43.293229,"lon":5.37122,"is_reserved":false,"is_disabled":true,"rental_uris":{"android":"levelo://app?vid=a6d4db2b-a6bc-4cae-8781-90f849051a4d","ios":"levelo://app?vid=a6d4db2b-a6bc-4cae-8781-90f849051a4d"},"vehicle_type_id":"4","last_reported":1751364751,"current_range_meters":0,"station_id":"ce4bhch2rcd13ifvqeug","pricing_plan_id":"cebpf4jnsgd1na2vs0mg"},{"bike_id":"37552715-d29e-4f5b-b79d-967e2fbfdfe3","system_id":"levelo_inurba_marseille","lat":43.23151,"lon":5.43726,"is_reserved":false,"is_disabled":true,"rental_uris":{"android":"levelo://app?vid=37552715-d29e-4f5b-b79d-967e2fbfdfe3","ios":"levelo://app?vid=37552715-d29e-4f5b-b79d-967e2fbfdfe3"},"vehicle_type_id":"4","last_reported":1751364751,"current_range_meters":0,"station_id":"ce4bhmp2rcd13ifvqgog","pricing_plan_id":"cebpf4jnsgd1na2vs0mg"},{"bike_id":"fef598a8-1773-4f6b-b1b5-c047abf388a6","system_id":"levelo_inurba_marseille","lat":43.3042,"lon":5.4128,"is_reserved":false,"is_disabled":true,"rental_uris":{"android":"levelo://app?vid=fef598a8-1773-4f6b-b1b5-c047abf388a6","ios":"levelo://app?vid=fef598a8-1773-4f6b-b1b5-c047abf388a6"},"vehicle_type_id":"4","last_reported":1751364751,"current_range_meters":0,"station_id":"ce4bhop2rcd13ifvqh8g","pricing_plan_id":"cebpf4jnsgd1na2vs0mg"},{"bike_id":"9418efcb-9652-42bc-b8cb-428107bc9139","system_id":"levelo_inurba_marseille","lat":43.32359,"lon":5.4058,"is_reserved":false,"is_disabled":true,"rental_uris":{"android":"levelo://app?vid=9418efcb-9652-42bc-b8cb-428107bc9139","ios":"levelo://app?vid=9418efcb-9652-42bc-b8cb-428107bc9139"},"vehicle_type_id":"4","last_reported":1751364751,"current_range_meters":0,"station_id":"ce4bhq92rcd13ifvqhjg","pricing_plan_id":"cebpf4jnsgd1na2vs0mg"},{"bike_id":"e1eccc98-53d4-487b-bc31-6f08d4d54421","system_id":"levelo_inurba_marseille","lat":43.31985,"lon":5.3814,"is_reserved":false,"is_disabled":true,"rental_uris":{"android":"levelo://app?vid=e1eccc98-53d4-487b-bc31-6f08d4d54421","ios":"levelo://app?vid=e1eccc98-53d4-487b-bc31-6f08d4d54421"},"vehicle_type_id":"4","last_reported":1751364751,"current_range_meters":0,"station_id":"ce4bhr12rcd13ifvqhpg","pricing_plan_id":"cebpf4jnsgd1na2vs0mg"},{"bike_id":"c0233825-48c7-4308-99a0-0cbf10efd402","system_id":"levelo_inurba_marseille","lat":43.3228,"lon":5.37458,"is_reserved":false,"is_disabled":true,"rental_uris":{"android":"levelo://app?vid=c0233825-48c7-4308-99a0-0cbf10efd402","ios":"levelo://app?vid=c0233825-48c7-4308-99a0-0cbf10efd402"},"vehicle_type_id":"4","last_reported":1751364751,"current_range_meters":400,"station_id":"","pricing_plan_id":"cebpf4jnsgd1na2vs0mg"},{"bike_id":"3035be0e-7c3d-4f7d-a1cb-7a1af59e497b","system_id":"levelo_inurba_marseille","lat":43.29678,"lon":5.36013,"is_reserved":false,"is_disabled":true,"rental_uris":{"android":"levelo://app?vid=3035be0e-7c3d-4f7d-a1cb-7a1af59e497b","ios":"levelo://app?vid=3035be0e-7c3d-4f7d-a1cb-7a1af59e497b"},"vehicle_type_id":"4","last_reported":1751364751,"current_range_meters":400,"station_id":"","pricing_plan_id":"cebpf4jnsgd1na2vs0mg"},{"bike_id":"1c563a89-1d0a-4e55-b07c-d8e1b21e8c4f","system_id":"levelo_inurba_marseille","lat":43.27956,"lon":5.38728,"is_reserved":false,"is_disabled":true,"rental_uris":{"android":"levelo://app?vid=1c563a89-1d0a-4e55-b07c-d8e1b21e8c4f","ios":"levelo://app?vid=1c563a89-1d0a-4e55-b07c-d8e1b21e8c4f"},"vehicle_type_id":"4","last_reported":1751364751,"current_range_meters":400,"station_id":"ce4bhg12rcd13ifvqf80","pricing_plan_id":"cebpf4jnsgd1na2vs0mg"},{"bike_id":"7c617506-95d5-4b87-8210-9fb58a8633f5","system_id":"levelo_inurba_marseille","lat":43.23153,"lon":5.43716,"is_reserved":false,"is_disabled":true,"rental_uris":{"android":"levelo://app?vid=7c617506-95d5-4b87-8210-9fb58a8633f5","ios":"levelo://app?vid=7c617506-95d5-4b87-8210-9fb58a8633f5"},"vehicle_type_id":"4","last_reported":1751364751,"current_range_meters":400,"station_id":"ce4bhmp2rcd13ifvqgog","pricing_plan_id":"cebpf4jnsgd1na2vs0mg"},{"bike_id":"420b7257-cde3-43d5-bd62-29a7bde0ee5a","system_id":"levelo_inurba_marseille","lat":43.30542,"lon":5.36545,"is_reserved":false,"is_disabled":true,"rental_uris":{"android":"levelo://app?vid=420b7257-cde3-43d5-bd62-29a7bde0ee5a","ios":"levelo://app?vid=420b7257-cde3-43d5-bd62-29a7bde0ee5a"},"vehicle_type_id":"4","last_reported":1751364751,"current_range_meters":800,"station_id":"","pricing_plan_id":"cebpf4jnsgd1na2vs0mg"},{"bike_id":"e9879abf-03af-4df7-beed-f20565714e22","system_id":"levelo_inurba_marseille","lat":43.258691,"lon":5.398951,"is_reserved":false,"is_disabled":true,"rental_uris":{"android":"levelo://app?vid=e9879abf-03af-4df7-beed-f20565714e22","ios":"levelo://app?vid=e9879abf-03af-4df7-beed-f20565714e22"},"vehicle_type_id":"4","last_reported":1751364751,"current_range_meters":800,"station_id":"ce4bhl92rcd13ifvqghg","pricing_plan_id":"cebpf4jnsgd1na2vs0mg"},{"bike_id":"93226fb9-d4a7-4e45-8d6a-5cd3bc94615d","system_id":"levelo_inurba_marseille","lat":43.29279,"lon":5.40112,"is_reserved":false,"is_disabled":true,"rental_uris":{"android":"levelo://app?vid=93226fb9-d4a7-4e45-8d6a-5cd3bc94615d","ios":"levelo://app?vid=93226fb9-d4a7-4e45-8d6a-5cd3bc94615d"},"vehicle_type_id":"4","last_reported":1751364751,"current_range_meters":1200,"station_id":"ce4bh312rcd13ifvqdk0","pricing_plan_id":"cebpf4jnsgd1na2vs0mg"},{"bike_id":"bf86512f-6bdf-414c-ab87-21438703a65a","system_id":"levelo_inurba_marseille","lat":43.250758,"lon":5.389295,"is_reserved":false,"is_disabled":true,"rental_uris":{"android":"levelo://app?vid=bf86512f-6bdf-414c-ab87-21438703a65a","ios":"levelo://app?vid=bf86512f-6bdf-414c-ab87-21438703a65a"},"vehicle_type_id":"4","last_reported":1751364751,"current_range_meters":1200,"station_id":"ce4bhgp2rcd13ifvqfd0","pricing_plan_id":"cebpf4jnsgd1na2vs0mg"},{"bike_id":"f3bb54e5-5710-469b-95d1-519f2df26e28","system_id":"levelo_inurba_marseille","lat":43.30269,"lon":5.38195,"is_reserved":false,"is_disabled":true,"rental_uris":{"android":"levelo://app?vid=f3bb54e5-5710-469b-95d1-519f2df26e28","ios":"levelo://app?vid=f3bb54e5-5710-469b-95d1-519f2df26e28"},"vehicle_type_id":"4","last_reported":1751364751,"current_range_meters":1600,"station_id":"","pricing_plan_id":"cebpf4jnsgd1na2vs0mg"},{"bike_id":"2aa8b8b0-8378-4fcd-8f28-26dd5930bd4c","system_id":"levelo_inurba_marseille","lat":43.28273,"lon":5.35068,"is_reserved":false,"is_disabled":true,"rental_uris":{"android":"levelo://app?vid=2aa8b8b0-8378-4fcd-8f28-26dd5930bd4c","ios":"levelo://app?vid=2aa8b8b0-8378-4fcd-8f28-26dd5930bd4c"},"vehicle_type_id":"4","last_reported":1751364751,"current_range_meters":1600,"station_id":"ce4bhbp2rcd13ifvqerg","pricing_plan_id":"cebpf4jnsgd1na2vs0mg"},{"bike_id":"f5dab47f-c5de-47d0-b5c9-b19c879b0a56","system_id":"levelo_inurba_marseille","lat":43.29278,"lon":5.3846,"is_reserved":false,"is_disabled":true,"rental_uris":{"android":"levelo://app?vid=f5dab47f-c5de-47d0-b5c9-b19c879b0a56","ios":"levelo://app?vid=f5dab47f-c5de-47d0-b5c9-b19c879b0a56"},"vehicle_type_id":"4","last_reported":1751364751,"current_range_meters":2000,"station_id":"ce4bh692rcd13ifvqea0","pricing_plan_id":"cebpf4jnsgd1na2vs0mg"},{"bike_id":"253e70fc-476f-4e9f-abc7-8894d26364fc","system_id":"levelo_inurba_marseille","lat":43.281006,"lon":5.378362,"is_reserved":false,"is_disabled":true,"rental_uris":{"android":"levelo://app?vid=253e70fc-476f-4e9f-abc7-8894d26364fc","ios":"levelo://app?vid=253e70fc-476f-4e9f-abc7-8894d26364fc"},"vehicle_type_id":"4","last_reported":1751364751,"current_range_meters":2000,"station_id":"ce4bha12rcd13ifvqee0","pricing_plan_id":"cebpf4jnsgd1na2vs0mg"},{"bike_id":"d49a3a66-c26c-4b25-95be-58a1d0b718a6","system_id":"levelo_inurba_marseille","lat":43.23192,"lon":5.39978,"is_reserved":false,"is_disabled":true,"rental_uris":{"android":"levelo://app?vid=d49a3a66-c26c-4b25-95be-58a1d0b718a6","ios":"levelo://app?vid=d49a3a66-c26c-4b25-95be-58a1d0b718a6"},"vehicle_type_id":"4","last_reported":1751364751,"current_range_meters":2000,"station_id":"ce4bhn12rcd13ifvqgqg","pricing_plan_id":"cebpf4jnsgd1na2vs0mg"},{"bike_id":"bb13fbfd-5a9b-4694-8021-024c9d9bc216","system_id":"levelo_inurba_marseille","lat":43.290324,"lon":5.386473,"is_reserved":false,"is_disabled":false,"rental_uris":{"android":"levelo://app?vid=bb13fbfd-5a9b-4694-8021-024c9d9bc216","ios":"levelo://app?vid=bb13fbfd-5a9b-4694-8021-024c9d9bc216"},"vehicle_type_id":"4","last_reported":1751364751,"current_range_meters":2800,"station_id":"ce4bh4p2rcd13ifvqe0g","pricing_plan_id":"cebpf4jnsgd1na2vs0mg"},{"bike_id":"6346854d-967c-470e-9bcf-0ee9cbb31745","system_id":"levelo_inurba_marseille","lat":43.26927,"lon":5.42061,"is_reserved":false,"is_disabled":false,"rental_uris":{"android":"levelo://app?vid=6346854d-967c-470e-9bcf-0ee9cbb31745","ios":"levelo://app?vid=6346854d-967c-470e-9bcf-0ee9cbb31745"},"vehicle_type_id":"4","last_reported":1751364751,"current_range_meters":3200,"station_id":"","pricing_plan_id":"cebpf4jnsgd1na2vs0mg"},{"bike_id":"1d0564ba-c24c-41d6-af7f-17e390a0bdaa","system_id":"levelo_inurba_marseille","lat":43.30885,"lon":5.39651,"is_reserved":false,"is_disabled":false,"rental_uris":{"android":"levelo://app?vid=1d0564ba-c24c-41d6-af7f-17e390a0bdaa","ios":"levelo://app?vid=1d0564ba-c24c-41d6-af7f-17e390a0bdaa"},"vehicle_type_id":"4","last_reported":1751364751,"current_range_meters":3600,"station_id":"ce4bh012rcd13ifvqcv0","pricing_plan_id":"cebpf4jnsgd1na2vs0mg"},{"bike_id":"0b895c35-f013-4a53-b2ef-27cb85035dd2","system_id":"levelo_inurba_marseille","lat":43.25493,"lon":5.37647,"is_reserved":false,"is_disabled":false,"rental_uris":{"android":"levelo://app?vid=0b895c35-f013-4a53-b2ef-27cb85035dd2","ios":"levelo://app?vid=0b895c35-f013-4a53-b2ef-27cb85035dd2"},"vehicle_type_id":"4","last_reported":1751364751,"current_range_meters":3600,"station_id":"ce4bhh12rcd13ifvqff0","pricing_plan_id":"cebpf4jnsgd1na2vs0mg"},{"bike_id":"7547e1e4-2d85-4907-971d-6c8e5c4cb529","system_id":"levelo_inurba_marseille","lat":43.25367,"lon":5.37541,"is_reserved":false,"is_disabled":false,"rental_uris":{"android":"levelo://app?vid=7547e1e4-2d85-4907-971d-6c8e5c4cb529","ios":"levelo://app?vid=7547e1e4-2d85-4907-971d-6c8e5c4cb529"},"vehicle_type_id":"4","last_reported":1751364751,"current_range_meters":4000,"station_id":"","pricing_plan_id":"cebpf4jnsgd1na2vs0mg"},{"bike_id":"e5a91c12-a9d1-463a-8abe-d0dd37cf3197","system_id":"levelo_inurba_marseille","lat":43.29804,"lon":5.37751,"is_reserved":false,"is_disabled":false,"rental_uris":{"android":"levelo://app?vid=e5a91c12-a9d1-463a-8abe-d0dd37cf3197","ios":"levelo://app?vid=e5a91c12-a9d1-463a-8abe-d0dd37cf3197"},"vehicle_type_id":"4","last_reported":1751364751,"current_range_meters":4000,"station_id":"","pricing_plan_id":"cebpf4jnsgd1na2vs0mg"},{"bike_id":"f9d7b080-0e2d-4d16-8524-f20f64f5d68f","system_id":"levelo_inurba_marseille","lat":43.26554,"lon":5.37282,"is_reserved":false,"is_disabled":false,"rental_uris":{"android":"levelo://app?vid=f9d7b080-0e2d-4d16-8524-f20f64f5d68f","ios":"levelo://app?vid=f9d7b080-0e2d-4d16-8524-f20f64f5d68f"},"vehicle_type_id":"4","last_reported":1751364751,"current_range_meters":4000,"station_id":"ce4bhg12rcd13ifvqf70","pricing_plan_id":"cebpf4jnsgd1na2vs0mg"},{"bike_id":"ae330994-fb10-47c2-8371-1c1e115b4434","system_id":"levelo_inurba_marseille","lat":43.34154,"lon":5.4092,"is_reserved":false,"is_disabled":false,"rental_uris":{"android":"levelo://app?vid=ae330994-fb10-47c2-8371-1c1e115b4434","ios":"levelo://app?vid=ae330994-fb10-47c2-8371-1c1e115b4434"},"vehicle_type_id":"4","last_reported":1751364751,"current_range_meters":4000,"station_id":"ce4bhqh2rcd13ifvqhlg","pricing_plan_id":"cebpf4jnsgd1na2vs0mg"},{"bike_id":"10453f8e-8760-4032-bf78-454a3bf64cd2","system_id":"levelo_inurba_marseille","lat":43.2175,"lon":5.34602,"is_reserved":false,"is_disabled":false,"rental_uris":{"android":"levelo://app?vid=10453f8e-8760-4032-bf78-454a3bf64cd2","ios":"levelo://app?vid=10453f8e-8760-4032-bf78-454a3bf64cd2"},"vehicle_type_id":"4","last_reported":1751364751,"current_range_meters":4400,"station_id":"st_cvj6r9ubvosntc0bgbag","pricing_plan_id":"cebpf4jnsgd1na2vs0mg"},{"bike_id":"6ddeb479-123a-42a8-9468-aafbc042810a","system_id":"levelo_inurba_marseille","lat":43.28618,"lon":5.35101,"is_reserved":false,"is_disabled":false,"rental_uris":{"android":"levelo://app?vid=6ddeb479-123a-42a8-9468-aafbc042810a","ios":"levelo://app?vid=6ddeb479-123a-42a8-9468-aafbc042810a"},"vehicle_type_id":"4","last_reported":1751364751,"current_range_meters":4800,"station_id":"ce4bhch2rcd13ifvqeug","pricing_plan_id":"cebpf4jnsgd1na2vs0mg"},{"bike_id":"07c852d2-6163-4217-8859-ffb3f12d1b6a","system_id":"levelo_inurba_marseille","lat":43.27059,"lon":5.40277,"is_reserved":false,"is_disabled":false,"rental_uris":{"android":"levelo://app?vid=07c852d2-6163-4217-8859-ffb3f12d1b6a","ios":"levelo://app?vid=07c852d2-6163-4217-8859-ffb3f12d1b6a"},"vehicle_type_id":"4","last_reported":1751364751,"current_range_meters":4800,"station_id":"ce4bhk92rcd13ifvqgc0","pricing_plan_id":"cebpf4jnsgd1na2vs0mg"},{"bike_id":"5f19ce93-fa59-4335-b337-61a1baa55e1c","system_id":"levelo_inurba_marseille","lat":43.29025,"lon":5.38635,"is_reserved":false,"is_disabled":false,"rental_uris":{"android":"levelo://app?vid=5f19ce93-fa59-4335-b337-61a1baa55e1c","ios":"levelo://app?vid=5f19ce93-fa59-4335-b337-61a1baa55e1c"},"vehicle_type_id":"4","last_reported":1751364751,"current_range_meters":5600,"station_id":"ce4bh4p2rcd13ifvqe0g","pricing_plan_id":"cebpf4jnsgd1na2vs0mg"},{"bike_id":"0ab1a8f4-8f21-4ac4-a7e6-16e700dba3d2","system_id":"levelo_inurba_marseille","lat":43.28429,"lon":5.35001,"is_reserved":false,"is_disabled":false,"rental_uris":{"android":"levelo://app?vid=0ab1a8f4-8f21-4ac4-a7e6-16e700dba3d2","ios":"levelo://app?vid=0ab1a8f4-8f21-4ac4-a7e6-16e700dba3d2"},"vehicle_type_id":"4","last_reported":1751364751,"current_range_meters":5600,"station_id":"ce4bhbh2rcd13ifvqepg","pricing_plan_id":"cebpf4jnsgd1na2vs0mg"},{"bike_id":"032f88a7-9a73-41e9-8b42-d72080f050c5","system_id":"levelo_inurba_marseille","lat":43.29624,"lon":5.37704,"is_reserved":false,"is_disabled":false,"rental_uris":{"android":"levelo://app?vid=032f88a7-9a73-41e9-8b42-d72080f050c5","ios":"levelo://app?vid=032f88a7-9a73-41e9-8b42-d72080f050c5"},"vehicle_type_id":"4","last_reported":1751364751,"current_range_meters":6000,"station_id":"ce4bgi92rcd13ifvqb90","pricing_plan_id":"cebpf4jnsgd1na2vs0mg"},{"bike_id":"ed4907eb-65eb-4009-a779-a6f3ed466209","system_id":"levelo_inurba_marseille","lat":43.29612,"lon":5.3811,"is_reserved":false,"is_disabled":false,"rental_uris":{"android":"levelo://app?vid=ed4907eb-65eb-4009-a779-a6f3ed466209","ios":"levelo://app?vid=ed4907eb-65eb-4009-a779-a6f3ed466209"},"vehicle_type_id":"4","last_reported":1751364751,"current_range_meters":6000,"station_id":"ce4bgl12rcd13ifvqbo0","pricing_plan_id":"cebpf4jnsgd1na2vs0mg"},{"bike_id":"f1aa1621-9552-42ba-9249-60e9fabe60f8","system_id":"levelo_inurba_marseille","lat":43.30596,"lon":5.3724,"is_reserved":false,"is_disabled":false,"rental_uris":{"android":"levelo://app?vid=f1aa1621-9552-42ba-9249-60e9fabe60f8","ios":"levelo://app?vid=f1aa1621-9552-42ba-9249-60e9fabe60f8"},"vehicle_type_id":"4","last_reported":1751364751,"current_range_meters":6400,"station_id":"ce4bgqh2rcd13ifvqc4g","pricing_plan_id":"cebpf4jnsgd1na2vs0mg"},{"bike_id":"8aa8d3ec-3a93-426a-a4eb-65bfb8875fbc","system_id":"levelo_inurba_marseille","lat":43.26813,"lon":5.39488,"is_reserved":false,"is_disabled":false,"rental_uris":{"android":"levelo://app?vid=8aa8d3ec-3a93-426a-a4eb-65bfb8875fbc","ios":"levelo://app?vid=8aa8d3ec-3a93-426a-a4eb-65bfb8875fbc"},"vehicle_type_id":"4","last_reported":1751364751,"current_range_meters":6800,"station_id":"","pricing_plan_id":"cebpf4jnsgd1na2vs0mg"},{"bike_id":"162af4e6-d224-4240-aeac-6cb0ae06de53","system_id":"levelo_inurba_marseille","lat":43.299294,"lon":5.378466,"is_reserved":false,"is_disabled":false,"rental_uris":{"android":"levelo://app?vid=162af4e6-d224-4240-aeac-6cb0ae06de53","ios":"levelo://app?vid=162af4e6-d224-4240-aeac-6cb0ae06de53"},"vehicle_type_id":"4","last_reported":1751364751,"current_range_meters":6800,"station_id":"","pricing_plan_id":"cebpf4jnsgd1na2vs0mg"},{"bike_id":"c3b9e807-9f57-4733-ad64-ffb885ac8698","system_id":"levelo_inurba_marseille","lat":43.34143,"lon":5.40911,"is_reserved":false,"is_disabled":false,"rental_uris":{"android":"levelo://app?vid=c3b9e807-9f57-4733-ad64-ffb885ac8698","ios":"levelo://app?vid=c3b9e807-9f57-4733-ad64-ffb885ac8698"},"vehicle_type_id":"4","last_reported":1751364751,"current_range_meters":6800,"station_id":"ce4bhqh2rcd13ifvqhlg","pricing_plan_id":"cebpf4jnsgd1na2vs0mg"},{"bike_id":"871a7de5-e2b0-4bca-b330-970e192c3c95","system_id":"levelo_inurba_marseille","lat":43.29374,"lon":5.37843,"is_reserved":false,"is_disabled":false,"rental_uris":{"android":"levelo://app?vid=871a7de5-e2b0-4bca-b330-970e192c3c95","ios":"levelo://app?vid=871a7de5-e2b0-4bca-b330-970e192c3c95"},"vehicle_type_id":"4","last_reported":1751364751,"current_range_meters":7200,"station_id":"ce4bgjh2rcd13ifvqbf0","pricing_plan_id":"cebpf4jnsgd1na2vs0mg"},{"bike_id":"dc931c8d-6971-4d15-9d9d-39a4950c1958","system_id":"levelo_inurba_marseille","lat":43.29961,"lon":5.37161,"is_reserved":false,"is_disabled":false,"rental_uris":{"android":"levelo://app?vid=dc931c8d-6971-4d15-9d9d-39a4950c1958","ios":"levelo://app?vid=dc931c8d-6971-4d15-9d9d-39a4950c1958"},"vehicle_type_id":"4","last_reported":1751364751,"current_range_meters":7200,"station_id":"ce4bgr92rcd13ifvqc7g","pricing_plan_id":"cebpf4jnsgd1na2vs0mg"},{"bike_id":"f996fded-4248-4e6c-89ec-01949b6fc7f1","system_id":"levelo_inurba_marseille","lat":43.28276,"lon":5.35062,"is_reserved":false,"is_disabled":false,"rental_uris":{"android":"levelo://app?vid=f996fded-4248-4e6c-89ec-01949b6fc7f1","ios":"levelo://app?vid=f996fded-4248-4e6c-89ec-01949b6fc7f1"},"vehicle_type_id":"4","last_reported":1751364751,"current_range_meters":7200,"station_id":"ce4bhbp2rcd13ifvqerg","pricing_plan_id":"cebpf4jnsgd1na2vs0mg"},{"bike_id":"7f626dcb-d15c-4062-90ea-e96e5a2d31ac","system_id":"levelo_inurba_marseille","lat":43.25922,"lon":5.40898,"is_reserved":false,"is_disabled":false,"rental_uris":{"android":"levelo://app?vid=7f626dcb-d15c-4062-90ea-e96e5a2d31ac","ios":"levelo://app?vid=7f626dcb-d15c-4062-90ea-e96e5a2d31ac"},"vehicle_type_id":"4","last_reported":1751364751,"current_range_meters":7200,"station_id":"ce4bhm92rcd13ifvqglg","pricing_plan_id":"cebpf4jnsgd1na2vs0mg"},{"bike_id":"f5c16f07-bc6f-4121-91a7-5ad90eec4f34","system_id":"levelo_inurba_marseille","lat":43.311934,"lon":5.373412,"is_reserved":false,"is_disabled":false,"rental_uris":{"android":"levelo://app?vid=f5c16f07-bc6f-4121-91a7-5ad90eec4f34","ios":"levelo://app?vid=f5c16f07-bc6f-4121-91a7-5ad90eec4f34"},"vehicle_type_id":"4","last_reported":1751364751,"current_range_meters":8000,"station_id":"","pricing_plan_id":"cebpf4jnsgd1na2vs0mg"},{"bike_id":"43fcb430-53f7-4349-b49c-62f8e6ea8db4","system_id":"levelo_inurba_marseille","lat":43.28465,"lon":5.43696,"is_reserved":false,"is_disabled":false,"rental_uris":{"android":"levelo://app?vid=43fcb430-53f7-4349-b49c-62f8e6ea8db4","ios":"levelo://app?vid=43fcb430-53f7-4349-b49c-62f8e6ea8db4"},"vehicle_type_id":"4","last_reported":1751364751,"current_range_meters":8400,"station_id":"","pricing_plan_id":"cebpf4jnsgd1na2vs0mg"},{"bike_id":"b05ac08d-847b-4f20-ac36-038a0d69d167","system_id":"levelo_inurba_marseille","lat":43.28133,"lon":5.35856,"is_reserved":false,"is_disabled":false,"rental_uris":{"android":"levelo://app?vid=b05ac08d-847b-4f20-ac36-038a0d69d167","ios":"levelo://app?vid=b05ac08d-847b-4f20-ac36-038a0d69d167"},"vehicle_type_id":"4","last_reported":1751364751,"current_range_meters":8400,"station_id":"","pricing_plan_id":"cebpf4jnsgd1na2vs0mg"},{"bike_id":"f62b14eb-cf9a-4c35-b65b-927ff2f59cde","system_id":"levelo_inurba_marseille","lat":43.30445,"lon":5.38897,"is_reserved":false,"is_disabled":false,"rental_uris":{"android":"levelo://app?vid=f62b14eb-cf9a-4c35-b65b-927ff2f59cde","ios":"levelo://app?vid=f62b14eb-cf9a-4c35-b65b-927ff2f59cde"},"vehicle_type_id":"4","last_reported":1751364751,"current_range_meters":8800,"station_id":"ce4bgk12rcd13ifvqbi0","pricing_plan_id":"cebpf4jnsgd1na2vs0mg"},{"bike_id":"052597f1-83b8-43cf-9aa8-202b76c0f723","system_id":"levelo_inurba_marseille","lat":43.28622,"lon":5.35108,"is_reserved":false,"is_disabled":false,"rental_uris":{"android":"levelo://app?vid=052597f1-83b8-43cf-9aa8-202b76c0f723","ios":"levelo://app?vid=052597f1-83b8-43cf-9aa8-202b76c0f723"},"vehicle_type_id":"4","last_reported":1751364751,"current_range_meters":8800,"station_id":"ce4bhch2rcd13ifvqeug","pricing_plan_id":"cebpf4jnsgd1na2vs0mg"},{"bike_id":"0c6d8a37-24af-486b-9e7f-57de03406e5d","system_id":"levelo_inurba_marseille","lat":43.27212,"lon":5.3918,"is_reserved":false,"is_disabled":false,"rental_uris":{"android":"levelo://app?vid=0c6d8a37-24af-486b-9e7f-57de03406e5d","ios":"levelo://app?vid=0c6d8a37-24af-486b-9e7f-57de03406e5d"},"vehicle_type_id":"4","last_reported":1751364751,"current_range_meters":8800,"station_id":"ce4bhhp2rcd13ifvqfm0","pricing_plan_id":"cebpf4jnsgd1na2vs0mg"},{"bike_id":"089b5f61-459e-4d7d-890a-d584c85a4092","system_id":"levelo_inurba_marseille","lat":43.25088,"lon":5.39525,"is_reserved":false,"is_disabled":false,"rental_uris":{"android":"levelo://app?vid=089b5f61-459e-4d7d-890a-d584c85a4092","ios":"levelo://app?vid=089b5f61-459e-4d7d-890a-d584c85a4092"},"vehicle_type_id":"4","last_reported":1751364751,"current_range_meters":8800,"station_id":"ce4bhm12rcd13ifvqgkg","pricing_plan_id":"cebpf4jnsgd1na2vs0mg"},{"bike_id":"f8b8780c-d988-4647-8be5-b57ec40b7c3b","system_id":"levelo_inurba_marseille","lat":43.2694,"lon":5.40256,"is_reserved":false,"is_disabled":false,"rental_uris":{"android":"levelo://app?vid=f8b8780c-d988-4647-8be5-b57ec40b7c3b","ios":"levelo://app?vid=f8b8780c-d988-4647-8be5-b57ec40b7c3b"},"vehicle_type_id":"4","last_reported":1751364751,"current_range_meters":8800,"station_id":"cjm6bp8fraef2m0cb0m0","pricing_plan_id":"cebpf4jnsgd1na2vs0mg"},{"bike_id":"93c66058-dd54-4970-9cf9-5bfc52325a63","system_id":"levelo_inurba_marseille","lat":43.25956,"lon":5.40918,"is_reserved":false,"is_disabled":false,"rental_uris":{"android":"levelo://app?vid=93c66058-dd54-4970-9cf9-5bfc52325a63","ios":"levelo://app?vid=93c66058-dd54-4970-9cf9-5bfc52325a63"},"vehicle_type_id":"4","last_reported":1751364751,"current_range_meters":9200,"station_id":"ce4bhm92rcd13ifvqglg","pricing_plan_id":"cebpf4jnsgd1na2vs0mg"},{"bike_id":"860ecc02-a6d5-4fbe-ada6-b9197deada15","system_id":"levelo_inurba_marseille","lat":43.3255,"lon":5.3893,"is_reserved":false,"is_disabled":false,"rental_uris":{"android":"levelo://app?vid=860ecc02-a6d5-4fbe-ada6-b9197deada15","ios":"levelo://app?vid=860ecc02-a6d5-4fbe-ada6-b9197deada15"},"vehicle_type_id":"4","last_reported":1751364751,"current_range_meters":9600,"station_id":"","pricing_plan_id":"cebpf4jnsgd1na2vs0mg"},{"bike_id":"aaa86ae1-c78c-464a-bdfd-dbc6011e50c4","system_id":"levelo_inurba_marseille","lat":43.31308,"lon":5.3677,"is_reserved":false,"is_disabled":false,"rental_uris":{"android":"levelo://app?vid=aaa86ae1-c78c-464a-bdfd-dbc6011e50c4","ios":"levelo://app?vid=aaa86ae1-c78c-464a-bdfd-dbc6011e50c4"},"vehicle_type_id":"4","last_reported":1751364751,"current_range_meters":9600,"station_id":"ce4bgr92rcd13ifvqc6g","pricing_plan_id":"cebpf4jnsgd1na2vs0mg"},{"bike_id":"6a309c80-0524-4605-a16f-87c0cb40c9c4","system_id":"levelo_inurba_marseille","lat":43.31698,"lon":5.37747,"is_reserved":false,"is_disabled":false,"rental_uris":{"android":"levelo://app?vid=6a309c80-0524-4605-a16f-87c0cb40c9c4","ios":"levelo://app?vid=6a309c80-0524-4605-a16f-87c0cb40c9c4"},"vehicle_type_id":"4","last_reported":1751364751,"current_range_meters":9600,"station_id":"ce4bgth2rcd13ifvqch0","pricing_plan_id":"cebpf4jnsgd1na2vs0mg"},{"bike_id":"36bdf16f-2cac-4dc8-8c43-732e177fa148","system_id":"levelo_inurba_marseille","lat":43.30134,"lon":5.398723,"is_reserved":false,"is_disabled":false,"rental_uris":{"android":"levelo://app?vid=36bdf16f-2cac-4dc8-8c43-732e177fa148","ios":"levelo://app?vid=36bdf16f-2cac-4dc8-8c43-732e177fa148"},"vehicle_type_id":"4","last_reported":1751364751,"current_range_meters":9600,"station_id":"ce4bh0h2rcd13ifvqd40","pricing_plan_id":"cebpf4jnsgd1na2vs0mg"},{"bike_id":"295f9591-b6c5-46f0-9b69-80ae277a747d","system_id":"levelo_inurba_marseille","lat":43.23199,"lon":5.35543,"is_reserved":false,"is_disabled":false,"rental_uris":{"android":"levelo://app?vid=295f9591-b6c5-46f0-9b69-80ae277a747d","ios":"levelo://app?vid=295f9591-b6c5-46f0-9b69-80ae277a747d"},"vehicle_type_id":"4","last_reported":1751364751,"current_range_meters":9600,"station_id":"ce4bhu92rcd13ifvqi70","pricing_plan_id":"cebpf4jnsgd1na2vs0mg"},{"bike_id":"c13c93ac-6b62-443c-9e36-caf61b27325a","system_id":"levelo_inurba_marseille","lat":43.212,"lon":5.35085,"is_reserved":false,"is_disabled":false,"rental_uris":{"android":"levelo://app?vid=c13c93ac-6b62-443c-9e36-caf61b27325a","ios":"levelo://app?vid=c13c93ac-6b62-443c-9e36-caf61b27325a"},"vehicle_type_id":"4","last_reported":1751364751,"current_range_meters":9600,"station_id":"st_cvj6sg6p6f1abm77japg","pricing_plan_id":"cebpf4jnsgd1na2vs0mg"},{"bike_id":"8252b44a-d048-4379-9209-2efa2e627825","system_id":"levelo_inurba_marseille","lat":43.29231,"lon":5.40573,"is_reserved":false,"is_disabled":false,"rental_uris":{"android":"levelo://app?vid=8252b44a-d048-4379-9209-2efa2e627825","ios":"levelo://app?vid=8252b44a-d048-4379-9209-2efa2e627825"},"vehicle_type_id":"4","last_reported":1751364751,"current_range_meters":10000,"station_id":"","pricing_plan_id":"cebpf4jnsgd1na2vs0mg"},{"bike_id":"075ed75d-302b-430a-80db-1b62dc2cf59a","system_id":"levelo_inurba_marseille","lat":43.28716,"lon":5.37953,"is_reserved":false,"is_disabled":false,"rental_uris":{"android":"levelo://app?vid=075ed75d-302b-430a-80db-1b62dc2cf59a","ios":"levelo://app?vid=075ed75d-302b-430a-80db-1b62dc2cf59a"},"vehicle_type_id":"4","last_reported":1751364751,"current_range_meters":10000,"station_id":"","pricing_plan_id":"cebpf4jnsgd1na2vs0mg"},{"bike_id":"2316b7bd-bd87-4362-8072-36754b233aab","system_id":"levelo_inurba_marseille","lat":43.30546,"lon":5.36525,"is_reserved":false,"is_disabled":false,"rental_uris":{"android":"levelo://app?vid=2316b7bd-bd87-4362-8072-36754b233aab","ios":"levelo://app?vid=2316b7bd-bd87-4362-8072-36754b233aab"},"vehicle_type_id":"4","last_reported":1751364751,"current_range_meters":10000,"station_id":"ce4bgs12rcd13ifvqcag","pricing_plan_id":"cebpf4jnsgd1na2vs0mg"},{"bike_id":"ebea917b-7b4c-4057-9fe5-9adb769dcc19","system_id":"levelo_inurba_marseille","lat":43.2836,"lon":5.38633,"is_reserved":false,"is_disabled":false,"rental_uris":{"android":"levelo://app?vid=ebea917b-7b4c-4057-9fe5-9adb769dcc19","ios":"levelo://app?vid=ebea917b-7b4c-4057-9fe5-9adb769dcc19"},"vehicle_type_id":"4","last_reported":1751364751,"current_range_meters":10000,"station_id":"ce4bh492rcd13ifvqdvg","pricing_plan_id":"cebpf4jnsgd1na2vs0mg"},{"bike_id":"6b04a8db-f012-4ea9-88f5-d59ff3f24fd9","system_id":"levelo_inurba_marseille","lat":43.29907,"lon":5.43646,"is_reserved":false,"is_disabled":false,"rental_uris":{"android":"levelo://app?vid=6b04a8db-f012-4ea9-88f5-d59ff3f24fd9","ios":"levelo://app?vid=6b04a8db-f012-4ea9-88f5-d59ff3f24fd9"},"vehicle_type_id":"4","last_reported":1751364751,"current_range_meters":10000,"station_id":"ce4bhpp2rcd13ifvqhfg","pricing_plan_id":"cebpf4jnsgd1na2vs0mg"},{"bike_id":"ac4cf6bf-ae0d-49a1-afc8-485ee29ed51b","system_id":"levelo_inurba_marseille","lat":43.27273,"lon":5.41156,"is_reserved":false,"is_disabled":false,"rental_uris":{"android":"levelo://app?vid=ac4cf6bf-ae0d-49a1-afc8-485ee29ed51b","ios":"levelo://app?vid=ac4cf6bf-ae0d-49a1-afc8-485ee29ed51b"},"vehicle_type_id":"4","last_reported":1751364751,"current_range_meters":10800,"station_id":"","pricing_plan_id":"cebpf4jnsgd1na2vs0mg"},{"bike_id":"d8facb10-b967-4a32-9b5c-8cfed4bbd05b","system_id":"levelo_inurba_marseille","lat":43.321053,"lon":5.367631,"is_reserved":false,"is_disabled":false,"rental_uris":{"android":"levelo://app?vid=d8facb10-b967-4a32-9b5c-8cfed4bbd05b","ios":"levelo://app?vid=d8facb10-b967-4a32-9b5c-8cfed4bbd05b"},"vehicle_type_id":"4","last_reported":1751364751,"current_range_meters":10800,"station_id":"ce4bhrh2rcd13ifvqhug","pricing_plan_id":"cebpf4jnsgd1na2vs0mg"},{"bike_id":"684702d3-f76e-457d-bd66-cea2f0217463","system_id":"levelo_inurba_marseille","lat":43.31273,"lon":5.40167,"is_reserved":false,"is_disabled":false,"rental_uris":{"android":"levelo://app?vid=684702d3-f76e-457d-bd66-cea2f0217463","ios":"levelo://app?vid=684702d3-f76e-457d-bd66-cea2f0217463"},"vehicle_type_id":"4","last_reported":1751364751,"current_range_meters":11200,"station_id":"ce4bh092rcd13ifvqd30","pricing_plan_id":"cebpf4jnsgd1na2vs0mg"},{"bike_id":"b2ec7371-4e1a-4f7b-ae6c-60c5a54c237b","system_id":"levelo_inurba_marseille","lat":43.21194,"lon":5.35074,"is_reserved":false,"is_disabled":false,"rental_uris":{"android":"levelo://app?vid=b2ec7371-4e1a-4f7b-ae6c-60c5a54c237b","ios":"levelo://app?vid=b2ec7371-4e1a-4f7b-ae6c-60c5a54c237b"},"vehicle_type_id":"4","last_reported":1751364751,"current_range_meters":11200,"station_id":"st_cvj6sg6p6f1abm77japg","pricing_plan_id":"cebpf4jnsgd1na2vs0mg"},{"bike_id":"a28c59f5-fce1-481a-bcff-87b69ba3d8a2","system_id":"levelo_inurba_marseille","lat":43.30308,"lon":5.36904,"is_reserved":false,"is_disabled":false,"rental_uris":{"android":"levelo://app?vid=a28c59f5-fce1-481a-bcff-87b69ba3d8a2","ios":"levelo://app?vid=a28c59f5-fce1-481a-bcff-87b69ba3d8a2"},"vehicle_type_id":"4","last_reported":1751364751,"current_range_meters":11600,"station_id":"ce4bgqh2rcd13ifvqc5g","pricing_plan_id":"cebpf4jnsgd1na2vs0mg"},{"bike_id":"0bdd5ea0-3154-424e-ba3b-1cd29c25dddd","system_id":"levelo_inurba_marseille","lat":43.30518,"lon":5.36696,"is_reserved":false,"is_disabled":false,"rental_uris":{"android":"levelo://app?vid=0bdd5ea0-3154-424e-ba3b-1cd29c25dddd","ios":"levelo://app?vid=0bdd5ea0-3154-424e-ba3b-1cd29c25dddd"},"vehicle_type_id":"4","last_reported":1751364751,"current_range_meters":11600,"station_id":"ce4bgrp2rcd13ifvqc9g","pricing_plan_id":"cebpf4jnsgd1na2vs0mg"},{"bike_id":"43eb0a95-a42b-4fb1-afa6-904af12c6e74","system_id":"levelo_inurba_marseille","lat":43.25724,"lon":5.4111,"is_reserved":false,"is_disabled":false,"rental_uris":{"android":"levelo://app?vid=43eb0a95-a42b-4fb1-afa6-904af12c6e74","ios":"levelo://app?vid=43eb0a95-a42b-4fb1-afa6-904af12c6e74"},"vehicle_type_id":"4","last_reported":1751364751,"current_range_meters":11600,"station_id":"ce4bhkp2rcd13ifvqgd0","pricing_plan_id":"cebpf4jnsgd1na2vs0mg"},{"bike_id":"6518383b-e70b-48b6-a06c-6be08c71260c","system_id":"levelo_inurba_marseille","lat":43.232027,"lon":5.355445,"is_reserved":false,"is_disabled":false,"rental_uris":{"android":"levelo://app?vid=6518383b-e70b-48b6-a06c-6be08c71260c","ios":"levelo://app?vid=6518383b-e70b-48b6-a06c-6be08c71260c"},"vehicle_type_id":"4","last_reported":1751364751,"current_range_meters":11600,"station_id":"ce4bhu92rcd13ifvqi70","pricing_plan_id":"cebpf4jnsgd1na2vs0mg"},{"bike_id":"40250f64-5284-47cd-b3ac-70428c74833e","system_id":"levelo_inurba_marseille","lat":43.28574,"lon":5.39501,"is_reserved":false,"is_disabled":false,"rental_uris":{"android":"levelo://app?vid=40250f64-5284-47cd-b3ac-70428c74833e","ios":"levelo://app?vid=40250f64-5284-47cd-b3ac-70428c74833e"},"vehicle_type_id":"4","last_reported":1751364751,"current_range_meters":12400,"station_id":"ce4bh292rcd13ifvqdg0","pricing_plan_id":"cebpf4jnsgd1na2vs0mg"},{"bike_id":"81f992a9-cae1-4d6e-9c4c-cba00bcbe721","system_id":"levelo_inurba_marseille","lat":43.25738,"lon":5.4113,"is_reserved":false,"is_disabled":false,"rental_uris":{"android":"levelo://app?vid=81f992a9-cae1-4d6e-9c4c-cba00bcbe721","ios":"levelo://app?vid=81f992a9-cae1-4d6e-9c4c-cba00bcbe721"},"vehicle_type_id":"4","last_reported":1751364751,"current_range_meters":12400,"station_id":"ce4bhkp2rcd13ifvqgd0","pricing_plan_id":"cebpf4jnsgd1na2vs0mg"},{"bike_id":"1386926b-a578-4b8f-96f0-8084a12c0368","system_id":"levelo_inurba_marseille","lat":43.29572,"lon":5.39979,"is_reserved":false,"is_disabled":false,"rental_uris":{"android":"levelo://app?vid=1386926b-a578-4b8f-96f0-8084a12c0368","ios":"levelo://app?vid=1386926b-a578-4b8f-96f0-8084a12c0368"},"vehicle_type_id":"4","last_reported":1751364751,"current_range_meters":12800,"station_id":"ce4bh312rcd13ifvqdj0","pricing_plan_id":"cebpf4jnsgd1na2vs0mg"},{"bike_id":"6602f4ed-af8a-41d9-b5cb-5ab946a18408","system_id":"levelo_inurba_marseille","lat":43.267852,"lon":5.39414,"is_reserved":false,"is_disabled":false,"rental_uris":{"android":"levelo://app?vid=6602f4ed-af8a-41d9-b5cb-5ab946a18408","ios":"levelo://app?vid=6602f4ed-af8a-41d9-b5cb-5ab946a18408"},"vehicle_type_id":"4","last_reported":1751364751,"current_range_meters":12800,"station_id":"ce4bhh12rcd13ifvqfg0","pricing_plan_id":"cebpf4jnsgd1na2vs0mg"},{"bike_id":"1710a783-be35-497a-a3f6-09812f1380a7","system_id":"levelo_inurba_marseille","lat":43.23957,"lon":5.36618,"is_reserved":false,"is_disabled":false,"rental_uris":{"android":"levelo://app?vid=1710a783-be35-497a-a3f6-09812f1380a7","ios":"levelo://app?vid=1710a783-be35-497a-a3f6-09812f1380a7"},"vehicle_type_id":"4","last_reported":1751364751,"current_range_meters":12800,"station_id":"ce4bhi12rcd13ifvqfp0","pricing_plan_id":"cebpf4jnsgd1na2vs0mg"},{"bike_id":"b28aa0a0-791c-4a08-9a16-c7bf6ea0ed5a","system_id":"levelo_inurba_marseille","lat":43.22521,"lon":5.34798,"is_reserved":false,"is_disabled":false,"rental_uris":{"android":"levelo://app?vid=b28aa0a0-791c-4a08-9a16-c7bf6ea0ed5a","ios":"levelo://app?vid=b28aa0a0-791c-4a08-9a16-c7bf6ea0ed5a"},"vehicle_type_id":"4","last_reported":1751364751,"current_range_meters":12800,"station_id":"st_cvj5dfep6f1abm77gieg","pricing_plan_id":"cebpf4jnsgd1na2vs0mg"},{"bike_id":"750f5cfa-157e-4240-9a5f-3afe50c900ac","system_id":"levelo_inurba_marseille","lat":43.2571,"lon":5.41847,"is_reserved":false,"is_disabled":false,"rental_uris":{"android":"levelo://app?vid=750f5cfa-157e-4240-9a5f-3afe50c900ac","ios":"levelo://app?vid=750f5cfa-157e-4240-9a5f-3afe50c900ac"},"vehicle_type_id":"4","last_reported":1751364751,"current_range_meters":13600,"station_id":"","pricing_plan_id":"cebpf4jnsgd1na2vs0mg"},{"bike_id":"dcf8c3fd-424d-4b14-aa32-134e09dc1243","system_id":"levelo_inurba_marseille","lat":43.30548,"lon":5.36501,"is_reserved":false,"is_disabled":false,"rental_uris":{"android":"levelo://app?vid=dcf8c3fd-424d-4b14-aa32-134e09dc1243","ios":"levelo://app?vid=dcf8c3fd-424d-4b14-aa32-134e09dc1243"},"vehicle_type_id":"4","last_reported":1751364751,"current_range_meters":13600,"station_id":"","pricing_plan_id":"cebpf4jnsgd1na2vs0mg"},{"bike_id":"dc970728-a2b2-404e-b6d7-b9b749cb3393","system_id":"levelo_inurba_marseille","lat":43.30544,"lon":5.36533,"is_reserved":false,"is_disabled":false,"rental_uris":{"android":"levelo://app?vid=dc970728-a2b2-404e-b6d7-b9b749cb3393","ios":"levelo://app?vid=dc970728-a2b2-404e-b6d7-b9b749cb3393"},"vehicle_type_id":"4","last_reported":1751364751,"current_range_meters":13600,"station_id":"ce4bgs12rcd13ifvqcag","pricing_plan_id":"cebpf4jnsgd1na2vs0mg"},{"bike_id":"8757932e-1812-4d79-a709-a08cf6f79851","system_id":"levelo_inurba_marseille","lat":43.30546,"lon":5.36527,"is_reserved":false,"is_disabled":false,"rental_uris":{"android":"levelo://app?vid=8757932e-1812-4d79-a709-a08cf6f79851","ios":"levelo://app?vid=8757932e-1812-4d79-a709-a08cf6f79851"},"vehicle_type_id":"4","last_reported":1751364751,"current_range_meters":13600,"station_id":"ce4bgs12rcd13ifvqcag","pricing_plan_id":"cebpf4jnsgd1na2vs0mg"},{"bike_id":"1b732d77-0fd5-49ef-b600-bb4e64c048b3","system_id":"levelo_inurba_marseille","lat":43.29198,"lon":5.35816,"is_reserved":false,"is_disabled":false,"rental_uris":{"android":"levelo://app?vid=1b732d77-0fd5-49ef-b600-bb4e64c048b3","ios":"levelo://app?vid=1b732d77-0fd5-49ef-b600-bb4e64c048b3"},"vehicle_type_id":"4","last_reported":1751364751,"current_range_meters":13600,"station_id":"ce4bhb12rcd13ifvqel0","pricing_plan_id":"cebpf4jnsgd1na2vs0mg"},{"bike_id":"35ffbc38-886a-4681-838f-65acf1f71300","system_id":"levelo_inurba_marseille","lat":43.28418,"lon":5.34978,"is_reserved":false,"is_disabled":false,"rental_uris":{"android":"levelo://app?vid=35ffbc38-886a-4681-838f-65acf1f71300","ios":"levelo://app?vid=35ffbc38-886a-4681-838f-65acf1f71300"},"vehicle_type_id":"4","last_reported":1751364751,"current_range_meters":13600,"station_id":"ce4bhbh2rcd13ifvqepg","pricing_plan_id":"cebpf4jnsgd1na2vs0mg"},{"bike_id":"729ed812-0359-471a-af11-52b1bfb49aef","system_id":"levelo_inurba_marseille","lat":43.28416,"lon":5.34981,"is_reserved":false,"is_disabled":false,"rental_uris":{"android":"levelo://app?vid=729ed812-0359-471a-af11-52b1bfb49aef","ios":"levelo://app?vid=729ed812-0359-471a-af11-52b1bfb49aef"},"vehicle_type_id":"4","last_reported":1751364751,"current_range_meters":13600,"station_id":"ce4bhbh2rcd13ifvqepg","pricing_plan_id":"cebpf4jnsgd1na2vs0mg"},{"bike_id":"27cea011-2e4b-4285-860a-d4c83b1275f9","system_id":"levelo_inurba_marseille","lat":43.28954,"lon":5.36417,"is_reserved":false,"is_disabled":false,"rental_uris":{"android":"levelo://app?vid=27cea011-2e4b-4285-860a-d4c83b1275f9","ios":"levelo://app?vid=27cea011-2e4b-4285-860a-d4c83b1275f9"},"vehicle_type_id":"4","last_reported":1751364751,"current_range_meters":13600,"station_id":"ce4bhc92rcd13ifvqetg","pricing_plan_id":"cebpf4jnsgd1na2vs0mg"},{"bike_id":"3d5a16c6-ed3f-41a7-990d-816169838d04","system_id":"levelo_inurba_marseille","lat":43.287099,"lon":5.39996,"is_reserved":false,"is_disabled":false,"rental_uris":{"android":"levelo://app?vid=3d5a16c6-ed3f-41a7-990d-816169838d04","ios":"levelo://app?vid=3d5a16c6-ed3f-41a7-990d-816169838d04"},"vehicle_type_id":"4","last_reported":1751364751,"current_range_meters":13600,"station_id":"ce4bho92rcd13ifvqh3g","pricing_plan_id":"cebpf4jnsgd1na2vs0mg"},{"bike_id":"10eea809-7477-4bdc-97f3-cac368652f0e","system_id":"levelo_inurba_marseille","lat":43.230513,"lon":5.354893,"is_reserved":false,"is_disabled":false,"rental_uris":{"android":"levelo://app?vid=10eea809-7477-4bdc-97f3-cac368652f0e","ios":"levelo://app?vid=10eea809-7477-4bdc-97f3-cac368652f0e"},"vehicle_type_id":"4","last_reported":1751364751,"current_range_meters":13600,"station_id":"cpo3342slgdg3j2ifvpg","pricing_plan_id":"cebpf4jnsgd1na2vs0mg"},{"bike_id":"5631c7ea-fb56-4ee9-8df0-6e0aa2f0ff30","system_id":"levelo_inurba_marseille","lat":43.24171,"lon":5.363993,"is_reserved":false,"is_disabled":false,"rental_uris":{"android":"levelo://app?vid=5631c7ea-fb56-4ee9-8df0-6e0aa2f0ff30","ios":"levelo://app?vid=5631c7ea-fb56-4ee9-8df0-6e0aa2f0ff30"},"vehicle_type_id":"4","last_reported":1751364751,"current_range_meters":13600,"station_id":"cpo36qri1sfpv3e86is0","pricing_plan_id":"cebpf4jnsgd1na2vs0mg"},{"bike_id":"e552832c-7ca2-4106-b0f9-92bbabda27d1","system_id":"levelo_inurba_marseille","lat":43.2119,"lon":5.350593,"is_reserved":false,"is_disabled":false,"rental_uris":{"android":"levelo://app?vid=e552832c-7ca2-4106-b0f9-92bbabda27d1","ios":"levelo://app?vid=e552832c-7ca2-4106-b0f9-92bbabda27d1"},"vehicle_type_id":"4","last_reported":1751364751,"current_range_meters":13600,"station_id":"st_cvj6sg6p6f1abm77japg","pricing_plan_id":"cebpf4jnsgd1na2vs0mg"},{"bike_id":"c2b72fe0-bae6-4c7b-ad48-9e771b203dc8","system_id":"levelo_inurba_marseille","lat":43.31355,"lon":5.38468,"is_reserved":false,"is_disabled":false,"rental_uris":{"android":"levelo://app?vid=c2b72fe0-bae6-4c7b-ad48-9e771b203dc8","ios":"levelo://app?vid=c2b72fe0-bae6-4c7b-ad48-9e771b203dc8"},"vehicle_type_id":"4","last_reported":1751364751,"current_range_meters":14000,"station_id":"ce4bgt92rcd13ifvqcf0","pricing_plan_id":"cebpf4jnsgd1na2vs0mg"},{"bike_id":"0745af5a-a5d8-47ed-8b51-e5408958d31d","system_id":"levelo_inurba_marseille","lat":43.28106,"lon":5.37842,"is_reserved":false,"is_disabled":false,"rental_uris":{"android":"levelo://app?vid=0745af5a-a5d8-47ed-8b51-e5408958d31d","ios":"levelo://app?vid=0745af5a-a5d8-47ed-8b51-e5408958d31d"},"vehicle_type_id":"4","last_reported":1751364751,"current_range_meters":14000,"station_id":"ce4bha12rcd13ifvqee0","pricing_plan_id":"cebpf4jnsgd1na2vs0mg"},{"bike_id":"7f42552d-0467-429b-b79b-b7861587ad11","system_id":"levelo_inurba_marseille","lat":43.27314,"lon":5.39127,"is_reserved":false,"is_disabled":false,"rental_uris":{"android":"levelo://app?vid=7f42552d-0467-429b-b79b-b7861587ad11","ios":"levelo://app?vid=7f42552d-0467-429b-b79b-b7861587ad11"},"vehicle_type_id":"4","last_reported":1751364751,"current_range_meters":14000,"station_id":"ce4bhgp2rcd13ifvqfe0","pricing_plan_id":"cebpf4jnsgd1na2vs0mg"},{"bike_id":"7530b7c2-374e-416b-b481-260a99679faa","system_id":"levelo_inurba_marseille","lat":43.25742,"lon":5.4111,"is_reserved":false,"is_disabled":false,"rental_uris":{"android":"levelo://app?vid=7530b7c2-374e-416b-b481-260a99679faa","ios":"levelo://app?vid=7530b7c2-374e-416b-b481-260a99679faa"},"vehicle_type_id":"4","last_reported":1751364751,"current_range_meters":14000,"station_id":"ce4bhkp2rcd13ifvqgd0","pricing_plan_id":"cebpf4jnsgd1na2vs0mg"},{"bike_id":"26f7ed1c-34db-4c44-930c-48bf047adf5f","system_id":"levelo_inurba_marseille","lat":43.24164,"lon":5.36391,"is_reserved":false,"is_disabled":false,"rental_uris":{"android":"levelo://app?vid=26f7ed1c-34db-4c44-930c-48bf047adf5f","ios":"levelo://app?vid=26f7ed1c-34db-4c44-930c-48bf047adf5f"},"vehicle_type_id":"4","last_reported":1751364751,"current_range_meters":14000,"station_id":"cpo36qri1sfpv3e86is0","pricing_plan_id":"cebpf4jnsgd1na2vs0mg"},{"bike_id":"859b6cf6-411c-4a6e-b2f1-d5866da46ff7","system_id":"levelo_inurba_marseille","lat":43.24176,"lon":5.364,"is_reserved":false,"is_disabled":false,"rental_uris":{"android":"levelo://app?vid=859b6cf6-411c-4a6e-b2f1-d5866da46ff7","ios":"levelo://app?vid=859b6cf6-411c-4a6e-b2f1-d5866da46ff7"},"vehicle_type_id":"4","last_reported":1751364751,"current_range_meters":14000,"station_id":"cpo36qri1sfpv3e86is0","pricing_plan_id":"cebpf4jnsgd1na2vs0mg"},{"bike_id":"3b814c8f-0909-47dc-bbe5-5ba4b706fb92","system_id":"levelo_inurba_marseille","lat":43.337444,"lon":5.374475,"is_reserved":false,"is_disabled":false,"rental_uris":{"android":"levelo://app?vid=3b814c8f-0909-47dc-bbe5-5ba4b706fb92","ios":"levelo://app?vid=3b814c8f-0909-47dc-bbe5-5ba4b706fb92"},"vehicle_type_id":"4","last_reported":1751364751,"current_range_meters":14400,"station_id":"","pricing_plan_id":"cebpf4jnsgd1na2vs0mg"},{"bike_id":"6154fb20-79ad-4d6b-b805-bd051c593462","system_id":"levelo_inurba_marseille","lat":43.27206,"lon":5.39181,"is_reserved":false,"is_disabled":false,"rental_uris":{"android":"levelo://app?vid=6154fb20-79ad-4d6b-b805-bd051c593462","ios":"levelo://app?vid=6154fb20-79ad-4d6b-b805-bd051c593462"},"vehicle_type_id":"4","last_reported":1751364751,"current_range_meters":14400,"station_id":"ce4bhhp2rcd13ifvqfm0","pricing_plan_id":"cebpf4jnsgd1na2vs0mg"},{"bike_id":"6b612bb4-7fd6-40a8-a1d2-c058f8974c0a","system_id":"levelo_inurba_marseille","lat":43.24545,"lon":5.39522,"is_reserved":false,"is_disabled":false,"rental_uris":{"android":"levelo://app?vid=6b612bb4-7fd6-40a8-a1d2-c058f8974c0a","ios":"levelo://app?vid=6b612bb4-7fd6-40a8-a1d2-c058f8974c0a"},"vehicle_type_id":"4","last_reported":1751364751,"current_range_meters":14400,"station_id":"ce4bhlp2rcd13ifvqgjg","pricing_plan_id":"cebpf4jnsgd1na2vs0mg"},{"bike_id":"53cf1b8c-d56f-41f7-98a6-e7b4a07c29bb","system_id":"levelo_inurba_marseille","lat":43.23155,"lon":5.43717,"is_reserved":false,"is_disabled":false,"rental_uris":{"android":"levelo://app?vid=53cf1b8c-d56f-41f7-98a6-e7b4a07c29bb","ios":"levelo://app?vid=53cf1b8c-d56f-41f7-98a6-e7b4a07c29bb"},"vehicle_type_id":"4","last_reported":1751364751,"current_range_meters":14400,"station_id":"ce4bhmp2rcd13ifvqgog","pricing_plan_id":"cebpf4jnsgd1na2vs0mg"},{"bike_id":"6e566adb-baf1-4cfa-a7ba-dd4e8927a205","system_id":"levelo_inurba_marseille","lat":43.24168,"lon":5.36389,"is_reserved":false,"is_disabled":false,"rental_uris":{"android":"levelo://app?vid=6e566adb-baf1-4cfa-a7ba-dd4e8927a205","ios":"levelo://app?vid=6e566adb-baf1-4cfa-a7ba-dd4e8927a205"},"vehicle_type_id":"4","last_reported":1751364751,"current_range_meters":14400,"station_id":"cpo36qri1sfpv3e86is0","pricing_plan_id":"cebpf4jnsgd1na2vs0mg"},{"bike_id":"27c77a81-e237-479a-84d3-496b6e8c0dc7","system_id":"levelo_inurba_marseille","lat":43.21187,"lon":5.35075,"is_reserved":false,"is_disabled":false,"rental_uris":{"android":"levelo://app?vid=27c77a81-e237-479a-84d3-496b6e8c0dc7","ios":"levelo://app?vid=27c77a81-e237-479a-84d3-496b6e8c0dc7"},"vehicle_type_id":"4","last_reported":1751364751,"current_range_meters":14400,"station_id":"st_cvj6sg6p6f1abm77japg","pricing_plan_id":"cebpf4jnsgd1na2vs0mg"},{"bike_id":"3f50d751-6bdc-4e25-aea7-b356d8579196","system_id":"levelo_inurba_marseille","lat":43.30529,"lon":5.36558,"is_reserved":false,"is_disabled":false,"rental_uris":{"android":"levelo://app?vid=3f50d751-6bdc-4e25-aea7-b356d8579196","ios":"levelo://app?vid=3f50d751-6bdc-4e25-aea7-b356d8579196"},"vehicle_type_id":"4","last_reported":1751364751,"current_range_meters":14800,"station_id":"ce4bgs12rcd13ifvqcag","pricing_plan_id":"cebpf4jnsgd1na2vs0mg"},{"bike_id":"1754aeaf-e4a8-4fa1-a561-59e6d2504b34","system_id":"levelo_inurba_marseille","lat":43.27217,"lon":5.3919,"is_reserved":false,"is_disabled":false,"rental_uris":{"android":"levelo://app?vid=1754aeaf-e4a8-4fa1-a561-59e6d2504b34","ios":"levelo://app?vid=1754aeaf-e4a8-4fa1-a561-59e6d2504b34"},"vehicle_type_id":"4","last_reported":1751364751,"current_range_meters":14800,"station_id":"ce4bhhp2rcd13ifvqfm0","pricing_plan_id":"cebpf4jnsgd1na2vs0mg"},{"bike_id":"f7a6e636-cea0-4a5a-8210-c9baa8f6f21d","system_id":"levelo_inurba_marseille","lat":43.24182,"lon":5.39727,"is_reserved":false,"is_disabled":false,"rental_uris":{"android":"levelo://app?vid=f7a6e636-cea0-4a5a-8210-c9baa8f6f21d","ios":"levelo://app?vid=f7a6e636-cea0-4a5a-8210-c9baa8f6f21d"},"vehicle_type_id":"4","last_reported":1751364751,"current_range_meters":14800,"station_id":"ce4bhn12rcd13ifvqgpg","pricing_plan_id":"cebpf4jnsgd1na2vs0mg"},{"bike_id":"cc63998a-9a40-4949-9d4a-4672e30227f5","system_id":"levelo_inurba_marseille","lat":43.27991,"lon":5.41657,"is_reserved":false,"is_disabled":false,"rental_uris":{"android":"levelo://app?vid=cc63998a-9a40-4949-9d4a-4672e30227f5","ios":"levelo://app?vid=cc63998a-9a40-4949-9d4a-4672e30227f5"},"vehicle_type_id":"4","last_reported":1751364751,"current_range_meters":14800,"station_id":"ce4bho12rcd13ifvqh1g","pricing_plan_id":"cebpf4jnsgd1na2vs0mg"},{"bike_id":"82b0e5f2-5f76-48ef-8286-b14d6da9dee9","system_id":"levelo_inurba_marseille","lat":43.22927,"lon":5.35377,"is_reserved":false,"is_disabled":false,"rental_uris":{"android":"levelo://app?vid=82b0e5f2-5f76-48ef-8286-b14d6da9dee9","ios":"levelo://app?vid=82b0e5f2-5f76-48ef-8286-b14d6da9dee9"},"vehicle_type_id":"4","last_reported":1751364751,"current_range_meters":14800,"station_id":"cpo3532slgdg3j2ikp40","pricing_plan_id":"cebpf4jnsgd1na2vs0mg"},{"bike_id":"e1b3ade4-4952-4644-a7de-ea587df0ba4a","system_id":"levelo_inurba_marseille","lat":43.24167,"lon":5.36392,"is_reserved":false,"is_disabled":false,"rental_uris":{"android":"levelo://app?vid=e1b3ade4-4952-4644-a7de-ea587df0ba4a","ios":"levelo://app?vid=e1b3ade4-4952-4644-a7de-ea587df0ba4a"},"vehicle_type_id":"4","last_reported":1751364751,"current_range_meters":14800,"station_id":"cpo36qri1sfpv3e86is0","pricing_plan_id":"cebpf4jnsgd1na2vs0mg"},{"bike_id":"28225780-6c00-4435-8cde-b501bd568f8b","system_id":"levelo_inurba_marseille","lat":43.21749,"lon":5.34593,"is_reserved":false,"is_disabled":false,"rental_uris":{"android":"levelo://app?vid=28225780-6c00-4435-8cde-b501bd568f8b","ios":"levelo://app?vid=28225780-6c00-4435-8cde-b501bd568f8b"},"vehicle_type_id":"4","last_reported":1751364751,"current_range_meters":14800,"station_id":"st_cvj6r9ubvosntc0bgbag","pricing_plan_id":"cebpf4jnsgd1na2vs0mg"},{"bike_id":"fd2e4073-ea6d-48c9-b30f-fd2911500fd8","system_id":"levelo_inurba_marseille","lat":43.249939,"lon":5.3894,"is_reserved":false,"is_disabled":false,"rental_uris":{"android":"levelo://app?vid=fd2e4073-ea6d-48c9-b30f-fd2911500fd8","ios":"levelo://app?vid=fd2e4073-ea6d-48c9-b30f-fd2911500fd8"},"vehicle_type_id":"4","last_reported":1751364751,"current_range_meters":15200,"station_id":"ce4bhgp2rcd13ifvqfd0","pricing_plan_id":"cebpf4jnsgd1na2vs0mg"},{"bike_id":"0a5a6df3-791d-4e1e-9f7c-cb1cf013a1c7","system_id":"levelo_inurba_marseille","lat":43.25724,"lon":5.41098,"is_reserved":false,"is_disabled":false,"rental_uris":{"android":"levelo://app?vid=0a5a6df3-791d-4e1e-9f7c-cb1cf013a1c7","ios":"levelo://app?vid=0a5a6df3-791d-4e1e-9f7c-cb1cf013a1c7"},"vehicle_type_id":"4","last_reported":1751364751,"current_range_meters":15200,"station_id":"ce4bhkp2rcd13ifvqgd0","pricing_plan_id":"cebpf4jnsgd1na2vs0mg"},{"bike_id":"9c98480b-a425-4483-8b24-f454ce021983","system_id":"levelo_inurba_marseille","lat":43.25868,"lon":5.39895,"is_reserved":false,"is_disabled":false,"rental_uris":{"android":"levelo://app?vid=9c98480b-a425-4483-8b24-f454ce021983","ios":"levelo://app?vid=9c98480b-a425-4483-8b24-f454ce021983"},"vehicle_type_id":"4","last_reported":1751364751,"current_range_meters":15200,"station_id":"ce4bhl92rcd13ifvqghg","pricing_plan_id":"cebpf4jnsgd1na2vs0mg"},{"bike_id":"d67ecffe-4463-4724-8c61-0e1fce7455b0","system_id":"levelo_inurba_marseille","lat":43.323663,"lon":5.388909,"is_reserved":false,"is_disabled":false,"rental_uris":{"android":"levelo://app?vid=d67ecffe-4463-4724-8c61-0e1fce7455b0","ios":"levelo://app?vid=d67ecffe-4463-4724-8c61-0e1fce7455b0"},"vehicle_type_id":"4","last_reported":1751364751,"current_range_meters":15200,"station_id":"ce4bhqp2rcd13ifvqhog","pricing_plan_id":"cebpf4jnsgd1na2vs0mg"},{"bike_id":"7d2ebbac-d26c-416a-b58e-5e3abed80858","system_id":"levelo_inurba_marseille","lat":43.21192,"lon":5.35067,"is_reserved":false,"is_disabled":false,"rental_uris":{"android":"levelo://app?vid=7d2ebbac-d26c-416a-b58e-5e3abed80858","ios":"levelo://app?vid=7d2ebbac-d26c-416a-b58e-5e3abed80858"},"vehicle_type_id":"4","last_reported":1751364751,"current_range_meters":15200,"station_id":"st_cvj6sg6p6f1abm77japg","pricing_plan_id":"cebpf4jnsgd1na2vs0mg"},{"bike_id":"c0228700-5312-4a39-89af-ec53a5d729c5","system_id":"levelo_inurba_marseille","lat":43.282957,"lon":5.432409,"is_reserved":false,"is_disabled":false,"rental_uris":{"android":"levelo://app?vid=c0228700-5312-4a39-89af-ec53a5d729c5","ios":"levelo://app?vid=c0228700-5312-4a39-89af-ec53a5d729c5"},"vehicle_type_id":"4","last_reported":1751364751,"current_range_meters":16000,"station_id":"","pricing_plan_id":"cebpf4jnsgd1na2vs0mg"},{"bike_id":"c61036a9-1a66-4480-8bd4-cd2fb585b287","system_id":"levelo_inurba_marseille","lat":43.26975,"lon":5.40538,"is_reserved":false,"is_disabled":false,"rental_uris":{"android":"levelo://app?vid=c61036a9-1a66-4480-8bd4-cd2fb585b287","ios":"levelo://app?vid=c61036a9-1a66-4480-8bd4-cd2fb585b287"},"vehicle_type_id":"4","last_reported":1751364751,"current_range_meters":16000,"station_id":"","pricing_plan_id":"cebpf4jnsgd1na2vs0mg"},{"bike_id":"64c35025-af08-442f-b59a-e22a65c55d07","system_id":"levelo_inurba_marseille","lat":43.30572,"lon":5.3654,"is_reserved":false,"is_disabled":false,"rental_uris":{"android":"levelo://app?vid=64c35025-af08-442f-b59a-e22a65c55d07","ios":"levelo://app?vid=64c35025-af08-442f-b59a-e22a65c55d07"},"vehicle_type_id":"4","last_reported":1751364751,"current_range_meters":16000,"station_id":"ce4bgs12rcd13ifvqcag","pricing_plan_id":"cebpf4jnsgd1na2vs0mg"},{"bike_id":"86fa6ce7-8cbe-47ff-b5d3-c2b4938fd05c","system_id":"levelo_inurba_marseille","lat":43.211956,"lon":5.350673,"is_reserved":false,"is_disabled":false,"rental_uris":{"android":"levelo://app?vid=86fa6ce7-8cbe-47ff-b5d3-c2b4938fd05c","ios":"levelo://app?vid=86fa6ce7-8cbe-47ff-b5d3-c2b4938fd05c"},"vehicle_type_id":"4","last_reported":1751364751,"current_range_meters":16400,"station_id":"","pricing_plan_id":"cebpf4jnsgd1na2vs0mg"},{"bike_id":"1a9b6667-5827-4b76-8a53-e74f759cf260","system_id":"levelo_inurba_marseille","lat":43.2957,"lon":5.3752,"is_reserved":false,"is_disabled":false,"rental_uris":{"android":"levelo://app?vid=1a9b6667-5827-4b76-8a53-e74f759cf260","ios":"levelo://app?vid=1a9b6667-5827-4b76-8a53-e74f759cf260"},"vehicle_type_id":"4","last_reported":1751364751,"current_range_meters":16400,"station_id":"ce4bgh92rcd13ifvqb50","pricing_plan_id":"cebpf4jnsgd1na2vs0mg"},{"bike_id":"5a46c106-c1db-430d-9568-5f4bdc0c0dc4","system_id":"levelo_inurba_marseille","lat":43.29849,"lon":5.36289,"is_reserved":false,"is_disabled":false,"rental_uris":{"android":"levelo://app?vid=5a46c106-c1db-430d-9568-5f4bdc0c0dc4","ios":"levelo://app?vid=5a46c106-c1db-430d-9568-5f4bdc0c0dc4"},"vehicle_type_id":"4","last_reported":1751364751,"current_range_meters":16400,"station_id":"ce4bgpp2rcd13ifvqc3g","pricing_plan_id":"cebpf4jnsgd1na2vs0mg"},{"bike_id":"59eb614f-e2e3-4139-88fa-56741636669c","system_id":"levelo_inurba_marseille","lat":43.30177,"lon":5.36608,"is_reserved":false,"is_disabled":false,"rental_uris":{"android":"levelo://app?vid=59eb614f-e2e3-4139-88fa-56741636669c","ios":"levelo://app?vid=59eb614f-e2e3-4139-88fa-56741636669c"},"vehicle_type_id":"4","last_reported":1751364751,"current_range_meters":16400,"station_id":"ce4bgrh2rcd13ifvqc8g","pricing_plan_id":"cebpf4jnsgd1na2vs0mg"},{"bike_id":"1caca1fc-4911-4e37-9aeb-383803780faf","system_id":"levelo_inurba_marseille","lat":43.3211,"lon":5.36805,"is_reserved":false,"is_disabled":false,"rental_uris":{"android":"levelo://app?vid=1caca1fc-4911-4e37-9aeb-383803780faf","ios":"levelo://app?vid=1caca1fc-4911-4e37-9aeb-383803780faf"},"vehicle_type_id":"4","last_reported":1751364751,"current_range_meters":16400,"station_id":"ce4bhrh2rcd13ifvqhug","pricing_plan_id":"cebpf4jnsgd1na2vs0mg"},{"bike_id":"947c0abc-8a28-4463-9d63-6c7d61393962","system_id":"levelo_inurba_marseille","lat":43.24171,"lon":5.36386,"is_reserved":false,"is_disabled":false,"rental_uris":{"android":"levelo://app?vid=947c0abc-8a28-4463-9d63-6c7d61393962","ios":"levelo://app?vid=947c0abc-8a28-4463-9d63-6c7d61393962"},"vehicle_type_id":"4","last_reported":1751364751,"current_range_meters":16400,"station_id":"cpo36qri1sfpv3e86is0","pricing_plan_id":"cebpf4jnsgd1na2vs0mg"},{"bike_id":"3a33ebd2-49a2-4e39-92d7-f09d7dd08672","system_id":"levelo_inurba_marseille","lat":43.211891,"lon":5.350837,"is_reserved":false,"is_disabled":false,"rental_uris":{"android":"levelo://app?vid=3a33ebd2-49a2-4e39-92d7-f09d7dd08672","ios":"levelo://app?vid=3a33ebd2-49a2-4e39-92d7-f09d7dd08672"},"vehicle_type_id":"4","last_reported":1751364751,"current_range_meters":16400,"station_id":"st_cvj6sg6p6f1abm77japg","pricing_plan_id":"cebpf4jnsgd1na2vs0mg"},{"bike_id":"d511c51f-8937-4216-bba4-5a0c28873330","system_id":"levelo_inurba_marseille","lat":43.24188,"lon":5.39722,"is_reserved":false,"is_disabled":false,"rental_uris":{"android":"levelo://app?vid=d511c51f-8937-4216-bba4-5a0c28873330","ios":"levelo://app?vid=d511c51f-8937-4216-bba4-5a0c28873330"},"vehicle_type_id":"4","last_reported":1751364751,"current_range_meters":16800,"station_id":"ce4bhn12rcd13ifvqgpg","pricing_plan_id":"cebpf4jnsgd1na2vs0mg"},{"bike_id":"8011242b-b22a-4212-8e12-0778dd8c22ce","system_id":"levelo_inurba_marseille","lat":43.27941,"lon":5.41037,"is_reserved":false,"is_disabled":false,"rental_uris":{"android":"levelo://app?vid=8011242b-b22a-4212-8e12-0778dd8c22ce","ios":"levelo://app?vid=8011242b-b22a-4212-8e12-0778dd8c22ce"},"vehicle_type_id":"4","last_reported":1751364751,"current_range_meters":16800,"station_id":"ce4bhnp2rcd13ifvqh0g","pricing_plan_id":"cebpf4jnsgd1na2vs0mg"},{"bike_id":"30978958-ef4f-4590-8ed4-6ba0042b4158","system_id":"levelo_inurba_marseille","lat":43.29556,"lon":5.42291,"is_reserved":false,"is_disabled":false,"rental_uris":{"android":"levelo://app?vid=30978958-ef4f-4590-8ed4-6ba0042b4158","ios":"levelo://app?vid=30978958-ef4f-4590-8ed4-6ba0042b4158"},"vehicle_type_id":"4","last_reported":1751364751,"current_range_meters":16800,"station_id":"ce4bhph2rcd13ifvqhdg","pricing_plan_id":"cebpf4jnsgd1na2vs0mg"},{"bike_id":"6b2ddcec-816f-42cf-b55b-a185c165d31c","system_id":"levelo_inurba_marseille","lat":43.24185,"lon":5.36403,"is_reserved":false,"is_disabled":false,"rental_uris":{"android":"levelo://app?vid=6b2ddcec-816f-42cf-b55b-a185c165d31c","ios":"levelo://app?vid=6b2ddcec-816f-42cf-b55b-a185c165d31c"},"vehicle_type_id":"4","last_reported":1751364751,"current_range_meters":16800,"station_id":"cpo36qri1sfpv3e86is0","pricing_plan_id":"cebpf4jnsgd1na2vs0mg"},{"bike_id":"2bc25ca4-c28c-4335-a0aa-b132b20800b4","system_id":"levelo_inurba_marseille","lat":43.29429,"lon":5.37423,"is_reserved":false,"is_disabled":false,"rental_uris":{"android":"levelo://app?vid=2bc25ca4-c28c-4335-a0aa-b132b20800b4","ios":"levelo://app?vid=2bc25ca4-c28c-4335-a0aa-b132b20800b4"},"vehicle_type_id":"4","last_reported":1751364751,"current_range_meters":17200,"station_id":"","pricing_plan_id":"cebpf4jnsgd1na2vs0mg"},{"bike_id":"60aed5b4-04a7-4930-a9c4-5540cdbcfb8b","system_id":"levelo_inurba_marseille","lat":43.33751,"lon":5.37451,"is_reserved":false,"is_disabled":false,"rental_uris":{"android":"levelo://app?vid=60aed5b4-04a7-4930-a9c4-5540cdbcfb8b","ios":"levelo://app?vid=60aed5b4-04a7-4930-a9c4-5540cdbcfb8b"},"vehicle_type_id":"4","last_reported":1751364751,"current_range_meters":17200,"station_id":"","pricing_plan_id":"cebpf4jnsgd1na2vs0mg"},{"bike_id":"28f82bb1-42fa-42fe-b413-9a2b9de2728a","system_id":"levelo_inurba_marseille","lat":43.29261,"lon":5.37621,"is_reserved":false,"is_disabled":false,"rental_uris":{"android":"levelo://app?vid=28f82bb1-42fa-42fe-b413-9a2b9de2728a","ios":"levelo://app?vid=28f82bb1-42fa-42fe-b413-9a2b9de2728a"},"vehicle_type_id":"4","last_reported":1751364751,"current_range_meters":17200,"station_id":"ce4bgi12rcd13ifvqb80","pricing_plan_id":"cebpf4jnsgd1na2vs0mg"},{"bike_id":"cff7ad72-a795-41ba-b488-2931952b7e6f","system_id":"levelo_inurba_marseille","lat":43.29714,"lon":5.36608,"is_reserved":false,"is_disabled":false,"rental_uris":{"android":"levelo://app?vid=cff7ad72-a795-41ba-b488-2931952b7e6f","ios":"levelo://app?vid=cff7ad72-a795-41ba-b488-2931952b7e6f"},"vehicle_type_id":"4","last_reported":1751364751,"current_range_meters":17200,"station_id":"ce4bgn12rcd13ifvqbt0","pricing_plan_id":"cebpf4jnsgd1na2vs0mg"},{"bike_id":"f374e3a6-b841-43e9-9336-0068d350d3f0","system_id":"levelo_inurba_marseille","lat":43.29059,"lon":5.3591,"is_reserved":false,"is_disabled":false,"rental_uris":{"android":"levelo://app?vid=f374e3a6-b841-43e9-9336-0068d350d3f0","ios":"levelo://app?vid=f374e3a6-b841-43e9-9336-0068d350d3f0"},"vehicle_type_id":"4","last_reported":1751364751,"current_range_meters":17200,"station_id":"ce4bha92rcd13ifvqeg0","pricing_plan_id":"cebpf4jnsgd1na2vs0mg"},{"bike_id":"539ed013-9e80-448a-999f-a7819f54786a","system_id":"levelo_inurba_marseille","lat":43.290309,"lon":5.375668,"is_reserved":false,"is_disabled":false,"rental_uris":{"android":"levelo://app?vid=539ed013-9e80-448a-999f-a7819f54786a","ios":"levelo://app?vid=539ed013-9e80-448a-999f-a7819f54786a"},"vehicle_type_id":"4","last_reported":1751364751,"current_range_meters":17600,"station_id":"","pricing_plan_id":"cebpf4jnsgd1na2vs0mg"},{"bike_id":"a0cef316-ad95-4855-8f78-a31341a2b90e","system_id":"levelo_inurba_marseille","lat":43.31278,"lon":5.37764,"is_reserved":false,"is_disabled":false,"rental_uris":{"android":"levelo://app?vid=a0cef316-ad95-4855-8f78-a31341a2b90e","ios":"levelo://app?vid=a0cef316-ad95-4855-8f78-a31341a2b90e"},"vehicle_type_id":"4","last_reported":1751364751,"current_range_meters":17600,"station_id":"","pricing_plan_id":"cebpf4jnsgd1na2vs0mg"},{"bike_id":"bf298058-65b6-4b91-8920-c460456682b3","system_id":"levelo_inurba_marseille","lat":43.30531,"lon":5.36543,"is_reserved":false,"is_disabled":false,"rental_uris":{"android":"levelo://app?vid=bf298058-65b6-4b91-8920-c460456682b3","ios":"levelo://app?vid=bf298058-65b6-4b91-8920-c460456682b3"},"vehicle_type_id":"4","last_reported":1751364751,"current_range_meters":17600,"station_id":"ce4bgs12rcd13ifvqcag","pricing_plan_id":"cebpf4jnsgd1na2vs0mg"},{"bike_id":"fc7e8355-f532-43ec-9e4c-45a0bcaf9efb","system_id":"levelo_inurba_marseille","lat":43.23147,"lon":5.4372,"is_reserved":false,"is_disabled":false,"rental_uris":{"android":"levelo://app?vid=fc7e8355-f532-43ec-9e4c-45a0bcaf9efb","ios":"levelo://app?vid=fc7e8355-f532-43ec-9e4c-45a0bcaf9efb"},"vehicle_type_id":"4","last_reported":1751364751,"current_range_meters":17600,"station_id":"ce4bhmp2rcd13ifvqgog","pricing_plan_id":"cebpf4jnsgd1na2vs0mg"},{"bike_id":"6237f4e8-2651-457b-a795-5f0b58a1dcbb","system_id":"levelo_inurba_marseille","lat":43.32387,"lon":5.38891,"is_reserved":false,"is_disabled":false,"rental_uris":{"android":"levelo://app?vid=6237f4e8-2651-457b-a795-5f0b58a1dcbb","ios":"levelo://app?vid=6237f4e8-2651-457b-a795-5f0b58a1dcbb"},"vehicle_type_id":"4","last_reported":1751364751,"current_range_meters":17600,"station_id":"ce4bhqp2rcd13ifvqhog","pricing_plan_id":"cebpf4jnsgd1na2vs0mg"},{"bike_id":"8233db61-1d36-41a5-a985-c98b6a5f0fb4","system_id":"levelo_inurba_marseille","lat":43.21745,"lon":5.34591,"is_reserved":false,"is_disabled":false,"rental_uris":{"android":"levelo://app?vid=8233db61-1d36-41a5-a985-c98b6a5f0fb4","ios":"levelo://app?vid=8233db61-1d36-41a5-a985-c98b6a5f0fb4"},"vehicle_type_id":"4","last_reported":1751364751,"current_range_meters":17600,"station_id":"st_cvj6r9ubvosntc0bgbag","pricing_plan_id":"cebpf4jnsgd1na2vs0mg"},{"bike_id":"0c1b4f74-5294-4b59-932d-b742ce647d9e","system_id":"levelo_inurba_marseille","lat":43.21197,"lon":5.35077,"is_reserved":false,"is_disabled":false,"rental_uris":{"android":"levelo://app?vid=0c1b4f74-5294-4b59-932d-b742ce647d9e","ios":"levelo://app?vid=0c1b4f74-5294-4b59-932d-b742ce647d9e"},"vehicle_type_id":"4","last_reported":1751364751,"current_range_meters":17600,"station_id":"st_cvj6sg6p6f1abm77japg","pricing_plan_id":"cebpf4jnsgd1na2vs0mg"},{"bike_id":"49d6cdd2-de1a-4037-8e83-22ca7bcfc325","system_id":"levelo_inurba_marseille","lat":43.25516,"lon":5.374937,"is_reserved":false,"is_disabled":false,"rental_uris":{"android":"levelo://app?vid=49d6cdd2-de1a-4037-8e83-22ca7bcfc325","ios":"levelo://app?vid=49d6cdd2-de1a-4037-8e83-22ca7bcfc325"},"vehicle_type_id":"4","last_reported":1751364751,"current_range_meters":18000,"station_id":"","pricing_plan_id":"cebpf4jnsgd1na2vs0mg"},{"bike_id":"d2fe2280-9dda-4f08-822f-aa45767453bf","system_id":"levelo_inurba_marseille","lat":43.3137,"lon":5.36733,"is_reserved":false,"is_disabled":false,"rental_uris":{"android":"levelo://app?vid=d2fe2280-9dda-4f08-822f-aa45767453bf","ios":"levelo://app?vid=d2fe2280-9dda-4f08-822f-aa45767453bf"},"vehicle_type_id":"4","last_reported":1751364751,"current_range_meters":18000,"station_id":"ce4bgr92rcd13ifvqc6g","pricing_plan_id":"cebpf4jnsgd1na2vs0mg"},{"bike_id":"1f59bdbb-a40b-41ac-8504-fd51b368eb70","system_id":"levelo_inurba_marseille","lat":43.30536,"lon":5.36707,"is_reserved":false,"is_disabled":false,"rental_uris":{"android":"levelo://app?vid=1f59bdbb-a40b-41ac-8504-fd51b368eb70","ios":"levelo://app?vid=1f59bdbb-a40b-41ac-8504-fd51b368eb70"},"vehicle_type_id":"4","last_reported":1751364751,"current_range_meters":18000,"station_id":"ce4bgrp2rcd13ifvqc9g","pricing_plan_id":"cebpf4jnsgd1na2vs0mg"},{"bike_id":"b6223f79-fb1d-4fe4-9555-c85b5191381a","system_id":"levelo_inurba_marseille","lat":43.28424,"lon":5.34982,"is_reserved":false,"is_disabled":false,"rental_uris":{"android":"levelo://app?vid=b6223f79-fb1d-4fe4-9555-c85b5191381a","ios":"levelo://app?vid=b6223f79-fb1d-4fe4-9555-c85b5191381a"},"vehicle_type_id":"4","last_reported":1751364751,"current_range_meters":18000,"station_id":"ce4bhbh2rcd13ifvqepg","pricing_plan_id":"cebpf4jnsgd1na2vs0mg"},{"bike_id":"1b1d2a55-7937-4e4f-8e1d-0772a66cddb7","system_id":"levelo_inurba_marseille","lat":43.286169,"lon":5.350981,"is_reserved":false,"is_disabled":false,"rental_uris":{"android":"levelo://app?vid=1b1d2a55-7937-4e4f-8e1d-0772a66cddb7","ios":"levelo://app?vid=1b1d2a55-7937-4e4f-8e1d-0772a66cddb7"},"vehicle_type_id":"4","last_reported":1751364751,"current_range_meters":18000,"station_id":"ce4bhch2rcd13ifvqeug","pricing_plan_id":"cebpf4jnsgd1na2vs0mg"},{"bike_id":"c2cc3873-3136-4ba7-984d-6514f2a6bcc2","system_id":"levelo_inurba_marseille","lat":43.26692,"lon":5.3827,"is_reserved":false,"is_disabled":false,"rental_uris":{"android":"levelo://app?vid=c2cc3873-3136-4ba7-984d-6514f2a6bcc2","ios":"levelo://app?vid=c2cc3873-3136-4ba7-984d-6514f2a6bcc2"},"vehicle_type_id":"4","last_reported":1751364751,"current_range_meters":18000,"station_id":"ce4bhg92rcd13ifvqf90","pricing_plan_id":"cebpf4jnsgd1na2vs0mg"},{"bike_id":"8a74f5cd-9efa-4362-bea7-a32db4dcc85c","system_id":"levelo_inurba_marseille","lat":43.21186,"lon":5.35054,"is_reserved":false,"is_disabled":false,"rental_uris":{"android":"levelo://app?vid=8a74f5cd-9efa-4362-bea7-a32db4dcc85c","ios":"levelo://app?vid=8a74f5cd-9efa-4362-bea7-a32db4dcc85c"},"vehicle_type_id":"4","last_reported":1751364751,"current_range_meters":18000,"station_id":"st_cvj6sg6p6f1abm77japg","pricing_plan_id":"cebpf4jnsgd1na2vs0mg"},{"bike_id":"afb78327-cc2c-423c-9e7b-9e6a58647879","system_id":"levelo_inurba_marseille","lat":43.336811,"lon":5.392266,"is_reserved":false,"is_disabled":false,"rental_uris":{"android":"levelo://app?vid=afb78327-cc2c-423c-9e7b-9e6a58647879","ios":"levelo://app?vid=afb78327-cc2c-423c-9e7b-9e6a58647879"},"vehicle_type_id":"4","last_reported":1751364751,"current_range_meters":18800,"station_id":"","pricing_plan_id":"cebpf4jnsgd1na2vs0mg"},{"bike_id":"1d28898c-0813-4e38-b70c-104181f14dfa","system_id":"levelo_inurba_marseille","lat":43.286652,"lon":5.386868,"is_reserved":false,"is_disabled":false,"rental_uris":{"android":"levelo://app?vid=1d28898c-0813-4e38-b70c-104181f14dfa","ios":"levelo://app?vid=1d28898c-0813-4e38-b70c-104181f14dfa"},"vehicle_type_id":"4","last_reported":1751364751,"current_range_meters":18800,"station_id":"","pricing_plan_id":"cebpf4jnsgd1na2vs0mg"},{"bike_id":"412b139a-78c8-4d2b-ba2d-c13d2b3daf62","system_id":"levelo_inurba_marseille","lat":43.3031,"lon":5.36891,"is_reserved":false,"is_disabled":false,"rental_uris":{"android":"levelo://app?vid=412b139a-78c8-4d2b-ba2d-c13d2b3daf62","ios":"levelo://app?vid=412b139a-78c8-4d2b-ba2d-c13d2b3daf62"},"vehicle_type_id":"4","last_reported":1751364751,"current_range_meters":18800,"station_id":"ce4bgqh2rcd13ifvqc5g","pricing_plan_id":"cebpf4jnsgd1na2vs0mg"},{"bike_id":"e744a49c-9fbe-4d3e-98b9-e39600fd669f","system_id":"levelo_inurba_marseille","lat":43.284271,"lon":5.349905,"is_reserved":false,"is_disabled":false,"rental_uris":{"android":"levelo://app?vid=e744a49c-9fbe-4d3e-98b9-e39600fd669f","ios":"levelo://app?vid=e744a49c-9fbe-4d3e-98b9-e39600fd669f"},"vehicle_type_id":"4","last_reported":1751364751,"current_range_meters":18800,"station_id":"ce4bhb12rcd13ifvqel0","pricing_plan_id":"cebpf4jnsgd1na2vs0mg"},{"bike_id":"0851ab14-7003-4d30-8c50-f3fffded86c4","system_id":"levelo_inurba_marseille","lat":43.28271,"lon":5.35059,"is_reserved":false,"is_disabled":false,"rental_uris":{"android":"levelo://app?vid=0851ab14-7003-4d30-8c50-f3fffded86c4","ios":"levelo://app?vid=0851ab14-7003-4d30-8c50-f3fffded86c4"},"vehicle_type_id":"4","last_reported":1751364751,"current_range_meters":18800,"station_id":"ce4bhbp2rcd13ifvqerg","pricing_plan_id":"cebpf4jnsgd1na2vs0mg"},{"bike_id":"8026e2cf-f586-486f-af2f-d543b2daf1ed","system_id":"levelo_inurba_marseille","lat":43.28264,"lon":5.35064,"is_reserved":false,"is_disabled":false,"rental_uris":{"android":"levelo://app?vid=8026e2cf-f586-486f-af2f-d543b2daf1ed","ios":"levelo://app?vid=8026e2cf-f586-486f-af2f-d543b2daf1ed"},"vehicle_type_id":"4","last_reported":1751364751,"current_range_meters":18800,"station_id":"ce4bhbp2rcd13ifvqerg","pricing_plan_id":"cebpf4jnsgd1na2vs0mg"},{"bike_id":"839c9730-1223-4497-817b-b57fef86bd7f","system_id":"levelo_inurba_marseille","lat":43.28632,"lon":5.35131,"is_reserved":false,"is_disabled":false,"rental_uris":{"android":"levelo://app?vid=839c9730-1223-4497-817b-b57fef86bd7f","ios":"levelo://app?vid=839c9730-1223-4497-817b-b57fef86bd7f"},"vehicle_type_id":"4","last_reported":1751364751,"current_range_meters":18800,"station_id":"ce4bhch2rcd13ifvqeug","pricing_plan_id":"cebpf4jnsgd1na2vs0mg"},{"bike_id":"ee59a3bc-1922-4fad-a57d-24ffc09128e2","system_id":"levelo_inurba_marseille","lat":43.3205,"lon":5.41545,"is_reserved":false,"is_disabled":false,"rental_uris":{"android":"levelo://app?vid=ee59a3bc-1922-4fad-a57d-24ffc09128e2","ios":"levelo://app?vid=ee59a3bc-1922-4fad-a57d-24ffc09128e2"},"vehicle_type_id":"4","last_reported":1751364751,"current_range_meters":18800,"station_id":"ce4bhq92rcd13ifvqhkg","pricing_plan_id":"cebpf4jnsgd1na2vs0mg"},{"bike_id":"34c1f271-445e-4382-9172-52190bc6a97c","system_id":"levelo_inurba_marseille","lat":43.3212,"lon":5.36784,"is_reserved":false,"is_disabled":false,"rental_uris":{"android":"levelo://app?vid=34c1f271-445e-4382-9172-52190bc6a97c","ios":"levelo://app?vid=34c1f271-445e-4382-9172-52190bc6a97c"},"vehicle_type_id":"4","last_reported":1751364751,"current_range_meters":18800,"station_id":"ce4bhrh2rcd13ifvqhug","pricing_plan_id":"cebpf4jnsgd1na2vs0mg"},{"bike_id":"fdcc33b3-b27b-4fd9-90cb-c9421efe9db6","system_id":"levelo_inurba_marseille","lat":43.27825,"lon":5.41449,"is_reserved":false,"is_disabled":false,"rental_uris":{"android":"levelo://app?vid=fdcc33b3-b27b-4fd9-90cb-c9421efe9db6","ios":"levelo://app?vid=fdcc33b3-b27b-4fd9-90cb-c9421efe9db6"},"vehicle_type_id":"4","last_reported":1751364751,"current_range_meters":19200,"station_id":"","pricing_plan_id":"cebpf4jnsgd1na2vs0mg"},{"bike_id":"f00e3044-9bd1-48b5-b342-151af21b34fa","system_id":"levelo_inurba_marseille","lat":43.299931,"lon":5.374088,"is_reserved":false,"is_disabled":false,"rental_uris":{"android":"levelo://app?vid=f00e3044-9bd1-48b5-b342-151af21b34fa","ios":"levelo://app?vid=f00e3044-9bd1-48b5-b342-151af21b34fa"},"vehicle_type_id":"4","last_reported":1751364751,"current_range_meters":19200,"station_id":"","pricing_plan_id":"cebpf4jnsgd1na2vs0mg"},{"bike_id":"c2cebda9-7960-444b-ac3b-42fd21fcde11","system_id":"levelo_inurba_marseille","lat":43.3061,"lon":5.37229,"is_reserved":false,"is_disabled":false,"rental_uris":{"android":"levelo://app?vid=c2cebda9-7960-444b-ac3b-42fd21fcde11","ios":"levelo://app?vid=c2cebda9-7960-444b-ac3b-42fd21fcde11"},"vehicle_type_id":"4","last_reported":1751364751,"current_range_meters":19200,"station_id":"ce4bgqh2rcd13ifvqc4g","pricing_plan_id":"cebpf4jnsgd1na2vs0mg"},{"bike_id":"36d46283-c448-49a1-9dee-2253e9201a54","system_id":"levelo_inurba_marseille","lat":43.29167,"lon":5.37167,"is_reserved":false,"is_disabled":false,"rental_uris":{"android":"levelo://app?vid=36d46283-c448-49a1-9dee-2253e9201a54","ios":"levelo://app?vid=36d46283-c448-49a1-9dee-2253e9201a54"},"vehicle_type_id":"4","last_reported":1751364751,"current_range_meters":19200,"station_id":"ce4bha92rcd13ifvqeh0","pricing_plan_id":"cebpf4jnsgd1na2vs0mg"},{"bike_id":"8b90ef18-13e8-4441-b1c5-b55de6a43ef3","system_id":"levelo_inurba_marseille","lat":43.25011,"lon":5.38934,"is_reserved":false,"is_disabled":false,"rental_uris":{"android":"levelo://app?vid=8b90ef18-13e8-4441-b1c5-b55de6a43ef3","ios":"levelo://app?vid=8b90ef18-13e8-4441-b1c5-b55de6a43ef3"},"vehicle_type_id":"4","last_reported":1751364751,"current_range_meters":19200,"station_id":"ce4bhgp2rcd13ifvqfd0","pricing_plan_id":"cebpf4jnsgd1na2vs0mg"},{"bike_id":"36d83600-3670-4035-a5e5-3c9d57af76a0","system_id":"levelo_inurba_marseille","lat":43.24167,"lon":5.3639,"is_reserved":false,"is_disabled":false,"rental_uris":{"android":"levelo://app?vid=36d83600-3670-4035-a5e5-3c9d57af76a0","ios":"levelo://app?vid=36d83600-3670-4035-a5e5-3c9d57af76a0"},"vehicle_type_id":"4","last_reported":1751364751,"current_range_meters":19200,"station_id":"cpo36qri1sfpv3e86is0","pricing_plan_id":"cebpf4jnsgd1na2vs0mg"},{"bike_id":"d0f90c24-dd03-411b-9731-55305f76b7c8","system_id":"levelo_inurba_marseille","lat":43.211949,"lon":5.350716,"is_reserved":false,"is_disabled":false,"rental_uris":{"android":"levelo://app?vid=d0f90c24-dd03-411b-9731-55305f76b7c8","ios":"levelo://app?vid=d0f90c24-dd03-411b-9731-55305f76b7c8"},"vehicle_type_id":"4","last_reported":1751364751,"current_range_meters":19200,"station_id":"st_cvj6sg6p6f1abm77japg","pricing_plan_id":"cebpf4jnsgd1na2vs0mg"},{"bike_id":"b217d3b3-907c-42b8-90b0-b0bb12a41695","system_id":"levelo_inurba_marseille","lat":43.24243,"lon":5.39718,"is_reserved":false,"is_disabled":false,"rental_uris":{"android":"levelo://app?vid=b217d3b3-907c-42b8-90b0-b0bb12a41695","ios":"levelo://app?vid=b217d3b3-907c-42b8-90b0-b0bb12a41695"},"vehicle_type_id":"4","last_reported":1751364751,"current_range_meters":19600,"station_id":"","pricing_plan_id":"cebpf4jnsgd1na2vs0mg"},{"bike_id":"e4b4641a-1ddd-4245-a016-dd789ec7b5e7","system_id":"levelo_inurba_marseille","lat":43.241785,"lon":5.397241,"is_reserved":false,"is_disabled":false,"rental_uris":{"android":"levelo://app?vid=e4b4641a-1ddd-4245-a016-dd789ec7b5e7","ios":"levelo://app?vid=e4b4641a-1ddd-4245-a016-dd789ec7b5e7"},"vehicle_type_id":"4","last_reported":1751364751,"current_range_meters":19600,"station_id":"ce4bh312rcd13ifvqdk0","pricing_plan_id":"cebpf4jnsgd1na2vs0mg"},{"bike_id":"3eca39f6-8806-4f53-bac5-9048bc794ac4","system_id":"levelo_inurba_marseille","lat":43.28404,"lon":5.37505,"is_reserved":false,"is_disabled":false,"rental_uris":{"android":"levelo://app?vid=3eca39f6-8806-4f53-bac5-9048bc794ac4","ios":"levelo://app?vid=3eca39f6-8806-4f53-bac5-9048bc794ac4"},"vehicle_type_id":"4","last_reported":1751364751,"current_range_meters":19600,"station_id":"ce4bh412rcd13ifvqds0","pricing_plan_id":"cebpf4jnsgd1na2vs0mg"},{"bike_id":"6a117f79-3945-42c1-aaa9-f01191528115","system_id":"levelo_inurba_marseille","lat":43.324782,"lon":5.365629,"is_reserved":false,"is_disabled":false,"rental_uris":{"android":"levelo://app?vid=6a117f79-3945-42c1-aaa9-f01191528115","ios":"levelo://app?vid=6a117f79-3945-42c1-aaa9-f01191528115"},"vehicle_type_id":"4","last_reported":1751364751,"current_range_meters":19600,"station_id":"ce4bhs12rcd13ifvqhvg","pricing_plan_id":"cebpf4jnsgd1na2vs0mg"},{"bike_id":"054e39f3-b9be-4efe-9881-92831e7da6f1","system_id":"levelo_inurba_marseille","lat":43.29263,"lon":5.37615,"is_reserved":false,"is_disabled":false,"rental_uris":{"android":"levelo://app?vid=054e39f3-b9be-4efe-9881-92831e7da6f1","ios":"levelo://app?vid=054e39f3-b9be-4efe-9881-92831e7da6f1"},"vehicle_type_id":"4","last_reported":1751364751,"current_range_meters":20000,"station_id":"ce4bgi12rcd13ifvqb80","pricing_plan_id":"cebpf4jnsgd1na2vs0mg"},{"bike_id":"107f9bc3-65cf-4a4f-969f-8e18fbe39615","system_id":"levelo_inurba_marseille","lat":43.29256,"lon":5.37618,"is_reserved":false,"is_disabled":false,"rental_uris":{"android":"levelo://app?vid=107f9bc3-65cf-4a4f-969f-8e18fbe39615","ios":"levelo://app?vid=107f9bc3-65cf-4a4f-969f-8e18fbe39615"},"vehicle_type_id":"4","last_reported":1751364751,"current_range_meters":20000,"station_id":"ce4bgi12rcd13ifvqb80","pricing_plan_id":"cebpf4jnsgd1na2vs0mg"},{"bike_id":"9eeb55b0-0e85-419b-bedc-30db45db3a63","system_id":"levelo_inurba_marseille","lat":43.29931,"lon":5.37475,"is_reserved":false,"is_disabled":false,"rental_uris":{"android":"levelo://app?vid=9eeb55b0-0e85-419b-bedc-30db45db3a63","ios":"levelo://app?vid=9eeb55b0-0e85-419b-bedc-30db45db3a63"},"vehicle_type_id":"4","last_reported":1751364751,"current_range_meters":20000,"station_id":"ce4bgjh2rcd13ifvqbg0","pricing_plan_id":"cebpf4jnsgd1na2vs0mg"},{"bike_id":"2c0d7fd3-f14e-4ca1-ae8f-cc19d8db9702","system_id":"levelo_inurba_marseille","lat":43.290253,"lon":5.386415,"is_reserved":false,"is_disabled":false,"rental_uris":{"android":"levelo://app?vid=2c0d7fd3-f14e-4ca1-ae8f-cc19d8db9702","ios":"levelo://app?vid=2c0d7fd3-f14e-4ca1-ae8f-cc19d8db9702"},"vehicle_type_id":"4","last_reported":1751364751,"current_range_meters":20000,"station_id":"ce4bh4p2rcd13ifvqe0g","pricing_plan_id":"cebpf4jnsgd1na2vs0mg"},{"bike_id":"c9c353ef-7e45-4e58-9582-6c8aaad1a46b","system_id":"levelo_inurba_marseille","lat":43.29004,"lon":5.35607,"is_reserved":false,"is_disabled":false,"rental_uris":{"android":"levelo://app?vid=c9c353ef-7e45-4e58-9582-6c8aaad1a46b","ios":"levelo://app?vid=c9c353ef-7e45-4e58-9582-6c8aaad1a46b"},"vehicle_type_id":"4","last_reported":1751364751,"current_range_meters":20000,"station_id":"ce4bhb92rcd13ifvqen0","pricing_plan_id":"cebpf4jnsgd1na2vs0mg"},{"bike_id":"81b9753f-aa28-4513-89a4-3ee72628d38d","system_id":"levelo_inurba_marseille","lat":43.32117,"lon":5.3679,"is_reserved":false,"is_disabled":false,"rental_uris":{"android":"levelo://app?vid=81b9753f-aa28-4513-89a4-3ee72628d38d","ios":"levelo://app?vid=81b9753f-aa28-4513-89a4-3ee72628d38d"},"vehicle_type_id":"4","last_reported":1751364751,"current_range_meters":20000,"station_id":"ce4bhrh2rcd13ifvqhug","pricing_plan_id":"cebpf4jnsgd1na2vs0mg"},{"bike_id":"dbe6a7d8-6edc-4015-8658-f68eeb46a661","system_id":"levelo_inurba_marseille","lat":43.33579,"lon":5.39873,"is_reserved":false,"is_disabled":false,"rental_uris":{"android":"levelo://app?vid=dbe6a7d8-6edc-4015-8658-f68eeb46a661","ios":"levelo://app?vid=dbe6a7d8-6edc-4015-8658-f68eeb46a661"},"vehicle_type_id":"4","last_reported":1751364751,"current_range_meters":20400,"station_id":"","pricing_plan_id":"cebpf4jnsgd1na2vs0mg"},{"bike_id":"7e62b058-a7ed-4634-80f1-04d3de596de7","system_id":"levelo_inurba_marseille","lat":43.298535,"lon":5.368183,"is_reserved":false,"is_disabled":false,"rental_uris":{"android":"levelo://app?vid=7e62b058-a7ed-4634-80f1-04d3de596de7","ios":"levelo://app?vid=7e62b058-a7ed-4634-80f1-04d3de596de7"},"vehicle_type_id":"4","last_reported":1751364751,"current_range_meters":20400,"station_id":"","pricing_plan_id":"cebpf4jnsgd1na2vs0mg"},{"bike_id":"340e7f4e-c2fd-4718-8b68-4478e04c794f","system_id":"levelo_inurba_marseille","lat":43.23957,"lon":5.36679,"is_reserved":false,"is_disabled":false,"rental_uris":{"android":"levelo://app?vid=340e7f4e-c2fd-4718-8b68-4478e04c794f","ios":"levelo://app?vid=340e7f4e-c2fd-4718-8b68-4478e04c794f"},"vehicle_type_id":"4","last_reported":1751364751,"current_range_meters":20400,"station_id":"ce4bhi12rcd13ifvqfp0","pricing_plan_id":"cebpf4jnsgd1na2vs0mg"},{"bike_id":"4ab4ef41-0136-4387-8340-6ca6efc57796","system_id":"levelo_inurba_marseille","lat":43.259357,"lon":5.409023,"is_reserved":false,"is_disabled":false,"rental_uris":{"android":"levelo://app?vid=4ab4ef41-0136-4387-8340-6ca6efc57796","ios":"levelo://app?vid=4ab4ef41-0136-4387-8340-6ca6efc57796"},"vehicle_type_id":"4","last_reported":1751364751,"current_range_meters":20400,"station_id":"ce4bhm92rcd13ifvqglg","pricing_plan_id":"cebpf4jnsgd1na2vs0mg"},{"bike_id":"d1e3dd75-3f07-457e-9774-7169f669ae53","system_id":"levelo_inurba_marseille","lat":43.29575,"lon":5.37495,"is_reserved":false,"is_disabled":false,"rental_uris":{"android":"levelo://app?vid=d1e3dd75-3f07-457e-9774-7169f669ae53","ios":"levelo://app?vid=d1e3dd75-3f07-457e-9774-7169f669ae53"},"vehicle_type_id":"4","last_reported":1751364751,"current_range_meters":20800,"station_id":"ce4bgh92rcd13ifvqb50","pricing_plan_id":"cebpf4jnsgd1na2vs0mg"},{"bike_id":"4d8add97-f3a9-4a1b-9936-c5d6e4f4a7e7","system_id":"levelo_inurba_marseille","lat":43.29968,"lon":5.37164,"is_reserved":false,"is_disabled":false,"rental_uris":{"android":"levelo://app?vid=4d8add97-f3a9-4a1b-9936-c5d6e4f4a7e7","ios":"levelo://app?vid=4d8add97-f3a9-4a1b-9936-c5d6e4f4a7e7"},"vehicle_type_id":"4","last_reported":1751364751,"current_range_meters":20800,"station_id":"ce4bgr92rcd13ifvqc7g","pricing_plan_id":"cebpf4jnsgd1na2vs0mg"},{"bike_id":"16a8afe6-e43e-4d1b-a7bd-ed83d113735a","system_id":"levelo_inurba_marseille","lat":43.32436,"lon":5.41185,"is_reserved":false,"is_disabled":false,"rental_uris":{"android":"levelo://app?vid=16a8afe6-e43e-4d1b-a7bd-ed83d113735a","ios":"levelo://app?vid=16a8afe6-e43e-4d1b-a7bd-ed83d113735a"},"vehicle_type_id":"4","last_reported":1751364751,"current_range_meters":21600,"station_id":"","pricing_plan_id":"cebpf4jnsgd1na2vs0mg"},{"bike_id":"ac0596b2-e991-4a97-b481-1f79149ad9b5","system_id":"levelo_inurba_marseille","lat":43.30129,"lon":5.39846,"is_reserved":false,"is_disabled":false,"rental_uris":{"android":"levelo://app?vid=ac0596b2-e991-4a97-b481-1f79149ad9b5","ios":"levelo://app?vid=ac0596b2-e991-4a97-b481-1f79149ad9b5"},"vehicle_type_id":"4","last_reported":1751364751,"current_range_meters":21600,"station_id":"ce4bh0h2rcd13ifvqd40","pricing_plan_id":"cebpf4jnsgd1na2vs0mg"},{"bike_id":"bff0250d-3c2b-40f8-af04-b11d27aa6637","system_id":"levelo_inurba_marseille","lat":43.26215,"lon":5.37463,"is_reserved":false,"is_disabled":false,"rental_uris":{"android":"levelo://app?vid=bff0250d-3c2b-40f8-af04-b11d27aa6637","ios":"levelo://app?vid=bff0250d-3c2b-40f8-af04-b11d27aa6637"},"vehicle_type_id":"4","last_reported":1751364751,"current_range_meters":21600,"station_id":"ce4bhgp2rcd13ifvqfc0","pricing_plan_id":"cebpf4jnsgd1na2vs0mg"},{"bike_id":"30355061-69af-4a14-a7b8-21597e45b285","system_id":"levelo_inurba_marseille","lat":43.23197,"lon":5.3555,"is_reserved":false,"is_disabled":false,"rental_uris":{"android":"levelo://app?vid=30355061-69af-4a14-a7b8-21597e45b285","ios":"levelo://app?vid=30355061-69af-4a14-a7b8-21597e45b285"},"vehicle_type_id":"4","last_reported":1751364751,"current_range_meters":21600,"station_id":"ce4bhu92rcd13ifvqi70","pricing_plan_id":"cebpf4jnsgd1na2vs0mg"},{"bike_id":"09a94feb-8911-4d3d-9f22-a7f611710ea1","system_id":"levelo_inurba_marseille","lat":43.21195,"lon":5.35067,"is_reserved":false,"is_disabled":false,"rental_uris":{"android":"levelo://app?vid=09a94feb-8911-4d3d-9f22-a7f611710ea1","ios":"levelo://app?vid=09a94feb-8911-4d3d-9f22-a7f611710ea1"},"vehicle_type_id":"4","last_reported":1751364751,"current_range_meters":21600,"station_id":"st_cvj6sg6p6f1abm77japg","pricing_plan_id":"cebpf4jnsgd1na2vs0mg"},{"bike_id":"6fd64412-a029-4c69-b5f9-6268a22bd99f","system_id":"levelo_inurba_marseille","lat":43.29259,"lon":5.38448,"is_reserved":false,"is_disabled":false,"rental_uris":{"android":"levelo://app?vid=6fd64412-a029-4c69-b5f9-6268a22bd99f","ios":"levelo://app?vid=6fd64412-a029-4c69-b5f9-6268a22bd99f"},"vehicle_type_id":"4","last_reported":1751364751,"current_range_meters":22000,"station_id":"ce4bh692rcd13ifvqea0","pricing_plan_id":"cebpf4jnsgd1na2vs0mg"},{"bike_id":"51ef19e3-63e1-4471-892e-8678fa5ed516","system_id":"levelo_inurba_marseille","lat":43.23967,"lon":5.36632,"is_reserved":false,"is_disabled":false,"rental_uris":{"android":"levelo://app?vid=51ef19e3-63e1-4471-892e-8678fa5ed516","ios":"levelo://app?vid=51ef19e3-63e1-4471-892e-8678fa5ed516"},"vehicle_type_id":"4","last_reported":1751364751,"current_range_meters":22000,"station_id":"ce4bhi12rcd13ifvqfp0","pricing_plan_id":"cebpf4jnsgd1na2vs0mg"},{"bike_id":"110be0f7-19b6-4419-935c-8afdb1f29359","system_id":"levelo_inurba_marseille","lat":43.21189,"lon":5.35072,"is_reserved":false,"is_disabled":false,"rental_uris":{"android":"levelo://app?vid=110be0f7-19b6-4419-935c-8afdb1f29359","ios":"levelo://app?vid=110be0f7-19b6-4419-935c-8afdb1f29359"},"vehicle_type_id":"4","last_reported":1751364751,"current_range_meters":22000,"station_id":"st_cvj6sg6p6f1abm77japg","pricing_plan_id":"cebpf4jnsgd1na2vs0mg"},{"bike_id":"1565f935-d660-4539-8a6d-5ab1202fe9b7","system_id":"levelo_inurba_marseille","lat":43.21188,"lon":5.350719,"is_reserved":false,"is_disabled":false,"rental_uris":{"android":"levelo://app?vid=1565f935-d660-4539-8a6d-5ab1202fe9b7","ios":"levelo://app?vid=1565f935-d660-4539-8a6d-5ab1202fe9b7"},"vehicle_type_id":"4","last_reported":1751364751,"current_range_meters":22000,"station_id":"st_cvj6sg6p6f1abm77japg","pricing_plan_id":"cebpf4jnsgd1na2vs0mg"},{"bike_id":"a2925c89-c3b2-420b-9d57-1d5d74283141","system_id":"levelo_inurba_marseille","lat":43.29207,"lon":5.39293,"is_reserved":false,"is_disabled":false,"rental_uris":{"android":"levelo://app?vid=a2925c89-c3b2-420b-9d57-1d5d74283141","ios":"levelo://app?vid=a2925c89-c3b2-420b-9d57-1d5d74283141"},"vehicle_type_id":"4","last_reported":1751364751,"current_range_meters":22400,"station_id":"","pricing_plan_id":"cebpf4jnsgd1na2vs0mg"},{"bike_id":"22330e0e-ac21-4721-85ba-bdc2b1926462","system_id":"levelo_inurba_marseille","lat":43.29534,"lon":5.38541,"is_reserved":false,"is_disabled":false,"rental_uris":{"android":"levelo://app?vid=22330e0e-ac21-4721-85ba-bdc2b1926462","ios":"levelo://app?vid=22330e0e-ac21-4721-85ba-bdc2b1926462"},"vehicle_type_id":"4","last_reported":1751364751,"current_range_meters":22400,"station_id":"ce4bgih2rcd13ifvqba0","pricing_plan_id":"cebpf4jnsgd1na2vs0mg"},{"bike_id":"64284c23-9c94-4820-8e21-2721799eb2c7","system_id":"levelo_inurba_marseille","lat":43.2799,"lon":5.41664,"is_reserved":false,"is_disabled":false,"rental_uris":{"android":"levelo://app?vid=64284c23-9c94-4820-8e21-2721799eb2c7","ios":"levelo://app?vid=64284c23-9c94-4820-8e21-2721799eb2c7"},"vehicle_type_id":"4","last_reported":1751364751,"current_range_meters":22400,"station_id":"ce4bho12rcd13ifvqh1g","pricing_plan_id":"cebpf4jnsgd1na2vs0mg"},{"bike_id":"842e0f00-84b8-4d74-95bf-9b27418bee68","system_id":"levelo_inurba_marseille","lat":43.29553,"lon":5.42287,"is_reserved":false,"is_disabled":false,"rental_uris":{"android":"levelo://app?vid=842e0f00-84b8-4d74-95bf-9b27418bee68","ios":"levelo://app?vid=842e0f00-84b8-4d74-95bf-9b27418bee68"},"vehicle_type_id":"4","last_reported":1751364751,"current_range_meters":22400,"station_id":"ce4bhph2rcd13ifvqhdg","pricing_plan_id":"cebpf4jnsgd1na2vs0mg"},{"bike_id":"8bf0d992-d2a0-428e-940a-091ee9b7c2a4","system_id":"levelo_inurba_marseille","lat":43.21191,"lon":5.3508,"is_reserved":false,"is_disabled":false,"rental_uris":{"android":"levelo://app?vid=8bf0d992-d2a0-428e-940a-091ee9b7c2a4","ios":"levelo://app?vid=8bf0d992-d2a0-428e-940a-091ee9b7c2a4"},"vehicle_type_id":"4","last_reported":1751364751,"current_range_meters":22400,"station_id":"st_cvj6sg6p6f1abm77japg","pricing_plan_id":"cebpf4jnsgd1na2vs0mg"},{"bike_id":"959e6f20-8ed0-4d36-bc1d-3efb82d6190b","system_id":"levelo_inurba_marseille","lat":43.21193,"lon":5.35079,"is_reserved":false,"is_disabled":false,"rental_uris":{"android":"levelo://app?vid=959e6f20-8ed0-4d36-bc1d-3efb82d6190b","ios":"levelo://app?vid=959e6f20-8ed0-4d36-bc1d-3efb82d6190b"},"vehicle_type_id":"4","last_reported":1751364751,"current_range_meters":22400,"station_id":"st_cvj6sg6p6f1abm77japg","pricing_plan_id":"cebpf4jnsgd1na2vs0mg"},{"bike_id":"359a62cf-d7b2-4c0d-a169-0eea2204cf34","system_id":"levelo_inurba_marseille","lat":43.252675,"lon":5.420251,"is_reserved":false,"is_disabled":false,"rental_uris":{"android":"levelo://app?vid=359a62cf-d7b2-4c0d-a169-0eea2204cf34","ios":"levelo://app?vid=359a62cf-d7b2-4c0d-a169-0eea2204cf34"},"vehicle_type_id":"4","last_reported":1751364751,"current_range_meters":22800,"station_id":"","pricing_plan_id":"cebpf4jnsgd1na2vs0mg"},{"bike_id":"5476908e-dc90-47f4-bccc-02ec408f3a51","system_id":"levelo_inurba_marseille","lat":43.23576,"lon":5.3668,"is_reserved":false,"is_disabled":false,"rental_uris":{"android":"levelo://app?vid=5476908e-dc90-47f4-bccc-02ec408f3a51","ios":"levelo://app?vid=5476908e-dc90-47f4-bccc-02ec408f3a51"},"vehicle_type_id":"4","last_reported":1751364751,"current_range_meters":22800,"station_id":"","pricing_plan_id":"cebpf4jnsgd1na2vs0mg"},{"bike_id":"e496a921-2b08-4c50-aedd-182e2d486685","system_id":"levelo_inurba_marseille","lat":43.2958,"lon":5.375,"is_reserved":false,"is_disabled":false,"rental_uris":{"android":"levelo://app?vid=e496a921-2b08-4c50-aedd-182e2d486685","ios":"levelo://app?vid=e496a921-2b08-4c50-aedd-182e2d486685"},"vehicle_type_id":"4","last_reported":1751364751,"current_range_meters":22800,"station_id":"ce4bgh92rcd13ifvqb50","pricing_plan_id":"cebpf4jnsgd1na2vs0mg"},{"bike_id":"2e450af4-a00e-4bea-b519-13ec3405df51","system_id":"levelo_inurba_marseille","lat":43.29319,"lon":5.37453,"is_reserved":false,"is_disabled":false,"rental_uris":{"android":"levelo://app?vid=2e450af4-a00e-4bea-b519-13ec3405df51","ios":"levelo://app?vid=2e450af4-a00e-4bea-b519-13ec3405df51"},"vehicle_type_id":"4","last_reported":1751364751,"current_range_meters":22800,"station_id":"ce4bgi12rcd13ifvqb70","pricing_plan_id":"cebpf4jnsgd1na2vs0mg"},{"bike_id":"ff955856-0566-4515-a594-e9b35b8d30f0","system_id":"levelo_inurba_marseille","lat":43.302429,"lon":5.390395,"is_reserved":false,"is_disabled":false,"rental_uris":{"android":"levelo://app?vid=ff955856-0566-4515-a594-e9b35b8d30f0","ios":"levelo://app?vid=ff955856-0566-4515-a594-e9b35b8d30f0"},"vehicle_type_id":"4","last_reported":1751364751,"current_range_meters":22800,"station_id":"ce4bgkh2rcd13ifvqbk0","pricing_plan_id":"cebpf4jnsgd1na2vs0mg"},{"bike_id":"32c14760-28ef-4181-97d0-6af7a7c1d581","system_id":"levelo_inurba_marseille","lat":43.29613,"lon":5.36727,"is_reserved":false,"is_disabled":false,"rental_uris":{"android":"levelo://app?vid=32c14760-28ef-4181-97d0-6af7a7c1d581","ios":"levelo://app?vid=32c14760-28ef-4181-97d0-6af7a7c1d581"},"vehicle_type_id":"4","last_reported":1751364751,"current_range_meters":22800,"station_id":"ce4bgph2rcd13ifvqc2g","pricing_plan_id":"cebpf4jnsgd1na2vs0mg"},{"bike_id":"34e12f71-635e-4bf4-98bc-2c6ddcf61a0f","system_id":"levelo_inurba_marseille","lat":43.31702,"lon":5.37779,"is_reserved":false,"is_disabled":false,"rental_uris":{"android":"levelo://app?vid=34e12f71-635e-4bf4-98bc-2c6ddcf61a0f","ios":"levelo://app?vid=34e12f71-635e-4bf4-98bc-2c6ddcf61a0f"},"vehicle_type_id":"4","last_reported":1751364751,"current_range_meters":22800,"station_id":"ce4bgth2rcd13ifvqch0","pricing_plan_id":"cebpf4jnsgd1na2vs0mg"},{"bike_id":"461d170f-f647-4d47-9149-097381b8be50","system_id":"levelo_inurba_marseille","lat":43.3049,"lon":5.37897,"is_reserved":false,"is_disabled":false,"rental_uris":{"android":"levelo://app?vid=461d170f-f647-4d47-9149-097381b8be50","ios":"levelo://app?vid=461d170f-f647-4d47-9149-097381b8be50"},"vehicle_type_id":"4","last_reported":1751364751,"current_range_meters":22800,"station_id":"ce4bgup2rcd13ifvqcn0","pricing_plan_id":"cebpf4jnsgd1na2vs0mg"},{"bike_id":"835e9ca7-ba53-4349-aeb7-aeea6aab98f8","system_id":"levelo_inurba_marseille","lat":43.281435,"lon":5.426675,"is_reserved":false,"is_disabled":false,"rental_uris":{"android":"levelo://app?vid=835e9ca7-ba53-4349-aeb7-aeea6aab98f8","ios":"levelo://app?vid=835e9ca7-ba53-4349-aeb7-aeea6aab98f8"},"vehicle_type_id":"4","last_reported":1751364751,"current_range_meters":22800,"station_id":"ce4bhnh2rcd13ifvqgug","pricing_plan_id":"cebpf4jnsgd1na2vs0mg"},{"bike_id":"a52f17b7-4500-4bab-82d6-a5ff779be293","system_id":"levelo_inurba_marseille","lat":43.29614,"lon":5.37713,"is_reserved":false,"is_disabled":false,"rental_uris":{"android":"levelo://app?vid=a52f17b7-4500-4bab-82d6-a5ff779be293","ios":"levelo://app?vid=a52f17b7-4500-4bab-82d6-a5ff779be293"},"vehicle_type_id":"4","last_reported":1751364751,"current_range_meters":23200,"station_id":"ce4bgi92rcd13ifvqb90","pricing_plan_id":"cebpf4jnsgd1na2vs0mg"},{"bike_id":"010d826b-70f4-42cf-9cb4-0020c52b309e","system_id":"levelo_inurba_marseille","lat":43.31344,"lon":5.367167,"is_reserved":false,"is_disabled":false,"rental_uris":{"android":"levelo://app?vid=010d826b-70f4-42cf-9cb4-0020c52b309e","ios":"levelo://app?vid=010d826b-70f4-42cf-9cb4-0020c52b309e"},"vehicle_type_id":"4","last_reported":1751364751,"current_range_meters":23200,"station_id":"ce4bgr92rcd13ifvqc6g","pricing_plan_id":"cebpf4jnsgd1na2vs0mg"},{"bike_id":"31c681d4-58fd-4ea5-b801-b9c4853579a3","system_id":"levelo_inurba_marseille","lat":43.31335,"lon":5.36736,"is_reserved":false,"is_disabled":false,"rental_uris":{"android":"levelo://app?vid=31c681d4-58fd-4ea5-b801-b9c4853579a3","ios":"levelo://app?vid=31c681d4-58fd-4ea5-b801-b9c4853579a3"},"vehicle_type_id":"4","last_reported":1751364751,"current_range_meters":23200,"station_id":"ce4bgr92rcd13ifvqc6g","pricing_plan_id":"cebpf4jnsgd1na2vs0mg"},{"bike_id":"9ec3bea7-96b6-4093-9b38-dca6f912ddc9","system_id":"levelo_inurba_marseille","lat":43.30544,"lon":5.36543,"is_reserved":false,"is_disabled":false,"rental_uris":{"android":"levelo://app?vid=9ec3bea7-96b6-4093-9b38-dca6f912ddc9","ios":"levelo://app?vid=9ec3bea7-96b6-4093-9b38-dca6f912ddc9"},"vehicle_type_id":"4","last_reported":1751364751,"current_range_meters":23200,"station_id":"ce4bgs12rcd13ifvqcag","pricing_plan_id":"cebpf4jnsgd1na2vs0mg"},{"bike_id":"505a1095-86a3-46b2-bda3-dc79d36f6040","system_id":"levelo_inurba_marseille","lat":43.3054,"lon":5.36525,"is_reserved":false,"is_disabled":false,"rental_uris":{"android":"levelo://app?vid=505a1095-86a3-46b2-bda3-dc79d36f6040","ios":"levelo://app?vid=505a1095-86a3-46b2-bda3-dc79d36f6040"},"vehicle_type_id":"4","last_reported":1751364751,"current_range_meters":23200,"station_id":"ce4bgs12rcd13ifvqcag","pricing_plan_id":"cebpf4jnsgd1na2vs0mg"},{"bike_id":"590c2c2e-e4e3-4fc7-a988-114529fc934d","system_id":"levelo_inurba_marseille","lat":43.29253,"lon":5.38422,"is_reserved":false,"is_disabled":false,"rental_uris":{"android":"levelo://app?vid=590c2c2e-e4e3-4fc7-a988-114529fc934d","ios":"levelo://app?vid=590c2c2e-e4e3-4fc7-a988-114529fc934d"},"vehicle_type_id":"4","last_reported":1751364751,"current_range_meters":23200,"station_id":"ce4bh692rcd13ifvqea0","pricing_plan_id":"cebpf4jnsgd1na2vs0mg"},{"bike_id":"f5412c15-7b97-4a99-95f9-01ee035a2146","system_id":"levelo_inurba_marseille","lat":43.2842,"lon":5.34984,"is_reserved":false,"is_disabled":false,"rental_uris":{"android":"levelo://app?vid=f5412c15-7b97-4a99-95f9-01ee035a2146","ios":"levelo://app?vid=f5412c15-7b97-4a99-95f9-01ee035a2146"},"vehicle_type_id":"4","last_reported":1751364751,"current_range_meters":23200,"station_id":"ce4bhbh2rcd13ifvqepg","pricing_plan_id":"cebpf4jnsgd1na2vs0mg"},{"bike_id":"6557a1e0-dfd7-47b4-b21c-00c8e9e08a7e","system_id":"levelo_inurba_marseille","lat":43.28615,"lon":5.35111,"is_reserved":false,"is_disabled":false,"rental_uris":{"android":"levelo://app?vid=6557a1e0-dfd7-47b4-b21c-00c8e9e08a7e","ios":"levelo://app?vid=6557a1e0-dfd7-47b4-b21c-00c8e9e08a7e"},