{"last_updated":1744100093,"ttl":60,"version":"2.2","data":{"bikes":[{"bike_id":"88e9ffa1-b1ad-4c58-8b1d-75e9dfcce5ae","system_id":"levelo_inurba_marseille","lat":43.2707,"lon":5.42275,"is_reserved":false,"is_disabled":false,"rental_uris":{"android":"levelo://app?vid=88e9ffa1-b1ad-4c58-8b1d-75e9dfcce5ae","ios":"levelo://app?vid=88e9ffa1-b1ad-4c58-8b1d-75e9dfcce5ae"},"vehicle_type_id":"4","last_reported":1744100093,"current_range_meters":2800,"station_id":"ce4bhk92rcd13ifvqgb0","pricing_plan_id":"cebpf4jnsgd1na2vs0mg"},{"bike_id":"f4d17837-d6b0-4d2b-91e1-f902ba13f95a","system_id":"levelo_inurba_marseille","lat":43.29967,"lon":5.37168,"is_reserved":false,"is_disabled":false,"rental_uris":{"android":"levelo://app?vid=f4d17837-d6b0-4d2b-91e1-f902ba13f95a","ios":"levelo://app?vid=f4d17837-d6b0-4d2b-91e1-f902ba13f95a"},"vehicle_type_id":"4","last_reported":1744100093,"current_range_meters":2800,"station_id":"ce4bgr92rcd13ifvqc7g","pricing_plan_id":"cebpf4jnsgd1na2vs0mg"},{"bike_id":"1ac50db5-c426-43f8-b588-11a4cd34d00c","system_id":"levelo_inurba_marseille","lat":43.31328,"lon":5.367186,"is_reserved":false,"is_disabled":false,"rental_uris":{"android":"levelo://app?vid=1ac50db5-c426-43f8-b588-11a4cd34d00c","ios":"levelo://app?vid=1ac50db5-c426-43f8-b588-11a4cd34d00c"},"vehicle_type_id":"4","last_reported":1744100093,"current_range_meters":3200,"station_id":"ce4bgr92rcd13ifvqc6g","pricing_plan_id":"cebpf4jnsgd1na2vs0mg"},{"bike_id":"136b6e45-ee21-453e-aa22-e07947db9071","system_id":"levelo_inurba_marseille","lat":43.23157,"lon":5.43698,"is_reserved":false,"is_disabled":true,"rental_uris":{"android":"levelo://app?vid=136b6e45-ee21-453e-aa22-e07947db9071","ios":"levelo://app?vid=136b6e45-ee21-453e-aa22-e07947db9071"},"vehicle_type_id":"4","last_reported":1744100093,"current_range_meters":3200,"station_id":"ce4bhmp2rcd13ifvqgog","pricing_plan_id":"cebpf4jnsgd1na2vs0mg"},{"bike_id":"8fb9d98e-5a11-45d7-95bb-291e7c25e3da","system_id":"levelo_inurba_marseille","lat":43.3027,"lon":5.37724,"is_reserved":false,"is_disabled":false,"rental_uris":{"android":"levelo://app?vid=8fb9d98e-5a11-45d7-95bb-291e7c25e3da","ios":"levelo://app?vid=8fb9d98e-5a11-45d7-95bb-291e7c25e3da"},"vehicle_type_id":"4","last_reported":1744100093,"current_range_meters":3600,"station_id":"ce4bguh2rcd13ifvqcj0","pricing_plan_id":"cebpf4jnsgd1na2vs0mg"},{"bike_id":"762b41dd-0235-40d2-b9fe-689c63f4c95a","system_id":"levelo_inurba_marseille","lat":43.259303,"lon":5.409145,"is_reserved":false,"is_disabled":false,"rental_uris":{"android":"levelo://app?vid=762b41dd-0235-40d2-b9fe-689c63f4c95a","ios":"levelo://app?vid=762b41dd-0235-40d2-b9fe-689c63f4c95a"},"vehicle_type_id":"4","last_reported":1744100093,"current_range_meters":4000,"station_id":"ce4bhm92rcd13ifvqglg","pricing_plan_id":"cebpf4jnsgd1na2vs0mg"},{"bike_id":"a0d5b6c5-03f2-4138-9013-c945d13d4953","system_id":"levelo_inurba_marseille","lat":43.30802,"lon":5.43521,"is_reserved":false,"is_disabled":false,"rental_uris":{"android":"levelo://app?vid=a0d5b6c5-03f2-4138-9013-c945d13d4953","ios":"levelo://app?vid=a0d5b6c5-03f2-4138-9013-c945d13d4953"},"vehicle_type_id":"4","last_reported":1744100093,"current_range_meters":4000,"station_id":"ce4bhph2rcd13ifvqheg","pricing_plan_id":"cebpf4jnsgd1na2vs0mg"},{"bike_id":"5b82386c-152f-413a-a790-512a73571b8f","system_id":"levelo_inurba_marseille","lat":43.279089,"lon":5.353397,"is_reserved":false,"is_disabled":false,"rental_uris":{"android":"levelo://app?vid=5b82386c-152f-413a-a790-512a73571b8f","ios":"levelo://app?vid=5b82386c-152f-413a-a790-512a73571b8f"},"vehicle_type_id":"4","last_reported":1744100093,"current_range_meters":2800,"station_id":"ce4bhbh2rcd13ifvqeo0","pricing_plan_id":"cebpf4jnsgd1na2vs0mg"},{"bike_id":"d89cf537-5d49-4ffb-bba5-1642ba79c24f","system_id":"levelo_inurba_marseille","lat":43.2511,"lon":5.40324,"is_reserved":false,"is_disabled":false,"rental_uris":{"android":"levelo://app?vid=d89cf537-5d49-4ffb-bba5-1642ba79c24f","ios":"levelo://app?vid=d89cf537-5d49-4ffb-bba5-1642ba79c24f"},"vehicle_type_id":"4","last_reported":1744100093,"current_range_meters":4400,"station_id":"ce4bhlh2rcd13ifvqgig","pricing_plan_id":"cebpf4jnsgd1na2vs0mg"},{"bike_id":"1da9f7fc-9d75-40d6-a673-f64e67ab1ca0","system_id":"levelo_inurba_marseille","lat":43.296326,"lon":5.377342,"is_reserved":false,"is_disabled":false,"rental_uris":{"android":"levelo://app?vid=1da9f7fc-9d75-40d6-a673-f64e67ab1ca0","ios":"levelo://app?vid=1da9f7fc-9d75-40d6-a673-f64e67ab1ca0"},"vehicle_type_id":"4","last_reported":1744100093,"current_range_meters":4400,"station_id":"ce4bgi92rcd13ifvqb90","pricing_plan_id":"cebpf4jnsgd1na2vs0mg"},{"bike_id":"351b921a-1463-4cf6-859d-ca5bd51a6e76","system_id":"levelo_inurba_marseille","lat":43.318,"lon":5.36823,"is_reserved":false,"is_disabled":false,"rental_uris":{"android":"levelo://app?vid=351b921a-1463-4cf6-859d-ca5bd51a6e76","ios":"levelo://app?vid=351b921a-1463-4cf6-859d-ca5bd51a6e76"},"vehicle_type_id":"4","last_reported":1744100093,"current_range_meters":4400,"station_id":"","pricing_plan_id":"cebpf4jnsgd1na2vs0mg"},{"bike_id":"fdcf7938-4647-44bf-aab4-4119a71ee908","system_id":"levelo_inurba_marseille","lat":43.26676,"lon":5.38277,"is_reserved":false,"is_disabled":false,"rental_uris":{"android":"levelo://app?vid=fdcf7938-4647-44bf-aab4-4119a71ee908","ios":"levelo://app?vid=fdcf7938-4647-44bf-aab4-4119a71ee908"},"vehicle_type_id":"4","last_reported":1744100093,"current_range_meters":4800,"station_id":"ce4bhg92rcd13ifvqf90","pricing_plan_id":"cebpf4jnsgd1na2vs0mg"},{"bike_id":"7cd174e8-c41f-4839-9f64-ec13ee91f293","system_id":"levelo_inurba_marseille","lat":43.28669,"lon":5.38663,"is_reserved":false,"is_disabled":false,"rental_uris":{"android":"levelo://app?vid=7cd174e8-c41f-4839-9f64-ec13ee91f293","ios":"levelo://app?vid=7cd174e8-c41f-4839-9f64-ec13ee91f293"},"vehicle_type_id":"4","last_reported":1744100093,"current_range_meters":4800,"station_id":"ce4bh492rcd13ifvqdug","pricing_plan_id":"cebpf4jnsgd1na2vs0mg"},{"bike_id":"f37f2830-eab9-467e-86c8-03954cf9c79e","system_id":"levelo_inurba_marseille","lat":43.30599,"lon":5.37218,"is_reserved":false,"is_disabled":false,"rental_uris":{"android":"levelo://app?vid=f37f2830-eab9-467e-86c8-03954cf9c79e","ios":"levelo://app?vid=f37f2830-eab9-467e-86c8-03954cf9c79e"},"vehicle_type_id":"4","last_reported":1744100093,"current_range_meters":5600,"station_id":"ce4bgqh2rcd13ifvqc4g","pricing_plan_id":"cebpf4jnsgd1na2vs0mg"},{"bike_id":"c0248de8-f793-455a-b8cf-95f460a36c0f","system_id":"levelo_inurba_marseille","lat":43.296071,"lon":5.40614,"is_reserved":false,"is_disabled":false,"rental_uris":{"android":"levelo://app?vid=c0248de8-f793-455a-b8cf-95f460a36c0f","ios":"levelo://app?vid=c0248de8-f793-455a-b8cf-95f460a36c0f"},"vehicle_type_id":"4","last_reported":1744100093,"current_range_meters":5600,"station_id":"ce4bh0h2rcd13ifvqd60","pricing_plan_id":"cebpf4jnsgd1na2vs0mg"},{"bike_id":"04d46299-7b1d-4ffe-a78e-e722a7f357b9","system_id":"levelo_inurba_marseille","lat":43.29564,"lon":5.37497,"is_reserved":false,"is_disabled":false,"rental_uris":{"android":"levelo://app?vid=04d46299-7b1d-4ffe-a78e-e722a7f357b9","ios":"levelo://app?vid=04d46299-7b1d-4ffe-a78e-e722a7f357b9"},"vehicle_type_id":"4","last_reported":1744100093,"current_range_meters":5600,"station_id":"ce4bgh92rcd13ifvqb50","pricing_plan_id":"cebpf4jnsgd1na2vs0mg"},{"bike_id":"a959694d-18ce-4d80-917f-23c91ed81065","system_id":"levelo_inurba_marseille","lat":43.29901,"lon":5.43656,"is_reserved":false,"is_disabled":false,"rental_uris":{"android":"levelo://app?vid=a959694d-18ce-4d80-917f-23c91ed81065","ios":"levelo://app?vid=a959694d-18ce-4d80-917f-23c91ed81065"},"vehicle_type_id":"4","last_reported":1744100093,"current_range_meters":5600,"station_id":"ce4bhpp2rcd13ifvqhfg","pricing_plan_id":"cebpf4jnsgd1na2vs0mg"},{"bike_id":"4900c84f-5176-4107-a70b-040b68aa0c67","system_id":"levelo_inurba_marseille","lat":43.30201,"lon":5.36626,"is_reserved":false,"is_disabled":false,"rental_uris":{"android":"levelo://app?vid=4900c84f-5176-4107-a70b-040b68aa0c67","ios":"levelo://app?vid=4900c84f-5176-4107-a70b-040b68aa0c67"},"vehicle_type_id":"4","last_reported":1744100093,"current_range_meters":5600,"station_id":"ce4bgrh2rcd13ifvqc8g","pricing_plan_id":"cebpf4jnsgd1na2vs0mg"},{"bike_id":"c2d5aea1-f36b-49c4-8580-b2d41dc17c36","system_id":"levelo_inurba_marseille","lat":43.24182,"lon":5.39713,"is_reserved":false,"is_disabled":false,"rental_uris":{"android":"levelo://app?vid=c2d5aea1-f36b-49c4-8580-b2d41dc17c36","ios":"levelo://app?vid=c2d5aea1-f36b-49c4-8580-b2d41dc17c36"},"vehicle_type_id":"4","last_reported":1744100093,"current_range_meters":6000,"station_id":"ce4bhn12rcd13ifvqgpg","pricing_plan_id":"cebpf4jnsgd1na2vs0mg"},{"bike_id":"19224d95-e048-4cbb-8884-43e0e6b3db9b","system_id":"levelo_inurba_marseille","lat":43.2988,"lon":5.39751,"is_reserved":false,"is_disabled":true,"rental_uris":{"android":"levelo://app?vid=19224d95-e048-4cbb-8884-43e0e6b3db9b","ios":"levelo://app?vid=19224d95-e048-4cbb-8884-43e0e6b3db9b"},"vehicle_type_id":"4","last_reported":1744100093,"current_range_meters":6000,"station_id":"ce4bh0h2rcd13ifvqd50","pricing_plan_id":"cebpf4jnsgd1na2vs0mg"},{"bike_id":"0c3279bb-3192-4bb6-b845-5bc2bac9ef89","system_id":"levelo_inurba_marseille","lat":43.29276,"lon":5.36845,"is_reserved":false,"is_disabled":false,"rental_uris":{"android":"levelo://app?vid=0c3279bb-3192-4bb6-b845-5bc2bac9ef89","ios":"levelo://app?vid=0c3279bb-3192-4bb6-b845-5bc2bac9ef89"},"vehicle_type_id":"4","last_reported":1744100093,"current_range_meters":6000,"station_id":"ce4bhbp2rcd13ifvqesg","pricing_plan_id":"cebpf4jnsgd1na2vs0mg"},{"bike_id":"6ebe9ec3-b74c-497b-aa8c-e68d0877c617","system_id":"levelo_inurba_marseille","lat":43.25131,"lon":5.40329,"is_reserved":false,"is_disabled":false,"rental_uris":{"android":"levelo://app?vid=6ebe9ec3-b74c-497b-aa8c-e68d0877c617","ios":"levelo://app?vid=6ebe9ec3-b74c-497b-aa8c-e68d0877c617"},"vehicle_type_id":"4","last_reported":1744100093,"current_range_meters":6400,"station_id":"ce4bhlh2rcd13ifvqgig","pricing_plan_id":"cebpf4jnsgd1na2vs0mg"},{"bike_id":"8a38320c-a733-4cf5-8c8e-152497fe8f8f","system_id":"levelo_inurba_marseille","lat":43.28149,"lon":5.42637,"is_reserved":false,"is_disabled":false,"rental_uris":{"android":"levelo://app?vid=8a38320c-a733-4cf5-8c8e-152497fe8f8f","ios":"levelo://app?vid=8a38320c-a733-4cf5-8c8e-152497fe8f8f"},"vehicle_type_id":"4","last_reported":1744100093,"current_range_meters":6400,"station_id":"ce4bhnh2rcd13ifvqgug","pricing_plan_id":"cebpf4jnsgd1na2vs0mg"},{"bike_id":"1031a154-a0bb-4fea-b1c7-2bc34e177401","system_id":"levelo_inurba_marseille","lat":43.33763,"lon":5.37481,"is_reserved":false,"is_disabled":false,"rental_uris":{"android":"levelo://app?vid=1031a154-a0bb-4fea-b1c7-2bc34e177401","ios":"levelo://app?vid=1031a154-a0bb-4fea-b1c7-2bc34e177401"},"vehicle_type_id":"4","last_reported":1744100093,"current_range_meters":6400,"station_id":"","pricing_plan_id":"cebpf4jnsgd1na2vs0mg"},{"bike_id":"f3b83e8a-c65f-4f5d-8899-2b84c089f530","system_id":"levelo_inurba_marseille","lat":43.32145,"lon":5.36763,"is_reserved":false,"is_disabled":false,"rental_uris":{"android":"levelo://app?vid=f3b83e8a-c65f-4f5d-8899-2b84c089f530","ios":"levelo://app?vid=f3b83e8a-c65f-4f5d-8899-2b84c089f530"},"vehicle_type_id":"4","last_reported":1744100093,"current_range_meters":6400,"station_id":"ce4bhrh2rcd13ifvqhug","pricing_plan_id":"cebpf4jnsgd1na2vs0mg"},{"bike_id":"73276e73-379c-4215-bfe8-0a4cdf26f8fb","system_id":"levelo_inurba_marseille","lat":43.27381,"lon":5.36253,"is_reserved":false,"is_disabled":false,"rental_uris":{"android":"levelo://app?vid=73276e73-379c-4215-bfe8-0a4cdf26f8fb","ios":"levelo://app?vid=73276e73-379c-4215-bfe8-0a4cdf26f8fb"},"vehicle_type_id":"4","last_reported":1744100093,"current_range_meters":6400,"station_id":"ce4bhbh2rcd13ifvqeo0","pricing_plan_id":"cebpf4jnsgd1na2vs0mg"},{"bike_id":"e4a07207-fed0-4e37-8539-48386b90c7e5","system_id":"levelo_inurba_marseille","lat":43.32538,"lon":5.4146,"is_reserved":false,"is_disabled":false,"rental_uris":{"android":"levelo://app?vid=e4a07207-fed0-4e37-8539-48386b90c7e5","ios":"levelo://app?vid=e4a07207-fed0-4e37-8539-48386b90c7e5"},"vehicle_type_id":"4","last_reported":1744100093,"current_range_meters":6400,"station_id":"ce4bhq12rcd13ifvqhhg","pricing_plan_id":"cebpf4jnsgd1na2vs0mg"},{"bike_id":"06d8c071-c15f-4628-bdf9-94c609b910a0","system_id":"levelo_inurba_marseille","lat":43.33609,"lon":5.41005,"is_reserved":false,"is_disabled":false,"rental_uris":{"android":"levelo://app?vid=06d8c071-c15f-4628-bdf9-94c609b910a0","ios":"levelo://app?vid=06d8c071-c15f-4628-bdf9-94c609b910a0"},"vehicle_type_id":"4","last_reported":1744100093,"current_range_meters":6400,"station_id":"ce4bhqh2rcd13ifvqhmg","pricing_plan_id":"cebpf4jnsgd1na2vs0mg"},{"bike_id":"65075ed2-25f2-4e0c-be14-c27c9b906ecf","system_id":"levelo_inurba_marseille","lat":43.29029,"lon":5.37568,"is_reserved":false,"is_disabled":false,"rental_uris":{"android":"levelo://app?vid=65075ed2-25f2-4e0c-be14-c27c9b906ecf","ios":"levelo://app?vid=65075ed2-25f2-4e0c-be14-c27c9b906ecf"},"vehicle_type_id":"4","last_reported":1744100093,"current_range_meters":6400,"station_id":"ce4bh692rcd13ifvqe90","pricing_plan_id":"cebpf4jnsgd1na2vs0mg"},{"bike_id":"98916001-1598-48db-b977-9e094261257b","system_id":"levelo_inurba_marseille","lat":43.270895,"lon":5.423075,"is_reserved":false,"is_disabled":false,"rental_uris":{"android":"levelo://app?vid=98916001-1598-48db-b977-9e094261257b","ios":"levelo://app?vid=98916001-1598-48db-b977-9e094261257b"},"vehicle_type_id":"4","last_reported":1744100093,"current_range_meters":6800,"station_id":"ce4bhk92rcd13ifvqgb0","pricing_plan_id":"cebpf4jnsgd1na2vs0mg"},{"bike_id":"abf828e0-bebc-4654-bc93-1d92f449deee","system_id":"levelo_inurba_marseille","lat":43.32369,"lon":5.36751,"is_reserved":false,"is_disabled":false,"rental_uris":{"android":"levelo://app?vid=abf828e0-bebc-4654-bc93-1d92f449deee","ios":"levelo://app?vid=abf828e0-bebc-4654-bc93-1d92f449deee"},"vehicle_type_id":"4","last_reported":1744100093,"current_range_meters":6800,"station_id":"ce4bhsh2rcd13ifvqi2g","pricing_plan_id":"cebpf4jnsgd1na2vs0mg"},{"bike_id":"e223670b-5545-4017-934f-c2adf2f3c08b","system_id":"levelo_inurba_marseille","lat":43.27085,"lon":5.423,"is_reserved":false,"is_disabled":false,"rental_uris":{"android":"levelo://app?vid=e223670b-5545-4017-934f-c2adf2f3c08b","ios":"levelo://app?vid=e223670b-5545-4017-934f-c2adf2f3c08b"},"vehicle_type_id":"4","last_reported":1744100093,"current_range_meters":6800,"station_id":"ce4bhk92rcd13ifvqgb0","pricing_plan_id":"cebpf4jnsgd1na2vs0mg"},{"bike_id":"d25be0a0-5ae7-40c3-955a-828f187abce2","system_id":"levelo_inurba_marseille","lat":43.24174,"lon":5.39729,"is_reserved":false,"is_disabled":false,"rental_uris":{"android":"levelo://app?vid=d25be0a0-5ae7-40c3-955a-828f187abce2","ios":"levelo://app?vid=d25be0a0-5ae7-40c3-955a-828f187abce2"},"vehicle_type_id":"4","last_reported":1744100093,"current_range_meters":6800,"station_id":"ce4bhn12rcd13ifvqgpg","pricing_plan_id":"cebpf4jnsgd1na2vs0mg"},{"bike_id":"21ad2b20-e326-40c8-a3d6-b2092488dc26","system_id":"levelo_inurba_marseille","lat":43.24392,"lon":5.37009,"is_reserved":false,"is_disabled":false,"rental_uris":{"android":"levelo://app?vid=21ad2b20-e326-40c8-a3d6-b2092488dc26","ios":"levelo://app?vid=21ad2b20-e326-40c8-a3d6-b2092488dc26"},"vehicle_type_id":"4","last_reported":1744100093,"current_range_meters":6800,"station_id":"","pricing_plan_id":"cebpf4jnsgd1na2vs0mg"},{"bike_id":"0f8eb46a-061e-4294-a3be-19fc001fdf11","system_id":"levelo_inurba_marseille","lat":43.3229,"lon":5.38252,"is_reserved":false,"is_disabled":false,"rental_uris":{"android":"levelo://app?vid=0f8eb46a-061e-4294-a3be-19fc001fdf11","ios":"levelo://app?vid=0f8eb46a-061e-4294-a3be-19fc001fdf11"},"vehicle_type_id":"4","last_reported":1744100093,"current_range_meters":7200,"station_id":"ce4bhr12rcd13ifvqhqg","pricing_plan_id":"cebpf4jnsgd1na2vs0mg"},{"bike_id":"87bda883-ac94-49fc-94c2-3a86e52b4f97","system_id":"levelo_inurba_marseille","lat":43.3073,"lon":5.38335,"is_reserved":false,"is_disabled":false,"rental_uris":{"android":"levelo://app?vid=87bda883-ac94-49fc-94c2-3a86e52b4f97","ios":"levelo://app?vid=87bda883-ac94-49fc-94c2-3a86e52b4f97"},"vehicle_type_id":"4","last_reported":1744100093,"current_range_meters":7200,"station_id":"","pricing_plan_id":"cebpf4jnsgd1na2vs0mg"},{"bike_id":"d5cb0a8a-b057-4a3b-9ee1-8babbaeb606e","system_id":"levelo_inurba_marseille","lat":43.28704,"lon":5.37395,"is_reserved":false,"is_disabled":false,"rental_uris":{"android":"levelo://app?vid=d5cb0a8a-b057-4a3b-9ee1-8babbaeb606e","ios":"levelo://app?vid=d5cb0a8a-b057-4a3b-9ee1-8babbaeb606e"},"vehicle_type_id":"4","last_reported":1744100093,"current_range_meters":7200,"station_id":"ce4bh3p2rcd13ifvqdq0","pricing_plan_id":"cebpf4jnsgd1na2vs0mg"},{"bike_id":"6422ec53-afe7-41be-87cb-da9731d5a7f6","system_id":"levelo_inurba_marseille","lat":43.25932,"lon":5.40899,"is_reserved":false,"is_disabled":true,"rental_uris":{"android":"levelo://app?vid=6422ec53-afe7-41be-87cb-da9731d5a7f6","ios":"levelo://app?vid=6422ec53-afe7-41be-87cb-da9731d5a7f6"},"vehicle_type_id":"4","last_reported":1744100093,"current_range_meters":7200,"station_id":"ce4bhm92rcd13ifvqglg","pricing_plan_id":"cebpf4jnsgd1na2vs0mg"},{"bike_id":"5ba02e57-e745-47ce-9b93-c851debe9e12","system_id":"levelo_inurba_marseille","lat":43.27216,"lon":5.4098,"is_reserved":false,"is_disabled":false,"rental_uris":{"android":"levelo://app?vid=5ba02e57-e745-47ce-9b93-c851debe9e12","ios":"levelo://app?vid=5ba02e57-e745-47ce-9b93-c851debe9e12"},"vehicle_type_id":"4","last_reported":1744100093,"current_range_meters":7200,"station_id":"","pricing_plan_id":"cebpf4jnsgd1na2vs0mg"},{"bike_id":"7ae1c95c-1e2c-400a-8efd-618212ebe707","system_id":"levelo_inurba_marseille","lat":43.31651,"lon":5.38277,"is_reserved":false,"is_disabled":false,"rental_uris":{"android":"levelo://app?vid=7ae1c95c-1e2c-400a-8efd-618212ebe707","ios":"levelo://app?vid=7ae1c95c-1e2c-400a-8efd-618212ebe707"},"vehicle_type_id":"4","last_reported":1744100093,"current_range_meters":7200,"station_id":"","pricing_plan_id":"cebpf4jnsgd1na2vs0mg"},{"bike_id":"cc057f14-b1e1-4dee-b107-8741c01c5964","system_id":"levelo_inurba_marseille","lat":43.32105,"lon":5.36777,"is_reserved":false,"is_disabled":true,"rental_uris":{"android":"levelo://app?vid=cc057f14-b1e1-4dee-b107-8741c01c5964","ios":"levelo://app?vid=cc057f14-b1e1-4dee-b107-8741c01c5964"},"vehicle_type_id":"4","last_reported":1744100093,"current_range_meters":7200,"station_id":"ce4bhrh2rcd13ifvqhug","pricing_plan_id":"cebpf4jnsgd1na2vs0mg"},{"bike_id":"7bf1376e-f550-4d85-8f2e-537462767f4a","system_id":"levelo_inurba_marseille","lat":43.27378,"lon":5.36252,"is_reserved":false,"is_disabled":false,"rental_uris":{"android":"levelo://app?vid=7bf1376e-f550-4d85-8f2e-537462767f4a","ios":"levelo://app?vid=7bf1376e-f550-4d85-8f2e-537462767f4a"},"vehicle_type_id":"4","last_reported":1744100093,"current_range_meters":7200,"station_id":"ce4bhbh2rcd13ifvqeo0","pricing_plan_id":"cebpf4jnsgd1na2vs0mg"},{"bike_id":"472cc903-1990-45bb-855b-95941b9edb84","system_id":"levelo_inurba_marseille","lat":43.24398,"lon":5.37066,"is_reserved":false,"is_disabled":false,"rental_uris":{"android":"levelo://app?vid=472cc903-1990-45bb-855b-95941b9edb84","ios":"levelo://app?vid=472cc903-1990-45bb-855b-95941b9edb84"},"vehicle_type_id":"4","last_reported":1744100093,"current_range_meters":8000,"station_id":"ce4bhhh2rcd13ifvqfk0","pricing_plan_id":"cebpf4jnsgd1na2vs0mg"},{"bike_id":"85c88742-d94f-4116-8ecb-055ad88d5459","system_id":"levelo_inurba_marseille","lat":43.27495,"lon":5.42447,"is_reserved":false,"is_disabled":false,"rental_uris":{"android":"levelo://app?vid=85c88742-d94f-4116-8ecb-055ad88d5459","ios":"levelo://app?vid=85c88742-d94f-4116-8ecb-055ad88d5459"},"vehicle_type_id":"4","last_reported":1744100093,"current_range_meters":8000,"station_id":"ce4bhn92rcd13ifvqgrg","pricing_plan_id":"cebpf4jnsgd1na2vs0mg"},{"bike_id":"db77aa95-72db-470c-9c43-5322da612de8","system_id":"levelo_inurba_marseille","lat":43.31832,"lon":5.40184,"is_reserved":false,"is_disabled":false,"rental_uris":{"android":"levelo://app?vid=db77aa95-72db-470c-9c43-5322da612de8","ios":"levelo://app?vid=db77aa95-72db-470c-9c43-5322da612de8"},"vehicle_type_id":"4","last_reported":1744100093,"current_range_meters":8000,"station_id":"","pricing_plan_id":"cebpf4jnsgd1na2vs0mg"},{"bike_id":"bec659b1-2ddb-41bf-9e2d-39084f6c1a4a","system_id":"levelo_inurba_marseille","lat":43.31705,"lon":5.42423,"is_reserved":false,"is_disabled":false,"rental_uris":{"android":"levelo://app?vid=bec659b1-2ddb-41bf-9e2d-39084f6c1a4a","ios":"levelo://app?vid=bec659b1-2ddb-41bf-9e2d-39084f6c1a4a"},"vehicle_type_id":"4","last_reported":1744100093,"current_range_meters":8000,"station_id":"ce4bhp92rcd13ifvqhbg","pricing_plan_id":"cebpf4jnsgd1na2vs0mg"},{"bike_id":"63c29091-59b7-40f9-861b-33a55a26c302","system_id":"levelo_inurba_marseille","lat":43.3372,"lon":5.39198,"is_reserved":false,"is_disabled":false,"rental_uris":{"android":"levelo://app?vid=63c29091-59b7-40f9-861b-33a55a26c302","ios":"levelo://app?vid=63c29091-59b7-40f9-861b-33a55a26c302"},"vehicle_type_id":"4","last_reported":1744100093,"current_range_meters":8000,"station_id":"ce4bhr92rcd13ifvqhsg","pricing_plan_id":"cebpf4jnsgd1na2vs0mg"},{"bike_id":"9972aee6-4470-443a-8e14-c2078bb91c0d","system_id":"levelo_inurba_marseille","lat":43.31253,"lon":5.37106,"is_reserved":false,"is_disabled":false,"rental_uris":{"android":"levelo://app?vid=9972aee6-4470-443a-8e14-c2078bb91c0d","ios":"levelo://app?vid=9972aee6-4470-443a-8e14-c2078bb91c0d"},"vehicle_type_id":"4","last_reported":1744100093,"current_range_meters":8000,"station_id":"","pricing_plan_id":"cebpf4jnsgd1na2vs0mg"},{"bike_id":"9f58fe17-7445-4171-ab8a-b7da8864df25","system_id":"levelo_inurba_marseille","lat":43.29895,"lon":5.43657,"is_reserved":false,"is_disabled":false,"rental_uris":{"android":"levelo://app?vid=9f58fe17-7445-4171-ab8a-b7da8864df25","ios":"levelo://app?vid=9f58fe17-7445-4171-ab8a-b7da8864df25"},"vehicle_type_id":"4","last_reported":1744100093,"current_range_meters":8000,"station_id":"ce4bhpp2rcd13ifvqhfg","pricing_plan_id":"cebpf4jnsgd1na2vs0mg"},{"bike_id":"e338240f-435f-4193-8417-a9c441797f7a","system_id":"levelo_inurba_marseille","lat":43.27505,"lon":5.42448,"is_reserved":false,"is_disabled":false,"rental_uris":{"android":"levelo://app?vid=e338240f-435f-4193-8417-a9c441797f7a","ios":"levelo://app?vid=e338240f-435f-4193-8417-a9c441797f7a"},"vehicle_type_id":"4","last_reported":1744100093,"current_range_meters":8400,"station_id":"ce4bhn92rcd13ifvqgrg","pricing_plan_id":"cebpf4jnsgd1na2vs0mg"},{"bike_id":"750bc9c2-8244-4f27-a571-77c62d7d6b92","system_id":"levelo_inurba_marseille","lat":43.31272,"lon":5.37757,"is_reserved":false,"is_disabled":false,"rental_uris":{"android":"levelo://app?vid=750bc9c2-8244-4f27-a571-77c62d7d6b92","ios":"levelo://app?vid=750bc9c2-8244-4f27-a571-77c62d7d6b92"},"vehicle_type_id":"4","last_reported":1744100093,"current_range_meters":8400,"station_id":"","pricing_plan_id":"cebpf4jnsgd1na2vs0mg"},{"bike_id":"17ae3293-59cd-4be2-9b83-3db3af796493","system_id":"levelo_inurba_marseille","lat":43.30411,"lon":5.41288,"is_reserved":false,"is_disabled":false,"rental_uris":{"android":"levelo://app?vid=17ae3293-59cd-4be2-9b83-3db3af796493","ios":"levelo://app?vid=17ae3293-59cd-4be2-9b83-3db3af796493"},"vehicle_type_id":"4","last_reported":1744100093,"current_range_meters":8400,"station_id":"ce4bhop2rcd13ifvqh8g","pricing_plan_id":"cebpf4jnsgd1na2vs0mg"},{"bike_id":"2a6b8f0a-c50b-4819-a909-57bab4f4d2d6","system_id":"levelo_inurba_marseille","lat":43.33023,"lon":5.39044,"is_reserved":false,"is_disabled":false,"rental_uris":{"android":"levelo://app?vid=2a6b8f0a-c50b-4819-a909-57bab4f4d2d6","ios":"levelo://app?vid=2a6b8f0a-c50b-4819-a909-57bab4f4d2d6"},"vehicle_type_id":"4","last_reported":1744100093,"current_range_meters":8400,"station_id":"ce4bhr92rcd13ifvqhrg","pricing_plan_id":"cebpf4jnsgd1na2vs0mg"},{"bike_id":"72b8b41d-e043-4509-8ece-eccb5cd34253","system_id":"levelo_inurba_marseille","lat":43.2678,"lon":5.39428,"is_reserved":false,"is_disabled":false,"rental_uris":{"android":"levelo://app?vid=72b8b41d-e043-4509-8ece-eccb5cd34253","ios":"levelo://app?vid=72b8b41d-e043-4509-8ece-eccb5cd34253"},"vehicle_type_id":"4","last_reported":1744100093,"current_range_meters":8400,"station_id":"ce4bhh12rcd13ifvqfg0","pricing_plan_id":"cebpf4jnsgd1na2vs0mg"},{"bike_id":"21c59577-5327-44df-ae67-b91a3b0f8756","system_id":"levelo_inurba_marseille","lat":43.3135,"lon":5.36707,"is_reserved":false,"is_disabled":false,"rental_uris":{"android":"levelo://app?vid=21c59577-5327-44df-ae67-b91a3b0f8756","ios":"levelo://app?vid=21c59577-5327-44df-ae67-b91a3b0f8756"},"vehicle_type_id":"4","last_reported":1744100093,"current_range_meters":8400,"station_id":"ce4bgr92rcd13ifvqc6g","pricing_plan_id":"cebpf4jnsgd1na2vs0mg"},{"bike_id":"717e4a2b-312c-4c87-b19d-4ea15e0c33cc","system_id":"levelo_inurba_marseille","lat":43.31348,"lon":5.36715,"is_reserved":false,"is_disabled":false,"rental_uris":{"android":"levelo://app?vid=717e4a2b-312c-4c87-b19d-4ea15e0c33cc","ios":"levelo://app?vid=717e4a2b-312c-4c87-b19d-4ea15e0c33cc"},"vehicle_type_id":"4","last_reported":1744100093,"current_range_meters":8400,"station_id":"","pricing_plan_id":"cebpf4jnsgd1na2vs0mg"},{"bike_id":"5b6be73e-e697-452c-8046-980c42a9b685","system_id":"levelo_inurba_marseille","lat":43.32474,"lon":5.36585,"is_reserved":false,"is_disabled":false,"rental_uris":{"android":"levelo://app?vid=5b6be73e-e697-452c-8046-980c42a9b685","ios":"levelo://app?vid=5b6be73e-e697-452c-8046-980c42a9b685"},"vehicle_type_id":"4","last_reported":1744100093,"current_range_meters":8400,"station_id":"ce4bhs12rcd13ifvqhvg","pricing_plan_id":"cebpf4jnsgd1na2vs0mg"},{"bike_id":"3cbad1fb-d71d-4e4f-90fa-c1465f9f9b65","system_id":"levelo_inurba_marseille","lat":43.21206,"lon":5.35107,"is_reserved":false,"is_disabled":true,"rental_uris":{"android":"levelo://app?vid=3cbad1fb-d71d-4e4f-90fa-c1465f9f9b65","ios":"levelo://app?vid=3cbad1fb-d71d-4e4f-90fa-c1465f9f9b65"},"vehicle_type_id":"4","last_reported":1744100093,"current_range_meters":8400,"station_id":"st_cvj6sg6p6f1abm77japg","pricing_plan_id":"cebpf4jnsgd1na2vs0mg"},{"bike_id":"47305de9-2a74-4135-a1b3-347d11603132","system_id":"levelo_inurba_marseille","lat":43.301226,"lon":5.398574,"is_reserved":false,"is_disabled":false,"rental_uris":{"android":"levelo://app?vid=47305de9-2a74-4135-a1b3-347d11603132","ios":"levelo://app?vid=47305de9-2a74-4135-a1b3-347d11603132"},"vehicle_type_id":"4","last_reported":1744100093,"current_range_meters":8800,"station_id":"ce4bh0h2rcd13ifvqd40","pricing_plan_id":"cebpf4jnsgd1na2vs0mg"},{"bike_id":"7b3646e0-cbf2-40de-92a8-c829ec618775","system_id":"levelo_inurba_marseille","lat":43.32006,"lon":5.38156,"is_reserved":false,"is_disabled":true,"rental_uris":{"android":"levelo://app?vid=7b3646e0-cbf2-40de-92a8-c829ec618775","ios":"levelo://app?vid=7b3646e0-cbf2-40de-92a8-c829ec618775"},"vehicle_type_id":"4","last_reported":1744100093,"current_range_meters":8800,"station_id":"ce4bhr12rcd13ifvqhpg","pricing_plan_id":"cebpf4jnsgd1na2vs0mg"},{"bike_id":"6613318a-26b4-489f-8f27-5ba62d45c07c","system_id":"levelo_inurba_marseille","lat":43.29045,"lon":5.39951,"is_reserved":false,"is_disabled":true,"rental_uris":{"android":"levelo://app?vid=6613318a-26b4-489f-8f27-5ba62d45c07c","ios":"levelo://app?vid=6613318a-26b4-489f-8f27-5ba62d45c07c"},"vehicle_type_id":"4","last_reported":1744100093,"current_range_meters":8800,"station_id":"ce4bh392rcd13ifvqdm0","pricing_plan_id":"cebpf4jnsgd1na2vs0mg"},{"bike_id":"444a5f07-09c5-40f5-8d58-60f1f25c67b9","system_id":"levelo_inurba_marseille","lat":43.31982,"lon":5.38133,"is_reserved":false,"is_disabled":false,"rental_uris":{"android":"levelo://app?vid=444a5f07-09c5-40f5-8d58-60f1f25c67b9","ios":"levelo://app?vid=444a5f07-09c5-40f5-8d58-60f1f25c67b9"},"vehicle_type_id":"4","last_reported":1744100093,"current_range_meters":8800,"station_id":"ce4bhr12rcd13ifvqhpg","pricing_plan_id":"cebpf4jnsgd1na2vs0mg"},{"bike_id":"485f24a3-8ba6-4caa-8780-8392668d8f6b","system_id":"levelo_inurba_marseille","lat":43.31701,"lon":5.37756,"is_reserved":false,"is_disabled":true,"rental_uris":{"android":"levelo://app?vid=485f24a3-8ba6-4caa-8780-8392668d8f6b","ios":"levelo://app?vid=485f24a3-8ba6-4caa-8780-8392668d8f6b"},"vehicle_type_id":"4","last_reported":1744100093,"current_range_meters":9200,"station_id":"ce4bgth2rcd13ifvqch0","pricing_plan_id":"cebpf4jnsgd1na2vs0mg"},{"bike_id":"88d39464-e295-45ef-b788-46a514d73c6d","system_id":"levelo_inurba_marseille","lat":43.25487,"lon":5.37647,"is_reserved":false,"is_disabled":false,"rental_uris":{"android":"levelo://app?vid=88d39464-e295-45ef-b788-46a514d73c6d","ios":"levelo://app?vid=88d39464-e295-45ef-b788-46a514d73c6d"},"vehicle_type_id":"4","last_reported":1744100093,"current_range_meters":9200,"station_id":"ce4bhh12rcd13ifvqff0","pricing_plan_id":"cebpf4jnsgd1na2vs0mg"},{"bike_id":"fd7d128c-986f-4250-b6d2-bf737d7077fb","system_id":"levelo_inurba_marseille","lat":43.26487,"lon":5.39568,"is_reserved":false,"is_disabled":true,"rental_uris":{"android":"levelo://app?vid=fd7d128c-986f-4250-b6d2-bf737d7077fb","ios":"levelo://app?vid=fd7d128c-986f-4250-b6d2-bf737d7077fb"},"vehicle_type_id":"4","last_reported":1744100093,"current_range_meters":9200,"station_id":"ce4bhi12rcd13ifvqfq0","pricing_plan_id":"cebpf4jnsgd1na2vs0mg"},{"bike_id":"89771962-fe60-4144-a8a6-39dd0f7b9fb3","system_id":"levelo_inurba_marseille","lat":43.21204,"lon":5.35109,"is_reserved":false,"is_disabled":false,"rental_uris":{"android":"levelo://app?vid=89771962-fe60-4144-a8a6-39dd0f7b9fb3","ios":"levelo://app?vid=89771962-fe60-4144-a8a6-39dd0f7b9fb3"},"vehicle_type_id":"4","last_reported":1744100093,"current_range_meters":9200,"station_id":"st_cvj6sg6p6f1abm77japg","pricing_plan_id":"cebpf4jnsgd1na2vs0mg"},{"bike_id":"b8a4d310-15b1-406b-abe8-1108a30cc508","system_id":"levelo_inurba_marseille","lat":43.29766,"lon":5.37119,"is_reserved":false,"is_disabled":false,"rental_uris":{"android":"levelo://app?vid=b8a4d310-15b1-406b-abe8-1108a30cc508","ios":"levelo://app?vid=b8a4d310-15b1-406b-abe8-1108a30cc508"},"vehicle_type_id":"4","last_reported":1744100093,"current_range_meters":9200,"station_id":"ce4bgop2rcd13ifvqc1g","pricing_plan_id":"cebpf4jnsgd1na2vs0mg"},{"bike_id":"f39be6f5-2f69-4c37-b021-559d20b299a4","system_id":"levelo_inurba_marseille","lat":43.337444,"lon":5.374475,"is_reserved":false,"is_disabled":false,"rental_uris":{"android":"levelo://app?vid=f39be6f5-2f69-4c37-b021-559d20b299a4","ios":"levelo://app?vid=f39be6f5-2f69-4c37-b021-559d20b299a4"},"vehicle_type_id":"4","last_reported":1744100093,"current_range_meters":9200,"station_id":"","pricing_plan_id":"cebpf4jnsgd1na2vs0mg"},{"bike_id":"55fe5251-21ad-4a8a-81dd-9a34b7108151","system_id":"levelo_inurba_marseille","lat":43.30532,"lon":5.36527,"is_reserved":false,"is_disabled":false,"rental_uris":{"android":"levelo://app?vid=55fe5251-21ad-4a8a-81dd-9a34b7108151","ios":"levelo://app?vid=55fe5251-21ad-4a8a-81dd-9a34b7108151"},"vehicle_type_id":"4","last_reported":1744100093,"current_range_meters":9200,"station_id":"ce4bgs12rcd13ifvqcag","pricing_plan_id":"cebpf4jnsgd1na2vs0mg"},{"bike_id":"23f362af-ca0e-4b2b-b568-f4912dc4ec04","system_id":"levelo_inurba_marseille","lat":43.30577,"lon":5.36696,"is_reserved":false,"is_disabled":true,"rental_uris":{"android":"levelo://app?vid=23f362af-ca0e-4b2b-b568-f4912dc4ec04","ios":"levelo://app?vid=23f362af-ca0e-4b2b-b568-f4912dc4ec04"},"vehicle_type_id":"4","last_reported":1744100093,"current_range_meters":9200,"station_id":"ce4bgrp2rcd13ifvqc9g","pricing_plan_id":"cebpf4jnsgd1na2vs0mg"},{"bike_id":"a74dfbcf-ff2b-4822-9ff3-aa7db6812375","system_id":"levelo_inurba_marseille","lat":43.30278,"lon":5.37694,"is_reserved":false,"is_disabled":false,"rental_uris":{"android":"levelo://app?vid=a74dfbcf-ff2b-4822-9ff3-aa7db6812375","ios":"levelo://app?vid=a74dfbcf-ff2b-4822-9ff3-aa7db6812375"},"vehicle_type_id":"4","last_reported":1744100093,"current_range_meters":9200,"station_id":"ce4bguh2rcd13ifvqcj0","pricing_plan_id":"cebpf4jnsgd1na2vs0mg"},{"bike_id":"2e9000dc-6400-4918-a994-dd60039ca96d","system_id":"levelo_inurba_marseille","lat":43.32001,"lon":5.38154,"is_reserved":false,"is_disabled":true,"rental_uris":{"android":"levelo://app?vid=2e9000dc-6400-4918-a994-dd60039ca96d","ios":"levelo://app?vid=2e9000dc-6400-4918-a994-dd60039ca96d"},"vehicle_type_id":"4","last_reported":1744100093,"current_range_meters":9200,"station_id":"ce4bhr12rcd13ifvqhpg","pricing_plan_id":"cebpf4jnsgd1na2vs0mg"},{"bike_id":"3b4e1299-1e40-4aec-ad7e-7eb21543e414","system_id":"levelo_inurba_marseille","lat":43.31229,"lon":5.36905,"is_reserved":false,"is_disabled":false,"rental_uris":{"android":"levelo://app?vid=3b4e1299-1e40-4aec-ad7e-7eb21543e414","ios":"levelo://app?vid=3b4e1299-1e40-4aec-ad7e-7eb21543e414"},"vehicle_type_id":"4","last_reported":1744100093,"current_range_meters":9600,"station_id":"ce4bgl92rcd13ifvqbq0","pricing_plan_id":"cebpf4jnsgd1na2vs0mg"},{"bike_id":"6565fc00-ebae-438b-ba60-15ac7bba8631","system_id":"levelo_inurba_marseille","lat":43.312379,"lon":5.368685,"is_reserved":false,"is_disabled":false,"rental_uris":{"android":"levelo://app?vid=6565fc00-ebae-438b-ba60-15ac7bba8631","ios":"levelo://app?vid=6565fc00-ebae-438b-ba60-15ac7bba8631"},"vehicle_type_id":"4","last_reported":1744100093,"current_range_meters":9600,"station_id":"ce4bgl92rcd13ifvqbq0","pricing_plan_id":"cebpf4jnsgd1na2vs0mg"},{"bike_id":"d1789c99-5c7c-4e88-9d29-ce771e783c08","system_id":"levelo_inurba_marseille","lat":43.31019,"lon":5.37718,"is_reserved":false,"is_disabled":false,"rental_uris":{"android":"levelo://app?vid=d1789c99-5c7c-4e88-9d29-ce771e783c08","ios":"levelo://app?vid=d1789c99-5c7c-4e88-9d29-ce771e783c08"},"vehicle_type_id":"4","last_reported":1744100093,"current_range_meters":9600,"station_id":"","pricing_plan_id":"cebpf4jnsgd1na2vs0mg"},{"bike_id":"3576b946-70b3-456f-a60a-d98e227f015c","system_id":"levelo_inurba_marseille","lat":43.30107,"lon":5.3825,"is_reserved":false,"is_disabled":false,"rental_uris":{"android":"levelo://app?vid=3576b946-70b3-456f-a60a-d98e227f015c","ios":"levelo://app?vid=3576b946-70b3-456f-a60a-d98e227f015c"},"vehicle_type_id":"4","last_reported":1744100093,"current_range_meters":9600,"station_id":"ce4bgup2rcd13ifvqcn0","pricing_plan_id":"cebpf4jnsgd1na2vs0mg"},{"bike_id":"91af7c49-4122-4f83-a08d-fc084211eb7b","system_id":"levelo_inurba_marseille","lat":43.31327,"lon":5.36728,"is_reserved":false,"is_disabled":false,"rental_uris":{"android":"levelo://app?vid=91af7c49-4122-4f83-a08d-fc084211eb7b","ios":"levelo://app?vid=91af7c49-4122-4f83-a08d-fc084211eb7b"},"vehicle_type_id":"4","last_reported":1744100093,"current_range_meters":9600,"station_id":"ce4bgr92rcd13ifvqc6g","pricing_plan_id":"cebpf4jnsgd1na2vs0mg"},{"bike_id":"dff0c398-5457-4c82-99b9-071db8607d47","system_id":"levelo_inurba_marseille","lat":43.25665,"lon":5.41916,"is_reserved":false,"is_disabled":false,"rental_uris":{"android":"levelo://app?vid=dff0c398-5457-4c82-99b9-071db8607d47","ios":"levelo://app?vid=dff0c398-5457-4c82-99b9-071db8607d47"},"vehicle_type_id":"4","last_reported":1744100093,"current_range_meters":10000,"station_id":"","pricing_plan_id":"cebpf4jnsgd1na2vs0mg"},{"bike_id":"f17ce36f-e80a-4732-89e2-7a7dfab19d87","system_id":"levelo_inurba_marseille","lat":43.29916,"lon":5.43657,"is_reserved":false,"is_disabled":false,"rental_uris":{"android":"levelo://app?vid=f17ce36f-e80a-4732-89e2-7a7dfab19d87","ios":"levelo://app?vid=f17ce36f-e80a-4732-89e2-7a7dfab19d87"},"vehicle_type_id":"4","last_reported":1744100093,"current_range_meters":10000,"station_id":"ce4bhpp2rcd13ifvqhfg","pricing_plan_id":"cebpf4jnsgd1na2vs0mg"},{"bike_id":"82f28cf6-556c-431d-a12b-bd3ce5fc2f28","system_id":"levelo_inurba_marseille","lat":43.27505,"lon":5.37739,"is_reserved":false,"is_disabled":false,"rental_uris":{"android":"levelo://app?vid=82f28cf6-556c-431d-a12b-bd3ce5fc2f28","ios":"levelo://app?vid=82f28cf6-556c-431d-a12b-bd3ce5fc2f28"},"vehicle_type_id":"4","last_reported":1744100093,"current_range_meters":10000,"station_id":"","pricing_plan_id":"cebpf4jnsgd1na2vs0mg"},{"bike_id":"cf749fae-7d0d-4e31-882b-69567102e54d","system_id":"levelo_inurba_marseille","lat":43.25967,"lon":5.40983,"is_reserved":false,"is_disabled":true,"rental_uris":{"android":"levelo://app?vid=cf749fae-7d0d-4e31-882b-69567102e54d","ios":"levelo://app?vid=cf749fae-7d0d-4e31-882b-69567102e54d"},"vehicle_type_id":"4","last_reported":1744100093,"current_range_meters":10000,"station_id":"ce4bhm92rcd13ifvqglg","pricing_plan_id":"cebpf4jnsgd1na2vs0mg"},{"bike_id":"d50e409f-bff5-4638-85e9-afa60580b5a7","system_id":"levelo_inurba_marseille","lat":43.32113,"lon":5.36796,"is_reserved":false,"is_disabled":false,"rental_uris":{"android":"levelo://app?vid=d50e409f-bff5-4638-85e9-afa60580b5a7","ios":"levelo://app?vid=d50e409f-bff5-4638-85e9-afa60580b5a7"},"vehicle_type_id":"4","last_reported":1744100093,"current_range_meters":10000,"station_id":"ce4bhrh2rcd13ifvqhug","pricing_plan_id":"cebpf4jnsgd1na2vs0mg"},{"bike_id":"c9bafbba-b7f7-46f1-9ddb-3cbf4105567c","system_id":"levelo_inurba_marseille","lat":43.30953,"lon":5.39038,"is_reserved":false,"is_disabled":false,"rental_uris":{"android":"levelo://app?vid=c9bafbba-b7f7-46f1-9ddb-3cbf4105567c","ios":"levelo://app?vid=c9bafbba-b7f7-46f1-9ddb-3cbf4105567c"},"vehicle_type_id":"4","last_reported":1744100093,"current_range_meters":10000,"station_id":"ce4bgup2rcd13ifvqco0","pricing_plan_id":"cebpf4jnsgd1na2vs0mg"},{"bike_id":"b7d15525-0102-4d63-b7d3-eaa2bc4c21c3","system_id":"levelo_inurba_marseille","lat":43.21751,"lon":5.3461,"is_reserved":false,"is_disabled":true,"rental_uris":{"android":"levelo://app?vid=b7d15525-0102-4d63-b7d3-eaa2bc4c21c3","ios":"levelo://app?vid=b7d15525-0102-4d63-b7d3-eaa2bc4c21c3"},"vehicle_type_id":"4","last_reported":1744100093,"current_range_meters":10000,"station_id":"","pricing_plan_id":"cebpf4jnsgd1na2vs0mg"},{"bike_id":"149d12c1-918e-45ca-96d3-9e3d71a1137b","system_id":"levelo_inurba_marseille","lat":43.29036,"lon":5.40013,"is_reserved":false,"is_disabled":true,"rental_uris":{"android":"levelo://app?vid=149d12c1-918e-45ca-96d3-9e3d71a1137b","ios":"levelo://app?vid=149d12c1-918e-45ca-96d3-9e3d71a1137b"},"vehicle_type_id":"4","last_reported":1744100093,"current_range_meters":10000,"station_id":"","pricing_plan_id":"cebpf4jnsgd1na2vs0mg"},{"bike_id":"81078699-8d63-48ff-971c-92593346eff8","system_id":"levelo_inurba_marseille","lat":43.29623,"lon":5.37714,"is_reserved":false,"is_disabled":false,"rental_uris":{"android":"levelo://app?vid=81078699-8d63-48ff-971c-92593346eff8","ios":"levelo://app?vid=81078699-8d63-48ff-971c-92593346eff8"},"vehicle_type_id":"4","last_reported":1744100093,"current_range_meters":10800,"station_id":"ce4bgi92rcd13ifvqb90","pricing_plan_id":"cebpf4jnsgd1na2vs0mg"},{"bike_id":"a474e7ff-e69e-455a-84b9-fcad88179e87","system_id":"levelo_inurba_marseille","lat":43.29035,"lon":5.39952,"is_reserved":false,"is_disabled":false,"rental_uris":{"android":"levelo://app?vid=a474e7ff-e69e-455a-84b9-fcad88179e87","ios":"levelo://app?vid=a474e7ff-e69e-455a-84b9-fcad88179e87"},"vehicle_type_id":"4","last_reported":1744100093,"current_range_meters":10800,"station_id":"ce4bh392rcd13ifvqdm0","pricing_plan_id":"cebpf4jnsgd1na2vs0mg"},{"bike_id":"8a08216c-264c-40c9-baa0-51102ea40b4f","system_id":"levelo_inurba_marseille","lat":43.26688,"lon":5.38277,"is_reserved":false,"is_disabled":false,"rental_uris":{"android":"levelo://app?vid=8a08216c-264c-40c9-baa0-51102ea40b4f","ios":"levelo://app?vid=8a08216c-264c-40c9-baa0-51102ea40b4f"},"vehicle_type_id":"4","last_reported":1744100093,"current_range_meters":10800,"station_id":"ce4bhg92rcd13ifvqf90","pricing_plan_id":"cebpf4jnsgd1na2vs0mg"},{"bike_id":"4b9dfe05-0e60-423c-af4b-3ef6e8cad4ce","system_id":"levelo_inurba_marseille","lat":43.25103,"lon":5.40348,"is_reserved":false,"is_disabled":true,"rental_uris":{"android":"levelo://app?vid=4b9dfe05-0e60-423c-af4b-3ef6e8cad4ce","ios":"levelo://app?vid=4b9dfe05-0e60-423c-af4b-3ef6e8cad4ce"},"vehicle_type_id":"4","last_reported":1744100093,"current_range_meters":10800,"station_id":"ce4bhlh2rcd13ifvqgig","pricing_plan_id":"cebpf4jnsgd1na2vs0mg"},{"bike_id":"b09ceb6a-59e9-486c-aae1-132a4a6f5a68","system_id":"levelo_inurba_marseille","lat":43.31271,"lon":5.4018,"is_reserved":false,"is_disabled":false,"rental_uris":{"android":"levelo://app?vid=b09ceb6a-59e9-486c-aae1-132a4a6f5a68","ios":"levelo://app?vid=b09ceb6a-59e9-486c-aae1-132a4a6f5a68"},"vehicle_type_id":"4","last_reported":1744100093,"current_range_meters":10000,"station_id":"ce4bh092rcd13ifvqd30","pricing_plan_id":"cebpf4jnsgd1na2vs0mg"},{"bike_id":"88998428-313f-47fe-b8c9-28554b78a9e4","system_id":"levelo_inurba_marseille","lat":43.30929,"lon":5.40144,"is_reserved":false,"is_disabled":false,"rental_uris":{"android":"levelo://app?vid=88998428-313f-47fe-b8c9-28554b78a9e4","ios":"levelo://app?vid=88998428-313f-47fe-b8c9-28554b78a9e4"},"vehicle_type_id":"4","last_reported":1744100093,"current_range_meters":10800,"station_id":"ce4bgvp2rcd13ifvqct0","pricing_plan_id":"cebpf4jnsgd1na2vs0mg"},{"bike_id":"57c4e6e8-026a-4350-b996-12df6b497807","system_id":"levelo_inurba_marseille","lat":43.29596,"lon":5.37714,"is_reserved":false,"is_disabled":true,"rental_uris":{"android":"levelo://app?vid=57c4e6e8-026a-4350-b996-12df6b497807","ios":"levelo://app?vid=57c4e6e8-026a-4350-b996-12df6b497807"},"vehicle_type_id":"4","last_reported":1744100093,"current_range_meters":11200,"station_id":"ce4bgi92rcd13ifvqb90","pricing_plan_id":"cebpf4jnsgd1na2vs0mg"},{"bike_id":"516d1131-8d22-4c00-9743-8f8296b9be79","system_id":"levelo_inurba_marseille","lat":43.25493,"lon":5.37647,"is_reserved":false,"is_disabled":false,"rental_uris":{"android":"levelo://app?vid=516d1131-8d22-4c00-9743-8f8296b9be79","ios":"levelo://app?vid=516d1131-8d22-4c00-9743-8f8296b9be79"},"vehicle_type_id":"4","last_reported":1744100093,"current_range_meters":10800,"station_id":"ce4bhh12rcd13ifvqff0","pricing_plan_id":"cebpf4jnsgd1na2vs0mg"},{"bike_id":"5b76e7b8-bbb9-404a-8218-efeecbc6b7f2","system_id":"levelo_inurba_marseille","lat":43.24168,"lon":5.39734,"is_reserved":false,"is_disabled":false,"rental_uris":{"android":"levelo://app?vid=5b76e7b8-bbb9-404a-8218-efeecbc6b7f2","ios":"levelo://app?vid=5b76e7b8-bbb9-404a-8218-efeecbc6b7f2"},"vehicle_type_id":"4","last_reported":1744100093,"current_range_meters":11200,"station_id":"ce4bhn12rcd13ifvqgpg","pricing_plan_id":"cebpf4jnsgd1na2vs0mg"},{"bike_id":"4b9376fa-c956-4b38-b8b1-be9291d4d44c","system_id":"levelo_inurba_marseille","lat":43.31249,"lon":5.36839,"is_reserved":false,"is_disabled":false,"rental_uris":{"android":"levelo://app?vid=4b9376fa-c956-4b38-b8b1-be9291d4d44c","ios":"levelo://app?vid=4b9376fa-c956-4b38-b8b1-be9291d4d44c"},"vehicle_type_id":"4","last_reported":1744100093,"current_range_meters":10800,"station_id":"ce4bgl92rcd13ifvqbq0","pricing_plan_id":"cebpf4jnsgd1na2vs0mg"},{"bike_id":"f54ed993-fedb-455c-8329-424ac8299963","system_id":"levelo_inurba_marseille","lat":43.32357,"lon":5.3676,"is_reserved":false,"is_disabled":false,"rental_uris":{"android":"levelo://app?vid=f54ed993-fedb-455c-8329-424ac8299963","ios":"levelo://app?vid=f54ed993-fedb-455c-8329-424ac8299963"},"vehicle_type_id":"4","last_reported":1744100093,"current_range_meters":11200,"station_id":"ce4bhsh2rcd13ifvqi2g","pricing_plan_id":"cebpf4jnsgd1na2vs0mg"},{"bike_id":"3dce358b-c5a3-4cc0-8a0d-3620d3399b49","system_id":"levelo_inurba_marseille","lat":43.25112,"lon":5.40326,"is_reserved":false,"is_disabled":false,"rental_uris":{"android":"levelo://app?vid=3dce358b-c5a3-4cc0-8a0d-3620d3399b49","ios":"levelo://app?vid=3dce358b-c5a3-4cc0-8a0d-3620d3399b49"},"vehicle_type_id":"4","last_reported":1744100093,"current_range_meters":11200,"station_id":"ce4bhlh2rcd13ifvqgig","pricing_plan_id":"cebpf4jnsgd1na2vs0mg"},{"bike_id":"708bac0c-e5ff-48d8-a93a-c994aa19a96c","system_id":"levelo_inurba_marseille","lat":43.26828,"lon":5.39387,"is_reserved":false,"is_disabled":false,"rental_uris":{"android":"levelo://app?vid=708bac0c-e5ff-48d8-a93a-c994aa19a96c","ios":"levelo://app?vid=708bac0c-e5ff-48d8-a93a-c994aa19a96c"},"vehicle_type_id":"4","last_reported":1744100093,"current_range_meters":11200,"station_id":"ce4bhh12rcd13ifvqfg0","pricing_plan_id":"cebpf4jnsgd1na2vs0mg"},{"bike_id":"fb7a1608-45dc-49fb-b059-ed5163e78863","system_id":"levelo_inurba_marseille","lat":43.31718,"lon":5.43736,"is_reserved":false,"is_disabled":true,"rental_uris":{"android":"levelo://app?vid=fb7a1608-45dc-49fb-b059-ed5163e78863","ios":"levelo://app?vid=fb7a1608-45dc-49fb-b059-ed5163e78863"},"vehicle_type_id":"4","last_reported":1744100093,"current_range_meters":11600,"station_id":"ce4bhp92rcd13ifvqhcg","pricing_plan_id":"cebpf4jnsgd1na2vs0mg"},{"bike_id":"0748ce16-1dbb-4683-afb9-eabebbdfd5a5","system_id":"levelo_inurba_marseille","lat":43.292225,"lon":5.400292,"is_reserved":false,"is_disabled":false,"rental_uris":{"android":"levelo://app?vid=0748ce16-1dbb-4683-afb9-eabebbdfd5a5","ios":"levelo://app?vid=0748ce16-1dbb-4683-afb9-eabebbdfd5a5"},"vehicle_type_id":"4","last_reported":1744100093,"current_range_meters":11600,"station_id":"","pricing_plan_id":"cebpf4jnsgd1na2vs0mg"},{"bike_id":"3227e078-7ac3-478f-8b3d-149f1d862ce0","system_id":"levelo_inurba_marseille","lat":43.29039,"lon":5.37564,"is_reserved":false,"is_disabled":false,"rental_uris":{"android":"levelo://app?vid=3227e078-7ac3-478f-8b3d-149f1d862ce0","ios":"levelo://app?vid=3227e078-7ac3-478f-8b3d-149f1d862ce0"},"vehicle_type_id":"4","last_reported":1744100093,"current_range_meters":11600,"station_id":"ce4bh692rcd13ifvqe90","pricing_plan_id":"cebpf4jnsgd1na2vs0mg"},{"bike_id":"a613de97-0090-4415-bf45-b9a7dfc2a534","system_id":"levelo_inurba_marseille","lat":43.24174,"lon":5.36394,"is_reserved":false,"is_disabled":false,"rental_uris":{"android":"levelo://app?vid=a613de97-0090-4415-bf45-b9a7dfc2a534","ios":"levelo://app?vid=a613de97-0090-4415-bf45-b9a7dfc2a534"},"vehicle_type_id":"4","last_reported":1744100093,"current_range_meters":11600,"station_id":"cpo36qri1sfpv3e86is0","pricing_plan_id":"cebpf4jnsgd1na2vs0mg"},{"bike_id":"0aa02c49-cbb3-4907-a588-f754056f3ba8","system_id":"levelo_inurba_marseille","lat":43.3081,"lon":5.38142,"is_reserved":false,"is_disabled":true,"rental_uris":{"android":"levelo://app?vid=0aa02c49-cbb3-4907-a588-f754056f3ba8","ios":"levelo://app?vid=0aa02c49-cbb3-4907-a588-f754056f3ba8"},"vehicle_type_id":"4","last_reported":1744100093,"current_range_meters":12000,"station_id":"ce4bgt12rcd13ifvqce0","pricing_plan_id":"cebpf4jnsgd1na2vs0mg"},{"bike_id":"68d1cc33-0218-451e-8e10-d32225c21263","system_id":"levelo_inurba_marseille","lat":43.23094,"lon":5.43725,"is_reserved":false,"is_disabled":true,"rental_uris":{"android":"levelo://app?vid=68d1cc33-0218-451e-8e10-d32225c21263","ios":"levelo://app?vid=68d1cc33-0218-451e-8e10-d32225c21263"},"vehicle_type_id":"4","last_reported":1744100093,"current_range_meters":12000,"station_id":"ce4bhmp2rcd13ifvqgog","pricing_plan_id":"cebpf4jnsgd1na2vs0mg"},{"bike_id":"7d03e8c4-09b6-43fd-b688-8fa9a993b909","system_id":"levelo_inurba_marseille","lat":43.30927,"lon":5.36747,"is_reserved":false,"is_disabled":false,"rental_uris":{"android":"levelo://app?vid=7d03e8c4-09b6-43fd-b688-8fa9a993b909","ios":"levelo://app?vid=7d03e8c4-09b6-43fd-b688-8fa9a993b909"},"vehicle_type_id":"4","last_reported":1744100093,"current_range_meters":12000,"station_id":"","pricing_plan_id":"cebpf4jnsgd1na2vs0mg"},{"bike_id":"cf1ff944-6ec6-45c5-ad6f-1a6c9a1154b0","system_id":"levelo_inurba_marseille","lat":43.30909,"lon":5.36855,"is_reserved":false,"is_disabled":false,"rental_uris":{"android":"levelo://app?vid=cf1ff944-6ec6-45c5-ad6f-1a6c9a1154b0","ios":"levelo://app?vid=cf1ff944-6ec6-45c5-ad6f-1a6c9a1154b0"},"vehicle_type_id":"4","last_reported":1744100093,"current_range_meters":12000,"station_id":"ce4bgn92rcd13ifvqbvg","pricing_plan_id":"cebpf4jnsgd1na2vs0mg"},{"bike_id":"5811823e-f5a8-403b-aabc-b5669d7c77a5","system_id":"levelo_inurba_marseille","lat":43.31032,"lon":5.36778,"is_reserved":false,"is_disabled":false,"rental_uris":{"android":"levelo://app?vid=5811823e-f5a8-403b-aabc-b5669d7c77a5","ios":"levelo://app?vid=5811823e-f5a8-403b-aabc-b5669d7c77a5"},"vehicle_type_id":"4","last_reported":1744100093,"current_range_meters":12000,"station_id":"","pricing_plan_id":"cebpf4jnsgd1na2vs0mg"},{"bike_id":"c5f21926-7a09-4ace-8217-960c8ad09c00","system_id":"levelo_inurba_marseille","lat":43.24181,"lon":5.39724,"is_reserved":false,"is_disabled":false,"rental_uris":{"android":"levelo://app?vid=c5f21926-7a09-4ace-8217-960c8ad09c00","ios":"levelo://app?vid=c5f21926-7a09-4ace-8217-960c8ad09c00"},"vehicle_type_id":"4","last_reported":1744100093,"current_range_meters":12000,"station_id":"ce4bhn12rcd13ifvqgpg","pricing_plan_id":"cebpf4jnsgd1na2vs0mg"},{"bike_id":"a2b55975-55e4-4a3f-8af7-2c27ff45ed68","system_id":"levelo_inurba_marseille","lat":43.28149,"lon":5.4265,"is_reserved":false,"is_disabled":true,"rental_uris":{"android":"levelo://app?vid=a2b55975-55e4-4a3f-8af7-2c27ff45ed68","ios":"levelo://app?vid=a2b55975-55e4-4a3f-8af7-2c27ff45ed68"},"vehicle_type_id":"4","last_reported":1744100093,"current_range_meters":12400,"station_id":"ce4bhnh2rcd13ifvqgug","pricing_plan_id":"cebpf4jnsgd1na2vs0mg"},{"bike_id":"833ef218-6145-4587-b948-74f2bb237d35","system_id":"levelo_inurba_marseille","lat":43.27374,"lon":5.36255,"is_reserved":false,"is_disabled":false,"rental_uris":{"android":"levelo://app?vid=833ef218-6145-4587-b948-74f2bb237d35","ios":"levelo://app?vid=833ef218-6145-4587-b948-74f2bb237d35"},"vehicle_type_id":"4","last_reported":1744100093,"current_range_meters":12400,"station_id":"ce4bhbh2rcd13ifvqeo0","pricing_plan_id":"cebpf4jnsgd1na2vs0mg"},{"bike_id":"b126bf68-ee7f-44ac-b8d9-2491cd0f451b","system_id":"levelo_inurba_marseille","lat":43.26754,"lon":5.39437,"is_reserved":false,"is_disabled":false,"rental_uris":{"android":"levelo://app?vid=b126bf68-ee7f-44ac-b8d9-2491cd0f451b","ios":"levelo://app?vid=b126bf68-ee7f-44ac-b8d9-2491cd0f451b"},"vehicle_type_id":"4","last_reported":1744100093,"current_range_meters":12400,"station_id":"ce4bhh12rcd13ifvqfg0","pricing_plan_id":"cebpf4jnsgd1na2vs0mg"},{"bike_id":"c05f9950-3465-4e68-888a-ae2cf089b451","system_id":"levelo_inurba_marseille","lat":43.25723,"lon":5.41106,"is_reserved":false,"is_disabled":false,"rental_uris":{"android":"levelo://app?vid=c05f9950-3465-4e68-888a-ae2cf089b451","ios":"levelo://app?vid=c05f9950-3465-4e68-888a-ae2cf089b451"},"vehicle_type_id":"4","last_reported":1744100093,"current_range_meters":12400,"station_id":"ce4bhkp2rcd13ifvqgd0","pricing_plan_id":"cebpf4jnsgd1na2vs0mg"},{"bike_id":"f78fa70f-3752-4409-9df9-34c727397141","system_id":"levelo_inurba_marseille","lat":43.30948,"lon":5.39028,"is_reserved":false,"is_disabled":false,"rental_uris":{"android":"levelo://app?vid=f78fa70f-3752-4409-9df9-34c727397141","ios":"levelo://app?vid=f78fa70f-3752-4409-9df9-34c727397141"},"vehicle_type_id":"4","last_reported":1744100093,"current_range_meters":12400,"station_id":"ce4bgup2rcd13ifvqco0","pricing_plan_id":"cebpf4jnsgd1na2vs0mg"},{"bike_id":"6119e120-199b-4a0a-946b-619e372621de","system_id":"levelo_inurba_marseille","lat":43.27329,"lon":5.39074,"is_reserved":false,"is_disabled":false,"rental_uris":{"android":"levelo://app?vid=6119e120-199b-4a0a-946b-619e372621de","ios":"levelo://app?vid=6119e120-199b-4a0a-946b-619e372621de"},"vehicle_type_id":"4","last_reported":1744100093,"current_range_meters":12400,"station_id":"ce4bhgp2rcd13ifvqfe0","pricing_plan_id":"cebpf4jnsgd1na2vs0mg"},{"bike_id":"1c24abbf-d842-4df3-9e43-2ef3129819ef","system_id":"levelo_inurba_marseille","lat":43.26798,"lon":5.39434,"is_reserved":false,"is_disabled":false,"rental_uris":{"android":"levelo://app?vid=1c24abbf-d842-4df3-9e43-2ef3129819ef","ios":"levelo://app?vid=1c24abbf-d842-4df3-9e43-2ef3129819ef"},"vehicle_type_id":"4","last_reported":1744100093,"current_range_meters":12400,"station_id":"ce4bhh12rcd13ifvqfg0","pricing_plan_id":"cebpf4jnsgd1na2vs0mg"},{"bike_id":"4bacdaaa-7fb4-452a-b873-94dd24624c9a","system_id":"levelo_inurba_marseille","lat":43.31407,"lon":5.3668,"is_reserved":false,"is_disabled":false,"rental_uris":{"android":"levelo://app?vid=4bacdaaa-7fb4-452a-b873-94dd24624c9a","ios":"levelo://app?vid=4bacdaaa-7fb4-452a-b873-94dd24624c9a"},"vehicle_type_id":"4","last_reported":1744100093,"current_range_meters":12400,"station_id":"","pricing_plan_id":"cebpf4jnsgd1na2vs0mg"},{"bike_id":"a7517978-c0ab-4d22-9874-bc3a5fa3be83","system_id":"levelo_inurba_marseille","lat":43.29161,"lon":5.37162,"is_reserved":false,"is_disabled":false,"rental_uris":{"android":"levelo://app?vid=a7517978-c0ab-4d22-9874-bc3a5fa3be83","ios":"levelo://app?vid=a7517978-c0ab-4d22-9874-bc3a5fa3be83"},"vehicle_type_id":"4","last_reported":1744100093,"current_range_meters":12400,"station_id":"ce4bha92rcd13ifvqeh0","pricing_plan_id":"cebpf4jnsgd1na2vs0mg"},{"bike_id":"575ecfc1-7681-4131-b780-0093048f354c","system_id":"levelo_inurba_marseille","lat":43.25929,"lon":5.40891,"is_reserved":false,"is_disabled":false,"rental_uris":{"android":"levelo://app?vid=575ecfc1-7681-4131-b780-0093048f354c","ios":"levelo://app?vid=575ecfc1-7681-4131-b780-0093048f354c"},"vehicle_type_id":"4","last_reported":1744100093,"current_range_meters":12800,"station_id":"ce4bhm92rcd13ifvqglg","pricing_plan_id":"cebpf4jnsgd1na2vs0mg"},{"bike_id":"93e3fd92-d65f-4f36-ba40-a3e5476ebc87","system_id":"levelo_inurba_marseille","lat":43.30677,"lon":5.36631,"is_reserved":false,"is_disabled":false,"rental_uris":{"android":"levelo://app?vid=93e3fd92-d65f-4f36-ba40-a3e5476ebc87","ios":"levelo://app?vid=93e3fd92-d65f-4f36-ba40-a3e5476ebc87"},"vehicle_type_id":"4","last_reported":1744100093,"current_range_meters":12800,"station_id":"","pricing_plan_id":"cebpf4jnsgd1na2vs0mg"},{"bike_id":"1ca7d0c4-b7aa-4350-ad9f-4e24c2ba029a","system_id":"levelo_inurba_marseille","lat":43.30358,"lon":5.42547,"is_reserved":false,"is_disabled":true,"rental_uris":{"android":"levelo://app?vid=1ca7d0c4-b7aa-4350-ad9f-4e24c2ba029a","ios":"levelo://app?vid=1ca7d0c4-b7aa-4350-ad9f-4e24c2ba029a"},"vehicle_type_id":"4","last_reported":1744100093,"current_range_meters":12800,"station_id":"","pricing_plan_id":"cebpf4jnsgd1na2vs0mg"},{"bike_id":"f143ff2e-721e-493c-bcdc-a7d2cc09ad81","system_id":"levelo_inurba_marseille","lat":43.31024,"lon":5.377575,"is_reserved":false,"is_disabled":true,"rental_uris":{"android":"levelo://app?vid=f143ff2e-721e-493c-bcdc-a7d2cc09ad81","ios":"levelo://app?vid=f143ff2e-721e-493c-bcdc-a7d2cc09ad81"},"vehicle_type_id":"4","last_reported":1744100093,"current_range_meters":12800,"station_id":"","pricing_plan_id":"cebpf4jnsgd1na2vs0mg"},{"bike_id":"90783537-fc6a-4e00-a8c3-1dc70d12d604","system_id":"levelo_inurba_marseille","lat":43.26195,"lon":5.37457,"is_reserved":false,"is_disabled":false,"rental_uris":{"android":"levelo://app?vid=90783537-fc6a-4e00-a8c3-1dc70d12d604","ios":"levelo://app?vid=90783537-fc6a-4e00-a8c3-1dc70d12d604"},"vehicle_type_id":"4","last_reported":1744100093,"current_range_meters":12800,"station_id":"ce4bhgp2rcd13ifvqfc0","pricing_plan_id":"cebpf4jnsgd1na2vs0mg"},{"bike_id":"e0c712a4-8c41-4e69-a875-50251525a0f6","system_id":"levelo_inurba_marseille","lat":43.27947,"lon":5.40897,"is_reserved":false,"is_disabled":false,"rental_uris":{"android":"levelo://app?vid=e0c712a4-8c41-4e69-a875-50251525a0f6","ios":"levelo://app?vid=e0c712a4-8c41-4e69-a875-50251525a0f6"},"vehicle_type_id":"4","last_reported":1744100093,"current_range_meters":12800,"station_id":"","pricing_plan_id":"cebpf4jnsgd1na2vs0mg"},{"bike_id":"47b469b5-8f60-4f5a-8e1b-6fb8dca45179","system_id":"levelo_inurba_marseille","lat":43.30999,"lon":5.39087,"is_reserved":false,"is_disabled":false,"rental_uris":{"android":"levelo://app?vid=47b469b5-8f60-4f5a-8e1b-6fb8dca45179","ios":"levelo://app?vid=47b469b5-8f60-4f5a-8e1b-6fb8dca45179"},"vehicle_type_id":"4","last_reported":1744100093,"current_range_meters":13600,"station_id":"ce4bgup2rcd13ifvqco0","pricing_plan_id":"cebpf4jnsgd1na2vs0mg"},{"bike_id":"9389f907-78e2-4c8e-b008-de9739faa63f","system_id":"levelo_inurba_marseille","lat":43.33722,"lon":5.39178,"is_reserved":false,"is_disabled":false,"rental_uris":{"android":"levelo://app?vid=9389f907-78e2-4c8e-b008-de9739faa63f","ios":"levelo://app?vid=9389f907-78e2-4c8e-b008-de9739faa63f"},"vehicle_type_id":"4","last_reported":1744100093,"current_range_meters":13600,"station_id":"ce4bhr92rcd13ifvqhsg","pricing_plan_id":"cebpf4jnsgd1na2vs0mg"},{"bike_id":"c100526d-4d35-4657-a255-97c7221f1c44","system_id":"levelo_inurba_marseille","lat":43.2903,"lon":5.37555,"is_reserved":false,"is_disabled":true,"rental_uris":{"android":"levelo://app?vid=c100526d-4d35-4657-a255-97c7221f1c44","ios":"levelo://app?vid=c100526d-4d35-4657-a255-97c7221f1c44"},"vehicle_type_id":"4","last_reported":1744100093,"current_range_meters":12000,"station_id":"ce4bh692rcd13ifvqe90","pricing_plan_id":"cebpf4jnsgd1na2vs0mg"},{"bike_id":"b679d4aa-4ad8-4d5b-96fb-a9ccaa6f7192","system_id":"levelo_inurba_marseille","lat":43.30531,"lon":5.36709,"is_reserved":false,"is_disabled":false,"rental_uris":{"android":"levelo://app?vid=b679d4aa-4ad8-4d5b-96fb-a9ccaa6f7192","ios":"levelo://app?vid=b679d4aa-4ad8-4d5b-96fb-a9ccaa6f7192"},"vehicle_type_id":"4","last_reported":1744100093,"current_range_meters":13600,"station_id":"ce4bgrp2rcd13ifvqc9g","pricing_plan_id":"cebpf4jnsgd1na2vs0mg"},{"bike_id":"cf1e3e29-0d99-4c8b-9d85-9649606fe6fe","system_id":"levelo_inurba_marseille","lat":43.30911,"lon":5.36855,"is_reserved":false,"is_disabled":false,"rental_uris":{"android":"levelo://app?vid=cf1e3e29-0d99-4c8b-9d85-9649606fe6fe","ios":"levelo://app?vid=cf1e3e29-0d99-4c8b-9d85-9649606fe6fe"},"vehicle_type_id":"4","last_reported":1744100093,"current_range_meters":13600,"station_id":"ce4bgn92rcd13ifvqbvg","pricing_plan_id":"cebpf4jnsgd1na2vs0mg"},{"bike_id":"424487f3-4350-40b8-aa7c-dfad0244cdf9","system_id":"levelo_inurba_marseille","lat":43.27816,"lon":5.41774,"is_reserved":false,"is_disabled":false,"rental_uris":{"android":"levelo://app?vid=424487f3-4350-40b8-aa7c-dfad0244cdf9","ios":"levelo://app?vid=424487f3-4350-40b8-aa7c-dfad0244cdf9"},"vehicle_type_id":"4","last_reported":1744100093,"current_range_meters":13600,"station_id":"","pricing_plan_id":"cebpf4jnsgd1na2vs0mg"},{"bike_id":"854727fc-dcea-4cb2-8f53-ce4ec063d74e","system_id":"levelo_inurba_marseille","lat":43.297094,"lon":5.365824,"is_reserved":false,"is_disabled":false,"rental_uris":{"android":"levelo://app?vid=854727fc-dcea-4cb2-8f53-ce4ec063d74e","ios":"levelo://app?vid=854727fc-dcea-4cb2-8f53-ce4ec063d74e"},"vehicle_type_id":"4","last_reported":1744100093,"current_range_meters":13600,"station_id":"ce4bgn12rcd13ifvqbt0","pricing_plan_id":"cebpf4jnsgd1na2vs0mg"},{"bike_id":"836a232a-b0d9-4c7a-8bb9-c62a9522474f","system_id":"levelo_inurba_marseille","lat":43.2572,"lon":5.41116,"is_reserved":false,"is_disabled":false,"rental_uris":{"android":"levelo://app?vid=836a232a-b0d9-4c7a-8bb9-c62a9522474f","ios":"levelo://app?vid=836a232a-b0d9-4c7a-8bb9-c62a9522474f"},"vehicle_type_id":"4","last_reported":1744100093,"current_range_meters":13600,"station_id":"ce4bhkp2rcd13ifvqgd0","pricing_plan_id":"cebpf4jnsgd1na2vs0mg"},{"bike_id":"73fc11eb-56bc-41d6-b272-b776ea140b2f","system_id":"levelo_inurba_marseille","lat":43.29524,"lon":5.37501,"is_reserved":false,"is_disabled":false,"rental_uris":{"android":"levelo://app?vid=73fc11eb-56bc-41d6-b272-b776ea140b2f","ios":"levelo://app?vid=73fc11eb-56bc-41d6-b272-b776ea140b2f"},"vehicle_type_id":"4","last_reported":1744100093,"current_range_meters":13600,"station_id":"ce4bgkp2rcd13ifvqbmg","pricing_plan_id":"cebpf4jnsgd1na2vs0mg"},{"bike_id":"8859c1d2-5050-4675-9ca8-4628114a6403","system_id":"levelo_inurba_marseille","lat":43.290131,"lon":5.3682,"is_reserved":false,"is_disabled":false,"rental_uris":{"android":"levelo://app?vid=8859c1d2-5050-4675-9ca8-4628114a6403","ios":"levelo://app?vid=8859c1d2-5050-4675-9ca8-4628114a6403"},"vehicle_type_id":"4","last_reported":1744100093,"current_range_meters":13600,"station_id":"ce4bgk12rcd13ifvqbj0","pricing_plan_id":"cebpf4jnsgd1na2vs0mg"},{"bike_id":"9e524312-4eb1-42a9-8d5b-763346e53427","system_id":"levelo_inurba_marseille","lat":43.30542,"lon":5.36711,"is_reserved":false,"is_disabled":false,"rental_uris":{"android":"levelo://app?vid=9e524312-4eb1-42a9-8d5b-763346e53427","ios":"levelo://app?vid=9e524312-4eb1-42a9-8d5b-763346e53427"},"vehicle_type_id":"4","last_reported":1744100093,"current_range_meters":14000,"station_id":"ce4bgrp2rcd13ifvqc9g","pricing_plan_id":"cebpf4jnsgd1na2vs0mg"},{"bike_id":"b4631891-b75f-4987-8122-6d603b0cc762","system_id":"levelo_inurba_marseille","lat":43.24396,"lon":5.37052,"is_reserved":false,"is_disabled":false,"rental_uris":{"android":"levelo://app?vid=b4631891-b75f-4987-8122-6d603b0cc762","ios":"levelo://app?vid=b4631891-b75f-4987-8122-6d603b0cc762"},"vehicle_type_id":"4","last_reported":1744100093,"current_range_meters":14000,"station_id":"ce4bhhh2rcd13ifvqfk0","pricing_plan_id":"cebpf4jnsgd1na2vs0mg"},{"bike_id":"37956fe4-5744-431d-afa2-d35a2b0e9346","system_id":"levelo_inurba_marseille","lat":43.3136,"lon":5.36713,"is_reserved":false,"is_disabled":false,"rental_uris":{"android":"levelo://app?vid=37956fe4-5744-431d-afa2-d35a2b0e9346","ios":"levelo://app?vid=37956fe4-5744-431d-afa2-d35a2b0e9346"},"vehicle_type_id":"4","last_reported":1744100093,"current_range_meters":14000,"station_id":"ce4bgr92rcd13ifvqc6g","pricing_plan_id":"cebpf4jnsgd1na2vs0mg"},{"bike_id":"7a27bbe8-2753-4075-8ccd-7f573c8d455f","system_id":"levelo_inurba_marseille","lat":43.24176,"lon":5.39728,"is_reserved":false,"is_disabled":true,"rental_uris":{"android":"levelo://app?vid=7a27bbe8-2753-4075-8ccd-7f573c8d455f","ios":"levelo://app?vid=7a27bbe8-2753-4075-8ccd-7f573c8d455f"},"vehicle_type_id":"4","last_reported":1744100093,"current_range_meters":14000,"station_id":"ce4bhn12rcd13ifvqgpg","pricing_plan_id":"cebpf4jnsgd1na2vs0mg"},{"bike_id":"5b5ffd5f-ff47-4b19-8c4c-94dc4ce8cd40","system_id":"levelo_inurba_marseille","lat":43.31265,"lon":5.36845,"is_reserved":false,"is_disabled":false,"rental_uris":{"android":"levelo://app?vid=5b5ffd5f-ff47-4b19-8c4c-94dc4ce8cd40","ios":"levelo://app?vid=5b5ffd5f-ff47-4b19-8c4c-94dc4ce8cd40"},"vehicle_type_id":"4","last_reported":1744100093,"current_range_meters":14000,"station_id":"ce4bgl92rcd13ifvqbq0","pricing_plan_id":"cebpf4jnsgd1na2vs0mg"},{"bike_id":"b397701f-0d3d-44bf-ab3e-3ccc7e74fb2e","system_id":"levelo_inurba_marseille","lat":43.264175,"lon":5.422726,"is_reserved":false,"is_disabled":false,"rental_uris":{"android":"levelo://app?vid=b397701f-0d3d-44bf-ab3e-3ccc7e74fb2e","ios":"levelo://app?vid=b397701f-0d3d-44bf-ab3e-3ccc7e74fb2e"},"vehicle_type_id":"4","last_reported":1744100093,"current_range_meters":14000,"station_id":"","pricing_plan_id":"cebpf4jnsgd1na2vs0mg"},{"bike_id":"e5c0cdaf-a6f1-418c-bcac-c120f9a61883","system_id":"levelo_inurba_marseille","lat":43.3096,"lon":5.39026,"is_reserved":false,"is_disabled":false,"rental_uris":{"android":"levelo://app?vid=e5c0cdaf-a6f1-418c-bcac-c120f9a61883","ios":"levelo://app?vid=e5c0cdaf-a6f1-418c-bcac-c120f9a61883"},"vehicle_type_id":"4","last_reported":1744100093,"current_range_meters":14400,"station_id":"ce4bgup2rcd13ifvqco0","pricing_plan_id":"cebpf4jnsgd1na2vs0mg"},{"bike_id":"945d4db8-8baf-4c3f-b3e4-7f83d163d7cf","system_id":"levelo_inurba_marseille","lat":43.30952,"lon":5.39032,"is_reserved":false,"is_disabled":false,"rental_uris":{"android":"levelo://app?vid=945d4db8-8baf-4c3f-b3e4-7f83d163d7cf","ios":"levelo://app?vid=945d4db8-8baf-4c3f-b3e4-7f83d163d7cf"},"vehicle_type_id":"4","last_reported":1744100093,"current_range_meters":14400,"station_id":"ce4bgup2rcd13ifvqco0","pricing_plan_id":"cebpf4jnsgd1na2vs0mg"},{"bike_id":"5ce9f60b-fc55-42de-b788-2c4621368607","system_id":"levelo_inurba_marseille","lat":43.31388,"lon":5.38501,"is_reserved":false,"is_disabled":false,"rental_uris":{"android":"levelo://app?vid=5ce9f60b-fc55-42de-b788-2c4621368607","ios":"levelo://app?vid=5ce9f60b-fc55-42de-b788-2c4621368607"},"vehicle_type_id":"4","last_reported":1744100093,"current_range_meters":14400,"station_id":"ce4bgt92rcd13ifvqcf0","pricing_plan_id":"cebpf4jnsgd1na2vs0mg"},{"bike_id":"0c01be24-5fc2-43fd-bcb9-f1d4dd53281a","system_id":"levelo_inurba_marseille","lat":43.29053,"lon":5.40013,"is_reserved":false,"is_disabled":false,"rental_uris":{"android":"levelo://app?vid=0c01be24-5fc2-43fd-bcb9-f1d4dd53281a","ios":"levelo://app?vid=0c01be24-5fc2-43fd-bcb9-f1d4dd53281a"},"vehicle_type_id":"4","last_reported":1744100093,"current_range_meters":14400,"station_id":"ce4bh392rcd13ifvqdm0","pricing_plan_id":"cebpf4jnsgd1na2vs0mg"},{"bike_id":"6b770536-e0ee-4074-a4d5-7fac1065bae9","system_id":"levelo_inurba_marseille","lat":43.33736,"lon":5.39192,"is_reserved":false,"is_disabled":false,"rental_uris":{"android":"levelo://app?vid=6b770536-e0ee-4074-a4d5-7fac1065bae9","ios":"levelo://app?vid=6b770536-e0ee-4074-a4d5-7fac1065bae9"},"vehicle_type_id":"4","last_reported":1744100093,"current_range_meters":14400,"station_id":"ce4bhr92rcd13ifvqhsg","pricing_plan_id":"cebpf4jnsgd1na2vs0mg"},{"bike_id":"33f3c6cd-a892-4626-bb7b-dc7ed8ff6e47","system_id":"levelo_inurba_marseille","lat":43.31367,"lon":5.36723,"is_reserved":false,"is_disabled":false,"rental_uris":{"android":"levelo://app?vid=33f3c6cd-a892-4626-bb7b-dc7ed8ff6e47","ios":"levelo://app?vid=33f3c6cd-a892-4626-bb7b-dc7ed8ff6e47"},"vehicle_type_id":"4","last_reported":1744100093,"current_range_meters":14400,"station_id":"","pricing_plan_id":"cebpf4jnsgd1na2vs0mg"},{"bike_id":"67f5402e-84ba-4cca-bae1-1308d8bfce95","system_id":"levelo_inurba_marseille","lat":43.32368,"lon":5.36729,"is_reserved":false,"is_disabled":true,"rental_uris":{"android":"levelo://app?vid=67f5402e-84ba-4cca-bae1-1308d8bfce95","ios":"levelo://app?vid=67f5402e-84ba-4cca-bae1-1308d8bfce95"},"vehicle_type_id":"4","last_reported":1744100093,"current_range_meters":14400,"station_id":"ce4bhsh2rcd13ifvqi2g","pricing_plan_id":"cebpf4jnsgd1na2vs0mg"},{"bike_id":"a2905b9f-4c92-4ffe-b595-17e3c8468bc5","system_id":"levelo_inurba_marseille","lat":43.3055,"lon":5.36557,"is_reserved":false,"is_disabled":false,"rental_uris":{"android":"levelo://app?vid=a2905b9f-4c92-4ffe-b595-17e3c8468bc5","ios":"levelo://app?vid=a2905b9f-4c92-4ffe-b595-17e3c8468bc5"},"vehicle_type_id":"4","last_reported":1744100093,"current_range_meters":14800,"station_id":"ce4bgs12rcd13ifvqcag","pricing_plan_id":"cebpf4jnsgd1na2vs0mg"},{"bike_id":"cabba48b-d0eb-40c7-8068-466e1004d2ab","system_id":"levelo_inurba_marseille","lat":43.28502,"lon":5.38573,"is_reserved":false,"is_disabled":false,"rental_uris":{"android":"levelo://app?vid=cabba48b-d0eb-40c7-8068-466e1004d2ab","ios":"levelo://app?vid=cabba48b-d0eb-40c7-8068-466e1004d2ab"},"vehicle_type_id":"4","last_reported":1744100093,"current_range_meters":14800,"station_id":"ce4bh8p2rcd13ifvqeb0","pricing_plan_id":"cebpf4jnsgd1na2vs0mg"},{"bike_id":"980b4909-06e8-4961-a7b7-ea7871482c8f","system_id":"levelo_inurba_marseille","lat":43.31324,"lon":5.36718,"is_reserved":false,"is_disabled":false,"rental_uris":{"android":"levelo://app?vid=980b4909-06e8-4961-a7b7-ea7871482c8f","ios":"levelo://app?vid=980b4909-06e8-4961-a7b7-ea7871482c8f"},"vehicle_type_id":"4","last_reported":1744100093,"current_range_meters":14800,"station_id":"ce4bgr92rcd13ifvqc6g","pricing_plan_id":"cebpf4jnsgd1na2vs0mg"},{"bike_id":"7e762187-3a3f-4bca-9b00-cbe2726503e7","system_id":"levelo_inurba_marseille","lat":43.27616,"lon":5.36103,"is_reserved":false,"is_disabled":false,"rental_uris":{"android":"levelo://app?vid=7e762187-3a3f-4bca-9b00-cbe2726503e7","ios":"levelo://app?vid=7e762187-3a3f-4bca-9b00-cbe2726503e7"},"vehicle_type_id":"4","last_reported":1744100093,"current_range_meters":15200,"station_id":"ce4bgj92rcd13ifvqbe0","pricing_plan_id":"cebpf4jnsgd1na2vs0mg"},{"bike_id":"ce5ed1c9-72dc-47d4-b09c-55d7645e4525","system_id":"levelo_inurba_marseille","lat":43.25107,"lon":5.40334,"is_reserved":false,"is_disabled":false,"rental_uris":{"android":"levelo://app?vid=ce5ed1c9-72dc-47d4-b09c-55d7645e4525","ios":"levelo://app?vid=ce5ed1c9-72dc-47d4-b09c-55d7645e4525"},"vehicle_type_id":"4","last_reported":1744100093,"current_range_meters":15200,"station_id":"ce4bhlh2rcd13ifvqgig","pricing_plan_id":"cebpf4jnsgd1na2vs0mg"},{"bike_id":"98169039-9034-4fba-a990-56a868121d4d","system_id":"levelo_inurba_marseille","lat":43.3053,"lon":5.3654,"is_reserved":false,"is_disabled":false,"rental_uris":{"android":"levelo://app?vid=98169039-9034-4fba-a990-56a868121d4d","ios":"levelo://app?vid=98169039-9034-4fba-a990-56a868121d4d"},"vehicle_type_id":"4","last_reported":1744100093,"current_range_meters":15200,"station_id":"ce4bgs12rcd13ifvqcag","pricing_plan_id":"cebpf4jnsgd1na2vs0mg"},{"bike_id":"af24e20d-cd14-47b0-8e42-24aa1cee57db","system_id":"levelo_inurba_marseille","lat":43.27506,"lon":5.4247,"is_reserved":false,"is_disabled":false,"rental_uris":{"android":"levelo://app?vid=af24e20d-cd14-47b0-8e42-24aa1cee57db","ios":"levelo://app?vid=af24e20d-cd14-47b0-8e42-24aa1cee57db"},"vehicle_type_id":"4","last_reported":1744100093,"current_range_meters":15200,"station_id":"ce4bhn92rcd13ifvqgrg","pricing_plan_id":"cebpf4jnsgd1na2vs0mg"},{"bike_id":"852819f8-8577-46de-b1fa-432b264e47e4","system_id":"levelo_inurba_marseille","lat":43.2418,"lon":5.39754,"is_reserved":false,"is_disabled":false,"rental_uris":{"android":"levelo://app?vid=852819f8-8577-46de-b1fa-432b264e47e4","ios":"levelo://app?vid=852819f8-8577-46de-b1fa-432b264e47e4"},"vehicle_type_id":"4","last_reported":1744100093,"current_range_meters":16000,"station_id":"ce4bhn12rcd13ifvqgpg","pricing_plan_id":"cebpf4jnsgd1na2vs0mg"},{"bike_id":"2aff3da0-1529-4960-a86c-d64b02e2b8cd","system_id":"levelo_inurba_marseille","lat":43.23048,"lon":5.35502,"is_reserved":false,"is_disabled":false,"rental_uris":{"android":"levelo://app?vid=2aff3da0-1529-4960-a86c-d64b02e2b8cd","ios":"levelo://app?vid=2aff3da0-1529-4960-a86c-d64b02e2b8cd"},"vehicle_type_id":"4","last_reported":1744100093,"current_range_meters":16000,"station_id":"cpo3342slgdg3j2ifvpg","pricing_plan_id":"cebpf4jnsgd1na2vs0mg"},{"bike_id":"9ad34866-480a-4e90-a606-26f193456360","system_id":"levelo_inurba_marseille","lat":43.30286,"lon":5.37708,"is_reserved":false,"is_disabled":false,"rental_uris":{"android":"levelo://app?vid=9ad34866-480a-4e90-a606-26f193456360","ios":"levelo://app?vid=9ad34866-480a-4e90-a606-26f193456360"},"vehicle_type_id":"4","last_reported":1744100093,"current_range_meters":16000,"station_id":"ce4bguh2rcd13ifvqcj0","pricing_plan_id":"cebpf4jnsgd1na2vs0mg"},{"bike_id":"25addcb4-8c65-4b9f-a107-9a505bc7e1e5","system_id":"levelo_inurba_marseille","lat":43.31468,"lon":5.36871,"is_reserved":false,"is_disabled":false,"rental_uris":{"android":"levelo://app?vid=25addcb4-8c65-4b9f-a107-9a505bc7e1e5","ios":"levelo://app?vid=25addcb4-8c65-4b9f-a107-9a505bc7e1e5"},"vehicle_type_id":"4","last_reported":1744100093,"current_range_meters":16000,"station_id":"","pricing_plan_id":"cebpf4jnsgd1na2vs0mg"},{"bike_id":"ad0d4453-2c58-4258-8e17-aa49c50e1a2a","system_id":"levelo_inurba_marseille","lat":43.31982,"lon":5.38133,"is_reserved":false,"is_disabled":false,"rental_uris":{"android":"levelo://app?vid=ad0d4453-2c58-4258-8e17-aa49c50e1a2a","ios":"levelo://app?vid=ad0d4453-2c58-4258-8e17-aa49c50e1a2a"},"vehicle_type_id":"4","last_reported":1744100093,"current_range_meters":16000,"station_id":"ce4bhr12rcd13ifvqhpg","pricing_plan_id":"cebpf4jnsgd1na2vs0mg"},{"bike_id":"9de631d8-33cc-46a8-9c33-d43cd6133cfd","system_id":"levelo_inurba_marseille","lat":43.30413,"lon":5.41284,"is_reserved":false,"is_disabled":false,"rental_uris":{"android":"levelo://app?vid=9de631d8-33cc-46a8-9c33-d43cd6133cfd","ios":"levelo://app?vid=9de631d8-33cc-46a8-9c33-d43cd6133cfd"},"vehicle_type_id":"4","last_reported":1744100093,"current_range_meters":16000,"station_id":"ce4bhop2rcd13ifvqh8g","pricing_plan_id":"cebpf4jnsgd1na2vs0mg"},{"bike_id":"8d0bc70d-33f4-4d2b-bbf5-21a92da80363","system_id":"levelo_inurba_marseille","lat":43.28662,"lon":5.36347,"is_reserved":false,"is_disabled":false,"rental_uris":{"android":"levelo://app?vid=8d0bc70d-33f4-4d2b-bbf5-21a92da80363","ios":"levelo://app?vid=8d0bc70d-33f4-4d2b-bbf5-21a92da80363"},"vehicle_type_id":"4","last_reported":1744100093,"current_range_meters":16000,"station_id":"ce4bhah2rcd13ifvqej0","pricing_plan_id":"cebpf4jnsgd1na2vs0mg"},{"bike_id":"963c8010-06b3-47b1-b07c-1d268ac3a111","system_id":"levelo_inurba_marseille","lat":43.30532,"lon":5.36707,"is_reserved":false,"is_disabled":false,"rental_uris":{"android":"levelo://app?vid=963c8010-06b3-47b1-b07c-1d268ac3a111","ios":"levelo://app?vid=963c8010-06b3-47b1-b07c-1d268ac3a111"},"vehicle_type_id":"4","last_reported":1744100093,"current_range_meters":16400,"station_id":"ce4bgrp2rcd13ifvqc9g","pricing_plan_id":"cebpf4jnsgd1na2vs0mg"},{"bike_id":"71aa604c-6491-403d-b6de-93549d709257","system_id":"levelo_inurba_marseille","lat":43.30537,"lon":5.36702,"is_reserved":false,"is_disabled":true,"rental_uris":{"android":"levelo://app?vid=71aa604c-6491-403d-b6de-93549d709257","ios":"levelo://app?vid=71aa604c-6491-403d-b6de-93549d709257"},"vehicle_type_id":"4","last_reported":1744100093,"current_range_meters":16400,"station_id":"ce4bgrp2rcd13ifvqc9g","pricing_plan_id":"cebpf4jnsgd1na2vs0mg"},{"bike_id":"88b6c20a-1e83-45ef-95b7-26e97be5fe6a","system_id":"levelo_inurba_marseille","lat":43.29806,"lon":5.40396,"is_reserved":false,"is_disabled":false,"rental_uris":{"android":"levelo://app?vid=88b6c20a-1e83-45ef-95b7-26e97be5fe6a","ios":"levelo://app?vid=88b6c20a-1e83-45ef-95b7-26e97be5fe6a"},"vehicle_type_id":"4","last_reported":1744100093,"current_range_meters":16400,"station_id":"ce4bh112rcd13ifvqd90","pricing_plan_id":"cebpf4jnsgd1na2vs0mg"},{"bike_id":"9fec0371-5942-4b7c-9cc0-b6d7a3d1fd01","system_id":"levelo_inurba_marseille","lat":43.29508,"lon":5.39393,"is_reserved":false,"is_disabled":false,"rental_uris":{"android":"levelo://app?vid=9fec0371-5942-4b7c-9cc0-b6d7a3d1fd01","ios":"levelo://app?vid=9fec0371-5942-4b7c-9cc0-b6d7a3d1fd01"},"vehicle_type_id":"4","last_reported":1744100093,"current_range_meters":16400,"station_id":"ce4bh292rcd13ifvqdf0","pricing_plan_id":"cebpf4jnsgd1na2vs0mg"},{"bike_id":"b3eaef5b-dac9-4f1e-aa7e-dd808d1ba556","system_id":"levelo_inurba_marseille","lat":43.31351,"lon":5.36716,"is_reserved":false,"is_disabled":false,"rental_uris":{"android":"levelo://app?vid=b3eaef5b-dac9-4f1e-aa7e-dd808d1ba556","ios":"levelo://app?vid=b3eaef5b-dac9-4f1e-aa7e-dd808d1ba556"},"vehicle_type_id":"4","last_reported":1744100093,"current_range_meters":16400,"station_id":"","pricing_plan_id":"cebpf4jnsgd1na2vs0mg"},{"bike_id":"a1674ea7-f4ee-4b2f-bae5-57133e8704ee","system_id":"levelo_inurba_marseille","lat":43.30906,"lon":5.36845,"is_reserved":false,"is_disabled":false,"rental_uris":{"android":"levelo://app?vid=a1674ea7-f4ee-4b2f-bae5-57133e8704ee","ios":"levelo://app?vid=a1674ea7-f4ee-4b2f-bae5-57133e8704ee"},"vehicle_type_id":"4","last_reported":1744100093,"current_range_meters":16800,"station_id":"ce4bgn92rcd13ifvqbvg","pricing_plan_id":"cebpf4jnsgd1na2vs0mg"},{"bike_id":"ffd23061-d90c-47a4-89fb-f1646bcdff1c","system_id":"levelo_inurba_marseille","lat":43.27079,"lon":5.42294,"is_reserved":false,"is_disabled":true,"rental_uris":{"android":"levelo://app?vid=ffd23061-d90c-47a4-89fb-f1646bcdff1c","ios":"levelo://app?vid=ffd23061-d90c-47a4-89fb-f1646bcdff1c"},"vehicle_type_id":"4","last_reported":1744100093,"current_range_meters":16800,"station_id":"ce4bhk92rcd13ifvqgb0","pricing_plan_id":"cebpf4jnsgd1na2vs0mg"},{"bike_id":"c1ab22c3-8480-4c80-a462-a754e71d457d","system_id":"levelo_inurba_marseille","lat":43.314839,"lon":5.372919,"is_reserved":false,"is_disabled":false,"rental_uris":{"android":"levelo://app?vid=c1ab22c3-8480-4c80-a462-a754e71d457d","ios":"levelo://app?vid=c1ab22c3-8480-4c80-a462-a754e71d457d"},"vehicle_type_id":"4","last_reported":1744100093,"current_range_meters":16800,"station_id":"ce4bgt12rcd13ifvqcd0","pricing_plan_id":"cebpf4jnsgd1na2vs0mg"},{"bike_id":"da68898f-513e-4562-9685-4c6284864d89","system_id":"levelo_inurba_marseille","lat":43.27956,"lon":5.41043,"is_reserved":false,"is_disabled":true,"rental_uris":{"android":"levelo://app?vid=da68898f-513e-4562-9685-4c6284864d89","ios":"levelo://app?vid=da68898f-513e-4562-9685-4c6284864d89"},"vehicle_type_id":"4","last_reported":1744100093,"current_range_meters":16800,"station_id":"ce4bhnp2rcd13ifvqh0g","pricing_plan_id":"cebpf4jnsgd1na2vs0mg"},{"bike_id":"fc612322-de86-4313-9191-710d228f1db1","system_id":"levelo_inurba_marseille","lat":43.3053,"lon":5.36716,"is_reserved":false,"is_disabled":false,"rental_uris":{"android":"levelo://app?vid=fc612322-de86-4313-9191-710d228f1db1","ios":"levelo://app?vid=fc612322-de86-4313-9191-710d228f1db1"},"vehicle_type_id":"4","last_reported":1744100093,"current_range_meters":16800,"station_id":"ce4bgrp2rcd13ifvqc9g","pricing_plan_id":"cebpf4jnsgd1na2vs0mg"},{"bike_id":"e550d74a-e830-4a4b-91fb-45079a405831","system_id":"levelo_inurba_marseille","lat":43.33014,"lon":5.39029,"is_reserved":false,"is_disabled":false,"rental_uris":{"android":"levelo://app?vid=e550d74a-e830-4a4b-91fb-45079a405831","ios":"levelo://app?vid=e550d74a-e830-4a4b-91fb-45079a405831"},"vehicle_type_id":"4","last_reported":1744100093,"current_range_meters":17200,"station_id":"ce4bhr92rcd13ifvqhrg","pricing_plan_id":"cebpf4jnsgd1na2vs0mg"},{"bike_id":"00393ee2-317d-4e98-a30d-fd25773ef49f","system_id":"levelo_inurba_marseille","lat":43.33729,"lon":5.39179,"is_reserved":false,"is_disabled":false,"rental_uris":{"android":"levelo://app?vid=00393ee2-317d-4e98-a30d-fd25773ef49f","ios":"levelo://app?vid=00393ee2-317d-4e98-a30d-fd25773ef49f"},"vehicle_type_id":"4","last_reported":1744100093,"current_range_meters":16800,"station_id":"ce4bhr92rcd13ifvqhsg","pricing_plan_id":"cebpf4jnsgd1na2vs0mg"},{"bike_id":"92c822fe-ff9f-4023-a7a2-fe479a6e58f0","system_id":"levelo_inurba_marseille","lat":43.30539,"lon":5.36531,"is_reserved":false,"is_disabled":false,"rental_uris":{"android":"levelo://app?vid=92c822fe-ff9f-4023-a7a2-fe479a6e58f0","ios":"levelo://app?vid=92c822fe-ff9f-4023-a7a2-fe479a6e58f0"},"vehicle_type_id":"4","last_reported":1744100093,"current_range_meters":17200,"station_id":"ce4bgs12rcd13ifvqcag","pricing_plan_id":"cebpf4jnsgd1na2vs0mg"},{"bike_id":"e24c6fd3-f9cb-40c7-9e57-dd2c20540e9b","system_id":"levelo_inurba_marseille","lat":43.33084,"lon":5.40809,"is_reserved":false,"is_disabled":true,"rental_uris":{"android":"levelo://app?vid=e24c6fd3-f9cb-40c7-9e57-dd2c20540e9b","ios":"levelo://app?vid=e24c6fd3-f9cb-40c7-9e57-dd2c20540e9b"},"vehicle_type_id":"4","last_reported":1744100093,"current_range_meters":17200,"station_id":"","pricing_plan_id":"cebpf4jnsgd1na2vs0mg"},{"bike_id":"ce641620-c7c1-4693-8c90-e4348aa1a019","system_id":"levelo_inurba_marseille","lat":43.30371,"lon":5.42488,"is_reserved":false,"is_disabled":false,"rental_uris":{"android":"levelo://app?vid=ce641620-c7c1-4693-8c90-e4348aa1a019","ios":"levelo://app?vid=ce641620-c7c1-4693-8c90-e4348aa1a019"},"vehicle_type_id":"4","last_reported":1744100093,"current_range_meters":17200,"station_id":"ce4bhoh2rcd13ifvqh6g","pricing_plan_id":"cebpf4jnsgd1na2vs0mg"},{"bike_id":"e41e3d45-5795-4963-8a5e-14be782be993","system_id":"levelo_inurba_marseille","lat":43.30533,"lon":5.36512,"is_reserved":false,"is_disabled":false,"rental_uris":{"android":"levelo://app?vid=e41e3d45-5795-4963-8a5e-14be782be993","ios":"levelo://app?vid=e41e3d45-5795-4963-8a5e-14be782be993"},"vehicle_type_id":"4","last_reported":1744100093,"current_range_meters":17200,"station_id":"ce4bgs12rcd13ifvqcag","pricing_plan_id":"cebpf4jnsgd1na2vs0mg"},{"bike_id":"486607d2-83f1-40ec-be7e-bbb19553a2c2","system_id":"levelo_inurba_marseille","lat":43.30288,"lon":5.3771,"is_reserved":false,"is_disabled":false,"rental_uris":{"android":"levelo://app?vid=486607d2-83f1-40ec-be7e-bbb19553a2c2","ios":"levelo://app?vid=486607d2-83f1-40ec-be7e-bbb19553a2c2"},"vehicle_type_id":"4","last_reported":1744100093,"current_range_meters":17200,"station_id":"ce4bguh2rcd13ifvqcj0","pricing_plan_id":"cebpf4jnsgd1na2vs0mg"},{"bike_id":"be040bda-fc29-43d8-a246-9c808bf8b01f","system_id":"levelo_inurba_marseille","lat":43.3092,"lon":5.36848,"is_reserved":false,"is_disabled":false,"rental_uris":{"android":"levelo://app?vid=be040bda-fc29-43d8-a246-9c808bf8b01f","ios":"levelo://app?vid=be040bda-fc29-43d8-a246-9c808bf8b01f"},"vehicle_type_id":"4","last_reported":1744100093,"current_range_meters":17200,"station_id":"ce4bgn92rcd13ifvqbvg","pricing_plan_id":"cebpf4jnsgd1na2vs0mg"},{"bike_id":"f9dfa114-9392-45ea-82d5-7f9c22d73bc6","system_id":"levelo_inurba_marseille","lat":43.29853,"lon":5.36283,"is_reserved":false,"is_disabled":false,"rental_uris":{"android":"levelo://app?vid=f9dfa114-9392-45ea-82d5-7f9c22d73bc6","ios":"levelo://app?vid=f9dfa114-9392-45ea-82d5-7f9c22d73bc6"},"vehicle_type_id":"4","last_reported":1744100093,"current_range_meters":17600,"station_id":"ce4bgpp2rcd13ifvqc3g","pricing_plan_id":"cebpf4jnsgd1na2vs0mg"},{"bike_id":"55b689c9-c987-4a94-b1e1-0829707d58a3","system_id":"levelo_inurba_marseille","lat":43.232213,"lon":5.355788,"is_reserved":false,"is_disabled":false,"rental_uris":{"android":"levelo://app?vid=55b689c9-c987-4a94-b1e1-0829707d58a3","ios":"levelo://app?vid=55b689c9-c987-4a94-b1e1-0829707d58a3"},"vehicle_type_id":"4","last_reported":1744100093,"current_range_meters":18000,"station_id":"ce4bhu92rcd13ifvqi70","pricing_plan_id":"cebpf4jnsgd1na2vs0mg"},{"bike_id":"85184727-c66a-4e80-a87a-1dc90da0022f","system_id":"levelo_inurba_marseille","lat":43.29172,"lon":5.37156,"is_reserved":false,"is_disabled":false,"rental_uris":{"android":"levelo://app?vid=85184727-c66a-4e80-a87a-1dc90da0022f","ios":"levelo://app?vid=85184727-c66a-4e80-a87a-1dc90da0022f"},"vehicle_type_id":"4","last_reported":1744100093,"current_range_meters":18000,"station_id":"ce4bha92rcd13ifvqeh0","pricing_plan_id":"cebpf4jnsgd1na2vs0mg"},{"bike_id":"3f782e5d-7bba-4743-b82b-72e64732444f","system_id":"levelo_inurba_marseille","lat":43.26681,"lon":5.38275,"is_reserved":false,"is_disabled":false,"rental_uris":{"android":"levelo://app?vid=3f782e5d-7bba-4743-b82b-72e64732444f","ios":"levelo://app?vid=3f782e5d-7bba-4743-b82b-72e64732444f"},"vehicle_type_id":"4","last_reported":1744100093,"current_range_meters":18000,"station_id":"ce4bhg92rcd13ifvqf90","pricing_plan_id":"cebpf4jnsgd1na2vs0mg"},{"bike_id":"3656c20c-eb1e-4ae4-9294-cf1933f151b7","system_id":"levelo_inurba_marseille","lat":43.24177,"lon":5.39733,"is_reserved":false,"is_disabled":false,"rental_uris":{"android":"levelo://app?vid=3656c20c-eb1e-4ae4-9294-cf1933f151b7","ios":"levelo://app?vid=3656c20c-eb1e-4ae4-9294-cf1933f151b7"},"vehicle_type_id":"4","last_reported":1744100093,"current_range_meters":18000,"station_id":"ce4bhn12rcd13ifvqgpg","pricing_plan_id":"cebpf4jnsgd1na2vs0mg"},{"bike_id":"a9bbbd5e-3974-47e1-a5fd-f5a9a3e9e971","system_id":"levelo_inurba_marseille","lat":43.30913,"lon":5.3685,"is_reserved":false,"is_disabled":false,"rental_uris":{"android":"levelo://app?vid=a9bbbd5e-3974-47e1-a5fd-f5a9a3e9e971","ios":"levelo://app?vid=a9bbbd5e-3974-47e1-a5fd-f5a9a3e9e971"},"vehicle_type_id":"4","last_reported":1744100093,"current_range_meters":18000,"station_id":"ce4bgn92rcd13ifvqbvg","pricing_plan_id":"cebpf4jnsgd1na2vs0mg"},{"bike_id":"5601ba45-e3e8-42fe-8a68-10d46f765359","system_id":"levelo_inurba_marseille","lat":43.2678,"lon":5.39424,"is_reserved":false,"is_disabled":false,"rental_uris":{"android":"levelo://app?vid=5601ba45-e3e8-42fe-8a68-10d46f765359","ios":"levelo://app?vid=5601ba45-e3e8-42fe-8a68-10d46f765359"},"vehicle_type_id":"4","last_reported":1744100093,"current_range_meters":18000,"station_id":"ce4bhh12rcd13ifvqfg0","pricing_plan_id":"cebpf4jnsgd1na2vs0mg"},{"bike_id":"5c084113-5098-4718-9eb9-681f243436d8","system_id":"levelo_inurba_marseille","lat":43.31372,"lon":5.36721,"is_reserved":false,"is_disabled":false,"rental_uris":{"android":"levelo://app?vid=5c084113-5098-4718-9eb9-681f243436d8","ios":"levelo://app?vid=5c084113-5098-4718-9eb9-681f243436d8"},"vehicle_type_id":"4","last_reported":1744100093,"current_range_meters":18000,"station_id":"","pricing_plan_id":"cebpf4jnsgd1na2vs0mg"},{"bike_id":"91bd852d-7199-41a1-a730-48cf20ff3d40","system_id":"levelo_inurba_marseille","lat":43.2558,"lon":5.38212,"is_reserved":false,"is_disabled":false,"rental_uris":{"android":"levelo://app?vid=91bd852d-7199-41a1-a730-48cf20ff3d40","ios":"levelo://app?vid=91bd852d-7199-41a1-a730-48cf20ff3d40"},"vehicle_type_id":"4","last_reported":1744100093,"current_range_meters":18000,"station_id":"ce4bhih2rcd13ifvqfs0","pricing_plan_id":"cebpf4jnsgd1na2vs0mg"},{"bike_id":"ff41a0fe-f825-4e7b-ab7a-9d0a61ab471c","system_id":"levelo_inurba_marseille","lat":43.30736,"lon":5.42445,"is_reserved":false,"is_disabled":false,"rental_uris":{"android":"levelo://app?vid=ff41a0fe-f825-4e7b-ab7a-9d0a61ab471c","ios":"levelo://app?vid=ff41a0fe-f825-4e7b-ab7a-9d0a61ab471c"},"vehicle_type_id":"4","last_reported":1744100093,"current_range_meters":18000,"station_id":"st_cvj6ca6bvosntc0bfgr0","pricing_plan_id":"cebpf4jnsgd1na2vs0mg"},{"bike_id":"5134ac2e-9f46-4e89-87ea-8d823d92e704","system_id":"levelo_inurba_marseille","lat":43.31683,"lon":5.40461,"is_reserved":false,"is_disabled":false,"rental_uris":{"android":"levelo://app?vid=5134ac2e-9f46-4e89-87ea-8d823d92e704","ios":"levelo://app?vid=5134ac2e-9f46-4e89-87ea-8d823d92e704"},"vehicle_type_id":"4","last_reported":1744100093,"current_range_meters":18000,"station_id":"ce4bh012rcd13ifvqd00","pricing_plan_id":"cebpf4jnsgd1na2vs0mg"},{"bike_id":"5273534c-3473-4abd-9c4b-e677a5c1499a","system_id":"levelo_inurba_marseille","lat":43.29038,"lon":5.36957,"is_reserved":false,"is_disabled":false,"rental_uris":{"android":"levelo://app?vid=5273534c-3473-4abd-9c4b-e677a5c1499a","ios":"levelo://app?vid=5273534c-3473-4abd-9c4b-e677a5c1499a"},"vehicle_type_id":"4","last_reported":1744100093,"current_range_meters":18000,"station_id":"","pricing_plan_id":"cebpf4jnsgd1na2vs0mg"},{"bike_id":"1e099cf5-9456-4ac3-8d36-9153ce8a87f2","system_id":"levelo_inurba_marseille","lat":43.29591,"lon":5.39964,"is_reserved":false,"is_disabled":true,"rental_uris":{"android":"levelo://app?vid=1e099cf5-9456-4ac3-8d36-9153ce8a87f2","ios":"levelo://app?vid=1e099cf5-9456-4ac3-8d36-9153ce8a87f2"},"vehicle_type_id":"4","last_reported":1744100093,"current_range_meters":18800,"station_id":"ce4bh312rcd13ifvqdj0","pricing_plan_id":"cebpf4jnsgd1na2vs0mg"},{"bike_id":"f619c15e-1941-443d-8ef4-21a7cd257551","system_id":"levelo_inurba_marseille","lat":43.30546,"lon":5.36692,"is_reserved":false,"is_disabled":false,"rental_uris":{"android":"levelo://app?vid=f619c15e-1941-443d-8ef4-21a7cd257551","ios":"levelo://app?vid=f619c15e-1941-443d-8ef4-21a7cd257551"},"vehicle_type_id":"4","last_reported":1744100093,"current_range_meters":18800,"station_id":"ce4bgrp2rcd13ifvqc9g","pricing_plan_id":"cebpf4jnsgd1na2vs0mg"},{"bike_id":"b1d07fa2-22ad-4c7c-9a40-a6f39b2cacee","system_id":"levelo_inurba_marseille","lat":43.30906,"lon":5.36855,"is_reserved":false,"is_disabled":false,"rental_uris":{"android":"levelo://app?vid=b1d07fa2-22ad-4c7c-9a40-a6f39b2cacee","ios":"levelo://app?vid=b1d07fa2-22ad-4c7c-9a40-a6f39b2cacee"},"vehicle_type_id":"4","last_reported":1744100093,"current_range_meters":18800,"station_id":"ce4bgn92rcd13ifvqbvg","pricing_plan_id":"cebpf4jnsgd1na2vs0mg"},{"bike_id":"27768073-dde6-48e9-bf13-e40e2934834a","system_id":"levelo_inurba_marseille","lat":43.24161,"lon":5.39727,"is_reserved":false,"is_disabled":false,"rental_uris":{"android":"levelo://app?vid=27768073-dde6-48e9-bf13-e40e2934834a","ios":"levelo://app?vid=27768073-dde6-48e9-bf13-e40e2934834a"},"vehicle_type_id":"4","last_reported":1744100093,"current_range_meters":18800,"station_id":"ce4bhn12rcd13ifvqgpg","pricing_plan_id":"cebpf4jnsgd1na2vs0mg"},{"bike_id":"52dfef30-eef0-4dd6-a138-a48c8dcc2c3a","system_id":"levelo_inurba_marseille","lat":43.30397,"lon":5.42764,"is_reserved":false,"is_disabled":true,"rental_uris":{"android":"levelo://app?vid=52dfef30-eef0-4dd6-a138-a48c8dcc2c3a","ios":"levelo://app?vid=52dfef30-eef0-4dd6-a138-a48c8dcc2c3a"},"vehicle_type_id":"4","last_reported":1744100093,"current_range_meters":18800,"station_id":"","pricing_plan_id":"cebpf4jnsgd1na2vs0mg"},{"bike_id":"1ceb6dc5-480f-44cd-b4b8-03aaf9a43aba","system_id":"levelo_inurba_marseille","lat":43.31483,"lon":5.37306,"is_reserved":false,"is_disabled":false,"rental_uris":{"android":"levelo://app?vid=1ceb6dc5-480f-44cd-b4b8-03aaf9a43aba","ios":"levelo://app?vid=1ceb6dc5-480f-44cd-b4b8-03aaf9a43aba"},"vehicle_type_id":"4","last_reported":1744100093,"current_range_meters":18800,"station_id":"ce4bgt12rcd13ifvqcd0","pricing_plan_id":"cebpf4jnsgd1na2vs0mg"},{"bike_id":"f4fd5d61-b8a6-4a5f-8cf6-e19845bbf44c","system_id":"levelo_inurba_marseille","lat":43.28694,"lon":5.37392,"is_reserved":false,"is_disabled":false,"rental_uris":{"android":"levelo://app?vid=f4fd5d61-b8a6-4a5f-8cf6-e19845bbf44c","ios":"levelo://app?vid=f4fd5d61-b8a6-4a5f-8cf6-e19845bbf44c"},"vehicle_type_id":"4","last_reported":1744100093,"current_range_meters":18800,"station_id":"ce4bh3p2rcd13ifvqdq0","pricing_plan_id":"cebpf4jnsgd1na2vs0mg"},{"bike_id":"44177a0e-05fc-42ce-9fe6-f0c6eb6aee7a","system_id":"levelo_inurba_marseille","lat":43.28454,"lon":5.35895,"is_reserved":false,"is_disabled":true,"rental_uris":{"android":"levelo://app?vid=44177a0e-05fc-42ce-9fe6-f0c6eb6aee7a","ios":"levelo://app?vid=44177a0e-05fc-42ce-9fe6-f0c6eb6aee7a"},"vehicle_type_id":"4","last_reported":1744100093,"current_range_meters":18800,"station_id":"ce4bhah2rcd13ifvqei0","pricing_plan_id":"cebpf4jnsgd1na2vs0mg"},{"bike_id":"e6d7ac3a-6b7d-4b55-b4b1-8b605a8ea6cb","system_id":"levelo_inurba_marseille","lat":43.27919,"lon":5.39581,"is_reserved":false,"is_disabled":false,"rental_uris":{"android":"levelo://app?vid=e6d7ac3a-6b7d-4b55-b4b1-8b605a8ea6cb","ios":"levelo://app?vid=e6d7ac3a-6b7d-4b55-b4b1-8b605a8ea6cb"},"vehicle_type_id":"4","last_reported":1744100093,"current_range_meters":18800,"station_id":"ce4bhf92rcd13ifvqf40","pricing_plan_id":"cebpf4jnsgd1na2vs0mg"},{"bike_id":"ebe58abd-e740-43ed-85e6-f6ed0fd536f4","system_id":"levelo_inurba_marseille","lat":43.30275,"lon":5.37705,"is_reserved":false,"is_disabled":false,"rental_uris":{"android":"levelo://app?vid=ebe58abd-e740-43ed-85e6-f6ed0fd536f4","ios":"levelo://app?vid=ebe58abd-e740-43ed-85e6-f6ed0fd536f4"},"vehicle_type_id":"4","last_reported":1744100093,"current_range_meters":18800,"station_id":"ce4bguh2rcd13ifvqcj0","pricing_plan_id":"cebpf4jnsgd1na2vs0mg"},{"bike_id":"45d83681-f2eb-4a39-a20c-4022ba893ea0","system_id":"levelo_inurba_marseille","lat":43.33748,"lon":5.39182,"is_reserved":false,"is_disabled":false,"rental_uris":{"android":"levelo://app?vid=45d83681-f2eb-4a39-a20c-4022ba893ea0","ios":"levelo://app?vid=45d83681-f2eb-4a39-a20c-4022ba893ea0"},"vehicle_type_id":"4","last_reported":1744100093,"current_range_meters":18800,"station_id":"ce4bhr92rcd13ifvqhsg","pricing_plan_id":"cebpf4jnsgd1na2vs0mg"},{"bike_id":"5f434b04-e3fa-4a88-9489-020ea8c069ed","system_id":"levelo_inurba_marseille","lat":43.27811,"lon":5.40712,"is_reserved":false,"is_disabled":false,"rental_uris":{"android":"levelo://app?vid=5f434b04-e3fa-4a88-9489-020ea8c069ed","ios":"levelo://app?vid=5f434b04-e3fa-4a88-9489-020ea8c069ed"},"vehicle_type_id":"4","last_reported":1744100093,"current_range_meters":18800,"station_id":"ce4bhnh2rcd13ifvqgtg","pricing_plan_id":"cebpf4jnsgd1na2vs0mg"},{"bike_id":"ec285f36-ea65-4117-98df-4323160f2275","system_id":"levelo_inurba_marseille","lat":43.23147,"lon":5.43725,"is_reserved":false,"is_disabled":false,"rental_uris":{"android":"levelo://app?vid=ec285f36-ea65-4117-98df-4323160f2275","ios":"levelo://app?vid=ec285f36-ea65-4117-98df-4323160f2275"},"vehicle_type_id":"4","last_reported":1744100093,"current_range_meters":19200,"station_id":"ce4bhmp2rcd13ifvqgog","pricing_plan_id":"cebpf4jnsgd1na2vs0mg"},{"bike_id":"85ca76bd-1ca9-4bf3-8688-4bec7e7d520c","system_id":"levelo_inurba_marseille","lat":43.295303,"lon":5.375029,"is_reserved":false,"is_disabled":false,"rental_uris":{"android":"levelo://app?vid=85ca76bd-1ca9-4bf3-8688-4bec7e7d520c","ios":"levelo://app?vid=85ca76bd-1ca9-4bf3-8688-4bec7e7d520c"},"vehicle_type_id":"4","last_reported":1744100093,"current_range_meters":19200,"station_id":"ce4bgkp2rcd13ifvqbmg","pricing_plan_id":"cebpf4jnsgd1na2vs0mg"},{"bike_id":"18d6813f-5b01-46a8-837e-8518809234fb","system_id":"levelo_inurba_marseille","lat":43.25874,"lon":5.39892,"is_reserved":false,"is_disabled":false,"rental_uris":{"android":"levelo://app?vid=18d6813f-5b01-46a8-837e-8518809234fb","ios":"levelo://app?vid=18d6813f-5b01-46a8-837e-8518809234fb"},"vehicle_type_id":"4","last_reported":1744100093,"current_range_meters":19200,"station_id":"ce4bhl92rcd13ifvqghg","pricing_plan_id":"cebpf4jnsgd1na2vs0mg"},{"bike_id":"1a8aa8cd-fb42-4eeb-bdd2-04bf13339d3b","system_id":"levelo_inurba_marseille","lat":43.28699,"lon":5.39964,"is_reserved":false,"is_disabled":false,"rental_uris":{"android":"levelo://app?vid=1a8aa8cd-fb42-4eeb-bdd2-04bf13339d3b","ios":"levelo://app?vid=1a8aa8cd-fb42-4eeb-bdd2-04bf13339d3b"},"vehicle_type_id":"4","last_reported":1744100093,"current_range_meters":19200,"station_id":"ce4bho92rcd13ifvqh3g","pricing_plan_id":"cebpf4jnsgd1na2vs0mg"},{"bike_id":"19560ba7-702b-45d0-ab40-cdf504801ead","system_id":"levelo_inurba_marseille","lat":43.31513,"lon":5.37289,"is_reserved":false,"is_disabled":false,"rental_uris":{"android":"levelo://app?vid=19560ba7-702b-45d0-ab40-cdf504801ead","ios":"levelo://app?vid=19560ba7-702b-45d0-ab40-cdf504801ead"},"vehicle_type_id":"4","last_reported":1744100093,"current_range_meters":19200,"station_id":"ce4bgt12rcd13ifvqcd0","pricing_plan_id":"cebpf4jnsgd1na2vs0mg"},{"bike_id":"b37944fb-f9c1-4c8e-ac3a-9da227afb433","system_id":"levelo_inurba_marseille","lat":43.30809,"lon":5.38142,"is_reserved":false,"is_disabled":true,"rental_uris":{"android":"levelo://app?vid=b37944fb-f9c1-4c8e-ac3a-9da227afb433","ios":"levelo://app?vid=b37944fb-f9c1-4c8e-ac3a-9da227afb433"},"vehicle_type_id":"4","last_reported":1744100093,"current_range_meters":19200,"station_id":"ce4bgt12rcd13ifvqce0","pricing_plan_id":"cebpf4jnsgd1na2vs0mg"},{"bike_id":"d96ee690-cfc3-4fac-ab18-7a978bb917dd","system_id":"levelo_inurba_marseille","lat":43.30785,"lon":5.37656,"is_reserved":false,"is_disabled":true,"rental_uris":{"android":"levelo://app?vid=d96ee690-cfc3-4fac-ab18-7a978bb917dd","ios":"levelo://app?vid=d96ee690-cfc3-4fac-ab18-7a978bb917dd"},"vehicle_type_id":"4","last_reported":1744100093,"current_range_meters":19600,"station_id":"ce4bgv92rcd13ifvqcq0","pricing_plan_id":"cebpf4jnsgd1na2vs0mg"},{"bike_id":"9b037c0e-68e8-413d-9e6f-c325a966579e","system_id":"levelo_inurba_marseille","lat":43.30546,"lon":5.36526,"is_reserved":false,"is_disabled":false,"rental_uris":{"android":"levelo://app?vid=9b037c0e-68e8-413d-9e6f-c325a966579e","ios":"levelo://app?vid=9b037c0e-68e8-413d-9e6f-c325a966579e"},"vehicle_type_id":"4","last_reported":1744100093,"current_range_meters":19600,"station_id":"ce4bgs12rcd13ifvqcag","pricing_plan_id":"cebpf4jnsgd1na2vs0mg"},{"bike_id":"db9c49d6-af4b-4943-8154-7ec735934474","system_id":"levelo_inurba_marseille","lat":43.26491,"lon":5.39547,"is_reserved":false,"is_disabled":false,"rental_uris":{"android":"levelo://app?vid=db9c49d6-af4b-4943-8154-7ec735934474","ios":"levelo://app?vid=db9c49d6-af4b-4943-8154-7ec735934474"},"vehicle_type_id":"4","last_reported":1744100093,"current_range_meters":19600,"station_id":"ce4bhi12rcd13ifvqfq0","pricing_plan_id":"cebpf4jnsgd1na2vs0mg"},{"bike_id":"ef77e040-5293-494f-b7a1-c621326c4ce9","system_id":"levelo_inurba_marseille","lat":43.31363,"lon":5.36714,"is_reserved":false,"is_disabled":false,"rental_uris":{"android":"levelo://app?vid=ef77e040-5293-494f-b7a1-c621326c4ce9","ios":"levelo://app?vid=ef77e040-5293-494f-b7a1-c621326c4ce9"},"vehicle_type_id":"4","last_reported":1744100093,"current_range_meters":19600,"station_id":"ce4bgr92rcd13ifvqc6g","pricing_plan_id":"cebpf4jnsgd1na2vs0mg"},{"bike_id":"e82000b7-29b1-4d27-9ac2-a4aedbc547c5","system_id":"levelo_inurba_marseille","lat":43.23148,"lon":5.43713,"is_reserved":false,"is_disabled":false,"rental_uris":{"android":"levelo://app?vid=e82000b7-29b1-4d27-9ac2-a4aedbc547c5","ios":"levelo://app?vid=e82000b7-29b1-4d27-9ac2-a4aedbc547c5"},"vehicle_type_id":"4","last_reported":1744100093,"current_range_meters":19600,"station_id":"ce4bhmp2rcd13ifvqgog","pricing_plan_id":"cebpf4jnsgd1na2vs0mg"},{"bike_id":"02981630-7516-41a6-a4f6-33689d857d7d","system_id":"levelo_inurba_marseille","lat":43.25108,"lon":5.40323,"is_reserved":false,"is_disabled":false,"rental_uris":{"android":"levelo://app?vid=02981630-7516-41a6-a4f6-33689d857d7d","ios":"levelo://app?vid=02981630-7516-41a6-a4f6-33689d857d7d"},"vehicle_type_id":"4","last_reported":1744100093,"current_range_meters":20000,"station_id":"ce4bhlh2rcd13ifvqgig","pricing_plan_id":"cebpf4jnsgd1na2vs0mg"},{"bike_id":"769559ce-530f-498a-8d01-bd1225057f98","system_id":"levelo_inurba_marseille","lat":43.24547,"lon":5.39516,"is_reserved":false,"is_disabled":false,"rental_uris":{"android":"levelo://app?vid=769559ce-530f-498a-8d01-bd1225057f98","ios":"levelo://app?vid=769559ce-530f-498a-8d01-bd1225057f98"},"vehicle_type_id":"4","last_reported":1744100093,"current_range_meters":19600,"station_id":"ce4bhlp2rcd13ifvqgjg","pricing_plan_id":"cebpf4jnsgd1na2vs0mg"},{"bike_id":"d7b2134e-575c-40f1-9b3b-0ad40ab4b220","system_id":"levelo_inurba_marseille","lat":43.29831,"lon":5.43663,"is_reserved":false,"is_disabled":false,"rental_uris":{"android":"levelo://app?vid=d7b2134e-575c-40f1-9b3b-0ad40ab4b220","ios":"levelo://app?vid=d7b2134e-575c-40f1-9b3b-0ad40ab4b220"},"vehicle_type_id":"4","last_reported":1744100093,"current_range_meters":19600,"station_id":"","pricing_plan_id":"cebpf4jnsgd1na2vs0mg"},{"bike_id":"2d68af3e-e546-45f8-bb32-b87722e27121","system_id":"levelo_inurba_marseille","lat":43.290682,"lon":5.399553,"is_reserved":false,"is_disabled":false,"rental_uris":{"android":"levelo://app?vid=2d68af3e-e546-45f8-bb32-b87722e27121","ios":"levelo://app?vid=2d68af3e-e546-45f8-bb32-b87722e27121"},"vehicle_type_id":"4","last_reported":1744100093,"current_range_meters":20000,"station_id":"ce4bghh2rcd13ifvqb60","pricing_plan_id":"cebpf4jnsgd1na2vs0mg"},{"bike_id":"2b6a2a7e-7467-40cc-9738-844f23732b59","system_id":"levelo_inurba_marseille","lat":43.336,"lon":5.4103,"is_reserved":false,"is_disabled":false,"rental_uris":{"android":"levelo://app?vid=2b6a2a7e-7467-40cc-9738-844f23732b59","ios":"levelo://app?vid=2b6a2a7e-7467-40cc-9738-844f23732b59"},"vehicle_type_id":"4","last_reported":1744100093,"current_range_meters":20000,"station_id":"ce4bhqh2rcd13ifvqhmg","pricing_plan_id":"cebpf4jnsgd1na2vs0mg"},{"bike_id":"0095d2a4-c552-434c-af74-f9ea889d4984","system_id":"levelo_inurba_marseille","lat":43.24743,"lon":5.4117,"is_reserved":false,"is_disabled":false,"rental_uris":{"android":"levelo://app?vid=0095d2a4-c552-434c-af74-f9ea889d4984","ios":"levelo://app?vid=0095d2a4-c552-434c-af74-f9ea889d4984"},"vehicle_type_id":"4","last_reported":1744100093,"current_range_meters":20000,"station_id":"","pricing_plan_id":"cebpf4jnsgd1na2vs0mg"},{"bike_id":"c1c63035-c83b-4419-8cbf-133778d95125","system_id":"levelo_inurba_marseille","lat":43.29789,"lon":5.393515,"is_reserved":false,"is_disabled":true,"rental_uris":{"android":"levelo://app?vid=c1c63035-c83b-4419-8cbf-133778d95125","ios":"levelo://app?vid=c1c63035-c83b-4419-8cbf-133778d95125"},"vehicle_type_id":"4","last_reported":1744100093,"current_range_meters":20000,"station_id":"chh1huq6cuj3fo74tm60","pricing_plan_id":"cebpf4jnsgd1na2vs0mg"},