{"last_updated":1730815692,"ttl":60,"version":"2.2","data":{"bikes":[{"bike_id":"6bfde551-d017-47aa-9e48-b6668d378cc8","system_id":"levelo_inurba_marseille","lat":43.34141,"lon":5.40929,"is_reserved":false,"is_disabled":false,"rental_uris":{"android":"levelo://app?vid=6bfde551-d017-47aa-9e48-b6668d378cc8","ios":"levelo://app?vid=6bfde551-d017-47aa-9e48-b6668d378cc8"},"vehicle_type_id":"4","last_reported":1730815692,"current_range_meters":17200,"station_id":"ce4bhqh2rcd13ifvqhlg","pricing_plan_id":"cebpf4jnsgd1na2vs0mg"},{"bike_id":"dc471b95-6995-431b-ac79-6c433768b500","system_id":"levelo_inurba_marseille","lat":43.27846,"lon":5.39211,"is_reserved":false,"is_disabled":false,"rental_uris":{"android":"levelo://app?vid=dc471b95-6995-431b-ac79-6c433768b500","ios":"levelo://app?vid=dc471b95-6995-431b-ac79-6c433768b500"},"vehicle_type_id":"4","last_reported":1730815692,"current_range_meters":33200,"station_id":"ce4bhjp2rcd13ifvqga0","pricing_plan_id":"cebpf4jnsgd1na2vs0mg"},{"bike_id":"481943d8-728f-424e-9f8c-0e68a1156393","system_id":"levelo_inurba_marseille","lat":43.28356,"lon":5.38103,"is_reserved":false,"is_disabled":false,"rental_uris":{"android":"levelo://app?vid=481943d8-728f-424e-9f8c-0e68a1156393","ios":"levelo://app?vid=481943d8-728f-424e-9f8c-0e68a1156393"},"vehicle_type_id":"4","last_reported":1730815692,"current_range_meters":11200,"station_id":"ce4bh412rcd13ifvqdr0","pricing_plan_id":"cebpf4jnsgd1na2vs0mg"},{"bike_id":"3675d184-4550-4970-9661-d3d7f50009e5","system_id":"levelo_inurba_marseille","lat":43.31343,"lon":5.36716,"is_reserved":false,"is_disabled":false,"rental_uris":{"android":"levelo://app?vid=3675d184-4550-4970-9661-d3d7f50009e5","ios":"levelo://app?vid=3675d184-4550-4970-9661-d3d7f50009e5"},"vehicle_type_id":"4","last_reported":1730815692,"current_range_meters":22000,"station_id":"ce4bgr92rcd13ifvqc6g","pricing_plan_id":"cebpf4jnsgd1na2vs0mg"},{"bike_id":"0e533788-700a-476f-95b3-8de43ae40fca","system_id":"levelo_inurba_marseille","lat":43.26031,"lon":5.37549,"is_reserved":false,"is_disabled":false,"rental_uris":{"android":"levelo://app?vid=0e533788-700a-476f-95b3-8de43ae40fca","ios":"levelo://app?vid=0e533788-700a-476f-95b3-8de43ae40fca"},"vehicle_type_id":"4","last_reported":1730815692,"current_range_meters":7200,"station_id":"ce4bhgh2rcd13ifvqfa0","pricing_plan_id":"cebpf4jnsgd1na2vs0mg"},{"bike_id":"23a683a1-a2bf-4dd6-9512-83a362d09877","system_id":"levelo_inurba_marseille","lat":43.30313,"lon":5.40446,"is_reserved":false,"is_disabled":false,"rental_uris":{"android":"levelo://app?vid=23a683a1-a2bf-4dd6-9512-83a362d09877","ios":"levelo://app?vid=23a683a1-a2bf-4dd6-9512-83a362d09877"},"vehicle_type_id":"4","last_reported":1730815692,"current_range_meters":21600,"station_id":"ce4bh012rcd13ifvqd10","pricing_plan_id":"cebpf4jnsgd1na2vs0mg"},{"bike_id":"2f421261-a528-4395-8a49-c894b9963f0b","system_id":"levelo_inurba_marseille","lat":43.30128,"lon":5.39895,"is_reserved":false,"is_disabled":false,"rental_uris":{"android":"levelo://app?vid=2f421261-a528-4395-8a49-c894b9963f0b","ios":"levelo://app?vid=2f421261-a528-4395-8a49-c894b9963f0b"},"vehicle_type_id":"4","last_reported":1730815692,"current_range_meters":26800,"station_id":"ce4bh0h2rcd13ifvqd40","pricing_plan_id":"cebpf4jnsgd1na2vs0mg"},{"bike_id":"106afaf5-e65d-4ddf-897a-3431a2e51234","system_id":"levelo_inurba_marseille","lat":43.308033,"lon":5.381369,"is_reserved":false,"is_disabled":false,"rental_uris":{"android":"levelo://app?vid=106afaf5-e65d-4ddf-897a-3431a2e51234","ios":"levelo://app?vid=106afaf5-e65d-4ddf-897a-3431a2e51234"},"vehicle_type_id":"4","last_reported":1730815692,"current_range_meters":22000,"station_id":"ce4bh492rcd13ifvqdug","pricing_plan_id":"cebpf4jnsgd1na2vs0mg"},{"bike_id":"39845523-e4e0-46ef-9c5e-9cac0835f6ae","system_id":"levelo_inurba_marseille","lat":43.29087,"lon":5.37176,"is_reserved":false,"is_disabled":false,"rental_uris":{"android":"levelo://app?vid=39845523-e4e0-46ef-9c5e-9cac0835f6ae","ios":"levelo://app?vid=39845523-e4e0-46ef-9c5e-9cac0835f6ae"},"vehicle_type_id":"4","last_reported":1730815692,"current_range_meters":12800,"station_id":"ce4bh5p2rcd13ifvqe4g","pricing_plan_id":"cebpf4jnsgd1na2vs0mg"},{"bike_id":"d2e1ed5f-7842-424f-a5e8-75a9df0949fd","system_id":"levelo_inurba_marseille","lat":43.27997,"lon":5.41661,"is_reserved":false,"is_disabled":false,"rental_uris":{"android":"levelo://app?vid=d2e1ed5f-7842-424f-a5e8-75a9df0949fd","ios":"levelo://app?vid=d2e1ed5f-7842-424f-a5e8-75a9df0949fd"},"vehicle_type_id":"4","last_reported":1730815692,"current_range_meters":19200,"station_id":"ce4bho12rcd13ifvqh1g","pricing_plan_id":"cebpf4jnsgd1na2vs0mg"},{"bike_id":"47188366-9ba1-4e2e-907e-c2a5c3fd8c31","system_id":"levelo_inurba_marseille","lat":43.31335,"lon":5.36748,"is_reserved":false,"is_disabled":false,"rental_uris":{"android":"levelo://app?vid=47188366-9ba1-4e2e-907e-c2a5c3fd8c31","ios":"levelo://app?vid=47188366-9ba1-4e2e-907e-c2a5c3fd8c31"},"vehicle_type_id":"4","last_reported":1730815692,"current_range_meters":38800,"station_id":"ce4bgr92rcd13ifvqc6g","pricing_plan_id":"cebpf4jnsgd1na2vs0mg"},{"bike_id":"81f6b4c0-466f-469e-9440-cacd811d84f3","system_id":"levelo_inurba_marseille","lat":43.24079,"lon":5.37752,"is_reserved":false,"is_disabled":false,"rental_uris":{"android":"levelo://app?vid=81f6b4c0-466f-469e-9440-cacd811d84f3","ios":"levelo://app?vid=81f6b4c0-466f-469e-9440-cacd811d84f3"},"vehicle_type_id":"4","last_reported":1730815692,"current_range_meters":22400,"station_id":"ce4bhnp2rcd13ifvqgvg","pricing_plan_id":"cebpf4jnsgd1na2vs0mg"},{"bike_id":"ff35898a-eff7-4da6-a7ae-99088d6b1e1f","system_id":"levelo_inurba_marseille","lat":43.25001,"lon":5.38934,"is_reserved":false,"is_disabled":false,"rental_uris":{"android":"levelo://app?vid=ff35898a-eff7-4da6-a7ae-99088d6b1e1f","ios":"levelo://app?vid=ff35898a-eff7-4da6-a7ae-99088d6b1e1f"},"vehicle_type_id":"4","last_reported":1730815692,"current_range_meters":18000,"station_id":"ce4bhgp2rcd13ifvqfd0","pricing_plan_id":"cebpf4jnsgd1na2vs0mg"},{"bike_id":"af09d799-a9df-41c4-b436-c13d61a733ed","system_id":"levelo_inurba_marseille","lat":43.29901,"lon":5.39761,"is_reserved":false,"is_disabled":false,"rental_uris":{"android":"levelo://app?vid=af09d799-a9df-41c4-b436-c13d61a733ed","ios":"levelo://app?vid=af09d799-a9df-41c4-b436-c13d61a733ed"},"vehicle_type_id":"4","last_reported":1730815692,"current_range_meters":39200,"station_id":"ce4bh0h2rcd13ifvqd50","pricing_plan_id":"cebpf4jnsgd1na2vs0mg"},{"bike_id":"fa90f0ba-aabf-4cd9-ab61-7ea526593489","system_id":"levelo_inurba_marseille","lat":43.30887,"lon":5.39661,"is_reserved":false,"is_disabled":false,"rental_uris":{"android":"levelo://app?vid=fa90f0ba-aabf-4cd9-ab61-7ea526593489","ios":"levelo://app?vid=fa90f0ba-aabf-4cd9-ab61-7ea526593489"},"vehicle_type_id":"4","last_reported":1730815692,"current_range_meters":38800,"station_id":"ce4bh012rcd13ifvqcv0","pricing_plan_id":"cebpf4jnsgd1na2vs0mg"},{"bike_id":"94be5937-4fb2-4f1c-a089-45fa501b2dae","system_id":"levelo_inurba_marseille","lat":43.28945,"lon":5.39636,"is_reserved":false,"is_disabled":false,"rental_uris":{"android":"levelo://app?vid=94be5937-4fb2-4f1c-a089-45fa501b2dae","ios":"levelo://app?vid=94be5937-4fb2-4f1c-a089-45fa501b2dae"},"vehicle_type_id":"4","last_reported":1730815692,"current_range_meters":8000,"station_id":"ce4bh3h2rcd13ifvqdn0","pricing_plan_id":"cebpf4jnsgd1na2vs0mg"},{"bike_id":"4147bbfb-4b14-4aca-b782-8ec6c0473609","system_id":"levelo_inurba_marseille","lat":43.236,"lon":5.40352,"is_reserved":false,"is_disabled":false,"rental_uris":{"android":"levelo://app?vid=4147bbfb-4b14-4aca-b782-8ec6c0473609","ios":"levelo://app?vid=4147bbfb-4b14-4aca-b782-8ec6c0473609"},"vehicle_type_id":"4","last_reported":1730815692,"current_range_meters":8400,"station_id":"","pricing_plan_id":"cebpf4jnsgd1na2vs0mg"},{"bike_id":"10ff4409-88cd-411f-b734-662f48b752ca","system_id":"levelo_inurba_marseille","lat":43.27999,"lon":5.41664,"is_reserved":false,"is_disabled":false,"rental_uris":{"android":"levelo://app?vid=10ff4409-88cd-411f-b734-662f48b752ca","ios":"levelo://app?vid=10ff4409-88cd-411f-b734-662f48b752ca"},"vehicle_type_id":"4","last_reported":1730815692,"current_range_meters":17200,"station_id":"ce4bho12rcd13ifvqh1g","pricing_plan_id":"cebpf4jnsgd1na2vs0mg"},{"bike_id":"fa66adb8-19da-4b56-aeb9-ccf1206b3e1e","system_id":"levelo_inurba_marseille","lat":43.32369,"lon":5.36756,"is_reserved":false,"is_disabled":false,"rental_uris":{"android":"levelo://app?vid=fa66adb8-19da-4b56-aeb9-ccf1206b3e1e","ios":"levelo://app?vid=fa66adb8-19da-4b56-aeb9-ccf1206b3e1e"},"vehicle_type_id":"4","last_reported":1730815692,"current_range_meters":34000,"station_id":"ce4bhsh2rcd13ifvqi2g","pricing_plan_id":"cebpf4jnsgd1na2vs0mg"},{"bike_id":"7a86bd00-3142-474a-805c-1ea625cc93e7","system_id":"levelo_inurba_marseille","lat":43.337444,"lon":5.374475,"is_reserved":false,"is_disabled":false,"rental_uris":{"android":"levelo://app?vid=7a86bd00-3142-474a-805c-1ea625cc93e7","ios":"levelo://app?vid=7a86bd00-3142-474a-805c-1ea625cc93e7"},"vehicle_type_id":"4","last_reported":1730815692,"current_range_meters":32000,"station_id":"ce4bh012rcd13ifvqcv0","pricing_plan_id":"cebpf4jnsgd1na2vs0mg"},{"bike_id":"e5d6f862-faf4-4c9e-8f00-e03dcc7aab87","system_id":"levelo_inurba_marseille","lat":43.2932,"lon":5.37184,"is_reserved":false,"is_disabled":false,"rental_uris":{"android":"levelo://app?vid=e5d6f862-faf4-4c9e-8f00-e03dcc7aab87","ios":"levelo://app?vid=e5d6f862-faf4-4c9e-8f00-e03dcc7aab87"},"vehicle_type_id":"4","last_reported":1730815692,"current_range_meters":16000,"station_id":"ce4bgh92rcd13ifvqb40","pricing_plan_id":"cebpf4jnsgd1na2vs0mg"},{"bike_id":"a7d914e2-9978-4ed1-9150-9e9054391d47","system_id":"levelo_inurba_marseille","lat":43.25111,"lon":5.40328,"is_reserved":false,"is_disabled":false,"rental_uris":{"android":"levelo://app?vid=a7d914e2-9978-4ed1-9150-9e9054391d47","ios":"levelo://app?vid=a7d914e2-9978-4ed1-9150-9e9054391d47"},"vehicle_type_id":"4","last_reported":1730815692,"current_range_meters":16000,"station_id":"ce4bhlh2rcd13ifvqgig","pricing_plan_id":"cebpf4jnsgd1na2vs0mg"},{"bike_id":"4812dbae-09d4-4d95-a566-517ff56d108b","system_id":"levelo_inurba_marseille","lat":43.29535,"lon":5.38546,"is_reserved":false,"is_disabled":false,"rental_uris":{"android":"levelo://app?vid=4812dbae-09d4-4d95-a566-517ff56d108b","ios":"levelo://app?vid=4812dbae-09d4-4d95-a566-517ff56d108b"},"vehicle_type_id":"4","last_reported":1730815692,"current_range_meters":17200,"station_id":"ce4bgih2rcd13ifvqba0","pricing_plan_id":"cebpf4jnsgd1na2vs0mg"},{"bike_id":"768d0be2-0eca-4914-9c05-29121b6db795","system_id":"levelo_inurba_marseille","lat":43.31711,"lon":5.43709,"is_reserved":false,"is_disabled":false,"rental_uris":{"android":"levelo://app?vid=768d0be2-0eca-4914-9c05-29121b6db795","ios":"levelo://app?vid=768d0be2-0eca-4914-9c05-29121b6db795"},"vehicle_type_id":"4","last_reported":1730815692,"current_range_meters":29600,"station_id":"ce4bhp92rcd13ifvqhcg","pricing_plan_id":"cebpf4jnsgd1na2vs0mg"},{"bike_id":"5ad3f732-7e23-4ad9-b57d-10c8736d4e8f","system_id":"levelo_inurba_marseille","lat":43.32481,"lon":5.36572,"is_reserved":false,"is_disabled":false,"rental_uris":{"android":"levelo://app?vid=5ad3f732-7e23-4ad9-b57d-10c8736d4e8f","ios":"levelo://app?vid=5ad3f732-7e23-4ad9-b57d-10c8736d4e8f"},"vehicle_type_id":"4","last_reported":1730815692,"current_range_meters":18800,"station_id":"ce4bhs12rcd13ifvqhvg","pricing_plan_id":"cebpf4jnsgd1na2vs0mg"},{"bike_id":"81849ddd-5569-4074-96df-48d4d5dfe474","system_id":"levelo_inurba_marseille","lat":43.34143,"lon":5.40907,"is_reserved":false,"is_disabled":false,"rental_uris":{"android":"levelo://app?vid=81849ddd-5569-4074-96df-48d4d5dfe474","ios":"levelo://app?vid=81849ddd-5569-4074-96df-48d4d5dfe474"},"vehicle_type_id":"4","last_reported":1730815692,"current_range_meters":39200,"station_id":"ce4bhqh2rcd13ifvqhlg","pricing_plan_id":"cebpf4jnsgd1na2vs0mg"},{"bike_id":"fd776ccf-b3af-40af-bbe4-5ffe45cd9dc8","system_id":"levelo_inurba_marseille","lat":43.29812,"lon":5.38112,"is_reserved":false,"is_disabled":false,"rental_uris":{"android":"levelo://app?vid=fd776ccf-b3af-40af-bbe4-5ffe45cd9dc8","ios":"levelo://app?vid=fd776ccf-b3af-40af-bbe4-5ffe45cd9dc8"},"vehicle_type_id":"4","last_reported":1730815692,"current_range_meters":35200,"station_id":"ce4bgip2rcd13ifvqbb0","pricing_plan_id":"cebpf4jnsgd1na2vs0mg"},{"bike_id":"a0b76f41-59fc-4a6b-861a-43a84a9e7078","system_id":"levelo_inurba_marseille","lat":43.30884,"lon":5.39662,"is_reserved":false,"is_disabled":false,"rental_uris":{"android":"levelo://app?vid=a0b76f41-59fc-4a6b-861a-43a84a9e7078","ios":"levelo://app?vid=a0b76f41-59fc-4a6b-861a-43a84a9e7078"},"vehicle_type_id":"4","last_reported":1730815692,"current_range_meters":38800,"station_id":"ce4bh012rcd13ifvqcv0","pricing_plan_id":"cebpf4jnsgd1na2vs0mg"},{"bike_id":"35d46972-faca-4525-a2d2-3f928f24f16c","system_id":"levelo_inurba_marseille","lat":43.24174,"lon":5.36393,"is_reserved":false,"is_disabled":false,"rental_uris":{"android":"levelo://app?vid=35d46972-faca-4525-a2d2-3f928f24f16c","ios":"levelo://app?vid=35d46972-faca-4525-a2d2-3f928f24f16c"},"vehicle_type_id":"4","last_reported":1730815692,"current_range_meters":36800,"station_id":"cpo36qri1sfpv3e86is0","pricing_plan_id":"cebpf4jnsgd1na2vs0mg"},{"bike_id":"17a02ba0-aefc-4fab-83ec-830586dc1f77","system_id":"levelo_inurba_marseille","lat":43.29799,"lon":5.38095,"is_reserved":false,"is_disabled":false,"rental_uris":{"android":"levelo://app?vid=17a02ba0-aefc-4fab-83ec-830586dc1f77","ios":"levelo://app?vid=17a02ba0-aefc-4fab-83ec-830586dc1f77"},"vehicle_type_id":"4","last_reported":1730815692,"current_range_meters":23200,"station_id":"ce4bgip2rcd13ifvqbb0","pricing_plan_id":"cebpf4jnsgd1na2vs0mg"},{"bike_id":"3da4622c-c31c-40d3-8aab-c802043c4fb2","system_id":"levelo_inurba_marseille","lat":43.24078,"lon":5.37746,"is_reserved":false,"is_disabled":false,"rental_uris":{"android":"levelo://app?vid=3da4622c-c31c-40d3-8aab-c802043c4fb2","ios":"levelo://app?vid=3da4622c-c31c-40d3-8aab-c802043c4fb2"},"vehicle_type_id":"4","last_reported":1730815692,"current_range_meters":38800,"station_id":"ce4bhnp2rcd13ifvqgvg","pricing_plan_id":"cebpf4jnsgd1na2vs0mg"},{"bike_id":"8f83624b-bbea-4286-96c3-9752b6330508","system_id":"levelo_inurba_marseille","lat":43.298,"lon":5.38094,"is_reserved":false,"is_disabled":false,"rental_uris":{"android":"levelo://app?vid=8f83624b-bbea-4286-96c3-9752b6330508","ios":"levelo://app?vid=8f83624b-bbea-4286-96c3-9752b6330508"},"vehicle_type_id":"4","last_reported":1730815692,"current_range_meters":37600,"station_id":"ce4bgip2rcd13ifvqbb0","pricing_plan_id":"cebpf4jnsgd1na2vs0mg"},{"bike_id":"182e91a9-0e4e-4788-9b82-32e72e41d2da","system_id":"levelo_inurba_marseille","lat":43.30278,"lon":5.3771,"is_reserved":false,"is_disabled":false,"rental_uris":{"android":"levelo://app?vid=182e91a9-0e4e-4788-9b82-32e72e41d2da","ios":"levelo://app?vid=182e91a9-0e4e-4788-9b82-32e72e41d2da"},"vehicle_type_id":"4","last_reported":1730815692,"current_range_meters":39200,"station_id":"ce4bguh2rcd13ifvqcj0","pricing_plan_id":"cebpf4jnsgd1na2vs0mg"},{"bike_id":"be4fb360-d04d-407b-8a66-28c4a49976ae","system_id":"levelo_inurba_marseille","lat":43.29261,"lon":5.38439,"is_reserved":false,"is_disabled":false,"rental_uris":{"android":"levelo://app?vid=be4fb360-d04d-407b-8a66-28c4a49976ae","ios":"levelo://app?vid=be4fb360-d04d-407b-8a66-28c4a49976ae"},"vehicle_type_id":"4","last_reported":1730815692,"current_range_meters":8400,"station_id":"ce4bh692rcd13ifvqea0","pricing_plan_id":"cebpf4jnsgd1na2vs0mg"},{"bike_id":"d084f970-5e83-4557-bf70-7f56547d9bc4","system_id":"levelo_inurba_marseille","lat":43.26806,"lon":5.40271,"is_reserved":false,"is_disabled":false,"rental_uris":{"android":"levelo://app?vid=d084f970-5e83-4557-bf70-7f56547d9bc4","ios":"levelo://app?vid=d084f970-5e83-4557-bf70-7f56547d9bc4"},"vehicle_type_id":"4","last_reported":1730815692,"current_range_meters":17200,"station_id":"ce501612rcd8frsf0b60","pricing_plan_id":"cebpf4jnsgd1na2vs0mg"},{"bike_id":"8f9b1417-60dc-4e25-94ce-f05731a86005","system_id":"levelo_inurba_marseille","lat":43.302787,"lon":5.376987,"is_reserved":false,"is_disabled":false,"rental_uris":{"android":"levelo://app?vid=8f9b1417-60dc-4e25-94ce-f05731a86005","ios":"levelo://app?vid=8f9b1417-60dc-4e25-94ce-f05731a86005"},"vehicle_type_id":"4","last_reported":1730815692,"current_range_meters":30000,"station_id":"ce4bguh2rcd13ifvqcj0","pricing_plan_id":"cebpf4jnsgd1na2vs0mg"},{"bike_id":"12296a29-3a04-4ac9-8bcd-0bc401ecd050","system_id":"levelo_inurba_marseille","lat":43.30946,"lon":5.39035,"is_reserved":false,"is_disabled":false,"rental_uris":{"android":"levelo://app?vid=12296a29-3a04-4ac9-8bcd-0bc401ecd050","ios":"levelo://app?vid=12296a29-3a04-4ac9-8bcd-0bc401ecd050"},"vehicle_type_id":"4","last_reported":1730815692,"current_range_meters":21600,"station_id":"ce4bgup2rcd13ifvqco0","pricing_plan_id":"cebpf4jnsgd1na2vs0mg"},{"bike_id":"d68dcc90-423f-4108-9fee-9e697effa791","system_id":"levelo_inurba_marseille","lat":43.24225,"lon":5.37945,"is_reserved":false,"is_disabled":false,"rental_uris":{"android":"levelo://app?vid=d68dcc90-423f-4108-9fee-9e697effa791","ios":"levelo://app?vid=d68dcc90-423f-4108-9fee-9e697effa791"},"vehicle_type_id":"4","last_reported":1730815692,"current_range_meters":36400,"station_id":"ce4bhnp2rcd13ifvqgvg","pricing_plan_id":"cebpf4jnsgd1na2vs0mg"},{"bike_id":"ddfa70a9-9d32-48ef-99b7-f4cb9b41791d","system_id":"levelo_inurba_marseille","lat":43.24073,"lon":5.37765,"is_reserved":false,"is_disabled":false,"rental_uris":{"android":"levelo://app?vid=ddfa70a9-9d32-48ef-99b7-f4cb9b41791d","ios":"levelo://app?vid=ddfa70a9-9d32-48ef-99b7-f4cb9b41791d"},"vehicle_type_id":"4","last_reported":1730815692,"current_range_meters":9600,"station_id":"ce4bhnp2rcd13ifvqgvg","pricing_plan_id":"cebpf4jnsgd1na2vs0mg"},{"bike_id":"4dce185d-7e68-467e-8272-8eaedaf8a1a4","system_id":"levelo_inurba_marseille","lat":43.28947,"lon":5.39634,"is_reserved":false,"is_disabled":false,"rental_uris":{"android":"levelo://app?vid=4dce185d-7e68-467e-8272-8eaedaf8a1a4","ios":"levelo://app?vid=4dce185d-7e68-467e-8272-8eaedaf8a1a4"},"vehicle_type_id":"4","last_reported":1730815692,"current_range_meters":36800,"station_id":"ce4bh3h2rcd13ifvqdn0","pricing_plan_id":"cebpf4jnsgd1na2vs0mg"},{"bike_id":"51b0cc7e-772d-41e9-97a0-b689f0d0604e","system_id":"levelo_inurba_marseille","lat":43.31339,"lon":5.36735,"is_reserved":false,"is_disabled":false,"rental_uris":{"android":"levelo://app?vid=51b0cc7e-772d-41e9-97a0-b689f0d0604e","ios":"levelo://app?vid=51b0cc7e-772d-41e9-97a0-b689f0d0604e"},"vehicle_type_id":"4","last_reported":1730815692,"current_range_meters":38400,"station_id":"ce4bgr92rcd13ifvqc6g","pricing_plan_id":"cebpf4jnsgd1na2vs0mg"},{"bike_id":"46c4ccb3-6093-4bb4-b793-aa3d3d868d27","system_id":"levelo_inurba_marseille","lat":43.27376,"lon":5.36258,"is_reserved":false,"is_disabled":false,"rental_uris":{"android":"levelo://app?vid=46c4ccb3-6093-4bb4-b793-aa3d3d868d27","ios":"levelo://app?vid=46c4ccb3-6093-4bb4-b793-aa3d3d868d27"},"vehicle_type_id":"4","last_reported":1730815692,"current_range_meters":12800,"station_id":"ce4bhbh2rcd13ifvqeo0","pricing_plan_id":"cebpf4jnsgd1na2vs0mg"},{"bike_id":"b7714781-d668-438d-8d4e-7166167a7e37","system_id":"levelo_inurba_marseille","lat":43.23189,"lon":5.39975,"is_reserved":false,"is_disabled":false,"rental_uris":{"android":"levelo://app?vid=b7714781-d668-438d-8d4e-7166167a7e37","ios":"levelo://app?vid=b7714781-d668-438d-8d4e-7166167a7e37"},"vehicle_type_id":"4","last_reported":1730815692,"current_range_meters":26000,"station_id":"ce4bhn12rcd13ifvqgqg","pricing_plan_id":"cebpf4jnsgd1na2vs0mg"},{"bike_id":"117aca45-635e-44a6-afe6-22d03b012fea","system_id":"levelo_inurba_marseille","lat":43.27494,"lon":5.42451,"is_reserved":false,"is_disabled":false,"rental_uris":{"android":"levelo://app?vid=117aca45-635e-44a6-afe6-22d03b012fea","ios":"levelo://app?vid=117aca45-635e-44a6-afe6-22d03b012fea"},"vehicle_type_id":"4","last_reported":1730815692,"current_range_meters":36000,"station_id":"ce4bhn92rcd13ifvqgrg","pricing_plan_id":"cebpf4jnsgd1na2vs0mg"},{"bike_id":"f12f8e28-db20-484f-852b-432023147ae9","system_id":"levelo_inurba_marseille","lat":43.31703,"lon":5.40466,"is_reserved":false,"is_disabled":false,"rental_uris":{"android":"levelo://app?vid=f12f8e28-db20-484f-852b-432023147ae9","ios":"levelo://app?vid=f12f8e28-db20-484f-852b-432023147ae9"},"vehicle_type_id":"4","last_reported":1730815692,"current_range_meters":38800,"station_id":"ce4bh012rcd13ifvqd00","pricing_plan_id":"cebpf4jnsgd1na2vs0mg"},{"bike_id":"6481116c-5f06-4549-814e-6cdb6e286322","system_id":"levelo_inurba_marseille","lat":43.28352,"lon":5.3811,"is_reserved":false,"is_disabled":false,"rental_uris":{"android":"levelo://app?vid=6481116c-5f06-4549-814e-6cdb6e286322","ios":"levelo://app?vid=6481116c-5f06-4549-814e-6cdb6e286322"},"vehicle_type_id":"4","last_reported":1730815692,"current_range_meters":16400,"station_id":"ce4bh412rcd13ifvqdr0","pricing_plan_id":"cebpf4jnsgd1na2vs0mg"},{"bike_id":"d77a0262-cad2-48d4-8a93-74976446a55d","system_id":"levelo_inurba_marseille","lat":43.34141,"lon":5.40906,"is_reserved":false,"is_disabled":false,"rental_uris":{"android":"levelo://app?vid=d77a0262-cad2-48d4-8a93-74976446a55d","ios":"levelo://app?vid=d77a0262-cad2-48d4-8a93-74976446a55d"},"vehicle_type_id":"4","last_reported":1730815692,"current_range_meters":23200,"station_id":"ce4bhqh2rcd13ifvqhlg","pricing_plan_id":"cebpf4jnsgd1na2vs0mg"},{"bike_id":"0fb9819f-f5ed-4bc1-9006-4b1ad7d9b36e","system_id":"levelo_inurba_marseille","lat":43.32483,"lon":5.3657,"is_reserved":false,"is_disabled":false,"rental_uris":{"android":"levelo://app?vid=0fb9819f-f5ed-4bc1-9006-4b1ad7d9b36e","ios":"levelo://app?vid=0fb9819f-f5ed-4bc1-9006-4b1ad7d9b36e"},"vehicle_type_id":"4","last_reported":1730815692,"current_range_meters":12800,"station_id":"ce4bhs12rcd13ifvqhvg","pricing_plan_id":"cebpf4jnsgd1na2vs0mg"},{"bike_id":"42163e3e-5009-401f-a1ce-f09eb7e2a510","system_id":"levelo_inurba_marseille","lat":43.31332,"lon":5.39693,"is_reserved":false,"is_disabled":false,"rental_uris":{"android":"levelo://app?vid=42163e3e-5009-401f-a1ce-f09eb7e2a510","ios":"levelo://app?vid=42163e3e-5009-401f-a1ce-f09eb7e2a510"},"vehicle_type_id":"4","last_reported":1730815692,"current_range_meters":38000,"station_id":"ce4bgvp2rcd13ifvqcu0","pricing_plan_id":"cebpf4jnsgd1na2vs0mg"},{"bike_id":"bc078f71-d4d2-4851-816f-3ba8cfad3e60","system_id":"levelo_inurba_marseille","lat":43.29733,"lon":5.37685,"is_reserved":false,"is_disabled":false,"rental_uris":{"android":"levelo://app?vid=bc078f71-d4d2-4851-816f-3ba8cfad3e60","ios":"levelo://app?vid=bc078f71-d4d2-4851-816f-3ba8cfad3e60"},"vehicle_type_id":"4","last_reported":1730815692,"current_range_meters":9200,"station_id":"ce4bgkh2rcd13ifvqbl0","pricing_plan_id":"cebpf4jnsgd1na2vs0mg"},{"bike_id":"9e9e951c-d7c3-4e3b-b0ef-4c46981d381a","system_id":"levelo_inurba_marseille","lat":43.33607,"lon":5.41028,"is_reserved":false,"is_disabled":false,"rental_uris":{"android":"levelo://app?vid=9e9e951c-d7c3-4e3b-b0ef-4c46981d381a","ios":"levelo://app?vid=9e9e951c-d7c3-4e3b-b0ef-4c46981d381a"},"vehicle_type_id":"4","last_reported":1730815692,"current_range_meters":38800,"station_id":"ce4bhqh2rcd13ifvqhmg","pricing_plan_id":"cebpf4jnsgd1na2vs0mg"},{"bike_id":"037eaf0f-9112-47d3-aa8d-7a0ef0d58625","system_id":"levelo_inurba_marseille","lat":43.24167,"lon":5.36388,"is_reserved":false,"is_disabled":false,"rental_uris":{"android":"levelo://app?vid=037eaf0f-9112-47d3-aa8d-7a0ef0d58625","ios":"levelo://app?vid=037eaf0f-9112-47d3-aa8d-7a0ef0d58625"},"vehicle_type_id":"4","last_reported":1730815692,"current_range_meters":38000,"station_id":"cpo36qri1sfpv3e86is0","pricing_plan_id":"cebpf4jnsgd1na2vs0mg"},{"bike_id":"897c072c-0d21-44b6-b843-663f492b8dc4","system_id":"levelo_inurba_marseille","lat":43.25113,"lon":5.40323,"is_reserved":false,"is_disabled":false,"rental_uris":{"android":"levelo://app?vid=897c072c-0d21-44b6-b843-663f492b8dc4","ios":"levelo://app?vid=897c072c-0d21-44b6-b843-663f492b8dc4"},"vehicle_type_id":"4","last_reported":1730815692,"current_range_meters":38800,"station_id":"ce4bhlh2rcd13ifvqgig","pricing_plan_id":"cebpf4jnsgd1na2vs0mg"},{"bike_id":"7c9725e3-547b-4981-8573-c116a67569dc","system_id":"levelo_inurba_marseille","lat":43.29047,"lon":5.37572,"is_reserved":false,"is_disabled":false,"rental_uris":{"android":"levelo://app?vid=7c9725e3-547b-4981-8573-c116a67569dc","ios":"levelo://app?vid=7c9725e3-547b-4981-8573-c116a67569dc"},"vehicle_type_id":"4","last_reported":1730815692,"current_range_meters":38400,"station_id":"ce4bh692rcd13ifvqe90","pricing_plan_id":"cebpf4jnsgd1na2vs0mg"},{"bike_id":"8d73d407-d8b0-4d37-baa7-1360aee28216","system_id":"levelo_inurba_marseille","lat":43.29036,"lon":5.37562,"is_reserved":false,"is_disabled":false,"rental_uris":{"android":"levelo://app?vid=8d73d407-d8b0-4d37-baa7-1360aee28216","ios":"levelo://app?vid=8d73d407-d8b0-4d37-baa7-1360aee28216"},"vehicle_type_id":"4","last_reported":1730815692,"current_range_meters":29600,"station_id":"ce4bh692rcd13ifvqe90","pricing_plan_id":"cebpf4jnsgd1na2vs0mg"},{"bike_id":"d21c28b2-c174-4e9f-ad7f-35fb94eae1cd","system_id":"levelo_inurba_marseille","lat":43.30537,"lon":5.36702,"is_reserved":false,"is_disabled":false,"rental_uris":{"android":"levelo://app?vid=d21c28b2-c174-4e9f-ad7f-35fb94eae1cd","ios":"levelo://app?vid=d21c28b2-c174-4e9f-ad7f-35fb94eae1cd"},"vehicle_type_id":"4","last_reported":1730815692,"current_range_meters":39200,"station_id":"ce4bgrp2rcd13ifvqc9g","pricing_plan_id":"cebpf4jnsgd1na2vs0mg"},{"bike_id":"d446e17e-4ab5-4c78-bea4-463de43106b9","system_id":"levelo_inurba_marseille","lat":43.28978,"lon":5.37841,"is_reserved":false,"is_disabled":false,"rental_uris":{"android":"levelo://app?vid=d446e17e-4ab5-4c78-bea4-463de43106b9","ios":"levelo://app?vid=d446e17e-4ab5-4c78-bea4-463de43106b9"},"vehicle_type_id":"4","last_reported":1730815692,"current_range_meters":26800,"station_id":"ce4bh9p2rcd13ifvqed0","pricing_plan_id":"cebpf4jnsgd1na2vs0mg"},{"bike_id":"acdea68a-7783-4908-bf21-09a59a510c29","system_id":"levelo_inurba_marseille","lat":43.31334,"lon":5.36761,"is_reserved":false,"is_disabled":false,"rental_uris":{"android":"levelo://app?vid=acdea68a-7783-4908-bf21-09a59a510c29","ios":"levelo://app?vid=acdea68a-7783-4908-bf21-09a59a510c29"},"vehicle_type_id":"4","last_reported":1730815692,"current_range_meters":24800,"station_id":"ce4bgr92rcd13ifvqc6g","pricing_plan_id":"cebpf4jnsgd1na2vs0mg"},{"bike_id":"a43847c5-ae11-4411-a9f6-a129db23b82b","system_id":"levelo_inurba_marseille","lat":43.28346,"lon":5.38116,"is_reserved":false,"is_disabled":false,"rental_uris":{"android":"levelo://app?vid=a43847c5-ae11-4411-a9f6-a129db23b82b","ios":"levelo://app?vid=a43847c5-ae11-4411-a9f6-a129db23b82b"},"vehicle_type_id":"4","last_reported":1730815692,"current_range_meters":25600,"station_id":"ce4bh412rcd13ifvqdr0","pricing_plan_id":"cebpf4jnsgd1na2vs0mg"},{"bike_id":"2208cd18-b7e1-4d15-8a96-477d4e7ba53c","system_id":"levelo_inurba_marseille","lat":43.29896,"lon":5.43665,"is_reserved":false,"is_disabled":false,"rental_uris":{"android":"levelo://app?vid=2208cd18-b7e1-4d15-8a96-477d4e7ba53c","ios":"levelo://app?vid=2208cd18-b7e1-4d15-8a96-477d4e7ba53c"},"vehicle_type_id":"4","last_reported":1730815692,"current_range_meters":30400,"station_id":"ce4bhpp2rcd13ifvqhfg","pricing_plan_id":"cebpf4jnsgd1na2vs0mg"},{"bike_id":"1ee5295d-3136-45b8-85a0-ab1541623485","system_id":"levelo_inurba_marseille","lat":43.27918,"lon":5.39581,"is_reserved":false,"is_disabled":false,"rental_uris":{"android":"levelo://app?vid=1ee5295d-3136-45b8-85a0-ab1541623485","ios":"levelo://app?vid=1ee5295d-3136-45b8-85a0-ab1541623485"},"vehicle_type_id":"4","last_reported":1730815692,"current_range_meters":30000,"station_id":"ce4bhf92rcd13ifvqf40","pricing_plan_id":"cebpf4jnsgd1na2vs0mg"},{"bike_id":"89bbc737-1a0d-4b95-81d6-637e227eb3bc","system_id":"levelo_inurba_marseille","lat":43.3205,"lon":5.4155,"is_reserved":false,"is_disabled":false,"rental_uris":{"android":"levelo://app?vid=89bbc737-1a0d-4b95-81d6-637e227eb3bc","ios":"levelo://app?vid=89bbc737-1a0d-4b95-81d6-637e227eb3bc"},"vehicle_type_id":"4","last_reported":1730815692,"current_range_meters":38800,"station_id":"ce4bhq92rcd13ifvqhkg","pricing_plan_id":"cebpf4jnsgd1na2vs0mg"},{"bike_id":"8d6f120d-3364-4ba0-941d-c86df3fb05f7","system_id":"levelo_inurba_marseille","lat":43.28038,"lon":5.36943,"is_reserved":false,"is_disabled":false,"rental_uris":{"android":"levelo://app?vid=8d6f120d-3364-4ba0-941d-c86df3fb05f7","ios":"levelo://app?vid=8d6f120d-3364-4ba0-941d-c86df3fb05f7"},"vehicle_type_id":"4","last_reported":1730815692,"current_range_meters":21600,"station_id":"ce4bha12rcd13ifvqef0","pricing_plan_id":"cebpf4jnsgd1na2vs0mg"},{"bike_id":"8f392571-beaf-4392-9523-d1fedc0a73bf","system_id":"levelo_inurba_marseille","lat":43.26683,"lon":5.38268,"is_reserved":false,"is_disabled":false,"rental_uris":{"android":"levelo://app?vid=8f392571-beaf-4392-9523-d1fedc0a73bf","ios":"levelo://app?vid=8f392571-beaf-4392-9523-d1fedc0a73bf"},"vehicle_type_id":"4","last_reported":1730815692,"current_range_meters":28000,"station_id":"ce4bhg92rcd13ifvqf90","pricing_plan_id":"cebpf4jnsgd1na2vs0mg"},{"bike_id":"fc370af9-4723-4589-bd34-43e0e367fb35","system_id":"levelo_inurba_marseille","lat":43.26805,"lon":5.40262,"is_reserved":false,"is_disabled":false,"rental_uris":{"android":"levelo://app?vid=fc370af9-4723-4589-bd34-43e0e367fb35","ios":"levelo://app?vid=fc370af9-4723-4589-bd34-43e0e367fb35"},"vehicle_type_id":"4","last_reported":1730815692,"current_range_meters":39200,"station_id":"ce501612rcd8frsf0b60","pricing_plan_id":"cebpf4jnsgd1na2vs0mg"},{"bike_id":"9144c157-634d-4240-9c41-6d80b65ff913","system_id":"levelo_inurba_marseille","lat":43.30538,"lon":5.3653,"is_reserved":false,"is_disabled":false,"rental_uris":{"android":"levelo://app?vid=9144c157-634d-4240-9c41-6d80b65ff913","ios":"levelo://app?vid=9144c157-634d-4240-9c41-6d80b65ff913"},"vehicle_type_id":"4","last_reported":1730815692,"current_range_meters":30400,"station_id":"ce4bgs12rcd13ifvqcag","pricing_plan_id":"cebpf4jnsgd1na2vs0mg"},{"bike_id":"de9bc7da-0805-4f2e-a638-6f594e31fc19","system_id":"levelo_inurba_marseille","lat":43.23152,"lon":5.43703,"is_reserved":false,"is_disabled":false,"rental_uris":{"android":"levelo://app?vid=de9bc7da-0805-4f2e-a638-6f594e31fc19","ios":"levelo://app?vid=de9bc7da-0805-4f2e-a638-6f594e31fc19"},"vehicle_type_id":"4","last_reported":1730815692,"current_range_meters":21600,"station_id":"ce4bhmp2rcd13ifvqgog","pricing_plan_id":"cebpf4jnsgd1na2vs0mg"},{"bike_id":"5fb98fcb-8467-43bc-8f32-700a3dc876c9","system_id":"levelo_inurba_marseille","lat":43.23153,"lon":5.43715,"is_reserved":false,"is_disabled":false,"rental_uris":{"android":"levelo://app?vid=5fb98fcb-8467-43bc-8f32-700a3dc876c9","ios":"levelo://app?vid=5fb98fcb-8467-43bc-8f32-700a3dc876c9"},"vehicle_type_id":"4","last_reported":1730815692,"current_range_meters":22800,"station_id":"ce4bhmp2rcd13ifvqgog","pricing_plan_id":"cebpf4jnsgd1na2vs0mg"},{"bike_id":"327d5b02-2c8e-47d2-9ffb-de47f92b0dcc","system_id":"levelo_inurba_marseille","lat":43.25586,"lon":5.3823,"is_reserved":false,"is_disabled":false,"rental_uris":{"android":"levelo://app?vid=327d5b02-2c8e-47d2-9ffb-de47f92b0dcc","ios":"levelo://app?vid=327d5b02-2c8e-47d2-9ffb-de47f92b0dcc"},"vehicle_type_id":"4","last_reported":1730815692,"current_range_meters":16800,"station_id":"ce4bhih2rcd13ifvqfs0","pricing_plan_id":"cebpf4jnsgd1na2vs0mg"},{"bike_id":"255230c5-003e-4e7c-b4d2-e60e69c62bfe","system_id":"levelo_inurba_marseille","lat":43.28859,"lon":5.39314,"is_reserved":false,"is_disabled":false,"rental_uris":{"android":"levelo://app?vid=255230c5-003e-4e7c-b4d2-e60e69c62bfe","ios":"levelo://app?vid=255230c5-003e-4e7c-b4d2-e60e69c62bfe"},"vehicle_type_id":"4","last_reported":1730815692,"current_range_meters":30000,"station_id":"ce4bh2p2rcd13ifvqdi0","pricing_plan_id":"cebpf4jnsgd1na2vs0mg"},{"bike_id":"6edcb5d2-dbf0-49f4-9f8b-5d93ccae943e","system_id":"levelo_inurba_marseille","lat":43.27914,"lon":5.38015,"is_reserved":false,"is_disabled":false,"rental_uris":{"android":"levelo://app?vid=6edcb5d2-dbf0-49f4-9f8b-5d93ccae943e","ios":"levelo://app?vid=6edcb5d2-dbf0-49f4-9f8b-5d93ccae943e"},"vehicle_type_id":"4","last_reported":1730815692,"current_range_meters":28400,"station_id":"ce4bhf92rcd13ifvqf50","pricing_plan_id":"cebpf4jnsgd1na2vs0mg"},{"bike_id":"f38b74f1-091f-4a53-be86-f11ff6a2b03b","system_id":"levelo_inurba_marseille","lat":43.24075,"lon":5.37749,"is_reserved":false,"is_disabled":false,"rental_uris":{"android":"levelo://app?vid=f38b74f1-091f-4a53-be86-f11ff6a2b03b","ios":"levelo://app?vid=f38b74f1-091f-4a53-be86-f11ff6a2b03b"},"vehicle_type_id":"4","last_reported":1730815692,"current_range_meters":36000,"station_id":"ce4bhnp2rcd13ifvqgvg","pricing_plan_id":"cebpf4jnsgd1na2vs0mg"},{"bike_id":"b1fe64db-656d-4e90-9b40-b5b616d72f80","system_id":"levelo_inurba_marseille","lat":43.29966,"lon":5.41327,"is_reserved":false,"is_disabled":false,"rental_uris":{"android":"levelo://app?vid=b1fe64db-656d-4e90-9b40-b5b616d72f80","ios":"levelo://app?vid=b1fe64db-656d-4e90-9b40-b5b616d72f80"},"vehicle_type_id":"4","last_reported":1730815692,"current_range_meters":30400,"station_id":"ce4bhp12rcd13ifvqh9g","pricing_plan_id":"cebpf4jnsgd1na2vs0mg"},{"bike_id":"81a94cda-14e5-44b4-a53e-9e03f880250f","system_id":"levelo_inurba_marseille","lat":43.29442,"lon":5.39744,"is_reserved":false,"is_disabled":false,"rental_uris":{"android":"levelo://app?vid=81a94cda-14e5-44b4-a53e-9e03f880250f","ios":"levelo://app?vid=81a94cda-14e5-44b4-a53e-9e03f880250f"},"vehicle_type_id":"4","last_reported":1730815692,"current_range_meters":38800,"station_id":"ce4bh3h2rcd13ifvqdo0","pricing_plan_id":"cebpf4jnsgd1na2vs0mg"},{"bike_id":"5eeefd11-649c-499f-9856-2a20cd33e6cb","system_id":"levelo_inurba_marseille","lat":43.305446,"lon":5.367014,"is_reserved":false,"is_disabled":false,"rental_uris":{"android":"levelo://app?vid=5eeefd11-649c-499f-9856-2a20cd33e6cb","ios":"levelo://app?vid=5eeefd11-649c-499f-9856-2a20cd33e6cb"},"vehicle_type_id":"4","last_reported":1730815692,"current_range_meters":10800,"station_id":"ce4bgrp2rcd13ifvqc9g","pricing_plan_id":"cebpf4jnsgd1na2vs0mg"},{"bike_id":"b48ce62b-21b3-43a0-b6d2-f0067ee1de22","system_id":"levelo_inurba_marseille","lat":43.31089,"lon":5.42441,"is_reserved":false,"is_disabled":false,"rental_uris":{"android":"levelo://app?vid=b48ce62b-21b3-43a0-b6d2-f0067ee1de22","ios":"levelo://app?vid=b48ce62b-21b3-43a0-b6d2-f0067ee1de22"},"vehicle_type_id":"4","last_reported":1730815692,"current_range_meters":8400,"station_id":"ce4bhp92rcd13ifvqhag","pricing_plan_id":"cebpf4jnsgd1na2vs0mg"},{"bike_id":"b084d493-f8e1-43be-8338-19f1fdea018d","system_id":"levelo_inurba_marseille","lat":43.29528,"lon":5.38538,"is_reserved":false,"is_disabled":false,"rental_uris":{"android":"levelo://app?vid=b084d493-f8e1-43be-8338-19f1fdea018d","ios":"levelo://app?vid=b084d493-f8e1-43be-8338-19f1fdea018d"},"vehicle_type_id":"4","last_reported":1730815692,"current_range_meters":33200,"station_id":"ce4bgih2rcd13ifvqba0","pricing_plan_id":"cebpf4jnsgd1na2vs0mg"},{"bike_id":"aadb80d8-cfb7-4223-862d-d11458da87e3","system_id":"levelo_inurba_marseille","lat":43.28444,"lon":5.39196,"is_reserved":false,"is_disabled":false,"rental_uris":{"android":"levelo://app?vid=aadb80d8-cfb7-4223-862d-d11458da87e3","ios":"levelo://app?vid=aadb80d8-cfb7-4223-862d-d11458da87e3"},"vehicle_type_id":"4","last_reported":1730815692,"current_range_meters":10000,"station_id":"ce4bhoh2rcd13ifvqh5g","pricing_plan_id":"cebpf4jnsgd1na2vs0mg"},{"bike_id":"70a38ce2-fa1e-48b9-b6d7-d2318aea833e","system_id":"levelo_inurba_marseille","lat":43.28941,"lon":5.36634,"is_reserved":false,"is_disabled":false,"rental_uris":{"android":"levelo://app?vid=70a38ce2-fa1e-48b9-b6d7-d2318aea833e","ios":"levelo://app?vid=70a38ce2-fa1e-48b9-b6d7-d2318aea833e"},"vehicle_type_id":"4","last_reported":1730815692,"current_range_meters":34000,"station_id":"ce4bhap2rcd13ifvqek0","pricing_plan_id":"cebpf4jnsgd1na2vs0mg"},{"bike_id":"7d3664b4-0626-4764-becb-c1d4188a8bfd","system_id":"levelo_inurba_marseille","lat":43.29173,"lon":5.37157,"is_reserved":false,"is_disabled":false,"rental_uris":{"android":"levelo://app?vid=7d3664b4-0626-4764-becb-c1d4188a8bfd","ios":"levelo://app?vid=7d3664b4-0626-4764-becb-c1d4188a8bfd"},"vehicle_type_id":"4","last_reported":1730815692,"current_range_meters":38800,"station_id":"ce4bha92rcd13ifvqeh0","pricing_plan_id":"cebpf4jnsgd1na2vs0mg"},{"bike_id":"490bda0d-525d-48fa-a681-6c1404c76d50","system_id":"levelo_inurba_marseille","lat":43.30143,"lon":5.37417,"is_reserved":false,"is_disabled":false,"rental_uris":{"android":"levelo://app?vid=490bda0d-525d-48fa-a681-6c1404c76d50","ios":"levelo://app?vid=490bda0d-525d-48fa-a681-6c1404c76d50"},"vehicle_type_id":"4","last_reported":1730815692,"current_range_meters":38000,"station_id":"ce4bgs92rcd13ifvqcc0","pricing_plan_id":"cebpf4jnsgd1na2vs0mg"},{"bike_id":"44df66ce-32ea-4361-a3f7-0e940052bf0e","system_id":"levelo_inurba_marseille","lat":43.30279,"lon":5.37718,"is_reserved":false,"is_disabled":false,"rental_uris":{"android":"levelo://app?vid=44df66ce-32ea-4361-a3f7-0e940052bf0e","ios":"levelo://app?vid=44df66ce-32ea-4361-a3f7-0e940052bf0e"},"vehicle_type_id":"4","last_reported":1730815692,"current_range_meters":27600,"station_id":"ce4bguh2rcd13ifvqcj0","pricing_plan_id":"cebpf4jnsgd1na2vs0mg"},{"bike_id":"c65b9f24-9a8d-4816-9e3a-0a637de85f08","system_id":"levelo_inurba_marseille","lat":43.25118,"lon":5.40316,"is_reserved":false,"is_disabled":false,"rental_uris":{"android":"levelo://app?vid=c65b9f24-9a8d-4816-9e3a-0a637de85f08","ios":"levelo://app?vid=c65b9f24-9a8d-4816-9e3a-0a637de85f08"},"vehicle_type_id":"4","last_reported":1730815692,"current_range_meters":20400,"station_id":"ce4bhlh2rcd13ifvqgig","pricing_plan_id":"cebpf4jnsgd1na2vs0mg"},{"bike_id":"6d5d49b6-01b8-4024-9f7f-054d4c67b705","system_id":"levelo_inurba_marseille","lat":43.317851,"lon":5.381162,"is_reserved":false,"is_disabled":false,"rental_uris":{"android":"levelo://app?vid=6d5d49b6-01b8-4024-9f7f-054d4c67b705","ios":"levelo://app?vid=6d5d49b6-01b8-4024-9f7f-054d4c67b705"},"vehicle_type_id":"4","last_reported":1730815692,"current_range_meters":25200,"station_id":"ce4bhq12rcd13ifvqhig","pricing_plan_id":"cebpf4jnsgd1na2vs0mg"},{"bike_id":"418af0d3-d4c3-4d82-94d3-ca3a77cf5421","system_id":"levelo_inurba_marseille","lat":43.27993,"lon":5.40025,"is_reserved":false,"is_disabled":false,"rental_uris":{"android":"levelo://app?vid=418af0d3-d4c3-4d82-94d3-ca3a77cf5421","ios":"levelo://app?vid=418af0d3-d4c3-4d82-94d3-ca3a77cf5421"},"vehicle_type_id":"4","last_reported":1730815692,"current_range_meters":20400,"station_id":"ce4bho92rcd13ifvqh4g","pricing_plan_id":"cebpf4jnsgd1na2vs0mg"},{"bike_id":"d112ef64-8345-40dc-a437-a0aa8c5bd57d","system_id":"levelo_inurba_marseille","lat":43.3054,"lon":5.367,"is_reserved":false,"is_disabled":false,"rental_uris":{"android":"levelo://app?vid=d112ef64-8345-40dc-a437-a0aa8c5bd57d","ios":"levelo://app?vid=d112ef64-8345-40dc-a437-a0aa8c5bd57d"},"vehicle_type_id":"4","last_reported":1730815692,"current_range_meters":39200,"station_id":"ce4bgrp2rcd13ifvqc9g","pricing_plan_id":"cebpf4jnsgd1na2vs0mg"},{"bike_id":"00db643c-5868-4206-be55-7a08f1b86e96","system_id":"levelo_inurba_marseille","lat":43.23186,"lon":5.39984,"is_reserved":false,"is_disabled":false,"rental_uris":{"android":"levelo://app?vid=00db643c-5868-4206-be55-7a08f1b86e96","ios":"levelo://app?vid=00db643c-5868-4206-be55-7a08f1b86e96"},"vehicle_type_id":"4","last_reported":1730815692,"current_range_meters":19600,"station_id":"ce4bhn12rcd13ifvqgqg","pricing_plan_id":"cebpf4jnsgd1na2vs0mg"},{"bike_id":"08b2dda7-31f0-43cd-a581-85b80e9b27a5","system_id":"levelo_inurba_marseille","lat":43.24077,"lon":5.37769,"is_reserved":false,"is_disabled":false,"rental_uris":{"android":"levelo://app?vid=08b2dda7-31f0-43cd-a581-85b80e9b27a5","ios":"levelo://app?vid=08b2dda7-31f0-43cd-a581-85b80e9b27a5"},"vehicle_type_id":"4","last_reported":1730815692,"current_range_meters":11600,"station_id":"ce4bhnp2rcd13ifvqgvg","pricing_plan_id":"cebpf4jnsgd1na2vs0mg"},{"bike_id":"39c26ec3-7259-493d-931d-7992a49e0144","system_id":"levelo_inurba_marseille","lat":43.24076,"lon":5.37756,"is_reserved":false,"is_disabled":false,"rental_uris":{"android":"levelo://app?vid=39c26ec3-7259-493d-931d-7992a49e0144","ios":"levelo://app?vid=39c26ec3-7259-493d-931d-7992a49e0144"},"vehicle_type_id":"4","last_reported":1730815692,"current_range_meters":12800,"station_id":"ce4bhnp2rcd13ifvqgvg","pricing_plan_id":"cebpf4jnsgd1na2vs0mg"},{"bike_id":"adf94568-f560-4501-938c-780d1b506fa8","system_id":"levelo_inurba_marseille","lat":43.31343,"lon":5.36734,"is_reserved":false,"is_disabled":false,"rental_uris":{"android":"levelo://app?vid=adf94568-f560-4501-938c-780d1b506fa8","ios":"levelo://app?vid=adf94568-f560-4501-938c-780d1b506fa8"},"vehicle_type_id":"4","last_reported":1730815692,"current_range_meters":33600,"station_id":"ce4bgr92rcd13ifvqc6g","pricing_plan_id":"cebpf4jnsgd1na2vs0mg"},{"bike_id":"408c0a7f-fd2a-4e3f-a67d-11cfd91f49ad","system_id":"levelo_inurba_marseille","lat":43.28946,"lon":5.36641,"is_reserved":false,"is_disabled":false,"rental_uris":{"android":"levelo://app?vid=408c0a7f-fd2a-4e3f-a67d-11cfd91f49ad","ios":"levelo://app?vid=408c0a7f-fd2a-4e3f-a67d-11cfd91f49ad"},"vehicle_type_id":"4","last_reported":1730815692,"current_range_meters":34800,"station_id":"ce4bhap2rcd13ifvqek0","pricing_plan_id":"cebpf4jnsgd1na2vs0mg"},{"bike_id":"4e6332c0-3dde-44f5-a3e2-5bcb34855e85","system_id":"levelo_inurba_marseille","lat":43.24075,"lon":5.37757,"is_reserved":false,"is_disabled":false,"rental_uris":{"android":"levelo://app?vid=4e6332c0-3dde-44f5-a3e2-5bcb34855e85","ios":"levelo://app?vid=4e6332c0-3dde-44f5-a3e2-5bcb34855e85"},"vehicle_type_id":"4","last_reported":1730815692,"current_range_meters":38800,"station_id":"ce4bhnp2rcd13ifvqgvg","pricing_plan_id":"cebpf4jnsgd1na2vs0mg"},{"bike_id":"e8f086b5-3c98-4795-b2a7-23b1725988b1","system_id":"levelo_inurba_marseille","lat":43.2848,"lon":5.38545,"is_reserved":false,"is_disabled":false,"rental_uris":{"android":"levelo://app?vid=e8f086b5-3c98-4795-b2a7-23b1725988b1","ios":"levelo://app?vid=e8f086b5-3c98-4795-b2a7-23b1725988b1"},"vehicle_type_id":"4","last_reported":1730815692,"current_range_meters":10000,"station_id":"ce4bh8p2rcd13ifvqeb0","pricing_plan_id":"cebpf4jnsgd1na2vs0mg"},{"bike_id":"35cdf0d0-d185-4c5d-b71b-b34603a4e8e9","system_id":"levelo_inurba_marseille","lat":43.29031,"lon":5.35927,"is_reserved":false,"is_disabled":false,"rental_uris":{"android":"levelo://app?vid=35cdf0d0-d185-4c5d-b71b-b34603a4e8e9","ios":"levelo://app?vid=35cdf0d0-d185-4c5d-b71b-b34603a4e8e9"},"vehicle_type_id":"4","last_reported":1730815692,"current_range_meters":6800,"station_id":"ce4bha92rcd13ifvqeg0","pricing_plan_id":"cebpf4jnsgd1na2vs0mg"},{"bike_id":"2084710d-70fd-4acd-8626-3cf191b12410","system_id":"levelo_inurba_marseille","lat":43.24083,"lon":5.37751,"is_reserved":false,"is_disabled":false,"rental_uris":{"android":"levelo://app?vid=2084710d-70fd-4acd-8626-3cf191b12410","ios":"levelo://app?vid=2084710d-70fd-4acd-8626-3cf191b12410"},"vehicle_type_id":"4","last_reported":1730815692,"current_range_meters":4800,"station_id":"ce4bhnp2rcd13ifvqgvg","pricing_plan_id":"cebpf4jnsgd1na2vs0mg"},{"bike_id":"cbb6917c-c585-45fa-8177-43597c8c6641","system_id":"levelo_inurba_marseille","lat":43.28935,"lon":5.36635,"is_reserved":false,"is_disabled":false,"rental_uris":{"android":"levelo://app?vid=cbb6917c-c585-45fa-8177-43597c8c6641","ios":"levelo://app?vid=cbb6917c-c585-45fa-8177-43597c8c6641"},"vehicle_type_id":"4","last_reported":1730815692,"current_range_meters":17600,"station_id":"ce4bhap2rcd13ifvqek0","pricing_plan_id":"cebpf4jnsgd1na2vs0mg"},{"bike_id":"57534417-07ff-444f-9825-f3e763a49d24","system_id":"levelo_inurba_marseille","lat":43.29039,"lon":5.37566,"is_reserved":false,"is_disabled":false,"rental_uris":{"android":"levelo://app?vid=57534417-07ff-444f-9825-f3e763a49d24","ios":"levelo://app?vid=57534417-07ff-444f-9825-f3e763a49d24"},"vehicle_type_id":"4","last_reported":1730815692,"current_range_meters":35200,"station_id":"ce4bh692rcd13ifvqe90","pricing_plan_id":"cebpf4jnsgd1na2vs0mg"},{"bike_id":"ccad4358-6fe0-44c9-91d3-a079920783cb","system_id":"levelo_inurba_marseille","lat":43.26028,"lon":5.37549,"is_reserved":false,"is_disabled":false,"rental_uris":{"android":"levelo://app?vid=ccad4358-6fe0-44c9-91d3-a079920783cb","ios":"levelo://app?vid=ccad4358-6fe0-44c9-91d3-a079920783cb"},"vehicle_type_id":"4","last_reported":1730815692,"current_range_meters":38400,"station_id":"ce4bhgh2rcd13ifvqfa0","pricing_plan_id":"cebpf4jnsgd1na2vs0mg"},{"bike_id":"ad58724c-2fcc-482f-92fd-df51f8ca4512","system_id":"levelo_inurba_marseille","lat":43.30911,"lon":5.3685,"is_reserved":false,"is_disabled":false,"rental_uris":{"android":"levelo://app?vid=ad58724c-2fcc-482f-92fd-df51f8ca4512","ios":"levelo://app?vid=ad58724c-2fcc-482f-92fd-df51f8ca4512"},"vehicle_type_id":"4","last_reported":1730815692,"current_range_meters":24800,"station_id":"ce4bgn92rcd13ifvqbvg","pricing_plan_id":"cebpf4jnsgd1na2vs0mg"},{"bike_id":"dd39f9f1-9f84-4440-bed0-87ba7e20c7bd","system_id":"levelo_inurba_marseille","lat":43.2799,"lon":5.4166,"is_reserved":false,"is_disabled":false,"rental_uris":{"android":"levelo://app?vid=dd39f9f1-9f84-4440-bed0-87ba7e20c7bd","ios":"levelo://app?vid=dd39f9f1-9f84-4440-bed0-87ba7e20c7bd"},"vehicle_type_id":"4","last_reported":1730815692,"current_range_meters":33200,"station_id":"ce4bho12rcd13ifvqh1g","pricing_plan_id":"cebpf4jnsgd1na2vs0mg"},{"bike_id":"2dd40e8a-347a-4069-9f04-901c41b0a3c7","system_id":"levelo_inurba_marseille","lat":43.32104,"lon":5.36777,"is_reserved":false,"is_disabled":false,"rental_uris":{"android":"levelo://app?vid=2dd40e8a-347a-4069-9f04-901c41b0a3c7","ios":"levelo://app?vid=2dd40e8a-347a-4069-9f04-901c41b0a3c7"},"vehicle_type_id":"4","last_reported":1730815692,"current_range_meters":36800,"station_id":"ce4bhrh2rcd13ifvqhug","pricing_plan_id":"cebpf4jnsgd1na2vs0mg"},{"bike_id":"2e389483-7787-4149-b7f0-0165708a1590","system_id":"levelo_inurba_marseille","lat":43.29734,"lon":5.37685,"is_reserved":false,"is_disabled":false,"rental_uris":{"android":"levelo://app?vid=2e389483-7787-4149-b7f0-0165708a1590","ios":"levelo://app?vid=2e389483-7787-4149-b7f0-0165708a1590"},"vehicle_type_id":"4","last_reported":1730815692,"current_range_meters":30400,"station_id":"ce4bgkh2rcd13ifvqbl0","pricing_plan_id":"cebpf4jnsgd1na2vs0mg"},{"bike_id":"14aa2063-c49c-4eac-bba4-8d4ccbc1b3ef","system_id":"levelo_inurba_marseille","lat":43.30311,"lon":5.36901,"is_reserved":false,"is_disabled":false,"rental_uris":{"android":"levelo://app?vid=14aa2063-c49c-4eac-bba4-8d4ccbc1b3ef","ios":"levelo://app?vid=14aa2063-c49c-4eac-bba4-8d4ccbc1b3ef"},"vehicle_type_id":"4","last_reported":1730815692,"current_range_meters":21600,"station_id":"ce4bgqh2rcd13ifvqc5g","pricing_plan_id":"cebpf4jnsgd1na2vs0mg"},{"bike_id":"38526b2a-8697-4aef-a174-e0c1be19b7a7","system_id":"levelo_inurba_marseille","lat":43.28847,"lon":5.35884,"is_reserved":false,"is_disabled":false,"rental_uris":{"android":"levelo://app?vid=38526b2a-8697-4aef-a174-e0c1be19b7a7","ios":"levelo://app?vid=38526b2a-8697-4aef-a174-e0c1be19b7a7"},"vehicle_type_id":"4","last_reported":1730815692,"current_range_meters":17200,"station_id":"ce4bhb12rcd13ifvqem0","pricing_plan_id":"cebpf4jnsgd1na2vs0mg"},{"bike_id":"67dab935-1b71-438c-83ee-d4f8ffbef4c9","system_id":"levelo_inurba_marseille","lat":43.32489,"lon":5.36566,"is_reserved":false,"is_disabled":false,"rental_uris":{"android":"levelo://app?vid=67dab935-1b71-438c-83ee-d4f8ffbef4c9","ios":"levelo://app?vid=67dab935-1b71-438c-83ee-d4f8ffbef4c9"},"vehicle_type_id":"4","last_reported":1730815692,"current_range_meters":23200,"station_id":"ce4bhs12rcd13ifvqhvg","pricing_plan_id":"cebpf4jnsgd1na2vs0mg"},{"bike_id":"0f74818d-20d1-441e-99c3-0860b26793d6","system_id":"levelo_inurba_marseille","lat":43.27071,"lon":5.42285,"is_reserved":false,"is_disabled":false,"rental_uris":{"android":"levelo://app?vid=0f74818d-20d1-441e-99c3-0860b26793d6","ios":"levelo://app?vid=0f74818d-20d1-441e-99c3-0860b26793d6"},"vehicle_type_id":"4","last_reported":1730815692,"current_range_meters":24800,"station_id":"ce4bhk92rcd13ifvqgb0","pricing_plan_id":"cebpf4jnsgd1na2vs0mg"},{"bike_id":"c8a2d708-abe4-4e54-aedc-a081f8a474e1","system_id":"levelo_inurba_marseille","lat":43.24081,"lon":5.37754,"is_reserved":false,"is_disabled":false,"rental_uris":{"android":"levelo://app?vid=c8a2d708-abe4-4e54-aedc-a081f8a474e1","ios":"levelo://app?vid=c8a2d708-abe4-4e54-aedc-a081f8a474e1"},"vehicle_type_id":"4","last_reported":1730815692,"current_range_meters":28000,"station_id":"ce4bhnp2rcd13ifvqgvg","pricing_plan_id":"cebpf4jnsgd1na2vs0mg"},{"bike_id":"068ea267-bf0d-40d7-9af9-1d5b3589b2a2","system_id":"levelo_inurba_marseille","lat":43.30188,"lon":5.36612,"is_reserved":false,"is_disabled":false,"rental_uris":{"android":"levelo://app?vid=068ea267-bf0d-40d7-9af9-1d5b3589b2a2","ios":"levelo://app?vid=068ea267-bf0d-40d7-9af9-1d5b3589b2a2"},"vehicle_type_id":"4","last_reported":1730815692,"current_range_meters":36800,"station_id":"ce4bgrh2rcd13ifvqc8g","pricing_plan_id":"cebpf4jnsgd1na2vs0mg"},{"bike_id":"91250bf2-829d-44d4-9abc-97013f1fe234","system_id":"levelo_inurba_marseille","lat":43.23147,"lon":5.43706,"is_reserved":false,"is_disabled":false,"rental_uris":{"android":"levelo://app?vid=91250bf2-829d-44d4-9abc-97013f1fe234","ios":"levelo://app?vid=91250bf2-829d-44d4-9abc-97013f1fe234"},"vehicle_type_id":"4","last_reported":1730815692,"current_range_meters":13600,"station_id":"ce4bhmp2rcd13ifvqgog","pricing_plan_id":"cebpf4jnsgd1na2vs0mg"},{"bike_id":"64034af2-67ea-4876-bcba-e9667f90eda7","system_id":"levelo_inurba_marseille","lat":43.33718,"lon":5.39188,"is_reserved":false,"is_disabled":false,"rental_uris":{"android":"levelo://app?vid=64034af2-67ea-4876-bcba-e9667f90eda7","ios":"levelo://app?vid=64034af2-67ea-4876-bcba-e9667f90eda7"},"vehicle_type_id":"4","last_reported":1730815692,"current_range_meters":32400,"station_id":"ce4bhr92rcd13ifvqhsg","pricing_plan_id":"cebpf4jnsgd1na2vs0mg"},{"bike_id":"d12d1c82-da5e-4c13-953c-fe51c78805ea","system_id":"levelo_inurba_marseille","lat":43.30282,"lon":5.3771,"is_reserved":false,"is_disabled":false,"rental_uris":{"android":"levelo://app?vid=d12d1c82-da5e-4c13-953c-fe51c78805ea","ios":"levelo://app?vid=d12d1c82-da5e-4c13-953c-fe51c78805ea"},"vehicle_type_id":"4","last_reported":1730815692,"current_range_meters":25200,"station_id":"ce4bguh2rcd13ifvqcj0","pricing_plan_id":"cebpf4jnsgd1na2vs0mg"},{"bike_id":"4e913c8d-07c0-4069-94b0-1ba364f48240","system_id":"levelo_inurba_marseille","lat":43.30617,"lon":5.37227,"is_reserved":false,"is_disabled":false,"rental_uris":{"android":"levelo://app?vid=4e913c8d-07c0-4069-94b0-1ba364f48240","ios":"levelo://app?vid=4e913c8d-07c0-4069-94b0-1ba364f48240"},"vehicle_type_id":"4","last_reported":1730815692,"current_range_meters":22000,"station_id":"ce4bgqh2rcd13ifvqc4g","pricing_plan_id":"cebpf4jnsgd1na2vs0mg"},{"bike_id":"d0a0f3c0-34f6-4bea-9bb7-7ec1a9549e31","system_id":"levelo_inurba_marseille","lat":43.30913,"lon":5.36854,"is_reserved":false,"is_disabled":false,"rental_uris":{"android":"levelo://app?vid=d0a0f3c0-34f6-4bea-9bb7-7ec1a9549e31","ios":"levelo://app?vid=d0a0f3c0-34f6-4bea-9bb7-7ec1a9549e31"},"vehicle_type_id":"4","last_reported":1730815692,"current_range_meters":30400,"station_id":"ce4bgn92rcd13ifvqbvg","pricing_plan_id":"cebpf4jnsgd1na2vs0mg"},{"bike_id":"98ecf52e-74c6-45bc-a5b2-06c6ca5d158c","system_id":"levelo_inurba_marseille","lat":43.30908,"lon":5.36852,"is_reserved":false,"is_disabled":false,"rental_uris":{"android":"levelo://app?vid=98ecf52e-74c6-45bc-a5b2-06c6ca5d158c","ios":"levelo://app?vid=98ecf52e-74c6-45bc-a5b2-06c6ca5d158c"},"vehicle_type_id":"4","last_reported":1730815692,"current_range_meters":38800,"station_id":"ce4bgn92rcd13ifvqbvg","pricing_plan_id":"cebpf4jnsgd1na2vs0mg"},{"bike_id":"0d6389f7-bab8-4ebf-ad74-7e0fecb405b9","system_id":"levelo_inurba_marseille","lat":43.3135,"lon":5.36711,"is_reserved":false,"is_disabled":false,"rental_uris":{"android":"levelo://app?vid=0d6389f7-bab8-4ebf-ad74-7e0fecb405b9","ios":"levelo://app?vid=0d6389f7-bab8-4ebf-ad74-7e0fecb405b9"},"vehicle_type_id":"4","last_reported":1730815692,"current_range_meters":34000,"station_id":"ce4bgr92rcd13ifvqc6g","pricing_plan_id":"cebpf4jnsgd1na2vs0mg"},{"bike_id":"a75a6002-5ac3-48a0-9beb-b15582ad81ed","system_id":"levelo_inurba_marseille","lat":43.29274,"lon":5.36859,"is_reserved":false,"is_disabled":false,"rental_uris":{"android":"levelo://app?vid=a75a6002-5ac3-48a0-9beb-b15582ad81ed","ios":"levelo://app?vid=a75a6002-5ac3-48a0-9beb-b15582ad81ed"},"vehicle_type_id":"4","last_reported":1730815692,"current_range_meters":31200,"station_id":"ce4bhbp2rcd13ifvqesg","pricing_plan_id":"cebpf4jnsgd1na2vs0mg"},{"bike_id":"54da604b-0b15-4aee-a983-1d3e6ef5aa2b","system_id":"levelo_inurba_marseille","lat":43.29302,"lon":5.37447,"is_reserved":false,"is_disabled":false,"rental_uris":{"android":"levelo://app?vid=54da604b-0b15-4aee-a983-1d3e6ef5aa2b","ios":"levelo://app?vid=54da604b-0b15-4aee-a983-1d3e6ef5aa2b"},"vehicle_type_id":"4","last_reported":1730815692,"current_range_meters":24400,"station_id":"ce4bgi12rcd13ifvqb70","pricing_plan_id":"cebpf4jnsgd1na2vs0mg"},{"bike_id":"2eac1b37-6523-49bd-a9dd-e97d9d8f39c0","system_id":"levelo_inurba_marseille","lat":43.31079,"lon":5.38353,"is_reserved":false,"is_disabled":false,"rental_uris":{"android":"levelo://app?vid=2eac1b37-6523-49bd-a9dd-e97d9d8f39c0","ios":"levelo://app?vid=2eac1b37-6523-49bd-a9dd-e97d9d8f39c0"},"vehicle_type_id":"4","last_reported":1730815692,"current_range_meters":16800,"station_id":"ce4bgv92rcd13ifvqcr0","pricing_plan_id":"cebpf4jnsgd1na2vs0mg"},{"bike_id":"6a5d2571-5798-4443-9a93-e6977dca5df3","system_id":"levelo_inurba_marseille","lat":43.29307,"lon":5.37449,"is_reserved":false,"is_disabled":false,"rental_uris":{"android":"levelo://app?vid=6a5d2571-5798-4443-9a93-e6977dca5df3","ios":"levelo://app?vid=6a5d2571-5798-4443-9a93-e6977dca5df3"},"vehicle_type_id":"4","last_reported":1730815692,"current_range_meters":31200,"station_id":"ce4bgi12rcd13ifvqb70","pricing_plan_id":"cebpf4jnsgd1na2vs0mg"},{"bike_id":"d4b23d47-0d43-43fe-a0d2-1f7b0514a6b4","system_id":"levelo_inurba_marseille","lat":43.24998,"lon":5.38925,"is_reserved":false,"is_disabled":false,"rental_uris":{"android":"levelo://app?vid=d4b23d47-0d43-43fe-a0d2-1f7b0514a6b4","ios":"levelo://app?vid=d4b23d47-0d43-43fe-a0d2-1f7b0514a6b4"},"vehicle_type_id":"4","last_reported":1730815692,"current_range_meters":12800,"station_id":"ce4bhgp2rcd13ifvqfd0","pricing_plan_id":"cebpf4jnsgd1na2vs0mg"},{"bike_id":"8987c73e-0323-43f3-8533-03a7baea2b0e","system_id":"levelo_inurba_marseille","lat":43.29008,"lon":5.35621,"is_reserved":false,"is_disabled":false,"rental_uris":{"android":"levelo://app?vid=8987c73e-0323-43f3-8533-03a7baea2b0e","ios":"levelo://app?vid=8987c73e-0323-43f3-8533-03a7baea2b0e"},"vehicle_type_id":"4","last_reported":1730815692,"current_range_meters":26000,"station_id":"ce4bhb92rcd13ifvqen0","pricing_plan_id":"cebpf4jnsgd1na2vs0mg"},{"bike_id":"c68539f2-40b5-40db-b2c6-a32cd7a7d826","system_id":"levelo_inurba_marseille","lat":43.27499,"lon":5.42456,"is_reserved":false,"is_disabled":false,"rental_uris":{"android":"levelo://app?vid=c68539f2-40b5-40db-b2c6-a32cd7a7d826","ios":"levelo://app?vid=c68539f2-40b5-40db-b2c6-a32cd7a7d826"},"vehicle_type_id":"4","last_reported":1730815692,"current_range_meters":22400,"station_id":"ce4bhn92rcd13ifvqgrg","pricing_plan_id":"cebpf4jnsgd1na2vs0mg"},{"bike_id":"0e38a66d-102a-4f39-95b4-36dd246848d6","system_id":"levelo_inurba_marseille","lat":43.28404,"lon":5.37522,"is_reserved":false,"is_disabled":false,"rental_uris":{"android":"levelo://app?vid=0e38a66d-102a-4f39-95b4-36dd246848d6","ios":"levelo://app?vid=0e38a66d-102a-4f39-95b4-36dd246848d6"},"vehicle_type_id":"4","last_reported":1730815692,"current_range_meters":10000,"station_id":"ce4bh412rcd13ifvqds0","pricing_plan_id":"cebpf4jnsgd1na2vs0mg"},{"bike_id":"2873ea86-eb57-446c-aef6-73d80f4ea586","system_id":"levelo_inurba_marseille","lat":43.26942,"lon":5.389255,"is_reserved":false,"is_disabled":false,"rental_uris":{"android":"levelo://app?vid=2873ea86-eb57-446c-aef6-73d80f4ea586","ios":"levelo://app?vid=2873ea86-eb57-446c-aef6-73d80f4ea586"},"vehicle_type_id":"4","last_reported":1730815692,"current_range_meters":38800,"station_id":"ce4bhhh2rcd13ifvqfl0","pricing_plan_id":"cebpf4jnsgd1na2vs0mg"},{"bike_id":"8034380f-6d58-4b7a-9336-f21f0990bb40","system_id":"levelo_inurba_marseille","lat":43.2794,"lon":5.41047,"is_reserved":false,"is_disabled":false,"rental_uris":{"android":"levelo://app?vid=8034380f-6d58-4b7a-9336-f21f0990bb40","ios":"levelo://app?vid=8034380f-6d58-4b7a-9336-f21f0990bb40"},"vehicle_type_id":"4","last_reported":1730815692,"current_range_meters":27600,"station_id":"ce4bhnp2rcd13ifvqh0g","pricing_plan_id":"cebpf4jnsgd1na2vs0mg"},{"bike_id":"15de2ca6-28c5-4f21-a946-3c35db8b327d","system_id":"levelo_inurba_marseille","lat":43.24084,"lon":5.37761,"is_reserved":false,"is_disabled":false,"rental_uris":{"android":"levelo://app?vid=15de2ca6-28c5-4f21-a946-3c35db8b327d","ios":"levelo://app?vid=15de2ca6-28c5-4f21-a946-3c35db8b327d"},"vehicle_type_id":"4","last_reported":1730815692,"current_range_meters":31200,"station_id":"ce4bhnp2rcd13ifvqgvg","pricing_plan_id":"cebpf4jnsgd1na2vs0mg"},{"bike_id":"225c749a-6f56-4ff9-9ec7-1b609acad786","system_id":"levelo_inurba_marseille","lat":43.30321,"lon":5.36906,"is_reserved":false,"is_disabled":false,"rental_uris":{"android":"levelo://app?vid=225c749a-6f56-4ff9-9ec7-1b609acad786","ios":"levelo://app?vid=225c749a-6f56-4ff9-9ec7-1b609acad786"},"vehicle_type_id":"4","last_reported":1730815692,"current_range_meters":28000,"station_id":"ce4bgqh2rcd13ifvqc5g","pricing_plan_id":"cebpf4jnsgd1na2vs0mg"},{"bike_id":"16ae9290-db9a-4317-b34b-8b26fa9930fd","system_id":"levelo_inurba_marseille","lat":43.23156,"lon":5.43722,"is_reserved":false,"is_disabled":false,"rental_uris":{"android":"levelo://app?vid=16ae9290-db9a-4317-b34b-8b26fa9930fd","ios":"levelo://app?vid=16ae9290-db9a-4317-b34b-8b26fa9930fd"},"vehicle_type_id":"4","last_reported":1730815692,"current_range_meters":27600,"station_id":"ce4bhmp2rcd13ifvqgog","pricing_plan_id":"cebpf4jnsgd1na2vs0mg"},{"bike_id":"c268517c-964f-46f6-a31b-b02dc0b753e1","system_id":"levelo_inurba_marseille","lat":43.29281,"lon":5.36847,"is_reserved":false,"is_disabled":false,"rental_uris":{"android":"levelo://app?vid=c268517c-964f-46f6-a31b-b02dc0b753e1","ios":"levelo://app?vid=c268517c-964f-46f6-a31b-b02dc0b753e1"},"vehicle_type_id":"4","last_reported":1730815692,"current_range_meters":8000,"station_id":"ce4bhbp2rcd13ifvqesg","pricing_plan_id":"cebpf4jnsgd1na2vs0mg"},{"bike_id":"77f75c58-df77-4d1f-b372-5b5eed455101","system_id":"levelo_inurba_marseille","lat":43.30545,"lon":5.36549,"is_reserved":false,"is_disabled":false,"rental_uris":{"android":"levelo://app?vid=77f75c58-df77-4d1f-b372-5b5eed455101","ios":"levelo://app?vid=77f75c58-df77-4d1f-b372-5b5eed455101"},"vehicle_type_id":"4","last_reported":1730815692,"current_range_meters":39200,"station_id":"ce4bgs12rcd13ifvqcag","pricing_plan_id":"cebpf4jnsgd1na2vs0mg"},{"bike_id":"f8dbe69c-bfd7-43f4-bee8-134e478c4770","system_id":"levelo_inurba_marseille","lat":43.30353,"lon":5.4188,"is_reserved":false,"is_disabled":false,"rental_uris":{"android":"levelo://app?vid=f8dbe69c-bfd7-43f4-bee8-134e478c4770","ios":"levelo://app?vid=f8dbe69c-bfd7-43f4-bee8-134e478c4770"},"vehicle_type_id":"4","last_reported":1730815692,"current_range_meters":17200,"station_id":"ce4bhop2rcd13ifvqh7g","pricing_plan_id":"cebpf4jnsgd1na2vs0mg"},{"bike_id":"fe2a7ca2-6bcd-4713-a568-8142f6ee8d6b","system_id":"levelo_inurba_marseille","lat":43.27811,"lon":5.40711,"is_reserved":false,"is_disabled":false,"rental_uris":{"android":"levelo://app?vid=fe2a7ca2-6bcd-4713-a568-8142f6ee8d6b","ios":"levelo://app?vid=fe2a7ca2-6bcd-4713-a568-8142f6ee8d6b"},"vehicle_type_id":"4","last_reported":1730815692,"current_range_meters":38800,"station_id":"ce4bhnh2rcd13ifvqgtg","pricing_plan_id":"cebpf4jnsgd1na2vs0mg"},{"bike_id":"d7eba0bc-553a-47d4-8bc6-a467f428147a","system_id":"levelo_inurba_marseille","lat":43.31321,"lon":5.36751,"is_reserved":false,"is_disabled":false,"rental_uris":{"android":"levelo://app?vid=d7eba0bc-553a-47d4-8bc6-a467f428147a","ios":"levelo://app?vid=d7eba0bc-553a-47d4-8bc6-a467f428147a"},"vehicle_type_id":"4","last_reported":1730815692,"current_range_meters":29600,"station_id":"ce4bgr92rcd13ifvqc6g","pricing_plan_id":"cebpf4jnsgd1na2vs0mg"},{"bike_id":"bdce9180-89d6-477b-90d2-848cb6200d2e","system_id":"levelo_inurba_marseille","lat":43.24075,"lon":5.37774,"is_reserved":false,"is_disabled":false,"rental_uris":{"android":"levelo://app?vid=bdce9180-89d6-477b-90d2-848cb6200d2e","ios":"levelo://app?vid=bdce9180-89d6-477b-90d2-848cb6200d2e"},"vehicle_type_id":"4","last_reported":1730815692,"current_range_meters":9200,"station_id":"ce4bhnp2rcd13ifvqgvg","pricing_plan_id":"cebpf4jnsgd1na2vs0mg"},{"bike_id":"671c79e6-808a-49bd-b020-26c1f7504ef6","system_id":"levelo_inurba_marseille","lat":43.28367,"lon":5.38127,"is_reserved":false,"is_disabled":false,"rental_uris":{"android":"levelo://app?vid=671c79e6-808a-49bd-b020-26c1f7504ef6","ios":"levelo://app?vid=671c79e6-808a-49bd-b020-26c1f7504ef6"},"vehicle_type_id":"4","last_reported":1730815692,"current_range_meters":25600,"station_id":"ce4bh412rcd13ifvqdr0","pricing_plan_id":"cebpf4jnsgd1na2vs0mg"},{"bike_id":"bb254295-6b2f-47fa-b542-f768ed4879ee","system_id":"levelo_inurba_marseille","lat":43.23153,"lon":5.43708,"is_reserved":false,"is_disabled":false,"rental_uris":{"android":"levelo://app?vid=bb254295-6b2f-47fa-b542-f768ed4879ee","ios":"levelo://app?vid=bb254295-6b2f-47fa-b542-f768ed4879ee"},"vehicle_type_id":"4","last_reported":1730815692,"current_range_meters":16800,"station_id":"ce4bhmp2rcd13ifvqgog","pricing_plan_id":"cebpf4jnsgd1na2vs0mg"},{"bike_id":"9d77ffc3-1d32-4b8f-af13-c75dc39aee03","system_id":"levelo_inurba_marseille","lat":43.2835,"lon":5.38108,"is_reserved":false,"is_disabled":false,"rental_uris":{"android":"levelo://app?vid=9d77ffc3-1d32-4b8f-af13-c75dc39aee03","ios":"levelo://app?vid=9d77ffc3-1d32-4b8f-af13-c75dc39aee03"},"vehicle_type_id":"4","last_reported":1730815692,"current_range_meters":38400,"station_id":"ce4bh412rcd13ifvqdr0","pricing_plan_id":"cebpf4jnsgd1na2vs0mg"},{"bike_id":"ff667aa2-147a-4a47-b6ea-40549b50c928","system_id":"levelo_inurba_marseille","lat":43.23157,"lon":5.43727,"is_reserved":false,"is_disabled":false,"rental_uris":{"android":"levelo://app?vid=ff667aa2-147a-4a47-b6ea-40549b50c928","ios":"levelo://app?vid=ff667aa2-147a-4a47-b6ea-40549b50c928"},"vehicle_type_id":"4","last_reported":1730815692,"current_range_meters":32000,"station_id":"ce4bhmp2rcd13ifvqgog","pricing_plan_id":"cebpf4jnsgd1na2vs0mg"},{"bike_id":"1a9673f5-bbf9-46be-9adc-75dc237c4579","system_id":"levelo_inurba_marseille","lat":43.290314,"lon":5.370757,"is_reserved":false,"is_disabled":false,"rental_uris":{"android":"levelo://app?vid=1a9673f5-bbf9-46be-9adc-75dc237c4579","ios":"levelo://app?vid=1a9673f5-bbf9-46be-9adc-75dc237c4579"},"vehicle_type_id":"4","last_reported":1730815692,"current_range_meters":10000,"station_id":"ce4bh492rcd13ifvqdug","pricing_plan_id":"cebpf4jnsgd1na2vs0mg"},{"bike_id":"84522275-f1b5-4710-88b3-826bfb25b843","system_id":"levelo_inurba_marseille","lat":43.3414,"lon":5.40901,"is_reserved":false,"is_disabled":false,"rental_uris":{"android":"levelo://app?vid=84522275-f1b5-4710-88b3-826bfb25b843","ios":"levelo://app?vid=84522275-f1b5-4710-88b3-826bfb25b843"},"vehicle_type_id":"4","last_reported":1730815692,"current_range_meters":17200,"station_id":"ce4bhqh2rcd13ifvqhlg","pricing_plan_id":"cebpf4jnsgd1na2vs0mg"},{"bike_id":"5832e14c-3b42-4c86-ac3f-f2e0b7767232","system_id":"levelo_inurba_marseille","lat":43.3172,"lon":5.37751,"is_reserved":false,"is_disabled":false,"rental_uris":{"android":"levelo://app?vid=5832e14c-3b42-4c86-ac3f-f2e0b7767232","ios":"levelo://app?vid=5832e14c-3b42-4c86-ac3f-f2e0b7767232"},"vehicle_type_id":"4","last_reported":1730815692,"current_range_meters":36000,"station_id":"ce4bgth2rcd13ifvqch0","pricing_plan_id":"cebpf4jnsgd1na2vs0mg"},{"bike_id":"0a3c1a6b-eadc-4e53-adb5-ce60bbc39060","system_id":"levelo_inurba_marseille","lat":43.330204,"lon":5.390358,"is_reserved":false,"is_disabled":false,"rental_uris":{"android":"levelo://app?vid=0a3c1a6b-eadc-4e53-adb5-ce60bbc39060","ios":"levelo://app?vid=0a3c1a6b-eadc-4e53-adb5-ce60bbc39060"},"vehicle_type_id":"4","last_reported":1730815692,"current_range_meters":39200,"station_id":"ce4bhr92rcd13ifvqhrg","pricing_plan_id":"cebpf4jnsgd1na2vs0mg"},{"bike_id":"44411bdc-0c16-4aa6-938e-cc9ec4755c7a","system_id":"levelo_inurba_marseille","lat":43.29306,"lon":5.3718,"is_reserved":false,"is_disabled":false,"rental_uris":{"android":"levelo://app?vid=44411bdc-0c16-4aa6-938e-cc9ec4755c7a","ios":"levelo://app?vid=44411bdc-0c16-4aa6-938e-cc9ec4755c7a"},"vehicle_type_id":"4","last_reported":1730815692,"current_range_meters":26800,"station_id":"ce4bgh92rcd13ifvqb40","pricing_plan_id":"cebpf4jnsgd1na2vs0mg"},{"bike_id":"382cf05d-fc9a-4ebb-8bf2-64026cd9a29f","system_id":"levelo_inurba_marseille","lat":43.33764,"lon":5.37438,"is_reserved":false,"is_disabled":false,"rental_uris":{"android":"levelo://app?vid=382cf05d-fc9a-4ebb-8bf2-64026cd9a29f","ios":"levelo://app?vid=382cf05d-fc9a-4ebb-8bf2-64026cd9a29f"},"vehicle_type_id":"4","last_reported":1730815692,"current_range_meters":38800,"station_id":"","pricing_plan_id":"cebpf4jnsgd1na2vs0mg"},{"bike_id":"cf467060-7957-4fab-ac94-a7e0b0e23df0","system_id":"levelo_inurba_marseille","lat":43.28856,"lon":5.3586,"is_reserved":false,"is_disabled":false,"rental_uris":{"android":"levelo://app?vid=cf467060-7957-4fab-ac94-a7e0b0e23df0","ios":"levelo://app?vid=cf467060-7957-4fab-ac94-a7e0b0e23df0"},"vehicle_type_id":"4","last_reported":1730815692,"current_range_meters":27200,"station_id":"ce4bhb12rcd13ifvqem0","pricing_plan_id":"cebpf4jnsgd1na2vs0mg"},{"bike_id":"f5c149b5-832a-422b-b4b4-f0c23dcc50b1","system_id":"levelo_inurba_marseille","lat":43.25719,"lon":5.41116,"is_reserved":false,"is_disabled":false,"rental_uris":{"android":"levelo://app?vid=f5c149b5-832a-422b-b4b4-f0c23dcc50b1","ios":"levelo://app?vid=f5c149b5-832a-422b-b4b4-f0c23dcc50b1"},"vehicle_type_id":"4","last_reported":1730815692,"current_range_meters":38000,"station_id":"ce4bhkp2rcd13ifvqgd0","pricing_plan_id":"cebpf4jnsgd1na2vs0mg"},{"bike_id":"24c27057-ccf9-4f5f-861f-e3a3e0c8c43e","system_id":"levelo_inurba_marseille","lat":43.30923,"lon":5.40144,"is_reserved":false,"is_disabled":false,"rental_uris":{"android":"levelo://app?vid=24c27057-ccf9-4f5f-861f-e3a3e0c8c43e","ios":"levelo://app?vid=24c27057-ccf9-4f5f-861f-e3a3e0c8c43e"},"vehicle_type_id":"4","last_reported":1730815692,"current_range_meters":27600,"station_id":"ce4bgvp2rcd13ifvqct0","pricing_plan_id":"cebpf4jnsgd1na2vs0mg"},{"bike_id":"c50677bd-2648-4b2c-a85d-fa9aec0be895","system_id":"levelo_inurba_marseille","lat":43.3055,"lon":5.36524,"is_reserved":false,"is_disabled":false,"rental_uris":{"android":"levelo://app?vid=c50677bd-2648-4b2c-a85d-fa9aec0be895","ios":"levelo://app?vid=c50677bd-2648-4b2c-a85d-fa9aec0be895"},"vehicle_type_id":"4","last_reported":1730815692,"current_range_meters":38800,"station_id":"ce4bgs12rcd13ifvqcag","pricing_plan_id":"cebpf4jnsgd1na2vs0mg"},{"bike_id":"e20042a3-679d-432e-bbad-615f69049412","system_id":"levelo_inurba_marseille","lat":43.2315,"lon":5.43708,"is_reserved":false,"is_disabled":false,"rental_uris":{"android":"levelo://app?vid=e20042a3-679d-432e-bbad-615f69049412","ios":"levelo://app?vid=e20042a3-679d-432e-bbad-615f69049412"},"vehicle_type_id":"4","last_reported":1730815692,"current_range_meters":27200,"station_id":"ce4bhmp2rcd13ifvqgog","pricing_plan_id":"cebpf4jnsgd1na2vs0mg"},{"bike_id":"47a64d21-5ac6-4cb0-9d7a-360d0b956e6c","system_id":"levelo_inurba_marseille","lat":43.30288,"lon":5.37705,"is_reserved":false,"is_disabled":false,"rental_uris":{"android":"levelo://app?vid=47a64d21-5ac6-4cb0-9d7a-360d0b956e6c","ios":"levelo://app?vid=47a64d21-5ac6-4cb0-9d7a-360d0b956e6c"},"vehicle_type_id":"4","last_reported":1730815692,"current_range_meters":6400,"station_id":"ce4bguh2rcd13ifvqcj0","pricing_plan_id":"cebpf4jnsgd1na2vs0mg"},{"bike_id":"4f6385d7-3691-4902-a172-4652219474c3","system_id":"levelo_inurba_marseille","lat":43.27833,"lon":5.39212,"is_reserved":false,"is_disabled":false,"rental_uris":{"android":"levelo://app?vid=4f6385d7-3691-4902-a172-4652219474c3","ios":"levelo://app?vid=4f6385d7-3691-4902-a172-4652219474c3"},"vehicle_type_id":"4","last_reported":1730815692,"current_range_meters":36800,"station_id":"ce4bhjp2rcd13ifvqga0","pricing_plan_id":"cebpf4jnsgd1na2vs0mg"},{"bike_id":"f6fac252-bcfe-4359-8cd8-84ee90eebb7d","system_id":"levelo_inurba_marseille","lat":43.30526,"lon":5.36548,"is_reserved":false,"is_disabled":false,"rental_uris":{"android":"levelo://app?vid=f6fac252-bcfe-4359-8cd8-84ee90eebb7d","ios":"levelo://app?vid=f6fac252-bcfe-4359-8cd8-84ee90eebb7d"},"vehicle_type_id":"4","last_reported":1730815692,"current_range_meters":39200,"station_id":"ce4bgs12rcd13ifvqcag","pricing_plan_id":"cebpf4jnsgd1na2vs0mg"},{"bike_id":"660f9ab5-0ee6-45bd-9ba0-20f4579b8e99","system_id":"levelo_inurba_marseille","lat":43.33602,"lon":5.41026,"is_reserved":false,"is_disabled":false,"rental_uris":{"android":"levelo://app?vid=660f9ab5-0ee6-45bd-9ba0-20f4579b8e99","ios":"levelo://app?vid=660f9ab5-0ee6-45bd-9ba0-20f4579b8e99"},"vehicle_type_id":"4","last_reported":1730815692,"current_range_meters":38800,"station_id":"ce4bhqh2rcd13ifvqhmg","pricing_plan_id":"cebpf4jnsgd1na2vs0mg"},{"bike_id":"610b0d0c-3930-46a1-8d7c-dbfb496d05de","system_id":"levelo_inurba_marseille","lat":43.27838,"lon":5.4071,"is_reserved":false,"is_disabled":false,"rental_uris":{"android":"levelo://app?vid=610b0d0c-3930-46a1-8d7c-dbfb496d05de","ios":"levelo://app?vid=610b0d0c-3930-46a1-8d7c-dbfb496d05de"},"vehicle_type_id":"4","last_reported":1730815692,"current_range_meters":38800,"station_id":"ce4bhnh2rcd13ifvqgtg","pricing_plan_id":"cebpf4jnsgd1na2vs0mg"},{"bike_id":"ae041007-e592-4090-bb3e-17b320956fec","system_id":"levelo_inurba_marseille","lat":43.24075,"lon":5.3776,"is_reserved":false,"is_disabled":false,"rental_uris":{"android":"levelo://app?vid=ae041007-e592-4090-bb3e-17b320956fec","ios":"levelo://app?vid=ae041007-e592-4090-bb3e-17b320956fec"},"vehicle_type_id":"4","last_reported":1730815692,"current_range_meters":24400,"station_id":"ce4bhnp2rcd13ifvqgvg","pricing_plan_id":"cebpf4jnsgd1na2vs0mg"},{"bike_id":"fc7e1c38-5ceb-4fb3-9afa-990ebfb95007","system_id":"levelo_inurba_marseille","lat":43.23156,"lon":5.43712,"is_reserved":false,"is_disabled":false,"rental_uris":{"android":"levelo://app?vid=fc7e1c38-5ceb-4fb3-9afa-990ebfb95007","ios":"levelo://app?vid=fc7e1c38-5ceb-4fb3-9afa-990ebfb95007"},"vehicle_type_id":"4","last_reported":1730815692,"current_range_meters":36400,"station_id":"ce4bhmp2rcd13ifvqgog","pricing_plan_id":"cebpf4jnsgd1na2vs0mg"},{"bike_id":"81ba415b-c3c0-4b84-93ba-cd7b1fc082ba","system_id":"levelo_inurba_marseille","lat":43.29058,"lon":5.35928,"is_reserved":false,"is_disabled":false,"rental_uris":{"android":"levelo://app?vid=81ba415b-c3c0-4b84-93ba-cd7b1fc082ba","ios":"levelo://app?vid=81ba415b-c3c0-4b84-93ba-cd7b1fc082ba"},"vehicle_type_id":"4","last_reported":1730815692,"current_range_meters":10800,"station_id":"ce4bha92rcd13ifvqeg0","pricing_plan_id":"cebpf4jnsgd1na2vs0mg"},{"bike_id":"7d1b7a61-95c8-4bab-bb7d-9f159f2d16e5","system_id":"levelo_inurba_marseille","lat":43.28352,"lon":5.38105,"is_reserved":false,"is_disabled":false,"rental_uris":{"android":"levelo://app?vid=7d1b7a61-95c8-4bab-bb7d-9f159f2d16e5","ios":"levelo://app?vid=7d1b7a61-95c8-4bab-bb7d-9f159f2d16e5"},"vehicle_type_id":"4","last_reported":1730815692,"current_range_meters":16000,"station_id":"ce4bh412rcd13ifvqdr0","pricing_plan_id":"cebpf4jnsgd1na2vs0mg"},{"bike_id":"94767d64-6cce-4bdd-a274-3194a009e90b","system_id":"levelo_inurba_marseille","lat":43.29932,"lon":5.36548,"is_reserved":false,"is_disabled":false,"rental_uris":{"android":"levelo://app?vid=94767d64-6cce-4bdd-a274-3194a009e90b","ios":"levelo://app?vid=94767d64-6cce-4bdd-a274-3194a009e90b"},"vehicle_type_id":"4","last_reported":1730815692,"current_range_meters":31200,"station_id":"ce4bgm92rcd13ifvqbr0","pricing_plan_id":"cebpf4jnsgd1na2vs0mg"},{"bike_id":"63ee36d0-4c90-4d76-9db3-a49c1c21ba84","system_id":"levelo_inurba_marseille","lat":43.28571,"lon":5.39501,"is_reserved":false,"is_disabled":false,"rental_uris":{"android":"levelo://app?vid=63ee36d0-4c90-4d76-9db3-a49c1c21ba84","ios":"levelo://app?vid=63ee36d0-4c90-4d76-9db3-a49c1c21ba84"},"vehicle_type_id":"4","last_reported":1730815692,"current_range_meters":27200,"station_id":"ce4bh292rcd13ifvqdg0","pricing_plan_id":"cebpf4jnsgd1na2vs0mg"},{"bike_id":"df2000e4-7ce1-46ba-980f-a90a63f2d7a2","system_id":"levelo_inurba_marseille","lat":43.29848,"lon":5.36283,"is_reserved":false,"is_disabled":false,"rental_uris":{"android":"levelo://app?vid=df2000e4-7ce1-46ba-980f-a90a63f2d7a2","ios":"levelo://app?vid=df2000e4-7ce1-46ba-980f-a90a63f2d7a2"},"vehicle_type_id":"4","last_reported":1730815692,"current_range_meters":38800,"station_id":"ce4bgpp2rcd13ifvqc3g","pricing_plan_id":"cebpf4jnsgd1na2vs0mg"},{"bike_id":"fb97f435-88f5-4db6-9d61-5e947291d774","system_id":"levelo_inurba_marseille","lat":43.3095,"lon":5.390273,"is_reserved":false,"is_disabled":false,"rental_uris":{"android":"levelo://app?vid=fb97f435-88f5-4db6-9d61-5e947291d774","ios":"levelo://app?vid=fb97f435-88f5-4db6-9d61-5e947291d774"},"vehicle_type_id":"4","last_reported":1730815692,"current_range_meters":23200,"station_id":"ce4bgup2rcd13ifvqco0","pricing_plan_id":"cebpf4jnsgd1na2vs0mg"},{"bike_id":"10aaddce-952a-4d8b-ba57-bf0001759a8d","system_id":"levelo_inurba_marseille","lat":43.24067,"lon":5.37775,"is_reserved":false,"is_disabled":false,"rental_uris":{"android":"levelo://app?vid=10aaddce-952a-4d8b-ba57-bf0001759a8d","ios":"levelo://app?vid=10aaddce-952a-4d8b-ba57-bf0001759a8d"},"vehicle_type_id":"4","last_reported":1730815692,"current_range_meters":13600,"station_id":"ce4bhnp2rcd13ifvqgvg","pricing_plan_id":"cebpf4jnsgd1na2vs0mg"},{"bike_id":"ee151bfc-3746-4a8f-a217-2eefd6b1a6b2","system_id":"levelo_inurba_marseille","lat":43.27683,"lon":5.38864,"is_reserved":false,"is_disabled":false,"rental_uris":{"android":"levelo://app?vid=ee151bfc-3746-4a8f-a217-2eefd6b1a6b2","ios":"levelo://app?vid=ee151bfc-3746-4a8f-a217-2eefd6b1a6b2"},"vehicle_type_id":"4","last_reported":1730815692,"current_range_meters":25200,"station_id":"ce4bhi12rcd13ifvqfo0","pricing_plan_id":"cebpf4jnsgd1na2vs0mg"},{"bike_id":"e7874ce2-f692-46c5-87b4-56890b100158","system_id":"levelo_inurba_marseille","lat":43.23069,"lon":5.35486,"is_reserved":false,"is_disabled":false,"rental_uris":{"android":"levelo://app?vid=e7874ce2-f692-46c5-87b4-56890b100158","ios":"levelo://app?vid=e7874ce2-f692-46c5-87b4-56890b100158"},"vehicle_type_id":"4","last_reported":1730815692,"current_range_meters":38800,"station_id":"cpo3342slgdg3j2ifvpg","pricing_plan_id":"cebpf4jnsgd1na2vs0mg"},{"bike_id":"89a0471b-f69b-4cec-bb93-8922779a3df6","system_id":"levelo_inurba_marseille","lat":43.27681,"lon":5.38884,"is_reserved":false,"is_disabled":false,"rental_uris":{"android":"levelo://app?vid=89a0471b-f69b-4cec-bb93-8922779a3df6","ios":"levelo://app?vid=89a0471b-f69b-4cec-bb93-8922779a3df6"},"vehicle_type_id":"4","last_reported":1730815692,"current_range_meters":15200,"station_id":"ce4bhi12rcd13ifvqfo0","pricing_plan_id":"cebpf4jnsgd1na2vs0mg"},{"bike_id":"569e16b7-c955-4ae7-8de9-6302df71432c","system_id":"levelo_inurba_marseille","lat":43.29623,"lon":5.37727,"is_reserved":false,"is_disabled":false,"rental_uris":{"android":"levelo://app?vid=569e16b7-c955-4ae7-8de9-6302df71432c","ios":"levelo://app?vid=569e16b7-c955-4ae7-8de9-6302df71432c"},"vehicle_type_id":"4","last_reported":1730815692,"current_range_meters":37600,"station_id":"ce4bgi92rcd13ifvqb90","pricing_plan_id":"cebpf4jnsgd1na2vs0mg"},{"bike_id":"a6b470c9-d823-44bc-baa3-d9eb5e2efbd3","system_id":"levelo_inurba_marseille","lat":43.28159,"lon":5.42644,"is_reserved":false,"is_disabled":false,"rental_uris":{"android":"levelo://app?vid=a6b470c9-d823-44bc-baa3-d9eb5e2efbd3","ios":"levelo://app?vid=a6b470c9-d823-44bc-baa3-d9eb5e2efbd3"},"vehicle_type_id":"4","last_reported":1730815692,"current_range_meters":24400,"station_id":"ce4bhnh2rcd13ifvqgug","pricing_plan_id":"cebpf4jnsgd1na2vs0mg"},{"bike_id":"53b9295e-684a-43f7-957a-0b7e7e8ad690","system_id":"levelo_inurba_marseille","lat":43.27374,"lon":5.36259,"is_reserved":false,"is_disabled":false,"rental_uris":{"android":"levelo://app?vid=53b9295e-684a-43f7-957a-0b7e7e8ad690","ios":"levelo://app?vid=53b9295e-684a-43f7-957a-0b7e7e8ad690"},"vehicle_type_id":"4","last_reported":1730815692,"current_range_meters":22000,"station_id":"ce4bhbh2rcd13ifvqeo0","pricing_plan_id":"cebpf4jnsgd1na2vs0mg"},{"bike_id":"98cd7587-9e80-4a77-8170-546125c2943d","system_id":"levelo_inurba_marseille","lat":43.29196,"lon":5.35808,"is_reserved":false,"is_disabled":false,"rental_uris":{"android":"levelo://app?vid=98cd7587-9e80-4a77-8170-546125c2943d","ios":"levelo://app?vid=98cd7587-9e80-4a77-8170-546125c2943d"},"vehicle_type_id":"4","last_reported":1730815692,"current_range_meters":38800,"station_id":"ce4bhb12rcd13ifvqel0","pricing_plan_id":"cebpf4jnsgd1na2vs0mg"},{"bike_id":"90a9da23-eb60-42b0-ba0a-88dc3a77ee40","system_id":"levelo_inurba_marseille","lat":43.24077,"lon":5.37763,"is_reserved":false,"is_disabled":false,"rental_uris":{"android":"levelo://app?vid=90a9da23-eb60-42b0-ba0a-88dc3a77ee40","ios":"levelo://app?vid=90a9da23-eb60-42b0-ba0a-88dc3a77ee40"},"vehicle_type_id":"4","last_reported":1730815692,"current_range_meters":25200,"station_id":"ce4bhnp2rcd13ifvqgvg","pricing_plan_id":"cebpf4jnsgd1na2vs0mg"},{"bike_id":"c864c025-b3b0-4077-aaf8-410eaac1ccba","system_id":"levelo_inurba_marseille","lat":43.29854,"lon":5.36289,"is_reserved":false,"is_disabled":false,"rental_uris":{"android":"levelo://app?vid=c864c025-b3b0-4077-aaf8-410eaac1ccba","ios":"levelo://app?vid=c864c025-b3b0-4077-aaf8-410eaac1ccba"},"vehicle_type_id":"4","last_reported":1730815692,"current_range_meters":38800,"station_id":"ce4bgpp2rcd13ifvqc3g","pricing_plan_id":"cebpf4jnsgd1na2vs0mg"},{"bike_id":"c00bea07-7fca-48ff-b2cb-06a7ad838c9c","system_id":"levelo_inurba_marseille","lat":43.30539,"lon":5.36535,"is_reserved":false,"is_disabled":false,"rental_uris":{"android":"levelo://app?vid=c00bea07-7fca-48ff-b2cb-06a7ad838c9c","ios":"levelo://app?vid=c00bea07-7fca-48ff-b2cb-06a7ad838c9c"},"vehicle_type_id":"4","last_reported":1730815692,"current_range_meters":38800,"station_id":"ce4bgs12rcd13ifvqcag","pricing_plan_id":"cebpf4jnsgd1na2vs0mg"},{"bike_id":"8ec7a0f8-0810-4f63-a3ea-9187f3130e04","system_id":"levelo_inurba_marseille","lat":43.28082,"lon":5.3966,"is_reserved":false,"is_disabled":false,"rental_uris":{"android":"levelo://app?vid=8ec7a0f8-0810-4f63-a3ea-9187f3130e04","ios":"levelo://app?vid=8ec7a0f8-0810-4f63-a3ea-9187f3130e04"},"vehicle_type_id":"4","last_reported":1730815692,"current_range_meters":26000,"station_id":"ce4bho12rcd13ifvqh2g","pricing_plan_id":"cebpf4jnsgd1na2vs0mg"},{"bike_id":"a0940035-9bfd-4ab1-a8e3-713ba9141ed8","system_id":"levelo_inurba_marseille","lat":43.31233,"lon":5.36874,"is_reserved":false,"is_disabled":false,"rental_uris":{"android":"levelo://app?vid=a0940035-9bfd-4ab1-a8e3-713ba9141ed8","ios":"levelo://app?vid=a0940035-9bfd-4ab1-a8e3-713ba9141ed8"},"vehicle_type_id":"4","last_reported":1730815692,"current_range_meters":34000,"station_id":"ce4bgl92rcd13ifvqbq0","pricing_plan_id":"cebpf4jnsgd1na2vs0mg"},{"bike_id":"c2df6276-d0ea-475d-9ce8-c77644565570","system_id":"levelo_inurba_marseille","lat":43.3376,"lon":5.37433,"is_reserved":false,"is_disabled":false,"rental_uris":{"android":"levelo://app?vid=c2df6276-d0ea-475d-9ce8-c77644565570","ios":"levelo://app?vid=c2df6276-d0ea-475d-9ce8-c77644565570"},"vehicle_type_id":"4","last_reported":1730815692,"current_range_meters":37600,"station_id":"","pricing_plan_id":"cebpf4jnsgd1na2vs0mg"},{"bike_id":"7c242229-62ee-4a4d-95b5-d4759c1d8eae","system_id":"levelo_inurba_marseille","lat":43.28362,"lon":5.38646,"is_reserved":false,"is_disabled":false,"rental_uris":{"android":"levelo://app?vid=7c242229-62ee-4a4d-95b5-d4759c1d8eae","ios":"levelo://app?vid=7c242229-62ee-4a4d-95b5-d4759c1d8eae"},"vehicle_type_id":"4","last_reported":1730815692,"current_range_meters":34800,"station_id":"ce4bh492rcd13ifvqdvg","pricing_plan_id":"cebpf4jnsgd1na2vs0mg"},{"bike_id":"79dc6371-9f69-4ba8-abf4-03c6ad162c4f","system_id":"levelo_inurba_marseille","lat":43.29934,"lon":5.3654,"is_reserved":false,"is_disabled":false,"rental_uris":{"android":"levelo://app?vid=79dc6371-9f69-4ba8-abf4-03c6ad162c4f","ios":"levelo://app?vid=79dc6371-9f69-4ba8-abf4-03c6ad162c4f"},"vehicle_type_id":"4","last_reported":1730815692,"current_range_meters":30400,"station_id":"ce4bgm92rcd13ifvqbr0","pricing_plan_id":"cebpf4jnsgd1na2vs0mg"},{"bike_id":"eab47ed5-f83a-4939-80d1-ff052743bdd1","system_id":"levelo_inurba_marseille","lat":43.32115,"lon":5.36783,"is_reserved":false,"is_disabled":false,"rental_uris":{"android":"levelo://app?vid=eab47ed5-f83a-4939-80d1-ff052743bdd1","ios":"levelo://app?vid=eab47ed5-f83a-4939-80d1-ff052743bdd1"},"vehicle_type_id":"4","last_reported":1730815692,"current_range_meters":30400,"station_id":"ce4bhrh2rcd13ifvqhug","pricing_plan_id":"cebpf4jnsgd1na2vs0mg"},{"bike_id":"eb6c75d1-418d-4a3e-8399-d3a56a21765a","system_id":"levelo_inurba_marseille","lat":43.295287,"lon":5.390382,"is_reserved":false,"is_disabled":false,"rental_uris":{"android":"levelo://app?vid=eb6c75d1-418d-4a3e-8399-d3a56a21765a","ios":"levelo://app?vid=eb6c75d1-418d-4a3e-8399-d3a56a21765a"},"vehicle_type_id":"4","last_reported":1730815692,"current_range_meters":11200,"station_id":"ce4bgnh2rcd13ifvqc0g","pricing_plan_id":"cebpf4jnsgd1na2vs0mg"},{"bike_id":"d2979422-671c-4335-952d-4cbf20fc6976","system_id":"levelo_inurba_marseille","lat":43.304622,"lon":5.37906,"is_reserved":false,"is_disabled":false,"rental_uris":{"android":"levelo://app?vid=d2979422-671c-4335-952d-4cbf20fc6976","ios":"levelo://app?vid=d2979422-671c-4335-952d-4cbf20fc6976"},"vehicle_type_id":"4","last_reported":1730815692,"current_range_meters":39200,"station_id":"ce4bgup2rcd13ifvqcn0","pricing_plan_id":"cebpf4jnsgd1na2vs0mg"},{"bike_id":"2fac616e-c10f-4b93-9777-09eb2ba8f7e5","system_id":"levelo_inurba_marseille","lat":43.324697,"lon":5.365935,"is_reserved":false,"is_disabled":false,"rental_uris":{"android":"levelo://app?vid=2fac616e-c10f-4b93-9777-09eb2ba8f7e5","ios":"levelo://app?vid=2fac616e-c10f-4b93-9777-09eb2ba8f7e5"},"vehicle_type_id":"4","last_reported":1730815692,"current_range_meters":38800,"station_id":"ce4bhs12rcd13ifvqhvg","pricing_plan_id":"cebpf4jnsgd1na2vs0mg"},{"bike_id":"d209b447-cbb8-4ee8-b360-9577dfaa222f","system_id":"levelo_inurba_marseille","lat":43.23152,"lon":5.43719,"is_reserved":false,"is_disabled":false,"rental_uris":{"android":"levelo://app?vid=d209b447-cbb8-4ee8-b360-9577dfaa222f","ios":"levelo://app?vid=d209b447-cbb8-4ee8-b360-9577dfaa222f"},"vehicle_type_id":"4","last_reported":1730815692,"current_range_meters":16800,"station_id":"ce4bhmp2rcd13ifvqgog","pricing_plan_id":"cebpf4jnsgd1na2vs0mg"},{"bike_id":"f3ec276e-9291-4f79-afb4-5112f30eb835","system_id":"levelo_inurba_marseille","lat":43.25117,"lon":5.40313,"is_reserved":false,"is_disabled":false,"rental_uris":{"android":"levelo://app?vid=f3ec276e-9291-4f79-afb4-5112f30eb835","ios":"levelo://app?vid=f3ec276e-9291-4f79-afb4-5112f30eb835"},"vehicle_type_id":"4","last_reported":1730815692,"current_range_meters":38800,"station_id":"ce4bhlh2rcd13ifvqgig","pricing_plan_id":"cebpf4jnsgd1na2vs0mg"},{"bike_id":"bb6be895-479d-4fe4-b6ba-e6cfcf09a5b2","system_id":"levelo_inurba_marseille","lat":43.29797,"lon":5.38096,"is_reserved":false,"is_disabled":false,"rental_uris":{"android":"levelo://app?vid=bb6be895-479d-4fe4-b6ba-e6cfcf09a5b2","ios":"levelo://app?vid=bb6be895-479d-4fe4-b6ba-e6cfcf09a5b2"},"vehicle_type_id":"4","last_reported":1730815692,"current_range_meters":8400,"station_id":"ce4bgip2rcd13ifvqbb0","pricing_plan_id":"cebpf4jnsgd1na2vs0mg"},{"bike_id":"cb841f1b-8ec2-434a-a03b-a03c49d20874","system_id":"levelo_inurba_marseille","lat":43.27322,"lon":5.39088,"is_reserved":false,"is_disabled":false,"rental_uris":{"android":"levelo://app?vid=cb841f1b-8ec2-434a-a03b-a03c49d20874","ios":"levelo://app?vid=cb841f1b-8ec2-434a-a03b-a03c49d20874"},"vehicle_type_id":"4","last_reported":1730815692,"current_range_meters":16800,"station_id":"ce4bhgp2rcd13ifvqfe0","pricing_plan_id":"cebpf4jnsgd1na2vs0mg"},{"bike_id":"3560c5ce-d02f-4630-8b3a-5ae2ad7fb9b3","system_id":"levelo_inurba_marseille","lat":43.24073,"lon":5.37761,"is_reserved":false,"is_disabled":false,"rental_uris":{"android":"levelo://app?vid=3560c5ce-d02f-4630-8b3a-5ae2ad7fb9b3","ios":"levelo://app?vid=3560c5ce-d02f-4630-8b3a-5ae2ad7fb9b3"},"vehicle_type_id":"4","last_reported":1730815692,"current_range_meters":24400,"station_id":"ce4bhnp2rcd13ifvqgvg","pricing_plan_id":"cebpf4jnsgd1na2vs0mg"},{"bike_id":"8bee51ce-2e07-4b28-a4c6-04213fdf5d10","system_id":"levelo_inurba_marseille","lat":43.2894,"lon":5.36636,"is_reserved":false,"is_disabled":false,"rental_uris":{"android":"levelo://app?vid=8bee51ce-2e07-4b28-a4c6-04213fdf5d10","ios":"levelo://app?vid=8bee51ce-2e07-4b28-a4c6-04213fdf5d10"},"vehicle_type_id":"4","last_reported":1730815692,"current_range_meters":19600,"station_id":"ce4bhap2rcd13ifvqek0","pricing_plan_id":"cebpf4jnsgd1na2vs0mg"},{"bike_id":"4ee840a8-4ead-42cc-8a8b-ee0e4ebba95d","system_id":"levelo_inurba_marseille","lat":43.29295,"lon":5.37459,"is_reserved":false,"is_disabled":false,"rental_uris":{"android":"levelo://app?vid=4ee840a8-4ead-42cc-8a8b-ee0e4ebba95d","ios":"levelo://app?vid=4ee840a8-4ead-42cc-8a8b-ee0e4ebba95d"},"vehicle_type_id":"4","last_reported":1730815692,"current_range_meters":24800,"station_id":"ce4bgi12rcd13ifvqb70","pricing_plan_id":"cebpf4jnsgd1na2vs0mg"},{"bike_id":"1cd126ee-628e-47eb-9b7d-b2f5e89e599c","system_id":"levelo_inurba_marseille","lat":43.29065,"lon":5.37155,"is_reserved":false,"is_disabled":false,"rental_uris":{"android":"levelo://app?vid=1cd126ee-628e-47eb-9b7d-b2f5e89e599c","ios":"levelo://app?vid=1cd126ee-628e-47eb-9b7d-b2f5e89e599c"},"vehicle_type_id":"4","last_reported":1730815692,"current_range_meters":31200,"station_id":"ce4bh5p2rcd13ifvqe4g","pricing_plan_id":"cebpf4jnsgd1na2vs0mg"},{"bike_id":"e25da959-659c-419c-abbb-65abddcda740","system_id":"levelo_inurba_marseille","lat":43.29787,"lon":5.38103,"is_reserved":false,"is_disabled":false,"rental_uris":{"android":"levelo://app?vid=e25da959-659c-419c-abbb-65abddcda740","ios":"levelo://app?vid=e25da959-659c-419c-abbb-65abddcda740"},"vehicle_type_id":"4","last_reported":1730815692,"current_range_meters":36000,"station_id":"ce4bgip2rcd13ifvqbb0","pricing_plan_id":"cebpf4jnsgd1na2vs0mg"},{"bike_id":"f7726949-f964-48ba-acf3-14399da191ef","system_id":"levelo_inurba_marseille","lat":43.26681,"lon":5.38267,"is_reserved":false,"is_disabled":false,"rental_uris":{"android":"levelo://app?vid=f7726949-f964-48ba-acf3-14399da191ef","ios":"levelo://app?vid=f7726949-f964-48ba-acf3-14399da191ef"},"vehicle_type_id":"4","last_reported":1730815692,"current_range_meters":26800,"station_id":"ce4bhg92rcd13ifvqf90","pricing_plan_id":"cebpf4jnsgd1na2vs0mg"},{"bike_id":"9e2e0b9b-3bb9-4dbe-b672-534a5e4d7877","system_id":"levelo_inurba_marseille","lat":43.25727,"lon":5.41105,"is_reserved":false,"is_disabled":false,"rental_uris":{"android":"levelo://app?vid=9e2e0b9b-3bb9-4dbe-b672-534a5e4d7877","ios":"levelo://app?vid=9e2e0b9b-3bb9-4dbe-b672-534a5e4d7877"},"vehicle_type_id":"4","last_reported":1730815692,"current_range_meters":32800,"station_id":"ce4bhkp2rcd13ifvqgd0","pricing_plan_id":"cebpf4jnsgd1na2vs0mg"},{"bike_id":"db31db70-cc20-4b5f-acb8-538f14a09b27","system_id":"levelo_inurba_marseille","lat":43.23187,"lon":5.39983,"is_reserved":false,"is_disabled":false,"rental_uris":{"android":"levelo://app?vid=db31db70-cc20-4b5f-acb8-538f14a09b27","ios":"levelo://app?vid=db31db70-cc20-4b5f-acb8-538f14a09b27"},"vehicle_type_id":"4","last_reported":1730815692,"current_range_meters":35600,"station_id":"ce4bhn12rcd13ifvqgqg","pricing_plan_id":"cebpf4jnsgd1na2vs0mg"},{"bike_id":"903a102e-8a75-40d7-b067-1c2f31b5bda3","system_id":"levelo_inurba_marseille","lat":43.28947,"lon":5.3663,"is_reserved":false,"is_disabled":false,"rental_uris":{"android":"levelo://app?vid=903a102e-8a75-40d7-b067-1c2f31b5bda3","ios":"levelo://app?vid=903a102e-8a75-40d7-b067-1c2f31b5bda3"},"vehicle_type_id":"4","last_reported":1730815692,"current_range_meters":9600,"station_id":"ce4bhap2rcd13ifvqek0","pricing_plan_id":"cebpf4jnsgd1na2vs0mg"},{"bike_id":"11bef9e2-9b8f-4234-9429-a27ea60bae6b","system_id":"levelo_inurba_marseille","lat":43.27208,"lon":5.39188,"is_reserved":false,"is_disabled":false,"rental_uris":{"android":"levelo://app?vid=11bef9e2-9b8f-4234-9429-a27ea60bae6b","ios":"levelo://app?vid=11bef9e2-9b8f-4234-9429-a27ea60bae6b"},"vehicle_type_id":"4","last_reported":1730815692,"current_range_meters":36800,"station_id":"ce4bhhp2rcd13ifvqfm0","pricing_plan_id":"cebpf4jnsgd1na2vs0mg"},{"bike_id":"93a83a5c-0d3d-43a2-be24-e99a92c3575d","system_id":"levelo_inurba_marseille","lat":43.309103,"lon":5.3685,"is_reserved":false,"is_disabled":false,"rental_uris":{"android":"levelo://app?vid=93a83a5c-0d3d-43a2-be24-e99a92c3575d","ios":"levelo://app?vid=93a83a5c-0d3d-43a2-be24-e99a92c3575d"},"vehicle_type_id":"4","last_reported":1730815692,"current_range_meters":17200,"station_id":"ce4bgn92rcd13ifvqbvg","pricing_plan_id":"cebpf4jnsgd1na2vs0mg"},{"bike_id":"05f88113-4fbe-4ad2-bd75-9b041f9484b6","system_id":"levelo_inurba_marseille","lat":43.25107,"lon":5.40323,"is_reserved":false,"is_disabled":false,"rental_uris":{"android":"levelo://app?vid=05f88113-4fbe-4ad2-bd75-9b041f9484b6","ios":"levelo://app?vid=05f88113-4fbe-4ad2-bd75-9b041f9484b6"},"vehicle_type_id":"4","last_reported":1730815692,"current_range_meters":2800,"station_id":"ce4bhlh2rcd13ifvqgig","pricing_plan_id":"cebpf4jnsgd1na2vs0mg"},{"bike_id":"f3c99891-1b3f-48be-a55f-4239cdf39b9e","system_id":"levelo_inurba_marseille","lat":43.27071,"lon":5.42284,"is_reserved":false,"is_disabled":false,"rental_uris":{"android":"levelo://app?vid=f3c99891-1b3f-48be-a55f-4239cdf39b9e","ios":"levelo://app?vid=f3c99891-1b3f-48be-a55f-4239cdf39b9e"},"vehicle_type_id":"4","last_reported":1730815692,"current_range_meters":16400,"station_id":"ce4bhk92rcd13ifvqgb0","pricing_plan_id":"cebpf4jnsgd1na2vs0mg"},{"bike_id":"1bc959e2-8d7c-4adf-84a5-9503f3e55994","system_id":"levelo_inurba_marseille","lat":43.28267,"lon":5.35069,"is_reserved":false,"is_disabled":false,"rental_uris":{"android":"levelo://app?vid=1bc959e2-8d7c-4adf-84a5-9503f3e55994","ios":"levelo://app?vid=1bc959e2-8d7c-4adf-84a5-9503f3e55994"},"vehicle_type_id":"4","last_reported":1730815692,"current_range_meters":25200,"station_id":"ce4bhbp2rcd13ifvqerg","pricing_plan_id":"cebpf4jnsgd1na2vs0mg"},{"bike_id":"e7282fcd-0447-4f50-8e6f-fbcb8a123132","system_id":"levelo_inurba_marseille","lat":43.28714,"lon":5.3794,"is_reserved":false,"is_disabled":false,"rental_uris":{"android":"levelo://app?vid=e7282fcd-0447-4f50-8e6f-fbcb8a123132","ios":"levelo://app?vid=e7282fcd-0447-4f50-8e6f-fbcb8a123132"},"vehicle_type_id":"4","last_reported":1730815692,"current_range_meters":9200,"station_id":"ce4bh9p2rcd13ifvqec0","pricing_plan_id":"cebpf4jnsgd1na2vs0mg"},{"bike_id":"04575049-e232-448b-97cc-f84df2aa6e6a","system_id":"levelo_inurba_marseille","lat":43.324848,"lon":5.365682,"is_reserved":false,"is_disabled":false,"rental_uris":{"android":"levelo://app?vid=04575049-e232-448b-97cc-f84df2aa6e6a","ios":"levelo://app?vid=04575049-e232-448b-97cc-f84df2aa6e6a"},"vehicle_type_id":"4","last_reported":1730815692,"current_range_meters":39200,"station_id":"ce4bhs12rcd13ifvqhvg","pricing_plan_id":"cebpf4jnsgd1na2vs0mg"},{"bike_id":"49e89248-48ec-4d88-87a2-933f81d8081b","system_id":"levelo_inurba_marseille","lat":43.28718,"lon":5.37944,"is_reserved":false,"is_disabled":false,"rental_uris":{"android":"levelo://app?vid=49e89248-48ec-4d88-87a2-933f81d8081b","ios":"levelo://app?vid=49e89248-48ec-4d88-87a2-933f81d8081b"},"vehicle_type_id":"4","last_reported":1730815692,"current_range_meters":27600,"station_id":"ce4bh9p2rcd13ifvqec0","pricing_plan_id":"cebpf4jnsgd1na2vs0mg"},{"bike_id":"95bdcc73-7654-4e5b-8af6-8997b0a029d3","system_id":"levelo_inurba_marseille","lat":43.30648,"lon":5.40096,"is_reserved":false,"is_disabled":false,"rental_uris":{"android":"levelo://app?vid=95bdcc73-7654-4e5b-8af6-8997b0a029d3","ios":"levelo://app?vid=95bdcc73-7654-4e5b-8af6-8997b0a029d3"},"vehicle_type_id":"4","last_reported":1730815692,"current_range_meters":40000,"station_id":"ce4bh112rcd13ifvqda0","pricing_plan_id":"cebpf4jnsgd1na2vs0mg"},{"bike_id":"2fb82527-39a6-4af4-8156-68edcbd1aa60","system_id":"levelo_inurba_marseille","lat":43.26956,"lon":5.38632,"is_reserved":false,"is_disabled":false,"rental_uris":{"android":"levelo://app?vid=2fb82527-39a6-4af4-8156-68edcbd1aa60","ios":"levelo://app?vid=2fb82527-39a6-4af4-8156-68edcbd1aa60"},"vehicle_type_id":"4","last_reported":1730815692,"current_range_meters":39200,"station_id":"ce4bhh92rcd13ifvqfh0","pricing_plan_id":"cebpf4jnsgd1na2vs0mg"},{"bike_id":"9745dda0-c93f-4922-8ea2-4e3198b3849b","system_id":"levelo_inurba_marseille","lat":43.24805,"lon":5.37461,"is_reserved":false,"is_disabled":false,"rental_uris":{"android":"levelo://app?vid=9745dda0-c93f-4922-8ea2-4e3198b3849b","ios":"levelo://app?vid=9745dda0-c93f-4922-8ea2-4e3198b3849b"},"vehicle_type_id":"4","last_reported":1730815692,"current_range_meters":10000,"station_id":"ce4bhgh2rcd13ifvqfb0","pricing_plan_id":"cebpf4jnsgd1na2vs0mg"},{"bike_id":"c25ac7f9-6d4b-4292-8786-b4f165c717f2","system_id":"levelo_inurba_marseille","lat":43.2782,"lon":5.39216,"is_reserved":false,"is_disabled":false,"rental_uris":{"android":"levelo://app?vid=c25ac7f9-6d4b-4292-8786-b4f165c717f2","ios":"levelo://app?vid=c25ac7f9-6d4b-4292-8786-b4f165c717f2"},"vehicle_type_id":"4","last_reported":1730815692,"current_range_meters":30400,"station_id":"ce4bhjp2rcd13ifvqga0","pricing_plan_id":"cebpf4jnsgd1na2vs0mg"},{"bike_id":"9d816df9-9182-496c-bf91-066a850422ee","system_id":"levelo_inurba_marseille","lat":43.31697,"lon":5.40466,"is_reserved":false,"is_disabled":false,"rental_uris":{"android":"levelo://app?vid=9d816df9-9182-496c-bf91-066a850422ee","ios":"levelo://app?vid=9d816df9-9182-496c-bf91-066a850422ee"},"vehicle_type_id":"4","last_reported":1730815692,"current_range_meters":30000,"station_id":"ce4bh012rcd13ifvqd00","pricing_plan_id":"cebpf4jnsgd1na2vs0mg"},{"bike_id":"6b0d0f7e-cbaa-4592-bcc6-bc9f2b73841c","system_id":"levelo_inurba_marseille","lat":43.27813,"lon":5.40713,"is_reserved":false,"is_disabled":false,"rental_uris":{"android":"levelo://app?vid=6b0d0f7e-cbaa-4592-bcc6-bc9f2b73841c","ios":"levelo://app?vid=6b0d0f7e-cbaa-4592-bcc6-bc9f2b73841c"},"vehicle_type_id":"4","last_reported":1730815692,"current_range_meters":30400,"station_id":"ce4bhnh2rcd13ifvqgtg","pricing_plan_id":"cebpf4jnsgd1na2vs0mg"},{"bike_id":"52636b92-d9ea-44ff-9c64-567863dff265","system_id":"levelo_inurba_marseille","lat":43.34146,"lon":5.40906,"is_reserved":false,"is_disabled":false,"rental_uris":{"android":"levelo://app?vid=52636b92-d9ea-44ff-9c64-567863dff265","ios":"levelo://app?vid=52636b92-d9ea-44ff-9c64-567863dff265"},"vehicle_type_id":"4","last_reported":1730815692,"current_range_meters":33200,"station_id":"ce4bhqh2rcd13ifvqhlg","pricing_plan_id":"cebpf4jnsgd1na2vs0mg"},{"bike_id":"314504e5-a39d-46f5-933a-e84e1e1a18cd","system_id":"levelo_inurba_marseille","lat":43.30913,"lon":5.36847,"is_reserved":false,"is_disabled":false,"rental_uris":{"android":"levelo://app?vid=314504e5-a39d-46f5-933a-e84e1e1a18cd","ios":"levelo://app?vid=314504e5-a39d-46f5-933a-e84e1e1a18cd"},"vehicle_type_id":"4","last_reported":1730815692,"current_range_meters":14400,"station_id":"ce4bgn92rcd13ifvqbvg","pricing_plan_id":"cebpf4jnsgd1na2vs0mg"},{"bike_id":"41e1ada3-ff84-4a16-97f5-afeecd0ae284","system_id":"levelo_inurba_marseille","lat":43.28936,"lon":5.36633,"is_reserved":false,"is_disabled":false,"rental_uris":{"android":"levelo://app?vid=41e1ada3-ff84-4a16-97f5-afeecd0ae284","ios":"levelo://app?vid=41e1ada3-ff84-4a16-97f5-afeecd0ae284"},"vehicle_type_id":"4","last_reported":1730815692,"current_range_meters":37600,"station_id":"ce4bhap2rcd13ifvqek0","pricing_plan_id":"cebpf4jnsgd1na2vs0mg"},{"bike_id":"6b68010e-813d-4728-82b8-bec7426ac329","system_id":"levelo_inurba_marseille","lat":43.24076,"lon":5.37756,"is_reserved":false,"is_disabled":false,"rental_uris":{"android":"levelo://app?vid=6b68010e-813d-4728-82b8-bec7426ac329","ios":"levelo://app?vid=6b68010e-813d-4728-82b8-bec7426ac329"},"vehicle_type_id":"4","last_reported":1730815692,"current_range_meters":22800,"station_id":"ce4bhnp2rcd13ifvqgvg","pricing_plan_id":"cebpf4jnsgd1na2vs0mg"},{"bike_id":"d74360a7-cce2-4782-982b-e9593aa5d07d","system_id":"levelo_inurba_marseille","lat":43.31332,"lon":5.39684,"is_reserved":false,"is_disabled":false,"rental_uris":{"android":"levelo://app?vid=d74360a7-cce2-4782-982b-e9593aa5d07d","ios":"levelo://app?vid=d74360a7-cce2-4782-982b-e9593aa5d07d"},"vehicle_type_id":"4","last_reported":1730815692,"current_range_meters":36800,"station_id":"ce4bgvp2rcd13ifvqcu0","pricing_plan_id":"cebpf4jnsgd1na2vs0mg"},{"bike_id":"62bafaad-f624-4083-adfa-94a63f51e0e0","system_id":"levelo_inurba_marseille","lat":43.28402,"lon":5.37507,"is_reserved":false,"is_disabled":false,"rental_uris":{"android":"levelo://app?vid=62bafaad-f624-4083-adfa-94a63f51e0e0","ios":"levelo://app?vid=62bafaad-f624-4083-adfa-94a63f51e0e0"},"vehicle_type_id":"4","last_reported":1730815692,"current_range_meters":32000,"station_id":"ce4bh412rcd13ifvqds0","pricing_plan_id":"cebpf4jnsgd1na2vs0mg"},{"bike_id":"2e5b4eda-1e00-4de7-bf32-df40f4d56ed2","system_id":"levelo_inurba_marseille","lat":43.3249,"lon":5.36561,"is_reserved":false,"is_disabled":false,"rental_uris":{"android":"levelo://app?vid=2e5b4eda-1e00-4de7-bf32-df40f4d56ed2","ios":"levelo://app?vid=2e5b4eda-1e00-4de7-bf32-df40f4d56ed2"},"vehicle_type_id":"4","last_reported":1730815692,"current_range_meters":9200,"station_id":"ce4bhs12rcd13ifvqhvg","pricing_plan_id":"cebpf4jnsgd1na2vs0mg"},{"bike_id":"8f93ae8e-0c52-4181-ba2d-3d0bd245c453","system_id":"levelo_inurba_marseille","lat":43.28472,"lon":5.38418,"is_reserved":false,"is_disabled":false,"rental_uris":{"android":"levelo://app?vid=8f93ae8e-0c52-4181-ba2d-3d0bd245c453","ios":"levelo://app?vid=8f93ae8e-0c52-4181-ba2d-3d0bd245c453"},"vehicle_type_id":"4","last_reported":1730815692,"current_range_meters":38400,"station_id":"ce4bh512rcd13ifvqe3g","pricing_plan_id":"cebpf4jnsgd1na2vs0mg"},{"bike_id":"4fd336fb-ec63-4d09-84d4-45cf143f4508","system_id":"levelo_inurba_marseille","lat":43.31323,"lon":5.39697,"is_reserved":false,"is_disabled":false,"rental_uris":{"android":"levelo://app?vid=4fd336fb-ec63-4d09-84d4-45cf143f4508","ios":"levelo://app?vid=4fd336fb-ec63-4d09-84d4-45cf143f4508"},"vehicle_type_id":"4","last_reported":1730815692,"current_range_meters":38000,"station_id":"ce4bgvp2rcd13ifvqcu0","pricing_plan_id":"cebpf4jnsgd1na2vs0mg"},{"bike_id":"8c941800-34cc-4e89-8ad2-0b768395f319","system_id":"levelo_inurba_marseille","lat":43.32485,"lon":5.36564,"is_reserved":false,"is_disabled":false,"rental_uris":{"android":"levelo://app?vid=8c941800-34cc-4e89-8ad2-0b768395f319","ios":"levelo://app?vid=8c941800-34cc-4e89-8ad2-0b768395f319"},