{"last_updated":1742908830,"ttl":60,"version":"2.2","data":{"bikes":[{"bike_id":"aba362b7-ac94-47cd-9d40-62fe1d993009","system_id":"levelo_inurba_marseille","lat":43.301711,"lon":5.37414,"is_reserved":false,"is_disabled":false,"rental_uris":{"android":"levelo://app?vid=aba362b7-ac94-47cd-9d40-62fe1d993009","ios":"levelo://app?vid=aba362b7-ac94-47cd-9d40-62fe1d993009"},"vehicle_type_id":"4","last_reported":1742908830,"current_range_meters":2000,"station_id":"ce4bgs92rcd13ifvqcc0","pricing_plan_id":"cebpf4jnsgd1na2vs0mg"},{"bike_id":"0fa0c498-3ca2-4aa0-b58d-f07c2d76b115","system_id":"levelo_inurba_marseille","lat":43.29263,"lon":5.37636,"is_reserved":false,"is_disabled":false,"rental_uris":{"android":"levelo://app?vid=0fa0c498-3ca2-4aa0-b58d-f07c2d76b115","ios":"levelo://app?vid=0fa0c498-3ca2-4aa0-b58d-f07c2d76b115"},"vehicle_type_id":"4","last_reported":1742908830,"current_range_meters":2800,"station_id":"ce4bgi12rcd13ifvqb80","pricing_plan_id":"cebpf4jnsgd1na2vs0mg"},{"bike_id":"b89d5c58-0d7b-4f4f-8e36-d3e693accc3c","system_id":"levelo_inurba_marseille","lat":43.32354,"lon":5.3674,"is_reserved":false,"is_disabled":false,"rental_uris":{"android":"levelo://app?vid=b89d5c58-0d7b-4f4f-8e36-d3e693accc3c","ios":"levelo://app?vid=b89d5c58-0d7b-4f4f-8e36-d3e693accc3c"},"vehicle_type_id":"4","last_reported":1742908830,"current_range_meters":3200,"station_id":"ce4bhsh2rcd13ifvqi2g","pricing_plan_id":"cebpf4jnsgd1na2vs0mg"},{"bike_id":"5370d263-e84e-411d-9602-5f0b116360b2","system_id":"levelo_inurba_marseille","lat":43.30145,"lon":5.37426,"is_reserved":false,"is_disabled":false,"rental_uris":{"android":"levelo://app?vid=5370d263-e84e-411d-9602-5f0b116360b2","ios":"levelo://app?vid=5370d263-e84e-411d-9602-5f0b116360b2"},"vehicle_type_id":"4","last_reported":1742908830,"current_range_meters":2800,"station_id":"ce4bgs92rcd13ifvqcc0","pricing_plan_id":"cebpf4jnsgd1na2vs0mg"},{"bike_id":"f670c5e6-b5c3-47f3-89c3-bdf7496f39fb","system_id":"levelo_inurba_marseille","lat":43.2827,"lon":5.35067,"is_reserved":false,"is_disabled":false,"rental_uris":{"android":"levelo://app?vid=f670c5e6-b5c3-47f3-89c3-bdf7496f39fb","ios":"levelo://app?vid=f670c5e6-b5c3-47f3-89c3-bdf7496f39fb"},"vehicle_type_id":"4","last_reported":1742908830,"current_range_meters":2800,"station_id":"ce4bhbp2rcd13ifvqerg","pricing_plan_id":"cebpf4jnsgd1na2vs0mg"},{"bike_id":"1b65f3cd-728f-4b90-b6fb-89cc294d02b1","system_id":"levelo_inurba_marseille","lat":43.299774,"lon":5.436703,"is_reserved":false,"is_disabled":false,"rental_uris":{"android":"levelo://app?vid=1b65f3cd-728f-4b90-b6fb-89cc294d02b1","ios":"levelo://app?vid=1b65f3cd-728f-4b90-b6fb-89cc294d02b1"},"vehicle_type_id":"4","last_reported":1742908830,"current_range_meters":2800,"station_id":"","pricing_plan_id":"cebpf4jnsgd1na2vs0mg"},{"bike_id":"634c433d-3db3-4fd8-8be9-8b653dae530e","system_id":"levelo_inurba_marseille","lat":43.2806,"lon":5.39009,"is_reserved":false,"is_disabled":true,"rental_uris":{"android":"levelo://app?vid=634c433d-3db3-4fd8-8be9-8b653dae530e","ios":"levelo://app?vid=634c433d-3db3-4fd8-8be9-8b653dae530e"},"vehicle_type_id":"4","last_reported":1742908830,"current_range_meters":2800,"station_id":"","pricing_plan_id":"cebpf4jnsgd1na2vs0mg"},{"bike_id":"eccac2ce-876d-4d6b-8e9e-8b5c4d0eb976","system_id":"levelo_inurba_marseille","lat":43.26553,"lon":5.37293,"is_reserved":false,"is_disabled":false,"rental_uris":{"android":"levelo://app?vid=eccac2ce-876d-4d6b-8e9e-8b5c4d0eb976","ios":"levelo://app?vid=eccac2ce-876d-4d6b-8e9e-8b5c4d0eb976"},"vehicle_type_id":"4","last_reported":1742908830,"current_range_meters":2800,"station_id":"ce4bhg12rcd13ifvqf70","pricing_plan_id":"cebpf4jnsgd1na2vs0mg"},{"bike_id":"63d408ea-96a9-4bbc-bae5-5a0b736f776f","system_id":"levelo_inurba_marseille","lat":43.29061,"lon":5.37159,"is_reserved":false,"is_disabled":false,"rental_uris":{"android":"levelo://app?vid=63d408ea-96a9-4bbc-bae5-5a0b736f776f","ios":"levelo://app?vid=63d408ea-96a9-4bbc-bae5-5a0b736f776f"},"vehicle_type_id":"4","last_reported":1742908830,"current_range_meters":1200,"station_id":"ce4bh5p2rcd13ifvqe4g","pricing_plan_id":"cebpf4jnsgd1na2vs0mg"},{"bike_id":"b171da26-119e-41e1-b2cd-afb442ce6a35","system_id":"levelo_inurba_marseille","lat":43.32347,"lon":5.36734,"is_reserved":false,"is_disabled":false,"rental_uris":{"android":"levelo://app?vid=b171da26-119e-41e1-b2cd-afb442ce6a35","ios":"levelo://app?vid=b171da26-119e-41e1-b2cd-afb442ce6a35"},"vehicle_type_id":"4","last_reported":1742908830,"current_range_meters":3200,"station_id":"ce4bhsh2rcd13ifvqi2g","pricing_plan_id":"cebpf4jnsgd1na2vs0mg"},{"bike_id":"d1257018-446a-4772-b636-eb92013c3d00","system_id":"levelo_inurba_marseille","lat":43.295229,"lon":5.375042,"is_reserved":false,"is_disabled":true,"rental_uris":{"android":"levelo://app?vid=d1257018-446a-4772-b636-eb92013c3d00","ios":"levelo://app?vid=d1257018-446a-4772-b636-eb92013c3d00"},"vehicle_type_id":"4","last_reported":1742908830,"current_range_meters":3200,"station_id":"","pricing_plan_id":"cebpf4jnsgd1na2vs0mg"},{"bike_id":"3905e421-8068-42d5-be64-13becdda36c7","system_id":"levelo_inurba_marseille","lat":43.248749,"lon":5.405651,"is_reserved":false,"is_disabled":false,"rental_uris":{"android":"levelo://app?vid=3905e421-8068-42d5-be64-13becdda36c7","ios":"levelo://app?vid=3905e421-8068-42d5-be64-13becdda36c7"},"vehicle_type_id":"4","last_reported":1742908830,"current_range_meters":3200,"station_id":"ce4bhlh2rcd13ifvqgig","pricing_plan_id":"cebpf4jnsgd1na2vs0mg"},{"bike_id":"7792682d-8d59-4367-b25a-8e03cd65d705","system_id":"levelo_inurba_marseille","lat":43.28466,"lon":5.35884,"is_reserved":false,"is_disabled":false,"rental_uris":{"android":"levelo://app?vid=7792682d-8d59-4367-b25a-8e03cd65d705","ios":"levelo://app?vid=7792682d-8d59-4367-b25a-8e03cd65d705"},"vehicle_type_id":"4","last_reported":1742908830,"current_range_meters":8000,"station_id":"ce4bhah2rcd13ifvqei0","pricing_plan_id":"cebpf4jnsgd1na2vs0mg"},{"bike_id":"c674abf4-d5b2-45b5-99ee-1dd3f5179b2d","system_id":"levelo_inurba_marseille","lat":43.29674,"lon":5.36207,"is_reserved":false,"is_disabled":false,"rental_uris":{"android":"levelo://app?vid=c674abf4-d5b2-45b5-99ee-1dd3f5179b2d","ios":"levelo://app?vid=c674abf4-d5b2-45b5-99ee-1dd3f5179b2d"},"vehicle_type_id":"4","last_reported":1742908830,"current_range_meters":3600,"station_id":"","pricing_plan_id":"cebpf4jnsgd1na2vs0mg"},{"bike_id":"131c750e-d8d9-4023-9668-e467e66982a4","system_id":"levelo_inurba_marseille","lat":43.29795,"lon":5.38099,"is_reserved":false,"is_disabled":false,"rental_uris":{"android":"levelo://app?vid=131c750e-d8d9-4023-9668-e467e66982a4","ios":"levelo://app?vid=131c750e-d8d9-4023-9668-e467e66982a4"},"vehicle_type_id":"4","last_reported":1742908830,"current_range_meters":3600,"station_id":"ce4bgip2rcd13ifvqbb0","pricing_plan_id":"cebpf4jnsgd1na2vs0mg"},{"bike_id":"141d4fec-4fd6-4092-a622-db471488f90e","system_id":"levelo_inurba_marseille","lat":43.31389,"lon":5.36673,"is_reserved":false,"is_disabled":false,"rental_uris":{"android":"levelo://app?vid=141d4fec-4fd6-4092-a622-db471488f90e","ios":"levelo://app?vid=141d4fec-4fd6-4092-a622-db471488f90e"},"vehicle_type_id":"4","last_reported":1742908830,"current_range_meters":3600,"station_id":"","pricing_plan_id":"cebpf4jnsgd1na2vs0mg"},{"bike_id":"e8a8681a-90be-4ab3-80a0-95a4b8b4cbd9","system_id":"levelo_inurba_marseille","lat":43.31195,"lon":5.36926,"is_reserved":false,"is_disabled":false,"rental_uris":{"android":"levelo://app?vid=e8a8681a-90be-4ab3-80a0-95a4b8b4cbd9","ios":"levelo://app?vid=e8a8681a-90be-4ab3-80a0-95a4b8b4cbd9"},"vehicle_type_id":"4","last_reported":1742908830,"current_range_meters":3600,"station_id":"ce4bgl92rcd13ifvqbq0","pricing_plan_id":"cebpf4jnsgd1na2vs0mg"},{"bike_id":"a636d69c-19b5-419a-b2eb-a8424be63df9","system_id":"levelo_inurba_marseille","lat":43.23187,"lon":5.35551,"is_reserved":false,"is_disabled":false,"rental_uris":{"android":"levelo://app?vid=a636d69c-19b5-419a-b2eb-a8424be63df9","ios":"levelo://app?vid=a636d69c-19b5-419a-b2eb-a8424be63df9"},"vehicle_type_id":"4","last_reported":1742908830,"current_range_meters":3600,"station_id":"ce4bhu92rcd13ifvqi70","pricing_plan_id":"cebpf4jnsgd1na2vs0mg"},{"bike_id":"a165faa1-fa71-46f7-9fae-10456b392e72","system_id":"levelo_inurba_marseille","lat":43.30131,"lon":5.38786,"is_reserved":false,"is_disabled":false,"rental_uris":{"android":"levelo://app?vid=a165faa1-fa71-46f7-9fae-10456b392e72","ios":"levelo://app?vid=a165faa1-fa71-46f7-9fae-10456b392e72"},"vehicle_type_id":"4","last_reported":1742908830,"current_range_meters":4000,"station_id":"ce4bghh2rcd13ifvqb60","pricing_plan_id":"cebpf4jnsgd1na2vs0mg"},{"bike_id":"8565560c-44d8-4176-aab1-14143e5d913b","system_id":"levelo_inurba_marseille","lat":43.29876,"lon":5.38924,"is_reserved":false,"is_disabled":false,"rental_uris":{"android":"levelo://app?vid=8565560c-44d8-4176-aab1-14143e5d913b","ios":"levelo://app?vid=8565560c-44d8-4176-aab1-14143e5d913b"},"vehicle_type_id":"4","last_reported":1742908830,"current_range_meters":4000,"station_id":"ce4bh392rcd13ifvqdl0","pricing_plan_id":"cebpf4jnsgd1na2vs0mg"},{"bike_id":"c447a380-a2c5-472a-b333-ff54ad1f6f13","system_id":"levelo_inurba_marseille","lat":43.28565,"lon":5.395,"is_reserved":false,"is_disabled":false,"rental_uris":{"android":"levelo://app?vid=c447a380-a2c5-472a-b333-ff54ad1f6f13","ios":"levelo://app?vid=c447a380-a2c5-472a-b333-ff54ad1f6f13"},"vehicle_type_id":"4","last_reported":1742908830,"current_range_meters":4000,"station_id":"ce4bh292rcd13ifvqdg0","pricing_plan_id":"cebpf4jnsgd1na2vs0mg"},{"bike_id":"92bb1fc5-118c-4033-a95f-6adcd1202a13","system_id":"levelo_inurba_marseille","lat":43.28271,"lon":5.35075,"is_reserved":false,"is_disabled":false,"rental_uris":{"android":"levelo://app?vid=92bb1fc5-118c-4033-a95f-6adcd1202a13","ios":"levelo://app?vid=92bb1fc5-118c-4033-a95f-6adcd1202a13"},"vehicle_type_id":"4","last_reported":1742908830,"current_range_meters":4000,"station_id":"ce4bhbp2rcd13ifvqerg","pricing_plan_id":"cebpf4jnsgd1na2vs0mg"},{"bike_id":"f0a27edd-6a35-4f4e-b148-9a07d45ef037","system_id":"levelo_inurba_marseille","lat":43.26026,"lon":5.37552,"is_reserved":false,"is_disabled":false,"rental_uris":{"android":"levelo://app?vid=f0a27edd-6a35-4f4e-b148-9a07d45ef037","ios":"levelo://app?vid=f0a27edd-6a35-4f4e-b148-9a07d45ef037"},"vehicle_type_id":"4","last_reported":1742908830,"current_range_meters":4400,"station_id":"ce4bhgh2rcd13ifvqfa0","pricing_plan_id":"cebpf4jnsgd1na2vs0mg"},{"bike_id":"a0a460eb-34d7-43d6-85ef-87b30455cbf0","system_id":"levelo_inurba_marseille","lat":43.23971,"lon":5.36609,"is_reserved":false,"is_disabled":false,"rental_uris":{"android":"levelo://app?vid=a0a460eb-34d7-43d6-85ef-87b30455cbf0","ios":"levelo://app?vid=a0a460eb-34d7-43d6-85ef-87b30455cbf0"},"vehicle_type_id":"4","last_reported":1742908830,"current_range_meters":4400,"station_id":"ce4bhi12rcd13ifvqfp0","pricing_plan_id":"cebpf4jnsgd1na2vs0mg"},{"bike_id":"8911e4d6-a5a0-4eaf-9ef5-da2764a92de6","system_id":"levelo_inurba_marseille","lat":43.288397,"lon":5.392833,"is_reserved":false,"is_disabled":false,"rental_uris":{"android":"levelo://app?vid=8911e4d6-a5a0-4eaf-9ef5-da2764a92de6","ios":"levelo://app?vid=8911e4d6-a5a0-4eaf-9ef5-da2764a92de6"},"vehicle_type_id":"4","last_reported":1742908830,"current_range_meters":4400,"station_id":"ce4bh312rcd13ifvqdk0","pricing_plan_id":"cebpf4jnsgd1na2vs0mg"},{"bike_id":"38c86b9d-9dd3-4ede-a2a3-f44b312eecca","system_id":"levelo_inurba_marseille","lat":43.31216,"lon":5.3689,"is_reserved":false,"is_disabled":false,"rental_uris":{"android":"levelo://app?vid=38c86b9d-9dd3-4ede-a2a3-f44b312eecca","ios":"levelo://app?vid=38c86b9d-9dd3-4ede-a2a3-f44b312eecca"},"vehicle_type_id":"4","last_reported":1742908830,"current_range_meters":4400,"station_id":"","pricing_plan_id":"cebpf4jnsgd1na2vs0mg"},{"bike_id":"11f532a4-73c9-44e3-bb16-e2c5265a5a32","system_id":"levelo_inurba_marseille","lat":43.29535,"lon":5.39403,"is_reserved":false,"is_disabled":false,"rental_uris":{"android":"levelo://app?vid=11f532a4-73c9-44e3-bb16-e2c5265a5a32","ios":"levelo://app?vid=11f532a4-73c9-44e3-bb16-e2c5265a5a32"},"vehicle_type_id":"4","last_reported":1742908830,"current_range_meters":4800,"station_id":"ce4bh292rcd13ifvqdf0","pricing_plan_id":"cebpf4jnsgd1na2vs0mg"},{"bike_id":"f36435f2-6ef5-43bf-9ace-a0a184e14ba2","system_id":"levelo_inurba_marseille","lat":43.30128,"lon":5.39854,"is_reserved":false,"is_disabled":false,"rental_uris":{"android":"levelo://app?vid=f36435f2-6ef5-43bf-9ace-a0a184e14ba2","ios":"levelo://app?vid=f36435f2-6ef5-43bf-9ace-a0a184e14ba2"},"vehicle_type_id":"4","last_reported":1742908830,"current_range_meters":4800,"station_id":"ce4bh0h2rcd13ifvqd40","pricing_plan_id":"cebpf4jnsgd1na2vs0mg"},{"bike_id":"ebf86de8-a3f7-4563-b9cd-62f5316ef4ec","system_id":"levelo_inurba_marseille","lat":43.30935,"lon":5.40147,"is_reserved":false,"is_disabled":true,"rental_uris":{"android":"levelo://app?vid=ebf86de8-a3f7-4563-b9cd-62f5316ef4ec","ios":"levelo://app?vid=ebf86de8-a3f7-4563-b9cd-62f5316ef4ec"},"vehicle_type_id":"4","last_reported":1742908830,"current_range_meters":4800,"station_id":"ce4bgvp2rcd13ifvqct0","pricing_plan_id":"cebpf4jnsgd1na2vs0mg"},{"bike_id":"b00ff642-be2e-436c-937d-290e7ef11bc5","system_id":"levelo_inurba_marseille","lat":43.25843,"lon":5.39405,"is_reserved":false,"is_disabled":false,"rental_uris":{"android":"levelo://app?vid=b00ff642-be2e-436c-937d-290e7ef11bc5","ios":"levelo://app?vid=b00ff642-be2e-436c-937d-290e7ef11bc5"},"vehicle_type_id":"4","last_reported":1742908830,"current_range_meters":4800,"station_id":"ce4bhip2rcd13ifvqft0","pricing_plan_id":"cebpf4jnsgd1na2vs0mg"},{"bike_id":"aee65f89-d928-4f0d-b9ee-4a47671540a1","system_id":"levelo_inurba_marseille","lat":43.31227,"lon":5.36869,"is_reserved":false,"is_disabled":false,"rental_uris":{"android":"levelo://app?vid=aee65f89-d928-4f0d-b9ee-4a47671540a1","ios":"levelo://app?vid=aee65f89-d928-4f0d-b9ee-4a47671540a1"},"vehicle_type_id":"4","last_reported":1742908830,"current_range_meters":5600,"station_id":"ce4bgl92rcd13ifvqbq0","pricing_plan_id":"cebpf4jnsgd1na2vs0mg"},{"bike_id":"4d026f34-8dcc-4da0-9bb3-890242e97692","system_id":"levelo_inurba_marseille","lat":43.25582,"lon":5.38243,"is_reserved":false,"is_disabled":false,"rental_uris":{"android":"levelo://app?vid=4d026f34-8dcc-4da0-9bb3-890242e97692","ios":"levelo://app?vid=4d026f34-8dcc-4da0-9bb3-890242e97692"},"vehicle_type_id":"4","last_reported":1742908830,"current_range_meters":5600,"station_id":"ce4bhih2rcd13ifvqfs0","pricing_plan_id":"cebpf4jnsgd1na2vs0mg"},{"bike_id":"f02a77b8-f810-41ff-bf5b-5ab742b469a7","system_id":"levelo_inurba_marseille","lat":43.23152,"lon":5.43697,"is_reserved":false,"is_disabled":false,"rental_uris":{"android":"levelo://app?vid=f02a77b8-f810-41ff-bf5b-5ab742b469a7","ios":"levelo://app?vid=f02a77b8-f810-41ff-bf5b-5ab742b469a7"},"vehicle_type_id":"4","last_reported":1742908830,"current_range_meters":5600,"station_id":"ce4bhmp2rcd13ifvqgog","pricing_plan_id":"cebpf4jnsgd1na2vs0mg"},{"bike_id":"ffee49a7-9f0c-41f2-8acb-9a1d87caf75b","system_id":"levelo_inurba_marseille","lat":43.2408,"lon":5.37765,"is_reserved":false,"is_disabled":false,"rental_uris":{"android":"levelo://app?vid=ffee49a7-9f0c-41f2-8acb-9a1d87caf75b","ios":"levelo://app?vid=ffee49a7-9f0c-41f2-8acb-9a1d87caf75b"},"vehicle_type_id":"4","last_reported":1742908830,"current_range_meters":5600,"station_id":"ce4bhnp2rcd13ifvqgvg","pricing_plan_id":"cebpf4jnsgd1na2vs0mg"},{"bike_id":"ff2e60d0-cc5d-485b-8b45-8f58e1016574","system_id":"levelo_inurba_marseille","lat":43.2669,"lon":5.38288,"is_reserved":false,"is_disabled":false,"rental_uris":{"android":"levelo://app?vid=ff2e60d0-cc5d-485b-8b45-8f58e1016574","ios":"levelo://app?vid=ff2e60d0-cc5d-485b-8b45-8f58e1016574"},"vehicle_type_id":"4","last_reported":1742908830,"current_range_meters":5600,"station_id":"ce4bhg92rcd13ifvqf90","pricing_plan_id":"cebpf4jnsgd1na2vs0mg"},{"bike_id":"2f08ba24-c017-4334-8cd8-6cb49eab4771","system_id":"levelo_inurba_marseille","lat":43.3169,"lon":5.37243,"is_reserved":false,"is_disabled":false,"rental_uris":{"android":"levelo://app?vid=2f08ba24-c017-4334-8cd8-6cb49eab4771","ios":"levelo://app?vid=2f08ba24-c017-4334-8cd8-6cb49eab4771"},"vehicle_type_id":"4","last_reported":1742908830,"current_range_meters":5600,"station_id":"","pricing_plan_id":"cebpf4jnsgd1na2vs0mg"},{"bike_id":"864a9a1b-adb3-4c20-bdc3-59a8a9d0b3e3","system_id":"levelo_inurba_marseille","lat":43.30545,"lon":5.36561,"is_reserved":false,"is_disabled":false,"rental_uris":{"android":"levelo://app?vid=864a9a1b-adb3-4c20-bdc3-59a8a9d0b3e3","ios":"levelo://app?vid=864a9a1b-adb3-4c20-bdc3-59a8a9d0b3e3"},"vehicle_type_id":"4","last_reported":1742908830,"current_range_meters":6000,"station_id":"ce4bgs12rcd13ifvqcag","pricing_plan_id":"cebpf4jnsgd1na2vs0mg"},{"bike_id":"d9933410-d1d9-42e9-bde2-e8e88d1642b7","system_id":"levelo_inurba_marseille","lat":43.28412,"lon":5.37512,"is_reserved":false,"is_disabled":false,"rental_uris":{"android":"levelo://app?vid=d9933410-d1d9-42e9-bde2-e8e88d1642b7","ios":"levelo://app?vid=d9933410-d1d9-42e9-bde2-e8e88d1642b7"},"vehicle_type_id":"4","last_reported":1742908830,"current_range_meters":6000,"station_id":"ce4bh412rcd13ifvqds0","pricing_plan_id":"cebpf4jnsgd1na2vs0mg"},{"bike_id":"3bc002dd-9a8e-4a43-b4b1-7f99b4d9a4a7","system_id":"levelo_inurba_marseille","lat":43.29808,"lon":5.38088,"is_reserved":false,"is_disabled":false,"rental_uris":{"android":"levelo://app?vid=3bc002dd-9a8e-4a43-b4b1-7f99b4d9a4a7","ios":"levelo://app?vid=3bc002dd-9a8e-4a43-b4b1-7f99b4d9a4a7"},"vehicle_type_id":"4","last_reported":1742908830,"current_range_meters":5600,"station_id":"ce4bgip2rcd13ifvqbb0","pricing_plan_id":"cebpf4jnsgd1na2vs0mg"},{"bike_id":"8dea1aae-f7ef-40da-8939-8066fe127feb","system_id":"levelo_inurba_marseille","lat":43.25499,"lon":5.37651,"is_reserved":false,"is_disabled":false,"rental_uris":{"android":"levelo://app?vid=8dea1aae-f7ef-40da-8939-8066fe127feb","ios":"levelo://app?vid=8dea1aae-f7ef-40da-8939-8066fe127feb"},"vehicle_type_id":"4","last_reported":1742908830,"current_range_meters":6000,"station_id":"ce4bhh12rcd13ifvqff0","pricing_plan_id":"cebpf4jnsgd1na2vs0mg"},{"bike_id":"0ddc82fe-7fb3-4823-954d-f779883301be","system_id":"levelo_inurba_marseille","lat":43.3122,"lon":5.36908,"is_reserved":false,"is_disabled":false,"rental_uris":{"android":"levelo://app?vid=0ddc82fe-7fb3-4823-954d-f779883301be","ios":"levelo://app?vid=0ddc82fe-7fb3-4823-954d-f779883301be"},"vehicle_type_id":"4","last_reported":1742908830,"current_range_meters":6000,"station_id":"ce4bgl92rcd13ifvqbq0","pricing_plan_id":"cebpf4jnsgd1na2vs0mg"},{"bike_id":"9af1dfbe-46bf-46be-b439-fa880880a906","system_id":"levelo_inurba_marseille","lat":43.30136,"lon":5.39868,"is_reserved":false,"is_disabled":false,"rental_uris":{"android":"levelo://app?vid=9af1dfbe-46bf-46be-b439-fa880880a906","ios":"levelo://app?vid=9af1dfbe-46bf-46be-b439-fa880880a906"},"vehicle_type_id":"4","last_reported":1742908830,"current_range_meters":6000,"station_id":"ce4bh0h2rcd13ifvqd40","pricing_plan_id":"cebpf4jnsgd1na2vs0mg"},{"bike_id":"e83af81e-4a74-4e55-964f-f25eda4b6bb5","system_id":"levelo_inurba_marseille","lat":43.25938,"lon":5.40914,"is_reserved":false,"is_disabled":false,"rental_uris":{"android":"levelo://app?vid=e83af81e-4a74-4e55-964f-f25eda4b6bb5","ios":"levelo://app?vid=e83af81e-4a74-4e55-964f-f25eda4b6bb5"},"vehicle_type_id":"4","last_reported":1742908830,"current_range_meters":6400,"station_id":"ce4bhm92rcd13ifvqglg","pricing_plan_id":"cebpf4jnsgd1na2vs0mg"},{"bike_id":"a300cee4-b221-400c-a453-5372103a8d01","system_id":"levelo_inurba_marseille","lat":43.28617,"lon":5.35104,"is_reserved":false,"is_disabled":false,"rental_uris":{"android":"levelo://app?vid=a300cee4-b221-400c-a453-5372103a8d01","ios":"levelo://app?vid=a300cee4-b221-400c-a453-5372103a8d01"},"vehicle_type_id":"4","last_reported":1742908830,"current_range_meters":6400,"station_id":"ce4bhch2rcd13ifvqeug","pricing_plan_id":"cebpf4jnsgd1na2vs0mg"},{"bike_id":"d0de300c-b25d-4431-929e-879e18667c2d","system_id":"levelo_inurba_marseille","lat":43.33091,"lon":5.38697,"is_reserved":false,"is_disabled":false,"rental_uris":{"android":"levelo://app?vid=d0de300c-b25d-4431-929e-879e18667c2d","ios":"levelo://app?vid=d0de300c-b25d-4431-929e-879e18667c2d"},"vehicle_type_id":"4","last_reported":1742908830,"current_range_meters":6400,"station_id":"","pricing_plan_id":"cebpf4jnsgd1na2vs0mg"},{"bike_id":"775601d0-1d64-4764-8b8d-386525c8a65d","system_id":"levelo_inurba_marseille","lat":43.32106,"lon":5.36787,"is_reserved":false,"is_disabled":false,"rental_uris":{"android":"levelo://app?vid=775601d0-1d64-4764-8b8d-386525c8a65d","ios":"levelo://app?vid=775601d0-1d64-4764-8b8d-386525c8a65d"},"vehicle_type_id":"4","last_reported":1742908830,"current_range_meters":6400,"station_id":"ce4bhrh2rcd13ifvqhug","pricing_plan_id":"cebpf4jnsgd1na2vs0mg"},{"bike_id":"8723922e-320e-4649-af0a-8190d390afa0","system_id":"levelo_inurba_marseille","lat":43.3213,"lon":5.36786,"is_reserved":false,"is_disabled":false,"rental_uris":{"android":"levelo://app?vid=8723922e-320e-4649-af0a-8190d390afa0","ios":"levelo://app?vid=8723922e-320e-4649-af0a-8190d390afa0"},"vehicle_type_id":"4","last_reported":1742908830,"current_range_meters":6400,"station_id":"ce4bhrh2rcd13ifvqhug","pricing_plan_id":"cebpf4jnsgd1na2vs0mg"},{"bike_id":"cf30ba2d-9dd5-4d8d-b3a7-9af496f3ef85","system_id":"levelo_inurba_marseille","lat":43.289226,"lon":5.381897,"is_reserved":false,"is_disabled":false,"rental_uris":{"android":"levelo://app?vid=cf30ba2d-9dd5-4d8d-b3a7-9af496f3ef85","ios":"levelo://app?vid=cf30ba2d-9dd5-4d8d-b3a7-9af496f3ef85"},"vehicle_type_id":"4","last_reported":1742908830,"current_range_meters":6400,"station_id":"ce4bh4p2rcd13ifvqe1g","pricing_plan_id":"cebpf4jnsgd1na2vs0mg"},{"bike_id":"13eb1deb-fb24-47f8-a37b-471311b60021","system_id":"levelo_inurba_marseille","lat":43.28152,"lon":5.42657,"is_reserved":false,"is_disabled":false,"rental_uris":{"android":"levelo://app?vid=13eb1deb-fb24-47f8-a37b-471311b60021","ios":"levelo://app?vid=13eb1deb-fb24-47f8-a37b-471311b60021"},"vehicle_type_id":"4","last_reported":1742908830,"current_range_meters":6400,"station_id":"ce4bhnh2rcd13ifvqgug","pricing_plan_id":"cebpf4jnsgd1na2vs0mg"},{"bike_id":"7fe9a385-3cb1-429e-bc3b-abab1a23a3a2","system_id":"levelo_inurba_marseille","lat":43.23063,"lon":5.35505,"is_reserved":false,"is_disabled":false,"rental_uris":{"android":"levelo://app?vid=7fe9a385-3cb1-429e-bc3b-abab1a23a3a2","ios":"levelo://app?vid=7fe9a385-3cb1-429e-bc3b-abab1a23a3a2"},"vehicle_type_id":"4","last_reported":1742908830,"current_range_meters":6400,"station_id":"cpo3342slgdg3j2ifvpg","pricing_plan_id":"cebpf4jnsgd1na2vs0mg"},{"bike_id":"df632c8e-92f6-4b8a-9524-6d142d68aad1","system_id":"levelo_inurba_marseille","lat":43.25582,"lon":5.38227,"is_reserved":false,"is_disabled":false,"rental_uris":{"android":"levelo://app?vid=df632c8e-92f6-4b8a-9524-6d142d68aad1","ios":"levelo://app?vid=df632c8e-92f6-4b8a-9524-6d142d68aad1"},"vehicle_type_id":"4","last_reported":1742908830,"current_range_meters":6400,"station_id":"","pricing_plan_id":"cebpf4jnsgd1na2vs0mg"},{"bike_id":"ffa8b16f-a83e-4bb4-82e1-70d1502f78b7","system_id":"levelo_inurba_marseille","lat":43.28864,"lon":5.35858,"is_reserved":false,"is_disabled":false,"rental_uris":{"android":"levelo://app?vid=ffa8b16f-a83e-4bb4-82e1-70d1502f78b7","ios":"levelo://app?vid=ffa8b16f-a83e-4bb4-82e1-70d1502f78b7"},"vehicle_type_id":"4","last_reported":1742908830,"current_range_meters":6800,"station_id":"ce4bhb12rcd13ifvqem0","pricing_plan_id":"cebpf4jnsgd1na2vs0mg"},{"bike_id":"1cdb5e5f-6bda-4e07-b645-0554ed59cc39","system_id":"levelo_inurba_marseille","lat":43.2583,"lon":5.39436,"is_reserved":false,"is_disabled":false,"rental_uris":{"android":"levelo://app?vid=1cdb5e5f-6bda-4e07-b645-0554ed59cc39","ios":"levelo://app?vid=1cdb5e5f-6bda-4e07-b645-0554ed59cc39"},"vehicle_type_id":"4","last_reported":1742908830,"current_range_meters":6800,"station_id":"ce4bhip2rcd13ifvqft0","pricing_plan_id":"cebpf4jnsgd1na2vs0mg"},{"bike_id":"a1467c8d-d458-48fa-ae2a-398452ffafde","system_id":"levelo_inurba_marseille","lat":43.31745,"lon":5.38996,"is_reserved":false,"is_disabled":false,"rental_uris":{"android":"levelo://app?vid=a1467c8d-d458-48fa-ae2a-398452ffafde","ios":"levelo://app?vid=a1467c8d-d458-48fa-ae2a-398452ffafde"},"vehicle_type_id":"4","last_reported":1742908830,"current_range_meters":6800,"station_id":"ce4bhqp2rcd13ifvqhng","pricing_plan_id":"cebpf4jnsgd1na2vs0mg"},{"bike_id":"bd19e553-e5f5-4b5c-8770-02920f14b999","system_id":"levelo_inurba_marseille","lat":43.31301,"lon":5.3669,"is_reserved":false,"is_disabled":false,"rental_uris":{"android":"levelo://app?vid=bd19e553-e5f5-4b5c-8770-02920f14b999","ios":"levelo://app?vid=bd19e553-e5f5-4b5c-8770-02920f14b999"},"vehicle_type_id":"4","last_reported":1742908830,"current_range_meters":6800,"station_id":"ce4bgr92rcd13ifvqc6g","pricing_plan_id":"cebpf4jnsgd1na2vs0mg"},{"bike_id":"a1088024-3078-40cb-aa97-0e6851c8a91b","system_id":"levelo_inurba_marseille","lat":43.24076,"lon":5.37754,"is_reserved":false,"is_disabled":false,"rental_uris":{"android":"levelo://app?vid=a1088024-3078-40cb-aa97-0e6851c8a91b","ios":"levelo://app?vid=a1088024-3078-40cb-aa97-0e6851c8a91b"},"vehicle_type_id":"4","last_reported":1742908830,"current_range_meters":6800,"station_id":"ce4bhnp2rcd13ifvqgvg","pricing_plan_id":"cebpf4jnsgd1na2vs0mg"},{"bike_id":"df264838-5969-4d1a-918b-4ce403c284ed","system_id":"levelo_inurba_marseille","lat":43.26558,"lon":5.37291,"is_reserved":false,"is_disabled":false,"rental_uris":{"android":"levelo://app?vid=df264838-5969-4d1a-918b-4ce403c284ed","ios":"levelo://app?vid=df264838-5969-4d1a-918b-4ce403c284ed"},"vehicle_type_id":"4","last_reported":1742908830,"current_range_meters":6800,"station_id":"ce4bhg12rcd13ifvqf70","pricing_plan_id":"cebpf4jnsgd1na2vs0mg"},{"bike_id":"423ece53-0c9a-4215-8bcc-b9583ef0fa65","system_id":"levelo_inurba_marseille","lat":43.26681,"lon":5.38261,"is_reserved":false,"is_disabled":false,"rental_uris":{"android":"levelo://app?vid=423ece53-0c9a-4215-8bcc-b9583ef0fa65","ios":"levelo://app?vid=423ece53-0c9a-4215-8bcc-b9583ef0fa65"},"vehicle_type_id":"4","last_reported":1742908830,"current_range_meters":6800,"station_id":"ce4bhg92rcd13ifvqf90","pricing_plan_id":"cebpf4jnsgd1na2vs0mg"},{"bike_id":"54a40a98-dfab-48eb-b83b-388ce6f29848","system_id":"levelo_inurba_marseille","lat":43.2194,"lon":5.41901,"is_reserved":false,"is_disabled":false,"rental_uris":{"android":"levelo://app?vid=54a40a98-dfab-48eb-b83b-388ce6f29848","ios":"levelo://app?vid=54a40a98-dfab-48eb-b83b-388ce6f29848"},"vehicle_type_id":"4","last_reported":1742908830,"current_range_meters":6800,"station_id":"","pricing_plan_id":"cebpf4jnsgd1na2vs0mg"},{"bike_id":"b55a88c1-684a-4d71-b28c-1aa5f984196d","system_id":"levelo_inurba_marseille","lat":43.284421,"lon":5.392021,"is_reserved":false,"is_disabled":false,"rental_uris":{"android":"levelo://app?vid=b55a88c1-684a-4d71-b28c-1aa5f984196d","ios":"levelo://app?vid=b55a88c1-684a-4d71-b28c-1aa5f984196d"},"vehicle_type_id":"4","last_reported":1742908830,"current_range_meters":6800,"station_id":"ce4bhoh2rcd13ifvqh5g","pricing_plan_id":"cebpf4jnsgd1na2vs0mg"},{"bike_id":"e117a0a5-1095-47c3-90e2-c8d5bf6e72e4","system_id":"levelo_inurba_marseille","lat":43.30599,"lon":5.36691,"is_reserved":false,"is_disabled":false,"rental_uris":{"android":"levelo://app?vid=e117a0a5-1095-47c3-90e2-c8d5bf6e72e4","ios":"levelo://app?vid=e117a0a5-1095-47c3-90e2-c8d5bf6e72e4"},"vehicle_type_id":"4","last_reported":1742908830,"current_range_meters":6800,"station_id":"","pricing_plan_id":"cebpf4jnsgd1na2vs0mg"},{"bike_id":"2462aff4-312c-46a9-ae18-d864ef42c20c","system_id":"levelo_inurba_marseille","lat":43.24175,"lon":5.36396,"is_reserved":false,"is_disabled":false,"rental_uris":{"android":"levelo://app?vid=2462aff4-312c-46a9-ae18-d864ef42c20c","ios":"levelo://app?vid=2462aff4-312c-46a9-ae18-d864ef42c20c"},"vehicle_type_id":"4","last_reported":1742908830,"current_range_meters":7200,"station_id":"cpo36qri1sfpv3e86is0","pricing_plan_id":"cebpf4jnsgd1na2vs0mg"},{"bike_id":"1b8779ee-15bd-411f-8230-66fb3b9d06b8","system_id":"levelo_inurba_marseille","lat":43.29904,"lon":5.43673,"is_reserved":false,"is_disabled":false,"rental_uris":{"android":"levelo://app?vid=1b8779ee-15bd-411f-8230-66fb3b9d06b8","ios":"levelo://app?vid=1b8779ee-15bd-411f-8230-66fb3b9d06b8"},"vehicle_type_id":"4","last_reported":1742908830,"current_range_meters":7200,"station_id":"ce4bhpp2rcd13ifvqhfg","pricing_plan_id":"cebpf4jnsgd1na2vs0mg"},{"bike_id":"89726fdc-bac8-4a97-9944-0e6899c7f8d2","system_id":"levelo_inurba_marseille","lat":43.29696,"lon":5.36262,"is_reserved":false,"is_disabled":false,"rental_uris":{"android":"levelo://app?vid=89726fdc-bac8-4a97-9944-0e6899c7f8d2","ios":"levelo://app?vid=89726fdc-bac8-4a97-9944-0e6899c7f8d2"},"vehicle_type_id":"4","last_reported":1742908830,"current_range_meters":7200,"station_id":"","pricing_plan_id":"cebpf4jnsgd1na2vs0mg"},{"bike_id":"7dc2ce58-2478-4a86-96f6-6739fb8065a9","system_id":"levelo_inurba_marseille","lat":43.30964,"lon":5.39048,"is_reserved":false,"is_disabled":false,"rental_uris":{"android":"levelo://app?vid=7dc2ce58-2478-4a86-96f6-6739fb8065a9","ios":"levelo://app?vid=7dc2ce58-2478-4a86-96f6-6739fb8065a9"},"vehicle_type_id":"4","last_reported":1742908830,"current_range_meters":7200,"station_id":"ce4bgup2rcd13ifvqco0","pricing_plan_id":"cebpf4jnsgd1na2vs0mg"},{"bike_id":"640ea4b6-fa44-49b5-9378-cd6b5c97bbe6","system_id":"levelo_inurba_marseille","lat":43.296,"lon":5.38108,"is_reserved":false,"is_disabled":false,"rental_uris":{"android":"levelo://app?vid=640ea4b6-fa44-49b5-9378-cd6b5c97bbe6","ios":"levelo://app?vid=640ea4b6-fa44-49b5-9378-cd6b5c97bbe6"},"vehicle_type_id":"4","last_reported":1742908830,"current_range_meters":7200,"station_id":"ce4bgl12rcd13ifvqbo0","pricing_plan_id":"cebpf4jnsgd1na2vs0mg"},{"bike_id":"7e12ca1b-36c9-4b93-92c0-3a4589cc9871","system_id":"levelo_inurba_marseille","lat":43.28033,"lon":5.36944,"is_reserved":false,"is_disabled":false,"rental_uris":{"android":"levelo://app?vid=7e12ca1b-36c9-4b93-92c0-3a4589cc9871","ios":"levelo://app?vid=7e12ca1b-36c9-4b93-92c0-3a4589cc9871"},"vehicle_type_id":"4","last_reported":1742908830,"current_range_meters":7200,"station_id":"ce4bha12rcd13ifvqef0","pricing_plan_id":"cebpf4jnsgd1na2vs0mg"},{"bike_id":"60a4bfdd-976f-4f2f-a21a-68c4e333ecd6","system_id":"levelo_inurba_marseille","lat":43.23062,"lon":5.35497,"is_reserved":false,"is_disabled":false,"rental_uris":{"android":"levelo://app?vid=60a4bfdd-976f-4f2f-a21a-68c4e333ecd6","ios":"levelo://app?vid=60a4bfdd-976f-4f2f-a21a-68c4e333ecd6"},"vehicle_type_id":"4","last_reported":1742908830,"current_range_meters":7200,"station_id":"cpo3342slgdg3j2ifvpg","pricing_plan_id":"cebpf4jnsgd1na2vs0mg"},{"bike_id":"077f2b93-8f43-4f08-8ace-a02b56488cac","system_id":"levelo_inurba_marseille","lat":43.26217,"lon":5.40457,"is_reserved":false,"is_disabled":false,"rental_uris":{"android":"levelo://app?vid=077f2b93-8f43-4f08-8ace-a02b56488cac","ios":"levelo://app?vid=077f2b93-8f43-4f08-8ace-a02b56488cac"},"vehicle_type_id":"4","last_reported":1742908830,"current_range_meters":7200,"station_id":"ce4bhmh2rcd13ifvqgmg","pricing_plan_id":"cebpf4jnsgd1na2vs0mg"},{"bike_id":"999d99ba-ef4d-4c97-bb06-c1dc7c5d8e8e","system_id":"levelo_inurba_marseille","lat":43.24069,"lon":5.37735,"is_reserved":false,"is_disabled":false,"rental_uris":{"android":"levelo://app?vid=999d99ba-ef4d-4c97-bb06-c1dc7c5d8e8e","ios":"levelo://app?vid=999d99ba-ef4d-4c97-bb06-c1dc7c5d8e8e"},"vehicle_type_id":"4","last_reported":1742908830,"current_range_meters":7200,"station_id":"ce4bhnp2rcd13ifvqgvg","pricing_plan_id":"cebpf4jnsgd1na2vs0mg"},{"bike_id":"fbfecbb6-5794-4d9a-9176-1810e4b4a7ef","system_id":"levelo_inurba_marseille","lat":43.23055,"lon":5.35497,"is_reserved":false,"is_disabled":false,"rental_uris":{"android":"levelo://app?vid=fbfecbb6-5794-4d9a-9176-1810e4b4a7ef","ios":"levelo://app?vid=fbfecbb6-5794-4d9a-9176-1810e4b4a7ef"},"vehicle_type_id":"4","last_reported":1742908830,"current_range_meters":7200,"station_id":"cpo3342slgdg3j2ifvpg","pricing_plan_id":"cebpf4jnsgd1na2vs0mg"},{"bike_id":"51587de3-9f36-4381-8c56-728033ce9c30","system_id":"levelo_inurba_marseille","lat":43.29806,"lon":5.38094,"is_reserved":false,"is_disabled":false,"rental_uris":{"android":"levelo://app?vid=51587de3-9f36-4381-8c56-728033ce9c30","ios":"levelo://app?vid=51587de3-9f36-4381-8c56-728033ce9c30"},"vehicle_type_id":"4","last_reported":1742908830,"current_range_meters":7200,"station_id":"ce4bgip2rcd13ifvqbb0","pricing_plan_id":"cebpf4jnsgd1na2vs0mg"},{"bike_id":"0ac21c4a-b9c6-4ffc-8854-b76ca7c22a2b","system_id":"levelo_inurba_marseille","lat":43.281607,"lon":5.426398,"is_reserved":false,"is_disabled":false,"rental_uris":{"android":"levelo://app?vid=0ac21c4a-b9c6-4ffc-8854-b76ca7c22a2b","ios":"levelo://app?vid=0ac21c4a-b9c6-4ffc-8854-b76ca7c22a2b"},"vehicle_type_id":"4","last_reported":1742908830,"current_range_meters":8000,"station_id":"ce4bhnh2rcd13ifvqgug","pricing_plan_id":"cebpf4jnsgd1na2vs0mg"},{"bike_id":"04ae21bf-d9a4-4239-b023-07ee560fcdb9","system_id":"levelo_inurba_marseille","lat":43.28274,"lon":5.35072,"is_reserved":false,"is_disabled":false,"rental_uris":{"android":"levelo://app?vid=04ae21bf-d9a4-4239-b023-07ee560fcdb9","ios":"levelo://app?vid=04ae21bf-d9a4-4239-b023-07ee560fcdb9"},"vehicle_type_id":"4","last_reported":1742908830,"current_range_meters":8000,"station_id":"ce4bhbp2rcd13ifvqerg","pricing_plan_id":"cebpf4jnsgd1na2vs0mg"},{"bike_id":"f1681b6a-7497-4c7b-a00f-0c281574068a","system_id":"levelo_inurba_marseille","lat":43.31044,"lon":5.37481,"is_reserved":false,"is_disabled":false,"rental_uris":{"android":"levelo://app?vid=f1681b6a-7497-4c7b-a00f-0c281574068a","ios":"levelo://app?vid=f1681b6a-7497-4c7b-a00f-0c281574068a"},"vehicle_type_id":"4","last_reported":1742908830,"current_range_meters":8000,"station_id":"","pricing_plan_id":"cebpf4jnsgd1na2vs0mg"},{"bike_id":"e4b3b44e-6b32-4d4e-b3f4-7fd739444307","system_id":"levelo_inurba_marseille","lat":43.29274,"lon":5.36852,"is_reserved":false,"is_disabled":true,"rental_uris":{"android":"levelo://app?vid=e4b3b44e-6b32-4d4e-b3f4-7fd739444307","ios":"levelo://app?vid=e4b3b44e-6b32-4d4e-b3f4-7fd739444307"},"vehicle_type_id":"4","last_reported":1742908830,"current_range_meters":8000,"station_id":"ce4bhbp2rcd13ifvqesg","pricing_plan_id":"cebpf4jnsgd1na2vs0mg"},{"bike_id":"21be2ddd-a33f-4821-9edb-0782de7ee7c9","system_id":"levelo_inurba_marseille","lat":43.23141,"lon":5.4372,"is_reserved":false,"is_disabled":false,"rental_uris":{"android":"levelo://app?vid=21be2ddd-a33f-4821-9edb-0782de7ee7c9","ios":"levelo://app?vid=21be2ddd-a33f-4821-9edb-0782de7ee7c9"},"vehicle_type_id":"4","last_reported":1742908830,"current_range_meters":8000,"station_id":"ce4bhmp2rcd13ifvqgog","pricing_plan_id":"cebpf4jnsgd1na2vs0mg"},{"bike_id":"54b2eb2e-f099-4f46-9067-448b807e02c4","system_id":"levelo_inurba_marseille","lat":43.29042,"lon":5.356,"is_reserved":false,"is_disabled":false,"rental_uris":{"android":"levelo://app?vid=54b2eb2e-f099-4f46-9067-448b807e02c4","ios":"levelo://app?vid=54b2eb2e-f099-4f46-9067-448b807e02c4"},"vehicle_type_id":"4","last_reported":1742908830,"current_range_meters":8000,"station_id":"","pricing_plan_id":"cebpf4jnsgd1na2vs0mg"},{"bike_id":"3c036800-7328-4f4c-8b47-e54559673e3b","system_id":"levelo_inurba_marseille","lat":43.29574,"lon":5.39983,"is_reserved":false,"is_disabled":false,"rental_uris":{"android":"levelo://app?vid=3c036800-7328-4f4c-8b47-e54559673e3b","ios":"levelo://app?vid=3c036800-7328-4f4c-8b47-e54559673e3b"},"vehicle_type_id":"4","last_reported":1742908830,"current_range_meters":8000,"station_id":"ce4bh312rcd13ifvqdj0","pricing_plan_id":"cebpf4jnsgd1na2vs0mg"},{"bike_id":"e4088ee9-1819-4edb-a33f-be6e30714bd1","system_id":"levelo_inurba_marseille","lat":43.29897,"lon":5.43669,"is_reserved":false,"is_disabled":false,"rental_uris":{"android":"levelo://app?vid=e4088ee9-1819-4edb-a33f-be6e30714bd1","ios":"levelo://app?vid=e4088ee9-1819-4edb-a33f-be6e30714bd1"},"vehicle_type_id":"4","last_reported":1742908830,"current_range_meters":8000,"station_id":"ce4bhpp2rcd13ifvqhfg","pricing_plan_id":"cebpf4jnsgd1na2vs0mg"},{"bike_id":"0dfb0d89-73f2-49b8-91e9-15d856e46939","system_id":"levelo_inurba_marseille","lat":43.24188,"lon":5.39743,"is_reserved":false,"is_disabled":false,"rental_uris":{"android":"levelo://app?vid=0dfb0d89-73f2-49b8-91e9-15d856e46939","ios":"levelo://app?vid=0dfb0d89-73f2-49b8-91e9-15d856e46939"},"vehicle_type_id":"4","last_reported":1742908830,"current_range_meters":8000,"station_id":"ce4bhn12rcd13ifvqgpg","pricing_plan_id":"cebpf4jnsgd1na2vs0mg"},{"bike_id":"c0802077-7a16-4727-a8dd-d6fc82bd7f7d","system_id":"levelo_inurba_marseille","lat":43.26682,"lon":5.38274,"is_reserved":false,"is_disabled":false,"rental_uris":{"android":"levelo://app?vid=c0802077-7a16-4727-a8dd-d6fc82bd7f7d","ios":"levelo://app?vid=c0802077-7a16-4727-a8dd-d6fc82bd7f7d"},"vehicle_type_id":"4","last_reported":1742908830,"current_range_meters":8000,"station_id":"ce4bhg92rcd13ifvqf90","pricing_plan_id":"cebpf4jnsgd1na2vs0mg"},{"bike_id":"a0d4632a-7a87-4031-aeeb-061ca0feaca6","system_id":"levelo_inurba_marseille","lat":43.23959,"lon":5.36632,"is_reserved":false,"is_disabled":false,"rental_uris":{"android":"levelo://app?vid=a0d4632a-7a87-4031-aeeb-061ca0feaca6","ios":"levelo://app?vid=a0d4632a-7a87-4031-aeeb-061ca0feaca6"},"vehicle_type_id":"4","last_reported":1742908830,"current_range_meters":8400,"station_id":"ce4bhi12rcd13ifvqfp0","pricing_plan_id":"cebpf4jnsgd1na2vs0mg"},{"bike_id":"ae79105d-199d-4161-9442-d125a615bfc5","system_id":"levelo_inurba_marseille","lat":43.26203,"lon":5.37918,"is_reserved":false,"is_disabled":false,"rental_uris":{"android":"levelo://app?vid=ae79105d-199d-4161-9442-d125a615bfc5","ios":"levelo://app?vid=ae79105d-199d-4161-9442-d125a615bfc5"},"vehicle_type_id":"4","last_reported":1742908830,"current_range_meters":8400,"station_id":"ce4bhjp2rcd13ifvqg90","pricing_plan_id":"cebpf4jnsgd1na2vs0mg"},{"bike_id":"11146d89-280c-4ffa-9e2e-3ca463658b6b","system_id":"levelo_inurba_marseille","lat":43.26951,"lon":5.38646,"is_reserved":false,"is_disabled":false,"rental_uris":{"android":"levelo://app?vid=11146d89-280c-4ffa-9e2e-3ca463658b6b","ios":"levelo://app?vid=11146d89-280c-4ffa-9e2e-3ca463658b6b"},"vehicle_type_id":"4","last_reported":1742908830,"current_range_meters":8400,"station_id":"ce4bhh92rcd13ifvqfh0","pricing_plan_id":"cebpf4jnsgd1na2vs0mg"},{"bike_id":"43ee29ad-e90b-4b8e-8031-ad15f7cb1f0a","system_id":"levelo_inurba_marseille","lat":43.278383,"lon":5.392058,"is_reserved":false,"is_disabled":false,"rental_uris":{"android":"levelo://app?vid=43ee29ad-e90b-4b8e-8031-ad15f7cb1f0a","ios":"levelo://app?vid=43ee29ad-e90b-4b8e-8031-ad15f7cb1f0a"},"vehicle_type_id":"4","last_reported":1742908830,"current_range_meters":8400,"station_id":"ce4bhg12rcd13ifvqf80","pricing_plan_id":"cebpf4jnsgd1na2vs0mg"},{"bike_id":"3643b12d-32b8-4478-a689-bc04d08e60aa","system_id":"levelo_inurba_marseille","lat":43.286109,"lon":5.37074,"is_reserved":false,"is_disabled":false,"rental_uris":{"android":"levelo://app?vid=3643b12d-32b8-4478-a689-bc04d08e60aa","ios":"levelo://app?vid=3643b12d-32b8-4478-a689-bc04d08e60aa"},"vehicle_type_id":"4","last_reported":1742908830,"current_range_meters":8400,"station_id":"ce4bhjp2rcd13ifvqga0","pricing_plan_id":"cebpf4jnsgd1na2vs0mg"},{"bike_id":"c9f35259-8a71-4755-b134-b0004533aed9","system_id":"levelo_inurba_marseille","lat":43.30948,"lon":5.39041,"is_reserved":false,"is_disabled":false,"rental_uris":{"android":"levelo://app?vid=c9f35259-8a71-4755-b134-b0004533aed9","ios":"levelo://app?vid=c9f35259-8a71-4755-b134-b0004533aed9"},"vehicle_type_id":"4","last_reported":1742908830,"current_range_meters":8400,"station_id":"ce4bgup2rcd13ifvqco0","pricing_plan_id":"cebpf4jnsgd1na2vs0mg"},{"bike_id":"442c3533-2fa3-4243-8edd-8a0cc2fa5343","system_id":"levelo_inurba_marseille","lat":43.30149,"lon":5.37418,"is_reserved":false,"is_disabled":false,"rental_uris":{"android":"levelo://app?vid=442c3533-2fa3-4243-8edd-8a0cc2fa5343","ios":"levelo://app?vid=442c3533-2fa3-4243-8edd-8a0cc2fa5343"},"vehicle_type_id":"4","last_reported":1742908830,"current_range_meters":8400,"station_id":"ce4bgs92rcd13ifvqcc0","pricing_plan_id":"cebpf4jnsgd1na2vs0mg"},{"bike_id":"4bc79827-08f9-4194-ba7c-636aa090a68d","system_id":"levelo_inurba_marseille","lat":43.30545,"lon":5.36544,"is_reserved":false,"is_disabled":false,"rental_uris":{"android":"levelo://app?vid=4bc79827-08f9-4194-ba7c-636aa090a68d","ios":"levelo://app?vid=4bc79827-08f9-4194-ba7c-636aa090a68d"},"vehicle_type_id":"4","last_reported":1742908830,"current_range_meters":8400,"station_id":"ce4bgs12rcd13ifvqcag","pricing_plan_id":"cebpf4jnsgd1na2vs0mg"},{"bike_id":"ebe7d085-ac3c-48e7-9a36-54a9f134007a","system_id":"levelo_inurba_marseille","lat":43.31347,"lon":5.36711,"is_reserved":false,"is_disabled":false,"rental_uris":{"android":"levelo://app?vid=ebe7d085-ac3c-48e7-9a36-54a9f134007a","ios":"levelo://app?vid=ebe7d085-ac3c-48e7-9a36-54a9f134007a"},"vehicle_type_id":"4","last_reported":1742908830,"current_range_meters":8400,"station_id":"ce4bgr92rcd13ifvqc6g","pricing_plan_id":"cebpf4jnsgd1na2vs0mg"},{"bike_id":"17b3c18c-b430-4702-8452-3721e13d32f4","system_id":"levelo_inurba_marseille","lat":43.30551,"lon":5.36714,"is_reserved":false,"is_disabled":false,"rental_uris":{"android":"levelo://app?vid=17b3c18c-b430-4702-8452-3721e13d32f4","ios":"levelo://app?vid=17b3c18c-b430-4702-8452-3721e13d32f4"},"vehicle_type_id":"4","last_reported":1742908830,"current_range_meters":8800,"station_id":"ce4bgrp2rcd13ifvqc9g","pricing_plan_id":"cebpf4jnsgd1na2vs0mg"},{"bike_id":"bf350e44-9d96-43a3-993f-704f355b2020","system_id":"levelo_inurba_marseille","lat":43.29017,"lon":5.38129,"is_reserved":false,"is_disabled":false,"rental_uris":{"android":"levelo://app?vid=bf350e44-9d96-43a3-993f-704f355b2020","ios":"levelo://app?vid=bf350e44-9d96-43a3-993f-704f355b2020"},"vehicle_type_id":"4","last_reported":1742908830,"current_range_meters":8800,"station_id":"ce4bh4p2rcd13ifvqe1g","pricing_plan_id":"cebpf4jnsgd1na2vs0mg"},{"bike_id":"80329d92-fbde-4e2e-a763-57d7d2304cc1","system_id":"levelo_inurba_marseille","lat":43.26958,"lon":5.38637,"is_reserved":false,"is_disabled":false,"rental_uris":{"android":"levelo://app?vid=80329d92-fbde-4e2e-a763-57d7d2304cc1","ios":"levelo://app?vid=80329d92-fbde-4e2e-a763-57d7d2304cc1"},"vehicle_type_id":"4","last_reported":1742908830,"current_range_meters":8800,"station_id":"ce4bhh92rcd13ifvqfh0","pricing_plan_id":"cebpf4jnsgd1na2vs0mg"},{"bike_id":"dcefa3ca-b492-4619-bc0b-7f1b32420450","system_id":"levelo_inurba_marseille","lat":43.2944,"lon":5.39752,"is_reserved":false,"is_disabled":false,"rental_uris":{"android":"levelo://app?vid=dcefa3ca-b492-4619-bc0b-7f1b32420450","ios":"levelo://app?vid=dcefa3ca-b492-4619-bc0b-7f1b32420450"},"vehicle_type_id":"4","last_reported":1742908830,"current_range_meters":8800,"station_id":"ce4bh3h2rcd13ifvqdo0","pricing_plan_id":"cebpf4jnsgd1na2vs0mg"},{"bike_id":"ef43d9bd-e531-4a59-b8a9-fdc80b41fa34","system_id":"levelo_inurba_marseille","lat":43.3127,"lon":5.40174,"is_reserved":false,"is_disabled":true,"rental_uris":{"android":"levelo://app?vid=ef43d9bd-e531-4a59-b8a9-fdc80b41fa34","ios":"levelo://app?vid=ef43d9bd-e531-4a59-b8a9-fdc80b41fa34"},"vehicle_type_id":"4","last_reported":1742908830,"current_range_meters":8800,"station_id":"ce4bh092rcd13ifvqd30","pricing_plan_id":"cebpf4jnsgd1na2vs0mg"},{"bike_id":"27eb11c3-c766-4761-a0f8-e217e7fd248d","system_id":"levelo_inurba_marseille","lat":43.26684,"lon":5.38274,"is_reserved":false,"is_disabled":false,"rental_uris":{"android":"levelo://app?vid=27eb11c3-c766-4761-a0f8-e217e7fd248d","ios":"levelo://app?vid=27eb11c3-c766-4761-a0f8-e217e7fd248d"},"vehicle_type_id":"4","last_reported":1742908830,"current_range_meters":8800,"station_id":"ce4bhg92rcd13ifvqf90","pricing_plan_id":"cebpf4jnsgd1na2vs0mg"},{"bike_id":"01a38d97-c0d8-461f-a1ee-5a85006dff65","system_id":"levelo_inurba_marseille","lat":43.23154,"lon":5.43708,"is_reserved":false,"is_disabled":false,"rental_uris":{"android":"levelo://app?vid=01a38d97-c0d8-461f-a1ee-5a85006dff65","ios":"levelo://app?vid=01a38d97-c0d8-461f-a1ee-5a85006dff65"},"vehicle_type_id":"4","last_reported":1742908830,"current_range_meters":8800,"station_id":"ce4bhmp2rcd13ifvqgog","pricing_plan_id":"cebpf4jnsgd1na2vs0mg"},{"bike_id":"938c0f4e-65bf-479a-ba6e-fe7a68ff9b08","system_id":"levelo_inurba_marseille","lat":43.26513,"lon":5.37326,"is_reserved":false,"is_disabled":false,"rental_uris":{"android":"levelo://app?vid=938c0f4e-65bf-479a-ba6e-fe7a68ff9b08","ios":"levelo://app?vid=938c0f4e-65bf-479a-ba6e-fe7a68ff9b08"},"vehicle_type_id":"4","last_reported":1742908830,"current_range_meters":8800,"station_id":"","pricing_plan_id":"cebpf4jnsgd1na2vs0mg"},{"bike_id":"a12928e8-2ec5-48bb-9fe6-e4726f6a2ad5","system_id":"levelo_inurba_marseille","lat":43.23062,"lon":5.35488,"is_reserved":false,"is_disabled":false,"rental_uris":{"android":"levelo://app?vid=a12928e8-2ec5-48bb-9fe6-e4726f6a2ad5","ios":"levelo://app?vid=a12928e8-2ec5-48bb-9fe6-e4726f6a2ad5"},"vehicle_type_id":"4","last_reported":1742908830,"current_range_meters":8800,"station_id":"cpo3342slgdg3j2ifvpg","pricing_plan_id":"cebpf4jnsgd1na2vs0mg"},{"bike_id":"c751cc1d-d406-4010-b038-095ce909fced","system_id":"levelo_inurba_marseille","lat":43.30954,"lon":5.39037,"is_reserved":false,"is_disabled":false,"rental_uris":{"android":"levelo://app?vid=c751cc1d-d406-4010-b038-095ce909fced","ios":"levelo://app?vid=c751cc1d-d406-4010-b038-095ce909fced"},"vehicle_type_id":"4","last_reported":1742908830,"current_range_meters":8800,"station_id":"ce4bgup2rcd13ifvqco0","pricing_plan_id":"cebpf4jnsgd1na2vs0mg"},{"bike_id":"d7c12436-4bbb-40d1-a28a-aede6f2646e5","system_id":"levelo_inurba_marseille","lat":43.31214,"lon":5.36813,"is_reserved":false,"is_disabled":false,"rental_uris":{"android":"levelo://app?vid=d7c12436-4bbb-40d1-a28a-aede6f2646e5","ios":"levelo://app?vid=d7c12436-4bbb-40d1-a28a-aede6f2646e5"},"vehicle_type_id":"4","last_reported":1742908830,"current_range_meters":8800,"station_id":"ce4bgl92rcd13ifvqbq0","pricing_plan_id":"cebpf4jnsgd1na2vs0mg"},{"bike_id":"a830f52f-aeba-4ddd-9c3f-5756c42841a5","system_id":"levelo_inurba_marseille","lat":43.32485,"lon":5.36586,"is_reserved":false,"is_disabled":false,"rental_uris":{"android":"levelo://app?vid=a830f52f-aeba-4ddd-9c3f-5756c42841a5","ios":"levelo://app?vid=a830f52f-aeba-4ddd-9c3f-5756c42841a5"},"vehicle_type_id":"4","last_reported":1742908830,"current_range_meters":9200,"station_id":"ce4bhs12rcd13ifvqhvg","pricing_plan_id":"cebpf4jnsgd1na2vs0mg"},{"bike_id":"08508ceb-e32b-4126-9501-17d7bd76bbe3","system_id":"levelo_inurba_marseille","lat":43.28483,"lon":5.38436,"is_reserved":false,"is_disabled":false,"rental_uris":{"android":"levelo://app?vid=08508ceb-e32b-4126-9501-17d7bd76bbe3","ios":"levelo://app?vid=08508ceb-e32b-4126-9501-17d7bd76bbe3"},"vehicle_type_id":"4","last_reported":1742908830,"current_range_meters":9200,"station_id":"ce4bh512rcd13ifvqe3g","pricing_plan_id":"cebpf4jnsgd1na2vs0mg"},{"bike_id":"d0ce6a4c-8c1a-4117-b620-bb8816808dbc","system_id":"levelo_inurba_marseille","lat":43.23976,"lon":5.36615,"is_reserved":false,"is_disabled":false,"rental_uris":{"android":"levelo://app?vid=d0ce6a4c-8c1a-4117-b620-bb8816808dbc","ios":"levelo://app?vid=d0ce6a4c-8c1a-4117-b620-bb8816808dbc"},"vehicle_type_id":"4","last_reported":1742908830,"current_range_meters":9200,"station_id":"ce4bhi12rcd13ifvqfp0","pricing_plan_id":"cebpf4jnsgd1na2vs0mg"},{"bike_id":"715a9bd9-2109-4f59-9c48-0a4306adea55","system_id":"levelo_inurba_marseille","lat":43.30959,"lon":5.39056,"is_reserved":false,"is_disabled":false,"rental_uris":{"android":"levelo://app?vid=715a9bd9-2109-4f59-9c48-0a4306adea55","ios":"levelo://app?vid=715a9bd9-2109-4f59-9c48-0a4306adea55"},"vehicle_type_id":"4","last_reported":1742908830,"current_range_meters":9200,"station_id":"ce4bgup2rcd13ifvqco0","pricing_plan_id":"cebpf4jnsgd1na2vs0mg"},{"bike_id":"bb724103-4d51-41ba-b5e7-e066d49dfd22","system_id":"levelo_inurba_marseille","lat":43.305315,"lon":5.365622,"is_reserved":false,"is_disabled":false,"rental_uris":{"android":"levelo://app?vid=bb724103-4d51-41ba-b5e7-e066d49dfd22","ios":"levelo://app?vid=bb724103-4d51-41ba-b5e7-e066d49dfd22"},"vehicle_type_id":"4","last_reported":1742908830,"current_range_meters":9200,"station_id":"ce4bgs12rcd13ifvqcag","pricing_plan_id":"cebpf4jnsgd1na2vs0mg"},{"bike_id":"c353c957-fbb8-408a-9097-46c8d6b68074","system_id":"levelo_inurba_marseille","lat":43.24182,"lon":5.39717,"is_reserved":false,"is_disabled":false,"rental_uris":{"android":"levelo://app?vid=c353c957-fbb8-408a-9097-46c8d6b68074","ios":"levelo://app?vid=c353c957-fbb8-408a-9097-46c8d6b68074"},"vehicle_type_id":"4","last_reported":1742908830,"current_range_meters":9200,"station_id":"ce4bhn12rcd13ifvqgpg","pricing_plan_id":"cebpf4jnsgd1na2vs0mg"},{"bike_id":"2a99ecb7-4bf0-4c00-89bb-11ff019b8a6d","system_id":"levelo_inurba_marseille","lat":43.22938,"lon":5.35403,"is_reserved":false,"is_disabled":false,"rental_uris":{"android":"levelo://app?vid=2a99ecb7-4bf0-4c00-89bb-11ff019b8a6d","ios":"levelo://app?vid=2a99ecb7-4bf0-4c00-89bb-11ff019b8a6d"},"vehicle_type_id":"4","last_reported":1742908830,"current_range_meters":9600,"station_id":"cpo3532slgdg3j2ikp40","pricing_plan_id":"cebpf4jnsgd1na2vs0mg"},{"bike_id":"c92ac62d-2e46-4289-843a-c760d8da0c94","system_id":"levelo_inurba_marseille","lat":43.25746,"lon":5.41087,"is_reserved":false,"is_disabled":false,"rental_uris":{"android":"levelo://app?vid=c92ac62d-2e46-4289-843a-c760d8da0c94","ios":"levelo://app?vid=c92ac62d-2e46-4289-843a-c760d8da0c94"},"vehicle_type_id":"4","last_reported":1742908830,"current_range_meters":9600,"station_id":"ce4bhkp2rcd13ifvqgd0","pricing_plan_id":"cebpf4jnsgd1na2vs0mg"},{"bike_id":"e3f76d45-4904-44a7-aac2-e04832e991bb","system_id":"levelo_inurba_marseille","lat":43.29965,"lon":5.41329,"is_reserved":false,"is_disabled":true,"rental_uris":{"android":"levelo://app?vid=e3f76d45-4904-44a7-aac2-e04832e991bb","ios":"levelo://app?vid=e3f76d45-4904-44a7-aac2-e04832e991bb"},"vehicle_type_id":"4","last_reported":1742908830,"current_range_meters":9600,"station_id":"ce4bhp12rcd13ifvqh9g","pricing_plan_id":"cebpf4jnsgd1na2vs0mg"},{"bike_id":"1848cf99-7a86-429c-a1af-abe291b1144c","system_id":"levelo_inurba_marseille","lat":43.32491,"lon":5.36574,"is_reserved":false,"is_disabled":false,"rental_uris":{"android":"levelo://app?vid=1848cf99-7a86-429c-a1af-abe291b1144c","ios":"levelo://app?vid=1848cf99-7a86-429c-a1af-abe291b1144c"},"vehicle_type_id":"4","last_reported":1742908830,"current_range_meters":9600,"station_id":"ce4bhs12rcd13ifvqhvg","pricing_plan_id":"cebpf4jnsgd1na2vs0mg"},{"bike_id":"17e74052-fed6-430f-bd20-0cd014fae766","system_id":"levelo_inurba_marseille","lat":43.31091,"lon":5.42426,"is_reserved":false,"is_disabled":false,"rental_uris":{"android":"levelo://app?vid=17e74052-fed6-430f-bd20-0cd014fae766","ios":"levelo://app?vid=17e74052-fed6-430f-bd20-0cd014fae766"},"vehicle_type_id":"4","last_reported":1742908830,"current_range_meters":9600,"station_id":"ce4bhp92rcd13ifvqhag","pricing_plan_id":"cebpf4jnsgd1na2vs0mg"},{"bike_id":"e51b66e0-713e-4e6a-a7a2-d2eedf8fea49","system_id":"levelo_inurba_marseille","lat":43.297779,"lon":5.371273,"is_reserved":false,"is_disabled":false,"rental_uris":{"android":"levelo://app?vid=e51b66e0-713e-4e6a-a7a2-d2eedf8fea49","ios":"levelo://app?vid=e51b66e0-713e-4e6a-a7a2-d2eedf8fea49"},"vehicle_type_id":"4","last_reported":1742908830,"current_range_meters":9200,"station_id":"ce4bgop2rcd13ifvqc1g","pricing_plan_id":"cebpf4jnsgd1na2vs0mg"},{"bike_id":"b6fd1ec3-47b2-486f-8b84-f71e2b87ecef","system_id":"levelo_inurba_marseille","lat":43.31083,"lon":5.42434,"is_reserved":false,"is_disabled":true,"rental_uris":{"android":"levelo://app?vid=b6fd1ec3-47b2-486f-8b84-f71e2b87ecef","ios":"levelo://app?vid=b6fd1ec3-47b2-486f-8b84-f71e2b87ecef"},"vehicle_type_id":"4","last_reported":1742908830,"current_range_meters":9600,"station_id":"ce4bhp92rcd13ifvqhag","pricing_plan_id":"cebpf4jnsgd1na2vs0mg"},{"bike_id":"8f208df7-81e0-45c5-bd98-a49c85a38fa2","system_id":"levelo_inurba_marseille","lat":43.30318,"lon":5.36905,"is_reserved":false,"is_disabled":false,"rental_uris":{"android":"levelo://app?vid=8f208df7-81e0-45c5-bd98-a49c85a38fa2","ios":"levelo://app?vid=8f208df7-81e0-45c5-bd98-a49c85a38fa2"},"vehicle_type_id":"4","last_reported":1742908830,"current_range_meters":9600,"station_id":"ce4bgqh2rcd13ifvqc5g","pricing_plan_id":"cebpf4jnsgd1na2vs0mg"},{"bike_id":"ecbb8c88-066d-4979-a1ca-79e53c204899","system_id":"levelo_inurba_marseille","lat":43.23966,"lon":5.36628,"is_reserved":false,"is_disabled":false,"rental_uris":{"android":"levelo://app?vid=ecbb8c88-066d-4979-a1ca-79e53c204899","ios":"levelo://app?vid=ecbb8c88-066d-4979-a1ca-79e53c204899"},"vehicle_type_id":"4","last_reported":1742908830,"current_range_meters":9600,"station_id":"ce4bhi12rcd13ifvqfp0","pricing_plan_id":"cebpf4jnsgd1na2vs0mg"},{"bike_id":"6bb6f1fc-5b4f-4f3d-97c1-f093e7e9a8ef","system_id":"levelo_inurba_marseille","lat":43.23074,"lon":5.35496,"is_reserved":false,"is_disabled":false,"rental_uris":{"android":"levelo://app?vid=6bb6f1fc-5b4f-4f3d-97c1-f093e7e9a8ef","ios":"levelo://app?vid=6bb6f1fc-5b4f-4f3d-97c1-f093e7e9a8ef"},"vehicle_type_id":"4","last_reported":1742908830,"current_range_meters":9600,"station_id":"cpo3342slgdg3j2ifvpg","pricing_plan_id":"cebpf4jnsgd1na2vs0mg"},{"bike_id":"8871fee1-c30f-4721-bb9f-022f22051a94","system_id":"levelo_inurba_marseille","lat":43.241789,"lon":5.397375,"is_reserved":false,"is_disabled":false,"rental_uris":{"android":"levelo://app?vid=8871fee1-c30f-4721-bb9f-022f22051a94","ios":"levelo://app?vid=8871fee1-c30f-4721-bb9f-022f22051a94"},"vehicle_type_id":"4","last_reported":1742908830,"current_range_meters":10000,"station_id":"ce4bhn12rcd13ifvqgpg","pricing_plan_id":"cebpf4jnsgd1na2vs0mg"},{"bike_id":"01d0caa0-4340-4474-b945-0749b9ae489d","system_id":"levelo_inurba_marseille","lat":43.29789,"lon":5.381,"is_reserved":false,"is_disabled":false,"rental_uris":{"android":"levelo://app?vid=01d0caa0-4340-4474-b945-0749b9ae489d","ios":"levelo://app?vid=01d0caa0-4340-4474-b945-0749b9ae489d"},"vehicle_type_id":"4","last_reported":1742908830,"current_range_meters":10000,"station_id":"ce4bgip2rcd13ifvqbb0","pricing_plan_id":"cebpf4jnsgd1na2vs0mg"},{"bike_id":"0accb7fb-5f16-43fe-acbe-e093ae1cc81b","system_id":"levelo_inurba_marseille","lat":43.25503,"lon":5.37647,"is_reserved":false,"is_disabled":false,"rental_uris":{"android":"levelo://app?vid=0accb7fb-5f16-43fe-acbe-e093ae1cc81b","ios":"levelo://app?vid=0accb7fb-5f16-43fe-acbe-e093ae1cc81b"},"vehicle_type_id":"4","last_reported":1742908830,"current_range_meters":10000,"station_id":"ce4bhh12rcd13ifvqff0","pricing_plan_id":"cebpf4jnsgd1na2vs0mg"},{"bike_id":"225cbe9d-4f8e-432e-b5e7-cd7e14da2d62","system_id":"levelo_inurba_marseille","lat":43.2818,"lon":5.42647,"is_reserved":false,"is_disabled":false,"rental_uris":{"android":"levelo://app?vid=225cbe9d-4f8e-432e-b5e7-cd7e14da2d62","ios":"levelo://app?vid=225cbe9d-4f8e-432e-b5e7-cd7e14da2d62"},"vehicle_type_id":"4","last_reported":1742908830,"current_range_meters":10000,"station_id":"ce4bhnh2rcd13ifvqgug","pricing_plan_id":"cebpf4jnsgd1na2vs0mg"},{"bike_id":"342c7780-cf93-48d3-8e14-91b8895d03c1","system_id":"levelo_inurba_marseille","lat":43.2942,"lon":5.38632,"is_reserved":false,"is_disabled":false,"rental_uris":{"android":"levelo://app?vid=342c7780-cf93-48d3-8e14-91b8895d03c1","ios":"levelo://app?vid=342c7780-cf93-48d3-8e14-91b8895d03c1"},"vehicle_type_id":"4","last_reported":1742908830,"current_range_meters":6800,"station_id":"ce4bh2h2rcd13ifvqdh0","pricing_plan_id":"cebpf4jnsgd1na2vs0mg"},{"bike_id":"1878cb00-829b-4819-b716-5a6d884419d0","system_id":"levelo_inurba_marseille","lat":43.29797,"lon":5.38092,"is_reserved":false,"is_disabled":false,"rental_uris":{"android":"levelo://app?vid=1878cb00-829b-4819-b716-5a6d884419d0","ios":"levelo://app?vid=1878cb00-829b-4819-b716-5a6d884419d0"},"vehicle_type_id":"4","last_reported":1742908830,"current_range_meters":10000,"station_id":"ce4bgip2rcd13ifvqbb0","pricing_plan_id":"cebpf4jnsgd1na2vs0mg"},{"bike_id":"c4c112a2-c87a-48f3-b2ea-b5de9646d5a4","system_id":"levelo_inurba_marseille","lat":43.29796,"lon":5.38099,"is_reserved":false,"is_disabled":false,"rental_uris":{"android":"levelo://app?vid=c4c112a2-c87a-48f3-b2ea-b5de9646d5a4","ios":"levelo://app?vid=c4c112a2-c87a-48f3-b2ea-b5de9646d5a4"},"vehicle_type_id":"4","last_reported":1742908830,"current_range_meters":9600,"station_id":"ce4bgip2rcd13ifvqbb0","pricing_plan_id":"cebpf4jnsgd1na2vs0mg"},{"bike_id":"2f3e2a92-1301-4a27-8eaa-7b0ea525530e","system_id":"levelo_inurba_marseille","lat":43.317039,"lon":5.437012,"is_reserved":false,"is_disabled":false,"rental_uris":{"android":"levelo://app?vid=2f3e2a92-1301-4a27-8eaa-7b0ea525530e","ios":"levelo://app?vid=2f3e2a92-1301-4a27-8eaa-7b0ea525530e"},"vehicle_type_id":"4","last_reported":1742908830,"current_range_meters":10000,"station_id":"","pricing_plan_id":"cebpf4jnsgd1na2vs0mg"},{"bike_id":"ada4ba7b-2dc8-47ef-a5a8-9dc4e4bd1916","system_id":"levelo_inurba_marseille","lat":43.2931,"lon":5.36864,"is_reserved":false,"is_disabled":false,"rental_uris":{"android":"levelo://app?vid=ada4ba7b-2dc8-47ef-a5a8-9dc4e4bd1916","ios":"levelo://app?vid=ada4ba7b-2dc8-47ef-a5a8-9dc4e4bd1916"},"vehicle_type_id":"4","last_reported":1742908830,"current_range_meters":10000,"station_id":"ce4bhbp2rcd13ifvqesg","pricing_plan_id":"cebpf4jnsgd1na2vs0mg"},{"bike_id":"1cea0345-5203-450f-a795-3f854fd4a8ad","system_id":"levelo_inurba_marseille","lat":43.28419,"lon":5.34989,"is_reserved":false,"is_disabled":false,"rental_uris":{"android":"levelo://app?vid=1cea0345-5203-450f-a795-3f854fd4a8ad","ios":"levelo://app?vid=1cea0345-5203-450f-a795-3f854fd4a8ad"},"vehicle_type_id":"4","last_reported":1742908830,"current_range_meters":10000,"station_id":"ce4bhbh2rcd13ifvqepg","pricing_plan_id":"cebpf4jnsgd1na2vs0mg"},{"bike_id":"c4a2a488-ef95-4089-ae36-fe11ba22b190","system_id":"levelo_inurba_marseille","lat":43.2315,"lon":5.43716,"is_reserved":false,"is_disabled":false,"rental_uris":{"android":"levelo://app?vid=c4a2a488-ef95-4089-ae36-fe11ba22b190","ios":"levelo://app?vid=c4a2a488-ef95-4089-ae36-fe11ba22b190"},"vehicle_type_id":"4","last_reported":1742908830,"current_range_meters":10000,"station_id":"ce4bhmp2rcd13ifvqgog","pricing_plan_id":"cebpf4jnsgd1na2vs0mg"},{"bike_id":"549a4413-cc39-46f9-97a0-45a7dcb723da","system_id":"levelo_inurba_marseille","lat":43.25583,"lon":5.38241,"is_reserved":false,"is_disabled":false,"rental_uris":{"android":"levelo://app?vid=549a4413-cc39-46f9-97a0-45a7dcb723da","ios":"levelo://app?vid=549a4413-cc39-46f9-97a0-45a7dcb723da"},"vehicle_type_id":"4","last_reported":1742908830,"current_range_meters":10000,"station_id":"ce4bhih2rcd13ifvqfs0","pricing_plan_id":"cebpf4jnsgd1na2vs0mg"},{"bike_id":"a7a58bb3-e445-4514-a132-c8847249f90c","system_id":"levelo_inurba_marseille","lat":43.270617,"lon":5.402479,"is_reserved":false,"is_disabled":false,"rental_uris":{"android":"levelo://app?vid=a7a58bb3-e445-4514-a132-c8847249f90c","ios":"levelo://app?vid=a7a58bb3-e445-4514-a132-c8847249f90c"},"vehicle_type_id":"4","last_reported":1742908830,"current_range_meters":10000,"station_id":"cjm6bp8fraef2m0cb0m0","pricing_plan_id":"cebpf4jnsgd1na2vs0mg"},{"bike_id":"87e0cd66-ec6a-4435-8eaf-a9b859c98e07","system_id":"levelo_inurba_marseille","lat":43.29233,"lon":5.36072,"is_reserved":false,"is_disabled":false,"rental_uris":{"android":"levelo://app?vid=87e0cd66-ec6a-4435-8eaf-a9b859c98e07","ios":"levelo://app?vid=87e0cd66-ec6a-4435-8eaf-a9b859c98e07"},"vehicle_type_id":"4","last_reported":1742908830,"current_range_meters":10000,"station_id":"ce4bhbh2rcd13ifvqeqg","pricing_plan_id":"cebpf4jnsgd1na2vs0mg"},{"bike_id":"b72438e9-2390-4111-af9e-292065faca84","system_id":"levelo_inurba_marseille","lat":43.303,"lon":5.3771,"is_reserved":false,"is_disabled":false,"rental_uris":{"android":"levelo://app?vid=b72438e9-2390-4111-af9e-292065faca84","ios":"levelo://app?vid=b72438e9-2390-4111-af9e-292065faca84"},"vehicle_type_id":"4","last_reported":1742908830,"current_range_meters":10000,"station_id":"ce4bguh2rcd13ifvqcj0","pricing_plan_id":"cebpf4jnsgd1na2vs0mg"},{"bike_id":"bf9315d0-8503-43cc-be5d-2a0d8d6ed54e","system_id":"levelo_inurba_marseille","lat":43.25577,"lon":5.3825,"is_reserved":false,"is_disabled":false,"rental_uris":{"android":"levelo://app?vid=bf9315d0-8503-43cc-be5d-2a0d8d6ed54e","ios":"levelo://app?vid=bf9315d0-8503-43cc-be5d-2a0d8d6ed54e"},"vehicle_type_id":"4","last_reported":1742908830,"current_range_meters":10000,"station_id":"ce4bhih2rcd13ifvqfs0","pricing_plan_id":"cebpf4jnsgd1na2vs0mg"},{"bike_id":"bb58f931-d39b-4674-bcbc-5096c1d815e7","system_id":"levelo_inurba_marseille","lat":43.24185,"lon":5.39719,"is_reserved":false,"is_disabled":false,"rental_uris":{"android":"levelo://app?vid=bb58f931-d39b-4674-bcbc-5096c1d815e7","ios":"levelo://app?vid=bb58f931-d39b-4674-bcbc-5096c1d815e7"},"vehicle_type_id":"4","last_reported":1742908830,"current_range_meters":10000,"station_id":"ce4bhn12rcd13ifvqgpg","pricing_plan_id":"cebpf4jnsgd1na2vs0mg"},{"bike_id":"25c2d60a-2a9c-41c9-bd70-7dcc78fdc1f0","system_id":"levelo_inurba_marseille","lat":43.24081,"lon":5.37752,"is_reserved":false,"is_disabled":false,"rental_uris":{"android":"levelo://app?vid=25c2d60a-2a9c-41c9-bd70-7dcc78fdc1f0","ios":"levelo://app?vid=25c2d60a-2a9c-41c9-bd70-7dcc78fdc1f0"},"vehicle_type_id":"4","last_reported":1742908830,"current_range_meters":10000,"station_id":"ce4bhnp2rcd13ifvqgvg","pricing_plan_id":"cebpf4jnsgd1na2vs0mg"},{"bike_id":"dd9dd608-53d0-43c3-9ec0-2acd94ea112b","system_id":"levelo_inurba_marseille","lat":43.30459,"lon":5.37907,"is_reserved":false,"is_disabled":false,"rental_uris":{"android":"levelo://app?vid=dd9dd608-53d0-43c3-9ec0-2acd94ea112b","ios":"levelo://app?vid=dd9dd608-53d0-43c3-9ec0-2acd94ea112b"},"vehicle_type_id":"4","last_reported":1742908830,"current_range_meters":10000,"station_id":"ce4bgup2rcd13ifvqcn0","pricing_plan_id":"cebpf4jnsgd1na2vs0mg"},{"bike_id":"f8d9e271-1395-4359-b702-1bb66f9e2939","system_id":"levelo_inurba_marseille","lat":43.25579,"lon":5.38252,"is_reserved":false,"is_disabled":false,"rental_uris":{"android":"levelo://app?vid=f8d9e271-1395-4359-b702-1bb66f9e2939","ios":"levelo://app?vid=f8d9e271-1395-4359-b702-1bb66f9e2939"},"vehicle_type_id":"4","last_reported":1742908830,"current_range_meters":10800,"station_id":"ce4bhih2rcd13ifvqfs0","pricing_plan_id":"cebpf4jnsgd1na2vs0mg"},{"bike_id":"73098e66-a44d-4fd1-a26f-b78f715d4d94","system_id":"levelo_inurba_marseille","lat":43.31211,"lon":5.36862,"is_reserved":false,"is_disabled":false,"rental_uris":{"android":"levelo://app?vid=73098e66-a44d-4fd1-a26f-b78f715d4d94","ios":"levelo://app?vid=73098e66-a44d-4fd1-a26f-b78f715d4d94"},"vehicle_type_id":"4","last_reported":1742908830,"current_range_meters":10800,"station_id":"ce4bgl92rcd13ifvqbq0","pricing_plan_id":"cebpf4jnsgd1na2vs0mg"},{"bike_id":"933d8739-5a88-476c-b754-7d0520de2300","system_id":"levelo_inurba_marseille","lat":43.29018,"lon":5.38139,"is_reserved":false,"is_disabled":false,"rental_uris":{"android":"levelo://app?vid=933d8739-5a88-476c-b754-7d0520de2300","ios":"levelo://app?vid=933d8739-5a88-476c-b754-7d0520de2300"},"vehicle_type_id":"4","last_reported":1742908830,"current_range_meters":10800,"station_id":"ce4bh4p2rcd13ifvqe1g","pricing_plan_id":"cebpf4jnsgd1na2vs0mg"},{"bike_id":"8eefde25-af04-4206-8672-1d6b97905cd3","system_id":"levelo_inurba_marseille","lat":43.23183,"lon":5.39988,"is_reserved":false,"is_disabled":false,"rental_uris":{"android":"levelo://app?vid=8eefde25-af04-4206-8672-1d6b97905cd3","ios":"levelo://app?vid=8eefde25-af04-4206-8672-1d6b97905cd3"},"vehicle_type_id":"4","last_reported":1742908830,"current_range_meters":10800,"station_id":"ce4bhn12rcd13ifvqgqg","pricing_plan_id":"cebpf4jnsgd1na2vs0mg"},{"bike_id":"7f81d077-9440-451b-be84-55b609315a21","system_id":"levelo_inurba_marseille","lat":43.25742,"lon":5.4106,"is_reserved":false,"is_disabled":false,"rental_uris":{"android":"levelo://app?vid=7f81d077-9440-451b-be84-55b609315a21","ios":"levelo://app?vid=7f81d077-9440-451b-be84-55b609315a21"},"vehicle_type_id":"4","last_reported":1742908830,"current_range_meters":10000,"station_id":"ce4bhkp2rcd13ifvqgd0","pricing_plan_id":"cebpf4jnsgd1na2vs0mg"},{"bike_id":"fdcc714d-c762-4a16-91da-437181feabf2","system_id":"levelo_inurba_marseille","lat":43.26678,"lon":5.38266,"is_reserved":false,"is_disabled":false,"rental_uris":{"android":"levelo://app?vid=fdcc714d-c762-4a16-91da-437181feabf2","ios":"levelo://app?vid=fdcc714d-c762-4a16-91da-437181feabf2"},"vehicle_type_id":"4","last_reported":1742908830,"current_range_meters":10800,"station_id":"ce4bhg92rcd13ifvqf90","pricing_plan_id":"cebpf4jnsgd1na2vs0mg"},{"bike_id":"74406c35-ee35-437d-be26-2d7711378046","system_id":"levelo_inurba_marseille","lat":43.32365,"lon":5.36757,"is_reserved":false,"is_disabled":false,"rental_uris":{"android":"levelo://app?vid=74406c35-ee35-437d-be26-2d7711378046","ios":"levelo://app?vid=74406c35-ee35-437d-be26-2d7711378046"},"vehicle_type_id":"4","last_reported":1742908830,"current_range_meters":10800,"station_id":"ce4bhsh2rcd13ifvqi2g","pricing_plan_id":"cebpf4jnsgd1na2vs0mg"},{"bike_id":"d7c9b119-99cc-4acd-80c4-6ecaf67a26b1","system_id":"levelo_inurba_marseille","lat":43.23087,"lon":5.3551,"is_reserved":false,"is_disabled":false,"rental_uris":{"android":"levelo://app?vid=d7c9b119-99cc-4acd-80c4-6ecaf67a26b1","ios":"levelo://app?vid=d7c9b119-99cc-4acd-80c4-6ecaf67a26b1"},"vehicle_type_id":"4","last_reported":1742908830,"current_range_meters":10800,"station_id":"cpo3342slgdg3j2ifvpg","pricing_plan_id":"cebpf4jnsgd1na2vs0mg"},{"bike_id":"3661a9a0-cbfd-4e88-b091-6c142dd10c1e","system_id":"levelo_inurba_marseille","lat":43.29799,"lon":5.38097,"is_reserved":false,"is_disabled":false,"rental_uris":{"android":"levelo://app?vid=3661a9a0-cbfd-4e88-b091-6c142dd10c1e","ios":"levelo://app?vid=3661a9a0-cbfd-4e88-b091-6c142dd10c1e"},"vehicle_type_id":"4","last_reported":1742908830,"current_range_meters":10800,"station_id":"ce4bgip2rcd13ifvqbb0","pricing_plan_id":"cebpf4jnsgd1na2vs0mg"},{"bike_id":"46774e41-cc26-42e2-8ed3-a8ea17d2f850","system_id":"levelo_inurba_marseille","lat":43.31375,"lon":5.36697,"is_reserved":false,"is_disabled":false,"rental_uris":{"android":"levelo://app?vid=46774e41-cc26-42e2-8ed3-a8ea17d2f850","ios":"levelo://app?vid=46774e41-cc26-42e2-8ed3-a8ea17d2f850"},"vehicle_type_id":"4","last_reported":1742908830,"current_range_meters":10800,"station_id":"","pricing_plan_id":"cebpf4jnsgd1na2vs0mg"},{"bike_id":"db253532-1d31-4be4-9d7b-1eb748029f47","system_id":"levelo_inurba_marseille","lat":43.28267,"lon":5.35067,"is_reserved":false,"is_disabled":false,"rental_uris":{"android":"levelo://app?vid=db253532-1d31-4be4-9d7b-1eb748029f47","ios":"levelo://app?vid=db253532-1d31-4be4-9d7b-1eb748029f47"},"vehicle_type_id":"4","last_reported":1742908830,"current_range_meters":10800,"station_id":"ce4bhbp2rcd13ifvqerg","pricing_plan_id":"cebpf4jnsgd1na2vs0mg"},{"bike_id":"0db522cf-6931-4040-96e3-e6dc59dc2856","system_id":"levelo_inurba_marseille","lat":43.2551,"lon":5.37656,"is_reserved":false,"is_disabled":false,"rental_uris":{"android":"levelo://app?vid=0db522cf-6931-4040-96e3-e6dc59dc2856","ios":"levelo://app?vid=0db522cf-6931-4040-96e3-e6dc59dc2856"},"vehicle_type_id":"4","last_reported":1742908830,"current_range_meters":10800,"station_id":"ce4bhh12rcd13ifvqff0","pricing_plan_id":"cebpf4jnsgd1na2vs0mg"},{"bike_id":"ae8fd476-38d8-4967-9912-fead8ae2ee49","system_id":"levelo_inurba_marseille","lat":43.29019,"lon":5.38143,"is_reserved":false,"is_disabled":false,"rental_uris":{"android":"levelo://app?vid=ae8fd476-38d8-4967-9912-fead8ae2ee49","ios":"levelo://app?vid=ae8fd476-38d8-4967-9912-fead8ae2ee49"},"vehicle_type_id":"4","last_reported":1742908830,"current_range_meters":10800,"station_id":"ce4bh4p2rcd13ifvqe1g","pricing_plan_id":"cebpf4jnsgd1na2vs0mg"},{"bike_id":"dec5ae8d-3935-4143-bfb4-172455da9370","system_id":"levelo_inurba_marseille","lat":43.26057,"lon":5.39405,"is_reserved":false,"is_disabled":false,"rental_uris":{"android":"levelo://app?vid=dec5ae8d-3935-4143-bfb4-172455da9370","ios":"levelo://app?vid=dec5ae8d-3935-4143-bfb4-172455da9370"},"vehicle_type_id":"4","last_reported":1742908830,"current_range_meters":10800,"station_id":"ce4bhh92rcd13ifvqfj0","pricing_plan_id":"cebpf4jnsgd1na2vs0mg"},{"bike_id":"89e75ed9-7f20-48f7-ad37-e0033e47c633","system_id":"levelo_inurba_marseille","lat":43.24645,"lon":5.38871,"is_reserved":false,"is_disabled":false,"rental_uris":{"android":"levelo://app?vid=89e75ed9-7f20-48f7-ad37-e0033e47c633","ios":"levelo://app?vid=89e75ed9-7f20-48f7-ad37-e0033e47c633"},"vehicle_type_id":"4","last_reported":1742908830,"current_range_meters":10800,"station_id":"ce4bhg12rcd13ifvqf60","pricing_plan_id":"cebpf4jnsgd1na2vs0mg"},{"bike_id":"5aeb641c-8c67-430e-bd09-77076d22412d","system_id":"levelo_inurba_marseille","lat":43.31039,"lon":5.37561,"is_reserved":false,"is_disabled":false,"rental_uris":{"android":"levelo://app?vid=5aeb641c-8c67-430e-bd09-77076d22412d","ios":"levelo://app?vid=5aeb641c-8c67-430e-bd09-77076d22412d"},"vehicle_type_id":"4","last_reported":1742908830,"current_range_meters":11200,"station_id":"","pricing_plan_id":"cebpf4jnsgd1na2vs0mg"},{"bike_id":"6633349b-54ae-41b8-88d5-61ec5d012302","system_id":"levelo_inurba_marseille","lat":43.32113,"lon":5.36761,"is_reserved":false,"is_disabled":false,"rental_uris":{"android":"levelo://app?vid=6633349b-54ae-41b8-88d5-61ec5d012302","ios":"levelo://app?vid=6633349b-54ae-41b8-88d5-61ec5d012302"},"vehicle_type_id":"4","last_reported":1742908830,"current_range_meters":11200,"station_id":"ce4bhrh2rcd13ifvqhug","pricing_plan_id":"cebpf4jnsgd1na2vs0mg"},{"bike_id":"76b8b44f-e55e-4e89-b1d2-6fba85b5194d","system_id":"levelo_inurba_marseille","lat":43.2649,"lon":5.39544,"is_reserved":false,"is_disabled":false,"rental_uris":{"android":"levelo://app?vid=76b8b44f-e55e-4e89-b1d2-6fba85b5194d","ios":"levelo://app?vid=76b8b44f-e55e-4e89-b1d2-6fba85b5194d"},"vehicle_type_id":"4","last_reported":1742908830,"current_range_meters":11200,"station_id":"ce4bhi12rcd13ifvqfq0","pricing_plan_id":"cebpf4jnsgd1na2vs0mg"},{"bike_id":"298cfbe7-7a9c-4284-ac8a-242e2d02ce38","system_id":"levelo_inurba_marseille","lat":43.23965,"lon":5.36628,"is_reserved":false,"is_disabled":false,"rental_uris":{"android":"levelo://app?vid=298cfbe7-7a9c-4284-ac8a-242e2d02ce38","ios":"levelo://app?vid=298cfbe7-7a9c-4284-ac8a-242e2d02ce38"},"vehicle_type_id":"4","last_reported":1742908830,"current_range_meters":11200,"station_id":"ce4bhi12rcd13ifvqfp0","pricing_plan_id":"cebpf4jnsgd1na2vs0mg"},{"bike_id":"08f6125b-ca8e-4fed-8a8b-cb5637aa334a","system_id":"levelo_inurba_marseille","lat":43.30533,"lon":5.36531,"is_reserved":false,"is_disabled":false,"rental_uris":{"android":"levelo://app?vid=08f6125b-ca8e-4fed-8a8b-cb5637aa334a","ios":"levelo://app?vid=08f6125b-ca8e-4fed-8a8b-cb5637aa334a"},"vehicle_type_id":"4","last_reported":1742908830,"current_range_meters":11200,"station_id":"ce4bgs12rcd13ifvqcag","pricing_plan_id":"cebpf4jnsgd1na2vs0mg"},{"bike_id":"8583bcae-e817-4db7-ab92-448c595780ea","system_id":"levelo_inurba_marseille","lat":43.33018,"lon":5.39024,"is_reserved":false,"is_disabled":false,"rental_uris":{"android":"levelo://app?vid=8583bcae-e817-4db7-ab92-448c595780ea","ios":"levelo://app?vid=8583bcae-e817-4db7-ab92-448c595780ea"},"vehicle_type_id":"4","last_reported":1742908830,"current_range_meters":11200,"station_id":"ce4bhr92rcd13ifvqhrg","pricing_plan_id":"cebpf4jnsgd1na2vs0mg"},{"bike_id":"7b8af619-fa97-4821-afd3-7f7c5e73373e","system_id":"levelo_inurba_marseille","lat":43.27496,"lon":5.42453,"is_reserved":false,"is_disabled":false,"rental_uris":{"android":"levelo://app?vid=7b8af619-fa97-4821-afd3-7f7c5e73373e","ios":"levelo://app?vid=7b8af619-fa97-4821-afd3-7f7c5e73373e"},"vehicle_type_id":"4","last_reported":1742908830,"current_range_meters":11600,"station_id":"ce4bhn92rcd13ifvqgrg","pricing_plan_id":"cebpf4jnsgd1na2vs0mg"},{"bike_id":"e536e245-dcf1-475a-ad62-ff43149a7b75","system_id":"levelo_inurba_marseille","lat":43.26028,"lon":5.37552,"is_reserved":false,"is_disabled":false,"rental_uris":{"android":"levelo://app?vid=e536e245-dcf1-475a-ad62-ff43149a7b75","ios":"levelo://app?vid=e536e245-dcf1-475a-ad62-ff43149a7b75"},"vehicle_type_id":"4","last_reported":1742908830,"current_range_meters":11600,"station_id":"ce4bhgh2rcd13ifvqfa0","pricing_plan_id":"cebpf4jnsgd1na2vs0mg"},{"bike_id":"60f65e09-390c-400f-9737-d490d5270c71","system_id":"levelo_inurba_marseille","lat":43.31088,"lon":5.42436,"is_reserved":false,"is_disabled":false,"rental_uris":{"android":"levelo://app?vid=60f65e09-390c-400f-9737-d490d5270c71","ios":"levelo://app?vid=60f65e09-390c-400f-9737-d490d5270c71"},"vehicle_type_id":"4","last_reported":1742908830,"current_range_meters":11600,"station_id":"ce4bhp92rcd13ifvqhag","pricing_plan_id":"cebpf4jnsgd1na2vs0mg"},{"bike_id":"cdeb7ba1-328b-4e47-a5e4-7ff18f4dff25","system_id":"levelo_inurba_marseille","lat":43.3171,"lon":5.43707,"is_reserved":false,"is_disabled":false,"rental_uris":{"android":"levelo://app?vid=cdeb7ba1-328b-4e47-a5e4-7ff18f4dff25","ios":"levelo://app?vid=cdeb7ba1-328b-4e47-a5e4-7ff18f4dff25"},"vehicle_type_id":"4","last_reported":1742908830,"current_range_meters":11600,"station_id":"ce4bhp92rcd13ifvqhcg","pricing_plan_id":"cebpf4jnsgd1na2vs0mg"},{"bike_id":"844d3370-21e5-4de2-9d45-2b091e1157d6","system_id":"levelo_inurba_marseille","lat":43.23966,"lon":5.36642,"is_reserved":false,"is_disabled":false,"rental_uris":{"android":"levelo://app?vid=844d3370-21e5-4de2-9d45-2b091e1157d6","ios":"levelo://app?vid=844d3370-21e5-4de2-9d45-2b091e1157d6"},"vehicle_type_id":"4","last_reported":1742908830,"current_range_meters":11600,"station_id":"ce4bhi12rcd13ifvqfp0","pricing_plan_id":"cebpf4jnsgd1na2vs0mg"},{"bike_id":"b8dd6df4-e2e4-4d9a-a8b4-84fa5507046a","system_id":"levelo_inurba_marseille","lat":43.30887,"lon":5.37193,"is_reserved":false,"is_disabled":false,"rental_uris":{"android":"levelo://app?vid=b8dd6df4-e2e4-4d9a-a8b4-84fa5507046a","ios":"levelo://app?vid=b8dd6df4-e2e4-4d9a-a8b4-84fa5507046a"},"vehicle_type_id":"4","last_reported":1742908830,"current_range_meters":11600,"station_id":"ce4bguh2rcd13ifvqckg","pricing_plan_id":"cebpf4jnsgd1na2vs0mg"},{"bike_id":"50e3359a-15f1-4f66-bbc8-eed7afb5cb08","system_id":"levelo_inurba_marseille","lat":43.25943,"lon":5.40899,"is_reserved":false,"is_disabled":false,"rental_uris":{"android":"levelo://app?vid=50e3359a-15f1-4f66-bbc8-eed7afb5cb08","ios":"levelo://app?vid=50e3359a-15f1-4f66-bbc8-eed7afb5cb08"},"vehicle_type_id":"4","last_reported":1742908830,"current_range_meters":11600,"station_id":"ce4bhm92rcd13ifvqglg","pricing_plan_id":"cebpf4jnsgd1na2vs0mg"},{"bike_id":"5b46a2db-1a0e-4bf2-8669-a2a07788e43a","system_id":"levelo_inurba_marseille","lat":43.29567,"lon":5.37515,"is_reserved":false,"is_disabled":false,"rental_uris":{"android":"levelo://app?vid=5b46a2db-1a0e-4bf2-8669-a2a07788e43a","ios":"levelo://app?vid=5b46a2db-1a0e-4bf2-8669-a2a07788e43a"},"vehicle_type_id":"4","last_reported":1742908830,"current_range_meters":11600,"station_id":"ce4bgh92rcd13ifvqb50","pricing_plan_id":"cebpf4jnsgd1na2vs0mg"},{"bike_id":"ffe114d7-94dc-4f60-a34b-a7e1da30c2cd","system_id":"levelo_inurba_marseille","lat":43.28002,"lon":5.40019,"is_reserved":false,"is_disabled":false,"rental_uris":{"android":"levelo://app?vid=ffe114d7-94dc-4f60-a34b-a7e1da30c2cd","ios":"levelo://app?vid=ffe114d7-94dc-4f60-a34b-a7e1da30c2cd"},"vehicle_type_id":"4","last_reported":1742908830,"current_range_meters":11600,"station_id":"ce4bho92rcd13ifvqh4g","pricing_plan_id":"cebpf4jnsgd1na2vs0mg"},{"bike_id":"3d959d7b-bcc6-4499-ac3b-4c7904348762","system_id":"levelo_inurba_marseille","lat":43.298686,"lon":5.397302,"is_reserved":false,"is_disabled":false,"rental_uris":{"android":"levelo://app?vid=3d959d7b-bcc6-4499-ac3b-4c7904348762","ios":"levelo://app?vid=3d959d7b-bcc6-4499-ac3b-4c7904348762"},"vehicle_type_id":"4","last_reported":1742908830,"current_range_meters":12000,"station_id":"ce4bh0h2rcd13ifvqd50","pricing_plan_id":"cebpf4jnsgd1na2vs0mg"},{"bike_id":"0d262551-1537-4050-b4c9-681f77db3b79","system_id":"levelo_inurba_marseille","lat":43.30786,"lon":5.36827,"is_reserved":false,"is_disabled":false,"rental_uris":{"android":"levelo://app?vid=0d262551-1537-4050-b4c9-681f77db3b79","ios":"levelo://app?vid=0d262551-1537-4050-b4c9-681f77db3b79"},"vehicle_type_id":"4","last_reported":1742908830,"current_range_meters":12400,"station_id":"","pricing_plan_id":"cebpf4jnsgd1na2vs0mg"},{"bike_id":"fa0bd830-b5e1-4d00-82d7-ed272fa92124","system_id":"levelo_inurba_marseille","lat":43.27372,"lon":5.36262,"is_reserved":false,"is_disabled":false,"rental_uris":{"android":"levelo://app?vid=fa0bd830-b5e1-4d00-82d7-ed272fa92124","ios":"levelo://app?vid=fa0bd830-b5e1-4d00-82d7-ed272fa92124"},"vehicle_type_id":"4","last_reported":1742908830,"current_range_meters":12000,"station_id":"ce4bhbh2rcd13ifvqeo0","pricing_plan_id":"cebpf4jnsgd1na2vs0mg"},{"bike_id":"b599ec8c-9116-4cb3-980c-d0a7d1e83114","system_id":"levelo_inurba_marseille","lat":43.32506,"lon":5.36581,"is_reserved":false,"is_disabled":false,"rental_uris":{"android":"levelo://app?vid=b599ec8c-9116-4cb3-980c-d0a7d1e83114","ios":"levelo://app?vid=b599ec8c-9116-4cb3-980c-d0a7d1e83114"},"vehicle_type_id":"4","last_reported":1742908830,"current_range_meters":12000,"station_id":"ce4bhs12rcd13ifvqhvg","pricing_plan_id":"cebpf4jnsgd1na2vs0mg"},{"bike_id":"28dc0c8a-542b-45f8-a521-988655cfc900","system_id":"levelo_inurba_marseille","lat":43.31361,"lon":5.36699,"is_reserved":false,"is_disabled":false,"rental_uris":{"android":"levelo://app?vid=28dc0c8a-542b-45f8-a521-988655cfc900","ios":"levelo://app?vid=28dc0c8a-542b-45f8-a521-988655cfc900"},"vehicle_type_id":"4","last_reported":1742908830,"current_range_meters":12000,"station_id":"ce4bgr92rcd13ifvqc6g","pricing_plan_id":"cebpf4jnsgd1na2vs0mg"},{"bike_id":"f9d18bba-2a7e-4e6e-bc2a-7eccb2aa758b","system_id":"levelo_inurba_marseille","lat":43.29371,"lon":5.37849,"is_reserved":false,"is_disabled":false,"rental_uris":{"android":"levelo://app?vid=f9d18bba-2a7e-4e6e-bc2a-7eccb2aa758b","ios":"levelo://app?vid=f9d18bba-2a7e-4e6e-bc2a-7eccb2aa758b"},"vehicle_type_id":"4","last_reported":1742908830,"current_range_meters":12000,"station_id":"ce4bgjh2rcd13ifvqbf0","pricing_plan_id":"cebpf4jnsgd1na2vs0mg"},{"bike_id":"f953be8a-cdf4-4f1c-bc31-21545e6cc1f0","system_id":"levelo_inurba_marseille","lat":43.283616,"lon":5.386355,"is_reserved":false,"is_disabled":false,"rental_uris":{"android":"levelo://app?vid=f953be8a-cdf4-4f1c-bc31-21545e6cc1f0","ios":"levelo://app?vid=f953be8a-cdf4-4f1c-bc31-21545e6cc1f0"},"vehicle_type_id":"4","last_reported":1742908830,"current_range_meters":12000,"station_id":"ce4bgkh2rcd13ifvqbl0","pricing_plan_id":"cebpf4jnsgd1na2vs0mg"},{"bike_id":"0349e3f1-76bc-4744-8fd1-852dd072431a","system_id":"levelo_inurba_marseille","lat":43.25589,"lon":5.38229,"is_reserved":false,"is_disabled":false,"rental_uris":{"android":"levelo://app?vid=0349e3f1-76bc-4744-8fd1-852dd072431a","ios":"levelo://app?vid=0349e3f1-76bc-4744-8fd1-852dd072431a"},"vehicle_type_id":"4","last_reported":1742908830,"current_range_meters":12000,"station_id":"ce4bhih2rcd13ifvqfs0","pricing_plan_id":"cebpf4jnsgd1na2vs0mg"},{"bike_id":"b0bc3509-c0b2-4259-bc66-5e2864c1aba7","system_id":"levelo_inurba_marseille","lat":43.29899,"lon":5.43681,"is_reserved":false,"is_disabled":false,"rental_uris":{"android":"levelo://app?vid=b0bc3509-c0b2-4259-bc66-5e2864c1aba7","ios":"levelo://app?vid=b0bc3509-c0b2-4259-bc66-5e2864c1aba7"},"vehicle_type_id":"4","last_reported":1742908830,"current_range_meters":12400,"station_id":"","pricing_plan_id":"cebpf4jnsgd1na2vs0mg"},{"bike_id":"1e58a681-c907-4099-b014-bbe3d5ba568e","system_id":"levelo_inurba_marseille","lat":43.28566,"lon":5.39481,"is_reserved":false,"is_disabled":false,"rental_uris":{"android":"levelo://app?vid=1e58a681-c907-4099-b014-bbe3d5ba568e","ios":"levelo://app?vid=1e58a681-c907-4099-b014-bbe3d5ba568e"},"vehicle_type_id":"4","last_reported":1742908830,"current_range_meters":12400,"station_id":"ce4bh292rcd13ifvqdg0","pricing_plan_id":"cebpf4jnsgd1na2vs0mg"},{"bike_id":"2353de8c-9b1e-4f8b-b754-11da26e97ac1","system_id":"levelo_inurba_marseille","lat":43.293697,"lon":5.37856,"is_reserved":false,"is_disabled":false,"rental_uris":{"android":"levelo://app?vid=2353de8c-9b1e-4f8b-b754-11da26e97ac1","ios":"levelo://app?vid=2353de8c-9b1e-4f8b-b754-11da26e97ac1"},"vehicle_type_id":"4","last_reported":1742908830,"current_range_meters":12400,"station_id":"ce4bgjh2rcd13ifvqbf0","pricing_plan_id":"cebpf4jnsgd1na2vs0mg"},{"bike_id":"38351309-2dec-417c-a558-74c8bc991036","system_id":"levelo_inurba_marseille","lat":43.3081,"lon":5.40662,"is_reserved":false,"is_disabled":true,"rental_uris":{"android":"levelo://app?vid=38351309-2dec-417c-a558-74c8bc991036","ios":"levelo://app?vid=38351309-2dec-417c-a558-74c8bc991036"},"vehicle_type_id":"4","last_reported":1742908830,"current_range_meters":12400,"station_id":"","pricing_plan_id":"cebpf4jnsgd1na2vs0mg"},{"bike_id":"7661a36a-8f29-47df-b9ec-6e026771da5c","system_id":"levelo_inurba_marseille","lat":43.28963,"lon":5.37838,"is_reserved":false,"is_disabled":false,"rental_uris":{"android":"levelo://app?vid=7661a36a-8f29-47df-b9ec-6e026771da5c","ios":"levelo://app?vid=7661a36a-8f29-47df-b9ec-6e026771da5c"},"vehicle_type_id":"4","last_reported":1742908830,"current_range_meters":12400,"station_id":"ce4bh9p2rcd13ifvqed0","pricing_plan_id":"cebpf4jnsgd1na2vs0mg"},{"bike_id":"1755d82f-d983-4d37-80a1-67423476c3b0","system_id":"levelo_inurba_marseille","lat":43.28575,"lon":5.39511,"is_reserved":false,"is_disabled":false,"rental_uris":{"android":"levelo://app?vid=1755d82f-d983-4d37-80a1-67423476c3b0","ios":"levelo://app?vid=1755d82f-d983-4d37-80a1-67423476c3b0"},"vehicle_type_id":"4","last_reported":1742908830,"current_range_meters":12800,"station_id":"ce4bh292rcd13ifvqdg0","pricing_plan_id":"cebpf4jnsgd1na2vs0mg"},{"bike_id":"2aa0d563-b84e-403f-b228-6fdaa25d30cb","system_id":"levelo_inurba_marseille","lat":43.29896,"lon":5.43654,"is_reserved":false,"is_disabled":false,"rental_uris":{"android":"levelo://app?vid=2aa0d563-b84e-403f-b228-6fdaa25d30cb","ios":"levelo://app?vid=2aa0d563-b84e-403f-b228-6fdaa25d30cb"},"vehicle_type_id":"4","last_reported":1742908830,"current_range_meters":12800,"station_id":"ce4bhpp2rcd13ifvqhfg","pricing_plan_id":"cebpf4jnsgd1na2vs0mg"},{"bike_id":"2dad8229-f03e-476c-9f69-48ed717ee167","system_id":"levelo_inurba_marseille","lat":43.2315,"lon":5.43713,"is_reserved":false,"is_disabled":false,"rental_uris":{"android":"levelo://app?vid=2dad8229-f03e-476c-9f69-48ed717ee167","ios":"levelo://app?vid=2dad8229-f03e-476c-9f69-48ed717ee167"},"vehicle_type_id":"4","last_reported":1742908830,"current_range_meters":12800,"station_id":"ce4bhmp2rcd13ifvqgog","pricing_plan_id":"cebpf4jnsgd1na2vs0mg"},{"bike_id":"9172a10a-8ea1-4b26-9c6e-a6e2d0b94aa0","system_id":"levelo_inurba_marseille","lat":43.29014,"lon":5.38134,"is_reserved":false,"is_disabled":false,"rental_uris":{"android":"levelo://app?vid=9172a10a-8ea1-4b26-9c6e-a6e2d0b94aa0","ios":"levelo://app?vid=9172a10a-8ea1-4b26-9c6e-a6e2d0b94aa0"},"vehicle_type_id":"4","last_reported":1742908830,"current_range_meters":12800,"station_id":"ce4bh4p2rcd13ifvqe1g","pricing_plan_id":"cebpf4jnsgd1na2vs0mg"},{"bike_id":"3c27ac34-d1b0-4ce0-8bfc-480b71c5da2c","system_id":"levelo_inurba_marseille","lat":43.30889,"lon":5.37206,"is_reserved":false,"is_disabled":false,"rental_uris":{"android":"levelo://app?vid=3c27ac34-d1b0-4ce0-8bfc-480b71c5da2c","ios":"levelo://app?vid=3c27ac34-d1b0-4ce0-8bfc-480b71c5da2c"},"vehicle_type_id":"4","last_reported":1742908830,"current_range_meters":12800,"station_id":"ce4bguh2rcd13ifvqckg","pricing_plan_id":"cebpf4jnsgd1na2vs0mg"},{"bike_id":"0b2381e9-90cd-40f9-9707-9105d09a211a","system_id":"levelo_inurba_marseille","lat":43.28956,"lon":5.3639,"is_reserved":false,"is_disabled":false,"rental_uris":{"android":"levelo://app?vid=0b2381e9-90cd-40f9-9707-9105d09a211a","ios":"levelo://app?vid=0b2381e9-90cd-40f9-9707-9105d09a211a"},"vehicle_type_id":"4","last_reported":1742908830,"current_range_meters":13600,"station_id":"ce4bhc92rcd13ifvqetg","pricing_plan_id":"cebpf4jnsgd1na2vs0mg"},{"bike_id":"df9ca7d4-4051-4f2e-8c84-46c5685400eb","system_id":"levelo_inurba_marseille","lat":43.24087,"lon":5.3776,"is_reserved":false,"is_disabled":false,"rental_uris":{"android":"levelo://app?vid=df9ca7d4-4051-4f2e-8c84-46c5685400eb","ios":"levelo://app?vid=df9ca7d4-4051-4f2e-8c84-46c5685400eb"},"vehicle_type_id":"4","last_reported":1742908830,"current_range_meters":13600,"station_id":"ce4bhnp2rcd13ifvqgvg","pricing_plan_id":"cebpf4jnsgd1na2vs0mg"},{"bike_id":"9cc66b59-1c52-41b5-aaa7-97c84a4cb775","system_id":"levelo_inurba_marseille","lat":43.30594,"lon":5.37242,"is_reserved":false,"is_disabled":false,"rental_uris":{"android":"levelo://app?vid=9cc66b59-1c52-41b5-aaa7-97c84a4cb775","ios":"levelo://app?vid=9cc66b59-1c52-41b5-aaa7-97c84a4cb775"},"vehicle_type_id":"4","last_reported":1742908830,"current_range_meters":13600,"station_id":"ce4bgqh2rcd13ifvqc4g","pricing_plan_id":"cebpf4jnsgd1na2vs0mg"},{"bike_id":"4a3cef67-7854-486a-96a1-875577c9d100","system_id":"levelo_inurba_marseille","lat":43.28079,"lon":5.39664,"is_reserved":false,"is_disabled":false,"rental_uris":{"android":"levelo://app?vid=4a3cef67-7854-486a-96a1-875577c9d100","ios":"levelo://app?vid=4a3cef67-7854-486a-96a1-875577c9d100"},"vehicle_type_id":"4","last_reported":1742908830,"current_range_meters":13600,"station_id":"ce4bho12rcd13ifvqh2g","pricing_plan_id":"cebpf4jnsgd1na2vs0mg"},{"bike_id":"9e98dd5b-24d0-40b4-b7f1-b2bce7ea64a0","system_id":"levelo_inurba_marseille","lat":43.26931,"lon":5.40251,"is_reserved":false,"is_disabled":false,"rental_uris":{"android":"levelo://app?vid=9e98dd5b-24d0-40b4-b7f1-b2bce7ea64a0","ios":"levelo://app?vid=9e98dd5b-24d0-40b4-b7f1-b2bce7ea64a0"},"vehicle_type_id":"4","last_reported":1742908830,"current_range_meters":13600,"station_id":"cjm6bp8fraef2m0cb0m0","pricing_plan_id":"cebpf4jnsgd1na2vs0mg"},{"bike_id":"47dbf663-8ffa-4e2c-a573-bbaa87792ec3","system_id":"levelo_inurba_marseille","lat":43.3042,"lon":5.41286,"is_reserved":false,"is_disabled":false,"rental_uris":{"android":"levelo://app?vid=47dbf663-8ffa-4e2c-a573-bbaa87792ec3","ios":"levelo://app?vid=47dbf663-8ffa-4e2c-a573-bbaa87792ec3"},"vehicle_type_id":"4","last_reported":1742908830,"current_range_meters":12800,"station_id":"ce4bhop2rcd13ifvqh8g","pricing_plan_id":"cebpf4jnsgd1na2vs0mg"},{"bike_id":"d1010ed6-65a8-434e-8452-faf1033d897c","system_id":"levelo_inurba_marseille","lat":43.31712,"lon":5.43708,"is_reserved":false,"is_disabled":false,"rental_uris":{"android":"levelo://app?vid=d1010ed6-65a8-434e-8452-faf1033d897c","ios":"levelo://app?vid=d1010ed6-65a8-434e-8452-faf1033d897c"},"vehicle_type_id":"4","last_reported":1742908830,"current_range_meters":14000,"station_id":"ce4bhp92rcd13ifvqhcg","pricing_plan_id":"cebpf4jnsgd1na2vs0mg"},{"bike_id":"0a76000f-8808-4b7c-afc9-bf0e8391421c","system_id":"levelo_inurba_marseille","lat":43.24075,"lon":5.37754,"is_reserved":false,"is_disabled":false,"rental_uris":{"android":"levelo://app?vid=0a76000f-8808-4b7c-afc9-bf0e8391421c","ios":"levelo://app?vid=0a76000f-8808-4b7c-afc9-bf0e8391421c"},"vehicle_type_id":"4","last_reported":1742908830,"current_range_meters":14000,"station_id":"ce4bhnp2rcd13ifvqgvg","pricing_plan_id":"cebpf4jnsgd1na2vs0mg"},{"bike_id":"1d8a3249-9200-4972-bc96-75314e87b237","system_id":"levelo_inurba_marseille","lat":43.30637,"lon":5.36679,"is_reserved":false,"is_disabled":false,"rental_uris":{"android":"levelo://app?vid=1d8a3249-9200-4972-bc96-75314e87b237","ios":"levelo://app?vid=1d8a3249-9200-4972-bc96-75314e87b237"},"vehicle_type_id":"4","last_reported":1742908830,"current_range_meters":14000,"station_id":"","pricing_plan_id":"cebpf4jnsgd1na2vs0mg"},{"bike_id":"b1f1aa11-dc30-4ad0-aece-3a3bc97f2c81","system_id":"levelo_inurba_marseille","lat":43.32285,"lon":5.38277,"is_reserved":false,"is_disabled":false,"rental_uris":{"android":"levelo://app?vid=b1f1aa11-dc30-4ad0-aece-3a3bc97f2c81","ios":"levelo://app?vid=b1f1aa11-dc30-4ad0-aece-3a3bc97f2c81"},"vehicle_type_id":"4","last_reported":1742908830,"current_range_meters":14400,"station_id":"ce4bhr12rcd13ifvqhqg","pricing_plan_id":"cebpf4jnsgd1na2vs0mg"},{"bike_id":"495f91aa-521a-4f72-8826-646ce916e907","system_id":"levelo_inurba_marseille","lat":43.28415,"lon":5.34973,"is_reserved":false,"is_disabled":false,"rental_uris":{"android":"levelo://app?vid=495f91aa-521a-4f72-8826-646ce916e907","ios":"levelo://app?vid=495f91aa-521a-4f72-8826-646ce916e907"},"vehicle_type_id":"4","last_reported":1742908830,"current_range_meters":14400,"station_id":"ce4bhbh2rcd13ifvqepg","pricing_plan_id":"cebpf4jnsgd1na2vs0mg"},{"bike_id":"0737ea8b-6ae1-4e0e-aaf3-c29048f4f353","system_id":"levelo_inurba_marseille","lat":43.30553,"lon":5.367,"is_reserved":false,"is_disabled":false,"rental_uris":{"android":"levelo://app?vid=0737ea8b-6ae1-4e0e-aaf3-c29048f4f353","ios":"levelo://app?vid=0737ea8b-6ae1-4e0e-aaf3-c29048f4f353"},"vehicle_type_id":"4","last_reported":1742908830,"current_range_meters":14400,"station_id":"ce4bgrp2rcd13ifvqc9g","pricing_plan_id":"cebpf4jnsgd1na2vs0mg"},{"bike_id":"b052d2e2-e875-4904-a7e7-4c54f441a36b","system_id":"levelo_inurba_marseille","lat":43.31235,"lon":5.36886,"is_reserved":false,"is_disabled":false,"rental_uris":{"android":"levelo://app?vid=b052d2e2-e875-4904-a7e7-4c54f441a36b","ios":"levelo://app?vid=b052d2e2-e875-4904-a7e7-4c54f441a36b"},"vehicle_type_id":"4","last_reported":1742908830,"current_range_meters":14400,"station_id":"","pricing_plan_id":"cebpf4jnsgd1na2vs0mg"},{"bike_id":"48844298-e040-4ef6-8a39-e65ba1d078c0","system_id":"levelo_inurba_marseille","lat":43.21936,"lon":5.41909,"is_reserved":false,"is_disabled":false,"rental_uris":{"android":"levelo://app?vid=48844298-e040-4ef6-8a39-e65ba1d078c0","ios":"levelo://app?vid=48844298-e040-4ef6-8a39-e65ba1d078c0"},"vehicle_type_id":"4","last_reported":1742908830,"current_range_meters":14400,"station_id":"","pricing_plan_id":"cebpf4jnsgd1na2vs0mg"},{"bike_id":"193a7d38-957f-4251-90ed-0d064424d721","system_id":"levelo_inurba_marseille","lat":43.29883,"lon":5.39723,"is_reserved":false,"is_disabled":false,"rental_uris":{"android":"levelo://app?vid=193a7d38-957f-4251-90ed-0d064424d721","ios":"levelo://app?vid=193a7d38-957f-4251-90ed-0d064424d721"},"vehicle_type_id":"4","last_reported":1742908830,"current_range_meters":14400,"station_id":"ce4bh0h2rcd13ifvqd50","pricing_plan_id":"cebpf4jnsgd1na2vs0mg"},{"bike_id":"2d5554c4-0bda-41ca-9569-8efa3acbce9b","system_id":"levelo_inurba_marseille","lat":43.29713,"lon":5.37708,"is_reserved":false,"is_disabled":false,"rental_uris":{"android":"levelo://app?vid=2d5554c4-0bda-41ca-9569-8efa3acbce9b","ios":"levelo://app?vid=2d5554c4-0bda-41ca-9569-8efa3acbce9b"},"vehicle_type_id":"4","last_reported":1742908830,"current_range_meters":14400,"station_id":"ce4bgkh2rcd13ifvqbl0","pricing_plan_id":"cebpf4jnsgd1na2vs0mg"},{"bike_id":"74d5caef-4f0a-4dd1-8ccd-cedd3cd8ec58","system_id":"levelo_inurba_marseille","lat":43.23149,"lon":5.43706,"is_reserved":false,"is_disabled":false,"rental_uris":{"android":"levelo://app?vid=74d5caef-4f0a-4dd1-8ccd-cedd3cd8ec58","ios":"levelo://app?vid=74d5caef-4f0a-4dd1-8ccd-cedd3cd8ec58"},"vehicle_type_id":"4","last_reported":1742908830,"current_range_meters":14800,"station_id":"ce4bhmp2rcd13ifvqgog","pricing_plan_id":"cebpf4jnsgd1na2vs0mg"},{"bike_id":"f6691102-8657-4e8b-ac96-d14294b55d71","system_id":"levelo_inurba_marseille","lat":43.27667,"lon":5.38888,"is_reserved":false,"is_disabled":false,"rental_uris":{"android":"levelo://app?vid=f6691102-8657-4e8b-ac96-d14294b55d71","ios":"levelo://app?vid=f6691102-8657-4e8b-ac96-d14294b55d71"},"vehicle_type_id":"4","last_reported":1742908830,"current_range_meters":14800,"station_id":"ce4bhi12rcd13ifvqfo0","pricing_plan_id":"cebpf4jnsgd1na2vs0mg"},{"bike_id":"ae64d049-3c54-4b63-a552-b1e07d06f548","system_id":"levelo_inurba_marseille","lat":43.29042,"lon":5.37577,"is_reserved":false,"is_disabled":false,"rental_uris":{"android":"levelo://app?vid=ae64d049-3c54-4b63-a552-b1e07d06f548","ios":"levelo://app?vid=ae64d049-3c54-4b63-a552-b1e07d06f548"},"vehicle_type_id":"4","last_reported":1742908830,"current_range_meters":14800,"station_id":"ce4bho12rcd13ifvqh1g","pricing_plan_id":"cebpf4jnsgd1na2vs0mg"},{"bike_id":"e188127a-982e-47e7-a38c-97a0d95e1457","system_id":"levelo_inurba_marseille","lat":43.25831,"lon":5.39424,"is_reserved":false,"is_disabled":false,"rental_uris":{"android":"levelo://app?vid=e188127a-982e-47e7-a38c-97a0d95e1457","ios":"levelo://app?vid=e188127a-982e-47e7-a38c-97a0d95e1457"},"vehicle_type_id":"4","last_reported":1742908830,"current_range_meters":14800,"station_id":"ce4bhip2rcd13ifvqft0","pricing_plan_id":"cebpf4jnsgd1na2vs0mg"},{"bike_id":"da43d894-069e-486e-a738-14255c3635ad","system_id":"levelo_inurba_marseille","lat":43.26068,"lon":5.39403,"is_reserved":false,"is_disabled":false,"rental_uris":{"android":"levelo://app?vid=da43d894-069e-486e-a738-14255c3635ad","ios":"levelo://app?vid=da43d894-069e-486e-a738-14255c3635ad"},"vehicle_type_id":"4","last_reported":1742908830,"current_range_meters":14800,"station_id":"ce4bhh92rcd13ifvqfj0","pricing_plan_id":"cebpf4jnsgd1na2vs0mg"},{"bike_id":"7fdecdeb-36cb-4cf4-9c98-d803f5809435","system_id":"levelo_inurba_marseille","lat":43.26143,"lon":5.3986,"is_reserved":false,"is_disabled":false,"rental_uris":{"android":"levelo://app?vid=7fdecdeb-36cb-4cf4-9c98-d803f5809435","ios":"levelo://app?vid=7fdecdeb-36cb-4cf4-9c98-d803f5809435"},"vehicle_type_id":"4","last_reported":1742908830,"current_range_meters":14800,"station_id":"","pricing_plan_id":"cebpf4jnsgd1na2vs0mg"},{"bike_id":"39dd3a0d-5b61-48d8-a69f-25b5d345b395","system_id":"levelo_inurba_marseille","lat":43.30558,"lon":5.3655,"is_reserved":false,"is_disabled":false,"rental_uris":{"android":"levelo://app?vid=39dd3a0d-5b61-48d8-a69f-25b5d345b395","ios":"levelo://app?vid=39dd3a0d-5b61-48d8-a69f-25b5d345b395"},"vehicle_type_id":"4","last_reported":1742908830,"current_range_meters":14800,"station_id":"ce4bgs12rcd13ifvqcag","pricing_plan_id":"cebpf4jnsgd1na2vs0mg"},{"bike_id":"0aea2c8b-a3f7-47d3-88d0-95fbd5fe692b","system_id":"levelo_inurba_marseille","lat":43.26693,"lon":5.38247,"is_reserved":false,"is_disabled":false,"rental_uris":{"android":"levelo://app?vid=0aea2c8b-a3f7-47d3-88d0-95fbd5fe692b","ios":"levelo://app?vid=0aea2c8b-a3f7-47d3-88d0-95fbd5fe692b"},"vehicle_type_id":"4","last_reported":1742908830,"current_range_meters":14800,"station_id":"ce4bhg92rcd13ifvqf90","pricing_plan_id":"cebpf4jnsgd1na2vs0mg"},{"bike_id":"d9305c2d-6eea-49f0-8115-5dadef2351a5","system_id":"levelo_inurba_marseille","lat":43.30197,"lon":5.36614,"is_reserved":false,"is_disabled":false,"rental_uris":{"android":"levelo://app?vid=d9305c2d-6eea-49f0-8115-5dadef2351a5","ios":"levelo://app?vid=d9305c2d-6eea-49f0-8115-5dadef2351a5"},"vehicle_type_id":"4","last_reported":1742908830,"current_range_meters":15200,"station_id":"ce4bgrh2rcd13ifvqc8g","pricing_plan_id":"cebpf4jnsgd1na2vs0mg"},{"bike_id":"84a7a785-5392-42bc-8088-fb903bcc7f5c","system_id":"levelo_inurba_marseille","lat":43.2308,"lon":5.35505,"is_reserved":false,"is_disabled":false,"rental_uris":{"android":"levelo://app?vid=84a7a785-5392-42bc-8088-fb903bcc7f5c","ios":"levelo://app?vid=84a7a785-5392-42bc-8088-fb903bcc7f5c"},"vehicle_type_id":"4","last_reported":1742908830,"current_range_meters":15200,"station_id":"cpo3342slgdg3j2ifvpg","pricing_plan_id":"cebpf4jnsgd1na2vs0mg"},{"bike_id":"b6b09f1e-aff5-4874-9bcf-607b083d39df","system_id":"levelo_inurba_marseille","lat":43.29033,"lon":5.35924,"is_reserved":false,"is_disabled":true,"rental_uris":{"android":"levelo://app?vid=b6b09f1e-aff5-4874-9bcf-607b083d39df","ios":"levelo://app?vid=b6b09f1e-aff5-4874-9bcf-607b083d39df"},"vehicle_type_id":"4","last_reported":1742908830,"current_range_meters":15200,"station_id":"ce4bha92rcd13ifvqeg0","pricing_plan_id":"cebpf4jnsgd1na2vs0mg"},{"bike_id":"974f5876-effd-44d0-911c-76ea7a107a8c","system_id":"levelo_inurba_marseille","lat":43.3329,"lon":5.35868,"is_reserved":false,"is_disabled":false,"rental_uris":{"android":"levelo://app?vid=974f5876-effd-44d0-911c-76ea7a107a8c","ios":"levelo://app?vid=974f5876-effd-44d0-911c-76ea7a107a8c"},"vehicle_type_id":"4","last_reported":1742908830,"current_range_meters":15200,"station_id":"","pricing_plan_id":"cebpf4jnsgd1na2vs0mg"},{"bike_id":"5099b4ba-403f-4e2f-9dec-ccdead6e6a02","system_id":"levelo_inurba_marseille","lat":43.25009,"lon":5.38912,"is_reserved":false,"is_disabled":false,"rental_uris":{"android":"levelo://app?vid=5099b4ba-403f-4e2f-9dec-ccdead6e6a02","ios":"levelo://app?vid=5099b4ba-403f-4e2f-9dec-ccdead6e6a02"},"vehicle_type_id":"4","last_reported":1742908830,"current_range_meters":16000,"station_id":"ce4bhgp2rcd13ifvqfd0","pricing_plan_id":"cebpf4jnsgd1na2vs0mg"},{"bike_id":"2f410d7e-a8b8-4872-b420-5db857ecf32a","system_id":"levelo_inurba_marseille","lat":43.24685,"lon":5.38177,"is_reserved":false,"is_disabled":false,"rental_uris":{"android":"levelo://app?vid=2f410d7e-a8b8-4872-b420-5db857ecf32a","ios":"levelo://app?vid=2f410d7e-a8b8-4872-b420-5db857ecf32a"},"vehicle_type_id":"4","last_reported":1742908830,"current_range_meters":16000,"station_id":"ce4bhih2rcd13ifvqfr0","pricing_plan_id":"cebpf4jnsgd1na2vs0mg"},{"bike_id":"0d20b273-875a-432a-ba76-d960497c4a6a","system_id":"levelo_inurba_marseille","lat":43.30545,"lon":5.36534,"is_reserved":false,"is_disabled":false,"rental_uris":{"android":"levelo://app?vid=0d20b273-875a-432a-ba76-d960497c4a6a","ios":"levelo://app?vid=0d20b273-875a-432a-ba76-d960497c4a6a"},"vehicle_type_id":"4","last_reported":1742908830,"current_range_meters":16000,"station_id":"ce4bgs12rcd13ifvqcag","pricing_plan_id":"cebpf4jnsgd1na2vs0mg"},{"bike_id":"0c9cada4-2764-4013-a528-15089818cb84","system_id":"levelo_inurba_marseille","lat":43.27757,"lon":5.41155,"is_reserved":false,"is_disabled":false,"rental_uris":{"android":"levelo://app?vid=0c9cada4-2764-4013-a528-15089818cb84","ios":"levelo://app?vid=0c9cada4-2764-4013-a528-15089818cb84"},"vehicle_type_id":"4","last_reported":1742908830,"current_range_meters":16000,"station_id":"","pricing_plan_id":"cebpf4jnsgd1na2vs0mg"},{"bike_id":"8ba11d0e-dc45-4bc3-a15d-ccf081ccb3e7","system_id":"levelo_inurba_marseille","lat":43.23067,"lon":5.35494,"is_reserved":false,"is_disabled":false,"rental_uris":{"android":"levelo://app?vid=8ba11d0e-dc45-4bc3-a15d-ccf081ccb3e7","ios":"levelo://app?vid=8ba11d0e-dc45-4bc3-a15d-ccf081ccb3e7"},"vehicle_type_id":"4","last_reported":1742908830,"current_range_meters":16000,"station_id":"cpo3342slgdg3j2ifvpg","pricing_plan_id":"cebpf4jnsgd1na2vs0mg"},{"bike_id":"70b493df-b165-4d1e-961d-98ec64c5e50c","system_id":"levelo_inurba_marseille","lat":43.32555,"lon":5.41446,"is_reserved":false,"is_disabled":false,"rental_uris":{"android":"levelo://app?vid=70b493df-b165-4d1e-961d-98ec64c5e50c","ios":"levelo://app?vid=70b493df-b165-4d1e-961d-98ec64c5e50c"},"vehicle_type_id":"4","last_reported":1742908830,"current_range_meters":16000,"station_id":"ce4bhq12rcd13ifvqhhg","pricing_plan_id":"cebpf4jnsgd1na2vs0mg"},{"bike_id":"2b15811e-5314-48c7-9bd6-4352df6d72e3","system_id":"levelo_inurba_marseille","lat":43.28476,"lon":5.38425,"is_reserved":false,"is_disabled":false,"rental_uris":{"android":"levelo://app?vid=2b15811e-5314-48c7-9bd6-4352df6d72e3","ios":"levelo://app?vid=2b15811e-5314-48c7-9bd6-4352df6d72e3"},"vehicle_type_id":"4","last_reported":1742908830,"current_range_meters":16000,"station_id":"ce4bh512rcd13ifvqe3g","pricing_plan_id":"cebpf4jnsgd1na2vs0mg"},