{"last_updated":1768533703,"ttl":60,"version":"2.2","data":{"bikes":[{"bike_id":"b02e7b3d-bfa1-4a73-bfb4-3a8d24b24cf4","system_id":"levelo_inurba_marseille","lat":43.255,"lon":5.37655,"is_reserved":false,"is_disabled":false,"rental_uris":{"android":"levelo://app?vid=b02e7b3d-bfa1-4a73-bfb4-3a8d24b24cf4","ios":"levelo://app?vid=b02e7b3d-bfa1-4a73-bfb4-3a8d24b24cf4"},"vehicle_type_id":"4","last_reported":1768533703,"current_range_meters":2800,"station_id":"ce4bhh12rcd13ifvqff0","pricing_plan_id":"cebpf4jnsgd1na2vs0mg"},{"bike_id":"e9b21daf-6150-4954-b028-3c44cd6f2d7f","system_id":"levelo_inurba_marseille","lat":43.282074,"lon":5.390518,"is_reserved":false,"is_disabled":false,"rental_uris":{"android":"levelo://app?vid=e9b21daf-6150-4954-b028-3c44cd6f2d7f","ios":"levelo://app?vid=e9b21daf-6150-4954-b028-3c44cd6f2d7f"},"vehicle_type_id":"4","last_reported":1768533703,"current_range_meters":2800,"station_id":"ce4bhn92rcd13ifvqgsg","pricing_plan_id":"cebpf4jnsgd1na2vs0mg"},{"bike_id":"23699b99-5f86-4176-9739-2f4acdb3572a","system_id":"levelo_inurba_marseille","lat":43.30876,"lon":5.39626,"is_reserved":false,"is_disabled":false,"rental_uris":{"android":"levelo://app?vid=23699b99-5f86-4176-9739-2f4acdb3572a","ios":"levelo://app?vid=23699b99-5f86-4176-9739-2f4acdb3572a"},"vehicle_type_id":"4","last_reported":1768533703,"current_range_meters":2800,"station_id":"ce4bh012rcd13ifvqcv0","pricing_plan_id":"cebpf4jnsgd1na2vs0mg"},{"bike_id":"b312db78-e8ac-4f11-b037-0c9bd94e0705","system_id":"levelo_inurba_marseille","lat":43.28662,"lon":5.36354,"is_reserved":false,"is_disabled":false,"rental_uris":{"android":"levelo://app?vid=b312db78-e8ac-4f11-b037-0c9bd94e0705","ios":"levelo://app?vid=b312db78-e8ac-4f11-b037-0c9bd94e0705"},"vehicle_type_id":"4","last_reported":1768533703,"current_range_meters":2800,"station_id":"ce4bhah2rcd13ifvqej0","pricing_plan_id":"cebpf4jnsgd1na2vs0mg"},{"bike_id":"3f7b1cdf-d5bb-4e7b-9759-b3abb1965747","system_id":"levelo_inurba_marseille","lat":43.262227,"lon":5.40466,"is_reserved":false,"is_disabled":false,"rental_uris":{"android":"levelo://app?vid=3f7b1cdf-d5bb-4e7b-9759-b3abb1965747","ios":"levelo://app?vid=3f7b1cdf-d5bb-4e7b-9759-b3abb1965747"},"vehicle_type_id":"4","last_reported":1768533703,"current_range_meters":2800,"station_id":"ce4bhmh2rcd13ifvqgmg","pricing_plan_id":"cebpf4jnsgd1na2vs0mg"},{"bike_id":"5cfd03cf-24a1-4762-9fb7-26a053abe44f","system_id":"levelo_inurba_marseille","lat":43.258481,"lon":5.394355,"is_reserved":false,"is_disabled":false,"rental_uris":{"android":"levelo://app?vid=5cfd03cf-24a1-4762-9fb7-26a053abe44f","ios":"levelo://app?vid=5cfd03cf-24a1-4762-9fb7-26a053abe44f"},"vehicle_type_id":"4","last_reported":1768533703,"current_range_meters":2800,"station_id":"ce4bhip2rcd13ifvqft0","pricing_plan_id":"cebpf4jnsgd1na2vs0mg"},{"bike_id":"bf425ffa-d3c6-4a94-a1ca-cb391bdcbb7b","system_id":"levelo_inurba_marseille","lat":43.254959,"lon":5.376528,"is_reserved":false,"is_disabled":false,"rental_uris":{"android":"levelo://app?vid=bf425ffa-d3c6-4a94-a1ca-cb391bdcbb7b","ios":"levelo://app?vid=bf425ffa-d3c6-4a94-a1ca-cb391bdcbb7b"},"vehicle_type_id":"4","last_reported":1768533703,"current_range_meters":2800,"station_id":"ce4bhh12rcd13ifvqff0","pricing_plan_id":"cebpf4jnsgd1na2vs0mg"},{"bike_id":"26e05d3c-6761-4b77-951f-c864124fa018","system_id":"levelo_inurba_marseille","lat":43.25,"lon":5.38918,"is_reserved":false,"is_disabled":true,"rental_uris":{"android":"levelo://app?vid=26e05d3c-6761-4b77-951f-c864124fa018","ios":"levelo://app?vid=26e05d3c-6761-4b77-951f-c864124fa018"},"vehicle_type_id":"4","last_reported":1768533703,"current_range_meters":2800,"station_id":"ce4bhgp2rcd13ifvqfd0","pricing_plan_id":"cebpf4jnsgd1na2vs0mg"},{"bike_id":"6bed4a61-d41b-4e38-9f3a-0202c5a0eab7","system_id":"levelo_inurba_marseille","lat":43.24946,"lon":5.40491,"is_reserved":false,"is_disabled":false,"rental_uris":{"android":"levelo://app?vid=6bed4a61-d41b-4e38-9f3a-0202c5a0eab7","ios":"levelo://app?vid=6bed4a61-d41b-4e38-9f3a-0202c5a0eab7"},"vehicle_type_id":"4","last_reported":1768533703,"current_range_meters":2800,"station_id":"st_d2ngiaodas8pm72gd1h0","pricing_plan_id":"cebpf4jnsgd1na2vs0mg"},{"bike_id":"a610213f-29fa-472e-b938-b8e08d2e5922","system_id":"levelo_inurba_marseille","lat":43.31115,"lon":5.37755,"is_reserved":false,"is_disabled":false,"rental_uris":{"android":"levelo://app?vid=a610213f-29fa-472e-b938-b8e08d2e5922","ios":"levelo://app?vid=a610213f-29fa-472e-b938-b8e08d2e5922"},"vehicle_type_id":"4","last_reported":1768533703,"current_range_meters":2800,"station_id":"ce4bgt92rcd13ifvqcg0","pricing_plan_id":"cebpf4jnsgd1na2vs0mg"},{"bike_id":"b3817e2e-cdb9-4c8a-ac4e-2553b766e5fa","system_id":"levelo_inurba_marseille","lat":43.278134,"lon":5.407187,"is_reserved":false,"is_disabled":false,"rental_uris":{"android":"levelo://app?vid=b3817e2e-cdb9-4c8a-ac4e-2553b766e5fa","ios":"levelo://app?vid=b3817e2e-cdb9-4c8a-ac4e-2553b766e5fa"},"vehicle_type_id":"4","last_reported":1768533703,"current_range_meters":3200,"station_id":"ce4bhnh2rcd13ifvqgtg","pricing_plan_id":"cebpf4jnsgd1na2vs0mg"},{"bike_id":"d8b52035-9107-4203-ba3b-8ab85229defc","system_id":"levelo_inurba_marseille","lat":43.25627,"lon":5.40029,"is_reserved":false,"is_disabled":false,"rental_uris":{"android":"levelo://app?vid=d8b52035-9107-4203-ba3b-8ab85229defc","ios":"levelo://app?vid=d8b52035-9107-4203-ba3b-8ab85229defc"},"vehicle_type_id":"4","last_reported":1768533703,"current_range_meters":3200,"station_id":"","pricing_plan_id":"cebpf4jnsgd1na2vs0mg"},{"bike_id":"cf572246-2d78-4873-9342-2a8253fc439d","system_id":"levelo_inurba_marseille","lat":43.31057,"lon":5.37177,"is_reserved":false,"is_disabled":false,"rental_uris":{"android":"levelo://app?vid=cf572246-2d78-4873-9342-2a8253fc439d","ios":"levelo://app?vid=cf572246-2d78-4873-9342-2a8253fc439d"},"vehicle_type_id":"4","last_reported":1768533703,"current_range_meters":3200,"station_id":"st_d4kl2rp97mjs73e7tdfg","pricing_plan_id":"cebpf4jnsgd1na2vs0mg"},{"bike_id":"3ff3b472-3b75-482c-aa50-6907cace285a","system_id":"levelo_inurba_marseille","lat":43.237884,"lon":5.366355,"is_reserved":false,"is_disabled":false,"rental_uris":{"android":"levelo://app?vid=3ff3b472-3b75-482c-aa50-6907cace285a","ios":"levelo://app?vid=3ff3b472-3b75-482c-aa50-6907cace285a"},"vehicle_type_id":"4","last_reported":1768533703,"current_range_meters":3200,"station_id":"st_d3nk18o9ro0c73en2l3g","pricing_plan_id":"cebpf4jnsgd1na2vs0mg"},{"bike_id":"469583e4-cdd8-4abf-bff8-7fd2d307c99e","system_id":"levelo_inurba_marseille","lat":43.28947,"lon":5.38393,"is_reserved":false,"is_disabled":false,"rental_uris":{"android":"levelo://app?vid=469583e4-cdd8-4abf-bff8-7fd2d307c99e","ios":"levelo://app?vid=469583e4-cdd8-4abf-bff8-7fd2d307c99e"},"vehicle_type_id":"4","last_reported":1768533703,"current_range_meters":3200,"station_id":"ce4bh612rcd13ifvqe6g","pricing_plan_id":"cebpf4jnsgd1na2vs0mg"},{"bike_id":"f880bc6b-a5e7-442b-9dc3-15311575575e","system_id":"levelo_inurba_marseille","lat":43.24809,"lon":5.37452,"is_reserved":false,"is_disabled":false,"rental_uris":{"android":"levelo://app?vid=f880bc6b-a5e7-442b-9dc3-15311575575e","ios":"levelo://app?vid=f880bc6b-a5e7-442b-9dc3-15311575575e"},"vehicle_type_id":"4","last_reported":1768533703,"current_range_meters":3200,"station_id":"ce4bhgh2rcd13ifvqfb0","pricing_plan_id":"cebpf4jnsgd1na2vs0mg"},{"bike_id":"3fd4d04e-ddd6-40be-baa6-433aead63644","system_id":"levelo_inurba_marseille","lat":43.30419,"lon":5.41289,"is_reserved":false,"is_disabled":false,"rental_uris":{"android":"levelo://app?vid=3fd4d04e-ddd6-40be-baa6-433aead63644","ios":"levelo://app?vid=3fd4d04e-ddd6-40be-baa6-433aead63644"},"vehicle_type_id":"4","last_reported":1768533703,"current_range_meters":3200,"station_id":"ce4bhop2rcd13ifvqh8g","pricing_plan_id":"cebpf4jnsgd1na2vs0mg"},{"bike_id":"5b468416-4b39-4b66-925d-6c2641483f3f","system_id":"levelo_inurba_marseille","lat":43.27058,"lon":5.383,"is_reserved":false,"is_disabled":false,"rental_uris":{"android":"levelo://app?vid=5b468416-4b39-4b66-925d-6c2641483f3f","ios":"levelo://app?vid=5b468416-4b39-4b66-925d-6c2641483f3f"},"vehicle_type_id":"4","last_reported":1768533703,"current_range_meters":3200,"station_id":"st_d3n2fo6cfp8s73cte1j0","pricing_plan_id":"cebpf4jnsgd1na2vs0mg"},{"bike_id":"c03cd309-c737-47c4-a7e9-06a2667d9dfa","system_id":"levelo_inurba_marseille","lat":43.28524,"lon":5.44104,"is_reserved":false,"is_disabled":false,"rental_uris":{"android":"levelo://app?vid=c03cd309-c737-47c4-a7e9-06a2667d9dfa","ios":"levelo://app?vid=c03cd309-c737-47c4-a7e9-06a2667d9dfa"},"vehicle_type_id":"4","last_reported":1768533703,"current_range_meters":3600,"station_id":"st_d3j3df2ikq2c7380ej80","pricing_plan_id":"cebpf4jnsgd1na2vs0mg"},{"bike_id":"6ec840df-cfb2-45cf-b050-4f712ae2d3fc","system_id":"levelo_inurba_marseille","lat":43.29781,"lon":5.39335,"is_reserved":false,"is_disabled":false,"rental_uris":{"android":"levelo://app?vid=6ec840df-cfb2-45cf-b050-4f712ae2d3fc","ios":"levelo://app?vid=6ec840df-cfb2-45cf-b050-4f712ae2d3fc"},"vehicle_type_id":"4","last_reported":1768533703,"current_range_meters":3600,"station_id":"chh1huq6cuj3fo74tm60","pricing_plan_id":"cebpf4jnsgd1na2vs0mg"},{"bike_id":"a3a68054-3a27-4a78-8534-42fd98fd0061","system_id":"levelo_inurba_marseille","lat":43.2558,"lon":5.38214,"is_reserved":false,"is_disabled":false,"rental_uris":{"android":"levelo://app?vid=a3a68054-3a27-4a78-8534-42fd98fd0061","ios":"levelo://app?vid=a3a68054-3a27-4a78-8534-42fd98fd0061"},"vehicle_type_id":"4","last_reported":1768533703,"current_range_meters":3600,"station_id":"ce4bhih2rcd13ifvqfs0","pricing_plan_id":"cebpf4jnsgd1na2vs0mg"},{"bike_id":"0cc13f42-9562-48d5-8ba3-b1844f9cd1ea","system_id":"levelo_inurba_marseille","lat":43.30505,"lon":5.37336,"is_reserved":false,"is_disabled":false,"rental_uris":{"android":"levelo://app?vid=0cc13f42-9562-48d5-8ba3-b1844f9cd1ea","ios":"levelo://app?vid=0cc13f42-9562-48d5-8ba3-b1844f9cd1ea"},"vehicle_type_id":"4","last_reported":1768533703,"current_range_meters":3600,"station_id":"","pricing_plan_id":"cebpf4jnsgd1na2vs0mg"},{"bike_id":"c3322278-dd1d-4edb-aa8d-b49c22c304c2","system_id":"levelo_inurba_marseille","lat":43.24175,"lon":5.39747,"is_reserved":false,"is_disabled":false,"rental_uris":{"android":"levelo://app?vid=c3322278-dd1d-4edb-aa8d-b49c22c304c2","ios":"levelo://app?vid=c3322278-dd1d-4edb-aa8d-b49c22c304c2"},"vehicle_type_id":"4","last_reported":1768533703,"current_range_meters":3600,"station_id":"ce4bhn12rcd13ifvqgpg","pricing_plan_id":"cebpf4jnsgd1na2vs0mg"},{"bike_id":"d696a850-a902-46d1-b8ad-7f557410f2da","system_id":"levelo_inurba_marseille","lat":43.308728,"lon":5.396409,"is_reserved":false,"is_disabled":false,"rental_uris":{"android":"levelo://app?vid=d696a850-a902-46d1-b8ad-7f557410f2da","ios":"levelo://app?vid=d696a850-a902-46d1-b8ad-7f557410f2da"},"vehicle_type_id":"4","last_reported":1768533703,"current_range_meters":3600,"station_id":"ce4bh012rcd13ifvqcv0","pricing_plan_id":"cebpf4jnsgd1na2vs0mg"},{"bike_id":"b5ad29a0-462d-4d07-9a18-d87946a4398c","system_id":"levelo_inurba_marseille","lat":43.31143,"lon":5.38073,"is_reserved":false,"is_disabled":false,"rental_uris":{"android":"levelo://app?vid=b5ad29a0-462d-4d07-9a18-d87946a4398c","ios":"levelo://app?vid=b5ad29a0-462d-4d07-9a18-d87946a4398c"},"vehicle_type_id":"4","last_reported":1768533703,"current_range_meters":3600,"station_id":"","pricing_plan_id":"cebpf4jnsgd1na2vs0mg"},{"bike_id":"f1d328ec-8a2c-4647-8162-9531bcbcb299","system_id":"levelo_inurba_marseille","lat":43.24462,"lon":5.41089,"is_reserved":false,"is_disabled":false,"rental_uris":{"android":"levelo://app?vid=f1d328ec-8a2c-4647-8162-9531bcbcb299","ios":"levelo://app?vid=f1d328ec-8a2c-4647-8162-9531bcbcb299"},"vehicle_type_id":"4","last_reported":1768533703,"current_range_meters":3600,"station_id":"","pricing_plan_id":"cebpf4jnsgd1na2vs0mg"},{"bike_id":"a33c3167-3eca-46a2-91bd-5ae48b614622","system_id":"levelo_inurba_marseille","lat":43.24813,"lon":5.3746,"is_reserved":false,"is_disabled":false,"rental_uris":{"android":"levelo://app?vid=a33c3167-3eca-46a2-91bd-5ae48b614622","ios":"levelo://app?vid=a33c3167-3eca-46a2-91bd-5ae48b614622"},"vehicle_type_id":"4","last_reported":1768533703,"current_range_meters":4000,"station_id":"ce4bhgh2rcd13ifvqfb0","pricing_plan_id":"cebpf4jnsgd1na2vs0mg"},{"bike_id":"1665fbb0-027c-4469-9a12-f7bda2614b3b","system_id":"levelo_inurba_marseille","lat":43.248148,"lon":5.374575,"is_reserved":false,"is_disabled":false,"rental_uris":{"android":"levelo://app?vid=1665fbb0-027c-4469-9a12-f7bda2614b3b","ios":"levelo://app?vid=1665fbb0-027c-4469-9a12-f7bda2614b3b"},"vehicle_type_id":"4","last_reported":1768533703,"current_range_meters":4000,"station_id":"ce4bhgh2rcd13ifvqfb0","pricing_plan_id":"cebpf4jnsgd1na2vs0mg"},{"bike_id":"d0b267f6-f914-42a7-9362-552b1e3f772c","system_id":"levelo_inurba_marseille","lat":43.25862,"lon":5.39904,"is_reserved":false,"is_disabled":false,"rental_uris":{"android":"levelo://app?vid=d0b267f6-f914-42a7-9362-552b1e3f772c","ios":"levelo://app?vid=d0b267f6-f914-42a7-9362-552b1e3f772c"},"vehicle_type_id":"4","last_reported":1768533703,"current_range_meters":4000,"station_id":"ce4bhl92rcd13ifvqghg","pricing_plan_id":"cebpf4jnsgd1na2vs0mg"},{"bike_id":"333678ab-48ed-467f-be49-f68e59ac50d3","system_id":"levelo_inurba_marseille","lat":43.28237,"lon":5.39088,"is_reserved":false,"is_disabled":false,"rental_uris":{"android":"levelo://app?vid=333678ab-48ed-467f-be49-f68e59ac50d3","ios":"levelo://app?vid=333678ab-48ed-467f-be49-f68e59ac50d3"},"vehicle_type_id":"4","last_reported":1768533703,"current_range_meters":4000,"station_id":"ce4bhn92rcd13ifvqgsg","pricing_plan_id":"cebpf4jnsgd1na2vs0mg"},{"bike_id":"bdd3d3f4-86f2-4e5e-a1cb-8893a07caeb7","system_id":"levelo_inurba_marseille","lat":43.29611,"lon":5.38096,"is_reserved":false,"is_disabled":false,"rental_uris":{"android":"levelo://app?vid=bdd3d3f4-86f2-4e5e-a1cb-8893a07caeb7","ios":"levelo://app?vid=bdd3d3f4-86f2-4e5e-a1cb-8893a07caeb7"},"vehicle_type_id":"4","last_reported":1768533703,"current_range_meters":4000,"station_id":"ce4bgl12rcd13ifvqbo0","pricing_plan_id":"cebpf4jnsgd1na2vs0mg"},{"bike_id":"1c051b1c-6329-4082-803a-f7e4ea56755d","system_id":"levelo_inurba_marseille","lat":43.24081,"lon":5.3775,"is_reserved":false,"is_disabled":false,"rental_uris":{"android":"levelo://app?vid=1c051b1c-6329-4082-803a-f7e4ea56755d","ios":"levelo://app?vid=1c051b1c-6329-4082-803a-f7e4ea56755d"},"vehicle_type_id":"4","last_reported":1768533703,"current_range_meters":4000,"station_id":"ce4bhnp2rcd13ifvqgvg","pricing_plan_id":"cebpf4jnsgd1na2vs0mg"},{"bike_id":"e19e70c3-1cf0-4471-994a-a7d8c127e1c1","system_id":"levelo_inurba_marseille","lat":43.31357,"lon":5.38508,"is_reserved":false,"is_disabled":false,"rental_uris":{"android":"levelo://app?vid=e19e70c3-1cf0-4471-994a-a7d8c127e1c1","ios":"levelo://app?vid=e19e70c3-1cf0-4471-994a-a7d8c127e1c1"},"vehicle_type_id":"4","last_reported":1768533703,"current_range_meters":4000,"station_id":"ce4bgt92rcd13ifvqcf0","pricing_plan_id":"cebpf4jnsgd1na2vs0mg"},{"bike_id":"2ac5c167-db60-4a80-bf84-8c1a63d36f80","system_id":"levelo_inurba_marseille","lat":43.24627,"lon":5.43155,"is_reserved":false,"is_disabled":false,"rental_uris":{"android":"levelo://app?vid=2ac5c167-db60-4a80-bf84-8c1a63d36f80","ios":"levelo://app?vid=2ac5c167-db60-4a80-bf84-8c1a63d36f80"},"vehicle_type_id":"4","last_reported":1768533703,"current_range_meters":4000,"station_id":"st_d2m6c4gdas8pm72e190g","pricing_plan_id":"cebpf4jnsgd1na2vs0mg"},{"bike_id":"b91539d5-f355-4a5f-a9af-6e7991d59b03","system_id":"levelo_inurba_marseille","lat":43.303146,"lon":5.404383,"is_reserved":false,"is_disabled":false,"rental_uris":{"android":"levelo://app?vid=b91539d5-f355-4a5f-a9af-6e7991d59b03","ios":"levelo://app?vid=b91539d5-f355-4a5f-a9af-6e7991d59b03"},"vehicle_type_id":"4","last_reported":1768533703,"current_range_meters":4000,"station_id":"ce4bh012rcd13ifvqd10","pricing_plan_id":"cebpf4jnsgd1na2vs0mg"},{"bike_id":"b0af1aeb-c4d6-4641-bc9e-da7e6c1db235","system_id":"levelo_inurba_marseille","lat":43.32098,"lon":5.36784,"is_reserved":false,"is_disabled":false,"rental_uris":{"android":"levelo://app?vid=b0af1aeb-c4d6-4641-bc9e-da7e6c1db235","ios":"levelo://app?vid=b0af1aeb-c4d6-4641-bc9e-da7e6c1db235"},"vehicle_type_id":"4","last_reported":1768533703,"current_range_meters":4000,"station_id":"ce4bhrh2rcd13ifvqhug","pricing_plan_id":"cebpf4jnsgd1na2vs0mg"},{"bike_id":"ae3d8960-4e2b-4a5d-b5ea-fdc9174e599c","system_id":"levelo_inurba_marseille","lat":43.28484,"lon":5.38428,"is_reserved":false,"is_disabled":false,"rental_uris":{"android":"levelo://app?vid=ae3d8960-4e2b-4a5d-b5ea-fdc9174e599c","ios":"levelo://app?vid=ae3d8960-4e2b-4a5d-b5ea-fdc9174e599c"},"vehicle_type_id":"4","last_reported":1768533703,"current_range_meters":4000,"station_id":"ce4bh512rcd13ifvqe3g","pricing_plan_id":"cebpf4jnsgd1na2vs0mg"},{"bike_id":"691d5fc0-c268-4d2b-9f44-44b515ba68ce","system_id":"levelo_inurba_marseille","lat":43.2534,"lon":5.42148,"is_reserved":false,"is_disabled":false,"rental_uris":{"android":"levelo://app?vid=691d5fc0-c268-4d2b-9f44-44b515ba68ce","ios":"levelo://app?vid=691d5fc0-c268-4d2b-9f44-44b515ba68ce"},"vehicle_type_id":"4","last_reported":1768533703,"current_range_meters":4000,"station_id":"st_d2m65c5bi1j21697t3ng","pricing_plan_id":"cebpf4jnsgd1na2vs0mg"},{"bike_id":"45560b8c-0e05-4e12-aadd-6d4f84ae2310","system_id":"levelo_inurba_marseille","lat":43.26881,"lon":5.38924,"is_reserved":false,"is_disabled":false,"rental_uris":{"android":"levelo://app?vid=45560b8c-0e05-4e12-aadd-6d4f84ae2310","ios":"levelo://app?vid=45560b8c-0e05-4e12-aadd-6d4f84ae2310"},"vehicle_type_id":"4","last_reported":1768533703,"current_range_meters":4000,"station_id":"","pricing_plan_id":"cebpf4jnsgd1na2vs0mg"},{"bike_id":"045e9d48-83b4-464f-9465-7c29bf6ec9c6","system_id":"levelo_inurba_marseille","lat":43.28535,"lon":5.44108,"is_reserved":false,"is_disabled":false,"rental_uris":{"android":"levelo://app?vid=045e9d48-83b4-464f-9465-7c29bf6ec9c6","ios":"levelo://app?vid=045e9d48-83b4-464f-9465-7c29bf6ec9c6"},"vehicle_type_id":"4","last_reported":1768533703,"current_range_meters":4400,"station_id":"st_d3j3df2ikq2c7380ej80","pricing_plan_id":"cebpf4jnsgd1na2vs0mg"},{"bike_id":"1e4b7292-96ee-4fa4-99ba-92b913b2d3ef","system_id":"levelo_inurba_marseille","lat":43.29284,"lon":5.4012,"is_reserved":false,"is_disabled":false,"rental_uris":{"android":"levelo://app?vid=1e4b7292-96ee-4fa4-99ba-92b913b2d3ef","ios":"levelo://app?vid=1e4b7292-96ee-4fa4-99ba-92b913b2d3ef"},"vehicle_type_id":"4","last_reported":1768533703,"current_range_meters":4400,"station_id":"ce4bh312rcd13ifvqdk0","pricing_plan_id":"cebpf4jnsgd1na2vs0mg"},{"bike_id":"294130fc-0ec9-4d2e-966f-c328a1ee476f","system_id":"levelo_inurba_marseille","lat":43.30324,"lon":5.40451,"is_reserved":false,"is_disabled":true,"rental_uris":{"android":"levelo://app?vid=294130fc-0ec9-4d2e-966f-c328a1ee476f","ios":"levelo://app?vid=294130fc-0ec9-4d2e-966f-c328a1ee476f"},"vehicle_type_id":"4","last_reported":1768533703,"current_range_meters":4400,"station_id":"ce4bh012rcd13ifvqd10","pricing_plan_id":"cebpf4jnsgd1na2vs0mg"},{"bike_id":"b16db95a-1eae-47ad-b2e3-882874b3d4d4","system_id":"levelo_inurba_marseille","lat":43.284848,"lon":5.483854,"is_reserved":false,"is_disabled":false,"rental_uris":{"android":"levelo://app?vid=b16db95a-1eae-47ad-b2e3-882874b3d4d4","ios":"levelo://app?vid=b16db95a-1eae-47ad-b2e3-882874b3d4d4"},"vehicle_type_id":"4","last_reported":1768533703,"current_range_meters":4400,"station_id":"st_d3svhcjqgbts73a3dn0g","pricing_plan_id":"cebpf4jnsgd1na2vs0mg"},{"bike_id":"23694f2c-b2d4-4d58-b373-d1c7186e4244","system_id":"levelo_inurba_marseille","lat":43.29754,"lon":5.42786,"is_reserved":false,"is_disabled":false,"rental_uris":{"android":"levelo://app?vid=23694f2c-b2d4-4d58-b373-d1c7186e4244","ios":"levelo://app?vid=23694f2c-b2d4-4d58-b373-d1c7186e4244"},"vehicle_type_id":"4","last_reported":1768533703,"current_range_meters":4400,"station_id":"st_d3md5207bmas73dh9klg","pricing_plan_id":"cebpf4jnsgd1na2vs0mg"},{"bike_id":"153daeb6-1ced-443a-8511-9ccae5c5d53f","system_id":"levelo_inurba_marseille","lat":43.31734,"lon":5.37797,"is_reserved":false,"is_disabled":false,"rental_uris":{"android":"levelo://app?vid=153daeb6-1ced-443a-8511-9ccae5c5d53f","ios":"levelo://app?vid=153daeb6-1ced-443a-8511-9ccae5c5d53f"},"vehicle_type_id":"4","last_reported":1768533703,"current_range_meters":4400,"station_id":"","pricing_plan_id":"cebpf4jnsgd1na2vs0mg"},{"bike_id":"705d32b4-b129-4b6a-9219-88a701fed4c6","system_id":"levelo_inurba_marseille","lat":43.295814,"lon":5.370696,"is_reserved":false,"is_disabled":false,"rental_uris":{"android":"levelo://app?vid=705d32b4-b129-4b6a-9219-88a701fed4c6","ios":"levelo://app?vid=705d32b4-b129-4b6a-9219-88a701fed4c6"},"vehicle_type_id":"4","last_reported":1768533703,"current_range_meters":4400,"station_id":"","pricing_plan_id":"cebpf4jnsgd1na2vs0mg"},{"bike_id":"1c9762d0-99c2-407e-affd-fe0880429a32","system_id":"levelo_inurba_marseille","lat":43.24627,"lon":5.43158,"is_reserved":false,"is_disabled":false,"rental_uris":{"android":"levelo://app?vid=1c9762d0-99c2-407e-affd-fe0880429a32","ios":"levelo://app?vid=1c9762d0-99c2-407e-affd-fe0880429a32"},"vehicle_type_id":"4","last_reported":1768533703,"current_range_meters":4400,"station_id":"st_d2m6c4gdas8pm72e190g","pricing_plan_id":"cebpf4jnsgd1na2vs0mg"},{"bike_id":"1647898a-7e44-47a9-947d-d61611f1f7c8","system_id":"levelo_inurba_marseille","lat":43.23951,"lon":5.36627,"is_reserved":false,"is_disabled":false,"rental_uris":{"android":"levelo://app?vid=1647898a-7e44-47a9-947d-d61611f1f7c8","ios":"levelo://app?vid=1647898a-7e44-47a9-947d-d61611f1f7c8"},"vehicle_type_id":"4","last_reported":1768533703,"current_range_meters":4400,"station_id":"ce4bhi12rcd13ifvqfp0","pricing_plan_id":"cebpf4jnsgd1na2vs0mg"},{"bike_id":"bbca5a78-1ee0-4dab-ba7e-f05d9beea402","system_id":"levelo_inurba_marseille","lat":43.24463,"lon":5.425465,"is_reserved":false,"is_disabled":false,"rental_uris":{"android":"levelo://app?vid=bbca5a78-1ee0-4dab-ba7e-f05d9beea402","ios":"levelo://app?vid=bbca5a78-1ee0-4dab-ba7e-f05d9beea402"},"vehicle_type_id":"4","last_reported":1768533703,"current_range_meters":4400,"station_id":"st_d4a3vfp97mjs738cd8kg","pricing_plan_id":"cebpf4jnsgd1na2vs0mg"},{"bike_id":"15654f97-3136-4b17-935a-b94cb5a15004","system_id":"levelo_inurba_marseille","lat":43.31113,"lon":5.37772,"is_reserved":false,"is_disabled":false,"rental_uris":{"android":"levelo://app?vid=15654f97-3136-4b17-935a-b94cb5a15004","ios":"levelo://app?vid=15654f97-3136-4b17-935a-b94cb5a15004"},"vehicle_type_id":"4","last_reported":1768533703,"current_range_meters":4400,"station_id":"ce4bgt92rcd13ifvqcg0","pricing_plan_id":"cebpf4jnsgd1na2vs0mg"},{"bike_id":"eb738c0a-1dd4-4d94-b0d0-f95b7802bb79","system_id":"levelo_inurba_marseille","lat":43.29033,"lon":5.386541,"is_reserved":false,"is_disabled":false,"rental_uris":{"android":"levelo://app?vid=eb738c0a-1dd4-4d94-b0d0-f95b7802bb79","ios":"levelo://app?vid=eb738c0a-1dd4-4d94-b0d0-f95b7802bb79"},"vehicle_type_id":"4","last_reported":1768533703,"current_range_meters":4800,"station_id":"ce4bh4p2rcd13ifvqe0g","pricing_plan_id":"cebpf4jnsgd1na2vs0mg"},{"bike_id":"04ade247-f407-4bd6-9e53-d992984d2e85","system_id":"levelo_inurba_marseille","lat":43.26564,"lon":5.40313,"is_reserved":false,"is_disabled":false,"rental_uris":{"android":"levelo://app?vid=04ade247-f407-4bd6-9e53-d992984d2e85","ios":"levelo://app?vid=04ade247-f407-4bd6-9e53-d992984d2e85"},"vehicle_type_id":"4","last_reported":1768533703,"current_range_meters":4800,"station_id":"ce4bhmp2rcd13ifvqgng","pricing_plan_id":"cebpf4jnsgd1na2vs0mg"},{"bike_id":"a88b2193-4b41-43af-933c-30d36946b4cb","system_id":"levelo_inurba_marseille","lat":43.26548,"lon":5.37293,"is_reserved":false,"is_disabled":false,"rental_uris":{"android":"levelo://app?vid=a88b2193-4b41-43af-933c-30d36946b4cb","ios":"levelo://app?vid=a88b2193-4b41-43af-933c-30d36946b4cb"},"vehicle_type_id":"4","last_reported":1768533703,"current_range_meters":4800,"station_id":"ce4bhg12rcd13ifvqf70","pricing_plan_id":"cebpf4jnsgd1na2vs0mg"},{"bike_id":"5f7d7ab8-22eb-44f4-b629-9cb567806cf8","system_id":"levelo_inurba_marseille","lat":43.2293,"lon":5.35389,"is_reserved":false,"is_disabled":false,"rental_uris":{"android":"levelo://app?vid=5f7d7ab8-22eb-44f4-b629-9cb567806cf8","ios":"levelo://app?vid=5f7d7ab8-22eb-44f4-b629-9cb567806cf8"},"vehicle_type_id":"4","last_reported":1768533703,"current_range_meters":4800,"station_id":"cpo3532slgdg3j2ikp40","pricing_plan_id":"cebpf4jnsgd1na2vs0mg"},{"bike_id":"75f5efb7-8242-43de-95a3-d796c8b0bffd","system_id":"levelo_inurba_marseille","lat":43.30663,"lon":5.40044,"is_reserved":false,"is_disabled":false,"rental_uris":{"android":"levelo://app?vid=75f5efb7-8242-43de-95a3-d796c8b0bffd","ios":"levelo://app?vid=75f5efb7-8242-43de-95a3-d796c8b0bffd"},"vehicle_type_id":"4","last_reported":1768533703,"current_range_meters":4800,"station_id":"","pricing_plan_id":"cebpf4jnsgd1na2vs0mg"},{"bike_id":"4da4b045-4bb4-44c2-bf61-e03d8af437dc","system_id":"levelo_inurba_marseille","lat":43.29888,"lon":5.39737,"is_reserved":false,"is_disabled":false,"rental_uris":{"android":"levelo://app?vid=4da4b045-4bb4-44c2-bf61-e03d8af437dc","ios":"levelo://app?vid=4da4b045-4bb4-44c2-bf61-e03d8af437dc"},"vehicle_type_id":"4","last_reported":1768533703,"current_range_meters":4800,"station_id":"ce4bh0h2rcd13ifvqd50","pricing_plan_id":"cebpf4jnsgd1na2vs0mg"},{"bike_id":"d8cb4356-0509-4609-843f-c03e508362c0","system_id":"levelo_inurba_marseille","lat":43.283471,"lon":5.381169,"is_reserved":false,"is_disabled":true,"rental_uris":{"android":"levelo://app?vid=d8cb4356-0509-4609-843f-c03e508362c0","ios":"levelo://app?vid=d8cb4356-0509-4609-843f-c03e508362c0"},"vehicle_type_id":"4","last_reported":1768533703,"current_range_meters":4800,"station_id":"ce4bh412rcd13ifvqdr0","pricing_plan_id":"cebpf4jnsgd1na2vs0mg"},{"bike_id":"766b6315-d0e9-4f21-99cc-ac73caf0d81f","system_id":"levelo_inurba_marseille","lat":43.26772,"lon":5.39441,"is_reserved":false,"is_disabled":false,"rental_uris":{"android":"levelo://app?vid=766b6315-d0e9-4f21-99cc-ac73caf0d81f","ios":"levelo://app?vid=766b6315-d0e9-4f21-99cc-ac73caf0d81f"},"vehicle_type_id":"4","last_reported":1768533703,"current_range_meters":4800,"station_id":"ce4bhh12rcd13ifvqfg0","pricing_plan_id":"cebpf4jnsgd1na2vs0mg"},{"bike_id":"91dbe188-56c8-4fce-a414-d6e43ed9eb6b","system_id":"levelo_inurba_marseille","lat":43.26719,"lon":5.3996,"is_reserved":false,"is_disabled":false,"rental_uris":{"android":"levelo://app?vid=91dbe188-56c8-4fce-a414-d6e43ed9eb6b","ios":"levelo://app?vid=91dbe188-56c8-4fce-a414-d6e43ed9eb6b"},"vehicle_type_id":"4","last_reported":1768533703,"current_range_meters":5600,"station_id":"","pricing_plan_id":"cebpf4jnsgd1na2vs0mg"},{"bike_id":"7a3dee4b-7565-484a-900a-56cb9b772ca8","system_id":"levelo_inurba_marseille","lat":43.28619,"lon":5.35101,"is_reserved":false,"is_disabled":false,"rental_uris":{"android":"levelo://app?vid=7a3dee4b-7565-484a-900a-56cb9b772ca8","ios":"levelo://app?vid=7a3dee4b-7565-484a-900a-56cb9b772ca8"},"vehicle_type_id":"4","last_reported":1768533703,"current_range_meters":5600,"station_id":"ce4bhch2rcd13ifvqeug","pricing_plan_id":"cebpf4jnsgd1na2vs0mg"},{"bike_id":"d0abaacf-2955-4a98-948a-1ba5a7fd4d10","system_id":"levelo_inurba_marseille","lat":43.31337,"lon":5.39685,"is_reserved":false,"is_disabled":false,"rental_uris":{"android":"levelo://app?vid=d0abaacf-2955-4a98-948a-1ba5a7fd4d10","ios":"levelo://app?vid=d0abaacf-2955-4a98-948a-1ba5a7fd4d10"},"vehicle_type_id":"4","last_reported":1768533703,"current_range_meters":5600,"station_id":"ce4bgvp2rcd13ifvqcu0","pricing_plan_id":"cebpf4jnsgd1na2vs0mg"},{"bike_id":"e01689a8-673f-4fe8-a8b4-e1f91af166ad","system_id":"levelo_inurba_marseille","lat":43.29562,"lon":5.399844,"is_reserved":false,"is_disabled":false,"rental_uris":{"android":"levelo://app?vid=e01689a8-673f-4fe8-a8b4-e1f91af166ad","ios":"levelo://app?vid=e01689a8-673f-4fe8-a8b4-e1f91af166ad"},"vehicle_type_id":"4","last_reported":1768533703,"current_range_meters":5600,"station_id":"ce4bh312rcd13ifvqdj0","pricing_plan_id":"cebpf4jnsgd1na2vs0mg"},{"bike_id":"1df12b61-706a-4c3a-833a-262fbf157ecc","system_id":"levelo_inurba_marseille","lat":43.30929,"lon":5.40142,"is_reserved":false,"is_disabled":false,"rental_uris":{"android":"levelo://app?vid=1df12b61-706a-4c3a-833a-262fbf157ecc","ios":"levelo://app?vid=1df12b61-706a-4c3a-833a-262fbf157ecc"},"vehicle_type_id":"4","last_reported":1768533703,"current_range_meters":5600,"station_id":"ce4bgvp2rcd13ifvqct0","pricing_plan_id":"cebpf4jnsgd1na2vs0mg"},{"bike_id":"ecf0d209-53b9-47e3-8f9f-faa8b0ad9eb4","system_id":"levelo_inurba_marseille","lat":43.249515,"lon":5.405062,"is_reserved":false,"is_disabled":false,"rental_uris":{"android":"levelo://app?vid=ecf0d209-53b9-47e3-8f9f-faa8b0ad9eb4","ios":"levelo://app?vid=ecf0d209-53b9-47e3-8f9f-faa8b0ad9eb4"},"vehicle_type_id":"4","last_reported":1768533703,"current_range_meters":5600,"station_id":"st_d2ngiaodas8pm72gd1h0","pricing_plan_id":"cebpf4jnsgd1na2vs0mg"},{"bike_id":"cd8e47b7-9740-4367-b0b2-aca3b636bacc","system_id":"levelo_inurba_marseille","lat":43.279382,"lon":5.410411,"is_reserved":false,"is_disabled":false,"rental_uris":{"android":"levelo://app?vid=cd8e47b7-9740-4367-b0b2-aca3b636bacc","ios":"levelo://app?vid=cd8e47b7-9740-4367-b0b2-aca3b636bacc"},"vehicle_type_id":"4","last_reported":1768533703,"current_range_meters":5600,"station_id":"ce4bhnp2rcd13ifvqh0g","pricing_plan_id":"cebpf4jnsgd1na2vs0mg"},{"bike_id":"c47b9162-9a66-4b88-ac9b-575e9b7e6df6","system_id":"levelo_inurba_marseille","lat":43.26558,"lon":5.40338,"is_reserved":false,"is_disabled":false,"rental_uris":{"android":"levelo://app?vid=c47b9162-9a66-4b88-ac9b-575e9b7e6df6","ios":"levelo://app?vid=c47b9162-9a66-4b88-ac9b-575e9b7e6df6"},"vehicle_type_id":"4","last_reported":1768533703,"current_range_meters":5600,"station_id":"ce4bhmp2rcd13ifvqgng","pricing_plan_id":"cebpf4jnsgd1na2vs0mg"},{"bike_id":"bc3c387c-8c40-42e3-93c3-5c14834e3a59","system_id":"levelo_inurba_marseille","lat":43.23185,"lon":5.39989,"is_reserved":false,"is_disabled":false,"rental_uris":{"android":"levelo://app?vid=bc3c387c-8c40-42e3-93c3-5c14834e3a59","ios":"levelo://app?vid=bc3c387c-8c40-42e3-93c3-5c14834e3a59"},"vehicle_type_id":"4","last_reported":1768533703,"current_range_meters":5600,"station_id":"ce4bhn12rcd13ifvqgqg","pricing_plan_id":"cebpf4jnsgd1na2vs0mg"},{"bike_id":"65bcc84f-bced-4e8c-bfc3-ea0c47e00834","system_id":"levelo_inurba_marseille","lat":43.29499,"lon":5.39029,"is_reserved":false,"is_disabled":false,"rental_uris":{"android":"levelo://app?vid=65bcc84f-bced-4e8c-bfc3-ea0c47e00834","ios":"levelo://app?vid=65bcc84f-bced-4e8c-bfc3-ea0c47e00834"},"vehicle_type_id":"4","last_reported":1768533703,"current_range_meters":5600,"station_id":"ce4bh3p2rcd13ifvqdp0","pricing_plan_id":"cebpf4jnsgd1na2vs0mg"},{"bike_id":"d14c563e-7d81-4312-b6b2-f8e7e772a5f6","system_id":"levelo_inurba_marseille","lat":43.24473,"lon":5.4253,"is_reserved":false,"is_disabled":false,"rental_uris":{"android":"levelo://app?vid=d14c563e-7d81-4312-b6b2-f8e7e772a5f6","ios":"levelo://app?vid=d14c563e-7d81-4312-b6b2-f8e7e772a5f6"},"vehicle_type_id":"4","last_reported":1768533703,"current_range_meters":5600,"station_id":"st_d4a3vfp97mjs738cd8kg","pricing_plan_id":"cebpf4jnsgd1na2vs0mg"},{"bike_id":"d00368b1-079a-4a8f-b43d-537c744ecf73","system_id":"levelo_inurba_marseille","lat":43.31164,"lon":5.38707,"is_reserved":false,"is_disabled":false,"rental_uris":{"android":"levelo://app?vid=d00368b1-079a-4a8f-b43d-537c744ecf73","ios":"levelo://app?vid=d00368b1-079a-4a8f-b43d-537c744ecf73"},"vehicle_type_id":"4","last_reported":1768533703,"current_range_meters":5600,"station_id":"ce4bgv12rcd13ifvqcp0","pricing_plan_id":"cebpf4jnsgd1na2vs0mg"},{"bike_id":"57454146-bf70-4336-bd1a-8d9f9690c6b3","system_id":"levelo_inurba_marseille","lat":43.28462,"lon":5.35888,"is_reserved":false,"is_disabled":false,"rental_uris":{"android":"levelo://app?vid=57454146-bf70-4336-bd1a-8d9f9690c6b3","ios":"levelo://app?vid=57454146-bf70-4336-bd1a-8d9f9690c6b3"},"vehicle_type_id":"4","last_reported":1768533703,"current_range_meters":6000,"station_id":"ce4bhah2rcd13ifvqei0","pricing_plan_id":"cebpf4jnsgd1na2vs0mg"},{"bike_id":"41bcc576-3262-4c06-a0fd-4f105ce774f7","system_id":"levelo_inurba_marseille","lat":43.27992,"lon":5.40024,"is_reserved":false,"is_disabled":false,"rental_uris":{"android":"levelo://app?vid=41bcc576-3262-4c06-a0fd-4f105ce774f7","ios":"levelo://app?vid=41bcc576-3262-4c06-a0fd-4f105ce774f7"},"vehicle_type_id":"4","last_reported":1768533703,"current_range_meters":6000,"station_id":"ce4bho92rcd13ifvqh4g","pricing_plan_id":"cebpf4jnsgd1na2vs0mg"},{"bike_id":"b685ca1c-34c6-4379-b7fa-8454f937077a","system_id":"levelo_inurba_marseille","lat":43.288445,"lon":5.358588,"is_reserved":false,"is_disabled":false,"rental_uris":{"android":"levelo://app?vid=b685ca1c-34c6-4379-b7fa-8454f937077a","ios":"levelo://app?vid=b685ca1c-34c6-4379-b7fa-8454f937077a"},"vehicle_type_id":"4","last_reported":1768533703,"current_range_meters":6000,"station_id":"ce4bhb12rcd13ifvqem0","pricing_plan_id":"cebpf4jnsgd1na2vs0mg"},{"bike_id":"d1437624-7325-4411-87ce-3009f56ae813","system_id":"levelo_inurba_marseille","lat":43.27809,"lon":5.40707,"is_reserved":false,"is_disabled":false,"rental_uris":{"android":"levelo://app?vid=d1437624-7325-4411-87ce-3009f56ae813","ios":"levelo://app?vid=d1437624-7325-4411-87ce-3009f56ae813"},"vehicle_type_id":"4","last_reported":1768533703,"current_range_meters":6000,"station_id":"ce4bhnh2rcd13ifvqgtg","pricing_plan_id":"cebpf4jnsgd1na2vs0mg"},{"bike_id":"55307b8e-b51c-4509-a6b9-a280d2e31788","system_id":"levelo_inurba_marseille","lat":43.292799,"lon":5.401232,"is_reserved":false,"is_disabled":false,"rental_uris":{"android":"levelo://app?vid=55307b8e-b51c-4509-a6b9-a280d2e31788","ios":"levelo://app?vid=55307b8e-b51c-4509-a6b9-a280d2e31788"},"vehicle_type_id":"4","last_reported":1768533703,"current_range_meters":6000,"station_id":"ce4bh312rcd13ifvqdk0","pricing_plan_id":"cebpf4jnsgd1na2vs0mg"},{"bike_id":"736ec16a-dc55-4587-9b1c-c917e562c9fe","system_id":"levelo_inurba_marseille","lat":43.255068,"lon":5.376591,"is_reserved":false,"is_disabled":false,"rental_uris":{"android":"levelo://app?vid=736ec16a-dc55-4587-9b1c-c917e562c9fe","ios":"levelo://app?vid=736ec16a-dc55-4587-9b1c-c917e562c9fe"},"vehicle_type_id":"4","last_reported":1768533703,"current_range_meters":6000,"station_id":"ce4bhh12rcd13ifvqff0","pricing_plan_id":"cebpf4jnsgd1na2vs0mg"},{"bike_id":"7c13900c-9ba6-4085-bea5-af3b0d13af71","system_id":"levelo_inurba_marseille","lat":43.2963,"lon":5.38034,"is_reserved":false,"is_disabled":false,"rental_uris":{"android":"levelo://app?vid=7c13900c-9ba6-4085-bea5-af3b0d13af71","ios":"levelo://app?vid=7c13900c-9ba6-4085-bea5-af3b0d13af71"},"vehicle_type_id":"4","last_reported":1768533703,"current_range_meters":6000,"station_id":"","pricing_plan_id":"cebpf4jnsgd1na2vs0mg"},{"bike_id":"0cdf751e-50be-4213-adcd-ec4933b84284","system_id":"levelo_inurba_marseille","lat":43.285398,"lon":5.441064,"is_reserved":false,"is_disabled":false,"rental_uris":{"android":"levelo://app?vid=0cdf751e-50be-4213-adcd-ec4933b84284","ios":"levelo://app?vid=0cdf751e-50be-4213-adcd-ec4933b84284"},"vehicle_type_id":"4","last_reported":1768533703,"current_range_meters":6000,"station_id":"st_d3j3df2ikq2c7380ej80","pricing_plan_id":"cebpf4jnsgd1na2vs0mg"},{"bike_id":"05e16fb9-c29b-478d-98b3-025d2b880cd6","system_id":"levelo_inurba_marseille","lat":43.24987,"lon":5.396377,"is_reserved":false,"is_disabled":false,"rental_uris":{"android":"levelo://app?vid=05e16fb9-c29b-478d-98b3-025d2b880cd6","ios":"levelo://app?vid=05e16fb9-c29b-478d-98b3-025d2b880cd6"},"vehicle_type_id":"4","last_reported":1768533703,"current_range_meters":6000,"station_id":"","pricing_plan_id":"cebpf4jnsgd1na2vs0mg"},{"bike_id":"55ca926a-74e8-4d75-948c-be9d1d94f87e","system_id":"levelo_inurba_marseille","lat":43.29073,"lon":5.37165,"is_reserved":false,"is_disabled":false,"rental_uris":{"android":"levelo://app?vid=55ca926a-74e8-4d75-948c-be9d1d94f87e","ios":"levelo://app?vid=55ca926a-74e8-4d75-948c-be9d1d94f87e"},"vehicle_type_id":"4","last_reported":1768533703,"current_range_meters":6000,"station_id":"ce4bh5p2rcd13ifvqe4g","pricing_plan_id":"cebpf4jnsgd1na2vs0mg"},{"bike_id":"6612a96b-a9b9-4563-80a8-1ee4f05a8803","system_id":"levelo_inurba_marseille","lat":43.27688,"lon":5.38936,"is_reserved":false,"is_disabled":false,"rental_uris":{"android":"levelo://app?vid=6612a96b-a9b9-4563-80a8-1ee4f05a8803","ios":"levelo://app?vid=6612a96b-a9b9-4563-80a8-1ee4f05a8803"},"vehicle_type_id":"4","last_reported":1768533703,"current_range_meters":6000,"station_id":"ce4bhi12rcd13ifvqfo0","pricing_plan_id":"cebpf4jnsgd1na2vs0mg"},{"bike_id":"7a5c08cf-d90b-408e-a297-6ea242ed66a8","system_id":"levelo_inurba_marseille","lat":43.25499,"lon":5.37649,"is_reserved":false,"is_disabled":false,"rental_uris":{"android":"levelo://app?vid=7a5c08cf-d90b-408e-a297-6ea242ed66a8","ios":"levelo://app?vid=7a5c08cf-d90b-408e-a297-6ea242ed66a8"},"vehicle_type_id":"4","last_reported":1768533703,"current_range_meters":6000,"station_id":"ce4bhh12rcd13ifvqff0","pricing_plan_id":"cebpf4jnsgd1na2vs0mg"},{"bike_id":"75422019-3005-404c-b749-06eb292054c7","system_id":"levelo_inurba_marseille","lat":43.25002,"lon":5.38931,"is_reserved":false,"is_disabled":false,"rental_uris":{"android":"levelo://app?vid=75422019-3005-404c-b749-06eb292054c7","ios":"levelo://app?vid=75422019-3005-404c-b749-06eb292054c7"},"vehicle_type_id":"4","last_reported":1768533703,"current_range_meters":6000,"station_id":"ce4bhgp2rcd13ifvqfd0","pricing_plan_id":"cebpf4jnsgd1na2vs0mg"},{"bike_id":"0cd1e779-26e9-49c5-b773-f088de1cb9ab","system_id":"levelo_inurba_marseille","lat":43.26066,"lon":5.38523,"is_reserved":false,"is_disabled":false,"rental_uris":{"android":"levelo://app?vid=0cd1e779-26e9-49c5-b773-f088de1cb9ab","ios":"levelo://app?vid=0cd1e779-26e9-49c5-b773-f088de1cb9ab"},"vehicle_type_id":"4","last_reported":1768533703,"current_range_meters":6000,"station_id":"","pricing_plan_id":"cebpf4jnsgd1na2vs0mg"},{"bike_id":"e003fee9-e905-4cfe-80f4-f93375901dd0","system_id":"levelo_inurba_marseille","lat":43.24778,"lon":5.37468,"is_reserved":false,"is_disabled":false,"rental_uris":{"android":"levelo://app?vid=e003fee9-e905-4cfe-80f4-f93375901dd0","ios":"levelo://app?vid=e003fee9-e905-4cfe-80f4-f93375901dd0"},"vehicle_type_id":"4","last_reported":1768533703,"current_range_meters":6000,"station_id":"ce4bhgh2rcd13ifvqfb0","pricing_plan_id":"cebpf4jnsgd1na2vs0mg"},{"bike_id":"de053820-f473-4d4f-8be6-7eb46f3d1ea3","system_id":"levelo_inurba_marseille","lat":43.310482,"lon":5.39321,"is_reserved":false,"is_disabled":false,"rental_uris":{"android":"levelo://app?vid=de053820-f473-4d4f-8be6-7eb46f3d1ea3","ios":"levelo://app?vid=de053820-f473-4d4f-8be6-7eb46f3d1ea3"},"vehicle_type_id":"4","last_reported":1768533703,"current_range_meters":6000,"station_id":"","pricing_plan_id":"cebpf4jnsgd1na2vs0mg"},{"bike_id":"e5aa787f-c7e4-4b02-b6ed-ac65ac7744ea","system_id":"levelo_inurba_marseille","lat":43.23192,"lon":5.39995,"is_reserved":false,"is_disabled":false,"rental_uris":{"android":"levelo://app?vid=e5aa787f-c7e4-4b02-b6ed-ac65ac7744ea","ios":"levelo://app?vid=e5aa787f-c7e4-4b02-b6ed-ac65ac7744ea"},"vehicle_type_id":"4","last_reported":1768533703,"current_range_meters":6000,"station_id":"ce4bhn12rcd13ifvqgqg","pricing_plan_id":"cebpf4jnsgd1na2vs0mg"},{"bike_id":"8ea47e76-4d6f-4a78-83f5-ab0a1828073d","system_id":"levelo_inurba_marseille","lat":43.22556,"lon":5.41629,"is_reserved":false,"is_disabled":false,"rental_uris":{"android":"levelo://app?vid=8ea47e76-4d6f-4a78-83f5-ab0a1828073d","ios":"levelo://app?vid=8ea47e76-4d6f-4a78-83f5-ab0a1828073d"},"vehicle_type_id":"4","last_reported":1768533703,"current_range_meters":6000,"station_id":"st_d2o4gvlbi1j2169b742g","pricing_plan_id":"cebpf4jnsgd1na2vs0mg"},{"bike_id":"931bef7a-46b6-4b69-9455-e5c7699b211c","system_id":"levelo_inurba_marseille","lat":43.24645,"lon":5.43131,"is_reserved":false,"is_disabled":false,"rental_uris":{"android":"levelo://app?vid=931bef7a-46b6-4b69-9455-e5c7699b211c","ios":"levelo://app?vid=931bef7a-46b6-4b69-9455-e5c7699b211c"},"vehicle_type_id":"4","last_reported":1768533703,"current_range_meters":6000,"station_id":"st_d2m6c4gdas8pm72e190g","pricing_plan_id":"cebpf4jnsgd1na2vs0mg"},{"bike_id":"9ad305d8-c5ad-4306-8b97-be844cf2989e","system_id":"levelo_inurba_marseille","lat":43.270557,"lon":5.383135,"is_reserved":false,"is_disabled":false,"rental_uris":{"android":"levelo://app?vid=9ad305d8-c5ad-4306-8b97-be844cf2989e","ios":"levelo://app?vid=9ad305d8-c5ad-4306-8b97-be844cf2989e"},"vehicle_type_id":"4","last_reported":1768533703,"current_range_meters":6000,"station_id":"st_d3n2fo6cfp8s73cte1j0","pricing_plan_id":"cebpf4jnsgd1na2vs0mg"},{"bike_id":"301ae823-fb3e-427a-8fc7-0d20ac0eb1ee","system_id":"levelo_inurba_marseille","lat":43.29233,"lon":5.36446,"is_reserved":false,"is_disabled":false,"rental_uris":{"android":"levelo://app?vid=301ae823-fb3e-427a-8fc7-0d20ac0eb1ee","ios":"levelo://app?vid=301ae823-fb3e-427a-8fc7-0d20ac0eb1ee"},"vehicle_type_id":"4","last_reported":1768533703,"current_range_meters":6000,"station_id":"","pricing_plan_id":"cebpf4jnsgd1na2vs0mg"},{"bike_id":"a98ea1f7-5de9-495d-9bc6-c9a34468d831","system_id":"levelo_inurba_marseille","lat":43.27821,"lon":5.40703,"is_reserved":false,"is_disabled":true,"rental_uris":{"android":"levelo://app?vid=a98ea1f7-5de9-495d-9bc6-c9a34468d831","ios":"levelo://app?vid=a98ea1f7-5de9-495d-9bc6-c9a34468d831"},"vehicle_type_id":"4","last_reported":1768533703,"current_range_meters":6000,"station_id":"ce4bhnh2rcd13ifvqgtg","pricing_plan_id":"cebpf4jnsgd1na2vs0mg"},{"bike_id":"f0f77a0a-fb63-466f-8221-ca4aa28e90e6","system_id":"levelo_inurba_marseille","lat":43.24806,"lon":5.37461,"is_reserved":false,"is_disabled":false,"rental_uris":{"android":"levelo://app?vid=f0f77a0a-fb63-466f-8221-ca4aa28e90e6","ios":"levelo://app?vid=f0f77a0a-fb63-466f-8221-ca4aa28e90e6"},"vehicle_type_id":"4","last_reported":1768533703,"current_range_meters":6400,"station_id":"ce4bhgh2rcd13ifvqfb0","pricing_plan_id":"cebpf4jnsgd1na2vs0mg"},{"bike_id":"599cc64d-7492-4f45-b2f5-312b0bd4aa12","system_id":"levelo_inurba_marseille","lat":43.284671,"lon":5.358889,"is_reserved":false,"is_disabled":false,"rental_uris":{"android":"levelo://app?vid=599cc64d-7492-4f45-b2f5-312b0bd4aa12","ios":"levelo://app?vid=599cc64d-7492-4f45-b2f5-312b0bd4aa12"},"vehicle_type_id":"4","last_reported":1768533703,"current_range_meters":6400,"station_id":"ce4bhah2rcd13ifvqei0","pricing_plan_id":"cebpf4jnsgd1na2vs0mg"},{"bike_id":"a72e0f17-51ac-4191-862c-e4e646239bdd","system_id":"levelo_inurba_marseille","lat":43.30461,"lon":5.38886,"is_reserved":false,"is_disabled":false,"rental_uris":{"android":"levelo://app?vid=a72e0f17-51ac-4191-862c-e4e646239bdd","ios":"levelo://app?vid=a72e0f17-51ac-4191-862c-e4e646239bdd"},"vehicle_type_id":"4","last_reported":1768533703,"current_range_meters":6400,"station_id":"ce4bgk12rcd13ifvqbi0","pricing_plan_id":"cebpf4jnsgd1na2vs0mg"},{"bike_id":"8e1f1ed2-bc25-4426-af81-32cf1e4d20f3","system_id":"levelo_inurba_marseille","lat":43.31762,"lon":5.39031,"is_reserved":false,"is_disabled":false,"rental_uris":{"android":"levelo://app?vid=8e1f1ed2-bc25-4426-af81-32cf1e4d20f3","ios":"levelo://app?vid=8e1f1ed2-bc25-4426-af81-32cf1e4d20f3"},"vehicle_type_id":"4","last_reported":1768533703,"current_range_meters":6400,"station_id":"ce4bhqp2rcd13ifvqhng","pricing_plan_id":"cebpf4jnsgd1na2vs0mg"},{"bike_id":"d2d2d908-ffb6-4c0a-97f2-e5e034e39816","system_id":"levelo_inurba_marseille","lat":43.27936,"lon":5.40398,"is_reserved":false,"is_disabled":false,"rental_uris":{"android":"levelo://app?vid=d2d2d908-ffb6-4c0a-97f2-e5e034e39816","ios":"levelo://app?vid=d2d2d908-ffb6-4c0a-97f2-e5e034e39816"},"vehicle_type_id":"4","last_reported":1768533703,"current_range_meters":6400,"station_id":"","pricing_plan_id":"cebpf4jnsgd1na2vs0mg"},{"bike_id":"67294a6a-227b-4605-bf70-fa5ed86ca843","system_id":"levelo_inurba_marseille","lat":43.2903,"lon":5.39979,"is_reserved":false,"is_disabled":false,"rental_uris":{"android":"levelo://app?vid=67294a6a-227b-4605-bf70-fa5ed86ca843","ios":"levelo://app?vid=67294a6a-227b-4605-bf70-fa5ed86ca843"},"vehicle_type_id":"4","last_reported":1768533703,"current_range_meters":6400,"station_id":"ce4bh392rcd13ifvqdm0","pricing_plan_id":"cebpf4jnsgd1na2vs0mg"},{"bike_id":"d827ebc5-99c2-462b-bbd3-4c2b7c741ded","system_id":"levelo_inurba_marseille","lat":43.28654,"lon":5.36339,"is_reserved":false,"is_disabled":false,"rental_uris":{"android":"levelo://app?vid=d827ebc5-99c2-462b-bbd3-4c2b7c741ded","ios":"levelo://app?vid=d827ebc5-99c2-462b-bbd3-4c2b7c741ded"},"vehicle_type_id":"4","last_reported":1768533703,"current_range_meters":6400,"station_id":"ce4bhah2rcd13ifvqej0","pricing_plan_id":"cebpf4jnsgd1na2vs0mg"},{"bike_id":"fbca656e-02c6-47d2-8a61-af26f7f00021","system_id":"levelo_inurba_marseille","lat":43.258547,"lon":5.399237,"is_reserved":false,"is_disabled":false,"rental_uris":{"android":"levelo://app?vid=fbca656e-02c6-47d2-8a61-af26f7f00021","ios":"levelo://app?vid=fbca656e-02c6-47d2-8a61-af26f7f00021"},"vehicle_type_id":"4","last_reported":1768533703,"current_range_meters":6400,"station_id":"ce4bhl92rcd13ifvqghg","pricing_plan_id":"cebpf4jnsgd1na2vs0mg"},{"bike_id":"f4bc8881-cafb-4d21-83b9-8e903d2e8cd8","system_id":"levelo_inurba_marseille","lat":43.33157,"lon":5.37701,"is_reserved":false,"is_disabled":false,"rental_uris":{"android":"levelo://app?vid=f4bc8881-cafb-4d21-83b9-8e903d2e8cd8","ios":"levelo://app?vid=f4bc8881-cafb-4d21-83b9-8e903d2e8cd8"},"vehicle_type_id":"4","last_reported":1768533703,"current_range_meters":6400,"station_id":"st_d46cu089ee8s73dldbu0","pricing_plan_id":"cebpf4jnsgd1na2vs0mg"},{"bike_id":"2ffaf0c9-9016-4c67-8314-b46e32a838a9","system_id":"levelo_inurba_marseille","lat":43.24385,"lon":5.37049,"is_reserved":false,"is_disabled":false,"rental_uris":{"android":"levelo://app?vid=2ffaf0c9-9016-4c67-8314-b46e32a838a9","ios":"levelo://app?vid=2ffaf0c9-9016-4c67-8314-b46e32a838a9"},"vehicle_type_id":"4","last_reported":1768533703,"current_range_meters":6400,"station_id":"ce4bhhh2rcd13ifvqfk0","pricing_plan_id":"cebpf4jnsgd1na2vs0mg"},{"bike_id":"e1006462-68a0-4ccc-a6ad-e2bac9c35aea","system_id":"levelo_inurba_marseille","lat":43.25338,"lon":5.4217,"is_reserved":false,"is_disabled":false,"rental_uris":{"android":"levelo://app?vid=e1006462-68a0-4ccc-a6ad-e2bac9c35aea","ios":"levelo://app?vid=e1006462-68a0-4ccc-a6ad-e2bac9c35aea"},"vehicle_type_id":"4","last_reported":1768533703,"current_range_meters":6400,"station_id":"st_d2m65c5bi1j21697t3ng","pricing_plan_id":"cebpf4jnsgd1na2vs0mg"},{"bike_id":"6ef8518a-645e-48e3-8a8e-63008a01b256","system_id":"levelo_inurba_marseille","lat":43.29703,"lon":5.366116,"is_reserved":false,"is_disabled":false,"rental_uris":{"android":"levelo://app?vid=6ef8518a-645e-48e3-8a8e-63008a01b256","ios":"levelo://app?vid=6ef8518a-645e-48e3-8a8e-63008a01b256"},"vehicle_type_id":"4","last_reported":1768533703,"current_range_meters":6400,"station_id":"ce4bgn12rcd13ifvqbt0","pricing_plan_id":"cebpf4jnsgd1na2vs0mg"},{"bike_id":"57a819a1-efc5-49b2-a9d3-3a8a47ca6b6a","system_id":"levelo_inurba_marseille","lat":43.30273,"lon":5.40076,"is_reserved":false,"is_disabled":false,"rental_uris":{"android":"levelo://app?vid=57a819a1-efc5-49b2-a9d3-3a8a47ca6b6a","ios":"levelo://app?vid=57a819a1-efc5-49b2-a9d3-3a8a47ca6b6a"},"vehicle_type_id":"4","last_reported":1768533703,"current_range_meters":6400,"station_id":"ce4bgvh2rcd13ifvqcs0","pricing_plan_id":"cebpf4jnsgd1na2vs0mg"},{"bike_id":"efe99cc0-a1e9-4b2a-b9e3-6e4d494e41e9","system_id":"levelo_inurba_marseille","lat":43.29029,"lon":5.39962,"is_reserved":false,"is_disabled":false,"rental_uris":{"android":"levelo://app?vid=efe99cc0-a1e9-4b2a-b9e3-6e4d494e41e9","ios":"levelo://app?vid=efe99cc0-a1e9-4b2a-b9e3-6e4d494e41e9"},"vehicle_type_id":"4","last_reported":1768533703,"current_range_meters":6400,"station_id":"ce4bh392rcd13ifvqdm0","pricing_plan_id":"cebpf4jnsgd1na2vs0mg"},{"bike_id":"116972cd-c8f5-40d6-86f5-1cd3dc358458","system_id":"levelo_inurba_marseille","lat":43.30324,"lon":5.40436,"is_reserved":false,"is_disabled":false,"rental_uris":{"android":"levelo://app?vid=116972cd-c8f5-40d6-86f5-1cd3dc358458","ios":"levelo://app?vid=116972cd-c8f5-40d6-86f5-1cd3dc358458"},"vehicle_type_id":"4","last_reported":1768533703,"current_range_meters":6800,"station_id":"ce4bh012rcd13ifvqd10","pricing_plan_id":"cebpf4jnsgd1na2vs0mg"},{"bike_id":"fe760492-f7f6-4e9b-8605-bd507140d798","system_id":"levelo_inurba_marseille","lat":43.3012,"lon":5.43118,"is_reserved":false,"is_disabled":false,"rental_uris":{"android":"levelo://app?vid=fe760492-f7f6-4e9b-8605-bd507140d798","ios":"levelo://app?vid=fe760492-f7f6-4e9b-8605-bd507140d798"},"vehicle_type_id":"4","last_reported":1768533703,"current_range_meters":6800,"station_id":"st_d3js3co5814s73ftftug","pricing_plan_id":"cebpf4jnsgd1na2vs0mg"},{"bike_id":"7163724e-7d88-4ab5-909f-51d27f65f7d8","system_id":"levelo_inurba_marseille","lat":43.28536,"lon":5.440956,"is_reserved":false,"is_disabled":false,"rental_uris":{"android":"levelo://app?vid=7163724e-7d88-4ab5-909f-51d27f65f7d8","ios":"levelo://app?vid=7163724e-7d88-4ab5-909f-51d27f65f7d8"},"vehicle_type_id":"4","last_reported":1768533703,"current_range_meters":6800,"station_id":"st_d3j3df2ikq2c7380ej80","pricing_plan_id":"cebpf4jnsgd1na2vs0mg"},{"bike_id":"f2c787eb-1b36-4e92-b487-3132386b8e37","system_id":"levelo_inurba_marseille","lat":43.24817,"lon":5.37482,"is_reserved":false,"is_disabled":false,"rental_uris":{"android":"levelo://app?vid=f2c787eb-1b36-4e92-b487-3132386b8e37","ios":"levelo://app?vid=f2c787eb-1b36-4e92-b487-3132386b8e37"},"vehicle_type_id":"4","last_reported":1768533703,"current_range_meters":6800,"station_id":"ce4bhgh2rcd13ifvqfb0","pricing_plan_id":"cebpf4jnsgd1na2vs0mg"},{"bike_id":"8f8ce5a5-a3c1-47ee-b315-d154becbfe4e","system_id":"levelo_inurba_marseille","lat":43.24944,"lon":5.40496,"is_reserved":false,"is_disabled":false,"rental_uris":{"android":"levelo://app?vid=8f8ce5a5-a3c1-47ee-b315-d154becbfe4e","ios":"levelo://app?vid=8f8ce5a5-a3c1-47ee-b315-d154becbfe4e"},"vehicle_type_id":"4","last_reported":1768533703,"current_range_meters":6800,"station_id":"st_d2ngiaodas8pm72gd1h0","pricing_plan_id":"cebpf4jnsgd1na2vs0mg"},{"bike_id":"50f9b102-1935-483f-baee-37effab68bc3","system_id":"levelo_inurba_marseille","lat":43.28597,"lon":5.35131,"is_reserved":false,"is_disabled":false,"rental_uris":{"android":"levelo://app?vid=50f9b102-1935-483f-baee-37effab68bc3","ios":"levelo://app?vid=50f9b102-1935-483f-baee-37effab68bc3"},"vehicle_type_id":"4","last_reported":1768533703,"current_range_meters":6800,"station_id":"ce4bhch2rcd13ifvqeug","pricing_plan_id":"cebpf4jnsgd1na2vs0mg"},{"bike_id":"dfd94ab9-090e-4cfe-b1ef-26962587f0b0","system_id":"levelo_inurba_marseille","lat":43.28351,"lon":5.38091,"is_reserved":false,"is_disabled":false,"rental_uris":{"android":"levelo://app?vid=dfd94ab9-090e-4cfe-b1ef-26962587f0b0","ios":"levelo://app?vid=dfd94ab9-090e-4cfe-b1ef-26962587f0b0"},"vehicle_type_id":"4","last_reported":1768533703,"current_range_meters":6800,"station_id":"ce4bh412rcd13ifvqdr0","pricing_plan_id":"cebpf4jnsgd1na2vs0mg"},{"bike_id":"04445095-b038-41a3-a0ad-fec8f36b4c83","system_id":"levelo_inurba_marseille","lat":43.258242,"lon":5.39439,"is_reserved":false,"is_disabled":false,"rental_uris":{"android":"levelo://app?vid=04445095-b038-41a3-a0ad-fec8f36b4c83","ios":"levelo://app?vid=04445095-b038-41a3-a0ad-fec8f36b4c83"},"vehicle_type_id":"4","last_reported":1768533703,"current_range_meters":6800,"station_id":"ce4bhip2rcd13ifvqft0","pricing_plan_id":"cebpf4jnsgd1na2vs0mg"},{"bike_id":"20696002-54d7-4af6-a1a3-4992415bf5f7","system_id":"levelo_inurba_marseille","lat":43.29632,"lon":5.37618,"is_reserved":false,"is_disabled":false,"rental_uris":{"android":"levelo://app?vid=20696002-54d7-4af6-a1a3-4992415bf5f7","ios":"levelo://app?vid=20696002-54d7-4af6-a1a3-4992415bf5f7"},"vehicle_type_id":"4","last_reported":1768533703,"current_range_meters":6800,"station_id":"","pricing_plan_id":"cebpf4jnsgd1na2vs0mg"},{"bike_id":"f95bc25d-369a-46e5-8408-f3bc217332e3","system_id":"levelo_inurba_marseille","lat":43.30304,"lon":5.39206,"is_reserved":false,"is_disabled":false,"rental_uris":{"android":"levelo://app?vid=f95bc25d-369a-46e5-8408-f3bc217332e3","ios":"levelo://app?vid=f95bc25d-369a-46e5-8408-f3bc217332e3"},"vehicle_type_id":"4","last_reported":1768533703,"current_range_meters":6800,"station_id":"ce4bgkh2rcd13ifvqbk0","pricing_plan_id":"cebpf4jnsgd1na2vs0mg"},{"bike_id":"38dc14f7-db63-4f80-a9d0-2af095707306","system_id":"levelo_inurba_marseille","lat":43.29721,"lon":5.36612,"is_reserved":false,"is_disabled":false,"rental_uris":{"android":"levelo://app?vid=38dc14f7-db63-4f80-a9d0-2af095707306","ios":"levelo://app?vid=38dc14f7-db63-4f80-a9d0-2af095707306"},"vehicle_type_id":"4","last_reported":1768533703,"current_range_meters":6800,"station_id":"ce4bgn12rcd13ifvqbt0","pricing_plan_id":"cebpf4jnsgd1na2vs0mg"},{"bike_id":"0fe23f40-caad-46ad-b558-32f62e0f76ac","system_id":"levelo_inurba_marseille","lat":43.31143,"lon":5.39791,"is_reserved":false,"is_disabled":false,"rental_uris":{"android":"levelo://app?vid=0fe23f40-caad-46ad-b558-32f62e0f76ac","ios":"levelo://app?vid=0fe23f40-caad-46ad-b558-32f62e0f76ac"},"vehicle_type_id":"4","last_reported":1768533703,"current_range_meters":6800,"station_id":"","pricing_plan_id":"cebpf4jnsgd1na2vs0mg"},{"bike_id":"13c7c20f-0feb-4e4c-b067-68cfe4794af8","system_id":"levelo_inurba_marseille","lat":43.28875,"lon":5.38452,"is_reserved":false,"is_disabled":false,"rental_uris":{"android":"levelo://app?vid=13c7c20f-0feb-4e4c-b067-68cfe4794af8","ios":"levelo://app?vid=13c7c20f-0feb-4e4c-b067-68cfe4794af8"},"vehicle_type_id":"4","last_reported":1768533703,"current_range_meters":6800,"station_id":"","pricing_plan_id":"cebpf4jnsgd1na2vs0mg"},{"bike_id":"62af4549-e2a6-40db-986b-86f1b9895a50","system_id":"levelo_inurba_marseille","lat":43.23961,"lon":5.36638,"is_reserved":false,"is_disabled":false,"rental_uris":{"android":"levelo://app?vid=62af4549-e2a6-40db-986b-86f1b9895a50","ios":"levelo://app?vid=62af4549-e2a6-40db-986b-86f1b9895a50"},"vehicle_type_id":"4","last_reported":1768533703,"current_range_meters":6800,"station_id":"ce4bhi12rcd13ifvqfp0","pricing_plan_id":"cebpf4jnsgd1na2vs0mg"},{"bike_id":"d573dea0-84f2-4278-9343-3e80901c823b","system_id":"levelo_inurba_marseille","lat":43.315015,"lon":5.378724,"is_reserved":false,"is_disabled":false,"rental_uris":{"android":"levelo://app?vid=d573dea0-84f2-4278-9343-3e80901c823b","ios":"levelo://app?vid=d573dea0-84f2-4278-9343-3e80901c823b"},"vehicle_type_id":"4","last_reported":1768533703,"current_range_meters":6800,"station_id":"","pricing_plan_id":"cebpf4jnsgd1na2vs0mg"},{"bike_id":"6e28b306-99f5-4ab4-9d0d-bada05e6a2d9","system_id":"levelo_inurba_marseille","lat":43.30326,"lon":5.40437,"is_reserved":false,"is_disabled":false,"rental_uris":{"android":"levelo://app?vid=6e28b306-99f5-4ab4-9d0d-bada05e6a2d9","ios":"levelo://app?vid=6e28b306-99f5-4ab4-9d0d-bada05e6a2d9"},"vehicle_type_id":"4","last_reported":1768533703,"current_range_meters":6800,"station_id":"ce4bh012rcd13ifvqd10","pricing_plan_id":"cebpf4jnsgd1na2vs0mg"},{"bike_id":"42edcef7-d053-4dcf-87f8-e7b7208a7b7d","system_id":"levelo_inurba_marseille","lat":43.31279,"lon":5.40162,"is_reserved":false,"is_disabled":false,"rental_uris":{"android":"levelo://app?vid=42edcef7-d053-4dcf-87f8-e7b7208a7b7d","ios":"levelo://app?vid=42edcef7-d053-4dcf-87f8-e7b7208a7b7d"},"vehicle_type_id":"4","last_reported":1768533703,"current_range_meters":6800,"station_id":"ce4bh092rcd13ifvqd30","pricing_plan_id":"cebpf4jnsgd1na2vs0mg"},{"bike_id":"5379f5ed-da06-4adb-b823-51e71e531df4","system_id":"levelo_inurba_marseille","lat":43.246354,"lon":5.431404,"is_reserved":false,"is_disabled":false,"rental_uris":{"android":"levelo://app?vid=5379f5ed-da06-4adb-b823-51e71e531df4","ios":"levelo://app?vid=5379f5ed-da06-4adb-b823-51e71e531df4"},"vehicle_type_id":"4","last_reported":1768533703,"current_range_meters":6800,"station_id":"st_d2m6c4gdas8pm72e190g","pricing_plan_id":"cebpf4jnsgd1na2vs0mg"},{"bike_id":"90218040-6582-4aa2-8913-05c76010fcbf","system_id":"levelo_inurba_marseille","lat":43.237823,"lon":5.366345,"is_reserved":false,"is_disabled":false,"rental_uris":{"android":"levelo://app?vid=90218040-6582-4aa2-8913-05c76010fcbf","ios":"levelo://app?vid=90218040-6582-4aa2-8913-05c76010fcbf"},"vehicle_type_id":"4","last_reported":1768533703,"current_range_meters":6800,"station_id":"st_d3nk18o9ro0c73en2l3g","pricing_plan_id":"cebpf4jnsgd1na2vs0mg"},{"bike_id":"64a7a91c-8cfd-4d32-8e15-5300e5165697","system_id":"levelo_inurba_marseille","lat":43.31175,"lon":5.387,"is_reserved":false,"is_disabled":false,"rental_uris":{"android":"levelo://app?vid=64a7a91c-8cfd-4d32-8e15-5300e5165697","ios":"levelo://app?vid=64a7a91c-8cfd-4d32-8e15-5300e5165697"},"vehicle_type_id":"4","last_reported":1768533703,"current_range_meters":7200,"station_id":"ce4bgv12rcd13ifvqcp0","pricing_plan_id":"cebpf4jnsgd1na2vs0mg"},{"bike_id":"8ac29141-6985-4b16-8504-2238bb54b54a","system_id":"levelo_inurba_marseille","lat":43.243916,"lon":5.370563,"is_reserved":false,"is_disabled":false,"rental_uris":{"android":"levelo://app?vid=8ac29141-6985-4b16-8504-2238bb54b54a","ios":"levelo://app?vid=8ac29141-6985-4b16-8504-2238bb54b54a"},"vehicle_type_id":"4","last_reported":1768533703,"current_range_meters":7200,"station_id":"ce4bhhh2rcd13ifvqfk0","pricing_plan_id":"cebpf4jnsgd1na2vs0mg"},{"bike_id":"9798252a-9361-46ce-9695-59458b1329bc","system_id":"levelo_inurba_marseille","lat":43.23186,"lon":5.35555,"is_reserved":false,"is_disabled":false,"rental_uris":{"android":"levelo://app?vid=9798252a-9361-46ce-9695-59458b1329bc","ios":"levelo://app?vid=9798252a-9361-46ce-9695-59458b1329bc"},"vehicle_type_id":"4","last_reported":1768533703,"current_range_meters":7200,"station_id":"ce4bhu92rcd13ifvqi70","pricing_plan_id":"cebpf4jnsgd1na2vs0mg"},{"bike_id":"d10c0024-e2ec-401f-bf30-95042a990a73","system_id":"levelo_inurba_marseille","lat":43.28162,"lon":5.42646,"is_reserved":false,"is_disabled":false,"rental_uris":{"android":"levelo://app?vid=d10c0024-e2ec-401f-bf30-95042a990a73","ios":"levelo://app?vid=d10c0024-e2ec-401f-bf30-95042a990a73"},"vehicle_type_id":"4","last_reported":1768533703,"current_range_meters":7200,"station_id":"ce4bhnh2rcd13ifvqgug","pricing_plan_id":"cebpf4jnsgd1na2vs0mg"},{"bike_id":"011f3f90-1b10-486a-8955-76f8d5a49d25","system_id":"levelo_inurba_marseille","lat":43.27945,"lon":5.43603,"is_reserved":false,"is_disabled":false,"rental_uris":{"android":"levelo://app?vid=011f3f90-1b10-486a-8955-76f8d5a49d25","ios":"levelo://app?vid=011f3f90-1b10-486a-8955-76f8d5a49d25"},"vehicle_type_id":"4","last_reported":1768533703,"current_range_meters":7200,"station_id":"","pricing_plan_id":"cebpf4jnsgd1na2vs0mg"},{"bike_id":"a6efb7b3-8c44-4a6c-92e4-ed7eb57f41e2","system_id":"levelo_inurba_marseille","lat":43.28437,"lon":5.36776,"is_reserved":false,"is_disabled":false,"rental_uris":{"android":"levelo://app?vid=a6efb7b3-8c44-4a6c-92e4-ed7eb57f41e2","ios":"levelo://app?vid=a6efb7b3-8c44-4a6c-92e4-ed7eb57f41e2"},"vehicle_type_id":"4","last_reported":1768533703,"current_range_meters":7200,"station_id":"","pricing_plan_id":"cebpf4jnsgd1na2vs0mg"},{"bike_id":"c242e646-f282-457f-a670-771ea65dbddf","system_id":"levelo_inurba_marseille","lat":43.32092,"lon":5.36769,"is_reserved":false,"is_disabled":false,"rental_uris":{"android":"levelo://app?vid=c242e646-f282-457f-a670-771ea65dbddf","ios":"levelo://app?vid=c242e646-f282-457f-a670-771ea65dbddf"},"vehicle_type_id":"4","last_reported":1768533703,"current_range_meters":7200,"station_id":"ce4bhrh2rcd13ifvqhug","pricing_plan_id":"cebpf4jnsgd1na2vs0mg"},{"bike_id":"f705d4ec-f983-4b55-850e-d39fda221ff5","system_id":"levelo_inurba_marseille","lat":43.29021,"lon":5.35628,"is_reserved":false,"is_disabled":false,"rental_uris":{"android":"levelo://app?vid=f705d4ec-f983-4b55-850e-d39fda221ff5","ios":"levelo://app?vid=f705d4ec-f983-4b55-850e-d39fda221ff5"},"vehicle_type_id":"4","last_reported":1768533703,"current_range_meters":7200,"station_id":"ce4bhb92rcd13ifvqen0","pricing_plan_id":"cebpf4jnsgd1na2vs0mg"},{"bike_id":"ceb127dd-c990-4e84-9bd5-10a36add8b4c","system_id":"levelo_inurba_marseille","lat":43.27982,"lon":5.40042,"is_reserved":false,"is_disabled":false,"rental_uris":{"android":"levelo://app?vid=ceb127dd-c990-4e84-9bd5-10a36add8b4c","ios":"levelo://app?vid=ceb127dd-c990-4e84-9bd5-10a36add8b4c"},"vehicle_type_id":"4","last_reported":1768533703,"current_range_meters":7200,"station_id":"ce4bho92rcd13ifvqh4g","pricing_plan_id":"cebpf4jnsgd1na2vs0mg"},{"bike_id":"753ccbc1-bc1b-4429-8a43-0dcf4c26b7fc","system_id":"levelo_inurba_marseille","lat":43.33168,"lon":5.37681,"is_reserved":false,"is_disabled":false,"rental_uris":{"android":"levelo://app?vid=753ccbc1-bc1b-4429-8a43-0dcf4c26b7fc","ios":"levelo://app?vid=753ccbc1-bc1b-4429-8a43-0dcf4c26b7fc"},"vehicle_type_id":"4","last_reported":1768533703,"current_range_meters":7200,"station_id":"st_d46cu089ee8s73dldbu0","pricing_plan_id":"cebpf4jnsgd1na2vs0mg"},{"bike_id":"0aaffd21-6317-47b2-85da-6b9bfa421a46","system_id":"levelo_inurba_marseille","lat":43.29824,"lon":5.37664,"is_reserved":false,"is_disabled":false,"rental_uris":{"android":"levelo://app?vid=0aaffd21-6317-47b2-85da-6b9bfa421a46","ios":"levelo://app?vid=0aaffd21-6317-47b2-85da-6b9bfa421a46"},"vehicle_type_id":"4","last_reported":1768533703,"current_range_meters":7200,"station_id":"","pricing_plan_id":"cebpf4jnsgd1na2vs0mg"},{"bike_id":"980d7ebb-418f-4873-8f03-823736355ef5","system_id":"levelo_inurba_marseille","lat":43.25737,"lon":5.41063,"is_reserved":false,"is_disabled":false,"rental_uris":{"android":"levelo://app?vid=980d7ebb-418f-4873-8f03-823736355ef5","ios":"levelo://app?vid=980d7ebb-418f-4873-8f03-823736355ef5"},"vehicle_type_id":"4","last_reported":1768533703,"current_range_meters":7200,"station_id":"ce4bhkp2rcd13ifvqgd0","pricing_plan_id":"cebpf4jnsgd1na2vs0mg"},{"bike_id":"8a9c8e19-0485-48d1-8b64-257ddb3efc73","system_id":"levelo_inurba_marseille","lat":43.29908,"lon":5.37455,"is_reserved":false,"is_disabled":false,"rental_uris":{"android":"levelo://app?vid=8a9c8e19-0485-48d1-8b64-257ddb3efc73","ios":"levelo://app?vid=8a9c8e19-0485-48d1-8b64-257ddb3efc73"},"vehicle_type_id":"4","last_reported":1768533703,"current_range_meters":7200,"station_id":"ce4bgjh2rcd13ifvqbg0","pricing_plan_id":"cebpf4jnsgd1na2vs0mg"},{"bike_id":"436eadf7-ff16-4732-946c-e33568d77044","system_id":"levelo_inurba_marseille","lat":43.278151,"lon":5.4072,"is_reserved":false,"is_disabled":false,"rental_uris":{"android":"levelo://app?vid=436eadf7-ff16-4732-946c-e33568d77044","ios":"levelo://app?vid=436eadf7-ff16-4732-946c-e33568d77044"},"vehicle_type_id":"4","last_reported":1768533703,"current_range_meters":7200,"station_id":"ce4bhnh2rcd13ifvqgtg","pricing_plan_id":"cebpf4jnsgd1na2vs0mg"},{"bike_id":"0ce3cc02-2962-4286-804f-4dc1590de945","system_id":"levelo_inurba_marseille","lat":43.25578,"lon":5.38228,"is_reserved":false,"is_disabled":false,"rental_uris":{"android":"levelo://app?vid=0ce3cc02-2962-4286-804f-4dc1590de945","ios":"levelo://app?vid=0ce3cc02-2962-4286-804f-4dc1590de945"},"vehicle_type_id":"4","last_reported":1768533703,"current_range_meters":7200,"station_id":"ce4bhih2rcd13ifvqfs0","pricing_plan_id":"cebpf4jnsgd1na2vs0mg"},{"bike_id":"3b06d8ac-0c0e-4815-baae-3f6b7bfae72e","system_id":"levelo_inurba_marseille","lat":43.34158,"lon":5.36033,"is_reserved":false,"is_disabled":false,"rental_uris":{"android":"levelo://app?vid=3b06d8ac-0c0e-4815-baae-3f6b7bfae72e","ios":"levelo://app?vid=3b06d8ac-0c0e-4815-baae-3f6b7bfae72e"},"vehicle_type_id":"4","last_reported":1768533703,"current_range_meters":7200,"station_id":"","pricing_plan_id":"cebpf4jnsgd1na2vs0mg"},{"bike_id":"e80cd4b9-49c2-4c4e-8725-62995e08c2ff","system_id":"levelo_inurba_marseille","lat":43.27803,"lon":5.40726,"is_reserved":false,"is_disabled":false,"rental_uris":{"android":"levelo://app?vid=e80cd4b9-49c2-4c4e-8725-62995e08c2ff","ios":"levelo://app?vid=e80cd4b9-49c2-4c4e-8725-62995e08c2ff"},"vehicle_type_id":"4","last_reported":1768533703,"current_range_meters":7200,"station_id":"ce4bhnh2rcd13ifvqgtg","pricing_plan_id":"cebpf4jnsgd1na2vs0mg"},{"bike_id":"24b13bde-24a6-4a9e-8d0f-a64c87085dc9","system_id":"levelo_inurba_marseille","lat":43.29905,"lon":5.38291,"is_reserved":false,"is_disabled":false,"rental_uris":{"android":"levelo://app?vid=24b13bde-24a6-4a9e-8d0f-a64c87085dc9","ios":"levelo://app?vid=24b13bde-24a6-4a9e-8d0f-a64c87085dc9"},"vehicle_type_id":"4","last_reported":1768533703,"current_range_meters":7200,"station_id":"","pricing_plan_id":"cebpf4jnsgd1na2vs0mg"},{"bike_id":"f546a598-b504-471e-9b6d-f4786269b128","system_id":"levelo_inurba_marseille","lat":43.25198,"lon":5.38042,"is_reserved":false,"is_disabled":false,"rental_uris":{"android":"levelo://app?vid=f546a598-b504-471e-9b6d-f4786269b128","ios":"levelo://app?vid=f546a598-b504-471e-9b6d-f4786269b128"},"vehicle_type_id":"4","last_reported":1768533703,"current_range_meters":7200,"station_id":"","pricing_plan_id":"cebpf4jnsgd1na2vs0mg"},{"bike_id":"7465de0c-3252-438c-a1d0-10a150ee4d72","system_id":"levelo_inurba_marseille","lat":43.22935,"lon":5.35382,"is_reserved":false,"is_disabled":false,"rental_uris":{"android":"levelo://app?vid=7465de0c-3252-438c-a1d0-10a150ee4d72","ios":"levelo://app?vid=7465de0c-3252-438c-a1d0-10a150ee4d72"},"vehicle_type_id":"4","last_reported":1768533703,"current_range_meters":7200,"station_id":"cpo3532slgdg3j2ikp40","pricing_plan_id":"cebpf4jnsgd1na2vs0mg"},{"bike_id":"3099f960-1c34-458f-b80c-c4ab139b774a","system_id":"levelo_inurba_marseille","lat":43.2535,"lon":5.42171,"is_reserved":false,"is_disabled":false,"rental_uris":{"android":"levelo://app?vid=3099f960-1c34-458f-b80c-c4ab139b774a","ios":"levelo://app?vid=3099f960-1c34-458f-b80c-c4ab139b774a"},"vehicle_type_id":"4","last_reported":1768533703,"current_range_meters":8000,"station_id":"st_d2m65c5bi1j21697t3ng","pricing_plan_id":"cebpf4jnsgd1na2vs0mg"},{"bike_id":"1fbf11d0-f681-485a-a697-105e4d30495f","system_id":"levelo_inurba_marseille","lat":43.2887,"lon":5.42529,"is_reserved":false,"is_disabled":false,"rental_uris":{"android":"levelo://app?vid=1fbf11d0-f681-485a-a697-105e4d30495f","ios":"levelo://app?vid=1fbf11d0-f681-485a-a697-105e4d30495f"},"vehicle_type_id":"4","last_reported":1768533703,"current_range_meters":8000,"station_id":"st_d3b462108ojc7389ooeg","pricing_plan_id":"cebpf4jnsgd1na2vs0mg"},{"bike_id":"d232944c-9760-43bc-beb3-acf611cdb292","system_id":"levelo_inurba_marseille","lat":43.29932,"lon":5.38277,"is_reserved":false,"is_disabled":false,"rental_uris":{"android":"levelo://app?vid=d232944c-9760-43bc-beb3-acf611cdb292","ios":"levelo://app?vid=d232944c-9760-43bc-beb3-acf611cdb292"},"vehicle_type_id":"4","last_reported":1768533703,"current_range_meters":8000,"station_id":"","pricing_plan_id":"cebpf4jnsgd1na2vs0mg"},{"bike_id":"f453663f-1a0f-42e4-b339-7ae16233dc9e","system_id":"levelo_inurba_marseille","lat":43.255844,"lon":5.382314,"is_reserved":false,"is_disabled":false,"rental_uris":{"android":"levelo://app?vid=f453663f-1a0f-42e4-b339-7ae16233dc9e","ios":"levelo://app?vid=f453663f-1a0f-42e4-b339-7ae16233dc9e"},"vehicle_type_id":"4","last_reported":1768533703,"current_range_meters":8000,"station_id":"ce4bhih2rcd13ifvqfs0","pricing_plan_id":"cebpf4jnsgd1na2vs0mg"},{"bike_id":"6a18159c-bda5-48a5-b3af-72f45cbffd91","system_id":"levelo_inurba_marseille","lat":43.28935,"lon":5.36617,"is_reserved":false,"is_disabled":false,"rental_uris":{"android":"levelo://app?vid=6a18159c-bda5-48a5-b3af-72f45cbffd91","ios":"levelo://app?vid=6a18159c-bda5-48a5-b3af-72f45cbffd91"},"vehicle_type_id":"4","last_reported":1768533703,"current_range_meters":8000,"station_id":"ce4bhap2rcd13ifvqek0","pricing_plan_id":"cebpf4jnsgd1na2vs0mg"},{"bike_id":"38c3b80e-0308-46b2-9a29-2654b96d87d9","system_id":"levelo_inurba_marseille","lat":43.299639,"lon":5.373401,"is_reserved":false,"is_disabled":false,"rental_uris":{"android":"levelo://app?vid=38c3b80e-0308-46b2-9a29-2654b96d87d9","ios":"levelo://app?vid=38c3b80e-0308-46b2-9a29-2654b96d87d9"},"vehicle_type_id":"4","last_reported":1768533703,"current_range_meters":8000,"station_id":"","pricing_plan_id":"cebpf4jnsgd1na2vs0mg"},{"bike_id":"8875f8cc-07a8-40ca-92de-9f4ce77fad56","system_id":"levelo_inurba_marseille","lat":43.28447,"lon":5.38655,"is_reserved":false,"is_disabled":false,"rental_uris":{"android":"levelo://app?vid=8875f8cc-07a8-40ca-92de-9f4ce77fad56","ios":"levelo://app?vid=8875f8cc-07a8-40ca-92de-9f4ce77fad56"},"vehicle_type_id":"4","last_reported":1768533703,"current_range_meters":8000,"station_id":"","pricing_plan_id":"cebpf4jnsgd1na2vs0mg"},{"bike_id":"9a9b2bc4-da1d-486c-9841-71aaa3b7d7d5","system_id":"levelo_inurba_marseille","lat":43.29877,"lon":5.39731,"is_reserved":false,"is_disabled":false,"rental_uris":{"android":"levelo://app?vid=9a9b2bc4-da1d-486c-9841-71aaa3b7d7d5","ios":"levelo://app?vid=9a9b2bc4-da1d-486c-9841-71aaa3b7d7d5"},"vehicle_type_id":"4","last_reported":1768533703,"current_range_meters":8000,"station_id":"ce4bh0h2rcd13ifvqd50","pricing_plan_id":"cebpf4jnsgd1na2vs0mg"},{"bike_id":"43085e97-bd39-4f04-8674-dbf58180d19b","system_id":"levelo_inurba_marseille","lat":43.30891,"lon":5.3964,"is_reserved":false,"is_disabled":false,"rental_uris":{"android":"levelo://app?vid=43085e97-bd39-4f04-8674-dbf58180d19b","ios":"levelo://app?vid=43085e97-bd39-4f04-8674-dbf58180d19b"},"vehicle_type_id":"4","last_reported":1768533703,"current_range_meters":8000,"station_id":"ce4bh012rcd13ifvqcv0","pricing_plan_id":"cebpf4jnsgd1na2vs0mg"},{"bike_id":"dcba5e0d-8e79-44d0-8827-5e7dfb547664","system_id":"levelo_inurba_marseille","lat":43.28538,"lon":5.44106,"is_reserved":false,"is_disabled":false,"rental_uris":{"android":"levelo://app?vid=dcba5e0d-8e79-44d0-8827-5e7dfb547664","ios":"levelo://app?vid=dcba5e0d-8e79-44d0-8827-5e7dfb547664"},"vehicle_type_id":"4","last_reported":1768533703,"current_range_meters":8000,"station_id":"st_d3j3df2ikq2c7380ej80","pricing_plan_id":"cebpf4jnsgd1na2vs0mg"},{"bike_id":"82b87168-267f-432c-a609-70f7b40ac901","system_id":"levelo_inurba_marseille","lat":43.27712,"lon":5.40788,"is_reserved":false,"is_disabled":false,"rental_uris":{"android":"levelo://app?vid=82b87168-267f-432c-a609-70f7b40ac901","ios":"levelo://app?vid=82b87168-267f-432c-a609-70f7b40ac901"},"vehicle_type_id":"4","last_reported":1768533703,"current_range_meters":8000,"station_id":"","pricing_plan_id":"cebpf4jnsgd1na2vs0mg"},{"bike_id":"48aeaab0-6b80-4b7a-a472-f0414a5d3089","system_id":"levelo_inurba_marseille","lat":43.29779,"lon":5.37082,"is_reserved":false,"is_disabled":false,"rental_uris":{"android":"levelo://app?vid=48aeaab0-6b80-4b7a-a472-f0414a5d3089","ios":"levelo://app?vid=48aeaab0-6b80-4b7a-a472-f0414a5d3089"},"vehicle_type_id":"4","last_reported":1768533703,"current_range_meters":8000,"station_id":"ce4bgop2rcd13ifvqc1g","pricing_plan_id":"cebpf4jnsgd1na2vs0mg"},{"bike_id":"ca4179ba-d96b-437c-ae35-312b23a32116","system_id":"levelo_inurba_marseille","lat":43.255729,"lon":5.382286,"is_reserved":false,"is_disabled":false,"rental_uris":{"android":"levelo://app?vid=ca4179ba-d96b-437c-ae35-312b23a32116","ios":"levelo://app?vid=ca4179ba-d96b-437c-ae35-312b23a32116"},"vehicle_type_id":"4","last_reported":1768533703,"current_range_meters":8000,"station_id":"ce4bhih2rcd13ifvqfs0","pricing_plan_id":"cebpf4jnsgd1na2vs0mg"},{"bike_id":"711317a0-0fc3-4fdd-8536-0b61be8a41ac","system_id":"levelo_inurba_marseille","lat":43.28561,"lon":5.39481,"is_reserved":false,"is_disabled":false,"rental_uris":{"android":"levelo://app?vid=711317a0-0fc3-4fdd-8536-0b61be8a41ac","ios":"levelo://app?vid=711317a0-0fc3-4fdd-8536-0b61be8a41ac"},"vehicle_type_id":"4","last_reported":1768533703,"current_range_meters":8000,"station_id":"ce4bh292rcd13ifvqdg0","pricing_plan_id":"cebpf4jnsgd1na2vs0mg"},{"bike_id":"7a86726c-97ed-4911-a6e7-fec95faf1904","system_id":"levelo_inurba_marseille","lat":43.29771,"lon":5.4278,"is_reserved":false,"is_disabled":false,"rental_uris":{"android":"levelo://app?vid=7a86726c-97ed-4911-a6e7-fec95faf1904","ios":"levelo://app?vid=7a86726c-97ed-4911-a6e7-fec95faf1904"},"vehicle_type_id":"4","last_reported":1768533703,"current_range_meters":8000,"station_id":"st_d3md5207bmas73dh9klg","pricing_plan_id":"cebpf4jnsgd1na2vs0mg"},{"bike_id":"bba9e660-d3c4-4fb7-89b1-c9c59c43e626","system_id":"levelo_inurba_marseille","lat":43.27383,"lon":5.36257,"is_reserved":false,"is_disabled":false,"rental_uris":{"android":"levelo://app?vid=bba9e660-d3c4-4fb7-89b1-c9c59c43e626","ios":"levelo://app?vid=bba9e660-d3c4-4fb7-89b1-c9c59c43e626"},"vehicle_type_id":"4","last_reported":1768533703,"current_range_meters":8000,"station_id":"ce4bhbh2rcd13ifvqeo0","pricing_plan_id":"cebpf4jnsgd1na2vs0mg"},{"bike_id":"d1805c87-7d55-4894-a045-33ab135b26bb","system_id":"levelo_inurba_marseille","lat":43.3014,"lon":5.37422,"is_reserved":false,"is_disabled":false,"rental_uris":{"android":"levelo://app?vid=d1805c87-7d55-4894-a045-33ab135b26bb","ios":"levelo://app?vid=d1805c87-7d55-4894-a045-33ab135b26bb"},"vehicle_type_id":"4","last_reported":1768533703,"current_range_meters":8000,"station_id":"ce4bgs92rcd13ifvqcc0","pricing_plan_id":"cebpf4jnsgd1na2vs0mg"},{"bike_id":"2feea6da-16f8-4530-b8c8-54959725e67d","system_id":"levelo_inurba_marseille","lat":43.24811,"lon":5.37465,"is_reserved":false,"is_disabled":false,"rental_uris":{"android":"levelo://app?vid=2feea6da-16f8-4530-b8c8-54959725e67d","ios":"levelo://app?vid=2feea6da-16f8-4530-b8c8-54959725e67d"},"vehicle_type_id":"4","last_reported":1768533703,"current_range_meters":8000,"station_id":"ce4bhgh2rcd13ifvqfb0","pricing_plan_id":"cebpf4jnsgd1na2vs0mg"},{"bike_id":"92b20429-6623-46c3-a270-a0b9560c909c","system_id":"levelo_inurba_marseille","lat":43.297652,"lon":5.37099,"is_reserved":false,"is_disabled":false,"rental_uris":{"android":"levelo://app?vid=92b20429-6623-46c3-a270-a0b9560c909c","ios":"levelo://app?vid=92b20429-6623-46c3-a270-a0b9560c909c"},"vehicle_type_id":"4","last_reported":1768533703,"current_range_meters":8000,"station_id":"ce4bgop2rcd13ifvqc1g","pricing_plan_id":"cebpf4jnsgd1na2vs0mg"},{"bike_id":"633241f7-f589-4b5e-b00a-272be3b1d076","system_id":"levelo_inurba_marseille","lat":43.26212,"lon":5.40307,"is_reserved":false,"is_disabled":false,"rental_uris":{"android":"levelo://app?vid=633241f7-f589-4b5e-b00a-272be3b1d076","ios":"levelo://app?vid=633241f7-f589-4b5e-b00a-272be3b1d076"},"vehicle_type_id":"4","last_reported":1768533703,"current_range_meters":8000,"station_id":"","pricing_plan_id":"cebpf4jnsgd1na2vs0mg"},{"bike_id":"1b055412-806e-48f1-925c-445a01fdb3fe","system_id":"levelo_inurba_marseille","lat":43.29181,"lon":5.38616,"is_reserved":false,"is_disabled":false,"rental_uris":{"android":"levelo://app?vid=1b055412-806e-48f1-925c-445a01fdb3fe","ios":"levelo://app?vid=1b055412-806e-48f1-925c-445a01fdb3fe"},"vehicle_type_id":"4","last_reported":1768533703,"current_range_meters":8000,"station_id":"","pricing_plan_id":"cebpf4jnsgd1na2vs0mg"},{"bike_id":"a81f4be5-66c7-43ef-82aa-6c2ab0b53977","system_id":"levelo_inurba_marseille","lat":43.31314,"lon":5.39704,"is_reserved":false,"is_disabled":false,"rental_uris":{"android":"levelo://app?vid=a81f4be5-66c7-43ef-82aa-6c2ab0b53977","ios":"levelo://app?vid=a81f4be5-66c7-43ef-82aa-6c2ab0b53977"},"vehicle_type_id":"4","last_reported":1768533703,"current_range_meters":8000,"station_id":"ce4bgvp2rcd13ifvqcu0","pricing_plan_id":"cebpf4jnsgd1na2vs0mg"},{"bike_id":"8782c85b-4cd2-4d16-816f-ea9c0e380452","system_id":"levelo_inurba_marseille","lat":43.2807,"lon":5.40449,"is_reserved":false,"is_disabled":false,"rental_uris":{"android":"levelo://app?vid=8782c85b-4cd2-4d16-816f-ea9c0e380452","ios":"levelo://app?vid=8782c85b-4cd2-4d16-816f-ea9c0e380452"},"vehicle_type_id":"4","last_reported":1768533703,"current_range_meters":8000,"station_id":"","pricing_plan_id":"cebpf4jnsgd1na2vs0mg"},{"bike_id":"6abf8a46-f540-4848-8617-65edd2aabe92","system_id":"levelo_inurba_marseille","lat":43.317609,"lon":5.397468,"is_reserved":false,"is_disabled":false,"rental_uris":{"android":"levelo://app?vid=6abf8a46-f540-4848-8617-65edd2aabe92","ios":"levelo://app?vid=6abf8a46-f540-4848-8617-65edd2aabe92"},"vehicle_type_id":"4","last_reported":1768533703,"current_range_meters":8000,"station_id":"","pricing_plan_id":"cebpf4jnsgd1na2vs0mg"},{"bike_id":"ee672d40-ee79-42d9-af0c-79cb82e61958","system_id":"levelo_inurba_marseille","lat":43.285353,"lon":5.441031,"is_reserved":false,"is_disabled":false,"rental_uris":{"android":"levelo://app?vid=ee672d40-ee79-42d9-af0c-79cb82e61958","ios":"levelo://app?vid=ee672d40-ee79-42d9-af0c-79cb82e61958"},"vehicle_type_id":"4","last_reported":1768533703,"current_range_meters":8000,"station_id":"st_d3j3df2ikq2c7380ej80","pricing_plan_id":"cebpf4jnsgd1na2vs0mg"},{"bike_id":"6591b97e-2de1-4ffb-a6c8-26f52512dce1","system_id":"levelo_inurba_marseille","lat":43.30412,"lon":5.4119,"is_reserved":false,"is_disabled":false,"rental_uris":{"android":"levelo://app?vid=6591b97e-2de1-4ffb-a6c8-26f52512dce1","ios":"levelo://app?vid=6591b97e-2de1-4ffb-a6c8-26f52512dce1"},"vehicle_type_id":"4","last_reported":1768533703,"current_range_meters":8000,"station_id":"","pricing_plan_id":"cebpf4jnsgd1na2vs0mg"},{"bike_id":"2a127f4a-92a1-4c20-a5f2-8feed33d8339","system_id":"levelo_inurba_marseille","lat":43.32481,"lon":5.36572,"is_reserved":false,"is_disabled":false,"rental_uris":{"android":"levelo://app?vid=2a127f4a-92a1-4c20-a5f2-8feed33d8339","ios":"levelo://app?vid=2a127f4a-92a1-4c20-a5f2-8feed33d8339"},"vehicle_type_id":"4","last_reported":1768533703,"current_range_meters":8000,"station_id":"ce4bhs12rcd13ifvqhvg","pricing_plan_id":"cebpf4jnsgd1na2vs0mg"},{"bike_id":"134e8e3b-f15c-4a0c-aafc-a6fac2184e35","system_id":"levelo_inurba_marseille","lat":43.294845,"lon":5.433021,"is_reserved":false,"is_disabled":false,"rental_uris":{"android":"levelo://app?vid=134e8e3b-f15c-4a0c-aafc-a6fac2184e35","ios":"levelo://app?vid=134e8e3b-f15c-4a0c-aafc-a6fac2184e35"},"vehicle_type_id":"4","last_reported":1768533703,"current_range_meters":8000,"station_id":"st_d3j5ugp08ojc73fj9d10","pricing_plan_id":"cebpf4jnsgd1na2vs0mg"},{"bike_id":"384a614a-39a6-4322-867a-48ac10a96260","system_id":"levelo_inurba_marseille","lat":43.281658,"lon":5.426587,"is_reserved":false,"is_disabled":false,"rental_uris":{"android":"levelo://app?vid=384a614a-39a6-4322-867a-48ac10a96260","ios":"levelo://app?vid=384a614a-39a6-4322-867a-48ac10a96260"},"vehicle_type_id":"4","last_reported":1768533703,"current_range_meters":8000,"station_id":"ce4bhnh2rcd13ifvqgug","pricing_plan_id":"cebpf4jnsgd1na2vs0mg"},{"bike_id":"2f7f4281-242b-4891-a2c9-adef4e3fca9e","system_id":"levelo_inurba_marseille","lat":43.24091,"lon":5.37799,"is_reserved":false,"is_disabled":false,"rental_uris":{"android":"levelo://app?vid=2f7f4281-242b-4891-a2c9-adef4e3fca9e","ios":"levelo://app?vid=2f7f4281-242b-4891-a2c9-adef4e3fca9e"},"vehicle_type_id":"4","last_reported":1768533703,"current_range_meters":8400,"station_id":"ce4bhnp2rcd13ifvqgvg","pricing_plan_id":"cebpf4jnsgd1na2vs0mg"},{"bike_id":"627e5e4e-322b-49e8-be53-e7b0ef4c2eda","system_id":"levelo_inurba_marseille","lat":43.2559,"lon":5.38231,"is_reserved":false,"is_disabled":false,"rental_uris":{"android":"levelo://app?vid=627e5e4e-322b-49e8-be53-e7b0ef4c2eda","ios":"levelo://app?vid=627e5e4e-322b-49e8-be53-e7b0ef4c2eda"},"vehicle_type_id":"4","last_reported":1768533703,"current_range_meters":8400,"station_id":"ce4bhih2rcd13ifvqfs0","pricing_plan_id":"cebpf4jnsgd1na2vs0mg"},{"bike_id":"7d22d8e5-d57e-4b04-a7cf-16fd5f512cbc","system_id":"levelo_inurba_marseille","lat":43.270673,"lon":5.383048,"is_reserved":false,"is_disabled":false,"rental_uris":{"android":"levelo://app?vid=7d22d8e5-d57e-4b04-a7cf-16fd5f512cbc","ios":"levelo://app?vid=7d22d8e5-d57e-4b04-a7cf-16fd5f512cbc"},"vehicle_type_id":"4","last_reported":1768533703,"current_range_meters":8400,"station_id":"st_d3n2fo6cfp8s73cte1j0","pricing_plan_id":"cebpf4jnsgd1na2vs0mg"},{"bike_id":"9dd4cee1-6e9f-4b21-8c2a-6186c33cbfd1","system_id":"levelo_inurba_marseille","lat":43.327542,"lon":5.392294,"is_reserved":false,"is_disabled":false,"rental_uris":{"android":"levelo://app?vid=9dd4cee1-6e9f-4b21-8c2a-6186c33cbfd1","ios":"levelo://app?vid=9dd4cee1-6e9f-4b21-8c2a-6186c33cbfd1"},"vehicle_type_id":"4","last_reported":1768533703,"current_range_meters":8400,"station_id":"","pricing_plan_id":"cebpf4jnsgd1na2vs0mg"},{"bike_id":"a8bdd6a5-2050-4a4f-a20e-af94da53b1ee","system_id":"levelo_inurba_marseille","lat":43.2482,"lon":5.37442,"is_reserved":false,"is_disabled":false,"rental_uris":{"android":"levelo://app?vid=a8bdd6a5-2050-4a4f-a20e-af94da53b1ee","ios":"levelo://app?vid=a8bdd6a5-2050-4a4f-a20e-af94da53b1ee"},"vehicle_type_id":"4","last_reported":1768533703,"current_range_meters":8400,"station_id":"ce4bhgh2rcd13ifvqfb0","pricing_plan_id":"cebpf4jnsgd1na2vs0mg"},{"bike_id":"77d0c798-6e49-4853-a8d4-fd8cd6d12748","system_id":"levelo_inurba_marseille","lat":43.26572,"lon":5.39008,"is_reserved":false,"is_disabled":false,"rental_uris":{"android":"levelo://app?vid=77d0c798-6e49-4853-a8d4-fd8cd6d12748","ios":"levelo://app?vid=77d0c798-6e49-4853-a8d4-fd8cd6d12748"},"vehicle_type_id":"4","last_reported":1768533703,"current_range_meters":8400,"station_id":"ce4bhe12rcd13ifvqf30","pricing_plan_id":"cebpf4jnsgd1na2vs0mg"},{"bike_id":"ca58f5b6-e381-495f-9a57-ed56b58464a3","system_id":"levelo_inurba_marseille","lat":43.23964,"lon":5.36626,"is_reserved":false,"is_disabled":false,"rental_uris":{"android":"levelo://app?vid=ca58f5b6-e381-495f-9a57-ed56b58464a3","ios":"levelo://app?vid=ca58f5b6-e381-495f-9a57-ed56b58464a3"},"vehicle_type_id":"4","last_reported":1768533703,"current_range_meters":8400,"station_id":"ce4bhi12rcd13ifvqfp0","pricing_plan_id":"cebpf4jnsgd1na2vs0mg"},{"bike_id":"89d9cd06-54be-44ac-b8c9-f576dccb8768","system_id":"levelo_inurba_marseille","lat":43.250005,"lon":5.389273,"is_reserved":false,"is_disabled":false,"rental_uris":{"android":"levelo://app?vid=89d9cd06-54be-44ac-b8c9-f576dccb8768","ios":"levelo://app?vid=89d9cd06-54be-44ac-b8c9-f576dccb8768"},"vehicle_type_id":"4","last_reported":1768533703,"current_range_meters":8400,"station_id":"ce4bhgp2rcd13ifvqfd0","pricing_plan_id":"cebpf4jnsgd1na2vs0mg"},{"bike_id":"4a5d21d6-a93d-4652-b436-cbcbd93fd3dd","system_id":"levelo_inurba_marseille","lat":43.291892,"lon":5.358126,"is_reserved":false,"is_disabled":false,"rental_uris":{"android":"levelo://app?vid=4a5d21d6-a93d-4652-b436-cbcbd93fd3dd","ios":"levelo://app?vid=4a5d21d6-a93d-4652-b436-cbcbd93fd3dd"},"vehicle_type_id":"4","last_reported":1768533703,"current_range_meters":8400,"station_id":"ce4bhb12rcd13ifvqel0","pricing_plan_id":"cebpf4jnsgd1na2vs0mg"},{"bike_id":"eb8b07db-8b2e-4767-8419-cc778a75c2ae","system_id":"levelo_inurba_marseille","lat":43.291925,"lon":5.393146,"is_reserved":false,"is_disabled":false,"rental_uris":{"android":"levelo://app?vid=eb8b07db-8b2e-4767-8419-cc778a75c2ae","ios":"levelo://app?vid=eb8b07db-8b2e-4767-8419-cc778a75c2ae"},"vehicle_type_id":"4","last_reported":1768533703,"current_range_meters":8400,"station_id":"ce4bh192rcd13ifvqdd0","pricing_plan_id":"cebpf4jnsgd1na2vs0mg"},{"bike_id":"4c76e413-f964-439e-b2ed-77cbfd887213","system_id":"levelo_inurba_marseille","lat":43.28856,"lon":5.42518,"is_reserved":false,"is_disabled":false,"rental_uris":{"android":"levelo://app?vid=4c76e413-f964-439e-b2ed-77cbfd887213","ios":"levelo://app?vid=4c76e413-f964-439e-b2ed-77cbfd887213"},"vehicle_type_id":"4","last_reported":1768533703,"current_range_meters":8400,"station_id":"st_d3b462108ojc7389ooeg","pricing_plan_id":"cebpf4jnsgd1na2vs0mg"},{"bike_id":"bc625143-076d-413f-880b-c33b1491f456","system_id":"levelo_inurba_marseille","lat":43.23963,"lon":5.36641,"is_reserved":false,"is_disabled":false,"rental_uris":{"android":"levelo://app?vid=bc625143-076d-413f-880b-c33b1491f456","ios":"levelo://app?vid=bc625143-076d-413f-880b-c33b1491f456"},"vehicle_type_id":"4","last_reported":1768533703,"current_range_meters":8400,"station_id":"ce4bhi12rcd13ifvqfp0","pricing_plan_id":"cebpf4jnsgd1na2vs0mg"},{"bike_id":"f8be3f31-7ad2-418e-9347-d8ac1717ae50","system_id":"levelo_inurba_marseille","lat":43.2947,"lon":5.40914,"is_reserved":false,"is_disabled":false,"rental_uris":{"android":"levelo://app?vid=f8be3f31-7ad2-418e-9347-d8ac1717ae50","ios":"levelo://app?vid=f8be3f31-7ad2-418e-9347-d8ac1717ae50"},"vehicle_type_id":"4","last_reported":1768533703,"current_range_meters":8400,"station_id":"","pricing_plan_id":"cebpf4jnsgd1na2vs0mg"},{"bike_id":"78e45d95-b891-4462-8f40-71e1bb72c06d","system_id":"levelo_inurba_marseille","lat":43.29575,"lon":5.3995,"is_reserved":false,"is_disabled":true,"rental_uris":{"android":"levelo://app?vid=78e45d95-b891-4462-8f40-71e1bb72c06d","ios":"levelo://app?vid=78e45d95-b891-4462-8f40-71e1bb72c06d"},"vehicle_type_id":"4","last_reported":1768533703,"current_range_meters":8400,"station_id":"ce4bh312rcd13ifvqdj0","pricing_plan_id":"cebpf4jnsgd1na2vs0mg"},{"bike_id":"dcec327c-5889-44ed-b4eb-4d020aeccae5","system_id":"levelo_inurba_marseille","lat":43.3008,"lon":5.39096,"is_reserved":false,"is_disabled":false,"rental_uris":{"android":"levelo://app?vid=dcec327c-5889-44ed-b4eb-4d020aeccae5","ios":"levelo://app?vid=dcec327c-5889-44ed-b4eb-4d020aeccae5"},"vehicle_type_id":"4","last_reported":1768533703,"current_range_meters":8400,"station_id":"ce4bh192rcd13ifvqdb0","pricing_plan_id":"cebpf4jnsgd1na2vs0mg"},{"bike_id":"76907d6f-b4c2-4448-aded-e78b1d3f8f3a","system_id":"levelo_inurba_marseille","lat":43.2496,"lon":5.40495,"is_reserved":false,"is_disabled":false,"rental_uris":{"android":"levelo://app?vid=76907d6f-b4c2-4448-aded-e78b1d3f8f3a","ios":"levelo://app?vid=76907d6f-b4c2-4448-aded-e78b1d3f8f3a"},"vehicle_type_id":"4","last_reported":1768533703,"current_range_meters":8400,"station_id":"st_d2ngiaodas8pm72gd1h0","pricing_plan_id":"cebpf4jnsgd1na2vs0mg"},{"bike_id":"a64862b7-7fb6-4e06-afb6-d51a9970bf2e","system_id":"levelo_inurba_marseille","lat":43.24806,"lon":5.37456,"is_reserved":false,"is_disabled":false,"rental_uris":{"android":"levelo://app?vid=a64862b7-7fb6-4e06-afb6-d51a9970bf2e","ios":"levelo://app?vid=a64862b7-7fb6-4e06-afb6-d51a9970bf2e"},"vehicle_type_id":"4","last_reported":1768533703,"current_range_meters":8400,"station_id":"ce4bhgh2rcd13ifvqfb0","pricing_plan_id":"cebpf4jnsgd1na2vs0mg"},{"bike_id":"5b7eea6a-7d15-44cf-ad22-35a1bbcb5f55","system_id":"levelo_inurba_marseille","lat":43.28731,"lon":5.3792,"is_reserved":false,"is_disabled":false,"rental_uris":{"android":"levelo://app?vid=5b7eea6a-7d15-44cf-ad22-35a1bbcb5f55","ios":"levelo://app?vid=5b7eea6a-7d15-44cf-ad22-35a1bbcb5f55"},"vehicle_type_id":"4","last_reported":1768533703,"current_range_meters":8400,"station_id":"ce4bh9p2rcd13ifvqec0","pricing_plan_id":"cebpf4jnsgd1na2vs0mg"},{"bike_id":"843f91d3-3497-4c4b-8a26-d0f129a5f82d","system_id":"levelo_inurba_marseille","lat":43.24165,"lon":5.364002,"is_reserved":false,"is_disabled":false,"rental_uris":{"android":"levelo://app?vid=843f91d3-3497-4c4b-8a26-d0f129a5f82d","ios":"levelo://app?vid=843f91d3-3497-4c4b-8a26-d0f129a5f82d"},"vehicle_type_id":"4","last_reported":1768533703,"current_range_meters":8400,"station_id":"cpo36qri1sfpv3e86is0","pricing_plan_id":"cebpf4jnsgd1na2vs0mg"},{"bike_id":"beaae619-a4ac-4aa6-b171-20d72d73eed8","system_id":"levelo_inurba_marseille","lat":43.32357,"lon":5.36728,"is_reserved":false,"is_disabled":false,"rental_uris":{"android":"levelo://app?vid=beaae619-a4ac-4aa6-b171-20d72d73eed8","ios":"levelo://app?vid=beaae619-a4ac-4aa6-b171-20d72d73eed8"},"vehicle_type_id":"4","last_reported":1768533703,"current_range_meters":8400,"station_id":"","pricing_plan_id":"cebpf4jnsgd1na2vs0mg"},{"bike_id":"23ec3a98-26a5-4b81-8fe6-bd629f0771f5","system_id":"levelo_inurba_marseille","lat":43.28132,"lon":5.3891,"is_reserved":false,"is_disabled":false,"rental_uris":{"android":"levelo://app?vid=23ec3a98-26a5-4b81-8fe6-bd629f0771f5","ios":"levelo://app?vid=23ec3a98-26a5-4b81-8fe6-bd629f0771f5"},"vehicle_type_id":"4","last_reported":1768533703,"current_range_meters":8400,"station_id":"","pricing_plan_id":"cebpf4jnsgd1na2vs0mg"},{"bike_id":"beeda613-7b77-479c-90f5-b635b4700e74","system_id":"levelo_inurba_marseille","lat":43.24167,"lon":5.3639,"is_reserved":false,"is_disabled":false,"rental_uris":{"android":"levelo://app?vid=beeda613-7b77-479c-90f5-b635b4700e74","ios":"levelo://app?vid=beeda613-7b77-479c-90f5-b635b4700e74"},"vehicle_type_id":"4","last_reported":1768533703,"current_range_meters":8400,"station_id":"cpo36qri1sfpv3e86is0","pricing_plan_id":"cebpf4jnsgd1na2vs0mg"},{"bike_id":"038a0f92-da57-4912-9a3c-58dabf209a89","system_id":"levelo_inurba_marseille","lat":43.28627,"lon":5.35112,"is_reserved":false,"is_disabled":false,"rental_uris":{"android":"levelo://app?vid=038a0f92-da57-4912-9a3c-58dabf209a89","ios":"levelo://app?vid=038a0f92-da57-4912-9a3c-58dabf209a89"},"vehicle_type_id":"4","last_reported":1768533703,"current_range_meters":8400,"station_id":"ce4bhch2rcd13ifvqeug","pricing_plan_id":"cebpf4jnsgd1na2vs0mg"},{"bike_id":"6c692c2a-4d29-4de9-a7fd-87703f6a37a2","system_id":"levelo_inurba_marseille","lat":43.2448,"lon":5.42525,"is_reserved":false,"is_disabled":false,"rental_uris":{"android":"levelo://app?vid=6c692c2a-4d29-4de9-a7fd-87703f6a37a2","ios":"levelo://app?vid=6c692c2a-4d29-4de9-a7fd-87703f6a37a2"},"vehicle_type_id":"4","last_reported":1768533703,"current_range_meters":8800,"station_id":"st_d4a3vfp97mjs738cd8kg","pricing_plan_id":"cebpf4jnsgd1na2vs0mg"},{"bike_id":"5032b02a-9efc-499b-80c1-ff1804d0ec8d","system_id":"levelo_inurba_marseille","lat":43.24824,"lon":5.37457,"is_reserved":false,"is_disabled":false,"rental_uris":{"android":"levelo://app?vid=5032b02a-9efc-499b-80c1-ff1804d0ec8d","ios":"levelo://app?vid=5032b02a-9efc-499b-80c1-ff1804d0ec8d"},"vehicle_type_id":"4","last_reported":1768533703,"current_range_meters":8800,"station_id":"ce4bhgh2rcd13ifvqfb0","pricing_plan_id":"cebpf4jnsgd1na2vs0mg"},{"bike_id":"d486f75d-c649-4426-89e7-03eb94cae029","system_id":"levelo_inurba_marseille","lat":43.33604,"lon":5.41018,"is_reserved":false,"is_disabled":false,"rental_uris":{"android":"levelo://app?vid=d486f75d-c649-4426-89e7-03eb94cae029","ios":"levelo://app?vid=d486f75d-c649-4426-89e7-03eb94cae029"},"vehicle_type_id":"4","last_reported":1768533703,"current_range_meters":8800,"station_id":"ce4bhqh2rcd13ifvqhmg","pricing_plan_id":"cebpf4jnsgd1na2vs0mg"},{"bike_id":"5013fb2e-a9d9-42cb-ac82-d3c79234a58b","system_id":"levelo_inurba_marseille","lat":43.25083,"lon":5.39514,"is_reserved":false,"is_disabled":false,"rental_uris":{"android":"levelo://app?vid=5013fb2e-a9d9-42cb-ac82-d3c79234a58b","ios":"levelo://app?vid=5013fb2e-a9d9-42cb-ac82-d3c79234a58b"},"vehicle_type_id":"4","last_reported":1768533703,"current_range_meters":8800,"station_id":"ce4bhm12rcd13ifvqgkg","pricing_plan_id":"cebpf4jnsgd1na2vs0mg"},{"bike_id":"4bf2e34c-acc2-48d0-a792-a4b8c959e5f1","system_id":"levelo_inurba_marseille","lat":43.25811,"lon":5.39426,"is_reserved":false,"is_disabled":false,"rental_uris":{"android":"levelo://app?vid=4bf2e34c-acc2-48d0-a792-a4b8c959e5f1","ios":"levelo://app?vid=4bf2e34c-acc2-48d0-a792-a4b8c959e5f1"},"vehicle_type_id":"4","last_reported":1768533703,"current_range_meters":8800,"station_id":"ce4bhip2rcd13ifvqft0","pricing_plan_id":"cebpf4jnsgd1na2vs0mg"},{"bike_id":"28331835-a626-40c1-bfee-899d1a62c1e0","system_id":"levelo_inurba_marseille","lat":43.276622,"lon":5.38937,"is_reserved":false,"is_disabled":false,"rental_uris":{"android":"levelo://app?vid=28331835-a626-40c1-bfee-899d1a62c1e0","ios":"levelo://app?vid=28331835-a626-40c1-bfee-899d1a62c1e0"},"vehicle_type_id":"4","last_reported":1768533703,"current_range_meters":8800,"station_id":"ce4bhi12rcd13ifvqfo0","pricing_plan_id":"cebpf4jnsgd1na2vs0mg"},{"bike_id":"80e2de60-7326-4dde-b4e0-87a71bcf7f7e","system_id":"levelo_inurba_marseille","lat":43.29196,"lon":5.39316,"is_reserved":false,"is_disabled":false,"rental_uris":{"android":"levelo://app?vid=80e2de60-7326-4dde-b4e0-87a71bcf7f7e","ios":"levelo://app?vid=80e2de60-7326-4dde-b4e0-87a71bcf7f7e"},"vehicle_type_id":"4","last_reported":1768533703,"current_range_meters":8800,"station_id":"ce4bh192rcd13ifvqdd0","pricing_plan_id":"cebpf4jnsgd1na2vs0mg"},{"bike_id":"8399168d-b423-4708-a267-23d3a56d7c0e","system_id":"levelo_inurba_marseille","lat":43.3049,"lon":5.36745,"is_reserved":false,"is_disabled":false,"rental_uris":{"android":"levelo://app?vid=8399168d-b423-4708-a267-23d3a56d7c0e","ios":"levelo://app?vid=8399168d-b423-4708-a267-23d3a56d7c0e"},"vehicle_type_id":"4","last_reported":1768533703,"current_range_meters":8800,"station_id":"","pricing_plan_id":"cebpf4jnsgd1na2vs0mg"},{"bike_id":"87b41ccf-9e46-44ee-9e4a-b0913909d881","system_id":"levelo_inurba_marseille","lat":43.29759,"lon":5.42774,"is_reserved":false,"is_disabled":false,"rental_uris":{"android":"levelo://app?vid=87b41ccf-9e46-44ee-9e4a-b0913909d881","ios":"levelo://app?vid=87b41ccf-9e46-44ee-9e4a-b0913909d881"},"vehicle_type_id":"4","last_reported":1768533703,"current_range_meters":8800,"station_id":"st_d3md5207bmas73dh9klg","pricing_plan_id":"cebpf4jnsgd1na2vs0mg"},{"bike_id":"dbcf6ef4-a784-430e-9991-3e608cc1669e","system_id":"levelo_inurba_marseille","lat":43.22566,"lon":5.41622,"is_reserved":false,"is_disabled":false,"rental_uris":{"android":"levelo://app?vid=dbcf6ef4-a784-430e-9991-3e608cc1669e","ios":"levelo://app?vid=dbcf6ef4-a784-430e-9991-3e608cc1669e"},"vehicle_type_id":"4","last_reported":1768533703,"current_range_meters":8800,"station_id":"st_d2o4gvlbi1j2169b742g","pricing_plan_id":"cebpf4jnsgd1na2vs0mg"},{"bike_id":"75a01f13-be16-4370-a7fc-dbe0f442faa9","system_id":"levelo_inurba_marseille","lat":43.21751,"lon":5.34643,"is_reserved":false,"is_disabled":false,"rental_uris":{"android":"levelo://app?vid=75a01f13-be16-4370-a7fc-dbe0f442faa9","ios":"levelo://app?vid=75a01f13-be16-4370-a7fc-dbe0f442faa9"},"vehicle_type_id":"4","last_reported":1768533703,"current_range_meters":8800,"station_id":"st_cvj6r9ubvosntc0bgbag","pricing_plan_id":"cebpf4jnsgd1na2vs0mg"},{"bike_id":"fa2644f1-9bf3-4a71-b4f1-330330552088","system_id":"levelo_inurba_marseille","lat":43.29869,"lon":5.389,"is_reserved":false,"is_disabled":true,"rental_uris":{"android":"levelo://app?vid=fa2644f1-9bf3-4a71-b4f1-330330552088","ios":"levelo://app?vid=fa2644f1-9bf3-4a71-b4f1-330330552088"},"vehicle_type_id":"4","last_reported":1768533703,"current_range_meters":8800,"station_id":"ce4bh392rcd13ifvqdl0","pricing_plan_id":"cebpf4jnsgd1na2vs0mg"},{"bike_id":"cd552d3c-b0fe-4e05-9483-1412f42d1f25","system_id":"levelo_inurba_marseille","lat":43.28478,"lon":5.48405,"is_reserved":false,"is_disabled":false,"rental_uris":{"android":"levelo://app?vid=cd552d3c-b0fe-4e05-9483-1412f42d1f25","ios":"levelo://app?vid=cd552d3c-b0fe-4e05-9483-1412f42d1f25"},"vehicle_type_id":"4","last_reported":1768533703,"current_range_meters":8800,"station_id":"st_d3svhcjqgbts73a3dn0g","pricing_plan_id":"cebpf4jnsgd1na2vs0mg"},{"bike_id":"c8bae01e-7c26-4a45-82f2-6e4547c58ec3","system_id":"levelo_inurba_marseille","lat":43.309402,"lon":5.401484,"is_reserved":false,"is_disabled":false,"rental_uris":{"android":"levelo://app?vid=c8bae01e-7c26-4a45-82f2-6e4547c58ec3","ios":"levelo://app?vid=c8bae01e-7c26-4a45-82f2-6e4547c58ec3"},"vehicle_type_id":"4","last_reported":1768533703,"current_range_meters":8800,"station_id":"ce4bgvp2rcd13ifvqct0","pricing_plan_id":"cebpf4jnsgd1na2vs0mg"},{"bike_id":"d2db4ee9-0fd5-446d-83a5-a237f550937b","system_id":"levelo_inurba_marseille","lat":43.29278,"lon":5.401377,"is_reserved":false,"is_disabled":false,"rental_uris":{"android":"levelo://app?vid=d2db4ee9-0fd5-446d-83a5-a237f550937b","ios":"levelo://app?vid=d2db4ee9-0fd5-446d-83a5-a237f550937b"},"vehicle_type_id":"4","last_reported":1768533703,"current_range_meters":8800,"station_id":"ce4bh312rcd13ifvqdk0","pricing_plan_id":"cebpf4jnsgd1na2vs0mg"},{"bike_id":"6392d4ba-52a7-4ff6-bed3-714717b5ab52","system_id":"levelo_inurba_marseille","lat":43.22551,"lon":5.41634,"is_reserved":false,"is_disabled":false,"rental_uris":{"android":"levelo://app?vid=6392d4ba-52a7-4ff6-bed3-714717b5ab52","ios":"levelo://app?vid=6392d4ba-52a7-4ff6-bed3-714717b5ab52"},"vehicle_type_id":"4","last_reported":1768533703,"current_range_meters":8800,"station_id":"st_d2o4gvlbi1j2169b742g","pricing_plan_id":"cebpf4jnsgd1na2vs0mg"},{"bike_id":"7c9a859c-7df7-4d2c-80d2-e4d22a9e49d9","system_id":"levelo_inurba_marseille","lat":43.25345,"lon":5.42174,"is_reserved":false,"is_disabled":false,"rental_uris":{"android":"levelo://app?vid=7c9a859c-7df7-4d2c-80d2-e4d22a9e49d9","ios":"levelo://app?vid=7c9a859c-7df7-4d2c-80d2-e4d22a9e49d9"},"vehicle_type_id":"4","last_reported":1768533703,"current_range_meters":8800,"station_id":"st_d2m65c5bi1j21697t3ng","pricing_plan_id":"cebpf4jnsgd1na2vs0mg"},{"bike_id":"72f736d6-c39b-452d-8bdf-bbbf7e8b3e4f","system_id":"levelo_inurba_marseille","lat":43.31161,"lon":5.38708,"is_reserved":false,"is_disabled":false,"rental_uris":{"android":"levelo://app?vid=72f736d6-c39b-452d-8bdf-bbbf7e8b3e4f","ios":"levelo://app?vid=72f736d6-c39b-452d-8bdf-bbbf7e8b3e4f"},"vehicle_type_id":"4","last_reported":1768533703,"current_range_meters":8800,"station_id":"ce4bgv12rcd13ifvqcp0","pricing_plan_id":"cebpf4jnsgd1na2vs0mg"},{"bike_id":"319af154-8e2f-40c2-8b35-9b945be730dc","system_id":"levelo_inurba_marseille","lat":43.302531,"lon":5.400653,"is_reserved":false,"is_disabled":false,"rental_uris":{"android":"levelo://app?vid=319af154-8e2f-40c2-8b35-9b945be730dc","ios":"levelo://app?vid=319af154-8e2f-40c2-8b35-9b945be730dc"},"vehicle_type_id":"4","last_reported":1768533703,"current_range_meters":9200,"station_id":"ce4bgvh2rcd13ifvqcs0","pricing_plan_id":"cebpf4jnsgd1na2vs0mg"},{"bike_id":"4b6c48d1-70fe-4ece-b364-bad6c43d999c","system_id":"levelo_inurba_marseille","lat":43.28945,"lon":5.36635,"is_reserved":false,"is_disabled":false,"rental_uris":{"android":"levelo://app?vid=4b6c48d1-70fe-4ece-b364-bad6c43d999c","ios":"levelo://app?vid=4b6c48d1-70fe-4ece-b364-bad6c43d999c"},"vehicle_type_id":"4","last_reported":1768533703,"current_range_meters":9200,"station_id":"ce4bhap2rcd13ifvqek0","pricing_plan_id":"cebpf4jnsgd1na2vs0mg"},{"bike_id":"97fd8e38-7aa2-488e-96cc-ec8f894eb496","system_id":"levelo_inurba_marseille","lat":43.28535,"lon":5.44097,"is_reserved":false,"is_disabled":false,"rental_uris":{"android":"levelo://app?vid=97fd8e38-7aa2-488e-96cc-ec8f894eb496","ios":"levelo://app?vid=97fd8e38-7aa2-488e-96cc-ec8f894eb496"},"vehicle_type_id":"4","last_reported":1768533703,"current_range_meters":9200,"station_id":"st_d3j3df2ikq2c7380ej80","pricing_plan_id":"cebpf4jnsgd1na2vs0mg"},{"bike_id":"dc6223b6-28de-4870-8cc0-fd3104295cde","system_id":"levelo_inurba_marseille","lat":43.29711,"lon":5.36618,"is_reserved":false,"is_disabled":false,"rental_uris":{"android":"levelo://app?vid=dc6223b6-28de-4870-8cc0-fd3104295cde","ios":"levelo://app?vid=dc6223b6-28de-4870-8cc0-fd3104295cde"},"vehicle_type_id":"4","last_reported":1768533703,"current_range_meters":9200,"station_id":"ce4bgn12rcd13ifvqbt0","pricing_plan_id":"cebpf4jnsgd1na2vs0mg"},{"bike_id":"25ed961a-5384-43ae-9ae0-92012b19cc36","system_id":"levelo_inurba_marseille","lat":43.281165,"lon":5.38218,"is_reserved":false,"is_disabled":false,"rental_uris":{"android":"levelo://app?vid=25ed961a-5384-43ae-9ae0-92012b19cc36","ios":"levelo://app?vid=25ed961a-5384-43ae-9ae0-92012b19cc36"},"vehicle_type_id":"4","last_reported":1768533703,"current_range_meters":9200,"station_id":"","pricing_plan_id":"cebpf4jnsgd1na2vs0mg"},