{"last_updated":1684872406,"ttl":30,"version":"2.2","data":{"bikes":[{"bike_id":"41892a07-6a1f-4061-ab05-7c3547d27e02","system_id":"levelo_inurba_marseille","lat":43.312239,"lon":5.368562,"is_reserved":false,"is_disabled":false,"rental_uris":{"android":"levelo://app?vid=41892a07-6a1f-4061-ab05-7c3547d27e02","ios":"levelo://app?vid=41892a07-6a1f-4061-ab05-7c3547d27e02"},"vehicle_type_id":"4","last_reported":1684872407,"current_range_meters":31200,"station_id":"ce4bgl92rcd13ifvqbq0","pricing_plan_id":"free"},{"bike_id":"b9dcf426-0f71-4802-a36f-d97f2d783ed3","system_id":"levelo_inurba_marseille","lat":43.314811,"lon":5.373103,"is_reserved":false,"is_disabled":false,"rental_uris":{"android":"levelo://app?vid=b9dcf426-0f71-4802-a36f-d97f2d783ed3","ios":"levelo://app?vid=b9dcf426-0f71-4802-a36f-d97f2d783ed3"},"vehicle_type_id":"4","last_reported":1684872407,"current_range_meters":8000,"station_id":"ce4bgt12rcd13ifvqcd0","pricing_plan_id":"free"},{"bike_id":"4a5d215d-994d-4e73-93c4-6f62f90d8f44","system_id":"levelo_inurba_marseille","lat":43.314811,"lon":5.373104,"is_reserved":false,"is_disabled":false,"rental_uris":{"android":"levelo://app?vid=4a5d215d-994d-4e73-93c4-6f62f90d8f44","ios":"levelo://app?vid=4a5d215d-994d-4e73-93c4-6f62f90d8f44"},"vehicle_type_id":"4","last_reported":1684872407,"current_range_meters":18000,"station_id":"ce4bgt12rcd13ifvqcd0","pricing_plan_id":"free"},{"bike_id":"28e1cbd6-bec9-4b31-8a24-6e3285a6e05b","system_id":"levelo_inurba_marseille","lat":43.314811,"lon":5.373104,"is_reserved":false,"is_disabled":false,"rental_uris":{"android":"levelo://app?vid=28e1cbd6-bec9-4b31-8a24-6e3285a6e05b","ios":"levelo://app?vid=28e1cbd6-bec9-4b31-8a24-6e3285a6e05b"},"vehicle_type_id":"4","last_reported":1684872407,"current_range_meters":31200,"station_id":"ce4bgt12rcd13ifvqcd0","pricing_plan_id":"free"},{"bike_id":"7d1c63c6-2694-4de9-b813-bdd9259db552","system_id":"levelo_inurba_marseille","lat":43.308614,"lon":5.372098,"is_reserved":false,"is_disabled":false,"rental_uris":{"android":"levelo://app?vid=7d1c63c6-2694-4de9-b813-bdd9259db552","ios":"levelo://app?vid=7d1c63c6-2694-4de9-b813-bdd9259db552"},"vehicle_type_id":"4","last_reported":1684872407,"current_range_meters":14800,"station_id":"ce4bguh2rcd13ifvqckg","pricing_plan_id":"free"},{"bike_id":"b27b7a88-94f8-4e9c-bfc4-78d9512c8bf6","system_id":"levelo_inurba_marseille","lat":43.30882,"lon":5.37204,"is_reserved":false,"is_disabled":false,"rental_uris":{"android":"levelo://app?vid=b27b7a88-94f8-4e9c-bfc4-78d9512c8bf6","ios":"levelo://app?vid=b27b7a88-94f8-4e9c-bfc4-78d9512c8bf6"},"vehicle_type_id":"4","last_reported":1684872407,"current_range_meters":22000,"station_id":"ce4bguh2rcd13ifvqckg","pricing_plan_id":"free"},{"bike_id":"e52fa197-a55c-42ad-80cd-d0868906299c","system_id":"levelo_inurba_marseille","lat":43.30542,"lon":5.36711,"is_reserved":false,"is_disabled":false,"rental_uris":{"android":"levelo://app?vid=e52fa197-a55c-42ad-80cd-d0868906299c","ios":"levelo://app?vid=e52fa197-a55c-42ad-80cd-d0868906299c"},"vehicle_type_id":"4","last_reported":1684872407,"current_range_meters":0,"station_id":"ce4bgrp2rcd13ifvqc9g","pricing_plan_id":"free"},{"bike_id":"c5ba9a01-5172-431d-ab55-1a9a411480ee","system_id":"levelo_inurba_marseille","lat":43.305368,"lon":5.367343,"is_reserved":false,"is_disabled":false,"rental_uris":{"android":"levelo://app?vid=c5ba9a01-5172-431d-ab55-1a9a411480ee","ios":"levelo://app?vid=c5ba9a01-5172-431d-ab55-1a9a411480ee"},"vehicle_type_id":"4","last_reported":1684872407,"current_range_meters":0,"station_id":"ce4bgrp2rcd13ifvqc9g","pricing_plan_id":"free"},{"bike_id":"8bf7e63b-d3ed-4408-b973-18f8f102c700","system_id":"levelo_inurba_marseille","lat":43.305989,"lon":5.37225,"is_reserved":false,"is_disabled":false,"rental_uris":{"android":"levelo://app?vid=8bf7e63b-d3ed-4408-b973-18f8f102c700","ios":"levelo://app?vid=8bf7e63b-d3ed-4408-b973-18f8f102c700"},"vehicle_type_id":"4","last_reported":1684872407,"current_range_meters":20400,"station_id":"ce4bgqh2rcd13ifvqc4g","pricing_plan_id":"free"},{"bike_id":"15efad96-7ebe-4f75-bb0b-eafcbde68ca8","system_id":"levelo_inurba_marseille","lat":43.305989,"lon":5.37225,"is_reserved":false,"is_disabled":false,"rental_uris":{"android":"levelo://app?vid=15efad96-7ebe-4f75-bb0b-eafcbde68ca8","ios":"levelo://app?vid=15efad96-7ebe-4f75-bb0b-eafcbde68ca8"},"vehicle_type_id":"4","last_reported":1684872407,"current_range_meters":13200,"station_id":"ce4bgqh2rcd13ifvqc4g","pricing_plan_id":"free"},{"bike_id":"95cb7a35-6ad8-4056-9d0c-e37ef10844e6","system_id":"levelo_inurba_marseille","lat":43.305989,"lon":5.37225,"is_reserved":false,"is_disabled":false,"rental_uris":{"android":"levelo://app?vid=95cb7a35-6ad8-4056-9d0c-e37ef10844e6","ios":"levelo://app?vid=95cb7a35-6ad8-4056-9d0c-e37ef10844e6"},"vehicle_type_id":"4","last_reported":1684872407,"current_range_meters":2400,"station_id":"ce4bgqh2rcd13ifvqc4g","pricing_plan_id":"free"},{"bike_id":"cf181879-b182-4216-9335-90ca07f1917a","system_id":"levelo_inurba_marseille","lat":43.311131,"lon":5.377651,"is_reserved":false,"is_disabled":false,"rental_uris":{"android":"levelo://app?vid=cf181879-b182-4216-9335-90ca07f1917a","ios":"levelo://app?vid=cf181879-b182-4216-9335-90ca07f1917a"},"vehicle_type_id":"4","last_reported":1684872407,"current_range_meters":23200,"station_id":"ce4bgt92rcd13ifvqcg0","pricing_plan_id":"free"},{"bike_id":"4d13cdaf-c657-4dc3-96e5-063a54edd904","system_id":"levelo_inurba_marseille","lat":43.305989,"lon":5.37225,"is_reserved":false,"is_disabled":false,"rental_uris":{"android":"levelo://app?vid=4d13cdaf-c657-4dc3-96e5-063a54edd904","ios":"levelo://app?vid=4d13cdaf-c657-4dc3-96e5-063a54edd904"},"vehicle_type_id":"4","last_reported":1684872407,"current_range_meters":26400,"station_id":"ce4bgqh2rcd13ifvqc4g","pricing_plan_id":"free"},{"bike_id":"9ea81655-66b6-4690-8c5b-39b1628744a2","system_id":"levelo_inurba_marseille","lat":43.311131,"lon":5.377651,"is_reserved":false,"is_disabled":false,"rental_uris":{"android":"levelo://app?vid=9ea81655-66b6-4690-8c5b-39b1628744a2","ios":"levelo://app?vid=9ea81655-66b6-4690-8c5b-39b1628744a2"},"vehicle_type_id":"4","last_reported":1684872407,"current_range_meters":20000,"station_id":"ce4bgt92rcd13ifvqcg0","pricing_plan_id":"free"},{"bike_id":"152f2f5f-db1e-4dfb-88e2-225ec88801b7","system_id":"levelo_inurba_marseille","lat":43.311125,"lon":5.377624,"is_reserved":false,"is_disabled":false,"rental_uris":{"android":"levelo://app?vid=152f2f5f-db1e-4dfb-88e2-225ec88801b7","ios":"levelo://app?vid=152f2f5f-db1e-4dfb-88e2-225ec88801b7"},"vehicle_type_id":"4","last_reported":1684872407,"current_range_meters":22400,"station_id":"ce4bgt92rcd13ifvqcg0","pricing_plan_id":"free"},{"bike_id":"60144381-4016-43c5-902c-acbc0dac10b7","system_id":"levelo_inurba_marseille","lat":43.311131,"lon":5.377651,"is_reserved":false,"is_disabled":false,"rental_uris":{"android":"levelo://app?vid=60144381-4016-43c5-902c-acbc0dac10b7","ios":"levelo://app?vid=60144381-4016-43c5-902c-acbc0dac10b7"},"vehicle_type_id":"4","last_reported":1684872407,"current_range_meters":0,"station_id":"ce4bgt92rcd13ifvqcg0","pricing_plan_id":"free"},{"bike_id":"5b8b95ab-8dbc-4ad8-97de-1c0dc75e7f41","system_id":"levelo_inurba_marseille","lat":43.311131,"lon":5.377651,"is_reserved":false,"is_disabled":false,"rental_uris":{"android":"levelo://app?vid=5b8b95ab-8dbc-4ad8-97de-1c0dc75e7f41","ios":"levelo://app?vid=5b8b95ab-8dbc-4ad8-97de-1c0dc75e7f41"},"vehicle_type_id":"4","last_reported":1684872407,"current_range_meters":22400,"station_id":"ce4bgt92rcd13ifvqcg0","pricing_plan_id":"free"},{"bike_id":"725fdaf0-d18a-4817-82e7-216b57da6c3f","system_id":"levelo_inurba_marseille","lat":43.317075,"lon":5.377367,"is_reserved":false,"is_disabled":false,"rental_uris":{"android":"levelo://app?vid=725fdaf0-d18a-4817-82e7-216b57da6c3f","ios":"levelo://app?vid=725fdaf0-d18a-4817-82e7-216b57da6c3f"},"vehicle_type_id":"4","last_reported":1684872407,"current_range_meters":28800,"station_id":"ce4bgth2rcd13ifvqch0","pricing_plan_id":"free"},{"bike_id":"8db95b35-d7bd-42bc-bb78-e4aa29398e8a","system_id":"levelo_inurba_marseille","lat":43.315289,"lon":5.380349,"is_reserved":false,"is_disabled":false,"rental_uris":{"android":"levelo://app?vid=8db95b35-d7bd-42bc-bb78-e4aa29398e8a","ios":"levelo://app?vid=8db95b35-d7bd-42bc-bb78-e4aa29398e8a"},"vehicle_type_id":"4","last_reported":1684872407,"current_range_meters":2800,"station_id":"ce4bhsp2rcd13ifvqi50","pricing_plan_id":"free"},{"bike_id":"e4ddf4c1-6177-4538-8b58-75117487e999","system_id":"levelo_inurba_marseille","lat":43.315293,"lon":5.380349,"is_reserved":false,"is_disabled":false,"rental_uris":{"android":"levelo://app?vid=e4ddf4c1-6177-4538-8b58-75117487e999","ios":"levelo://app?vid=e4ddf4c1-6177-4538-8b58-75117487e999"},"vehicle_type_id":"4","last_reported":1684872407,"current_range_meters":24800,"station_id":"ce4bhsp2rcd13ifvqi50","pricing_plan_id":"free"},{"bike_id":"c9461532-81ed-4526-b6ba-b7bd13132531","system_id":"levelo_inurba_marseille","lat":43.315289,"lon":5.380349,"is_reserved":false,"is_disabled":false,"rental_uris":{"android":"levelo://app?vid=c9461532-81ed-4526-b6ba-b7bd13132531","ios":"levelo://app?vid=c9461532-81ed-4526-b6ba-b7bd13132531"},"vehicle_type_id":"4","last_reported":1684872407,"current_range_meters":14800,"station_id":"ce4bhsp2rcd13ifvqi50","pricing_plan_id":"free"},{"bike_id":"9bae9840-ed93-44fb-a5d4-fae1df29a1de","system_id":"levelo_inurba_marseille","lat":43.3104,"lon":5.38187,"is_reserved":false,"is_disabled":false,"rental_uris":{"android":"levelo://app?vid=9bae9840-ed93-44fb-a5d4-fae1df29a1de","ios":"levelo://app?vid=9bae9840-ed93-44fb-a5d4-fae1df29a1de"},"vehicle_type_id":"4","last_reported":1684872407,"current_range_meters":18800,"station_id":"","pricing_plan_id":"free"},{"bike_id":"e396f667-28e3-4be6-a9c6-ad0414e7cd8b","system_id":"levelo_inurba_marseille","lat":43.30808,"lon":5.38141,"is_reserved":false,"is_disabled":false,"rental_uris":{"android":"levelo://app?vid=e396f667-28e3-4be6-a9c6-ad0414e7cd8b","ios":"levelo://app?vid=e396f667-28e3-4be6-a9c6-ad0414e7cd8b"},"vehicle_type_id":"4","last_reported":1684872407,"current_range_meters":29200,"station_id":"ce4bgt12rcd13ifvqce0","pricing_plan_id":"free"},{"bike_id":"fcd9d6f3-2b65-412d-ad9c-4b01602bdfd5","system_id":"levelo_inurba_marseille","lat":43.30807,"lon":5.38152,"is_reserved":false,"is_disabled":false,"rental_uris":{"android":"levelo://app?vid=fcd9d6f3-2b65-412d-ad9c-4b01602bdfd5","ios":"levelo://app?vid=fcd9d6f3-2b65-412d-ad9c-4b01602bdfd5"},"vehicle_type_id":"4","last_reported":1684872407,"current_range_meters":4400,"station_id":"ce4bgt12rcd13ifvqce0","pricing_plan_id":"free"},{"bike_id":"85e77d78-f383-487f-b0f3-5afee28256a1","system_id":"levelo_inurba_marseille","lat":43.308012,"lon":5.381511,"is_reserved":false,"is_disabled":false,"rental_uris":{"android":"levelo://app?vid=85e77d78-f383-487f-b0f3-5afee28256a1","ios":"levelo://app?vid=85e77d78-f383-487f-b0f3-5afee28256a1"},"vehicle_type_id":"4","last_reported":1684872407,"current_range_meters":14800,"station_id":"ce4bgt12rcd13ifvqce0","pricing_plan_id":"free"},{"bike_id":"89616115-6d90-4012-82e6-692a9fa94bcc","system_id":"levelo_inurba_marseille","lat":43.308012,"lon":5.381511,"is_reserved":false,"is_disabled":false,"rental_uris":{"android":"levelo://app?vid=89616115-6d90-4012-82e6-692a9fa94bcc","ios":"levelo://app?vid=89616115-6d90-4012-82e6-692a9fa94bcc"},"vehicle_type_id":"4","last_reported":1684872407,"current_range_meters":12800,"station_id":"ce4bgt12rcd13ifvqce0","pricing_plan_id":"free"},{"bike_id":"e13f48db-f4f6-48c2-8df8-a752fcd43e65","system_id":"levelo_inurba_marseille","lat":43.319935,"lon":5.381699,"is_reserved":false,"is_disabled":false,"rental_uris":{"android":"levelo://app?vid=e13f48db-f4f6-48c2-8df8-a752fcd43e65","ios":"levelo://app?vid=e13f48db-f4f6-48c2-8df8-a752fcd43e65"},"vehicle_type_id":"4","last_reported":1684872407,"current_range_meters":11600,"station_id":"ce4bhr12rcd13ifvqhpg","pricing_plan_id":"free"},{"bike_id":"4bdc3ba6-87ef-41d2-8f67-88669efaedb9","system_id":"levelo_inurba_marseille","lat":43.319935,"lon":5.381699,"is_reserved":false,"is_disabled":false,"rental_uris":{"android":"levelo://app?vid=4bdc3ba6-87ef-41d2-8f67-88669efaedb9","ios":"levelo://app?vid=4bdc3ba6-87ef-41d2-8f67-88669efaedb9"},"vehicle_type_id":"4","last_reported":1684872407,"current_range_meters":19200,"station_id":"ce4bhr12rcd13ifvqhpg","pricing_plan_id":"free"},{"bike_id":"30a37701-e3b4-4434-93c2-13ebaedcd785","system_id":"levelo_inurba_marseille","lat":43.319935,"lon":5.381699,"is_reserved":false,"is_disabled":false,"rental_uris":{"android":"levelo://app?vid=30a37701-e3b4-4434-93c2-13ebaedcd785","ios":"levelo://app?vid=30a37701-e3b4-4434-93c2-13ebaedcd785"},"vehicle_type_id":"4","last_reported":1684872407,"current_range_meters":13200,"station_id":"ce4bhr12rcd13ifvqhpg","pricing_plan_id":"free"},{"bike_id":"a690fbb0-a61c-401c-9489-5da2f0b05254","system_id":"levelo_inurba_marseille","lat":43.313571,"lon":5.384829,"is_reserved":false,"is_disabled":false,"rental_uris":{"android":"levelo://app?vid=a690fbb0-a61c-401c-9489-5da2f0b05254","ios":"levelo://app?vid=a690fbb0-a61c-401c-9489-5da2f0b05254"},"vehicle_type_id":"4","last_reported":1684872407,"current_range_meters":17200,"station_id":"ce4bgt92rcd13ifvqcf0","pricing_plan_id":"free"},{"bike_id":"89aee25a-d04e-43dd-bf69-a808b7abe903","system_id":"levelo_inurba_marseille","lat":43.313571,"lon":5.384829,"is_reserved":false,"is_disabled":false,"rental_uris":{"android":"levelo://app?vid=89aee25a-d04e-43dd-bf69-a808b7abe903","ios":"levelo://app?vid=89aee25a-d04e-43dd-bf69-a808b7abe903"},"vehicle_type_id":"4","last_reported":1684872407,"current_range_meters":4000,"station_id":"ce4bgt92rcd13ifvqcf0","pricing_plan_id":"free"},{"bike_id":"e86d6283-8d92-4567-8c84-dd1b9f66f001","system_id":"levelo_inurba_marseille","lat":43.313571,"lon":5.384829,"is_reserved":false,"is_disabled":false,"rental_uris":{"android":"levelo://app?vid=e86d6283-8d92-4567-8c84-dd1b9f66f001","ios":"levelo://app?vid=e86d6283-8d92-4567-8c84-dd1b9f66f001"},"vehicle_type_id":"4","last_reported":1684872407,"current_range_meters":17600,"station_id":"ce4bgt92rcd13ifvqcf0","pricing_plan_id":"free"},{"bike_id":"e2b09657-3223-45c0-8972-f51487d9add9","system_id":"levelo_inurba_marseille","lat":43.313571,"lon":5.384829,"is_reserved":false,"is_disabled":false,"rental_uris":{"android":"levelo://app?vid=e2b09657-3223-45c0-8972-f51487d9add9","ios":"levelo://app?vid=e2b09657-3223-45c0-8972-f51487d9add9"},"vehicle_type_id":"4","last_reported":1684872407,"current_range_meters":23200,"station_id":"ce4bgt92rcd13ifvqcf0","pricing_plan_id":"free"},{"bike_id":"acf20d30-2c0c-4d96-bb32-3843daf91dd3","system_id":"levelo_inurba_marseille","lat":43.313571,"lon":5.384829,"is_reserved":false,"is_disabled":false,"rental_uris":{"android":"levelo://app?vid=acf20d30-2c0c-4d96-bb32-3843daf91dd3","ios":"levelo://app?vid=acf20d30-2c0c-4d96-bb32-3843daf91dd3"},"vehicle_type_id":"4","last_reported":1684872407,"current_range_meters":26000,"station_id":"ce4bgt92rcd13ifvqcf0","pricing_plan_id":"free"},{"bike_id":"dbfcb96a-7e19-49cf-a280-31141e1b1585","system_id":"levelo_inurba_marseille","lat":43.31376,"lon":5.38513,"is_reserved":false,"is_disabled":false,"rental_uris":{"android":"levelo://app?vid=dbfcb96a-7e19-49cf-a280-31141e1b1585","ios":"levelo://app?vid=dbfcb96a-7e19-49cf-a280-31141e1b1585"},"vehicle_type_id":"4","last_reported":1684872407,"current_range_meters":21600,"station_id":"","pricing_plan_id":"free"},{"bike_id":"498adb91-ab82-491f-a8bb-bfee25bfa6e2","system_id":"levelo_inurba_marseille","lat":43.29854,"lon":5.36297,"is_reserved":false,"is_disabled":false,"rental_uris":{"android":"levelo://app?vid=498adb91-ab82-491f-a8bb-bfee25bfa6e2","ios":"levelo://app?vid=498adb91-ab82-491f-a8bb-bfee25bfa6e2"},"vehicle_type_id":"4","last_reported":1684872407,"current_range_meters":31200,"station_id":"ce4bgpp2rcd13ifvqc3g","pricing_plan_id":"free"},{"bike_id":"1c6a35b6-14ca-46da-8618-db69b62908c3","system_id":"levelo_inurba_marseille","lat":43.305364,"lon":5.384119,"is_reserved":false,"is_disabled":false,"rental_uris":{"android":"levelo://app?vid=1c6a35b6-14ca-46da-8618-db69b62908c3","ios":"levelo://app?vid=1c6a35b6-14ca-46da-8618-db69b62908c3"},"vehicle_type_id":"4","last_reported":1684872407,"current_range_meters":24000,"station_id":"ce4bgg92rcd13ifvqb30","pricing_plan_id":"free"},{"bike_id":"7f108352-c56c-40c0-b8e8-2590edf329e2","system_id":"levelo_inurba_marseille","lat":43.298433,"lon":5.362774,"is_reserved":false,"is_disabled":false,"rental_uris":{"android":"levelo://app?vid=7f108352-c56c-40c0-b8e8-2590edf329e2","ios":"levelo://app?vid=7f108352-c56c-40c0-b8e8-2590edf329e2"},"vehicle_type_id":"4","last_reported":1684872407,"current_range_meters":0,"station_id":"ce4bgpp2rcd13ifvqc3g","pricing_plan_id":"free"},{"bike_id":"6bc628b6-b122-421a-a80c-25718d488515","system_id":"levelo_inurba_marseille","lat":43.297794,"lon":5.370888,"is_reserved":false,"is_disabled":false,"rental_uris":{"android":"levelo://app?vid=6bc628b6-b122-421a-a80c-25718d488515","ios":"levelo://app?vid=6bc628b6-b122-421a-a80c-25718d488515"},"vehicle_type_id":"4","last_reported":1684872407,"current_range_meters":13200,"station_id":"ce4bgop2rcd13ifvqc1g","pricing_plan_id":"free"},{"bike_id":"4a644cf9-6a9b-4059-ad7a-03147a636143","system_id":"levelo_inurba_marseille","lat":43.297794,"lon":5.370888,"is_reserved":false,"is_disabled":false,"rental_uris":{"android":"levelo://app?vid=4a644cf9-6a9b-4059-ad7a-03147a636143","ios":"levelo://app?vid=4a644cf9-6a9b-4059-ad7a-03147a636143"},"vehicle_type_id":"4","last_reported":1684872407,"current_range_meters":16800,"station_id":"ce4bgop2rcd13ifvqc1g","pricing_plan_id":"free"},{"bike_id":"e188465a-29cf-4a9d-b660-9b143dd9b51c","system_id":"levelo_inurba_marseille","lat":43.29718,"lon":5.3661,"is_reserved":false,"is_disabled":false,"rental_uris":{"android":"levelo://app?vid=e188465a-29cf-4a9d-b660-9b143dd9b51c","ios":"levelo://app?vid=e188465a-29cf-4a9d-b660-9b143dd9b51c"},"vehicle_type_id":"4","last_reported":1684872407,"current_range_meters":21600,"station_id":"","pricing_plan_id":"free"},{"bike_id":"bb2ddc77-29f6-4c3d-aea5-0e24e086521d","system_id":"levelo_inurba_marseille","lat":43.29866,"lon":5.37641,"is_reserved":false,"is_disabled":false,"rental_uris":{"android":"levelo://app?vid=bb2ddc77-29f6-4c3d-aea5-0e24e086521d","ios":"levelo://app?vid=bb2ddc77-29f6-4c3d-aea5-0e24e086521d"},"vehicle_type_id":"4","last_reported":1684872407,"current_range_meters":18400,"station_id":"","pricing_plan_id":"free"},{"bike_id":"0022c8e0-b57f-4a16-94cb-1fbd25366096","system_id":"levelo_inurba_marseille","lat":43.29621,"lon":5.37143,"is_reserved":false,"is_disabled":false,"rental_uris":{"android":"levelo://app?vid=0022c8e0-b57f-4a16-94cb-1fbd25366096","ios":"levelo://app?vid=0022c8e0-b57f-4a16-94cb-1fbd25366096"},"vehicle_type_id":"4","last_reported":1684872407,"current_range_meters":29600,"station_id":"ce4bgk12rcd13ifvqbj0","pricing_plan_id":"free"},{"bike_id":"57fddf2b-8233-45d6-b567-ef9c31343836","system_id":"levelo_inurba_marseille","lat":43.296129,"lon":5.370777,"is_reserved":false,"is_disabled":false,"rental_uris":{"android":"levelo://app?vid=57fddf2b-8233-45d6-b567-ef9c31343836","ios":"levelo://app?vid=57fddf2b-8233-45d6-b567-ef9c31343836"},"vehicle_type_id":"4","last_reported":1684872407,"current_range_meters":0,"station_id":"ce4bgnh2rcd13ifvqc0g","pricing_plan_id":"free"},{"bike_id":"e0c87f22-9c7a-4292-a870-d101d96dbe30","system_id":"levelo_inurba_marseille","lat":43.29573,"lon":5.367355,"is_reserved":false,"is_disabled":false,"rental_uris":{"android":"levelo://app?vid=e0c87f22-9c7a-4292-a870-d101d96dbe30","ios":"levelo://app?vid=e0c87f22-9c7a-4292-a870-d101d96dbe30"},"vehicle_type_id":"4","last_reported":1684872407,"current_range_meters":26800,"station_id":"ce4bgph2rcd13ifvqc2g","pricing_plan_id":"free"},{"bike_id":"0ce0f55b-1e98-41f9-87ad-b2cb1dc5155d","system_id":"levelo_inurba_marseille","lat":43.29577,"lon":5.36738,"is_reserved":false,"is_disabled":false,"rental_uris":{"android":"levelo://app?vid=0ce0f55b-1e98-41f9-87ad-b2cb1dc5155d","ios":"levelo://app?vid=0ce0f55b-1e98-41f9-87ad-b2cb1dc5155d"},"vehicle_type_id":"4","last_reported":1684872407,"current_range_meters":0,"station_id":"ce4bgph2rcd13ifvqc2g","pricing_plan_id":"free"},{"bike_id":"667a976c-f637-445b-b6c1-cfe7c50aeb62","system_id":"levelo_inurba_marseille","lat":43.309589,"lon":5.390258,"is_reserved":false,"is_disabled":false,"rental_uris":{"android":"levelo://app?vid=667a976c-f637-445b-b6c1-cfe7c50aeb62","ios":"levelo://app?vid=667a976c-f637-445b-b6c1-cfe7c50aeb62"},"vehicle_type_id":"4","last_reported":1684872407,"current_range_meters":13200,"station_id":"ce4bgup2rcd13ifvqco0","pricing_plan_id":"free"},{"bike_id":"3f1a6199-5309-44cd-b398-0b111cc33546","system_id":"levelo_inurba_marseille","lat":43.29585,"lon":5.374,"is_reserved":false,"is_disabled":false,"rental_uris":{"android":"levelo://app?vid=3f1a6199-5309-44cd-b398-0b111cc33546","ios":"levelo://app?vid=3f1a6199-5309-44cd-b398-0b111cc33546"},"vehicle_type_id":"4","last_reported":1684872407,"current_range_meters":7200,"station_id":"","pricing_plan_id":"free"},{"bike_id":"d73ca421-732e-4b3a-9566-cf9a7f66529f","system_id":"levelo_inurba_marseille","lat":43.30429,"lon":5.38885,"is_reserved":false,"is_disabled":false,"rental_uris":{"android":"levelo://app?vid=d73ca421-732e-4b3a-9566-cf9a7f66529f","ios":"levelo://app?vid=d73ca421-732e-4b3a-9566-cf9a7f66529f"},"vehicle_type_id":"4","last_reported":1684872407,"current_range_meters":23200,"station_id":"ce4bgk12rcd13ifvqbi0","pricing_plan_id":"free"},{"bike_id":"6db2183b-32ee-4a41-ae34-7e32455511e7","system_id":"levelo_inurba_marseille","lat":43.304274,"lon":5.388873,"is_reserved":false,"is_disabled":false,"rental_uris":{"android":"levelo://app?vid=6db2183b-32ee-4a41-ae34-7e32455511e7","ios":"levelo://app?vid=6db2183b-32ee-4a41-ae34-7e32455511e7"},"vehicle_type_id":"4","last_reported":1684872407,"current_range_meters":2000,"station_id":"ce4bgk12rcd13ifvqbi0","pricing_plan_id":"free"},{"bike_id":"5b0647cd-ee7a-444d-8aba-6d36d4ca37ed","system_id":"levelo_inurba_marseille","lat":43.304274,"lon":5.388873,"is_reserved":false,"is_disabled":false,"rental_uris":{"android":"levelo://app?vid=5b0647cd-ee7a-444d-8aba-6d36d4ca37ed","ios":"levelo://app?vid=5b0647cd-ee7a-444d-8aba-6d36d4ca37ed"},"vehicle_type_id":"4","last_reported":1684872407,"current_range_meters":6000,"station_id":"ce4bgk12rcd13ifvqbi0","pricing_plan_id":"free"},{"bike_id":"915f2ec6-c495-41f5-b574-b399f423024c","system_id":"levelo_inurba_marseille","lat":43.298037,"lon":5.381066,"is_reserved":false,"is_disabled":false,"rental_uris":{"android":"levelo://app?vid=915f2ec6-c495-41f5-b574-b399f423024c","ios":"levelo://app?vid=915f2ec6-c495-41f5-b574-b399f423024c"},"vehicle_type_id":"4","last_reported":1684872407,"current_range_meters":4000,"station_id":"ce4bgip2rcd13ifvqbb0","pricing_plan_id":"free"},{"bike_id":"01ca4f23-43c9-4796-aeda-82774257684c","system_id":"levelo_inurba_marseille","lat":43.299707,"lon":5.384859,"is_reserved":false,"is_disabled":false,"rental_uris":{"android":"levelo://app?vid=01ca4f23-43c9-4796-aeda-82774257684c","ios":"levelo://app?vid=01ca4f23-43c9-4796-aeda-82774257684c"},"vehicle_type_id":"4","last_reported":1684872407,"current_range_meters":1200,"station_id":"ce4bgj92rcd13ifvqbd0","pricing_plan_id":"free"},{"bike_id":"90f70f3b-89e9-4fd1-994d-4cbfce1ad61c","system_id":"levelo_inurba_marseille","lat":43.29719,"lon":5.38117,"is_reserved":false,"is_disabled":false,"rental_uris":{"android":"levelo://app?vid=90f70f3b-89e9-4fd1-994d-4cbfce1ad61c","ios":"levelo://app?vid=90f70f3b-89e9-4fd1-994d-4cbfce1ad61c"},"vehicle_type_id":"4","last_reported":1684872407,"current_range_meters":1600,"station_id":"","pricing_plan_id":"free"},{"bike_id":"3f8c51b1-976c-4389-91e4-6aba882bdcd1","system_id":"levelo_inurba_marseille","lat":43.32365,"lon":5.38878,"is_reserved":false,"is_disabled":false,"rental_uris":{"android":"levelo://app?vid=3f8c51b1-976c-4389-91e4-6aba882bdcd1","ios":"levelo://app?vid=3f8c51b1-976c-4389-91e4-6aba882bdcd1"},"vehicle_type_id":"4","last_reported":1684872407,"current_range_meters":14400,"station_id":"ce4bhqp2rcd13ifvqhog","pricing_plan_id":"free"},{"bike_id":"b2239e09-41dc-4cde-9b2f-b27fe7d0a355","system_id":"levelo_inurba_marseille","lat":43.32367,"lon":5.388836,"is_reserved":false,"is_disabled":false,"rental_uris":{"android":"levelo://app?vid=b2239e09-41dc-4cde-9b2f-b27fe7d0a355","ios":"levelo://app?vid=b2239e09-41dc-4cde-9b2f-b27fe7d0a355"},"vehicle_type_id":"4","last_reported":1684872407,"current_range_meters":20400,"station_id":"ce4bhqp2rcd13ifvqhog","pricing_plan_id":"free"},{"bike_id":"f2371f63-e4eb-48fe-aaa9-64cb538c1f31","system_id":"levelo_inurba_marseille","lat":43.32364,"lon":5.3888,"is_reserved":false,"is_disabled":false,"rental_uris":{"android":"levelo://app?vid=f2371f63-e4eb-48fe-aaa9-64cb538c1f31","ios":"levelo://app?vid=f2371f63-e4eb-48fe-aaa9-64cb538c1f31"},"vehicle_type_id":"4","last_reported":1684872407,"current_range_meters":28800,"station_id":"ce4bhqp2rcd13ifvqhog","pricing_plan_id":"free"},{"bike_id":"6e929eea-ce83-4051-9199-c8d1e6f83d61","system_id":"levelo_inurba_marseille","lat":43.32367,"lon":5.38879,"is_reserved":false,"is_disabled":false,"rental_uris":{"android":"levelo://app?vid=6e929eea-ce83-4051-9199-c8d1e6f83d61","ios":"levelo://app?vid=6e929eea-ce83-4051-9199-c8d1e6f83d61"},"vehicle_type_id":"4","last_reported":1684872407,"current_range_meters":12400,"station_id":"ce4bhqp2rcd13ifvqhog","pricing_plan_id":"free"},{"bike_id":"fedfefbd-f4ac-4628-9143-199cd82a31c7","system_id":"levelo_inurba_marseille","lat":43.32367,"lon":5.388836,"is_reserved":false,"is_disabled":false,"rental_uris":{"android":"levelo://app?vid=fedfefbd-f4ac-4628-9143-199cd82a31c7","ios":"levelo://app?vid=fedfefbd-f4ac-4628-9143-199cd82a31c7"},"vehicle_type_id":"4","last_reported":1684872407,"current_range_meters":18000,"station_id":"ce4bhqp2rcd13ifvqhog","pricing_plan_id":"free"},{"bike_id":"435efeae-a7e4-48dc-9ebe-ef72d32dbddd","system_id":"levelo_inurba_marseille","lat":43.32369,"lon":5.38883,"is_reserved":false,"is_disabled":false,"rental_uris":{"android":"levelo://app?vid=435efeae-a7e4-48dc-9ebe-ef72d32dbddd","ios":"levelo://app?vid=435efeae-a7e4-48dc-9ebe-ef72d32dbddd"},"vehicle_type_id":"4","last_reported":1684872407,"current_range_meters":21600,"station_id":"ce4bhqp2rcd13ifvqhog","pricing_plan_id":"free"},{"bike_id":"01d401da-ad68-4b2e-a4ac-24f3f8771d91","system_id":"levelo_inurba_marseille","lat":43.32367,"lon":5.388836,"is_reserved":false,"is_disabled":false,"rental_uris":{"android":"levelo://app?vid=01d401da-ad68-4b2e-a4ac-24f3f8771d91","ios":"levelo://app?vid=01d401da-ad68-4b2e-a4ac-24f3f8771d91"},"vehicle_type_id":"4","last_reported":1684872407,"current_range_meters":26000,"station_id":"ce4bhqp2rcd13ifvqhog","pricing_plan_id":"free"},{"bike_id":"278cf516-bd46-4a4e-b2c7-90ce64b42f33","system_id":"levelo_inurba_marseille","lat":43.32367,"lon":5.388836,"is_reserved":false,"is_disabled":false,"rental_uris":{"android":"levelo://app?vid=278cf516-bd46-4a4e-b2c7-90ce64b42f33","ios":"levelo://app?vid=278cf516-bd46-4a4e-b2c7-90ce64b42f33"},"vehicle_type_id":"4","last_reported":1684872407,"current_range_meters":15600,"station_id":"ce4bhqp2rcd13ifvqhog","pricing_plan_id":"free"},{"bike_id":"aee3c62a-4fec-4494-b544-5068425fcd54","system_id":"levelo_inurba_marseille","lat":43.302992,"lon":5.392136,"is_reserved":false,"is_disabled":false,"rental_uris":{"android":"levelo://app?vid=aee3c62a-4fec-4494-b544-5068425fcd54","ios":"levelo://app?vid=aee3c62a-4fec-4494-b544-5068425fcd54"},"vehicle_type_id":"4","last_reported":1684872407,"current_range_meters":0,"station_id":"ce4bgkh2rcd13ifvqbk0","pricing_plan_id":"free"},{"bike_id":"4d3fb78a-62d2-4138-b09e-a31763943a32","system_id":"levelo_inurba_marseille","lat":43.29371,"lon":5.37854,"is_reserved":false,"is_disabled":false,"rental_uris":{"android":"levelo://app?vid=4d3fb78a-62d2-4138-b09e-a31763943a32","ios":"levelo://app?vid=4d3fb78a-62d2-4138-b09e-a31763943a32"},"vehicle_type_id":"4","last_reported":1684872407,"current_range_meters":20800,"station_id":"ce4bgjh2rcd13ifvqbf0","pricing_plan_id":"free"},{"bike_id":"f0f47f63-1334-48ff-b01b-cf2ed2fba181","system_id":"levelo_inurba_marseille","lat":43.2936,"lon":5.37835,"is_reserved":false,"is_disabled":false,"rental_uris":{"android":"levelo://app?vid=f0f47f63-1334-48ff-b01b-cf2ed2fba181","ios":"levelo://app?vid=f0f47f63-1334-48ff-b01b-cf2ed2fba181"},"vehicle_type_id":"4","last_reported":1684872407,"current_range_meters":0,"station_id":"ce4bgjh2rcd13ifvqbf0","pricing_plan_id":"free"},{"bike_id":"62394694-ddbc-4f18-9567-458ae4c2b6fe","system_id":"levelo_inurba_marseille","lat":43.298764,"lon":5.388973,"is_reserved":false,"is_disabled":false,"rental_uris":{"android":"levelo://app?vid=62394694-ddbc-4f18-9567-458ae4c2b6fe","ios":"levelo://app?vid=62394694-ddbc-4f18-9567-458ae4c2b6fe"},"vehicle_type_id":"4","last_reported":1684872407,"current_range_meters":11200,"station_id":"ce4bh392rcd13ifvqdl0","pricing_plan_id":"free"},{"bike_id":"6fab38be-b641-49b7-ac46-04b7f42e0e6e","system_id":"levelo_inurba_marseille","lat":43.292663,"lon":5.376389,"is_reserved":false,"is_disabled":false,"rental_uris":{"android":"levelo://app?vid=6fab38be-b641-49b7-ac46-04b7f42e0e6e","ios":"levelo://app?vid=6fab38be-b641-49b7-ac46-04b7f42e0e6e"},"vehicle_type_id":"4","last_reported":1684872407,"current_range_meters":3200,"station_id":"ce4bgi12rcd13ifvqb80","pricing_plan_id":"free"},{"bike_id":"54c6f172-54d1-46b0-a9c1-bc128b7d13ec","system_id":"levelo_inurba_marseille","lat":43.309038,"lon":5.396546,"is_reserved":false,"is_disabled":false,"rental_uris":{"android":"levelo://app?vid=54c6f172-54d1-46b0-a9c1-bc128b7d13ec","ios":"levelo://app?vid=54c6f172-54d1-46b0-a9c1-bc128b7d13ec"},"vehicle_type_id":"4","last_reported":1684872407,"current_range_meters":7600,"station_id":"ce4bh012rcd13ifvqcv0","pricing_plan_id":"free"},{"bike_id":"44cb98f5-1dd5-4085-9d37-159ebf1bc69c","system_id":"levelo_inurba_marseille","lat":43.313291,"lon":5.396838,"is_reserved":false,"is_disabled":false,"rental_uris":{"android":"levelo://app?vid=44cb98f5-1dd5-4085-9d37-159ebf1bc69c","ios":"levelo://app?vid=44cb98f5-1dd5-4085-9d37-159ebf1bc69c"},"vehicle_type_id":"4","last_reported":1684872407,"current_range_meters":13200,"station_id":"ce4bgvp2rcd13ifvqcu0","pricing_plan_id":"free"},{"bike_id":"dc23d398-a0e1-4c1e-b3e2-79924dcb61c1","system_id":"levelo_inurba_marseille","lat":43.313291,"lon":5.396838,"is_reserved":false,"is_disabled":false,"rental_uris":{"android":"levelo://app?vid=dc23d398-a0e1-4c1e-b3e2-79924dcb61c1","ios":"levelo://app?vid=dc23d398-a0e1-4c1e-b3e2-79924dcb61c1"},"vehicle_type_id":"4","last_reported":1684872407,"current_range_meters":4400,"station_id":"ce4bgvp2rcd13ifvqcu0","pricing_plan_id":"free"},{"bike_id":"8abb052a-54d7-406c-ab0f-a49d41527023","system_id":"levelo_inurba_marseille","lat":43.313291,"lon":5.396838,"is_reserved":false,"is_disabled":false,"rental_uris":{"android":"levelo://app?vid=8abb052a-54d7-406c-ab0f-a49d41527023","ios":"levelo://app?vid=8abb052a-54d7-406c-ab0f-a49d41527023"},"vehicle_type_id":"4","last_reported":1684872407,"current_range_meters":4400,"station_id":"ce4bgvp2rcd13ifvqcu0","pricing_plan_id":"free"},{"bike_id":"689d641b-e2d6-421d-a1a4-1aed3ab15277","system_id":"levelo_inurba_marseille","lat":43.313291,"lon":5.396838,"is_reserved":false,"is_disabled":false,"rental_uris":{"android":"levelo://app?vid=689d641b-e2d6-421d-a1a4-1aed3ab15277","ios":"levelo://app?vid=689d641b-e2d6-421d-a1a4-1aed3ab15277"},"vehicle_type_id":"4","last_reported":1684872407,"current_range_meters":14400,"station_id":"ce4bgvp2rcd13ifvqcu0","pricing_plan_id":"free"},{"bike_id":"3e7c7ecc-c6fa-450b-90f1-23fcfce19293","system_id":"levelo_inurba_marseille","lat":43.31333,"lon":5.39693,"is_reserved":false,"is_disabled":false,"rental_uris":{"android":"levelo://app?vid=3e7c7ecc-c6fa-450b-90f1-23fcfce19293","ios":"levelo://app?vid=3e7c7ecc-c6fa-450b-90f1-23fcfce19293"},"vehicle_type_id":"4","last_reported":1684872407,"current_range_meters":800,"station_id":"ce4bgvp2rcd13ifvqcu0","pricing_plan_id":"free"},{"bike_id":"4c1e3b57-92b1-4105-b6ab-3cfb2eef35ca","system_id":"levelo_inurba_marseille","lat":43.313109,"lon":5.396952,"is_reserved":false,"is_disabled":false,"rental_uris":{"android":"levelo://app?vid=4c1e3b57-92b1-4105-b6ab-3cfb2eef35ca","ios":"levelo://app?vid=4c1e3b57-92b1-4105-b6ab-3cfb2eef35ca"},"vehicle_type_id":"4","last_reported":1684872407,"current_range_meters":400,"station_id":"","pricing_plan_id":"free"},{"bike_id":"2c665ebf-313d-4e9d-b836-a6b59fda5c98","system_id":"levelo_inurba_marseille","lat":43.313291,"lon":5.396838,"is_reserved":false,"is_disabled":false,"rental_uris":{"android":"levelo://app?vid=2c665ebf-313d-4e9d-b836-a6b59fda5c98","ios":"levelo://app?vid=2c665ebf-313d-4e9d-b836-a6b59fda5c98"},"vehicle_type_id":"4","last_reported":1684872407,"current_range_meters":2000,"station_id":"ce4bgvp2rcd13ifvqcu0","pricing_plan_id":"free"},{"bike_id":"e51623fe-c624-4c27-8da1-76f132393614","system_id":"levelo_inurba_marseille","lat":43.30885,"lon":5.39657,"is_reserved":false,"is_disabled":false,"rental_uris":{"android":"levelo://app?vid=e51623fe-c624-4c27-8da1-76f132393614","ios":"levelo://app?vid=e51623fe-c624-4c27-8da1-76f132393614"},"vehicle_type_id":"4","last_reported":1684872407,"current_range_meters":12000,"station_id":"ce4bh012rcd13ifvqcv0","pricing_plan_id":"free"},{"bike_id":"4f7c8bed-1bf8-4a63-8c02-f7954328d701","system_id":"levelo_inurba_marseille","lat":43.30881,"lon":5.39663,"is_reserved":false,"is_disabled":false,"rental_uris":{"android":"levelo://app?vid=4f7c8bed-1bf8-4a63-8c02-f7954328d701","ios":"levelo://app?vid=4f7c8bed-1bf8-4a63-8c02-f7954328d701"},"vehicle_type_id":"4","last_reported":1684872407,"current_range_meters":12400,"station_id":"","pricing_plan_id":"free"},{"bike_id":"c5acdd90-7174-48da-bf24-dce574cabd8f","system_id":"levelo_inurba_marseille","lat":43.309038,"lon":5.396546,"is_reserved":false,"is_disabled":false,"rental_uris":{"android":"levelo://app?vid=c5acdd90-7174-48da-bf24-dce574cabd8f","ios":"levelo://app?vid=c5acdd90-7174-48da-bf24-dce574cabd8f"},"vehicle_type_id":"4","last_reported":1684872407,"current_range_meters":12400,"station_id":"ce4bh012rcd13ifvqcv0","pricing_plan_id":"free"},{"bike_id":"8cf7a83c-6699-448a-b9ca-966581dca435","system_id":"levelo_inurba_marseille","lat":43.29529,"lon":5.385581,"is_reserved":false,"is_disabled":false,"rental_uris":{"android":"levelo://app?vid=8cf7a83c-6699-448a-b9ca-966581dca435","ios":"levelo://app?vid=8cf7a83c-6699-448a-b9ca-966581dca435"},"vehicle_type_id":"4","last_reported":1684872407,"current_range_meters":13200,"station_id":"ce4bgih2rcd13ifvqba0","pricing_plan_id":"free"},{"bike_id":"5fab49be-f6f7-4c3d-a91f-f663edd371f7","system_id":"levelo_inurba_marseille","lat":43.29529,"lon":5.385581,"is_reserved":false,"is_disabled":false,"rental_uris":{"android":"levelo://app?vid=5fab49be-f6f7-4c3d-a91f-f663edd371f7","ios":"levelo://app?vid=5fab49be-f6f7-4c3d-a91f-f663edd371f7"},"vehicle_type_id":"4","last_reported":1684872407,"current_range_meters":13600,"station_id":"ce4bgih2rcd13ifvqba0","pricing_plan_id":"free"},{"bike_id":"492e7a87-f51a-4b9e-ab7a-8103ee84f433","system_id":"levelo_inurba_marseille","lat":43.29529,"lon":5.385581,"is_reserved":false,"is_disabled":false,"rental_uris":{"android":"levelo://app?vid=492e7a87-f51a-4b9e-ab7a-8103ee84f433","ios":"levelo://app?vid=492e7a87-f51a-4b9e-ab7a-8103ee84f433"},"vehicle_type_id":"4","last_reported":1684872407,"current_range_meters":31200,"station_id":"ce4bgih2rcd13ifvqba0","pricing_plan_id":"free"},{"bike_id":"66628fc6-6fad-4e2f-b58f-93c7acf672ee","system_id":"levelo_inurba_marseille","lat":43.29529,"lon":5.385581,"is_reserved":false,"is_disabled":false,"rental_uris":{"android":"levelo://app?vid=66628fc6-6fad-4e2f-b58f-93c7acf672ee","ios":"levelo://app?vid=66628fc6-6fad-4e2f-b58f-93c7acf672ee"},"vehicle_type_id":"4","last_reported":1684872407,"current_range_meters":22800,"station_id":"ce4bgih2rcd13ifvqba0","pricing_plan_id":"free"},{"bike_id":"f13cec33-e0d8-42e6-b8c6-e74cacfee919","system_id":"levelo_inurba_marseille","lat":43.29529,"lon":5.385581,"is_reserved":false,"is_disabled":false,"rental_uris":{"android":"levelo://app?vid=f13cec33-e0d8-42e6-b8c6-e74cacfee919","ios":"levelo://app?vid=f13cec33-e0d8-42e6-b8c6-e74cacfee919"},"vehicle_type_id":"4","last_reported":1684872407,"current_range_meters":3600,"station_id":"ce4bgih2rcd13ifvqba0","pricing_plan_id":"free"},{"bike_id":"99b72089-bb11-45b5-9e51-1f140d43e87d","system_id":"levelo_inurba_marseille","lat":43.29529,"lon":5.385581,"is_reserved":false,"is_disabled":false,"rental_uris":{"android":"levelo://app?vid=99b72089-bb11-45b5-9e51-1f140d43e87d","ios":"levelo://app?vid=99b72089-bb11-45b5-9e51-1f140d43e87d"},"vehicle_type_id":"4","last_reported":1684872407,"current_range_meters":28000,"station_id":"ce4bgih2rcd13ifvqba0","pricing_plan_id":"free"},{"bike_id":"d5acea89-cce9-4638-8b79-eec0e2d2297a","system_id":"levelo_inurba_marseille","lat":43.29529,"lon":5.385581,"is_reserved":false,"is_disabled":false,"rental_uris":{"android":"levelo://app?vid=d5acea89-cce9-4638-8b79-eec0e2d2297a","ios":"levelo://app?vid=d5acea89-cce9-4638-8b79-eec0e2d2297a"},"vehicle_type_id":"4","last_reported":1684872407,"current_range_meters":1200,"station_id":"ce4bgih2rcd13ifvqba0","pricing_plan_id":"free"},{"bike_id":"e4b89396-478a-4713-96c1-79024edeb1f4","system_id":"levelo_inurba_marseille","lat":43.29529,"lon":5.385581,"is_reserved":false,"is_disabled":false,"rental_uris":{"android":"levelo://app?vid=e4b89396-478a-4713-96c1-79024edeb1f4","ios":"levelo://app?vid=e4b89396-478a-4713-96c1-79024edeb1f4"},"vehicle_type_id":"4","last_reported":1684872407,"current_range_meters":19600,"station_id":"ce4bgih2rcd13ifvqba0","pricing_plan_id":"free"},{"bike_id":"5dfd0d81-e960-46c0-8184-3a82293ca8b2","system_id":"levelo_inurba_marseille","lat":43.29529,"lon":5.385581,"is_reserved":false,"is_disabled":false,"rental_uris":{"android":"levelo://app?vid=5dfd0d81-e960-46c0-8184-3a82293ca8b2","ios":"levelo://app?vid=5dfd0d81-e960-46c0-8184-3a82293ca8b2"},"vehicle_type_id":"4","last_reported":1684872407,"current_range_meters":31600,"station_id":"ce4bgih2rcd13ifvqba0","pricing_plan_id":"free"},{"bike_id":"eaca9d72-2593-48e4-8062-facff55ebb40","system_id":"levelo_inurba_marseille","lat":43.29529,"lon":5.385581,"is_reserved":false,"is_disabled":false,"rental_uris":{"android":"levelo://app?vid=eaca9d72-2593-48e4-8062-facff55ebb40","ios":"levelo://app?vid=eaca9d72-2593-48e4-8062-facff55ebb40"},"vehicle_type_id":"4","last_reported":1684872407,"current_range_meters":3200,"station_id":"ce4bgih2rcd13ifvqba0","pricing_plan_id":"free"},{"bike_id":"dc8320ce-646e-4dc3-bf1a-ac22f2ce25fd","system_id":"levelo_inurba_marseille","lat":43.29529,"lon":5.385581,"is_reserved":false,"is_disabled":false,"rental_uris":{"android":"levelo://app?vid=dc8320ce-646e-4dc3-bf1a-ac22f2ce25fd","ios":"levelo://app?vid=dc8320ce-646e-4dc3-bf1a-ac22f2ce25fd"},"vehicle_type_id":"4","last_reported":1684872407,"current_range_meters":18400,"station_id":"ce4bgih2rcd13ifvqba0","pricing_plan_id":"free"},{"bike_id":"8401da7e-25ae-4d50-99ce-fc8e9d81d6f6","system_id":"levelo_inurba_marseille","lat":43.290319,"lon":5.375732,"is_reserved":false,"is_disabled":false,"rental_uris":{"android":"levelo://app?vid=8401da7e-25ae-4d50-99ce-fc8e9d81d6f6","ios":"levelo://app?vid=8401da7e-25ae-4d50-99ce-fc8e9d81d6f6"},"vehicle_type_id":"4","last_reported":1684872407,"current_range_meters":28000,"station_id":"ce4bh692rcd13ifvqe90","pricing_plan_id":"free"},{"bike_id":"c00c10ba-bf1c-4884-9085-ab49342c17cc","system_id":"levelo_inurba_marseille","lat":43.31028,"lon":5.39816,"is_reserved":false,"is_disabled":false,"rental_uris":{"android":"levelo://app?vid=c00c10ba-bf1c-4884-9085-ab49342c17cc","ios":"levelo://app?vid=c00c10ba-bf1c-4884-9085-ab49342c17cc"},"vehicle_type_id":"4","last_reported":1684872407,"current_range_meters":27600,"station_id":"","pricing_plan_id":"free"},{"bike_id":"ae5a3a83-fd34-46b0-b676-43df5adc9e80","system_id":"levelo_inurba_marseille","lat":43.290631,"lon":5.359244,"is_reserved":false,"is_disabled":false,"rental_uris":{"android":"levelo://app?vid=ae5a3a83-fd34-46b0-b676-43df5adc9e80","ios":"levelo://app?vid=ae5a3a83-fd34-46b0-b676-43df5adc9e80"},"vehicle_type_id":"4","last_reported":1684872407,"current_range_meters":20400,"station_id":"ce4bha92rcd13ifvqeg0","pricing_plan_id":"free"},{"bike_id":"7d98a2a3-0803-4c01-935d-35d45d96ba94","system_id":"levelo_inurba_marseille","lat":43.290631,"lon":5.359244,"is_reserved":false,"is_disabled":false,"rental_uris":{"android":"levelo://app?vid=7d98a2a3-0803-4c01-935d-35d45d96ba94","ios":"levelo://app?vid=7d98a2a3-0803-4c01-935d-35d45d96ba94"},"vehicle_type_id":"4","last_reported":1684872407,"current_range_meters":8400,"station_id":"ce4bha92rcd13ifvqeg0","pricing_plan_id":"free"},{"bike_id":"1642125e-f634-49ff-8312-210f51505601","system_id":"levelo_inurba_marseille","lat":43.290631,"lon":5.359244,"is_reserved":false,"is_disabled":false,"rental_uris":{"android":"levelo://app?vid=1642125e-f634-49ff-8312-210f51505601","ios":"levelo://app?vid=1642125e-f634-49ff-8312-210f51505601"},"vehicle_type_id":"4","last_reported":1684872407,"current_range_meters":13200,"station_id":"ce4bha92rcd13ifvqeg0","pricing_plan_id":"free"},{"bike_id":"17031fa6-a13f-412c-9f26-7d411e86b3bd","system_id":"levelo_inurba_marseille","lat":43.29036,"lon":5.37559,"is_reserved":false,"is_disabled":false,"rental_uris":{"android":"levelo://app?vid=17031fa6-a13f-412c-9f26-7d411e86b3bd","ios":"levelo://app?vid=17031fa6-a13f-412c-9f26-7d411e86b3bd"},"vehicle_type_id":"4","last_reported":1684872407,"current_range_meters":11600,"station_id":"ce4bh692rcd13ifvqe90","pricing_plan_id":"free"},{"bike_id":"91ce5bc1-6d4a-4daf-ab13-c3105ff3effb","system_id":"levelo_inurba_marseille","lat":43.294153,"lon":5.386305,"is_reserved":false,"is_disabled":false,"rental_uris":{"android":"levelo://app?vid=91ce5bc1-6d4a-4daf-ab13-c3105ff3effb","ios":"levelo://app?vid=91ce5bc1-6d4a-4daf-ab13-c3105ff3effb"},"vehicle_type_id":"4","last_reported":1684872407,"current_range_meters":21600,"station_id":"ce4bh2h2rcd13ifvqdh0","pricing_plan_id":"free"},{"bike_id":"52c63499-65d1-4eba-a584-f8f95edf8777","system_id":"levelo_inurba_marseille","lat":43.28937,"lon":5.36634,"is_reserved":false,"is_disabled":false,"rental_uris":{"android":"levelo://app?vid=52c63499-65d1-4eba-a584-f8f95edf8777","ios":"levelo://app?vid=52c63499-65d1-4eba-a584-f8f95edf8777"},"vehicle_type_id":"4","last_reported":1684872407,"current_range_meters":20800,"station_id":"ce4bhap2rcd13ifvqek0","pricing_plan_id":"free"},{"bike_id":"719f12ad-4f16-4f20-9df7-e37550916ccc","system_id":"levelo_inurba_marseille","lat":43.290327,"lon":5.375711,"is_reserved":false,"is_disabled":false,"rental_uris":{"android":"levelo://app?vid=719f12ad-4f16-4f20-9df7-e37550916ccc","ios":"levelo://app?vid=719f12ad-4f16-4f20-9df7-e37550916ccc"},"vehicle_type_id":"4","last_reported":1684872407,"current_range_meters":30000,"station_id":"ce4bh692rcd13ifvqe90","pricing_plan_id":"free"},{"bike_id":"20e0fdfe-4bed-4fb3-94bb-b8d029b8b59c","system_id":"levelo_inurba_marseille","lat":43.292644,"lon":5.384257,"is_reserved":false,"is_disabled":false,"rental_uris":{"android":"levelo://app?vid=20e0fdfe-4bed-4fb3-94bb-b8d029b8b59c","ios":"levelo://app?vid=20e0fdfe-4bed-4fb3-94bb-b8d029b8b59c"},"vehicle_type_id":"4","last_reported":1684872407,"current_range_meters":8000,"station_id":"ce4bh692rcd13ifvqea0","pricing_plan_id":"free"},{"bike_id":"10173f54-ce03-47c2-aa4d-d9bd41a6cd92","system_id":"levelo_inurba_marseille","lat":43.304296,"lon":5.397513,"is_reserved":false,"is_disabled":false,"rental_uris":{"android":"levelo://app?vid=10173f54-ce03-47c2-aa4d-d9bd41a6cd92","ios":"levelo://app?vid=10173f54-ce03-47c2-aa4d-d9bd41a6cd92"},"vehicle_type_id":"4","last_reported":1684872407,"current_range_meters":10400,"station_id":"ce4bh092rcd13ifvqd20","pricing_plan_id":"free"},{"bike_id":"9a5e3a6e-e0af-4258-82ff-0b1f3a635cc1","system_id":"levelo_inurba_marseille","lat":43.292644,"lon":5.384257,"is_reserved":false,"is_disabled":false,"rental_uris":{"android":"levelo://app?vid=9a5e3a6e-e0af-4258-82ff-0b1f3a635cc1","ios":"levelo://app?vid=9a5e3a6e-e0af-4258-82ff-0b1f3a635cc1"},"vehicle_type_id":"4","last_reported":1684872407,"current_range_meters":17600,"station_id":"ce4bh692rcd13ifvqea0","pricing_plan_id":"free"},{"bike_id":"5be9e55d-723c-4686-bba5-7790c5ed9d51","system_id":"levelo_inurba_marseille","lat":43.304274,"lon":5.397513,"is_reserved":false,"is_disabled":false,"rental_uris":{"android":"levelo://app?vid=5be9e55d-723c-4686-bba5-7790c5ed9d51","ios":"levelo://app?vid=5be9e55d-723c-4686-bba5-7790c5ed9d51"},"vehicle_type_id":"4","last_reported":1684872407,"current_range_meters":11600,"station_id":"ce4bh092rcd13ifvqd20","pricing_plan_id":"free"},{"bike_id":"5bc9d63f-d58a-4c95-81ce-36660013497f","system_id":"levelo_inurba_marseille","lat":43.292644,"lon":5.384257,"is_reserved":false,"is_disabled":false,"rental_uris":{"android":"levelo://app?vid=5bc9d63f-d58a-4c95-81ce-36660013497f","ios":"levelo://app?vid=5bc9d63f-d58a-4c95-81ce-36660013497f"},"vehicle_type_id":"4","last_reported":1684872407,"current_range_meters":8400,"station_id":"ce4bh692rcd13ifvqea0","pricing_plan_id":"free"},{"bike_id":"f78a792c-9798-42b6-8e80-37da8b5406b9","system_id":"levelo_inurba_marseille","lat":43.292644,"lon":5.384257,"is_reserved":false,"is_disabled":false,"rental_uris":{"android":"levelo://app?vid=f78a792c-9798-42b6-8e80-37da8b5406b9","ios":"levelo://app?vid=f78a792c-9798-42b6-8e80-37da8b5406b9"},"vehicle_type_id":"4","last_reported":1684872407,"current_range_meters":14400,"station_id":"ce4bh692rcd13ifvqea0","pricing_plan_id":"free"},{"bike_id":"fb1275c4-558f-49b2-ac15-ca871e878bc3","system_id":"levelo_inurba_marseille","lat":43.29262,"lon":5.38441,"is_reserved":false,"is_disabled":false,"rental_uris":{"android":"levelo://app?vid=fb1275c4-558f-49b2-ac15-ca871e878bc3","ios":"levelo://app?vid=fb1275c4-558f-49b2-ac15-ca871e878bc3"},"vehicle_type_id":"4","last_reported":1684872407,"current_range_meters":10000,"station_id":"ce4bh692rcd13ifvqea0","pricing_plan_id":"free"},{"bike_id":"efc65253-6a1d-446a-a5e7-4f044e377b31","system_id":"levelo_inurba_marseille","lat":43.292644,"lon":5.384257,"is_reserved":false,"is_disabled":false,"rental_uris":{"android":"levelo://app?vid=efc65253-6a1d-446a-a5e7-4f044e377b31","ios":"levelo://app?vid=efc65253-6a1d-446a-a5e7-4f044e377b31"},"vehicle_type_id":"4","last_reported":1684872407,"current_range_meters":0,"station_id":"ce4bh692rcd13ifvqea0","pricing_plan_id":"free"},{"bike_id":"9761efe0-1ea2-46d6-882a-24a30bddeaaf","system_id":"levelo_inurba_marseille","lat":43.304274,"lon":5.397513,"is_reserved":false,"is_disabled":false,"rental_uris":{"android":"levelo://app?vid=9761efe0-1ea2-46d6-882a-24a30bddeaaf","ios":"levelo://app?vid=9761efe0-1ea2-46d6-882a-24a30bddeaaf"},"vehicle_type_id":"4","last_reported":1684872407,"current_range_meters":22000,"station_id":"ce4bh092rcd13ifvqd20","pricing_plan_id":"free"},{"bike_id":"0af75723-e6c7-45b7-a773-1204999c42ea","system_id":"levelo_inurba_marseille","lat":43.29258,"lon":5.38442,"is_reserved":false,"is_disabled":false,"rental_uris":{"android":"levelo://app?vid=0af75723-e6c7-45b7-a773-1204999c42ea","ios":"levelo://app?vid=0af75723-e6c7-45b7-a773-1204999c42ea"},"vehicle_type_id":"4","last_reported":1684872407,"current_range_meters":4400,"station_id":"ce4bh692rcd13ifvqea0","pricing_plan_id":"free"},{"bike_id":"494fc9b5-5e81-4da9-b79c-189a43f73421","system_id":"levelo_inurba_marseille","lat":43.29256,"lon":5.38443,"is_reserved":false,"is_disabled":false,"rental_uris":{"android":"levelo://app?vid=494fc9b5-5e81-4da9-b79c-189a43f73421","ios":"levelo://app?vid=494fc9b5-5e81-4da9-b79c-189a43f73421"},"vehicle_type_id":"4","last_reported":1684872407,"current_range_meters":24800,"station_id":"ce4bh692rcd13ifvqea0","pricing_plan_id":"free"},{"bike_id":"b3c613e6-c230-4b10-9f55-aa2f2a393abe","system_id":"levelo_inurba_marseille","lat":43.29257,"lon":5.38448,"is_reserved":false,"is_disabled":false,"rental_uris":{"android":"levelo://app?vid=b3c613e6-c230-4b10-9f55-aa2f2a393abe","ios":"levelo://app?vid=b3c613e6-c230-4b10-9f55-aa2f2a393abe"},"vehicle_type_id":"4","last_reported":1684872407,"current_range_meters":3600,"station_id":"ce4bh692rcd13ifvqea0","pricing_plan_id":"free"},{"bike_id":"dfa1ad6e-6436-4337-b1a9-9317f2de6a02","system_id":"levelo_inurba_marseille","lat":43.29255,"lon":5.38451,"is_reserved":false,"is_disabled":false,"rental_uris":{"android":"levelo://app?vid=dfa1ad6e-6436-4337-b1a9-9317f2de6a02","ios":"levelo://app?vid=dfa1ad6e-6436-4337-b1a9-9317f2de6a02"},"vehicle_type_id":"4","last_reported":1684872407,"current_range_meters":0,"station_id":"ce4bh692rcd13ifvqea0","pricing_plan_id":"free"},{"bike_id":"5a6aabd7-2008-4adb-bbd1-efb37b1c23d7","system_id":"levelo_inurba_marseille","lat":43.29251,"lon":5.38443,"is_reserved":false,"is_disabled":false,"rental_uris":{"android":"levelo://app?vid=5a6aabd7-2008-4adb-bbd1-efb37b1c23d7","ios":"levelo://app?vid=5a6aabd7-2008-4adb-bbd1-efb37b1c23d7"},"vehicle_type_id":"4","last_reported":1684872407,"current_range_meters":14000,"station_id":"ce4bh692rcd13ifvqea0","pricing_plan_id":"free"},{"bike_id":"3fc9a4ea-ee88-4f9b-866b-1868857e8f7c","system_id":"levelo_inurba_marseille","lat":43.29254,"lon":5.3845,"is_reserved":false,"is_disabled":false,"rental_uris":{"android":"levelo://app?vid=3fc9a4ea-ee88-4f9b-866b-1868857e8f7c","ios":"levelo://app?vid=3fc9a4ea-ee88-4f9b-866b-1868857e8f7c"},"vehicle_type_id":"4","last_reported":1684872407,"current_range_meters":14000,"station_id":"ce4bh692rcd13ifvqea0","pricing_plan_id":"free"},{"bike_id":"989af9b7-2e9d-4d7b-9e7c-e4d199c13bc7","system_id":"levelo_inurba_marseille","lat":43.292644,"lon":5.384257,"is_reserved":false,"is_disabled":false,"rental_uris":{"android":"levelo://app?vid=989af9b7-2e9d-4d7b-9e7c-e4d199c13bc7","ios":"levelo://app?vid=989af9b7-2e9d-4d7b-9e7c-e4d199c13bc7"},"vehicle_type_id":"4","last_reported":1684872407,"current_range_meters":400,"station_id":"ce4bh692rcd13ifvqea0","pricing_plan_id":"free"},{"bike_id":"96712b4a-6e3e-4157-920b-b8141c678f09","system_id":"levelo_inurba_marseille","lat":43.33043,"lon":5.38916,"is_reserved":false,"is_disabled":false,"rental_uris":{"android":"levelo://app?vid=96712b4a-6e3e-4157-920b-b8141c678f09","ios":"levelo://app?vid=96712b4a-6e3e-4157-920b-b8141c678f09"},"vehicle_type_id":"4","last_reported":1684872407,"current_range_meters":16800,"station_id":"ce4bhr92rcd13ifvqhrg","pricing_plan_id":"free"},{"bike_id":"89436d2a-e1c6-4c5d-8c21-4f5ddca0c3e6","system_id":"levelo_inurba_marseille","lat":43.33046,"lon":5.38913,"is_reserved":false,"is_disabled":false,"rental_uris":{"android":"levelo://app?vid=89436d2a-e1c6-4c5d-8c21-4f5ddca0c3e6","ios":"levelo://app?vid=89436d2a-e1c6-4c5d-8c21-4f5ddca0c3e6"},"vehicle_type_id":"4","last_reported":1684872407,"current_range_meters":19600,"station_id":"ce4bhr92rcd13ifvqhrg","pricing_plan_id":"free"},{"bike_id":"4d7a89bb-eab5-48fb-b34f-41986943f2e2","system_id":"levelo_inurba_marseille","lat":43.33043,"lon":5.38918,"is_reserved":false,"is_disabled":false,"rental_uris":{"android":"levelo://app?vid=4d7a89bb-eab5-48fb-b34f-41986943f2e2","ios":"levelo://app?vid=4d7a89bb-eab5-48fb-b34f-41986943f2e2"},"vehicle_type_id":"4","last_reported":1684872407,"current_range_meters":18800,"station_id":"ce4bhr92rcd13ifvqhrg","pricing_plan_id":"free"},{"bike_id":"2a1db518-fcd3-4aca-bbf1-1c87325f684c","system_id":"levelo_inurba_marseille","lat":43.29243,"lon":5.38445,"is_reserved":false,"is_disabled":false,"rental_uris":{"android":"levelo://app?vid=2a1db518-fcd3-4aca-bbf1-1c87325f684c","ios":"levelo://app?vid=2a1db518-fcd3-4aca-bbf1-1c87325f684c"},"vehicle_type_id":"4","last_reported":1684872407,"current_range_meters":3200,"station_id":"","pricing_plan_id":"free"},{"bike_id":"c90adfb5-6daf-417e-a007-b698a6f2f093","system_id":"levelo_inurba_marseille","lat":43.33047,"lon":5.38914,"is_reserved":false,"is_disabled":false,"rental_uris":{"android":"levelo://app?vid=c90adfb5-6daf-417e-a007-b698a6f2f093","ios":"levelo://app?vid=c90adfb5-6daf-417e-a007-b698a6f2f093"},"vehicle_type_id":"4","last_reported":1684872407,"current_range_meters":0,"station_id":"ce4bhr92rcd13ifvqhrg","pricing_plan_id":"free"},{"bike_id":"ce00f29f-15f0-4e25-881e-35f92176d5cd","system_id":"levelo_inurba_marseille","lat":43.290104,"lon":5.356111,"is_reserved":false,"is_disabled":false,"rental_uris":{"android":"levelo://app?vid=ce00f29f-15f0-4e25-881e-35f92176d5cd","ios":"levelo://app?vid=ce00f29f-15f0-4e25-881e-35f92176d5cd"},"vehicle_type_id":"4","last_reported":1684872407,"current_range_meters":0,"station_id":"ce4bhb92rcd13ifvqen0","pricing_plan_id":"free"},{"bike_id":"172434f6-3a99-4551-af2a-94feb34fda89","system_id":"levelo_inurba_marseille","lat":43.29095,"lon":5.38125,"is_reserved":false,"is_disabled":false,"rental_uris":{"android":"levelo://app?vid=172434f6-3a99-4551-af2a-94feb34fda89","ios":"levelo://app?vid=172434f6-3a99-4551-af2a-94feb34fda89"},"vehicle_type_id":"4","last_reported":1684872407,"current_range_meters":13200,"station_id":"ce4bh512rcd13ifvqe2g","pricing_plan_id":"free"},{"bike_id":"294fe678-b973-4b26-8be0-7309f5b71cd0","system_id":"levelo_inurba_marseille","lat":43.295169,"lon":5.390426,"is_reserved":false,"is_disabled":false,"rental_uris":{"android":"levelo://app?vid=294fe678-b973-4b26-8be0-7309f5b71cd0","ios":"levelo://app?vid=294fe678-b973-4b26-8be0-7309f5b71cd0"},"vehicle_type_id":"4","last_reported":1684872407,"current_range_meters":24400,"station_id":"ce4bh3p2rcd13ifvqdp0","pricing_plan_id":"free"},{"bike_id":"14283b21-14df-4b8b-9ca3-8af6e3b43704","system_id":"levelo_inurba_marseille","lat":43.29795,"lon":5.39344,"is_reserved":false,"is_disabled":false,"rental_uris":{"android":"levelo://app?vid=14283b21-14df-4b8b-9ca3-8af6e3b43704","ios":"levelo://app?vid=14283b21-14df-4b8b-9ca3-8af6e3b43704"},"vehicle_type_id":"4","last_reported":1684872407,"current_range_meters":5200,"station_id":"chh1huq6cuj3fo74tm60","pricing_plan_id":"free"},{"bike_id":"3b6b7f4a-c58d-4715-ab0c-fcad80f3f186","system_id":"levelo_inurba_marseille","lat":43.290995,"lon":5.381361,"is_reserved":false,"is_disabled":false,"rental_uris":{"android":"levelo://app?vid=3b6b7f4a-c58d-4715-ab0c-fcad80f3f186","ios":"levelo://app?vid=3b6b7f4a-c58d-4715-ab0c-fcad80f3f186"},"vehicle_type_id":"4","last_reported":1684872407,"current_range_meters":22400,"station_id":"ce4bh512rcd13ifvqe2g","pricing_plan_id":"free"},{"bike_id":"44751f6c-f3eb-45e1-b024-f70ba1609ebc","system_id":"levelo_inurba_marseille","lat":43.297814,"lon":5.393513,"is_reserved":false,"is_disabled":false,"rental_uris":{"android":"levelo://app?vid=44751f6c-f3eb-45e1-b024-f70ba1609ebc","ios":"levelo://app?vid=44751f6c-f3eb-45e1-b024-f70ba1609ebc"},"vehicle_type_id":"4","last_reported":1684872407,"current_range_meters":16800,"station_id":"chh1huq6cuj3fo74tm60","pricing_plan_id":"free"},{"bike_id":"31355d9c-a4ed-40f9-b5fe-a9365fbbe98a","system_id":"levelo_inurba_marseille","lat":43.289741,"lon":5.378306,"is_reserved":false,"is_disabled":false,"rental_uris":{"android":"levelo://app?vid=31355d9c-a4ed-40f9-b5fe-a9365fbbe98a","ios":"levelo://app?vid=31355d9c-a4ed-40f9-b5fe-a9365fbbe98a"},"vehicle_type_id":"4","last_reported":1684872407,"current_range_meters":14000,"station_id":"ce4bh9p2rcd13ifvqed0","pricing_plan_id":"free"},{"bike_id":"742554e0-24ec-40b6-95a1-6131d001c9e8","system_id":"levelo_inurba_marseille","lat":43.297814,"lon":5.393513,"is_reserved":false,"is_disabled":false,"rental_uris":{"android":"levelo://app?vid=742554e0-24ec-40b6-95a1-6131d001c9e8","ios":"levelo://app?vid=742554e0-24ec-40b6-95a1-6131d001c9e8"},"vehicle_type_id":"4","last_reported":1684872407,"current_range_meters":0,"station_id":"chh1huq6cuj3fo74tm60","pricing_plan_id":"free"},{"bike_id":"15fccb34-0fd0-40bc-9ad7-813c39209fa1","system_id":"levelo_inurba_marseille","lat":43.295169,"lon":5.390426,"is_reserved":false,"is_disabled":false,"rental_uris":{"android":"levelo://app?vid=15fccb34-0fd0-40bc-9ad7-813c39209fa1","ios":"levelo://app?vid=15fccb34-0fd0-40bc-9ad7-813c39209fa1"},"vehicle_type_id":"4","last_reported":1684872407,"current_range_meters":10000,"station_id":"ce4bh3p2rcd13ifvqdp0","pricing_plan_id":"free"},{"bike_id":"686999aa-e807-4e6c-bcc7-5f483a27a61f","system_id":"levelo_inurba_marseille","lat":43.295169,"lon":5.390426,"is_reserved":false,"is_disabled":false,"rental_uris":{"android":"levelo://app?vid=686999aa-e807-4e6c-bcc7-5f483a27a61f","ios":"levelo://app?vid=686999aa-e807-4e6c-bcc7-5f483a27a61f"},"vehicle_type_id":"4","last_reported":1684872407,"current_range_meters":28400,"station_id":"ce4bh3p2rcd13ifvqdp0","pricing_plan_id":"free"},{"bike_id":"74eb4693-9fa3-4034-bea4-e78022c37a2f","system_id":"levelo_inurba_marseille","lat":43.295169,"lon":5.390426,"is_reserved":false,"is_disabled":false,"rental_uris":{"android":"levelo://app?vid=74eb4693-9fa3-4034-bea4-e78022c37a2f","ios":"levelo://app?vid=74eb4693-9fa3-4034-bea4-e78022c37a2f"},"vehicle_type_id":"4","last_reported":1684872407,"current_range_meters":20000,"station_id":"ce4bh3p2rcd13ifvqdp0","pricing_plan_id":"free"},{"bike_id":"73310a1e-cac0-4da4-9705-f695f836b455","system_id":"levelo_inurba_marseille","lat":43.295169,"lon":5.390426,"is_reserved":false,"is_disabled":false,"rental_uris":{"android":"levelo://app?vid=73310a1e-cac0-4da4-9705-f695f836b455","ios":"levelo://app?vid=73310a1e-cac0-4da4-9705-f695f836b455"},"vehicle_type_id":"4","last_reported":1684872407,"current_range_meters":11200,"station_id":"ce4bh3p2rcd13ifvqdp0","pricing_plan_id":"free"},{"bike_id":"38264f19-5fce-48f9-a17c-463d0196a92d","system_id":"levelo_inurba_marseille","lat":43.29513,"lon":5.39042,"is_reserved":false,"is_disabled":false,"rental_uris":{"android":"levelo://app?vid=38264f19-5fce-48f9-a17c-463d0196a92d","ios":"levelo://app?vid=38264f19-5fce-48f9-a17c-463d0196a92d"},"vehicle_type_id":"4","last_reported":1684872407,"current_range_meters":24800,"station_id":"ce4bh3p2rcd13ifvqdp0","pricing_plan_id":"free"},{"bike_id":"0d8c4fb3-6bde-4045-b2c4-65d6ccf0b6c6","system_id":"levelo_inurba_marseille","lat":43.295169,"lon":5.390426,"is_reserved":false,"is_disabled":false,"rental_uris":{"android":"levelo://app?vid=0d8c4fb3-6bde-4045-b2c4-65d6ccf0b6c6","ios":"levelo://app?vid=0d8c4fb3-6bde-4045-b2c4-65d6ccf0b6c6"},"vehicle_type_id":"4","last_reported":1684872407,"current_range_meters":9600,"station_id":"ce4bh3p2rcd13ifvqdp0","pricing_plan_id":"free"},{"bike_id":"a433b5da-e77d-4182-b38b-add1e5d9388f","system_id":"levelo_inurba_marseille","lat":43.295169,"lon":5.390426,"is_reserved":false,"is_disabled":false,"rental_uris":{"android":"levelo://app?vid=a433b5da-e77d-4182-b38b-add1e5d9388f","ios":"levelo://app?vid=a433b5da-e77d-4182-b38b-add1e5d9388f"},"vehicle_type_id":"4","last_reported":1684872407,"current_range_meters":800,"station_id":"ce4bh3p2rcd13ifvqdp0","pricing_plan_id":"free"},{"bike_id":"95151d67-901b-413e-b179-f8a416ec40c3","system_id":"levelo_inurba_marseille","lat":43.30516,"lon":5.39933,"is_reserved":false,"is_disabled":false,"rental_uris":{"android":"levelo://app?vid=95151d67-901b-413e-b179-f8a416ec40c3","ios":"levelo://app?vid=95151d67-901b-413e-b179-f8a416ec40c3"},"vehicle_type_id":"4","last_reported":1684872407,"current_range_meters":4000,"station_id":"","pricing_plan_id":"free"},{"bike_id":"9cef50c9-e0ef-4150-af56-64d166413d46","system_id":"levelo_inurba_marseille","lat":43.28856,"lon":5.358371,"is_reserved":false,"is_disabled":false,"rental_uris":{"android":"levelo://app?vid=9cef50c9-e0ef-4150-af56-64d166413d46","ios":"levelo://app?vid=9cef50c9-e0ef-4150-af56-64d166413d46"},"vehicle_type_id":"4","last_reported":1684872407,"current_range_meters":3200,"station_id":"ce4bhb12rcd13ifvqem0","pricing_plan_id":"free"},{"bike_id":"6c0a4d9b-5a94-4e51-b059-4b459ad653bc","system_id":"levelo_inurba_marseille","lat":43.28859,"lon":5.35838,"is_reserved":false,"is_disabled":false,"rental_uris":{"android":"levelo://app?vid=6c0a4d9b-5a94-4e51-b059-4b459ad653bc","ios":"levelo://app?vid=6c0a4d9b-5a94-4e51-b059-4b459ad653bc"},"vehicle_type_id":"4","last_reported":1684872407,"current_range_meters":6400,"station_id":"ce4bhb12rcd13ifvqem0","pricing_plan_id":"free"},{"bike_id":"fc56a932-5d9e-4092-ab30-657c204bb745","system_id":"levelo_inurba_marseille","lat":43.28856,"lon":5.358371,"is_reserved":false,"is_disabled":false,"rental_uris":{"android":"levelo://app?vid=fc56a932-5d9e-4092-ab30-657c204bb745","ios":"levelo://app?vid=fc56a932-5d9e-4092-ab30-657c204bb745"},"vehicle_type_id":"4","last_reported":1684872407,"current_range_meters":6800,"station_id":"ce4bhb12rcd13ifvqem0","pricing_plan_id":"free"},{"bike_id":"609a021e-b381-4a80-a783-59df3b2614ca","system_id":"levelo_inurba_marseille","lat":43.28856,"lon":5.358371,"is_reserved":false,"is_disabled":false,"rental_uris":{"android":"levelo://app?vid=609a021e-b381-4a80-a783-59df3b2614ca","ios":"levelo://app?vid=609a021e-b381-4a80-a783-59df3b2614ca"},"vehicle_type_id":"4","last_reported":1684872407,"current_range_meters":4400,"station_id":"ce4bhb12rcd13ifvqem0","pricing_plan_id":"free"},{"bike_id":"8ae7be1f-a3fa-42cd-8284-7f2035311dda","system_id":"levelo_inurba_marseille","lat":43.28856,"lon":5.358371,"is_reserved":false,"is_disabled":false,"rental_uris":{"android":"levelo://app?vid=8ae7be1f-a3fa-42cd-8284-7f2035311dda","ios":"levelo://app?vid=8ae7be1f-a3fa-42cd-8284-7f2035311dda"},"vehicle_type_id":"4","last_reported":1684872407,"current_range_meters":10800,"station_id":"ce4bhb12rcd13ifvqem0","pricing_plan_id":"free"},{"bike_id":"e2d20479-7007-44c9-9de3-454212df749d","system_id":"levelo_inurba_marseille","lat":43.28918,"lon":5.35462,"is_reserved":false,"is_disabled":false,"rental_uris":{"android":"levelo://app?vid=e2d20479-7007-44c9-9de3-454212df749d","ios":"levelo://app?vid=e2d20479-7007-44c9-9de3-454212df749d"},"vehicle_type_id":"4","last_reported":1684872407,"current_range_meters":16000,"station_id":"","pricing_plan_id":"free"},{"bike_id":"fa8aa980-3d66-469a-9738-e2e7d6b7aad7","system_id":"levelo_inurba_marseille","lat":43.33748,"lon":5.3744,"is_reserved":false,"is_disabled":false,"rental_uris":{"android":"levelo://app?vid=fa8aa980-3d66-469a-9738-e2e7d6b7aad7","ios":"levelo://app?vid=fa8aa980-3d66-469a-9738-e2e7d6b7aad7"},"vehicle_type_id":"4","last_reported":1684872407,"current_range_meters":31200,"station_id":"","pricing_plan_id":"free"},{"bike_id":"7df7a62c-f249-4aee-a961-7f8771c1e324","system_id":"levelo_inurba_marseille","lat":43.33751,"lon":5.37443,"is_reserved":false,"is_disabled":false,"rental_uris":{"android":"levelo://app?vid=7df7a62c-f249-4aee-a961-7f8771c1e324","ios":"levelo://app?vid=7df7a62c-f249-4aee-a961-7f8771c1e324"},"vehicle_type_id":"4","last_reported":1684872407,"current_range_meters":28400,"station_id":"","pricing_plan_id":"free"},{"bike_id":"67751db1-d909-45bd-9e47-d32a4fef5f76","system_id":"levelo_inurba_marseille","lat":43.33757,"lon":5.37436,"is_reserved":false,"is_disabled":false,"rental_uris":{"android":"levelo://app?vid=67751db1-d909-45bd-9e47-d32a4fef5f76","ios":"levelo://app?vid=67751db1-d909-45bd-9e47-d32a4fef5f76"},"vehicle_type_id":"4","last_reported":1684872407,"current_range_meters":29200,"station_id":"","pricing_plan_id":"free"},{"bike_id":"c8a6a57f-cf6f-47a9-b295-a6917843e52c","system_id":"levelo_inurba_marseille","lat":43.33753,"lon":5.37466,"is_reserved":false,"is_disabled":false,"rental_uris":{"android":"levelo://app?vid=c8a6a57f-cf6f-47a9-b295-a6917843e52c","ios":"levelo://app?vid=c8a6a57f-cf6f-47a9-b295-a6917843e52c"},"vehicle_type_id":"4","last_reported":1684872407,"current_range_meters":1600,"station_id":"","pricing_plan_id":"free"},{"bike_id":"9b6e8d53-2fc8-45a4-b52c-c94531667ed2","system_id":"levelo_inurba_marseille","lat":43.33758,"lon":5.37457,"is_reserved":false,"is_disabled":false,"rental_uris":{"android":"levelo://app?vid=9b6e8d53-2fc8-45a4-b52c-c94531667ed2","ios":"levelo://app?vid=9b6e8d53-2fc8-45a4-b52c-c94531667ed2"},"vehicle_type_id":"4","last_reported":1684872407,"current_range_meters":7200,"station_id":"ce4bgj12rcd13ifvqbc0","pricing_plan_id":"free"},{"bike_id":"c3b66989-b85e-4172-b369-d5cd98ae4ea7","system_id":"levelo_inurba_marseille","lat":43.33762,"lon":5.37456,"is_reserved":false,"is_disabled":false,"rental_uris":{"android":"levelo://app?vid=c3b66989-b85e-4172-b369-d5cd98ae4ea7","ios":"levelo://app?vid=c3b66989-b85e-4172-b369-d5cd98ae4ea7"},"vehicle_type_id":"4","last_reported":1684872407,"current_range_meters":0,"station_id":"","pricing_plan_id":"free"},{"bike_id":"920f04cf-6011-406c-9304-c415ecb6e1ed","system_id":"levelo_inurba_marseille","lat":43.30642,"lon":5.401031,"is_reserved":false,"is_disabled":false,"rental_uris":{"android":"levelo://app?vid=920f04cf-6011-406c-9304-c415ecb6e1ed","ios":"levelo://app?vid=920f04cf-6011-406c-9304-c415ecb6e1ed"},"vehicle_type_id":"4","last_reported":1684872407,"current_range_meters":10800,"station_id":"ce4bh112rcd13ifvqda0","pricing_plan_id":"free"},{"bike_id":"8b89341e-b439-4b8b-abce-366165733ffa","system_id":"levelo_inurba_marseille","lat":43.30642,"lon":5.401031,"is_reserved":false,"is_disabled":false,"rental_uris":{"android":"levelo://app?vid=8b89341e-b439-4b8b-abce-366165733ffa","ios":"levelo://app?vid=8b89341e-b439-4b8b-abce-366165733ffa"},"vehicle_type_id":"4","last_reported":1684872407,"current_range_meters":9600,"station_id":"ce4bh112rcd13ifvqda0","pricing_plan_id":"free"},{"bike_id":"69532c2e-5798-4cda-beb1-7dac7528361a","system_id":"levelo_inurba_marseille","lat":43.30642,"lon":5.401031,"is_reserved":false,"is_disabled":false,"rental_uris":{"android":"levelo://app?vid=69532c2e-5798-4cda-beb1-7dac7528361a","ios":"levelo://app?vid=69532c2e-5798-4cda-beb1-7dac7528361a"},"vehicle_type_id":"4","last_reported":1684872407,"current_range_meters":9200,"station_id":"ce4bh112rcd13ifvqda0","pricing_plan_id":"free"},{"bike_id":"e123cd43-562a-427d-b741-98d33ce5dea2","system_id":"levelo_inurba_marseille","lat":43.3377,"lon":5.37432,"is_reserved":false,"is_disabled":false,"rental_uris":{"android":"levelo://app?vid=e123cd43-562a-427d-b741-98d33ce5dea2","ios":"levelo://app?vid=e123cd43-562a-427d-b741-98d33ce5dea2"},"vehicle_type_id":"4","last_reported":1684872407,"current_range_meters":31200,"station_id":"","pricing_plan_id":"free"},{"bike_id":"42fe6271-5913-42a0-810f-21eec146368b","system_id":"levelo_inurba_marseille","lat":43.30642,"lon":5.401031,"is_reserved":false,"is_disabled":false,"rental_uris":{"android":"levelo://app?vid=42fe6271-5913-42a0-810f-21eec146368b","ios":"levelo://app?vid=42fe6271-5913-42a0-810f-21eec146368b"},"vehicle_type_id":"4","last_reported":1684872407,"current_range_meters":18000,"station_id":"ce4bh112rcd13ifvqda0","pricing_plan_id":"free"},{"bike_id":"c4a5185a-3a53-47d1-96ae-3197849b49ff","system_id":"levelo_inurba_marseille","lat":43.30642,"lon":5.401031,"is_reserved":false,"is_disabled":false,"rental_uris":{"android":"levelo://app?vid=c4a5185a-3a53-47d1-96ae-3197849b49ff","ios":"levelo://app?vid=c4a5185a-3a53-47d1-96ae-3197849b49ff"},"vehicle_type_id":"4","last_reported":1684872407,"current_range_meters":20800,"station_id":"ce4bh112rcd13ifvqda0","pricing_plan_id":"free"},{"bike_id":"407920f1-b113-4301-aac7-e112773df183","system_id":"levelo_inurba_marseille","lat":43.301117,"lon":5.398795,"is_reserved":false,"is_disabled":false,"rental_uris":{"android":"levelo://app?vid=407920f1-b113-4301-aac7-e112773df183","ios":"levelo://app?vid=407920f1-b113-4301-aac7-e112773df183"},"vehicle_type_id":"4","last_reported":1684872407,"current_range_meters":23600,"station_id":"ce4bh0h2rcd13ifvqd40","pricing_plan_id":"free"},{"bike_id":"f1a3799f-46ef-4627-bcdc-d290756ec0ec","system_id":"levelo_inurba_marseille","lat":43.30129,"lon":5.39869,"is_reserved":false,"is_disabled":false,"rental_uris":{"android":"levelo://app?vid=f1a3799f-46ef-4627-bcdc-d290756ec0ec","ios":"levelo://app?vid=f1a3799f-46ef-4627-bcdc-d290756ec0ec"},"vehicle_type_id":"4","last_reported":1684872407,"current_range_meters":22400,"station_id":"ce4bh0h2rcd13ifvqd40","pricing_plan_id":"free"},{"bike_id":"ada03108-7606-4103-9816-bcfead2b09b7","system_id":"levelo_inurba_marseille","lat":43.30428,"lon":5.4009,"is_reserved":false,"is_disabled":false,"rental_uris":{"android":"levelo://app?vid=ada03108-7606-4103-9816-bcfead2b09b7","ios":"levelo://app?vid=ada03108-7606-4103-9816-bcfead2b09b7"},"vehicle_type_id":"4","last_reported":1684872407,"current_range_meters":24000,"station_id":"","pricing_plan_id":"free"},{"bike_id":"8c3e0d6f-395a-42bc-b3d4-134beb35fe06","system_id":"levelo_inurba_marseille","lat":43.298681,"lon":5.397225,"is_reserved":false,"is_disabled":false,"rental_uris":{"android":"levelo://app?vid=8c3e0d6f-395a-42bc-b3d4-134beb35fe06","ios":"levelo://app?vid=8c3e0d6f-395a-42bc-b3d4-134beb35fe06"},"vehicle_type_id":"4","last_reported":1684872407,"current_range_meters":27200,"station_id":"ce4bh0h2rcd13ifvqd50","pricing_plan_id":"free"},{"bike_id":"b4b80226-83c8-4c7f-916b-33846d482e4e","system_id":"levelo_inurba_marseille","lat":43.286593,"lon":5.363346,"is_reserved":false,"is_disabled":false,"rental_uris":{"android":"levelo://app?vid=b4b80226-83c8-4c7f-916b-33846d482e4e","ios":"levelo://app?vid=b4b80226-83c8-4c7f-916b-33846d482e4e"},"vehicle_type_id":"4","last_reported":1684872407,"current_range_meters":25200,"station_id":"ce4bhah2rcd13ifvqej0","pricing_plan_id":"free"},{"bike_id":"52571f0c-989a-460c-89ab-410555b16da3","system_id":"levelo_inurba_marseille","lat":43.298681,"lon":5.397225,"is_reserved":false,"is_disabled":false,"rental_uris":{"android":"levelo://app?vid=52571f0c-989a-460c-89ab-410555b16da3","ios":"levelo://app?vid=52571f0c-989a-460c-89ab-410555b16da3"},"vehicle_type_id":"4","last_reported":1684872407,"current_range_meters":31200,"station_id":"ce4bh0h2rcd13ifvqd50","pricing_plan_id":"free"},{"bike_id":"10499af1-2806-4e28-a7c5-e4dc26aef808","system_id":"levelo_inurba_marseille","lat":43.3044,"lon":5.40106,"is_reserved":false,"is_disabled":false,"rental_uris":{"android":"levelo://app?vid=10499af1-2806-4e28-a7c5-e4dc26aef808","ios":"levelo://app?vid=10499af1-2806-4e28-a7c5-e4dc26aef808"},"vehicle_type_id":"4","last_reported":1684872407,"current_range_meters":10400,"station_id":"","pricing_plan_id":"free"},{"bike_id":"3282d57a-daf4-43f1-8ec8-e8d4e71c0a77","system_id":"levelo_inurba_marseille","lat":43.298681,"lon":5.397225,"is_reserved":false,"is_disabled":false,"rental_uris":{"android":"levelo://app?vid=3282d57a-daf4-43f1-8ec8-e8d4e71c0a77","ios":"levelo://app?vid=3282d57a-daf4-43f1-8ec8-e8d4e71c0a77"},"vehicle_type_id":"4","last_reported":1684872407,"current_range_meters":5200,"station_id":"ce4bh0h2rcd13ifvqd50","pricing_plan_id":"free"},{"bike_id":"1532a28d-24fd-4a7f-9258-baaa3b063c49","system_id":"levelo_inurba_marseille","lat":43.286591,"lon":5.363346,"is_reserved":false,"is_disabled":false,"rental_uris":{"android":"levelo://app?vid=1532a28d-24fd-4a7f-9258-baaa3b063c49","ios":"levelo://app?vid=1532a28d-24fd-4a7f-9258-baaa3b063c49"},"vehicle_type_id":"4","last_reported":1684872407,"current_range_meters":11600,"station_id":"ce4bhah2rcd13ifvqej0","pricing_plan_id":"free"},{"bike_id":"f865787a-d6dd-4752-a6ca-483ade4bae48","system_id":"levelo_inurba_marseille","lat":43.298681,"lon":5.397225,"is_reserved":false,"is_disabled":false,"rental_uris":{"android":"levelo://app?vid=f865787a-d6dd-4752-a6ca-483ade4bae48","ios":"levelo://app?vid=f865787a-d6dd-4752-a6ca-483ade4bae48"},"vehicle_type_id":"4","last_reported":1684872407,"current_range_meters":18000,"station_id":"ce4bh0h2rcd13ifvqd50","pricing_plan_id":"free"},{"bike_id":"20f8981e-69e2-475d-b416-11457ff35fc0","system_id":"levelo_inurba_marseille","lat":43.286591,"lon":5.363346,"is_reserved":false,"is_disabled":false,"rental_uris":{"android":"levelo://app?vid=20f8981e-69e2-475d-b416-11457ff35fc0","ios":"levelo://app?vid=20f8981e-69e2-475d-b416-11457ff35fc0"},"vehicle_type_id":"4","last_reported":1684872407,"current_range_meters":28000,"station_id":"ce4bhah2rcd13ifvqej0","pricing_plan_id":"free"},{"bike_id":"c4e0a4bf-a05b-4946-9580-ae86e571cb89","system_id":"levelo_inurba_marseille","lat":43.286591,"lon":5.363346,"is_reserved":false,"is_disabled":false,"rental_uris":{"android":"levelo://app?vid=c4e0a4bf-a05b-4946-9580-ae86e571cb89","ios":"levelo://app?vid=c4e0a4bf-a05b-4946-9580-ae86e571cb89"},"vehicle_type_id":"4","last_reported":1684872407,"current_range_meters":23600,"station_id":"ce4bhah2rcd13ifvqej0","pricing_plan_id":"free"},{"bike_id":"70fe74c8-2580-4e8e-8f74-5bea4c0e210c","system_id":"levelo_inurba_marseille","lat":43.28658,"lon":5.36349,"is_reserved":false,"is_disabled":false,"rental_uris":{"android":"levelo://app?vid=70fe74c8-2580-4e8e-8f74-5bea4c0e210c","ios":"levelo://app?vid=70fe74c8-2580-4e8e-8f74-5bea4c0e210c"},"vehicle_type_id":"4","last_reported":1684872407,"current_range_meters":5200,"station_id":"ce4bhah2rcd13ifvqej0","pricing_plan_id":"free"},{"bike_id":"23017deb-5a43-4422-b67d-86417835e2e5","system_id":"levelo_inurba_marseille","lat":43.295196,"lon":5.39397,"is_reserved":false,"is_disabled":false,"rental_uris":{"android":"levelo://app?vid=23017deb-5a43-4422-b67d-86417835e2e5","ios":"levelo://app?vid=23017deb-5a43-4422-b67d-86417835e2e5"},"vehicle_type_id":"4","last_reported":1684872407,"current_range_meters":22800,"station_id":"ce4bh292rcd13ifvqdf0","pricing_plan_id":"free"},{"bike_id":"3f982f54-9617-490b-a340-c7ef3a5c9e85","system_id":"levelo_inurba_marseille","lat":43.290345,"lon":5.38646,"is_reserved":false,"is_disabled":false,"rental_uris":{"android":"levelo://app?vid=3f982f54-9617-490b-a340-c7ef3a5c9e85","ios":"levelo://app?vid=3f982f54-9617-490b-a340-c7ef3a5c9e85"},"vehicle_type_id":"4","last_reported":1684872407,"current_range_meters":8800,"station_id":"ce4bh4p2rcd13ifvqe0g","pricing_plan_id":"free"},{"bike_id":"872a0635-35d7-4637-95f0-786c44ed3a58","system_id":"levelo_inurba_marseille","lat":43.286039,"lon":5.370679,"is_reserved":false,"is_disabled":false,"rental_uris":{"android":"levelo://app?vid=872a0635-35d7-4637-95f0-786c44ed3a58","ios":"levelo://app?vid=872a0635-35d7-4637-95f0-786c44ed3a58"},"vehicle_type_id":"4","last_reported":1684872407,"current_range_meters":28400,"station_id":"ce4bht12rcd13ifvqi60","pricing_plan_id":"free"},{"bike_id":"27fe7851-4d49-4a82-adb8-01ed3ac9bfd2","system_id":"levelo_inurba_marseille","lat":43.286039,"lon":5.370679,"is_reserved":false,"is_disabled":false,"rental_uris":{"android":"levelo://app?vid=27fe7851-4d49-4a82-adb8-01ed3ac9bfd2","ios":"levelo://app?vid=27fe7851-4d49-4a82-adb8-01ed3ac9bfd2"},"vehicle_type_id":"4","last_reported":1684872407,"current_range_meters":27600,"station_id":"ce4bht12rcd13ifvqi60","pricing_plan_id":"free"},{"bike_id":"0dda87a3-a992-4dcc-ba58-e0b1af84287f","system_id":"levelo_inurba_marseille","lat":43.28607,"lon":5.37059,"is_reserved":false,"is_disabled":false,"rental_uris":{"android":"levelo://app?vid=0dda87a3-a992-4dcc-ba58-e0b1af84287f","ios":"levelo://app?vid=0dda87a3-a992-4dcc-ba58-e0b1af84287f"},"vehicle_type_id":"4","last_reported":1684872407,"current_range_meters":2400,"station_id":"ce4bht12rcd13ifvqi60","pricing_plan_id":"free"},{"bike_id":"d7bb18c1-11cf-44bd-a074-3d8567e14bba","system_id":"levelo_inurba_marseille","lat":43.286039,"lon":5.370679,"is_reserved":false,"is_disabled":false,"rental_uris":{"android":"levelo://app?vid=d7bb18c1-11cf-44bd-a074-3d8567e14bba","ios":"levelo://app?vid=d7bb18c1-11cf-44bd-a074-3d8567e14bba"},"vehicle_type_id":"4","last_reported":1684872407,"current_range_meters":31200,"station_id":"ce4bht12rcd13ifvqi60","pricing_plan_id":"free"},{"bike_id":"d5cd7e1c-3a17-4951-8f4e-fa535f95af2d","system_id":"levelo_inurba_marseille","lat":43.286039,"lon":5.370679,"is_reserved":false,"is_disabled":false,"rental_uris":{"android":"levelo://app?vid=d5cd7e1c-3a17-4951-8f4e-fa535f95af2d","ios":"levelo://app?vid=d5cd7e1c-3a17-4951-8f4e-fa535f95af2d"},"vehicle_type_id":"4","last_reported":1684872407,"current_range_meters":28800,"station_id":"ce4bht12rcd13ifvqi60","pricing_plan_id":"free"},{"bike_id":"2b98a86c-82f6-4f76-bc37-de03cc56a2bb","system_id":"levelo_inurba_marseille","lat":43.287184,"lon":5.37937,"is_reserved":false,"is_disabled":false,"rental_uris":{"android":"levelo://app?vid=2b98a86c-82f6-4f76-bc37-de03cc56a2bb","ios":"levelo://app?vid=2b98a86c-82f6-4f76-bc37-de03cc56a2bb"},"vehicle_type_id":"4","last_reported":1684872407,"current_range_meters":25200,"station_id":"ce4bh9p2rcd13ifvqec0","pricing_plan_id":"free"},{"bike_id":"e77ab611-f11b-4d19-9df3-aee47e581b00","system_id":"levelo_inurba_marseille","lat":43.287184,"lon":5.37937,"is_reserved":false,"is_disabled":false,"rental_uris":{"android":"levelo://app?vid=e77ab611-f11b-4d19-9df3-aee47e581b00","ios":"levelo://app?vid=e77ab611-f11b-4d19-9df3-aee47e581b00"},"vehicle_type_id":"4","last_reported":1684872407,"current_range_meters":400,"station_id":"ce4bh9p2rcd13ifvqec0","pricing_plan_id":"free"},{"bike_id":"41360807-d2f4-4485-8127-d5dd1ba58621","system_id":"levelo_inurba_marseille","lat":43.287184,"lon":5.37937,"is_reserved":false,"is_disabled":false,"rental_uris":{"android":"levelo://app?vid=41360807-d2f4-4485-8127-d5dd1ba58621","ios":"levelo://app?vid=41360807-d2f4-4485-8127-d5dd1ba58621"},"vehicle_type_id":"4","last_reported":1684872407,"current_range_meters":0,"station_id":"ce4bh9p2rcd13ifvqec0","pricing_plan_id":"free"},{"bike_id":"df33b3a4-f376-4743-8817-cf1221c21c34","system_id":"levelo_inurba_marseille","lat":43.287184,"lon":5.37937,"is_reserved":false,"is_disabled":false,"rental_uris":{"android":"levelo://app?vid=df33b3a4-f376-4743-8817-cf1221c21c34","ios":"levelo://app?vid=df33b3a4-f376-4743-8817-cf1221c21c34"},"vehicle_type_id":"4","last_reported":1684872407,"current_range_meters":27200,"station_id":"ce4bh9p2rcd13ifvqec0","pricing_plan_id":"free"},{"bike_id":"b9b26779-1976-4328-8e58-e93776ea1f1a","system_id":"levelo_inurba_marseille","lat":43.287185,"lon":5.379373,"is_reserved":false,"is_disabled":false,"rental_uris":{"android":"levelo://app?vid=b9b26779-1976-4328-8e58-e93776ea1f1a","ios":"levelo://app?vid=b9b26779-1976-4328-8e58-e93776ea1f1a"},"vehicle_type_id":"4","last_reported":1684872407,"current_range_meters":0,"station_id":"ce4bh9p2rcd13ifvqec0","pricing_plan_id":"free"},{"bike_id":"76121621-4191-47a6-a793-670335ead76e","system_id":"levelo_inurba_marseille","lat":43.287185,"lon":5.379373,"is_reserved":false,"is_disabled":false,"rental_uris":{"android":"levelo://app?vid=76121621-4191-47a6-a793-670335ead76e","ios":"levelo://app?vid=76121621-4191-47a6-a793-670335ead76e"},"vehicle_type_id":"4","last_reported":1684872407,"current_range_meters":5200,"station_id":"ce4bh9p2rcd13ifvqec0","pricing_plan_id":"free"},{"bike_id":"62d5ded5-8dea-41ee-8574-dc187e707a81","system_id":"levelo_inurba_marseille","lat":43.28818,"lon":5.38288,"is_reserved":false,"is_disabled":false,"rental_uris":{"android":"levelo://app?vid=62d5ded5-8dea-41ee-8574-dc187e707a81","ios":"levelo://app?vid=62d5ded5-8dea-41ee-8574-dc187e707a81"},"vehicle_type_id":"4","last_reported":1684872407,"current_range_meters":7200,"station_id":"","pricing_plan_id":"free"},{"bike_id":"3040fa13-36c4-4b1b-a9ab-734c6e85cab0","system_id":"levelo_inurba_marseille","lat":43.287185,"lon":5.379373,"is_reserved":false,"is_disabled":false,"rental_uris":{"android":"levelo://app?vid=3040fa13-36c4-4b1b-a9ab-734c6e85cab0","ios":"levelo://app?vid=3040fa13-36c4-4b1b-a9ab-734c6e85cab0"},"vehicle_type_id":"4","last_reported":1684872407,"current_range_meters":14400,"station_id":"ce4bh9p2rcd13ifvqec0","pricing_plan_id":"free"},{"bike_id":"e83ab57c-b3ff-4635-8870-8881663095a2","system_id":"levelo_inurba_marseille","lat":43.316517,"lon":5.404375,"is_reserved":false,"is_disabled":false,"rental_uris":{"android":"levelo://app?vid=e83ab57c-b3ff-4635-8870-8881663095a2","ios":"levelo://app?vid=e83ab57c-b3ff-4635-8870-8881663095a2"},"vehicle_type_id":"4","last_reported":1684872407,"current_range_meters":17600,"station_id":"ce4bh012rcd13ifvqd00","pricing_plan_id":"free"},{"bike_id":"f6bb3437-b286-4c33-915b-1c49035622a8","system_id":"levelo_inurba_marseille","lat":43.31644,"lon":5.40434,"is_reserved":false,"is_disabled":false,"rental_uris":{"android":"levelo://app?vid=f6bb3437-b286-4c33-915b-1c49035622a8","ios":"levelo://app?vid=f6bb3437-b286-4c33-915b-1c49035622a8"},"vehicle_type_id":"4","last_reported":1684872407,"current_range_meters":25600,"station_id":"ce4bh012rcd13ifvqd00","pricing_plan_id":"free"},{"bike_id":"9bca0271-d2ec-49ba-a6d9-a406c9cdab05","system_id":"levelo_inurba_marseille","lat":43.316517,"lon":5.404375,"is_reserved":false,"is_disabled":false,"rental_uris":{"android":"levelo://app?vid=9bca0271-d2ec-49ba-a6d9-a406c9cdab05","ios":"levelo://app?vid=9bca0271-d2ec-49ba-a6d9-a406c9cdab05"},"vehicle_type_id":"4","last_reported":1684872407,"current_range_meters":4800,"station_id":"ce4bh012rcd13ifvqd00","pricing_plan_id":"free"},{"bike_id":"cb8e2cf5-8da3-457b-8d07-99f139cd3802","system_id":"levelo_inurba_marseille","lat":43.316517,"lon":5.404375,"is_reserved":false,"is_disabled":false,"rental_uris":{"android":"levelo://app?vid=cb8e2cf5-8da3-457b-8d07-99f139cd3802","ios":"levelo://app?vid=cb8e2cf5-8da3-457b-8d07-99f139cd3802"},"vehicle_type_id":"4","last_reported":1684872407,"current_range_meters":10800,"station_id":"ce4bh012rcd13ifvqd00","pricing_plan_id":"free"},{"bike_id":"d2626e12-92ef-4e8b-98f7-f7f7d8432194","system_id":"levelo_inurba_marseille","lat":43.29192,"lon":5.39308,"is_reserved":false,"is_disabled":false,"rental_uris":{"android":"levelo://app?vid=d2626e12-92ef-4e8b-98f7-f7f7d8432194","ios":"levelo://app?vid=d2626e12-92ef-4e8b-98f7-f7f7d8432194"},"vehicle_type_id":"4","last_reported":1684872407,"current_range_meters":2800,"station_id":"ce4bh192rcd13ifvqdd0","pricing_plan_id":"free"},{"bike_id":"1b95c390-f78b-4c4d-b02a-107b3d641731","system_id":"levelo_inurba_marseille","lat":43.28482,"lon":5.35858,"is_reserved":false,"is_disabled":false,"rental_uris":{"android":"levelo://app?vid=1b95c390-f78b-4c4d-b02a-107b3d641731","ios":"levelo://app?vid=1b95c390-f78b-4c4d-b02a-107b3d641731"},"vehicle_type_id":"4","last_reported":1684872407,"current_range_meters":20400,"station_id":"ce4bhah2rcd13ifvqei0","pricing_plan_id":"free"},{"bike_id":"0c741552-92a1-4218-9bc1-2717ff546887","system_id":"levelo_inurba_marseille","lat":43.284534,"lon":5.358662,"is_reserved":false,"is_disabled":false,"rental_uris":{"android":"levelo://app?vid=0c741552-92a1-4218-9bc1-2717ff546887","ios":"levelo://app?vid=0c741552-92a1-4218-9bc1-2717ff546887"},"vehicle_type_id":"4","last_reported":1684872407,"current_range_meters":0,"station_id":"ce4bhah2rcd13ifvqei0","pricing_plan_id":"free"},{"bike_id":"246310d4-111c-466a-a242-a80b7e0325dd","system_id":"levelo_inurba_marseille","lat":43.284534,"lon":5.358662,"is_reserved":false,"is_disabled":false,"rental_uris":{"android":"levelo://app?vid=246310d4-111c-466a-a242-a80b7e0325dd","ios":"levelo://app?vid=246310d4-111c-466a-a242-a80b7e0325dd"},"vehicle_type_id":"4","last_reported":1684872407,"current_range_meters":25600,"station_id":"ce4bhah2rcd13ifvqei0","pricing_plan_id":"free"},{"bike_id":"24a9f437-3f10-4ec5-811e-48a2ceb23afc","system_id":"levelo_inurba_marseille","lat":43.284534,"lon":5.358662,"is_reserved":false,"is_disabled":false,"rental_uris":{"android":"levelo://app?vid=24a9f437-3f10-4ec5-811e-48a2ceb23afc","ios":"levelo://app?vid=24a9f437-3f10-4ec5-811e-48a2ceb23afc"},"vehicle_type_id":"4","last_reported":1684872407,"current_range_meters":17600,"station_id":"ce4bhah2rcd13ifvqei0","pricing_plan_id":"free"},{"bike_id":"3415e769-f57a-450d-9811-c59e759d8d6c","system_id":"levelo_inurba_marseille","lat":43.284534,"lon":5.358662,"is_reserved":false,"is_disabled":false,"rental_uris":{"android":"levelo://app?vid=3415e769-f57a-450d-9811-c59e759d8d6c","ios":"levelo://app?vid=3415e769-f57a-450d-9811-c59e759d8d6c"},"vehicle_type_id":"4","last_reported":1684872407,"current_range_meters":0,"station_id":"ce4bhah2rcd13ifvqei0","pricing_plan_id":"free"},{"bike_id":"8610fff9-e716-4928-a90b-3c5730670c79","system_id":"levelo_inurba_marseille","lat":43.284534,"lon":5.358662,"is_reserved":false,"is_disabled":false,"rental_uris":{"android":"levelo://app?vid=8610fff9-e716-4928-a90b-3c5730670c79","ios":"levelo://app?vid=8610fff9-e716-4928-a90b-3c5730670c79"},"vehicle_type_id":"4","last_reported":1684872407,"current_range_meters":1600,"station_id":"ce4bhah2rcd13ifvqei0","pricing_plan_id":"free"},{"bike_id":"3ab430b9-35e4-440a-9289-df17dedebaf0","system_id":"levelo_inurba_marseille","lat":43.284534,"lon":5.358662,"is_reserved":false,"is_disabled":false,"rental_uris":{"android":"levelo://app?vid=3ab430b9-35e4-440a-9289-df17dedebaf0","ios":"levelo://app?vid=3ab430b9-35e4-440a-9289-df17dedebaf0"},"vehicle_type_id":"4","last_reported":1684872407,"current_range_meters":26000,"station_id":"ce4bhah2rcd13ifvqei0","pricing_plan_id":"free"},{"bike_id":"59e35aed-2436-4ff7-a3f6-cb7e03bdb2e5","system_id":"levelo_inurba_marseille","lat":43.28462,"lon":5.35893,"is_reserved":false,"is_disabled":false,"rental_uris":{"android":"levelo://app?vid=59e35aed-2436-4ff7-a3f6-cb7e03bdb2e5","ios":"levelo://app?vid=59e35aed-2436-4ff7-a3f6-cb7e03bdb2e5"},"vehicle_type_id":"4","last_reported":1684872407,"current_range_meters":400,"station_id":"ce4bhah2rcd13ifvqei0","pricing_plan_id":"free"},{"bike_id":"3f2d1e4b-b301-45c2-8c99-be1bae6f5d82","system_id":"levelo_inurba_marseille","lat":43.284534,"lon":5.358662,"is_reserved":false,"is_disabled":false,"rental_uris":{"android":"levelo://app?vid=3f2d1e4b-b301-45c2-8c99-be1bae6f5d82","ios":"levelo://app?vid=3f2d1e4b-b301-45c2-8c99-be1bae6f5d82"},"vehicle_type_id":"4","last_reported":1684872407,"current_range_meters":18800,"station_id":"ce4bhah2rcd13ifvqei0","pricing_plan_id":"free"},{"bike_id":"154056b9-33f7-4a84-98e1-b1ecf7fa098e","system_id":"levelo_inurba_marseille","lat":43.284534,"lon":5.358662,"is_reserved":false,"is_disabled":false,"rental_uris":{"android":"levelo://app?vid=154056b9-33f7-4a84-98e1-b1ecf7fa098e","ios":"levelo://app?vid=154056b9-33f7-4a84-98e1-b1ecf7fa098e"},"vehicle_type_id":"4","last_reported":1684872407,"current_range_meters":11200,"station_id":"ce4bhah2rcd13ifvqei0","pricing_plan_id":"free"},{"bike_id":"1e2d7091-9927-4f62-9087-bfb3d6cdce85","system_id":"levelo_inurba_marseille","lat":43.284534,"lon":5.358662,"is_reserved":false,"is_disabled":false,"rental_uris":{"android":"levelo://app?vid=1e2d7091-9927-4f62-9087-bfb3d6cdce85","ios":"levelo://app?vid=1e2d7091-9927-4f62-9087-bfb3d6cdce85"},"vehicle_type_id":"4","last_reported":1684872407,"current_range_meters":16800,"station_id":"ce4bhah2rcd13ifvqei0","pricing_plan_id":"free"},{"bike_id":"a0c19ad0-e657-4cfd-a81b-2a096e6fac1b","system_id":"levelo_inurba_marseille","lat":43.28456,"lon":5.35894,"is_reserved":false,"is_disabled":false,"rental_uris":{"android":"levelo://app?vid=a0c19ad0-e657-4cfd-a81b-2a096e6fac1b","ios":"levelo://app?vid=a0c19ad0-e657-4cfd-a81b-2a096e6fac1b"},"vehicle_type_id":"4","last_reported":1684872407,"current_range_meters":11600,"station_id":"ce4bhah2rcd13ifvqei0","pricing_plan_id":"free"},{"bike_id":"ac4b2d97-6056-4503-b313-5d6ea8837e76","system_id":"levelo_inurba_marseille","lat":43.284534,"lon":5.358662,"is_reserved":false,"is_disabled":false,"rental_uris":{"android":"levelo://app?vid=ac4b2d97-6056-4503-b313-5d6ea8837e76","ios":"levelo://app?vid=ac4b2d97-6056-4503-b313-5d6ea8837e76"},"vehicle_type_id":"4","last_reported":1684872407,"current_range_meters":15200,"station_id":"ce4bhah2rcd13ifvqei0","pricing_plan_id":"free"},{"bike_id":"b30fecd7-0390-4300-8b2a-d8089641a0cc","system_id":"levelo_inurba_marseille","lat":43.284534,"lon":5.358662,"is_reserved":false,"is_disabled":false,"rental_uris":{"android":"levelo://app?vid=b30fecd7-0390-4300-8b2a-d8089641a0cc","ios":"levelo://app?vid=b30fecd7-0390-4300-8b2a-d8089641a0cc"},"vehicle_type_id":"4","last_reported":1684872407,"current_range_meters":16000,"station_id":"ce4bhah2rcd13ifvqei0","pricing_plan_id":"free"},{"bike_id":"1919365d-fbbc-493a-b24e-5fd61202b101","system_id":"levelo_inurba_marseille","lat":43.284534,"lon":5.358662,"is_reserved":false,"is_disabled":false,"rental_uris":{"android":"levelo://app?vid=1919365d-fbbc-493a-b24e-5fd61202b101","ios":"levelo://app?vid=1919365d-fbbc-493a-b24e-5fd61202b101"},"vehicle_type_id":"4","last_reported":1684872407,"current_range_meters":0,"station_id":"ce4bhah2rcd13ifvqei0","pricing_plan_id":"free"},{"bike_id":"da5bad9a-7da4-44f5-b7cc-17e8365b3e35","system_id":"levelo_inurba_marseille","lat":43.284534,"lon":5.358662,"is_reserved":false,"is_disabled":false,"rental_uris":{"android":"levelo://app?vid=da5bad9a-7da4-44f5-b7cc-17e8365b3e35","ios":"levelo://app?vid=da5bad9a-7da4-44f5-b7cc-17e8365b3e35"},"vehicle_type_id":"4","last_reported":1684872407,"current_range_meters":16400,"station_id":"ce4bhah2rcd13ifvqei0","pricing_plan_id":"free"},{"bike_id":"c54e99c2-d9e8-4a32-abb0-e74299061968","system_id":"levelo_inurba_marseille","lat":43.284534,"lon":5.358662,"is_reserved":false,"is_disabled":false,"rental_uris":{"android":"levelo://app?vid=c54e99c2-d9e8-4a32-abb0-e74299061968","ios":"levelo://app?vid=c54e99c2-d9e8-4a32-abb0-e74299061968"},"vehicle_type_id":"4","last_reported":1684872407,"current_range_meters":0,"station_id":"ce4bhah2rcd13ifvqei0","pricing_plan_id":"free"},{"bike_id":"54df7ffb-7202-4fdb-9eb4-4c01031807e2","system_id":"levelo_inurba_marseille","lat":43.284534,"lon":5.358662,"is_reserved":false,"is_disabled":false,"rental_uris":{"android":"levelo://app?vid=54df7ffb-7202-4fdb-9eb4-4c01031807e2","ios":"levelo://app?vid=54df7ffb-7202-4fdb-9eb4-4c01031807e2"},"vehicle_type_id":"4","last_reported":1684872407,"current_range_meters":21200,"station_id":"ce4bhah2rcd13ifvqei0","pricing_plan_id":"free"},{"bike_id":"cbde816a-eb28-46a5-83be-89fae6918151","system_id":"levelo_inurba_marseille","lat":43.284534,"lon":5.358662,"is_reserved":false,"is_disabled":false,"rental_uris":{"android":"levelo://app?vid=cbde816a-eb28-46a5-83be-89fae6918151","ios":"levelo://app?vid=cbde816a-eb28-46a5-83be-89fae6918151"},"vehicle_type_id":"4","last_reported":1684872407,"current_range_meters":27600,"station_id":"ce4bhah2rcd13ifvqei0","pricing_plan_id":"free"},{"bike_id":"ae4a9f70-99d5-4d86-8781-4cc643fdb0cb","system_id":"levelo_inurba_marseille","lat":43.284534,"lon":5.358662,"is_reserved":false,"is_disabled":false,"rental_uris":{"android":"levelo://app?vid=ae4a9f70-99d5-4d86-8781-4cc643fdb0cb","ios":"levelo://app?vid=ae4a9f70-99d5-4d86-8781-4cc643fdb0cb"},"vehicle_type_id":"4","last_reported":1684872407,"current_range_meters":19200,"station_id":"ce4bhah2rcd13ifvqei0","pricing_plan_id":"free"},{"bike_id":"d543ca0d-8f0f-41dc-9e91-f701dfec7883","system_id":"levelo_inurba_marseille","lat":43.284534,"lon":5.358662,"is_reserved":false,"is_disabled":false,"rental_uris":{"android":"levelo://app?vid=d543ca0d-8f0f-41dc-9e91-f701dfec7883","ios":"levelo://app?vid=d543ca0d-8f0f-41dc-9e91-f701dfec7883"},"vehicle_type_id":"4","last_reported":1684872407,"current_range_meters":6800,"station_id":"ce4bhah2rcd13ifvqei0","pricing_plan_id":"free"},{"bike_id":"4c2785e9-83b7-46c0-90a8-c9d272e8556e","system_id":"levelo_inurba_marseille","lat":43.284534,"lon":5.358662,"is_reserved":false,"is_disabled":false,"rental_uris":{"android":"levelo://app?vid=4c2785e9-83b7-46c0-90a8-c9d272e8556e","ios":"levelo://app?vid=4c2785e9-83b7-46c0-90a8-c9d272e8556e"},"vehicle_type_id":"4","last_reported":1684872407,"current_range_meters":14000,"station_id":"ce4bhah2rcd13ifvqei0","pricing_plan_id":"free"},{"bike_id":"e6a8172b-458c-4284-b566-c47c0e3a4281","system_id":"levelo_inurba_marseille","lat":43.285856,"lon":5.350771,"is_reserved":false,"is_disabled":false,"rental_uris":{"android":"levelo://app?vid=e6a8172b-458c-4284-b566-c47c0e3a4281","ios":"levelo://app?vid=e6a8172b-458c-4284-b566-c47c0e3a4281"},"vehicle_type_id":"4","last_reported":1684872407,"current_range_meters":3200,"station_id":"ce4bhch2rcd13ifvqeug","pricing_plan_id":"free"},{"bike_id":"934b0bcb-e53f-498c-852a-306378e848e5","system_id":"levelo_inurba_marseille","lat":43.28618,"lon":5.35103,"is_reserved":false,"is_disabled":false,"rental_uris":{"android":"levelo://app?vid=934b0bcb-e53f-498c-852a-306378e848e5","ios":"levelo://app?vid=934b0bcb-e53f-498c-852a-306378e848e5"},"vehicle_type_id":"4","last_reported":1684872407,"current_range_meters":22800,"station_id":"","pricing_plan_id":"free"},{"bike_id":"6cae2970-5f70-4528-8712-86f221272f8c","system_id":"levelo_inurba_marseille","lat":43.28615,"lon":5.35108,"is_reserved":false,"is_disabled":false,"rental_uris":{"android":"levelo://app?vid=6cae2970-5f70-4528-8712-86f221272f8c","ios":"levelo://app?vid=6cae2970-5f70-4528-8712-86f221272f8c"},"vehicle_type_id":"4","last_reported":1684872407,"current_range_meters":23200,"station_id":"","pricing_plan_id":"free"},{"bike_id":"beb5a841-b064-4d7c-96b5-18cab33821c3","system_id":"levelo_inurba_marseille","lat":43.28615,"lon":5.35107,"is_reserved":false,"is_disabled":false,"rental_uris":{"android":"levelo://app?vid=beb5a841-b064-4d7c-96b5-18cab33821c3","ios":"levelo://app?vid=beb5a841-b064-4d7c-96b5-18cab33821c3"},"vehicle_type_id":"4","last_reported":1684872407,"current_range_meters":12800,"station_id":"","pricing_plan_id":"free"},{"bike_id":"523ef3d4-6c0d-442b-ba23-759ce9d30f5b","system_id":"levelo_inurba_marseille","lat":43.28615,"lon":5.35103,"is_reserved":false,"is_disabled":false,"rental_uris":{"android":"levelo://app?vid=523ef3d4-6c0d-442b-ba23-759ce9d30f5b","ios":"levelo://app?vid=523ef3d4-6c0d-442b-ba23-759ce9d30f5b"},"vehicle_type_id":"4","last_reported":1684872407,"current_range_meters":21600,"station_id":"","pricing_plan_id":"free"},{"bike_id":"aa8e1899-73d9-4bea-b98c-d21692ff77e5","system_id":"levelo_inurba_marseille","lat":43.28614,"lon":5.35105,"is_reserved":false,"is_disabled":false,"rental_uris":{"android":"levelo://app?vid=aa8e1899-73d9-4bea-b98c-d21692ff77e5","ios":"levelo://app?vid=aa8e1899-73d9-4bea-b98c-d21692ff77e5"},"vehicle_type_id":"4","last_reported":1684872407,"current_range_meters":28800,"station_id":"","pricing_plan_id":"free"},{"bike_id":"295325ae-6f7a-42db-b321-2ae507de60de","system_id":"levelo_inurba_marseille","lat":43.28612,"lon":5.35111,"is_reserved":false,"is_disabled":false,"rental_uris":{"android":"levelo://app?vid=295325ae-6f7a-42db-b321-2ae507de60de","ios":"levelo://app?vid=295325ae-6f7a-42db-b321-2ae507de60de"},"vehicle_type_id":"4","last_reported":1684872407,"current_range_meters":14000,"station_id":"","pricing_plan_id":"free"},{"bike_id":"c11dc451-2685-4e74-b608-836cce5d2831","system_id":"levelo_inurba_marseille","lat":43.2861,"lon":5.35107,"is_reserved":false,"is_disabled":false,"rental_uris":{"android":"levelo://app?vid=c11dc451-2685-4e74-b608-836cce5d2831","ios":"levelo://app?vid=c11dc451-2685-4e74-b608-836cce5d2831"},"vehicle_type_id":"4","last_reported":1684872407,"current_range_meters":16000,"station_id":"","pricing_plan_id":"free"},{"bike_id":"3c362ca6-6468-47e0-96c3-cc7736ea6deb","system_id":"levelo_inurba_marseille","lat":43.28612,"lon":5.351,"is_reserved":false,"is_disabled":false,"rental_uris":{"android":"levelo://app?vid=3c362ca6-6468-47e0-96c3-cc7736ea6deb","ios":"levelo://app?vid=3c362ca6-6468-47e0-96c3-cc7736ea6deb"},"vehicle_type_id":"4","last_reported":1684872407,"current_range_meters":9200,"station_id":"","pricing_plan_id":"free"},{"bike_id":"26e8a9e3-1b7c-472e-99ad-8e0bafaac7fe","system_id":"levelo_inurba_marseille","lat":43.28611,"lon":5.35103,"is_reserved":false,"is_disabled":false,"rental_uris":{"android":"levelo://app?vid=26e8a9e3-1b7c-472e-99ad-8e0bafaac7fe","ios":"levelo://app?vid=26e8a9e3-1b7c-472e-99ad-8e0bafaac7fe"},"vehicle_type_id":"4","last_reported":1684872407,"current_range_meters":20400,"station_id":"","pricing_plan_id":"free"},{"bike_id":"21c4aa35-8605-4cfb-aa9b-636ec493fc46","system_id":"levelo_inurba_marseille","lat":43.2861,"lon":5.35105,"is_reserved":false,"is_disabled":false,"rental_uris":{"android":"levelo://app?vid=21c4aa35-8605-4cfb-aa9b-636ec493fc46","ios":"levelo://app?vid=21c4aa35-8605-4cfb-aa9b-636ec493fc46"},"vehicle_type_id":"4","last_reported":1684872407,"current_range_meters":7600,"station_id":"","pricing_plan_id":"free"},{"bike_id":"c550d9ed-d1ba-4319-9132-9452267f20c0","system_id":"levelo_inurba_marseille","lat":43.285856,"lon":5.350771,"is_reserved":false,"is_disabled":false,"rental_uris":{"android":"levelo://app?vid=c550d9ed-d1ba-4319-9132-9452267f20c0","ios":"levelo://app?vid=c550d9ed-d1ba-4319-9132-9452267f20c0"},"vehicle_type_id":"4","last_reported":1684872407,"current_range_meters":14000,"station_id":"ce4bhch2rcd13ifvqeug","pricing_plan_id":"free"},{"bike_id":"d7cccc2e-b6ed-4197-b408-7c608ee4ccb8","system_id":"levelo_inurba_marseille","lat":43.28612,"lon":5.35093,"is_reserved":false,"is_disabled":false,"rental_uris":{"android":"levelo://app?vid=d7cccc2e-b6ed-4197-b408-7c608ee4ccb8","ios":"levelo://app?vid=d7cccc2e-b6ed-4197-b408-7c608ee4ccb8"},"vehicle_type_id":"4","last_reported":1684872407,"current_range_meters":4400,"station_id":"","pricing_plan_id":"free"},{"bike_id":"6e91730b-7fd6-4b3b-9620-5486584ec650","system_id":"levelo_inurba_marseille","lat":43.295713,"lon":5.399639,"is_reserved":false,"is_disabled":false,"rental_uris":{"android":"levelo://app?vid=6e91730b-7fd6-4b3b-9620-5486584ec650","ios":"levelo://app?vid=6e91730b-7fd6-4b3b-9620-5486584ec650"},"vehicle_type_id":"4","last_reported":1684872407,"current_range_meters":16800,"station_id":"ce4bh312rcd13ifvqdj0","pricing_plan_id":"free"},{"bike_id":"daeb16e9-127b-45ce-8737-68eb72aedba5","system_id":"levelo_inurba_marseille","lat":43.295713,"lon":5.399639,"is_reserved":false,"is_disabled":false,"rental_uris":{"android":"levelo://app?vid=daeb16e9-127b-45ce-8737-68eb72aedba5","ios":"levelo://app?vid=daeb16e9-127b-45ce-8737-68eb72aedba5"},"vehicle_type_id":"4","last_reported":1684872407,"current_range_meters":15600,"station_id":"ce4bh312rcd13ifvqdj0","pricing_plan_id":"free"},{"bike_id":"a927767f-3ef3-4c16-ab6f-c388a42cbab5","system_id":"levelo_inurba_marseille","lat":43.295713,"lon":5.399639,"is_reserved":false,"is_disabled":false,"rental_uris":{"android":"levelo://app?vid=a927767f-3ef3-4c16-ab6f-c388a42cbab5","ios":"levelo://app?vid=a927767f-3ef3-4c16-ab6f-c388a42cbab5"},"vehicle_type_id":"4","last_reported":1684872407,"current_range_meters":28800,"station_id":"ce4bh312rcd13ifvqdj0","pricing_plan_id":"free"},{"bike_id":"4b0cf32a-d4d3-4a47-8677-ce3db1db02a1","system_id":"levelo_inurba_marseille","lat":43.286595,"lon":5.386795,"is_reserved":false,"is_disabled":false,"rental_uris":{"android":"levelo://app?vid=4b0cf32a-d4d3-4a47-8677-ce3db1db02a1","ios":"levelo://app?vid=4b0cf32a-d4d3-4a47-8677-ce3db1db02a1"},"vehicle_type_id":"4","last_reported":1684872407,"current_range_meters":400,"station_id":"ce4bh492rcd13ifvqdug","pricing_plan_id":"free"},{"bike_id":"0f4719c8-8ce9-4aea-97f4-3688950ece3d","system_id":"levelo_inurba_marseille","lat":43.286595,"lon":5.386795,"is_reserved":false,"is_disabled":false,"rental_uris":{"android":"levelo://app?vid=0f4719c8-8ce9-4aea-97f4-3688950ece3d","ios":"levelo://app?vid=0f4719c8-8ce9-4aea-97f4-3688950ece3d"},"vehicle_type_id":"4","last_reported":1684872407,"current_range_meters":3600,"station_id":"ce4bh492rcd13ifvqdug","pricing_plan_id":"free"},{"bike_id":"e96cf544-497e-4201-818d-856bd8f5f4fb","system_id":"levelo_inurba_marseille","lat":43.286595,"lon":5.386795,"is_reserved":false,"is_disabled":false,"rental_uris":{"android":"levelo://app?vid=e96cf544-497e-4201-818d-856bd8f5f4fb","ios":"levelo://app?vid=e96cf544-497e-4201-818d-856bd8f5f4fb"},"vehicle_type_id":"4","last_reported":1684872407,"current_range_meters":2800,"station_id":"ce4bh492rcd13ifvqdug","pricing_plan_id":"free"},{"bike_id":"91499416-252f-4fa0-a420-8dede9035918","system_id":"levelo_inurba_marseille","lat":43.2866,"lon":5.3866,"is_reserved":false,"is_disabled":false,"rental_uris":{"android":"levelo://app?vid=91499416-252f-4fa0-a420-8dede9035918","ios":"levelo://app?vid=91499416-252f-4fa0-a420-8dede9035918"},