{"last_updated":1683367548,"ttl":30,"version":"2.2","data":{"bikes":[{"bike_id":"03fc19c3-5582-4f19-964f-b231531cd2fd","system_id":"levelo_inurba_marseille","lat":43.31341,"lon":5.367098,"is_reserved":false,"is_disabled":false,"rental_uris":{"android":"levelo://app?vid=03fc19c3-5582-4f19-964f-b231531cd2fd","ios":"levelo://app?vid=03fc19c3-5582-4f19-964f-b231531cd2fd"},"vehicle_type_id":"4","last_reported":1683367549,"current_range_meters":20800,"station_id":"ce4bgr92rcd13ifvqc6g","pricing_plan_id":"free"},{"bike_id":"8491cdda-5727-419e-8e03-a19bbd4e5180","system_id":"levelo_inurba_marseille","lat":43.312239,"lon":5.368562,"is_reserved":false,"is_disabled":false,"rental_uris":{"android":"levelo://app?vid=8491cdda-5727-419e-8e03-a19bbd4e5180","ios":"levelo://app?vid=8491cdda-5727-419e-8e03-a19bbd4e5180"},"vehicle_type_id":"4","last_reported":1683367549,"current_range_meters":18800,"station_id":"ce4bgl92rcd13ifvqbq0","pricing_plan_id":"free"},{"bike_id":"168a8efb-18eb-4bbf-bacc-4cd79a83f40c","system_id":"levelo_inurba_marseille","lat":43.309076,"lon":5.368465,"is_reserved":false,"is_disabled":false,"rental_uris":{"android":"levelo://app?vid=168a8efb-18eb-4bbf-bacc-4cd79a83f40c","ios":"levelo://app?vid=168a8efb-18eb-4bbf-bacc-4cd79a83f40c"},"vehicle_type_id":"4","last_reported":1683367549,"current_range_meters":27600,"station_id":"ce4bgn92rcd13ifvqbvg","pricing_plan_id":"free"},{"bike_id":"fdbf4534-17d7-4c9a-a6ab-912a4fa994fb","system_id":"levelo_inurba_marseille","lat":43.309076,"lon":5.368465,"is_reserved":false,"is_disabled":false,"rental_uris":{"android":"levelo://app?vid=fdbf4534-17d7-4c9a-a6ab-912a4fa994fb","ios":"levelo://app?vid=fdbf4534-17d7-4c9a-a6ab-912a4fa994fb"},"vehicle_type_id":"4","last_reported":1683367549,"current_range_meters":28000,"station_id":"ce4bgn92rcd13ifvqbvg","pricing_plan_id":"free"},{"bike_id":"d0b19bdc-028c-4e53-824f-3158711604ba","system_id":"levelo_inurba_marseille","lat":43.309076,"lon":5.368465,"is_reserved":false,"is_disabled":false,"rental_uris":{"android":"levelo://app?vid=d0b19bdc-028c-4e53-824f-3158711604ba","ios":"levelo://app?vid=d0b19bdc-028c-4e53-824f-3158711604ba"},"vehicle_type_id":"4","last_reported":1683367549,"current_range_meters":30400,"station_id":"ce4bgn92rcd13ifvqbvg","pricing_plan_id":"free"},{"bike_id":"73adaaaf-9942-442f-930d-bef4f03eef0a","system_id":"levelo_inurba_marseille","lat":43.309076,"lon":5.368465,"is_reserved":false,"is_disabled":false,"rental_uris":{"android":"levelo://app?vid=73adaaaf-9942-442f-930d-bef4f03eef0a","ios":"levelo://app?vid=73adaaaf-9942-442f-930d-bef4f03eef0a"},"vehicle_type_id":"4","last_reported":1683367549,"current_range_meters":31200,"station_id":"ce4bgn92rcd13ifvqbvg","pricing_plan_id":"free"},{"bike_id":"6482b8a3-70c9-4804-83f2-4836c15ec734","system_id":"levelo_inurba_marseille","lat":43.309076,"lon":5.368465,"is_reserved":false,"is_disabled":false,"rental_uris":{"android":"levelo://app?vid=6482b8a3-70c9-4804-83f2-4836c15ec734","ios":"levelo://app?vid=6482b8a3-70c9-4804-83f2-4836c15ec734"},"vehicle_type_id":"4","last_reported":1683367549,"current_range_meters":31200,"station_id":"ce4bgn92rcd13ifvqbvg","pricing_plan_id":"free"},{"bike_id":"a4a9cad7-81f3-41a0-8926-65ddca302903","system_id":"levelo_inurba_marseille","lat":43.309076,"lon":5.368465,"is_reserved":false,"is_disabled":false,"rental_uris":{"android":"levelo://app?vid=a4a9cad7-81f3-41a0-8926-65ddca302903","ios":"levelo://app?vid=a4a9cad7-81f3-41a0-8926-65ddca302903"},"vehicle_type_id":"4","last_reported":1683367549,"current_range_meters":29600,"station_id":"ce4bgn92rcd13ifvqbvg","pricing_plan_id":"free"},{"bike_id":"7c2bab09-4e6d-441e-a367-420c5eaf4d77","system_id":"levelo_inurba_marseille","lat":43.309076,"lon":5.368465,"is_reserved":false,"is_disabled":false,"rental_uris":{"android":"levelo://app?vid=7c2bab09-4e6d-441e-a367-420c5eaf4d77","ios":"levelo://app?vid=7c2bab09-4e6d-441e-a367-420c5eaf4d77"},"vehicle_type_id":"4","last_reported":1683367549,"current_range_meters":31200,"station_id":"ce4bgn92rcd13ifvqbvg","pricing_plan_id":"free"},{"bike_id":"4897c916-e9e2-440a-b225-7ace352307cb","system_id":"levelo_inurba_marseille","lat":43.309076,"lon":5.368465,"is_reserved":false,"is_disabled":false,"rental_uris":{"android":"levelo://app?vid=4897c916-e9e2-440a-b225-7ace352307cb","ios":"levelo://app?vid=4897c916-e9e2-440a-b225-7ace352307cb"},"vehicle_type_id":"4","last_reported":1683367549,"current_range_meters":31200,"station_id":"ce4bgn92rcd13ifvqbvg","pricing_plan_id":"free"},{"bike_id":"d9430068-5e86-4b76-b9d5-d01b0134f61c","system_id":"levelo_inurba_marseille","lat":43.309076,"lon":5.368465,"is_reserved":false,"is_disabled":false,"rental_uris":{"android":"levelo://app?vid=d9430068-5e86-4b76-b9d5-d01b0134f61c","ios":"levelo://app?vid=d9430068-5e86-4b76-b9d5-d01b0134f61c"},"vehicle_type_id":"4","last_reported":1683367549,"current_range_meters":24400,"station_id":"ce4bgn92rcd13ifvqbvg","pricing_plan_id":"free"},{"bike_id":"2a617a31-6c36-44fb-82dc-336516e806d6","system_id":"levelo_inurba_marseille","lat":43.314811,"lon":5.373103,"is_reserved":false,"is_disabled":false,"rental_uris":{"android":"levelo://app?vid=2a617a31-6c36-44fb-82dc-336516e806d6","ios":"levelo://app?vid=2a617a31-6c36-44fb-82dc-336516e806d6"},"vehicle_type_id":"4","last_reported":1683367549,"current_range_meters":9200,"station_id":"ce4bgt12rcd13ifvqcd0","pricing_plan_id":"free"},{"bike_id":"fc7e852f-227a-4bc5-b127-a5a46f2d9c31","system_id":"levelo_inurba_marseille","lat":43.314811,"lon":5.373104,"is_reserved":false,"is_disabled":false,"rental_uris":{"android":"levelo://app?vid=fc7e852f-227a-4bc5-b127-a5a46f2d9c31","ios":"levelo://app?vid=fc7e852f-227a-4bc5-b127-a5a46f2d9c31"},"vehicle_type_id":"4","last_reported":1683367549,"current_range_meters":26000,"station_id":"ce4bgt12rcd13ifvqcd0","pricing_plan_id":"free"},{"bike_id":"caea2489-5a5d-4f00-8e78-8c319f8ed68e","system_id":"levelo_inurba_marseille","lat":43.3057,"lon":5.36553,"is_reserved":false,"is_disabled":false,"rental_uris":{"android":"levelo://app?vid=caea2489-5a5d-4f00-8e78-8c319f8ed68e","ios":"levelo://app?vid=caea2489-5a5d-4f00-8e78-8c319f8ed68e"},"vehicle_type_id":"4","last_reported":1683367549,"current_range_meters":6800,"station_id":"","pricing_plan_id":"free"},{"bike_id":"929722cd-6e2d-4255-b6d3-21046a20e18c","system_id":"levelo_inurba_marseille","lat":43.305368,"lon":5.367343,"is_reserved":false,"is_disabled":false,"rental_uris":{"android":"levelo://app?vid=929722cd-6e2d-4255-b6d3-21046a20e18c","ios":"levelo://app?vid=929722cd-6e2d-4255-b6d3-21046a20e18c"},"vehicle_type_id":"4","last_reported":1683367549,"current_range_meters":26000,"station_id":"ce4bgrp2rcd13ifvqc9g","pricing_plan_id":"free"},{"bike_id":"b73492f5-fc78-43b3-87ad-a1c065e9c07f","system_id":"levelo_inurba_marseille","lat":43.305368,"lon":5.367343,"is_reserved":false,"is_disabled":false,"rental_uris":{"android":"levelo://app?vid=b73492f5-fc78-43b3-87ad-a1c065e9c07f","ios":"levelo://app?vid=b73492f5-fc78-43b3-87ad-a1c065e9c07f"},"vehicle_type_id":"4","last_reported":1683367549,"current_range_meters":15600,"station_id":"ce4bgrp2rcd13ifvqc9g","pricing_plan_id":"free"},{"bike_id":"d7053f0f-08e4-418d-b36f-03819bf9fe17","system_id":"levelo_inurba_marseille","lat":43.30552,"lon":5.36552,"is_reserved":false,"is_disabled":false,"rental_uris":{"android":"levelo://app?vid=d7053f0f-08e4-418d-b36f-03819bf9fe17","ios":"levelo://app?vid=d7053f0f-08e4-418d-b36f-03819bf9fe17"},"vehicle_type_id":"4","last_reported":1683367549,"current_range_meters":29600,"station_id":"ce4bgs12rcd13ifvqcag","pricing_plan_id":"free"},{"bike_id":"c4f34e46-f611-4ae5-abec-c9ae12fe416a","system_id":"levelo_inurba_marseille","lat":43.30547,"lon":5.3653,"is_reserved":false,"is_disabled":false,"rental_uris":{"android":"levelo://app?vid=c4f34e46-f611-4ae5-abec-c9ae12fe416a","ios":"levelo://app?vid=c4f34e46-f611-4ae5-abec-c9ae12fe416a"},"vehicle_type_id":"4","last_reported":1683367549,"current_range_meters":26400,"station_id":"","pricing_plan_id":"free"},{"bike_id":"b54e35b6-e189-4d57-8677-f0a1f69a6001","system_id":"levelo_inurba_marseille","lat":43.30545,"lon":5.36531,"is_reserved":false,"is_disabled":false,"rental_uris":{"android":"levelo://app?vid=b54e35b6-e189-4d57-8677-f0a1f69a6001","ios":"levelo://app?vid=b54e35b6-e189-4d57-8677-f0a1f69a6001"},"vehicle_type_id":"4","last_reported":1683367549,"current_range_meters":12400,"station_id":"","pricing_plan_id":"free"},{"bike_id":"d29ea4f7-66f4-41ab-8ee0-c8b937a4a3fa","system_id":"levelo_inurba_marseille","lat":43.305706,"lon":5.365654,"is_reserved":false,"is_disabled":false,"rental_uris":{"android":"levelo://app?vid=d29ea4f7-66f4-41ab-8ee0-c8b937a4a3fa","ios":"levelo://app?vid=d29ea4f7-66f4-41ab-8ee0-c8b937a4a3fa"},"vehicle_type_id":"4","last_reported":1683367549,"current_range_meters":16800,"station_id":"ce4bgs12rcd13ifvqcag","pricing_plan_id":"free"},{"bike_id":"ede61acf-2737-430c-b4a8-ae77d8328965","system_id":"levelo_inurba_marseille","lat":43.305706,"lon":5.365654,"is_reserved":false,"is_disabled":false,"rental_uris":{"android":"levelo://app?vid=ede61acf-2737-430c-b4a8-ae77d8328965","ios":"levelo://app?vid=ede61acf-2737-430c-b4a8-ae77d8328965"},"vehicle_type_id":"4","last_reported":1683367549,"current_range_meters":16800,"station_id":"ce4bgs12rcd13ifvqcag","pricing_plan_id":"free"},{"bike_id":"c5396fca-191d-489c-ba18-b72c6aa3a70e","system_id":"levelo_inurba_marseille","lat":43.305706,"lon":5.365654,"is_reserved":false,"is_disabled":false,"rental_uris":{"android":"levelo://app?vid=c5396fca-191d-489c-ba18-b72c6aa3a70e","ios":"levelo://app?vid=c5396fca-191d-489c-ba18-b72c6aa3a70e"},"vehicle_type_id":"4","last_reported":1683367549,"current_range_meters":16000,"station_id":"ce4bgs12rcd13ifvqcag","pricing_plan_id":"free"},{"bike_id":"960a1b0a-8f16-4c21-8c72-124d18d9f289","system_id":"levelo_inurba_marseille","lat":43.305714,"lon":5.365633,"is_reserved":false,"is_disabled":false,"rental_uris":{"android":"levelo://app?vid=960a1b0a-8f16-4c21-8c72-124d18d9f289","ios":"levelo://app?vid=960a1b0a-8f16-4c21-8c72-124d18d9f289"},"vehicle_type_id":"4","last_reported":1683367549,"current_range_meters":20800,"station_id":"ce4bgs12rcd13ifvqcag","pricing_plan_id":"free"},{"bike_id":"95984a2c-f926-44e2-9e71-8b21797befb6","system_id":"levelo_inurba_marseille","lat":43.305714,"lon":5.365633,"is_reserved":false,"is_disabled":false,"rental_uris":{"android":"levelo://app?vid=95984a2c-f926-44e2-9e71-8b21797befb6","ios":"levelo://app?vid=95984a2c-f926-44e2-9e71-8b21797befb6"},"vehicle_type_id":"4","last_reported":1683367549,"current_range_meters":24400,"station_id":"ce4bgs12rcd13ifvqcag","pricing_plan_id":"free"},{"bike_id":"16cbd3c3-4d35-49c1-bd93-560fde2e5392","system_id":"levelo_inurba_marseille","lat":43.305714,"lon":5.365633,"is_reserved":false,"is_disabled":false,"rental_uris":{"android":"levelo://app?vid=16cbd3c3-4d35-49c1-bd93-560fde2e5392","ios":"levelo://app?vid=16cbd3c3-4d35-49c1-bd93-560fde2e5392"},"vehicle_type_id":"4","last_reported":1683367549,"current_range_meters":22800,"station_id":"ce4bgs12rcd13ifvqcag","pricing_plan_id":"free"},{"bike_id":"138d66c8-7910-4fd8-a4ff-cfee6c1c0893","system_id":"levelo_inurba_marseille","lat":43.305706,"lon":5.365654,"is_reserved":false,"is_disabled":false,"rental_uris":{"android":"levelo://app?vid=138d66c8-7910-4fd8-a4ff-cfee6c1c0893","ios":"levelo://app?vid=138d66c8-7910-4fd8-a4ff-cfee6c1c0893"},"vehicle_type_id":"4","last_reported":1683367549,"current_range_meters":22000,"station_id":"ce4bgs12rcd13ifvqcag","pricing_plan_id":"free"},{"bike_id":"df64e7df-dbac-4957-a1e8-4918f3ab8ce9","system_id":"levelo_inurba_marseille","lat":43.305989,"lon":5.37225,"is_reserved":false,"is_disabled":false,"rental_uris":{"android":"levelo://app?vid=df64e7df-dbac-4957-a1e8-4918f3ab8ce9","ios":"levelo://app?vid=df64e7df-dbac-4957-a1e8-4918f3ab8ce9"},"vehicle_type_id":"4","last_reported":1683367549,"current_range_meters":21600,"station_id":"ce4bgqh2rcd13ifvqc4g","pricing_plan_id":"free"},{"bike_id":"111c1b3f-995a-4eef-a3ae-c8f35873bfa9","system_id":"levelo_inurba_marseille","lat":43.305989,"lon":5.37225,"is_reserved":false,"is_disabled":false,"rental_uris":{"android":"levelo://app?vid=111c1b3f-995a-4eef-a3ae-c8f35873bfa9","ios":"levelo://app?vid=111c1b3f-995a-4eef-a3ae-c8f35873bfa9"},"vehicle_type_id":"4","last_reported":1683367549,"current_range_meters":15600,"station_id":"ce4bgqh2rcd13ifvqc4g","pricing_plan_id":"free"},{"bike_id":"b5779687-6f5c-4762-be31-7e6ecdccebef","system_id":"levelo_inurba_marseille","lat":43.305989,"lon":5.37225,"is_reserved":false,"is_disabled":false,"rental_uris":{"android":"levelo://app?vid=b5779687-6f5c-4762-be31-7e6ecdccebef","ios":"levelo://app?vid=b5779687-6f5c-4762-be31-7e6ecdccebef"},"vehicle_type_id":"4","last_reported":1683367549,"current_range_meters":31200,"station_id":"ce4bgqh2rcd13ifvqc4g","pricing_plan_id":"free"},{"bike_id":"e0de2973-bf4a-4648-a94e-021c19e123f4","system_id":"levelo_inurba_marseille","lat":43.305989,"lon":5.37225,"is_reserved":false,"is_disabled":false,"rental_uris":{"android":"levelo://app?vid=e0de2973-bf4a-4648-a94e-021c19e123f4","ios":"levelo://app?vid=e0de2973-bf4a-4648-a94e-021c19e123f4"},"vehicle_type_id":"4","last_reported":1683367549,"current_range_meters":29200,"station_id":"ce4bgqh2rcd13ifvqc4g","pricing_plan_id":"free"},{"bike_id":"1c0f190d-92b4-4c12-980f-21f43b1b960e","system_id":"levelo_inurba_marseille","lat":43.311131,"lon":5.377651,"is_reserved":false,"is_disabled":false,"rental_uris":{"android":"levelo://app?vid=1c0f190d-92b4-4c12-980f-21f43b1b960e","ios":"levelo://app?vid=1c0f190d-92b4-4c12-980f-21f43b1b960e"},"vehicle_type_id":"4","last_reported":1683367549,"current_range_meters":26800,"station_id":"ce4bgt92rcd13ifvqcg0","pricing_plan_id":"free"},{"bike_id":"ff4a4f91-74c4-4984-a801-55820176eb17","system_id":"levelo_inurba_marseille","lat":43.311131,"lon":5.377651,"is_reserved":false,"is_disabled":false,"rental_uris":{"android":"levelo://app?vid=ff4a4f91-74c4-4984-a801-55820176eb17","ios":"levelo://app?vid=ff4a4f91-74c4-4984-a801-55820176eb17"},"vehicle_type_id":"4","last_reported":1683367549,"current_range_meters":15200,"station_id":"ce4bgt92rcd13ifvqcg0","pricing_plan_id":"free"},{"bike_id":"452d8aa2-923d-4a4d-904e-1aaf1c481c7d","system_id":"levelo_inurba_marseille","lat":43.30453,"lon":5.36765,"is_reserved":false,"is_disabled":false,"rental_uris":{"android":"levelo://app?vid=452d8aa2-923d-4a4d-904e-1aaf1c481c7d","ios":"levelo://app?vid=452d8aa2-923d-4a4d-904e-1aaf1c481c7d"},"vehicle_type_id":"4","last_reported":1683367549,"current_range_meters":0,"station_id":"","pricing_plan_id":"free"},{"bike_id":"121bcd91-5f14-460c-a875-40e2214d56a2","system_id":"levelo_inurba_marseille","lat":43.317075,"lon":5.377367,"is_reserved":false,"is_disabled":false,"rental_uris":{"android":"levelo://app?vid=121bcd91-5f14-460c-a875-40e2214d56a2","ios":"levelo://app?vid=121bcd91-5f14-460c-a875-40e2214d56a2"},"vehicle_type_id":"4","last_reported":1683367549,"current_range_meters":28000,"station_id":"ce4bgth2rcd13ifvqch0","pricing_plan_id":"free"},{"bike_id":"ac81ec7d-bd04-4187-8b39-cfadbab6d2e0","system_id":"levelo_inurba_marseille","lat":43.317075,"lon":5.377367,"is_reserved":false,"is_disabled":false,"rental_uris":{"android":"levelo://app?vid=ac81ec7d-bd04-4187-8b39-cfadbab6d2e0","ios":"levelo://app?vid=ac81ec7d-bd04-4187-8b39-cfadbab6d2e0"},"vehicle_type_id":"4","last_reported":1683367549,"current_range_meters":22800,"station_id":"ce4bgth2rcd13ifvqch0","pricing_plan_id":"free"},{"bike_id":"2114a6b2-e574-42fa-a3ce-a7c7154196b6","system_id":"levelo_inurba_marseille","lat":43.317075,"lon":5.377367,"is_reserved":false,"is_disabled":false,"rental_uris":{"android":"levelo://app?vid=2114a6b2-e574-42fa-a3ce-a7c7154196b6","ios":"levelo://app?vid=2114a6b2-e574-42fa-a3ce-a7c7154196b6"},"vehicle_type_id":"4","last_reported":1683367549,"current_range_meters":24800,"station_id":"ce4bgth2rcd13ifvqch0","pricing_plan_id":"free"},{"bike_id":"b3b28336-ae3c-45c3-9187-488825acd3a3","system_id":"levelo_inurba_marseille","lat":43.317075,"lon":5.377367,"is_reserved":false,"is_disabled":false,"rental_uris":{"android":"levelo://app?vid=b3b28336-ae3c-45c3-9187-488825acd3a3","ios":"levelo://app?vid=b3b28336-ae3c-45c3-9187-488825acd3a3"},"vehicle_type_id":"4","last_reported":1683367549,"current_range_meters":6800,"station_id":"ce4bgth2rcd13ifvqch0","pricing_plan_id":"free"},{"bike_id":"245c1e28-3e9d-4163-a52a-9dcd1d6daa13","system_id":"levelo_inurba_marseille","lat":43.317075,"lon":5.377367,"is_reserved":false,"is_disabled":false,"rental_uris":{"android":"levelo://app?vid=245c1e28-3e9d-4163-a52a-9dcd1d6daa13","ios":"levelo://app?vid=245c1e28-3e9d-4163-a52a-9dcd1d6daa13"},"vehicle_type_id":"4","last_reported":1683367549,"current_range_meters":31200,"station_id":"ce4bgth2rcd13ifvqch0","pricing_plan_id":"free"},{"bike_id":"d44ef1b5-aa87-494f-b80b-d91982363150","system_id":"levelo_inurba_marseille","lat":43.31528,"lon":5.38023,"is_reserved":false,"is_disabled":false,"rental_uris":{"android":"levelo://app?vid=d44ef1b5-aa87-494f-b80b-d91982363150","ios":"levelo://app?vid=d44ef1b5-aa87-494f-b80b-d91982363150"},"vehicle_type_id":"4","last_reported":1683367549,"current_range_meters":26800,"station_id":"ce4bhsp2rcd13ifvqi50","pricing_plan_id":"free"},{"bike_id":"6646f385-7df2-4aa2-8f2d-7587e9a3c28a","system_id":"levelo_inurba_marseille","lat":43.315293,"lon":5.380349,"is_reserved":false,"is_disabled":false,"rental_uris":{"android":"levelo://app?vid=6646f385-7df2-4aa2-8f2d-7587e9a3c28a","ios":"levelo://app?vid=6646f385-7df2-4aa2-8f2d-7587e9a3c28a"},"vehicle_type_id":"4","last_reported":1683367549,"current_range_meters":27600,"station_id":"ce4bhsp2rcd13ifvqi50","pricing_plan_id":"free"},{"bike_id":"8170f3b4-b1c3-4994-93d8-7121a498d044","system_id":"levelo_inurba_marseille","lat":43.31528,"lon":5.38026,"is_reserved":false,"is_disabled":false,"rental_uris":{"android":"levelo://app?vid=8170f3b4-b1c3-4994-93d8-7121a498d044","ios":"levelo://app?vid=8170f3b4-b1c3-4994-93d8-7121a498d044"},"vehicle_type_id":"4","last_reported":1683367549,"current_range_meters":30000,"station_id":"ce4bhsp2rcd13ifvqi50","pricing_plan_id":"free"},{"bike_id":"10394994-36fd-400a-a11d-6616bcab1dd5","system_id":"levelo_inurba_marseille","lat":43.31533,"lon":5.38025,"is_reserved":false,"is_disabled":false,"rental_uris":{"android":"levelo://app?vid=10394994-36fd-400a-a11d-6616bcab1dd5","ios":"levelo://app?vid=10394994-36fd-400a-a11d-6616bcab1dd5"},"vehicle_type_id":"4","last_reported":1683367549,"current_range_meters":30800,"station_id":"ce4bhsp2rcd13ifvqi50","pricing_plan_id":"free"},{"bike_id":"695480ea-8623-43ba-9449-9a7d0ad32100","system_id":"levelo_inurba_marseille","lat":43.31533,"lon":5.38025,"is_reserved":false,"is_disabled":false,"rental_uris":{"android":"levelo://app?vid=695480ea-8623-43ba-9449-9a7d0ad32100","ios":"levelo://app?vid=695480ea-8623-43ba-9449-9a7d0ad32100"},"vehicle_type_id":"4","last_reported":1683367549,"current_range_meters":18000,"station_id":"ce4bhsp2rcd13ifvqi50","pricing_plan_id":"free"},{"bike_id":"b64fc591-f944-4690-a5bf-893739aa4bb9","system_id":"levelo_inurba_marseille","lat":43.308012,"lon":5.381511,"is_reserved":false,"is_disabled":false,"rental_uris":{"android":"levelo://app?vid=b64fc591-f944-4690-a5bf-893739aa4bb9","ios":"levelo://app?vid=b64fc591-f944-4690-a5bf-893739aa4bb9"},"vehicle_type_id":"4","last_reported":1683367549,"current_range_meters":12400,"station_id":"ce4bgt12rcd13ifvqce0","pricing_plan_id":"free"},{"bike_id":"10ccce20-02ad-4dc0-81e1-c11cf011c776","system_id":"levelo_inurba_marseille","lat":43.304606,"lon":5.379026,"is_reserved":false,"is_disabled":false,"rental_uris":{"android":"levelo://app?vid=10ccce20-02ad-4dc0-81e1-c11cf011c776","ios":"levelo://app?vid=10ccce20-02ad-4dc0-81e1-c11cf011c776"},"vehicle_type_id":"4","last_reported":1683367549,"current_range_meters":31200,"station_id":"ce4bgup2rcd13ifvqcn0","pricing_plan_id":"free"},{"bike_id":"ce61796c-09f9-4397-9588-3528ab4d5fa6","system_id":"levelo_inurba_marseille","lat":43.304606,"lon":5.379026,"is_reserved":false,"is_disabled":false,"rental_uris":{"android":"levelo://app?vid=ce61796c-09f9-4397-9588-3528ab4d5fa6","ios":"levelo://app?vid=ce61796c-09f9-4397-9588-3528ab4d5fa6"},"vehicle_type_id":"4","last_reported":1683367549,"current_range_meters":25200,"station_id":"ce4bgup2rcd13ifvqcn0","pricing_plan_id":"free"},{"bike_id":"d50f94be-98a5-430d-85ca-38d86b478ca3","system_id":"levelo_inurba_marseille","lat":43.304606,"lon":5.379026,"is_reserved":false,"is_disabled":false,"rental_uris":{"android":"levelo://app?vid=d50f94be-98a5-430d-85ca-38d86b478ca3","ios":"levelo://app?vid=d50f94be-98a5-430d-85ca-38d86b478ca3"},"vehicle_type_id":"4","last_reported":1683367549,"current_range_meters":16000,"station_id":"ce4bgup2rcd13ifvqcn0","pricing_plan_id":"free"},{"bike_id":"f13ad450-ae72-40dd-827e-6c61e17a89be","system_id":"levelo_inurba_marseille","lat":43.30461,"lon":5.379,"is_reserved":false,"is_disabled":false,"rental_uris":{"android":"levelo://app?vid=f13ad450-ae72-40dd-827e-6c61e17a89be","ios":"levelo://app?vid=f13ad450-ae72-40dd-827e-6c61e17a89be"},"vehicle_type_id":"4","last_reported":1683367549,"current_range_meters":31200,"station_id":"ce4bgup2rcd13ifvqcn0","pricing_plan_id":"free"},{"bike_id":"850d0888-4b27-48a4-a01d-202c54ecbc00","system_id":"levelo_inurba_marseille","lat":43.304606,"lon":5.379026,"is_reserved":false,"is_disabled":false,"rental_uris":{"android":"levelo://app?vid=850d0888-4b27-48a4-a01d-202c54ecbc00","ios":"levelo://app?vid=850d0888-4b27-48a4-a01d-202c54ecbc00"},"vehicle_type_id":"4","last_reported":1683367549,"current_range_meters":31200,"station_id":"ce4bgup2rcd13ifvqcn0","pricing_plan_id":"free"},{"bike_id":"89900ee3-f058-453a-bb14-cbcc65bb4120","system_id":"levelo_inurba_marseille","lat":43.304606,"lon":5.379026,"is_reserved":false,"is_disabled":false,"rental_uris":{"android":"levelo://app?vid=89900ee3-f058-453a-bb14-cbcc65bb4120","ios":"levelo://app?vid=89900ee3-f058-453a-bb14-cbcc65bb4120"},"vehicle_type_id":"4","last_reported":1683367549,"current_range_meters":31200,"station_id":"ce4bgup2rcd13ifvqcn0","pricing_plan_id":"free"},{"bike_id":"4d717ab8-a608-4ecb-9595-8c3a8fe202c4","system_id":"levelo_inurba_marseille","lat":43.304606,"lon":5.379026,"is_reserved":false,"is_disabled":false,"rental_uris":{"android":"levelo://app?vid=4d717ab8-a608-4ecb-9595-8c3a8fe202c4","ios":"levelo://app?vid=4d717ab8-a608-4ecb-9595-8c3a8fe202c4"},"vehicle_type_id":"4","last_reported":1683367549,"current_range_meters":31200,"station_id":"ce4bgup2rcd13ifvqcn0","pricing_plan_id":"free"},{"bike_id":"0409a969-d6a9-4535-a3aa-39109a7e4038","system_id":"levelo_inurba_marseille","lat":43.304606,"lon":5.379026,"is_reserved":false,"is_disabled":false,"rental_uris":{"android":"levelo://app?vid=0409a969-d6a9-4535-a3aa-39109a7e4038","ios":"levelo://app?vid=0409a969-d6a9-4535-a3aa-39109a7e4038"},"vehicle_type_id":"4","last_reported":1683367549,"current_range_meters":23600,"station_id":"ce4bgup2rcd13ifvqcn0","pricing_plan_id":"free"},{"bike_id":"5f22d95f-2eee-42ed-a653-40a89cfa6186","system_id":"levelo_inurba_marseille","lat":43.304525,"lon":5.37903,"is_reserved":false,"is_disabled":false,"rental_uris":{"android":"levelo://app?vid=5f22d95f-2eee-42ed-a653-40a89cfa6186","ios":"levelo://app?vid=5f22d95f-2eee-42ed-a653-40a89cfa6186"},"vehicle_type_id":"4","last_reported":1683367549,"current_range_meters":24800,"station_id":"ce4bgup2rcd13ifvqcn0","pricing_plan_id":"free"},{"bike_id":"95993712-414b-4ade-b30b-7d5b0ed4a0f8","system_id":"levelo_inurba_marseille","lat":43.30146,"lon":5.37418,"is_reserved":false,"is_disabled":false,"rental_uris":{"android":"levelo://app?vid=95993712-414b-4ade-b30b-7d5b0ed4a0f8","ios":"levelo://app?vid=95993712-414b-4ade-b30b-7d5b0ed4a0f8"},"vehicle_type_id":"4","last_reported":1683367549,"current_range_meters":20400,"station_id":"ce4bgs92rcd13ifvqcc0","pricing_plan_id":"free"},{"bike_id":"ce2320d6-4bce-4e27-9438-c2a98fad4084","system_id":"levelo_inurba_marseille","lat":43.30144,"lon":5.37417,"is_reserved":false,"is_disabled":false,"rental_uris":{"android":"levelo://app?vid=ce2320d6-4bce-4e27-9438-c2a98fad4084","ios":"levelo://app?vid=ce2320d6-4bce-4e27-9438-c2a98fad4084"},"vehicle_type_id":"4","last_reported":1683367549,"current_range_meters":31200,"station_id":"ce4bgs92rcd13ifvqcc0","pricing_plan_id":"free"},{"bike_id":"cb6a3fc3-cd7f-4f20-8aed-1b890fc65bbd","system_id":"levelo_inurba_marseille","lat":43.3137,"lon":5.38496,"is_reserved":false,"is_disabled":false,"rental_uris":{"android":"levelo://app?vid=cb6a3fc3-cd7f-4f20-8aed-1b890fc65bbd","ios":"levelo://app?vid=cb6a3fc3-cd7f-4f20-8aed-1b890fc65bbd"},"vehicle_type_id":"4","last_reported":1683367549,"current_range_meters":29600,"station_id":"ce4bgt92rcd13ifvqcf0","pricing_plan_id":"free"},{"bike_id":"f6c64a9d-d5f6-48c4-8a81-960fe0f29fb2","system_id":"levelo_inurba_marseille","lat":43.31371,"lon":5.38515,"is_reserved":false,"is_disabled":false,"rental_uris":{"android":"levelo://app?vid=f6c64a9d-d5f6-48c4-8a81-960fe0f29fb2","ios":"levelo://app?vid=f6c64a9d-d5f6-48c4-8a81-960fe0f29fb2"},"vehicle_type_id":"4","last_reported":1683367549,"current_range_meters":18800,"station_id":"","pricing_plan_id":"free"},{"bike_id":"bcf12486-4d40-4884-969b-2c19f244a968","system_id":"levelo_inurba_marseille","lat":43.29884,"lon":5.36685,"is_reserved":false,"is_disabled":false,"rental_uris":{"android":"levelo://app?vid=bcf12486-4d40-4884-969b-2c19f244a968","ios":"levelo://app?vid=bcf12486-4d40-4884-969b-2c19f244a968"},"vehicle_type_id":"4","last_reported":1683367549,"current_range_meters":0,"station_id":"","pricing_plan_id":"free"},{"bike_id":"9a8cb2cd-7757-4f79-b6cf-f301b5954263","system_id":"levelo_inurba_marseille","lat":43.30042,"lon":5.37627,"is_reserved":false,"is_disabled":false,"rental_uris":{"android":"levelo://app?vid=9a8cb2cd-7757-4f79-b6cf-f301b5954263","ios":"levelo://app?vid=9a8cb2cd-7757-4f79-b6cf-f301b5954263"},"vehicle_type_id":"4","last_reported":1683367549,"current_range_meters":22800,"station_id":"","pricing_plan_id":"free"},{"bike_id":"41db2434-e223-4a22-b020-c40bdeda3032","system_id":"levelo_inurba_marseille","lat":43.298433,"lon":5.362774,"is_reserved":false,"is_disabled":false,"rental_uris":{"android":"levelo://app?vid=41db2434-e223-4a22-b020-c40bdeda3032","ios":"levelo://app?vid=41db2434-e223-4a22-b020-c40bdeda3032"},"vehicle_type_id":"4","last_reported":1683367549,"current_range_meters":15600,"station_id":"ce4bgpp2rcd13ifvqc3g","pricing_plan_id":"free"},{"bike_id":"875b6dec-3822-4291-8e5b-8c554a9c90af","system_id":"levelo_inurba_marseille","lat":43.298433,"lon":5.362774,"is_reserved":false,"is_disabled":false,"rental_uris":{"android":"levelo://app?vid=875b6dec-3822-4291-8e5b-8c554a9c90af","ios":"levelo://app?vid=875b6dec-3822-4291-8e5b-8c554a9c90af"},"vehicle_type_id":"4","last_reported":1683367549,"current_range_meters":27600,"station_id":"ce4bgpp2rcd13ifvqc3g","pricing_plan_id":"free"},{"bike_id":"1299f5ef-7e4a-41a4-a904-7ee78a919821","system_id":"levelo_inurba_marseille","lat":43.298433,"lon":5.362774,"is_reserved":false,"is_disabled":false,"rental_uris":{"android":"levelo://app?vid=1299f5ef-7e4a-41a4-a904-7ee78a919821","ios":"levelo://app?vid=1299f5ef-7e4a-41a4-a904-7ee78a919821"},"vehicle_type_id":"4","last_reported":1683367549,"current_range_meters":31600,"station_id":"ce4bgpp2rcd13ifvqc3g","pricing_plan_id":"free"},{"bike_id":"d2a8e75f-82ce-4c2d-b0d0-26a1181f7ad3","system_id":"levelo_inurba_marseille","lat":43.298433,"lon":5.362774,"is_reserved":false,"is_disabled":false,"rental_uris":{"android":"levelo://app?vid=d2a8e75f-82ce-4c2d-b0d0-26a1181f7ad3","ios":"levelo://app?vid=d2a8e75f-82ce-4c2d-b0d0-26a1181f7ad3"},"vehicle_type_id":"4","last_reported":1683367549,"current_range_meters":18400,"station_id":"ce4bgpp2rcd13ifvqc3g","pricing_plan_id":"free"},{"bike_id":"fe78af74-e983-4de1-84ac-4c55bf99a9fd","system_id":"levelo_inurba_marseille","lat":43.298433,"lon":5.362774,"is_reserved":false,"is_disabled":false,"rental_uris":{"android":"levelo://app?vid=fe78af74-e983-4de1-84ac-4c55bf99a9fd","ios":"levelo://app?vid=fe78af74-e983-4de1-84ac-4c55bf99a9fd"},"vehicle_type_id":"4","last_reported":1683367549,"current_range_meters":16000,"station_id":"ce4bgpp2rcd13ifvqc3g","pricing_plan_id":"free"},{"bike_id":"6fea13f0-6f7e-4892-a342-c7e6c334c271","system_id":"levelo_inurba_marseille","lat":43.298433,"lon":5.362774,"is_reserved":false,"is_disabled":false,"rental_uris":{"android":"levelo://app?vid=6fea13f0-6f7e-4892-a342-c7e6c334c271","ios":"levelo://app?vid=6fea13f0-6f7e-4892-a342-c7e6c334c271"},"vehicle_type_id":"4","last_reported":1683367549,"current_range_meters":26400,"station_id":"ce4bgpp2rcd13ifvqc3g","pricing_plan_id":"free"},{"bike_id":"bca8e21c-8720-4a6a-b99d-2fa00d233a7b","system_id":"levelo_inurba_marseille","lat":43.298433,"lon":5.362774,"is_reserved":false,"is_disabled":false,"rental_uris":{"android":"levelo://app?vid=bca8e21c-8720-4a6a-b99d-2fa00d233a7b","ios":"levelo://app?vid=bca8e21c-8720-4a6a-b99d-2fa00d233a7b"},"vehicle_type_id":"4","last_reported":1683367549,"current_range_meters":19200,"station_id":"ce4bgpp2rcd13ifvqc3g","pricing_plan_id":"free"},{"bike_id":"f2a19f95-a1ba-43b1-be70-1f7f7623c7ad","system_id":"levelo_inurba_marseille","lat":43.298433,"lon":5.362774,"is_reserved":false,"is_disabled":false,"rental_uris":{"android":"levelo://app?vid=f2a19f95-a1ba-43b1-be70-1f7f7623c7ad","ios":"levelo://app?vid=f2a19f95-a1ba-43b1-be70-1f7f7623c7ad"},"vehicle_type_id":"4","last_reported":1683367549,"current_range_meters":30000,"station_id":"ce4bgpp2rcd13ifvqc3g","pricing_plan_id":"free"},{"bike_id":"3058bbf0-9cf7-4616-bf4d-06ae90bbe77a","system_id":"levelo_inurba_marseille","lat":43.298433,"lon":5.362774,"is_reserved":false,"is_disabled":false,"rental_uris":{"android":"levelo://app?vid=3058bbf0-9cf7-4616-bf4d-06ae90bbe77a","ios":"levelo://app?vid=3058bbf0-9cf7-4616-bf4d-06ae90bbe77a"},"vehicle_type_id":"4","last_reported":1683367549,"current_range_meters":25600,"station_id":"ce4bgpp2rcd13ifvqc3g","pricing_plan_id":"free"},{"bike_id":"554fec9f-8289-46e2-a5c0-d31af128dc71","system_id":"levelo_inurba_marseille","lat":43.298433,"lon":5.362774,"is_reserved":false,"is_disabled":false,"rental_uris":{"android":"levelo://app?vid=554fec9f-8289-46e2-a5c0-d31af128dc71","ios":"levelo://app?vid=554fec9f-8289-46e2-a5c0-d31af128dc71"},"vehicle_type_id":"4","last_reported":1683367549,"current_range_meters":30400,"station_id":"ce4bgpp2rcd13ifvqc3g","pricing_plan_id":"free"},{"bike_id":"cf477475-8c6e-446c-a1be-bab4a9898043","system_id":"levelo_inurba_marseille","lat":43.30544,"lon":5.38428,"is_reserved":false,"is_disabled":false,"rental_uris":{"android":"levelo://app?vid=cf477475-8c6e-446c-a1be-bab4a9898043","ios":"levelo://app?vid=cf477475-8c6e-446c-a1be-bab4a9898043"},"vehicle_type_id":"4","last_reported":1683367549,"current_range_meters":17200,"station_id":"ce4bgg92rcd13ifvqb30","pricing_plan_id":"free"},{"bike_id":"187b106e-d29e-4b97-b32d-f16350f067dc","system_id":"levelo_inurba_marseille","lat":43.30545,"lon":5.3843,"is_reserved":false,"is_disabled":false,"rental_uris":{"android":"levelo://app?vid=187b106e-d29e-4b97-b32d-f16350f067dc","ios":"levelo://app?vid=187b106e-d29e-4b97-b32d-f16350f067dc"},"vehicle_type_id":"4","last_reported":1683367549,"current_range_meters":28400,"station_id":"ce4bgg92rcd13ifvqb30","pricing_plan_id":"free"},{"bike_id":"cd4feed5-fbdd-406b-9827-9ff307431217","system_id":"levelo_inurba_marseille","lat":43.298433,"lon":5.362774,"is_reserved":false,"is_disabled":false,"rental_uris":{"android":"levelo://app?vid=cd4feed5-fbdd-406b-9827-9ff307431217","ios":"levelo://app?vid=cd4feed5-fbdd-406b-9827-9ff307431217"},"vehicle_type_id":"4","last_reported":1683367549,"current_range_meters":19200,"station_id":"ce4bgpp2rcd13ifvqc3g","pricing_plan_id":"free"},{"bike_id":"a83badee-abfa-48e9-b15c-3a4e9167183f","system_id":"levelo_inurba_marseille","lat":43.298433,"lon":5.362774,"is_reserved":false,"is_disabled":false,"rental_uris":{"android":"levelo://app?vid=a83badee-abfa-48e9-b15c-3a4e9167183f","ios":"levelo://app?vid=a83badee-abfa-48e9-b15c-3a4e9167183f"},"vehicle_type_id":"4","last_reported":1683367549,"current_range_meters":23200,"station_id":"ce4bgpp2rcd13ifvqc3g","pricing_plan_id":"free"},{"bike_id":"eeed87c7-c983-4115-96d0-f3c0a378a777","system_id":"levelo_inurba_marseille","lat":43.298433,"lon":5.362774,"is_reserved":false,"is_disabled":false,"rental_uris":{"android":"levelo://app?vid=eeed87c7-c983-4115-96d0-f3c0a378a777","ios":"levelo://app?vid=eeed87c7-c983-4115-96d0-f3c0a378a777"},"vehicle_type_id":"4","last_reported":1683367549,"current_range_meters":27200,"station_id":"ce4bgpp2rcd13ifvqc3g","pricing_plan_id":"free"},{"bike_id":"2ae6fe47-3775-450d-b615-f31c74a7f131","system_id":"levelo_inurba_marseille","lat":43.298433,"lon":5.362774,"is_reserved":false,"is_disabled":false,"rental_uris":{"android":"levelo://app?vid=2ae6fe47-3775-450d-b615-f31c74a7f131","ios":"levelo://app?vid=2ae6fe47-3775-450d-b615-f31c74a7f131"},"vehicle_type_id":"4","last_reported":1683367549,"current_range_meters":11200,"station_id":"ce4bgpp2rcd13ifvqc3g","pricing_plan_id":"free"},{"bike_id":"704c11bc-7d92-4634-a52d-bfd040945be3","system_id":"levelo_inurba_marseille","lat":43.299243,"lon":5.374807,"is_reserved":false,"is_disabled":false,"rental_uris":{"android":"levelo://app?vid=704c11bc-7d92-4634-a52d-bfd040945be3","ios":"levelo://app?vid=704c11bc-7d92-4634-a52d-bfd040945be3"},"vehicle_type_id":"4","last_reported":1683367549,"current_range_meters":20800,"station_id":"ce4bgjh2rcd13ifvqbg0","pricing_plan_id":"free"},{"bike_id":"05c4847d-c8a9-4166-b18b-0736833ba7fd","system_id":"levelo_inurba_marseille","lat":43.298433,"lon":5.362774,"is_reserved":false,"is_disabled":false,"rental_uris":{"android":"levelo://app?vid=05c4847d-c8a9-4166-b18b-0736833ba7fd","ios":"levelo://app?vid=05c4847d-c8a9-4166-b18b-0736833ba7fd"},"vehicle_type_id":"4","last_reported":1683367549,"current_range_meters":31200,"station_id":"ce4bgpp2rcd13ifvqc3g","pricing_plan_id":"free"},{"bike_id":"cbf7609a-68b2-4d5d-a9e2-0b2ba3d9f3dc","system_id":"levelo_inurba_marseille","lat":43.298433,"lon":5.362774,"is_reserved":false,"is_disabled":false,"rental_uris":{"android":"levelo://app?vid=cbf7609a-68b2-4d5d-a9e2-0b2ba3d9f3dc","ios":"levelo://app?vid=cbf7609a-68b2-4d5d-a9e2-0b2ba3d9f3dc"},"vehicle_type_id":"4","last_reported":1683367549,"current_range_meters":31200,"station_id":"ce4bgpp2rcd13ifvqc3g","pricing_plan_id":"free"},{"bike_id":"583fb971-9406-424e-b976-13c9597f8615","system_id":"levelo_inurba_marseille","lat":43.298433,"lon":5.362774,"is_reserved":false,"is_disabled":false,"rental_uris":{"android":"levelo://app?vid=583fb971-9406-424e-b976-13c9597f8615","ios":"levelo://app?vid=583fb971-9406-424e-b976-13c9597f8615"},"vehicle_type_id":"4","last_reported":1683367549,"current_range_meters":31600,"station_id":"ce4bgpp2rcd13ifvqc3g","pricing_plan_id":"free"},{"bike_id":"16c7caac-e8ad-4f88-a20e-76e939a557b4","system_id":"levelo_inurba_marseille","lat":43.311722,"lon":5.387247,"is_reserved":false,"is_disabled":false,"rental_uris":{"android":"levelo://app?vid=16c7caac-e8ad-4f88-a20e-76e939a557b4","ios":"levelo://app?vid=16c7caac-e8ad-4f88-a20e-76e939a557b4"},"vehicle_type_id":"4","last_reported":1683367549,"current_range_meters":3200,"station_id":"ce4bgv12rcd13ifvqcp0","pricing_plan_id":"free"},{"bike_id":"722769a0-f474-48a9-87df-4dd95bddcc6f","system_id":"levelo_inurba_marseille","lat":43.328203,"lon":5.366784,"is_reserved":false,"is_disabled":false,"rental_uris":{"android":"levelo://app?vid=722769a0-f474-48a9-87df-4dd95bddcc6f","ios":"levelo://app?vid=722769a0-f474-48a9-87df-4dd95bddcc6f"},"vehicle_type_id":"4","last_reported":1683367549,"current_range_meters":10800,"station_id":"ce4bhs92rcd13ifvqi0g","pricing_plan_id":"free"},{"bike_id":"d2903113-80de-4058-abb1-6902bbb726e1","system_id":"levelo_inurba_marseille","lat":43.32822,"lon":5.36676,"is_reserved":false,"is_disabled":false,"rental_uris":{"android":"levelo://app?vid=d2903113-80de-4058-abb1-6902bbb726e1","ios":"levelo://app?vid=d2903113-80de-4058-abb1-6902bbb726e1"},"vehicle_type_id":"4","last_reported":1683367549,"current_range_meters":25600,"station_id":"ce4bhs92rcd13ifvqi0g","pricing_plan_id":"free"},{"bike_id":"4a32a380-93df-4590-bb4f-b1b73de6b6f5","system_id":"levelo_inurba_marseille","lat":43.32827,"lon":5.36687,"is_reserved":false,"is_disabled":false,"rental_uris":{"android":"levelo://app?vid=4a32a380-93df-4590-bb4f-b1b73de6b6f5","ios":"levelo://app?vid=4a32a380-93df-4590-bb4f-b1b73de6b6f5"},"vehicle_type_id":"4","last_reported":1683367549,"current_range_meters":17600,"station_id":"ce4bhs92rcd13ifvqi0g","pricing_plan_id":"free"},{"bike_id":"2b50b170-0df6-406d-bea0-202c3e023fe5","system_id":"levelo_inurba_marseille","lat":43.3283,"lon":5.36688,"is_reserved":false,"is_disabled":false,"rental_uris":{"android":"levelo://app?vid=2b50b170-0df6-406d-bea0-202c3e023fe5","ios":"levelo://app?vid=2b50b170-0df6-406d-bea0-202c3e023fe5"},"vehicle_type_id":"4","last_reported":1683367549,"current_range_meters":17600,"station_id":"ce4bhs92rcd13ifvqi0g","pricing_plan_id":"free"},{"bike_id":"b6a93899-ac06-4e98-a44c-b2d37c0bd789","system_id":"levelo_inurba_marseille","lat":43.2968,"lon":5.37291,"is_reserved":false,"is_disabled":false,"rental_uris":{"android":"levelo://app?vid=b6a93899-ac06-4e98-a44c-b2d37c0bd789","ios":"levelo://app?vid=b6a93899-ac06-4e98-a44c-b2d37c0bd789"},"vehicle_type_id":"4","last_reported":1683367549,"current_range_meters":31200,"station_id":"ce4bgk12rcd13ifvqbj0","pricing_plan_id":"free"},{"bike_id":"aafcc005-5e38-4c52-a10d-6d0f89f0012b","system_id":"levelo_inurba_marseille","lat":43.302008,"lon":5.394694,"is_reserved":false,"is_disabled":false,"rental_uris":{"android":"levelo://app?vid=aafcc005-5e38-4c52-a10d-6d0f89f0012b","ios":"levelo://app?vid=aafcc005-5e38-4c52-a10d-6d0f89f0012b"},"vehicle_type_id":"4","last_reported":1683367549,"current_range_meters":5600,"station_id":"ce4bh0p2rcd13ifvqd70","pricing_plan_id":"free"},{"bike_id":"b7f0ceb2-0a0d-4b9c-ae16-e7d201542f16","system_id":"levelo_inurba_marseille","lat":43.296129,"lon":5.370777,"is_reserved":false,"is_disabled":false,"rental_uris":{"android":"levelo://app?vid=b7f0ceb2-0a0d-4b9c-ae16-e7d201542f16","ios":"levelo://app?vid=b7f0ceb2-0a0d-4b9c-ae16-e7d201542f16"},"vehicle_type_id":"4","last_reported":1683367549,"current_range_meters":24400,"station_id":"ce4bgnh2rcd13ifvqc0g","pricing_plan_id":"free"},{"bike_id":"5a7558b1-9c35-4332-b67a-e6ee1c87e13d","system_id":"levelo_inurba_marseille","lat":43.296131,"lon":5.370773,"is_reserved":false,"is_disabled":false,"rental_uris":{"android":"levelo://app?vid=5a7558b1-9c35-4332-b67a-e6ee1c87e13d","ios":"levelo://app?vid=5a7558b1-9c35-4332-b67a-e6ee1c87e13d"},"vehicle_type_id":"4","last_reported":1683367549,"current_range_meters":31200,"station_id":"ce4bgnh2rcd13ifvqc0g","pricing_plan_id":"free"},{"bike_id":"950ff5fc-3c4c-4cc3-9d28-19d4603e5b1f","system_id":"levelo_inurba_marseille","lat":43.296131,"lon":5.370791,"is_reserved":false,"is_disabled":false,"rental_uris":{"android":"levelo://app?vid=950ff5fc-3c4c-4cc3-9d28-19d4603e5b1f","ios":"levelo://app?vid=950ff5fc-3c4c-4cc3-9d28-19d4603e5b1f"},"vehicle_type_id":"4","last_reported":1683367549,"current_range_meters":28800,"station_id":"ce4bgnh2rcd13ifvqc0g","pricing_plan_id":"free"},{"bike_id":"db76acee-7fe7-40a3-a414-92194b83996d","system_id":"levelo_inurba_marseille","lat":43.296131,"lon":5.370773,"is_reserved":false,"is_disabled":false,"rental_uris":{"android":"levelo://app?vid=db76acee-7fe7-40a3-a414-92194b83996d","ios":"levelo://app?vid=db76acee-7fe7-40a3-a414-92194b83996d"},"vehicle_type_id":"4","last_reported":1683367549,"current_range_meters":2800,"station_id":"ce4bgnh2rcd13ifvqc0g","pricing_plan_id":"free"},{"bike_id":"fdba6b15-4fff-4a84-82d5-49441312dc42","system_id":"levelo_inurba_marseille","lat":43.29582,"lon":5.36741,"is_reserved":false,"is_disabled":false,"rental_uris":{"android":"levelo://app?vid=fdba6b15-4fff-4a84-82d5-49441312dc42","ios":"levelo://app?vid=fdba6b15-4fff-4a84-82d5-49441312dc42"},"vehicle_type_id":"4","last_reported":1683367549,"current_range_meters":23600,"station_id":"ce4bgph2rcd13ifvqc2g","pricing_plan_id":"free"},{"bike_id":"d6402537-54cf-4c48-b968-36e7961aa33c","system_id":"levelo_inurba_marseille","lat":43.29573,"lon":5.367355,"is_reserved":false,"is_disabled":false,"rental_uris":{"android":"levelo://app?vid=d6402537-54cf-4c48-b968-36e7961aa33c","ios":"levelo://app?vid=d6402537-54cf-4c48-b968-36e7961aa33c"},"vehicle_type_id":"4","last_reported":1683367549,"current_range_meters":21600,"station_id":"ce4bgph2rcd13ifvqc2g","pricing_plan_id":"free"},{"bike_id":"5f708886-c442-4ba5-a30f-d0412d359c36","system_id":"levelo_inurba_marseille","lat":43.2958,"lon":5.36733,"is_reserved":false,"is_disabled":false,"rental_uris":{"android":"levelo://app?vid=5f708886-c442-4ba5-a30f-d0412d359c36","ios":"levelo://app?vid=5f708886-c442-4ba5-a30f-d0412d359c36"},"vehicle_type_id":"4","last_reported":1683367549,"current_range_meters":31200,"station_id":"ce4bgph2rcd13ifvqc2g","pricing_plan_id":"free"},{"bike_id":"29ba1175-4a78-4b35-b1ff-ea70ef7bc2d5","system_id":"levelo_inurba_marseille","lat":43.29573,"lon":5.367355,"is_reserved":false,"is_disabled":false,"rental_uris":{"android":"levelo://app?vid=29ba1175-4a78-4b35-b1ff-ea70ef7bc2d5","ios":"levelo://app?vid=29ba1175-4a78-4b35-b1ff-ea70ef7bc2d5"},"vehicle_type_id":"4","last_reported":1683367549,"current_range_meters":29600,"station_id":"ce4bgph2rcd13ifvqc2g","pricing_plan_id":"free"},{"bike_id":"8eceffc6-1411-4c22-96d4-b49b60e4dc19","system_id":"levelo_inurba_marseille","lat":43.29573,"lon":5.367355,"is_reserved":false,"is_disabled":false,"rental_uris":{"android":"levelo://app?vid=8eceffc6-1411-4c22-96d4-b49b60e4dc19","ios":"levelo://app?vid=8eceffc6-1411-4c22-96d4-b49b60e4dc19"},"vehicle_type_id":"4","last_reported":1683367549,"current_range_meters":27200,"station_id":"ce4bgph2rcd13ifvqc2g","pricing_plan_id":"free"},{"bike_id":"c459207e-8c5a-4f5e-9e14-12c2b77a31ea","system_id":"levelo_inurba_marseille","lat":43.29573,"lon":5.367355,"is_reserved":false,"is_disabled":false,"rental_uris":{"android":"levelo://app?vid=c459207e-8c5a-4f5e-9e14-12c2b77a31ea","ios":"levelo://app?vid=c459207e-8c5a-4f5e-9e14-12c2b77a31ea"},"vehicle_type_id":"4","last_reported":1683367549,"current_range_meters":30000,"station_id":"ce4bgph2rcd13ifvqc2g","pricing_plan_id":"free"},{"bike_id":"f5ab8c44-3459-46c9-9ef7-c56ec337ffbc","system_id":"levelo_inurba_marseille","lat":43.29576,"lon":5.36735,"is_reserved":false,"is_disabled":false,"rental_uris":{"android":"levelo://app?vid=f5ab8c44-3459-46c9-9ef7-c56ec337ffbc","ios":"levelo://app?vid=f5ab8c44-3459-46c9-9ef7-c56ec337ffbc"},"vehicle_type_id":"4","last_reported":1683367549,"current_range_meters":12800,"station_id":"ce4bgph2rcd13ifvqc2g","pricing_plan_id":"free"},{"bike_id":"0ca1e1fe-4433-4ea2-bd6f-e9b87e208147","system_id":"levelo_inurba_marseille","lat":43.296921,"lon":5.376579,"is_reserved":false,"is_disabled":false,"rental_uris":{"android":"levelo://app?vid=0ca1e1fe-4433-4ea2-bd6f-e9b87e208147","ios":"levelo://app?vid=0ca1e1fe-4433-4ea2-bd6f-e9b87e208147"},"vehicle_type_id":"4","last_reported":1683367549,"current_range_meters":30800,"station_id":"ce4bgkh2rcd13ifvqbl0","pricing_plan_id":"free"},{"bike_id":"514b46d2-03e7-4895-9ee1-c8d21f4822e3","system_id":"levelo_inurba_marseille","lat":43.296921,"lon":5.376579,"is_reserved":false,"is_disabled":false,"rental_uris":{"android":"levelo://app?vid=514b46d2-03e7-4895-9ee1-c8d21f4822e3","ios":"levelo://app?vid=514b46d2-03e7-4895-9ee1-c8d21f4822e3"},"vehicle_type_id":"4","last_reported":1683367549,"current_range_meters":25200,"station_id":"ce4bgkh2rcd13ifvqbl0","pricing_plan_id":"free"},{"bike_id":"a4ed4416-8dc1-40dd-847b-4948ccdf79c8","system_id":"levelo_inurba_marseille","lat":43.2972,"lon":5.37697,"is_reserved":false,"is_disabled":false,"rental_uris":{"android":"levelo://app?vid=a4ed4416-8dc1-40dd-847b-4948ccdf79c8","ios":"levelo://app?vid=a4ed4416-8dc1-40dd-847b-4948ccdf79c8"},"vehicle_type_id":"4","last_reported":1683367549,"current_range_meters":20400,"station_id":"","pricing_plan_id":"free"},{"bike_id":"60f3c536-fdda-4af8-8ecc-988d6d65cf82","system_id":"levelo_inurba_marseille","lat":43.30949,"lon":5.39023,"is_reserved":false,"is_disabled":false,"rental_uris":{"android":"levelo://app?vid=60f3c536-fdda-4af8-8ecc-988d6d65cf82","ios":"levelo://app?vid=60f3c536-fdda-4af8-8ecc-988d6d65cf82"},"vehicle_type_id":"4","last_reported":1683367549,"current_range_meters":5600,"station_id":"ce4bgup2rcd13ifvqco0","pricing_plan_id":"free"},{"bike_id":"8307ab27-4056-41da-b3a0-1b0dcac25df8","system_id":"levelo_inurba_marseille","lat":43.299028,"lon":5.381509,"is_reserved":false,"is_disabled":false,"rental_uris":{"android":"levelo://app?vid=8307ab27-4056-41da-b3a0-1b0dcac25df8","ios":"levelo://app?vid=8307ab27-4056-41da-b3a0-1b0dcac25df8"},"vehicle_type_id":"4","last_reported":1683367549,"current_range_meters":22400,"station_id":"ce4bgj12rcd13ifvqbc0","pricing_plan_id":"free"},{"bike_id":"ffcd758f-57e4-48bf-84eb-5f25c032ee4e","system_id":"levelo_inurba_marseille","lat":43.30949,"lon":5.39032,"is_reserved":false,"is_disabled":false,"rental_uris":{"android":"levelo://app?vid=ffcd758f-57e4-48bf-84eb-5f25c032ee4e","ios":"levelo://app?vid=ffcd758f-57e4-48bf-84eb-5f25c032ee4e"},"vehicle_type_id":"4","last_reported":1683367549,"current_range_meters":24800,"station_id":"ce4bgup2rcd13ifvqco0","pricing_plan_id":"free"},{"bike_id":"ff9a7633-3f3b-450f-b1b5-83bd878e5654","system_id":"levelo_inurba_marseille","lat":43.3095,"lon":5.39034,"is_reserved":false,"is_disabled":false,"rental_uris":{"android":"levelo://app?vid=ff9a7633-3f3b-450f-b1b5-83bd878e5654","ios":"levelo://app?vid=ff9a7633-3f3b-450f-b1b5-83bd878e5654"},"vehicle_type_id":"4","last_reported":1683367549,"current_range_meters":15600,"station_id":"ce4bgup2rcd13ifvqco0","pricing_plan_id":"free"},{"bike_id":"21707c42-162a-43bf-8364-b48b1e4a934f","system_id":"levelo_inurba_marseille","lat":43.30953,"lon":5.39035,"is_reserved":false,"is_disabled":false,"rental_uris":{"android":"levelo://app?vid=21707c42-162a-43bf-8364-b48b1e4a934f","ios":"levelo://app?vid=21707c42-162a-43bf-8364-b48b1e4a934f"},"vehicle_type_id":"4","last_reported":1683367549,"current_range_meters":12000,"station_id":"ce4bgup2rcd13ifvqco0","pricing_plan_id":"free"},{"bike_id":"d14a97f6-1953-42d1-a10d-e62684624728","system_id":"levelo_inurba_marseille","lat":43.30959,"lon":5.39038,"is_reserved":false,"is_disabled":false,"rental_uris":{"android":"levelo://app?vid=d14a97f6-1953-42d1-a10d-e62684624728","ios":"levelo://app?vid=d14a97f6-1953-42d1-a10d-e62684624728"},"vehicle_type_id":"4","last_reported":1683367549,"current_range_meters":22400,"station_id":"ce4bgup2rcd13ifvqco0","pricing_plan_id":"free"},{"bike_id":"d8759e64-60bb-4f19-a49a-00c91bc04f7f","system_id":"levelo_inurba_marseille","lat":43.30952,"lon":5.39039,"is_reserved":false,"is_disabled":false,"rental_uris":{"android":"levelo://app?vid=d8759e64-60bb-4f19-a49a-00c91bc04f7f","ios":"levelo://app?vid=d8759e64-60bb-4f19-a49a-00c91bc04f7f"},"vehicle_type_id":"4","last_reported":1683367549,"current_range_meters":19200,"station_id":"ce4bgup2rcd13ifvqco0","pricing_plan_id":"free"},{"bike_id":"a25e1565-2565-4122-8cd8-405b701857b6","system_id":"levelo_inurba_marseille","lat":43.30958,"lon":5.39041,"is_reserved":false,"is_disabled":false,"rental_uris":{"android":"levelo://app?vid=a25e1565-2565-4122-8cd8-405b701857b6","ios":"levelo://app?vid=a25e1565-2565-4122-8cd8-405b701857b6"},"vehicle_type_id":"4","last_reported":1683367549,"current_range_meters":24000,"station_id":"ce4bgup2rcd13ifvqco0","pricing_plan_id":"free"},{"bike_id":"daacdfcd-9bfe-4cb6-80a5-9eb36c3d928a","system_id":"levelo_inurba_marseille","lat":43.30951,"lon":5.3904,"is_reserved":false,"is_disabled":false,"rental_uris":{"android":"levelo://app?vid=daacdfcd-9bfe-4cb6-80a5-9eb36c3d928a","ios":"levelo://app?vid=daacdfcd-9bfe-4cb6-80a5-9eb36c3d928a"},"vehicle_type_id":"4","last_reported":1683367549,"current_range_meters":0,"station_id":"ce4bgup2rcd13ifvqco0","pricing_plan_id":"free"},{"bike_id":"ec34f3a9-d482-4e5a-94e2-33bdbc23232d","system_id":"levelo_inurba_marseille","lat":43.30955,"lon":5.39042,"is_reserved":false,"is_disabled":false,"rental_uris":{"android":"levelo://app?vid=ec34f3a9-d482-4e5a-94e2-33bdbc23232d","ios":"levelo://app?vid=ec34f3a9-d482-4e5a-94e2-33bdbc23232d"},"vehicle_type_id":"4","last_reported":1683367549,"current_range_meters":20000,"station_id":"ce4bgup2rcd13ifvqco0","pricing_plan_id":"free"},{"bike_id":"3862bdd8-9f9c-4330-8c62-23e93a2b9cce","system_id":"levelo_inurba_marseille","lat":43.30951,"lon":5.39041,"is_reserved":false,"is_disabled":false,"rental_uris":{"android":"levelo://app?vid=3862bdd8-9f9c-4330-8c62-23e93a2b9cce","ios":"levelo://app?vid=3862bdd8-9f9c-4330-8c62-23e93a2b9cce"},"vehicle_type_id":"4","last_reported":1683367549,"current_range_meters":19600,"station_id":"ce4bgup2rcd13ifvqco0","pricing_plan_id":"free"},{"bike_id":"181d4228-f9b0-415e-89b9-8bd116ebda7b","system_id":"levelo_inurba_marseille","lat":43.30961,"lon":5.39046,"is_reserved":false,"is_disabled":false,"rental_uris":{"android":"levelo://app?vid=181d4228-f9b0-415e-89b9-8bd116ebda7b","ios":"levelo://app?vid=181d4228-f9b0-415e-89b9-8bd116ebda7b"},"vehicle_type_id":"4","last_reported":1683367549,"current_range_meters":22400,"station_id":"ce4bgup2rcd13ifvqco0","pricing_plan_id":"free"},{"bike_id":"3073c58d-283d-4f21-b428-f82f337b6de6","system_id":"levelo_inurba_marseille","lat":43.30952,"lon":5.39045,"is_reserved":false,"is_disabled":false,"rental_uris":{"android":"levelo://app?vid=3073c58d-283d-4f21-b428-f82f337b6de6","ios":"levelo://app?vid=3073c58d-283d-4f21-b428-f82f337b6de6"},"vehicle_type_id":"4","last_reported":1683367549,"current_range_meters":11200,"station_id":"ce4bgup2rcd13ifvqco0","pricing_plan_id":"free"},{"bike_id":"d3bded05-295a-4e27-816d-28fd9af6ceed","system_id":"levelo_inurba_marseille","lat":43.317557,"lon":5.390173,"is_reserved":false,"is_disabled":false,"rental_uris":{"android":"levelo://app?vid=d3bded05-295a-4e27-816d-28fd9af6ceed","ios":"levelo://app?vid=d3bded05-295a-4e27-816d-28fd9af6ceed"},"vehicle_type_id":"4","last_reported":1683367549,"current_range_meters":26800,"station_id":"ce4bhqp2rcd13ifvqhng","pricing_plan_id":"free"},{"bike_id":"c8376053-40d6-4e25-8659-f524839f5c25","system_id":"levelo_inurba_marseille","lat":43.317557,"lon":5.390173,"is_reserved":false,"is_disabled":false,"rental_uris":{"android":"levelo://app?vid=c8376053-40d6-4e25-8659-f524839f5c25","ios":"levelo://app?vid=c8376053-40d6-4e25-8659-f524839f5c25"},"vehicle_type_id":"4","last_reported":1683367549,"current_range_meters":18400,"station_id":"ce4bhqp2rcd13ifvqhng","pricing_plan_id":"free"},{"bike_id":"60ef946b-9459-4a60-b71e-9a93871770e0","system_id":"levelo_inurba_marseille","lat":43.31756,"lon":5.39019,"is_reserved":false,"is_disabled":false,"rental_uris":{"android":"levelo://app?vid=60ef946b-9459-4a60-b71e-9a93871770e0","ios":"levelo://app?vid=60ef946b-9459-4a60-b71e-9a93871770e0"},"vehicle_type_id":"4","last_reported":1683367549,"current_range_meters":28400,"station_id":"ce4bhqp2rcd13ifvqhng","pricing_plan_id":"free"},{"bike_id":"c89981fa-4c38-4b48-95fc-91ebee8257ab","system_id":"levelo_inurba_marseille","lat":43.30436,"lon":5.38884,"is_reserved":false,"is_disabled":false,"rental_uris":{"android":"levelo://app?vid=c89981fa-4c38-4b48-95fc-91ebee8257ab","ios":"levelo://app?vid=c89981fa-4c38-4b48-95fc-91ebee8257ab"},"vehicle_type_id":"4","last_reported":1683367549,"current_range_meters":28400,"station_id":"ce4bgk12rcd13ifvqbi0","pricing_plan_id":"free"},{"bike_id":"6f7dc8e7-d401-427e-8be6-539097f9c81a","system_id":"levelo_inurba_marseille","lat":43.304274,"lon":5.388873,"is_reserved":false,"is_disabled":false,"rental_uris":{"android":"levelo://app?vid=6f7dc8e7-d401-427e-8be6-539097f9c81a","ios":"levelo://app?vid=6f7dc8e7-d401-427e-8be6-539097f9c81a"},"vehicle_type_id":"4","last_reported":1683367549,"current_range_meters":18000,"station_id":"ce4bgk12rcd13ifvqbi0","pricing_plan_id":"free"},{"bike_id":"868c1e90-375e-4f02-bd07-6e182dfb0af6","system_id":"levelo_inurba_marseille","lat":43.29573,"lon":5.37514,"is_reserved":false,"is_disabled":false,"rental_uris":{"android":"levelo://app?vid=868c1e90-375e-4f02-bd07-6e182dfb0af6","ios":"levelo://app?vid=868c1e90-375e-4f02-bd07-6e182dfb0af6"},"vehicle_type_id":"4","last_reported":1683367549,"current_range_meters":31200,"station_id":"ce4bgh92rcd13ifvqb50","pricing_plan_id":"free"},{"bike_id":"3607f3e9-f470-415f-ae7e-56a51d36a4ea","system_id":"levelo_inurba_marseille","lat":43.295748,"lon":5.37522,"is_reserved":false,"is_disabled":false,"rental_uris":{"android":"levelo://app?vid=3607f3e9-f470-415f-ae7e-56a51d36a4ea","ios":"levelo://app?vid=3607f3e9-f470-415f-ae7e-56a51d36a4ea"},"vehicle_type_id":"4","last_reported":1683367549,"current_range_meters":800,"station_id":"ce4bgh92rcd13ifvqb50","pricing_plan_id":"free"},{"bike_id":"07463b46-c47f-489c-9c27-a6fb2c473c78","system_id":"levelo_inurba_marseille","lat":43.31475,"lon":5.39158,"is_reserved":false,"is_disabled":false,"rental_uris":{"android":"levelo://app?vid=07463b46-c47f-489c-9c27-a6fb2c473c78","ios":"levelo://app?vid=07463b46-c47f-489c-9c27-a6fb2c473c78"},"vehicle_type_id":"4","last_reported":1683367549,"current_range_meters":1200,"station_id":"","pricing_plan_id":"free"},{"bike_id":"71cb7265-ca0a-4db5-9536-4a62edc7e16d","system_id":"levelo_inurba_marseille","lat":43.2957,"lon":5.37511,"is_reserved":false,"is_disabled":false,"rental_uris":{"android":"levelo://app?vid=71cb7265-ca0a-4db5-9536-4a62edc7e16d","ios":"levelo://app?vid=71cb7265-ca0a-4db5-9536-4a62edc7e16d"},"vehicle_type_id":"4","last_reported":1683367549,"current_range_meters":15600,"station_id":"ce4bgh92rcd13ifvqb50","pricing_plan_id":"free"},{"bike_id":"a06ba3e9-4270-440a-a12a-108833fc3d21","system_id":"levelo_inurba_marseille","lat":43.2957,"lon":5.37513,"is_reserved":false,"is_disabled":false,"rental_uris":{"android":"levelo://app?vid=a06ba3e9-4270-440a-a12a-108833fc3d21","ios":"levelo://app?vid=a06ba3e9-4270-440a-a12a-108833fc3d21"},"vehicle_type_id":"4","last_reported":1683367549,"current_range_meters":29600,"station_id":"ce4bgh92rcd13ifvqb50","pricing_plan_id":"free"},{"bike_id":"0f6d2b3b-2e14-4ed3-865d-e8c088a610cd","system_id":"levelo_inurba_marseille","lat":43.29571,"lon":5.37517,"is_reserved":false,"is_disabled":false,"rental_uris":{"android":"levelo://app?vid=0f6d2b3b-2e14-4ed3-865d-e8c088a610cd","ios":"levelo://app?vid=0f6d2b3b-2e14-4ed3-865d-e8c088a610cd"},"vehicle_type_id":"4","last_reported":1683367549,"current_range_meters":25600,"station_id":"ce4bgh92rcd13ifvqb50","pricing_plan_id":"free"},{"bike_id":"a570e4bb-0ddd-4019-a2c3-51269462c079","system_id":"levelo_inurba_marseille","lat":43.23177,"lon":5.39987,"is_reserved":false,"is_disabled":false,"rental_uris":{"android":"levelo://app?vid=a570e4bb-0ddd-4019-a2c3-51269462c079","ios":"levelo://app?vid=a570e4bb-0ddd-4019-a2c3-51269462c079"},"vehicle_type_id":"4","last_reported":1683367549,"current_range_meters":20000,"station_id":"ce4bhn12rcd13ifvqgqg","pricing_plan_id":"free"},{"bike_id":"9be307b7-e507-47fd-8b58-6238304de056","system_id":"levelo_inurba_marseille","lat":43.29567,"lon":5.37513,"is_reserved":false,"is_disabled":false,"rental_uris":{"android":"levelo://app?vid=9be307b7-e507-47fd-8b58-6238304de056","ios":"levelo://app?vid=9be307b7-e507-47fd-8b58-6238304de056"},"vehicle_type_id":"4","last_reported":1683367549,"current_range_meters":23600,"station_id":"ce4bgh92rcd13ifvqb50","pricing_plan_id":"free"},{"bike_id":"354425d8-3ea7-410d-adc2-685a5c598945","system_id":"levelo_inurba_marseille","lat":43.29568,"lon":5.37523,"is_reserved":false,"is_disabled":false,"rental_uris":{"android":"levelo://app?vid=354425d8-3ea7-410d-adc2-685a5c598945","ios":"levelo://app?vid=354425d8-3ea7-410d-adc2-685a5c598945"},"vehicle_type_id":"4","last_reported":1683367549,"current_range_meters":27200,"station_id":"ce4bgh92rcd13ifvqb50","pricing_plan_id":"free"},{"bike_id":"2df87b42-4c21-4230-a8f4-24eb26d298ae","system_id":"levelo_inurba_marseille","lat":43.295748,"lon":5.37522,"is_reserved":false,"is_disabled":false,"rental_uris":{"android":"levelo://app?vid=2df87b42-4c21-4230-a8f4-24eb26d298ae","ios":"levelo://app?vid=2df87b42-4c21-4230-a8f4-24eb26d298ae"},"vehicle_type_id":"4","last_reported":1683367549,"current_range_meters":18800,"station_id":"ce4bgh92rcd13ifvqb50","pricing_plan_id":"free"},{"bike_id":"89bb3774-ac8a-40a0-b7e1-7f825f67c46e","system_id":"levelo_inurba_marseille","lat":43.295748,"lon":5.37522,"is_reserved":false,"is_disabled":false,"rental_uris":{"android":"levelo://app?vid=89bb3774-ac8a-40a0-b7e1-7f825f67c46e","ios":"levelo://app?vid=89bb3774-ac8a-40a0-b7e1-7f825f67c46e"},"vehicle_type_id":"4","last_reported":1683367549,"current_range_meters":31200,"station_id":"ce4bgh92rcd13ifvqb50","pricing_plan_id":"free"},{"bike_id":"cd3380d3-0220-4981-92e2-748458e5c885","system_id":"levelo_inurba_marseille","lat":43.296263,"lon":5.377094,"is_reserved":false,"is_disabled":false,"rental_uris":{"android":"levelo://app?vid=cd3380d3-0220-4981-92e2-748458e5c885","ios":"levelo://app?vid=cd3380d3-0220-4981-92e2-748458e5c885"},"vehicle_type_id":"4","last_reported":1683367549,"current_range_meters":26000,"station_id":"ce4bgi92rcd13ifvqb90","pricing_plan_id":"free"},{"bike_id":"c24c7400-bce8-49a0-82fa-0af8a30d6a1c","system_id":"levelo_inurba_marseille","lat":43.295279,"lon":5.375048,"is_reserved":false,"is_disabled":false,"rental_uris":{"android":"levelo://app?vid=c24c7400-bce8-49a0-82fa-0af8a30d6a1c","ios":"levelo://app?vid=c24c7400-bce8-49a0-82fa-0af8a30d6a1c"},"vehicle_type_id":"4","last_reported":1683367549,"current_range_meters":27600,"station_id":"ce4bgkp2rcd13ifvqbmg","pricing_plan_id":"free"},{"bike_id":"a6515608-339a-429b-85c6-f57ec41a9ff0","system_id":"levelo_inurba_marseille","lat":43.299717,"lon":5.384845,"is_reserved":false,"is_disabled":false,"rental_uris":{"android":"levelo://app?vid=a6515608-339a-429b-85c6-f57ec41a9ff0","ios":"levelo://app?vid=a6515608-339a-429b-85c6-f57ec41a9ff0"},"vehicle_type_id":"4","last_reported":1683367549,"current_range_meters":24800,"station_id":"ce4bgj92rcd13ifvqbd0","pricing_plan_id":"free"},{"bike_id":"41f38b03-f3da-4d47-b9e1-f3223d3b41e2","system_id":"levelo_inurba_marseille","lat":43.299717,"lon":5.384845,"is_reserved":false,"is_disabled":false,"rental_uris":{"android":"levelo://app?vid=41f38b03-f3da-4d47-b9e1-f3223d3b41e2","ios":"levelo://app?vid=41f38b03-f3da-4d47-b9e1-f3223d3b41e2"},"vehicle_type_id":"4","last_reported":1683367549,"current_range_meters":26000,"station_id":"ce4bgj92rcd13ifvqbd0","pricing_plan_id":"free"},{"bike_id":"66d4798a-9841-4194-88ee-2b4bef636118","system_id":"levelo_inurba_marseille","lat":43.299717,"lon":5.384845,"is_reserved":false,"is_disabled":false,"rental_uris":{"android":"levelo://app?vid=66d4798a-9841-4194-88ee-2b4bef636118","ios":"levelo://app?vid=66d4798a-9841-4194-88ee-2b4bef636118"},"vehicle_type_id":"4","last_reported":1683367549,"current_range_meters":800,"station_id":"ce4bgj92rcd13ifvqbd0","pricing_plan_id":"free"},{"bike_id":"e2a447a6-45da-48f8-9252-79d3ce6d7585","system_id":"levelo_inurba_marseille","lat":43.299724,"lon":5.384848,"is_reserved":false,"is_disabled":false,"rental_uris":{"android":"levelo://app?vid=e2a447a6-45da-48f8-9252-79d3ce6d7585","ios":"levelo://app?vid=e2a447a6-45da-48f8-9252-79d3ce6d7585"},"vehicle_type_id":"4","last_reported":1683367549,"current_range_meters":14800,"station_id":"ce4bgj92rcd13ifvqbd0","pricing_plan_id":"free"},{"bike_id":"13f256dd-8c6b-4410-a713-f83f56cd13cf","system_id":"levelo_inurba_marseille","lat":43.295279,"lon":5.375048,"is_reserved":false,"is_disabled":false,"rental_uris":{"android":"levelo://app?vid=13f256dd-8c6b-4410-a713-f83f56cd13cf","ios":"levelo://app?vid=13f256dd-8c6b-4410-a713-f83f56cd13cf"},"vehicle_type_id":"4","last_reported":1683367549,"current_range_meters":8000,"station_id":"ce4bgkp2rcd13ifvqbmg","pricing_plan_id":"free"},{"bike_id":"1dd06c98-c200-4a3d-afc9-e5fd057d158b","system_id":"levelo_inurba_marseille","lat":43.30457,"lon":5.39044,"is_reserved":false,"is_disabled":false,"rental_uris":{"android":"levelo://app?vid=1dd06c98-c200-4a3d-afc9-e5fd057d158b","ios":"levelo://app?vid=1dd06c98-c200-4a3d-afc9-e5fd057d158b"},"vehicle_type_id":"4","last_reported":1683367549,"current_range_meters":14400,"station_id":"","pricing_plan_id":"free"},{"bike_id":"165d458e-9adf-4946-a687-870cd44a2a37","system_id":"levelo_inurba_marseille","lat":43.2962,"lon":5.38121,"is_reserved":false,"is_disabled":false,"rental_uris":{"android":"levelo://app?vid=165d458e-9adf-4946-a687-870cd44a2a37","ios":"levelo://app?vid=165d458e-9adf-4946-a687-870cd44a2a37"},"vehicle_type_id":"4","last_reported":1683367549,"current_range_meters":27200,"station_id":"ce4bgl12rcd13ifvqbo0","pricing_plan_id":"free"},{"bike_id":"a2022c01-befb-4dc3-955b-49e100db30df","system_id":"levelo_inurba_marseille","lat":43.293249,"lon":5.371578,"is_reserved":false,"is_disabled":false,"rental_uris":{"android":"levelo://app?vid=a2022c01-befb-4dc3-955b-49e100db30df","ios":"levelo://app?vid=a2022c01-befb-4dc3-955b-49e100db30df"},"vehicle_type_id":"4","last_reported":1683367549,"current_range_meters":31200,"station_id":"ce4bgh92rcd13ifvqb40","pricing_plan_id":"free"},{"bike_id":"9019302c-75df-4777-8b24-377572a269b7","system_id":"levelo_inurba_marseille","lat":43.292749,"lon":5.368402,"is_reserved":false,"is_disabled":false,"rental_uris":{"android":"levelo://app?vid=9019302c-75df-4777-8b24-377572a269b7","ios":"levelo://app?vid=9019302c-75df-4777-8b24-377572a269b7"},"vehicle_type_id":"4","last_reported":1683367549,"current_range_meters":26800,"station_id":"ce4bhbp2rcd13ifvqesg","pricing_plan_id":"free"},{"bike_id":"4d49d598-ea0c-4b46-b038-876eb8fb5825","system_id":"levelo_inurba_marseille","lat":43.29276,"lon":5.36846,"is_reserved":false,"is_disabled":false,"rental_uris":{"android":"levelo://app?vid=4d49d598-ea0c-4b46-b038-876eb8fb5825","ios":"levelo://app?vid=4d49d598-ea0c-4b46-b038-876eb8fb5825"},"vehicle_type_id":"4","last_reported":1683367549,"current_range_meters":31200,"station_id":"ce4bhbp2rcd13ifvqesg","pricing_plan_id":"free"},{"bike_id":"ea22974b-6c3b-4102-962e-8cc28d269c72","system_id":"levelo_inurba_marseille","lat":43.292749,"lon":5.368402,"is_reserved":false,"is_disabled":false,"rental_uris":{"android":"levelo://app?vid=ea22974b-6c3b-4102-962e-8cc28d269c72","ios":"levelo://app?vid=ea22974b-6c3b-4102-962e-8cc28d269c72"},"vehicle_type_id":"4","last_reported":1683367549,"current_range_meters":30800,"station_id":"ce4bhbp2rcd13ifvqesg","pricing_plan_id":"free"},{"bike_id":"fe199b36-3412-4e08-9712-afffdc784b12","system_id":"levelo_inurba_marseille","lat":43.292749,"lon":5.368402,"is_reserved":false,"is_disabled":false,"rental_uris":{"android":"levelo://app?vid=fe199b36-3412-4e08-9712-afffdc784b12","ios":"levelo://app?vid=fe199b36-3412-4e08-9712-afffdc784b12"},"vehicle_type_id":"4","last_reported":1683367549,"current_range_meters":25600,"station_id":"ce4bhbp2rcd13ifvqesg","pricing_plan_id":"free"},{"bike_id":"33e85f0a-a080-42a4-a48b-b667ac78af8e","system_id":"levelo_inurba_marseille","lat":43.293009,"lon":5.374584,"is_reserved":false,"is_disabled":false,"rental_uris":{"android":"levelo://app?vid=33e85f0a-a080-42a4-a48b-b667ac78af8e","ios":"levelo://app?vid=33e85f0a-a080-42a4-a48b-b667ac78af8e"},"vehicle_type_id":"4","last_reported":1683367549,"current_range_meters":19200,"station_id":"ce4bgi12rcd13ifvqb70","pricing_plan_id":"free"},{"bike_id":"93fc113e-f7b7-4e92-8943-17417a503366","system_id":"levelo_inurba_marseille","lat":43.2924,"lon":5.36199,"is_reserved":false,"is_disabled":false,"rental_uris":{"android":"levelo://app?vid=93fc113e-f7b7-4e92-8943-17417a503366","ios":"levelo://app?vid=93fc113e-f7b7-4e92-8943-17417a503366"},"vehicle_type_id":"4","last_reported":1683367549,"current_range_meters":13200,"station_id":"","pricing_plan_id":"free"},{"bike_id":"5c958777-d217-4f4b-b535-587ca2108bb9","system_id":"levelo_inurba_marseille","lat":43.303002,"lon":5.392142,"is_reserved":false,"is_disabled":false,"rental_uris":{"android":"levelo://app?vid=5c958777-d217-4f4b-b535-587ca2108bb9","ios":"levelo://app?vid=5c958777-d217-4f4b-b535-587ca2108bb9"},"vehicle_type_id":"4","last_reported":1683367549,"current_range_meters":29600,"station_id":"ce4bgkh2rcd13ifvqbk0","pricing_plan_id":"free"},{"bike_id":"eaf1d82b-4f3e-41ea-8bed-b517e4d4166b","system_id":"levelo_inurba_marseille","lat":43.302992,"lon":5.392136,"is_reserved":false,"is_disabled":false,"rental_uris":{"android":"levelo://app?vid=eaf1d82b-4f3e-41ea-8bed-b517e4d4166b","ios":"levelo://app?vid=eaf1d82b-4f3e-41ea-8bed-b517e4d4166b"},"vehicle_type_id":"4","last_reported":1683367549,"current_range_meters":400,"station_id":"ce4bgkh2rcd13ifvqbk0","pricing_plan_id":"free"},{"bike_id":"d4141eca-ac57-48e5-b20f-03bf3f79dbde","system_id":"levelo_inurba_marseille","lat":43.30304,"lon":5.39215,"is_reserved":false,"is_disabled":false,"rental_uris":{"android":"levelo://app?vid=d4141eca-ac57-48e5-b20f-03bf3f79dbde","ios":"levelo://app?vid=d4141eca-ac57-48e5-b20f-03bf3f79dbde"},"vehicle_type_id":"4","last_reported":1683367549,"current_range_meters":27600,"station_id":"","pricing_plan_id":"free"},{"bike_id":"f4568ae6-7f7f-47e6-9c94-d9caf7feed7f","system_id":"levelo_inurba_marseille","lat":43.2936,"lon":5.37835,"is_reserved":false,"is_disabled":false,"rental_uris":{"android":"levelo://app?vid=f4568ae6-7f7f-47e6-9c94-d9caf7feed7f","ios":"levelo://app?vid=f4568ae6-7f7f-47e6-9c94-d9caf7feed7f"},"vehicle_type_id":"4","last_reported":1683367549,"current_range_meters":16400,"station_id":"ce4bgjh2rcd13ifvqbf0","pricing_plan_id":"free"},{"bike_id":"97328254-804a-4f71-9d55-21f296b497ad","system_id":"levelo_inurba_marseille","lat":43.2936,"lon":5.37835,"is_reserved":false,"is_disabled":false,"rental_uris":{"android":"levelo://app?vid=97328254-804a-4f71-9d55-21f296b497ad","ios":"levelo://app?vid=97328254-804a-4f71-9d55-21f296b497ad"},"vehicle_type_id":"4","last_reported":1683367549,"current_range_meters":18800,"station_id":"ce4bgjh2rcd13ifvqbf0","pricing_plan_id":"free"},{"bike_id":"a9c588d6-9d3b-4171-95f1-ddd3d410cdfd","system_id":"levelo_inurba_marseille","lat":43.302992,"lon":5.392136,"is_reserved":false,"is_disabled":false,"rental_uris":{"android":"levelo://app?vid=a9c588d6-9d3b-4171-95f1-ddd3d410cdfd","ios":"levelo://app?vid=a9c588d6-9d3b-4171-95f1-ddd3d410cdfd"},"vehicle_type_id":"4","last_reported":1683367549,"current_range_meters":14400,"station_id":"ce4bgkh2rcd13ifvqbk0","pricing_plan_id":"free"},{"bike_id":"c8f2ffb8-08d9-4ac2-b3fd-d1a8077df4c8","system_id":"levelo_inurba_marseille","lat":43.300852,"lon":5.390859,"is_reserved":false,"is_disabled":false,"rental_uris":{"android":"levelo://app?vid=c8f2ffb8-08d9-4ac2-b3fd-d1a8077df4c8","ios":"levelo://app?vid=c8f2ffb8-08d9-4ac2-b3fd-d1a8077df4c8"},"vehicle_type_id":"4","last_reported":1683367549,"current_range_meters":17200,"station_id":"ce4bh192rcd13ifvqdb0","pricing_plan_id":"free"},{"bike_id":"ad2a3d4e-85af-4ba7-bb9e-450aa8db9bf6","system_id":"levelo_inurba_marseille","lat":43.29227,"lon":5.36048,"is_reserved":false,"is_disabled":false,"rental_uris":{"android":"levelo://app?vid=ad2a3d4e-85af-4ba7-bb9e-450aa8db9bf6","ios":"levelo://app?vid=ad2a3d4e-85af-4ba7-bb9e-450aa8db9bf6"},"vehicle_type_id":"4","last_reported":1683367549,"current_range_meters":21200,"station_id":"ce4bhbh2rcd13ifvqeqg","pricing_plan_id":"free"},{"bike_id":"80aaa82b-44a9-48a8-810c-20926f83b914","system_id":"levelo_inurba_marseille","lat":43.29224,"lon":5.36055,"is_reserved":false,"is_disabled":false,"rental_uris":{"android":"levelo://app?vid=80aaa82b-44a9-48a8-810c-20926f83b914","ios":"levelo://app?vid=80aaa82b-44a9-48a8-810c-20926f83b914"},"vehicle_type_id":"4","last_reported":1683367549,"current_range_meters":19200,"station_id":"ce4bhbh2rcd13ifvqeqg","pricing_plan_id":"free"},{"bike_id":"71ca0efe-078d-4180-a7aa-4879b801efed","system_id":"levelo_inurba_marseille","lat":43.29224,"lon":5.36049,"is_reserved":false,"is_disabled":false,"rental_uris":{"android":"levelo://app?vid=71ca0efe-078d-4180-a7aa-4879b801efed","ios":"levelo://app?vid=71ca0efe-078d-4180-a7aa-4879b801efed"},"vehicle_type_id":"4","last_reported":1683367549,"current_range_meters":5600,"station_id":"ce4bhbh2rcd13ifvqeqg","pricing_plan_id":"free"},{"bike_id":"37839730-4618-4bbe-96df-6fb330abfbdc","system_id":"levelo_inurba_marseille","lat":43.29224,"lon":5.36044,"is_reserved":false,"is_disabled":false,"rental_uris":{"android":"levelo://app?vid=37839730-4618-4bbe-96df-6fb330abfbdc","ios":"levelo://app?vid=37839730-4618-4bbe-96df-6fb330abfbdc"},"vehicle_type_id":"4","last_reported":1683367549,"current_range_meters":10400,"station_id":"ce4bhbh2rcd13ifvqeqg","pricing_plan_id":"free"},{"bike_id":"88c4f1fb-a7d0-4ed5-a271-0cfb199c3d8a","system_id":"levelo_inurba_marseille","lat":43.30085,"lon":5.390856,"is_reserved":false,"is_disabled":false,"rental_uris":{"android":"levelo://app?vid=88c4f1fb-a7d0-4ed5-a271-0cfb199c3d8a","ios":"levelo://app?vid=88c4f1fb-a7d0-4ed5-a271-0cfb199c3d8a"},"vehicle_type_id":"4","last_reported":1683367549,"current_range_meters":21600,"station_id":"ce4bh192rcd13ifvqdb0","pricing_plan_id":"free"},{"bike_id":"79acd5e7-8073-4684-98ee-fc2a0e920560","system_id":"levelo_inurba_marseille","lat":43.291675,"lon":5.371583,"is_reserved":false,"is_disabled":false,"rental_uris":{"android":"levelo://app?vid=79acd5e7-8073-4684-98ee-fc2a0e920560","ios":"levelo://app?vid=79acd5e7-8073-4684-98ee-fc2a0e920560"},"vehicle_type_id":"4","last_reported":1683367549,"current_range_meters":6000,"station_id":"ce4bha92rcd13ifvqeh0","pricing_plan_id":"free"},{"bike_id":"f539faca-feb2-46a2-aad6-54be69fa3851","system_id":"levelo_inurba_marseille","lat":43.298764,"lon":5.388973,"is_reserved":false,"is_disabled":false,"rental_uris":{"android":"levelo://app?vid=f539faca-feb2-46a2-aad6-54be69fa3851","ios":"levelo://app?vid=f539faca-feb2-46a2-aad6-54be69fa3851"},"vehicle_type_id":"4","last_reported":1683367549,"current_range_meters":22000,"station_id":"ce4bh392rcd13ifvqdl0","pricing_plan_id":"free"},{"bike_id":"8dbec4f1-ae8d-41d5-bd5a-2a89e478c2a8","system_id":"levelo_inurba_marseille","lat":43.298764,"lon":5.388973,"is_reserved":false,"is_disabled":false,"rental_uris":{"android":"levelo://app?vid=8dbec4f1-ae8d-41d5-bd5a-2a89e478c2a8","ios":"levelo://app?vid=8dbec4f1-ae8d-41d5-bd5a-2a89e478c2a8"},"vehicle_type_id":"4","last_reported":1683367549,"current_range_meters":19600,"station_id":"ce4bh392rcd13ifvqdl0","pricing_plan_id":"free"},{"bike_id":"faab5a62-cbab-41d5-9a5f-60c32434b02a","system_id":"levelo_inurba_marseille","lat":43.29155,"lon":5.37073,"is_reserved":false,"is_disabled":false,"rental_uris":{"android":"levelo://app?vid=faab5a62-cbab-41d5-9a5f-60c32434b02a","ios":"levelo://app?vid=faab5a62-cbab-41d5-9a5f-60c32434b02a"},"vehicle_type_id":"4","last_reported":1683367549,"current_range_meters":11600,"station_id":"","pricing_plan_id":"free"},{"bike_id":"9515eddb-666c-4487-b1a2-382382a26088","system_id":"levelo_inurba_marseille","lat":43.31326,"lon":5.39682,"is_reserved":false,"is_disabled":false,"rental_uris":{"android":"levelo://app?vid=9515eddb-666c-4487-b1a2-382382a26088","ios":"levelo://app?vid=9515eddb-666c-4487-b1a2-382382a26088"},"vehicle_type_id":"4","last_reported":1683367549,"current_range_meters":1200,"station_id":"ce4bgvp2rcd13ifvqcu0","pricing_plan_id":"free"},{"bike_id":"4ed6125a-fbd1-42c1-9215-303c306cfcde","system_id":"levelo_inurba_marseille","lat":43.309038,"lon":5.396546,"is_reserved":false,"is_disabled":false,"rental_uris":{"android":"levelo://app?vid=4ed6125a-fbd1-42c1-9215-303c306cfcde","ios":"levelo://app?vid=4ed6125a-fbd1-42c1-9215-303c306cfcde"},"vehicle_type_id":"4","last_reported":1683367549,"current_range_meters":23200,"station_id":"ce4bh012rcd13ifvqcv0","pricing_plan_id":"free"},{"bike_id":"62de6734-b0c8-41a0-a339-f643166c6a54","system_id":"levelo_inurba_marseille","lat":43.309038,"lon":5.396546,"is_reserved":false,"is_disabled":false,"rental_uris":{"android":"levelo://app?vid=62de6734-b0c8-41a0-a339-f643166c6a54","ios":"levelo://app?vid=62de6734-b0c8-41a0-a339-f643166c6a54"},"vehicle_type_id":"4","last_reported":1683367549,"current_range_meters":29200,"station_id":"ce4bh012rcd13ifvqcv0","pricing_plan_id":"free"},{"bike_id":"d6e7dc42-24c9-4396-90a4-98f743ca5956","system_id":"levelo_inurba_marseille","lat":43.31324,"lon":5.39686,"is_reserved":false,"is_disabled":false,"rental_uris":{"android":"levelo://app?vid=d6e7dc42-24c9-4396-90a4-98f743ca5956","ios":"levelo://app?vid=d6e7dc42-24c9-4396-90a4-98f743ca5956"},"vehicle_type_id":"4","last_reported":1683367549,"current_range_meters":26400,"station_id":"ce4bgvp2rcd13ifvqcu0","pricing_plan_id":"free"},{"bike_id":"cf20b0fa-d16e-4401-bf7a-40dc2c73e773","system_id":"levelo_inurba_marseille","lat":43.31326,"lon":5.39686,"is_reserved":false,"is_disabled":false,"rental_uris":{"android":"levelo://app?vid=cf20b0fa-d16e-4401-bf7a-40dc2c73e773","ios":"levelo://app?vid=cf20b0fa-d16e-4401-bf7a-40dc2c73e773"},"vehicle_type_id":"4","last_reported":1683367549,"current_range_meters":5600,"station_id":"ce4bgvp2rcd13ifvqcu0","pricing_plan_id":"free"},{"bike_id":"a9c6e4fd-3ae1-46d7-b246-0ac0d6a11056","system_id":"levelo_inurba_marseille","lat":43.313291,"lon":5.396838,"is_reserved":false,"is_disabled":false,"rental_uris":{"android":"levelo://app?vid=a9c6e4fd-3ae1-46d7-b246-0ac0d6a11056","ios":"levelo://app?vid=a9c6e4fd-3ae1-46d7-b246-0ac0d6a11056"},"vehicle_type_id":"4","last_reported":1683367549,"current_range_meters":22800,"station_id":"ce4bgvp2rcd13ifvqcu0","pricing_plan_id":"free"},{"bike_id":"265edb18-95ef-4d2c-867f-6830efa86c97","system_id":"levelo_inurba_marseille","lat":43.31323,"lon":5.39691,"is_reserved":false,"is_disabled":false,"rental_uris":{"android":"levelo://app?vid=265edb18-95ef-4d2c-867f-6830efa86c97","ios":"levelo://app?vid=265edb18-95ef-4d2c-867f-6830efa86c97"},"vehicle_type_id":"4","last_reported":1683367549,"current_range_meters":25600,"station_id":"ce4bgvp2rcd13ifvqcu0","pricing_plan_id":"free"},{"bike_id":"20b31b5e-b99f-4ba0-b4c9-1d8455a6dc44","system_id":"levelo_inurba_marseille","lat":43.31325,"lon":5.39692,"is_reserved":false,"is_disabled":false,"rental_uris":{"android":"levelo://app?vid=20b31b5e-b99f-4ba0-b4c9-1d8455a6dc44","ios":"levelo://app?vid=20b31b5e-b99f-4ba0-b4c9-1d8455a6dc44"},"vehicle_type_id":"4","last_reported":1683367549,"current_range_meters":1600,"station_id":"ce4bgvp2rcd13ifvqcu0","pricing_plan_id":"free"},{"bike_id":"a8a44b43-d4e9-4dba-9295-35a113a172d3","system_id":"levelo_inurba_marseille","lat":43.31329,"lon":5.39693,"is_reserved":false,"is_disabled":false,"rental_uris":{"android":"levelo://app?vid=a8a44b43-d4e9-4dba-9295-35a113a172d3","ios":"levelo://app?vid=a8a44b43-d4e9-4dba-9295-35a113a172d3"},"vehicle_type_id":"4","last_reported":1683367549,"current_range_meters":9200,"station_id":"ce4bgvp2rcd13ifvqcu0","pricing_plan_id":"free"},{"bike_id":"eb6b4802-88fa-4c9f-bc1b-71a1b52ff5ba","system_id":"levelo_inurba_marseille","lat":43.31329,"lon":5.39694,"is_reserved":false,"is_disabled":false,"rental_uris":{"android":"levelo://app?vid=eb6b4802-88fa-4c9f-bc1b-71a1b52ff5ba","ios":"levelo://app?vid=eb6b4802-88fa-4c9f-bc1b-71a1b52ff5ba"},"vehicle_type_id":"4","last_reported":1683367549,"current_range_meters":22000,"station_id":"ce4bgvp2rcd13ifvqcu0","pricing_plan_id":"free"},{"bike_id":"b72bb075-8c4d-4e51-a5a9-3057e5999670","system_id":"levelo_inurba_marseille","lat":43.313291,"lon":5.396838,"is_reserved":false,"is_disabled":false,"rental_uris":{"android":"levelo://app?vid=b72bb075-8c4d-4e51-a5a9-3057e5999670","ios":"levelo://app?vid=b72bb075-8c4d-4e51-a5a9-3057e5999670"},"vehicle_type_id":"4","last_reported":1683367549,"current_range_meters":25600,"station_id":"ce4bgvp2rcd13ifvqcu0","pricing_plan_id":"free"},{"bike_id":"e266368a-ef7f-48ec-9176-2f0b48884fb8","system_id":"levelo_inurba_marseille","lat":43.309038,"lon":5.396546,"is_reserved":false,"is_disabled":false,"rental_uris":{"android":"levelo://app?vid=e266368a-ef7f-48ec-9176-2f0b48884fb8","ios":"levelo://app?vid=e266368a-ef7f-48ec-9176-2f0b48884fb8"},"vehicle_type_id":"4","last_reported":1683367549,"current_range_meters":22000,"station_id":"ce4bh012rcd13ifvqcv0","pricing_plan_id":"free"},{"bike_id":"d70b52ce-20cb-4aa0-aba3-74ce839f91cb","system_id":"levelo_inurba_marseille","lat":43.31329,"lon":5.39696,"is_reserved":false,"is_disabled":false,"rental_uris":{"android":"levelo://app?vid=d70b52ce-20cb-4aa0-aba3-74ce839f91cb","ios":"levelo://app?vid=d70b52ce-20cb-4aa0-aba3-74ce839f91cb"},"vehicle_type_id":"4","last_reported":1683367549,"current_range_meters":28000,"station_id":"ce4bgvp2rcd13ifvqcu0","pricing_plan_id":"free"},{"bike_id":"317605e0-adfa-4898-b83a-9c58711c77d0","system_id":"levelo_inurba_marseille","lat":43.308858,"lon":5.396525,"is_reserved":false,"is_disabled":false,"rental_uris":{"android":"levelo://app?vid=317605e0-adfa-4898-b83a-9c58711c77d0","ios":"levelo://app?vid=317605e0-adfa-4898-b83a-9c58711c77d0"},"vehicle_type_id":"4","last_reported":1683367549,"current_range_meters":31200,"station_id":"","pricing_plan_id":"free"},{"bike_id":"386418ee-99e9-4589-a3f5-e6b20b0327a9","system_id":"levelo_inurba_marseille","lat":43.309038,"lon":5.396546,"is_reserved":false,"is_disabled":false,"rental_uris":{"android":"levelo://app?vid=386418ee-99e9-4589-a3f5-e6b20b0327a9","ios":"levelo://app?vid=386418ee-99e9-4589-a3f5-e6b20b0327a9"},"vehicle_type_id":"4","last_reported":1683367549,"current_range_meters":24800,"station_id":"ce4bh012rcd13ifvqcv0","pricing_plan_id":"free"},{"bike_id":"e7311056-2a78-413f-b693-ff7a65b966ce","system_id":"levelo_inurba_marseille","lat":43.308842,"lon":5.396552,"is_reserved":false,"is_disabled":false,"rental_uris":{"android":"levelo://app?vid=e7311056-2a78-413f-b693-ff7a65b966ce","ios":"levelo://app?vid=e7311056-2a78-413f-b693-ff7a65b966ce"},"vehicle_type_id":"4","last_reported":1683367549,"current_range_meters":9200,"station_id":"","pricing_plan_id":"free"},{"bike_id":"22754f9d-77bb-4222-9b41-2dc90de6dd7c","system_id":"levelo_inurba_marseille","lat":43.290779,"lon":5.371482,"is_reserved":false,"is_disabled":false,"rental_uris":{"android":"levelo://app?vid=22754f9d-77bb-4222-9b41-2dc90de6dd7c","ios":"levelo://app?vid=22754f9d-77bb-4222-9b41-2dc90de6dd7c"},"vehicle_type_id":"4","last_reported":1683367549,"current_range_meters":14400,"station_id":"ce4bh5p2rcd13ifvqe4g","pricing_plan_id":"free"},{"bike_id":"4e117138-66b6-4f1c-baf3-adeda54a9d4a","system_id":"levelo_inurba_marseille","lat":43.290779,"lon":5.371482,"is_reserved":false,"is_disabled":false,"rental_uris":{"android":"levelo://app?vid=4e117138-66b6-4f1c-baf3-adeda54a9d4a","ios":"levelo://app?vid=4e117138-66b6-4f1c-baf3-adeda54a9d4a"},"vehicle_type_id":"4","last_reported":1683367549,"current_range_meters":24800,"station_id":"ce4bh5p2rcd13ifvqe4g","pricing_plan_id":"free"},{"bike_id":"803fe6f0-538c-473a-9771-33fefc96ec05","system_id":"levelo_inurba_marseille","lat":43.290779,"lon":5.371482,"is_reserved":false,"is_disabled":false,"rental_uris":{"android":"levelo://app?vid=803fe6f0-538c-473a-9771-33fefc96ec05","ios":"levelo://app?vid=803fe6f0-538c-473a-9771-33fefc96ec05"},"vehicle_type_id":"4","last_reported":1683367549,"current_range_meters":22400,"station_id":"ce4bh5p2rcd13ifvqe4g","pricing_plan_id":"free"},{"bike_id":"ef2d7cf3-fc1e-4e98-98e7-626bfbca08ae","system_id":"levelo_inurba_marseille","lat":43.290779,"lon":5.371482,"is_reserved":false,"is_disabled":false,"rental_uris":{"android":"levelo://app?vid=ef2d7cf3-fc1e-4e98-98e7-626bfbca08ae","ios":"levelo://app?vid=ef2d7cf3-fc1e-4e98-98e7-626bfbca08ae"},"vehicle_type_id":"4","last_reported":1683367549,"current_range_meters":24400,"station_id":"ce4bh5p2rcd13ifvqe4g","pricing_plan_id":"free"},{"bike_id":"b30f6426-bbc5-483e-9a6b-ecd7c7764718","system_id":"levelo_inurba_marseille","lat":43.29212,"lon":5.37906,"is_reserved":false,"is_disabled":false,"rental_uris":{"android":"levelo://app?vid=b30f6426-bbc5-483e-9a6b-ecd7c7764718","ios":"levelo://app?vid=b30f6426-bbc5-483e-9a6b-ecd7c7764718"},"vehicle_type_id":"4","last_reported":1683367549,"current_range_meters":24400,"station_id":"ce4bgj92rcd13ifvqbd0","pricing_plan_id":"free"},{"bike_id":"d2fb0f09-345a-4d2a-9054-29b66e75275e","system_id":"levelo_inurba_marseille","lat":43.302008,"lon":5.394694,"is_reserved":false,"is_disabled":false,"rental_uris":{"android":"levelo://app?vid=d2fb0f09-345a-4d2a-9054-29b66e75275e","ios":"levelo://app?vid=d2fb0f09-345a-4d2a-9054-29b66e75275e"},"vehicle_type_id":"4","last_reported":1683367549,"current_range_meters":27600,"station_id":"ce4bh0p2rcd13ifvqd70","pricing_plan_id":"free"},{"bike_id":"e69bab49-e5ce-40d5-9dfd-2158814fedc8","system_id":"levelo_inurba_marseille","lat":43.290624,"lon":5.359245,"is_reserved":false,"is_disabled":false,"rental_uris":{"android":"levelo://app?vid=e69bab49-e5ce-40d5-9dfd-2158814fedc8","ios":"levelo://app?vid=e69bab49-e5ce-40d5-9dfd-2158814fedc8"},"vehicle_type_id":"4","last_reported":1683367549,"current_range_meters":22400,"station_id":"ce4bha92rcd13ifvqeg0","pricing_plan_id":"free"},{"bike_id":"be62b265-b9eb-4d7f-8011-bfb4a77e6849","system_id":"levelo_inurba_marseille","lat":43.290327,"lon":5.375711,"is_reserved":false,"is_disabled":false,"rental_uris":{"android":"levelo://app?vid=be62b265-b9eb-4d7f-8011-bfb4a77e6849","ios":"levelo://app?vid=be62b265-b9eb-4d7f-8011-bfb4a77e6849"},"vehicle_type_id":"4","last_reported":1683367549,"current_range_meters":26400,"station_id":"ce4bh692rcd13ifvqe90","pricing_plan_id":"free"},{"bike_id":"1c09df0c-d4ff-40c7-ac69-fdad1de82e11","system_id":"levelo_inurba_marseille","lat":43.290624,"lon":5.359245,"is_reserved":false,"is_disabled":false,"rental_uris":{"android":"levelo://app?vid=1c09df0c-d4ff-40c7-ac69-fdad1de82e11","ios":"levelo://app?vid=1c09df0c-d4ff-40c7-ac69-fdad1de82e11"},"vehicle_type_id":"4","last_reported":1683367549,"current_range_meters":21600,"station_id":"ce4bha92rcd13ifvqeg0","pricing_plan_id":"free"},{"bike_id":"473afcd6-bdd9-490b-8790-886759c33afa","system_id":"levelo_inurba_marseille","lat":43.290624,"lon":5.359245,"is_reserved":false,"is_disabled":false,"rental_uris":{"android":"levelo://app?vid=473afcd6-bdd9-490b-8790-886759c33afa","ios":"levelo://app?vid=473afcd6-bdd9-490b-8790-886759c33afa"},"vehicle_type_id":"4","last_reported":1683367549,"current_range_meters":9600,"station_id":"ce4bha92rcd13ifvqeg0","pricing_plan_id":"free"},{"bike_id":"014de0f3-c63f-4328-a453-193c531928ba","system_id":"levelo_inurba_marseille","lat":43.290624,"lon":5.359245,"is_reserved":false,"is_disabled":false,"rental_uris":{"android":"levelo://app?vid=014de0f3-c63f-4328-a453-193c531928ba","ios":"levelo://app?vid=014de0f3-c63f-4328-a453-193c531928ba"},"vehicle_type_id":"4","last_reported":1683367549,"current_range_meters":13200,"station_id":"ce4bha92rcd13ifvqeg0","pricing_plan_id":"free"},{"bike_id":"0119fccd-81b9-465b-a3ec-f1727f1b98f0","system_id":"levelo_inurba_marseille","lat":43.290319,"lon":5.375732,"is_reserved":false,"is_disabled":false,"rental_uris":{"android":"levelo://app?vid=0119fccd-81b9-465b-a3ec-f1727f1b98f0","ios":"levelo://app?vid=0119fccd-81b9-465b-a3ec-f1727f1b98f0"},"vehicle_type_id":"4","last_reported":1683367549,"current_range_meters":31200,"station_id":"ce4bh692rcd13ifvqe90","pricing_plan_id":"free"},{"bike_id":"454183a4-e1b8-4ca9-baa5-ab8025b25c9f","system_id":"levelo_inurba_marseille","lat":43.294162,"lon":5.386292,"is_reserved":false,"is_disabled":false,"rental_uris":{"android":"levelo://app?vid=454183a4-e1b8-4ca9-baa5-ab8025b25c9f","ios":"levelo://app?vid=454183a4-e1b8-4ca9-baa5-ab8025b25c9f"},"vehicle_type_id":"4","last_reported":1683367549,"current_range_meters":19200,"station_id":"ce4bh2h2rcd13ifvqdh0","pricing_plan_id":"free"},{"bike_id":"5214172f-1b72-4b32-9f28-030e8158df4b","system_id":"levelo_inurba_marseille","lat":43.304296,"lon":5.397513,"is_reserved":false,"is_disabled":false,"rental_uris":{"android":"levelo://app?vid=5214172f-1b72-4b32-9f28-030e8158df4b","ios":"levelo://app?vid=5214172f-1b72-4b32-9f28-030e8158df4b"},"vehicle_type_id":"4","last_reported":1683367549,"current_range_meters":29200,"station_id":"ce4bh092rcd13ifvqd20","pricing_plan_id":"free"},{"bike_id":"9dcd5aee-f2c5-4586-8420-54f7d84adc1d","system_id":"levelo_inurba_marseille","lat":43.292642,"lon":5.384254,"is_reserved":false,"is_disabled":false,"rental_uris":{"android":"levelo://app?vid=9dcd5aee-f2c5-4586-8420-54f7d84adc1d","ios":"levelo://app?vid=9dcd5aee-f2c5-4586-8420-54f7d84adc1d"},"vehicle_type_id":"4","last_reported":1683367549,"current_range_meters":14800,"station_id":"ce4bh692rcd13ifvqea0","pricing_plan_id":"free"},{"bike_id":"46c8867e-0dd3-4981-b23a-dff36cb6859b","system_id":"levelo_inurba_marseille","lat":43.304296,"lon":5.397513,"is_reserved":false,"is_disabled":false,"rental_uris":{"android":"levelo://app?vid=46c8867e-0dd3-4981-b23a-dff36cb6859b","ios":"levelo://app?vid=46c8867e-0dd3-4981-b23a-dff36cb6859b"},"vehicle_type_id":"4","last_reported":1683367549,"current_range_meters":28800,"station_id":"ce4bh092rcd13ifvqd20","pricing_plan_id":"free"},{"bike_id":"96ac7c4b-e9d2-447c-9fb4-066e58fe0453","system_id":"levelo_inurba_marseille","lat":43.2902,"lon":5.35603,"is_reserved":false,"is_disabled":false,"rental_uris":{"android":"levelo://app?vid=96ac7c4b-e9d2-447c-9fb4-066e58fe0453","ios":"levelo://app?vid=96ac7c4b-e9d2-447c-9fb4-066e58fe0453"},"vehicle_type_id":"4","last_reported":1683367549,"current_range_meters":6000,"station_id":"ce4bhb92rcd13ifvqen0","pricing_plan_id":"free"},{"bike_id":"1cd8baf0-5550-4716-8d5e-6381fd878ebd","system_id":"levelo_inurba_marseille","lat":43.33039,"lon":5.38916,"is_reserved":false,"is_disabled":false,"rental_uris":{"android":"levelo://app?vid=1cd8baf0-5550-4716-8d5e-6381fd878ebd","ios":"levelo://app?vid=1cd8baf0-5550-4716-8d5e-6381fd878ebd"},"vehicle_type_id":"4","last_reported":1683367549,"current_range_meters":26000,"station_id":"ce4bhr92rcd13ifvqhrg","pricing_plan_id":"free"},{"bike_id":"c7d204ce-6619-491c-8812-dc4b0a6a663b","system_id":"levelo_inurba_marseille","lat":43.33041,"lon":5.38917,"is_reserved":false,"is_disabled":false,"rental_uris":{"android":"levelo://app?vid=c7d204ce-6619-491c-8812-dc4b0a6a663b","ios":"levelo://app?vid=c7d204ce-6619-491c-8812-dc4b0a6a663b"},"vehicle_type_id":"4","last_reported":1683367549,"current_range_meters":29600,"station_id":"ce4bhr92rcd13ifvqhrg","pricing_plan_id":"free"},{"bike_id":"b19188c7-d374-4f35-9d6f-4ee40c840621","system_id":"levelo_inurba_marseille","lat":43.33041,"lon":5.38917,"is_reserved":false,"is_disabled":false,"rental_uris":{"android":"levelo://app?vid=b19188c7-d374-4f35-9d6f-4ee40c840621","ios":"levelo://app?vid=b19188c7-d374-4f35-9d6f-4ee40c840621"},"vehicle_type_id":"4","last_reported":1683367549,"current_range_meters":23200,"station_id":"ce4bhr92rcd13ifvqhrg","pricing_plan_id":"free"},{"bike_id":"10a8eeb7-4f93-4e8d-81bd-f27d3d4ef515","system_id":"levelo_inurba_marseille","lat":43.33041,"lon":5.38918,"is_reserved":false,"is_disabled":false,"rental_uris":{"android":"levelo://app?vid=10a8eeb7-4f93-4e8d-81bd-f27d3d4ef515","ios":"levelo://app?vid=10a8eeb7-4f93-4e8d-81bd-f27d3d4ef515"},"vehicle_type_id":"4","last_reported":1683367549,"current_range_meters":26800,"station_id":"ce4bhr92rcd13ifvqhrg","pricing_plan_id":"free"},{"bike_id":"8354f027-4ab3-43cf-aa5a-b91f8b7b635d","system_id":"levelo_inurba_marseille","lat":43.33046,"lon":5.38911,"is_reserved":false,"is_disabled":false,"rental_uris":{"android":"levelo://app?vid=8354f027-4ab3-43cf-aa5a-b91f8b7b635d","ios":"levelo://app?vid=8354f027-4ab3-43cf-aa5a-b91f8b7b635d"},"vehicle_type_id":"4","last_reported":1683367549,"current_range_meters":12800,"station_id":"ce4bhr92rcd13ifvqhrg","pricing_plan_id":"free"},{"bike_id":"c0b39783-7886-4047-9a8d-355fea0e4444","system_id":"levelo_inurba_marseille","lat":43.33043,"lon":5.38916,"is_reserved":false,"is_disabled":false,"rental_uris":{"android":"levelo://app?vid=c0b39783-7886-4047-9a8d-355fea0e4444","ios":"levelo://app?vid=c0b39783-7886-4047-9a8d-355fea0e4444"},"vehicle_type_id":"4","last_reported":1683367549,"current_range_meters":22000,"station_id":"ce4bhr92rcd13ifvqhrg","pricing_plan_id":"free"},{"bike_id":"d6233f8b-531d-433b-b8e9-589e3920c098","system_id":"levelo_inurba_marseille","lat":43.33044,"lon":5.38915,"is_reserved":false,"is_disabled":false,"rental_uris":{"android":"levelo://app?vid=d6233f8b-531d-433b-b8e9-589e3920c098","ios":"levelo://app?vid=d6233f8b-531d-433b-b8e9-589e3920c098"},"vehicle_type_id":"4","last_reported":1683367549,"current_range_meters":22400,"station_id":"ce4bhr92rcd13ifvqhrg","pricing_plan_id":"free"},{"bike_id":"da86836b-d020-456b-ad95-a73c452d8db8","system_id":"levelo_inurba_marseille","lat":43.33041,"lon":5.3892,"is_reserved":false,"is_disabled":false,"rental_uris":{"android":"levelo://app?vid=da86836b-d020-456b-ad95-a73c452d8db8","ios":"levelo://app?vid=da86836b-d020-456b-ad95-a73c452d8db8"},"vehicle_type_id":"4","last_reported":1683367549,"current_range_meters":24000,"station_id":"ce4bhr92rcd13ifvqhrg","pricing_plan_id":"free"},{"bike_id":"6bff39af-b880-495b-87c5-e559d7e2e65e","system_id":"levelo_inurba_marseille","lat":43.33041,"lon":5.3892,"is_reserved":false,"is_disabled":false,"rental_uris":{"android":"levelo://app?vid=6bff39af-b880-495b-87c5-e559d7e2e65e","ios":"levelo://app?vid=6bff39af-b880-495b-87c5-e559d7e2e65e"},"vehicle_type_id":"4","last_reported":1683367549,"current_range_meters":16000,"station_id":"ce4bhr92rcd13ifvqhrg","pricing_plan_id":"free"},{"bike_id":"575afc17-30ae-44aa-b2b7-439f83e57cf5","system_id":"levelo_inurba_marseille","lat":43.33043,"lon":5.38917,"is_reserved":false,"is_disabled":false,"rental_uris":{"android":"levelo://app?vid=575afc17-30ae-44aa-b2b7-439f83e57cf5","ios":"levelo://app?vid=575afc17-30ae-44aa-b2b7-439f83e57cf5"},"vehicle_type_id":"4","last_reported":1683367549,"current_range_meters":24800,"station_id":"ce4bhr92rcd13ifvqhrg","pricing_plan_id":"free"},{"bike_id":"eec179c5-79de-473a-a2fe-2282099fce04","system_id":"levelo_inurba_marseille","lat":43.33047,"lon":5.38913,"is_reserved":false,"is_disabled":false,"rental_uris":{"android":"levelo://app?vid=eec179c5-79de-473a-a2fe-2282099fce04","ios":"levelo://app?vid=eec179c5-79de-473a-a2fe-2282099fce04"},"vehicle_type_id":"4","last_reported":1683367549,"current_range_meters":20000,"station_id":"ce4bhr92rcd13ifvqhrg","pricing_plan_id":"free"},{"bike_id":"496fc879-c6a2-4335-9eab-2fdd6a6f8bf1","system_id":"levelo_inurba_marseille","lat":43.33042,"lon":5.38921,"is_reserved":false,"is_disabled":false,"rental_uris":{"android":"levelo://app?vid=496fc879-c6a2-4335-9eab-2fdd6a6f8bf1","ios":"levelo://app?vid=496fc879-c6a2-4335-9eab-2fdd6a6f8bf1"},"vehicle_type_id":"4","last_reported":1683367549,"current_range_meters":17600,"station_id":"ce4bhr92rcd13ifvqhrg","pricing_plan_id":"free"},{"bike_id":"ca24a59f-d386-41a3-bec3-cccfb35035a7","system_id":"levelo_inurba_marseille","lat":43.33044,"lon":5.38918,"is_reserved":false,"is_disabled":false,"rental_uris":{"android":"levelo://app?vid=ca24a59f-d386-41a3-bec3-cccfb35035a7","ios":"levelo://app?vid=ca24a59f-d386-41a3-bec3-cccfb35035a7"},"vehicle_type_id":"4","last_reported":1683367549,"current_range_meters":0,"station_id":"ce4bhr92rcd13ifvqhrg","pricing_plan_id":"free"},{"bike_id":"c9455a8e-920b-4e52-910e-7a1224d93dcf","system_id":"levelo_inurba_marseille","lat":43.33044,"lon":5.38919,"is_reserved":false,"is_disabled":false,"rental_uris":{"android":"levelo://app?vid=c9455a8e-920b-4e52-910e-7a1224d93dcf","ios":"levelo://app?vid=c9455a8e-920b-4e52-910e-7a1224d93dcf"},"vehicle_type_id":"4","last_reported":1683367549,"current_range_meters":21600,"station_id":"ce4bhr92rcd13ifvqhrg","pricing_plan_id":"free"},{"bike_id":"9cc13337-a19e-40f5-b636-2bafa5380dab","system_id":"levelo_inurba_marseille","lat":43.33047,"lon":5.38915,"is_reserved":false,"is_disabled":false,"rental_uris":{"android":"levelo://app?vid=9cc13337-a19e-40f5-b636-2bafa5380dab","ios":"levelo://app?vid=9cc13337-a19e-40f5-b636-2bafa5380dab"},"vehicle_type_id":"4","last_reported":1683367549,"current_range_meters":28800,"station_id":"ce4bhr92rcd13ifvqhrg","pricing_plan_id":"free"},{"bike_id":"1eaec53b-a9e3-4742-bd25-b9aff62750bd","system_id":"levelo_inurba_marseille","lat":43.290104,"lon":5.356111,"is_reserved":false,"is_disabled":false,"rental_uris":{"android":"levelo://app?vid=1eaec53b-a9e3-4742-bd25-b9aff62750bd","ios":"levelo://app?vid=1eaec53b-a9e3-4742-bd25-b9aff62750bd"},"vehicle_type_id":"4","last_reported":1683367549,"current_range_meters":19200,"station_id":"ce4bhb92rcd13ifvqen0","pricing_plan_id":"free"},{"bike_id":"c6a5f3db-467c-47f5-acd9-61fe8cd674ee","system_id":"levelo_inurba_marseille","lat":43.33047,"lon":5.38916,"is_reserved":false,"is_disabled":false,"rental_uris":{"android":"levelo://app?vid=c6a5f3db-467c-47f5-acd9-61fe8cd674ee","ios":"levelo://app?vid=c6a5f3db-467c-47f5-acd9-61fe8cd674ee"},"vehicle_type_id":"4","last_reported":1683367549,"current_range_meters":23600,"station_id":"ce4bhr92rcd13ifvqhrg","pricing_plan_id":"free"},{"bike_id":"7b1eb26a-66e1-4876-9781-33ea64dfd77a","system_id":"levelo_inurba_marseille","lat":43.290103,"lon":5.356114,"is_reserved":false,"is_disabled":false,"rental_uris":{"android":"levelo://app?vid=7b1eb26a-66e1-4876-9781-33ea64dfd77a","ios":"levelo://app?vid=7b1eb26a-66e1-4876-9781-33ea64dfd77a"},"vehicle_type_id":"4","last_reported":1683367549,"current_range_meters":29200,"station_id":"ce4bhb92rcd13ifvqen0","pricing_plan_id":"free"},{"bike_id":"1f662943-fd3c-4d30-8e8d-761822cb14d2","system_id":"levelo_inurba_marseille","lat":43.33049,"lon":5.38916,"is_reserved":false,"is_disabled":false,"rental_uris":{"android":"levelo://app?vid=1f662943-fd3c-4d30-8e8d-761822cb14d2","ios":"levelo://app?vid=1f662943-fd3c-4d30-8e8d-761822cb14d2"},"vehicle_type_id":"4","last_reported":1683367549,"current_range_meters":21600,"station_id":"ce4bhr92rcd13ifvqhrg","pricing_plan_id":"free"},{"bike_id":"1c428933-9aa8-4192-82c5-42b6b16b5880","system_id":"levelo_inurba_marseille","lat":43.29007,"lon":5.35603,"is_reserved":false,"is_disabled":false,"rental_uris":{"android":"levelo://app?vid=1c428933-9aa8-4192-82c5-42b6b16b5880","ios":"levelo://app?vid=1c428933-9aa8-4192-82c5-42b6b16b5880"},"vehicle_type_id":"4","last_reported":1683367549,"current_range_meters":2000,"station_id":"ce4bhb92rcd13ifvqen0","pricing_plan_id":"free"},{"bike_id":"c0b7ba06-49cc-41cb-8c24-2085212fb3da","system_id":"levelo_inurba_marseille","lat":43.290104,"lon":5.356111,"is_reserved":false,"is_disabled":false,"rental_uris":{"android":"levelo://app?vid=c0b7ba06-49cc-41cb-8c24-2085212fb3da","ios":"levelo://app?vid=c0b7ba06-49cc-41cb-8c24-2085212fb3da"},"vehicle_type_id":"4","last_reported":1683367549,"current_range_meters":28400,"station_id":"ce4bhb92rcd13ifvqen0","pricing_plan_id":"free"},{"bike_id":"f534f96f-bd57-4e6e-8324-6ac963d15f8b","system_id":"levelo_inurba_marseille","lat":43.29005,"lon":5.35607,"is_reserved":false,"is_disabled":false,"rental_uris":{"android":"levelo://app?vid=f534f96f-bd57-4e6e-8324-6ac963d15f8b","ios":"levelo://app?vid=f534f96f-bd57-4e6e-8324-6ac963d15f8b"},"vehicle_type_id":"4","last_reported":1683367549,"current_range_meters":21600,"station_id":"ce4bhb92rcd13ifvqen0","pricing_plan_id":"free"},{"bike_id":"df4c937a-2e6a-4f19-8df2-34887b152dad","system_id":"levelo_inurba_marseille","lat":43.29005,"lon":5.35605,"is_reserved":false,"is_disabled":false,"rental_uris":{"android":"levelo://app?vid=df4c937a-2e6a-4f19-8df2-34887b152dad","ios":"levelo://app?vid=df4c937a-2e6a-4f19-8df2-34887b152dad"},"vehicle_type_id":"4","last_reported":1683367549,"current_range_meters":16000,"station_id":"ce4bhb92rcd13ifvqen0","pricing_plan_id":"free"},{"bike_id":"dff8b51f-31b2-4789-a812-ae16e920530d","system_id":"levelo_inurba_marseille","lat":43.29002,"lon":5.35613,"is_reserved":false,"is_disabled":false,"rental_uris":{"android":"levelo://app?vid=dff8b51f-31b2-4789-a812-ae16e920530d","ios":"levelo://app?vid=dff8b51f-31b2-4789-a812-ae16e920530d"},"vehicle_type_id":"4","last_reported":1683367549,"current_range_meters":22000,"station_id":"ce4bhb92rcd13ifvqen0","pricing_plan_id":"free"},{"bike_id":"b37530c3-df7d-435c-9ee3-6e2c436758a8","system_id":"levelo_inurba_marseille","lat":43.29004,"lon":5.35604,"is_reserved":false,"is_disabled":false,"rental_uris":{"android":"levelo://app?vid=b37530c3-df7d-435c-9ee3-6e2c436758a8","ios":"levelo://app?vid=b37530c3-df7d-435c-9ee3-6e2c436758a8"},"vehicle_type_id":"4","last_reported":1683367549,"current_range_meters":24400,"station_id":"ce4bhb92rcd13ifvqen0","pricing_plan_id":"free"},{"bike_id":"64e513fa-b86f-45fc-96d3-bdb0f349c88a","system_id":"levelo_inurba_marseille","lat":43.29003,"lon":5.35604,"is_reserved":false,"is_disabled":false,"rental_uris":{"android":"levelo://app?vid=64e513fa-b86f-45fc-96d3-bdb0f349c88a","ios":"levelo://app?vid=64e513fa-b86f-45fc-96d3-bdb0f349c88a"},"vehicle_type_id":"4","last_reported":1683367549,"current_range_meters":30800,"station_id":"ce4bhb92rcd13ifvqen0","pricing_plan_id":"free"},{"bike_id":"03f69c42-a521-45f0-afc6-f94905296432","system_id":"levelo_inurba_marseille","lat":43.290104,"lon":5.356111,"is_reserved":false,"is_disabled":false,"rental_uris":{"android":"levelo://app?vid=03f69c42-a521-45f0-afc6-f94905296432","ios":"levelo://app?vid=03f69c42-a521-45f0-afc6-f94905296432"},"vehicle_type_id":"4","last_reported":1683367549,"current_range_meters":31200,"station_id":"ce4bhb92rcd13ifvqen0","pricing_plan_id":"free"},{"bike_id":"96935bdc-d29c-4cee-af1d-1fcc97e0c4e6","system_id":"levelo_inurba_marseille","lat":43.295169,"lon":5.390426,"is_reserved":false,"is_disabled":false,"rental_uris":{"android":"levelo://app?vid=96935bdc-d29c-4cee-af1d-1fcc97e0c4e6","ios":"levelo://app?vid=96935bdc-d29c-4cee-af1d-1fcc97e0c4e6"},"vehicle_type_id":"4","last_reported":1683367549,"current_range_meters":27200,"station_id":"ce4bh3p2rcd13ifvqdp0","pricing_plan_id":"free"},{"bike_id":"abcc8801-f08c-4bd2-9a8a-44566472540b","system_id":"levelo_inurba_marseille","lat":43.289741,"lon":5.378306,"is_reserved":false,"is_disabled":false,"rental_uris":{"android":"levelo://app?vid=abcc8801-f08c-4bd2-9a8a-44566472540b","ios":"levelo://app?vid=abcc8801-f08c-4bd2-9a8a-44566472540b"},"vehicle_type_id":"4","last_reported":1683367549,"current_range_meters":28000,"station_id":"ce4bh9p2rcd13ifvqed0","pricing_plan_id":"free"},{"bike_id":"c41a0b5a-6479-4536-8f01-6327804686fa","system_id":"levelo_inurba_marseille","lat":43.28856,"lon":5.358371,"is_reserved":false,"is_disabled":false,"rental_uris":{"android":"levelo://app?vid=c41a0b5a-6479-4536-8f01-6327804686fa","ios":"levelo://app?vid=c41a0b5a-6479-4536-8f01-6327804686fa"},"vehicle_type_id":"4","last_reported":1683367549,"current_range_meters":28000,"station_id":"ce4bhb12rcd13ifvqem0","pricing_plan_id":"free"},{"bike_id":"201c15e5-b0ba-46cf-b85d-a05e98d7361e","system_id":"levelo_inurba_marseille","lat":43.28856,"lon":5.358371,"is_reserved":false,"is_disabled":false,"rental_uris":{"android":"levelo://app?vid=201c15e5-b0ba-46cf-b85d-a05e98d7361e","ios":"levelo://app?vid=201c15e5-b0ba-46cf-b85d-a05e98d7361e"},"vehicle_type_id":"4","last_reported":1683367549,"current_range_meters":25200,"station_id":"ce4bhb12rcd13ifvqem0","pricing_plan_id":"free"},{"bike_id":"3e18de90-48ab-43fd-9f23-7acec9113f49","system_id":"levelo_inurba_marseille","lat":43.28856,"lon":5.358371,"is_reserved":false,"is_disabled":false,"rental_uris":{"android":"levelo://app?vid=3e18de90-48ab-43fd-9f23-7acec9113f49","ios":"levelo://app?vid=3e18de90-48ab-43fd-9f23-7acec9113f49"},"vehicle_type_id":"4","last_reported":1683367549,"current_range_meters":16800,"station_id":"ce4bhb12rcd13ifvqem0","pricing_plan_id":"free"},{"bike_id":"34320fce-24bb-4291-be42-2c361aed67f0","system_id":"levelo_inurba_marseille","lat":43.33743,"lon":5.37448,"is_reserved":false,"is_disabled":false,"rental_uris":{"android":"levelo://app?vid=34320fce-24bb-4291-be42-2c361aed67f0","ios":"levelo://app?vid=34320fce-24bb-4291-be42-2c361aed67f0"},