{"last_updated":1757758111,"ttl":60,"version":"2.2","data":{"bikes":[{"bike_id":"f4b8fd8d-196f-4c60-96b1-4f624ae8397f","system_id":"levelo_inurba_marseille","lat":43.30373,"lon":5.42493,"is_reserved":false,"is_disabled":false,"rental_uris":{"android":"levelo://app?vid=f4b8fd8d-196f-4c60-96b1-4f624ae8397f","ios":"levelo://app?vid=f4b8fd8d-196f-4c60-96b1-4f624ae8397f"},"vehicle_type_id":"4","last_reported":1757758111,"current_range_meters":2800,"station_id":"ce4bhoh2rcd13ifvqh6g","pricing_plan_id":"cebpf4jnsgd1na2vs0mg"},{"bike_id":"6627b7c8-d245-498c-97ae-1bca49ecd6d9","system_id":"levelo_inurba_marseille","lat":43.32078,"lon":5.44776,"is_reserved":false,"is_disabled":false,"rental_uris":{"android":"levelo://app?vid=6627b7c8-d245-498c-97ae-1bca49ecd6d9","ios":"levelo://app?vid=6627b7c8-d245-498c-97ae-1bca49ecd6d9"},"vehicle_type_id":"4","last_reported":1757758111,"current_range_meters":2800,"station_id":"","pricing_plan_id":"cebpf4jnsgd1na2vs0mg"},{"bike_id":"b64f15ab-012e-4d87-a680-7ea535f7886a","system_id":"levelo_inurba_marseille","lat":43.267309,"lon":5.402172,"is_reserved":false,"is_disabled":false,"rental_uris":{"android":"levelo://app?vid=b64f15ab-012e-4d87-a680-7ea535f7886a","ios":"levelo://app?vid=b64f15ab-012e-4d87-a680-7ea535f7886a"},"vehicle_type_id":"4","last_reported":1757758111,"current_range_meters":2800,"station_id":"ce4bhkp2rcd13ifvqgd0","pricing_plan_id":"cebpf4jnsgd1na2vs0mg"},{"bike_id":"f8dd03ff-8a9c-4848-aefb-810ef143bea5","system_id":"levelo_inurba_marseille","lat":43.3198,"lon":5.38163,"is_reserved":false,"is_disabled":false,"rental_uris":{"android":"levelo://app?vid=f8dd03ff-8a9c-4848-aefb-810ef143bea5","ios":"levelo://app?vid=f8dd03ff-8a9c-4848-aefb-810ef143bea5"},"vehicle_type_id":"4","last_reported":1757758111,"current_range_meters":2800,"station_id":"ce4bhr12rcd13ifvqhpg","pricing_plan_id":"cebpf4jnsgd1na2vs0mg"},{"bike_id":"2f90fbdf-e2db-444f-928b-42e117670f18","system_id":"levelo_inurba_marseille","lat":43.337608,"lon":5.374358,"is_reserved":false,"is_disabled":false,"rental_uris":{"android":"levelo://app?vid=2f90fbdf-e2db-444f-928b-42e117670f18","ios":"levelo://app?vid=2f90fbdf-e2db-444f-928b-42e117670f18"},"vehicle_type_id":"4","last_reported":1757758111,"current_range_meters":3200,"station_id":"","pricing_plan_id":"cebpf4jnsgd1na2vs0mg"},{"bike_id":"97514a44-1f4d-4ae1-a270-04ca7b75c621","system_id":"levelo_inurba_marseille","lat":43.288605,"lon":5.425244,"is_reserved":false,"is_disabled":false,"rental_uris":{"android":"levelo://app?vid=97514a44-1f4d-4ae1-a270-04ca7b75c621","ios":"levelo://app?vid=97514a44-1f4d-4ae1-a270-04ca7b75c621"},"vehicle_type_id":"4","last_reported":1757758111,"current_range_meters":3200,"station_id":"","pricing_plan_id":"cebpf4jnsgd1na2vs0mg"},{"bike_id":"2fd8d7dd-e28f-4e7e-a1dd-1f2801db136e","system_id":"levelo_inurba_marseille","lat":43.2701,"lon":5.38608,"is_reserved":false,"is_disabled":false,"rental_uris":{"android":"levelo://app?vid=2fd8d7dd-e28f-4e7e-a1dd-1f2801db136e","ios":"levelo://app?vid=2fd8d7dd-e28f-4e7e-a1dd-1f2801db136e"},"vehicle_type_id":"4","last_reported":1757758111,"current_range_meters":3200,"station_id":"","pricing_plan_id":"cebpf4jnsgd1na2vs0mg"},{"bike_id":"37f838a9-21b1-443a-897e-fb0d51235f3b","system_id":"levelo_inurba_marseille","lat":43.27072,"lon":5.42275,"is_reserved":false,"is_disabled":false,"rental_uris":{"android":"levelo://app?vid=37f838a9-21b1-443a-897e-fb0d51235f3b","ios":"levelo://app?vid=37f838a9-21b1-443a-897e-fb0d51235f3b"},"vehicle_type_id":"4","last_reported":1757758111,"current_range_meters":3600,"station_id":"ce4bhk92rcd13ifvqgb0","pricing_plan_id":"cebpf4jnsgd1na2vs0mg"},{"bike_id":"9ef26e0c-6f01-4b10-90fe-cec11146e852","system_id":"levelo_inurba_marseille","lat":43.31027,"lon":5.3727,"is_reserved":false,"is_disabled":false,"rental_uris":{"android":"levelo://app?vid=9ef26e0c-6f01-4b10-90fe-cec11146e852","ios":"levelo://app?vid=9ef26e0c-6f01-4b10-90fe-cec11146e852"},"vehicle_type_id":"4","last_reported":1757758111,"current_range_meters":4000,"station_id":"","pricing_plan_id":"cebpf4jnsgd1na2vs0mg"},{"bike_id":"738a1141-4bff-4bed-ab58-9f74036b33ab","system_id":"levelo_inurba_marseille","lat":43.29258,"lon":5.38774,"is_reserved":false,"is_disabled":false,"rental_uris":{"android":"levelo://app?vid=738a1141-4bff-4bed-ab58-9f74036b33ab","ios":"levelo://app?vid=738a1141-4bff-4bed-ab58-9f74036b33ab"},"vehicle_type_id":"4","last_reported":1757758111,"current_range_meters":4800,"station_id":"","pricing_plan_id":"cebpf4jnsgd1na2vs0mg"},{"bike_id":"54868907-63ea-40a5-8f3a-4ac6edb4c05c","system_id":"levelo_inurba_marseille","lat":43.29204,"lon":5.37776,"is_reserved":false,"is_disabled":false,"rental_uris":{"android":"levelo://app?vid=54868907-63ea-40a5-8f3a-4ac6edb4c05c","ios":"levelo://app?vid=54868907-63ea-40a5-8f3a-4ac6edb4c05c"},"vehicle_type_id":"4","last_reported":1757758111,"current_range_meters":4800,"station_id":"","pricing_plan_id":"cebpf4jnsgd1na2vs0mg"},{"bike_id":"f54274c6-0ecd-4812-8a10-f08e5e6a9621","system_id":"levelo_inurba_marseille","lat":43.28866,"lon":5.42534,"is_reserved":false,"is_disabled":false,"rental_uris":{"android":"levelo://app?vid=f54274c6-0ecd-4812-8a10-f08e5e6a9621","ios":"levelo://app?vid=f54274c6-0ecd-4812-8a10-f08e5e6a9621"},"vehicle_type_id":"4","last_reported":1757758111,"current_range_meters":4800,"station_id":"","pricing_plan_id":"cebpf4jnsgd1na2vs0mg"},{"bike_id":"6a3beb9a-3116-4e99-a5c5-dcdcf54a6a54","system_id":"levelo_inurba_marseille","lat":43.265684,"lon":5.390099,"is_reserved":false,"is_disabled":false,"rental_uris":{"android":"levelo://app?vid=6a3beb9a-3116-4e99-a5c5-dcdcf54a6a54","ios":"levelo://app?vid=6a3beb9a-3116-4e99-a5c5-dcdcf54a6a54"},"vehicle_type_id":"4","last_reported":1757758111,"current_range_meters":5600,"station_id":"ce4bhe12rcd13ifvqf30","pricing_plan_id":"cebpf4jnsgd1na2vs0mg"},{"bike_id":"8e823669-a05c-4f14-a05f-6373bb94f16b","system_id":"levelo_inurba_marseille","lat":43.307288,"lon":5.372792,"is_reserved":false,"is_disabled":false,"rental_uris":{"android":"levelo://app?vid=8e823669-a05c-4f14-a05f-6373bb94f16b","ios":"levelo://app?vid=8e823669-a05c-4f14-a05f-6373bb94f16b"},"vehicle_type_id":"4","last_reported":1757758111,"current_range_meters":6000,"station_id":"","pricing_plan_id":"cebpf4jnsgd1na2vs0mg"},{"bike_id":"fe8d88d6-81c3-42a8-85bb-3d0aa4841db3","system_id":"levelo_inurba_marseille","lat":43.337444,"lon":5.374475,"is_reserved":false,"is_disabled":false,"rental_uris":{"android":"levelo://app?vid=fe8d88d6-81c3-42a8-85bb-3d0aa4841db3","ios":"levelo://app?vid=fe8d88d6-81c3-42a8-85bb-3d0aa4841db3"},"vehicle_type_id":"4","last_reported":1757758111,"current_range_meters":6000,"station_id":"","pricing_plan_id":"cebpf4jnsgd1na2vs0mg"},{"bike_id":"d1de2b7d-3583-4df3-8bfa-43eda5116068","system_id":"levelo_inurba_marseille","lat":43.3374,"lon":5.37468,"is_reserved":false,"is_disabled":false,"rental_uris":{"android":"levelo://app?vid=d1de2b7d-3583-4df3-8bfa-43eda5116068","ios":"levelo://app?vid=d1de2b7d-3583-4df3-8bfa-43eda5116068"},"vehicle_type_id":"4","last_reported":1757758111,"current_range_meters":6000,"station_id":"","pricing_plan_id":"cebpf4jnsgd1na2vs0mg"},{"bike_id":"d1208639-5703-4ac3-a303-6e72a5788218","system_id":"levelo_inurba_marseille","lat":43.33753,"lon":5.37475,"is_reserved":false,"is_disabled":false,"rental_uris":{"android":"levelo://app?vid=d1208639-5703-4ac3-a303-6e72a5788218","ios":"levelo://app?vid=d1208639-5703-4ac3-a303-6e72a5788218"},"vehicle_type_id":"4","last_reported":1757758111,"current_range_meters":6000,"station_id":"","pricing_plan_id":"cebpf4jnsgd1na2vs0mg"},{"bike_id":"999df056-799c-417e-807e-52608d0b797e","system_id":"levelo_inurba_marseille","lat":43.297101,"lon":5.377007,"is_reserved":false,"is_disabled":false,"rental_uris":{"android":"levelo://app?vid=999df056-799c-417e-807e-52608d0b797e","ios":"levelo://app?vid=999df056-799c-417e-807e-52608d0b797e"},"vehicle_type_id":"4","last_reported":1757758111,"current_range_meters":6400,"station_id":"","pricing_plan_id":"cebpf4jnsgd1na2vs0mg"},{"bike_id":"46b329b5-95b1-43f0-83f3-2e72c1c64ca4","system_id":"levelo_inurba_marseille","lat":43.29692,"lon":5.37304,"is_reserved":false,"is_disabled":false,"rental_uris":{"android":"levelo://app?vid=46b329b5-95b1-43f0-83f3-2e72c1c64ca4","ios":"levelo://app?vid=46b329b5-95b1-43f0-83f3-2e72c1c64ca4"},"vehicle_type_id":"4","last_reported":1757758111,"current_range_meters":6400,"station_id":"ce4bgk12rcd13ifvqbj0","pricing_plan_id":"cebpf4jnsgd1na2vs0mg"},{"bike_id":"8691b91f-dbab-4a51-8957-76b87cc674e4","system_id":"levelo_inurba_marseille","lat":43.31504,"lon":5.37264,"is_reserved":false,"is_disabled":false,"rental_uris":{"android":"levelo://app?vid=8691b91f-dbab-4a51-8957-76b87cc674e4","ios":"levelo://app?vid=8691b91f-dbab-4a51-8957-76b87cc674e4"},"vehicle_type_id":"4","last_reported":1757758111,"current_range_meters":6400,"station_id":"ce4bgt12rcd13ifvqcd0","pricing_plan_id":"cebpf4jnsgd1na2vs0mg"},{"bike_id":"5fa589a8-2978-4f3d-955a-27f59373907f","system_id":"levelo_inurba_marseille","lat":43.28709,"lon":5.37931,"is_reserved":false,"is_disabled":false,"rental_uris":{"android":"levelo://app?vid=5fa589a8-2978-4f3d-955a-27f59373907f","ios":"levelo://app?vid=5fa589a8-2978-4f3d-955a-27f59373907f"},"vehicle_type_id":"4","last_reported":1757758111,"current_range_meters":8800,"station_id":"ce4bh9p2rcd13ifvqec0","pricing_plan_id":"cebpf4jnsgd1na2vs0mg"},{"bike_id":"3970e572-099d-45ee-bf41-4fc242e0f0e4","system_id":"levelo_inurba_marseille","lat":43.30414,"lon":5.41285,"is_reserved":false,"is_disabled":false,"rental_uris":{"android":"levelo://app?vid=3970e572-099d-45ee-bf41-4fc242e0f0e4","ios":"levelo://app?vid=3970e572-099d-45ee-bf41-4fc242e0f0e4"},"vehicle_type_id":"4","last_reported":1757758111,"current_range_meters":6800,"station_id":"ce4bhop2rcd13ifvqh8g","pricing_plan_id":"cebpf4jnsgd1na2vs0mg"},{"bike_id":"96e259ac-64d9-4cf7-81fe-9077e2e7bec8","system_id":"levelo_inurba_marseille","lat":43.29573,"lon":5.39961,"is_reserved":false,"is_disabled":false,"rental_uris":{"android":"levelo://app?vid=96e259ac-64d9-4cf7-81fe-9077e2e7bec8","ios":"levelo://app?vid=96e259ac-64d9-4cf7-81fe-9077e2e7bec8"},"vehicle_type_id":"4","last_reported":1757758111,"current_range_meters":6800,"station_id":"ce4bh312rcd13ifvqdj0","pricing_plan_id":"cebpf4jnsgd1na2vs0mg"},{"bike_id":"966fccfb-edf5-45b0-8efd-ce67125d4a08","system_id":"levelo_inurba_marseille","lat":43.30041,"lon":5.37832,"is_reserved":false,"is_disabled":false,"rental_uris":{"android":"levelo://app?vid=966fccfb-edf5-45b0-8efd-ce67125d4a08","ios":"levelo://app?vid=966fccfb-edf5-45b0-8efd-ce67125d4a08"},"vehicle_type_id":"4","last_reported":1757758111,"current_range_meters":7200,"station_id":"","pricing_plan_id":"cebpf4jnsgd1na2vs0mg"},{"bike_id":"7db384a7-4267-4cd8-b9e7-7ca132b3d121","system_id":"levelo_inurba_marseille","lat":43.33885,"lon":5.3555,"is_reserved":false,"is_disabled":false,"rental_uris":{"android":"levelo://app?vid=7db384a7-4267-4cd8-b9e7-7ca132b3d121","ios":"levelo://app?vid=7db384a7-4267-4cd8-b9e7-7ca132b3d121"},"vehicle_type_id":"4","last_reported":1757758111,"current_range_meters":7200,"station_id":"","pricing_plan_id":"cebpf4jnsgd1na2vs0mg"},{"bike_id":"5d0cd144-b10f-406c-80ec-f92f1626f000","system_id":"levelo_inurba_marseille","lat":43.30934,"lon":5.4014,"is_reserved":false,"is_disabled":false,"rental_uris":{"android":"levelo://app?vid=5d0cd144-b10f-406c-80ec-f92f1626f000","ios":"levelo://app?vid=5d0cd144-b10f-406c-80ec-f92f1626f000"},"vehicle_type_id":"4","last_reported":1757758111,"current_range_meters":8000,"station_id":"ce4bgvp2rcd13ifvqct0","pricing_plan_id":"cebpf4jnsgd1na2vs0mg"},{"bike_id":"ac568d9b-aa32-4551-90e7-9697d0dfd168","system_id":"levelo_inurba_marseille","lat":43.3235,"lon":5.36695,"is_reserved":false,"is_disabled":false,"rental_uris":{"android":"levelo://app?vid=ac568d9b-aa32-4551-90e7-9697d0dfd168","ios":"levelo://app?vid=ac568d9b-aa32-4551-90e7-9697d0dfd168"},"vehicle_type_id":"4","last_reported":1757758111,"current_range_meters":8000,"station_id":"ce4bhsh2rcd13ifvqi2g","pricing_plan_id":"cebpf4jnsgd1na2vs0mg"},{"bike_id":"799195ec-b884-46fa-8e8e-94f3a290a369","system_id":"levelo_inurba_marseille","lat":43.30891,"lon":5.39616,"is_reserved":false,"is_disabled":false,"rental_uris":{"android":"levelo://app?vid=799195ec-b884-46fa-8e8e-94f3a290a369","ios":"levelo://app?vid=799195ec-b884-46fa-8e8e-94f3a290a369"},"vehicle_type_id":"4","last_reported":1757758111,"current_range_meters":8000,"station_id":"ce4bh012rcd13ifvqcv0","pricing_plan_id":"cebpf4jnsgd1na2vs0mg"},{"bike_id":"3715d1cb-e8e1-4a49-b67d-4b7c6f27ac0d","system_id":"levelo_inurba_marseille","lat":43.24069,"lon":5.37762,"is_reserved":false,"is_disabled":false,"rental_uris":{"android":"levelo://app?vid=3715d1cb-e8e1-4a49-b67d-4b7c6f27ac0d","ios":"levelo://app?vid=3715d1cb-e8e1-4a49-b67d-4b7c6f27ac0d"},"vehicle_type_id":"4","last_reported":1757758111,"current_range_meters":8000,"station_id":"ce4bhnp2rcd13ifvqgvg","pricing_plan_id":"cebpf4jnsgd1na2vs0mg"},{"bike_id":"f0590b97-8ce9-455f-8fbb-b584e1bbd5c6","system_id":"levelo_inurba_marseille","lat":43.23966,"lon":5.36624,"is_reserved":false,"is_disabled":true,"rental_uris":{"android":"levelo://app?vid=f0590b97-8ce9-455f-8fbb-b584e1bbd5c6","ios":"levelo://app?vid=f0590b97-8ce9-455f-8fbb-b584e1bbd5c6"},"vehicle_type_id":"4","last_reported":1757758111,"current_range_meters":8000,"station_id":"ce4bhi12rcd13ifvqfp0","pricing_plan_id":"cebpf4jnsgd1na2vs0mg"},{"bike_id":"a04909f0-8cf2-4881-9eb9-dc7d2fda7c17","system_id":"levelo_inurba_marseille","lat":43.28921,"lon":5.36411,"is_reserved":false,"is_disabled":false,"rental_uris":{"android":"levelo://app?vid=a04909f0-8cf2-4881-9eb9-dc7d2fda7c17","ios":"levelo://app?vid=a04909f0-8cf2-4881-9eb9-dc7d2fda7c17"},"vehicle_type_id":"4","last_reported":1757758111,"current_range_meters":8000,"station_id":"ce4bhc92rcd13ifvqetg","pricing_plan_id":"cebpf4jnsgd1na2vs0mg"},{"bike_id":"7ac2807f-33ac-4acb-9577-ac6b38f1feba","system_id":"levelo_inurba_marseille","lat":43.2979,"lon":5.38083,"is_reserved":false,"is_disabled":false,"rental_uris":{"android":"levelo://app?vid=7ac2807f-33ac-4acb-9577-ac6b38f1feba","ios":"levelo://app?vid=7ac2807f-33ac-4acb-9577-ac6b38f1feba"},"vehicle_type_id":"4","last_reported":1757758111,"current_range_meters":8400,"station_id":"ce4bgip2rcd13ifvqbb0","pricing_plan_id":"cebpf4jnsgd1na2vs0mg"},{"bike_id":"069b0fee-af69-4958-a06e-d0bd95d527ee","system_id":"levelo_inurba_marseille","lat":43.21178,"lon":5.35082,"is_reserved":false,"is_disabled":false,"rental_uris":{"android":"levelo://app?vid=069b0fee-af69-4958-a06e-d0bd95d527ee","ios":"levelo://app?vid=069b0fee-af69-4958-a06e-d0bd95d527ee"},"vehicle_type_id":"4","last_reported":1757758111,"current_range_meters":8400,"station_id":"st_cvj6sg6p6f1abm77japg","pricing_plan_id":"cebpf4jnsgd1na2vs0mg"},{"bike_id":"7fa34ec0-a293-418f-bfd5-6e8a3d326e13","system_id":"levelo_inurba_marseille","lat":43.309929,"lon":5.375327,"is_reserved":false,"is_disabled":false,"rental_uris":{"android":"levelo://app?vid=7fa34ec0-a293-418f-bfd5-6e8a3d326e13","ios":"levelo://app?vid=7fa34ec0-a293-418f-bfd5-6e8a3d326e13"},"vehicle_type_id":"4","last_reported":1757758111,"current_range_meters":8400,"station_id":"","pricing_plan_id":"cebpf4jnsgd1na2vs0mg"},{"bike_id":"68422fda-945c-402d-b886-a4fecef0c346","system_id":"levelo_inurba_marseille","lat":43.29166,"lon":5.37136,"is_reserved":false,"is_disabled":true,"rental_uris":{"android":"levelo://app?vid=68422fda-945c-402d-b886-a4fecef0c346","ios":"levelo://app?vid=68422fda-945c-402d-b886-a4fecef0c346"},"vehicle_type_id":"4","last_reported":1757758111,"current_range_meters":8800,"station_id":"ce4bha92rcd13ifvqeh0","pricing_plan_id":"cebpf4jnsgd1na2vs0mg"},{"bike_id":"0e0c8dec-1a42-46dd-bb35-7088192ded70","system_id":"levelo_inurba_marseille","lat":43.297149,"lon":5.371476,"is_reserved":false,"is_disabled":false,"rental_uris":{"android":"levelo://app?vid=0e0c8dec-1a42-46dd-bb35-7088192ded70","ios":"levelo://app?vid=0e0c8dec-1a42-46dd-bb35-7088192ded70"},"vehicle_type_id":"4","last_reported":1757758111,"current_range_meters":9200,"station_id":"","pricing_plan_id":"cebpf4jnsgd1na2vs0mg"},{"bike_id":"3dcfc684-b652-4cb0-aa15-d29459bae59b","system_id":"levelo_inurba_marseille","lat":43.29222,"lon":5.36063,"is_reserved":false,"is_disabled":false,"rental_uris":{"android":"levelo://app?vid=3dcfc684-b652-4cb0-aa15-d29459bae59b","ios":"levelo://app?vid=3dcfc684-b652-4cb0-aa15-d29459bae59b"},"vehicle_type_id":"4","last_reported":1757758111,"current_range_meters":9200,"station_id":"ce4bhbh2rcd13ifvqeqg","pricing_plan_id":"cebpf4jnsgd1na2vs0mg"},{"bike_id":"3bd595b7-af3b-43b1-8697-1bcb2a61af6f","system_id":"levelo_inurba_marseille","lat":43.27969,"lon":5.40027,"is_reserved":false,"is_disabled":true,"rental_uris":{"android":"levelo://app?vid=3bd595b7-af3b-43b1-8697-1bcb2a61af6f","ios":"levelo://app?vid=3bd595b7-af3b-43b1-8697-1bcb2a61af6f"},"vehicle_type_id":"4","last_reported":1757758111,"current_range_meters":9200,"station_id":"ce4bho92rcd13ifvqh4g","pricing_plan_id":"cebpf4jnsgd1na2vs0mg"},{"bike_id":"dedb7599-690d-475b-b3da-2a8beb6af3a5","system_id":"levelo_inurba_marseille","lat":43.2678,"lon":5.39422,"is_reserved":false,"is_disabled":false,"rental_uris":{"android":"levelo://app?vid=dedb7599-690d-475b-b3da-2a8beb6af3a5","ios":"levelo://app?vid=dedb7599-690d-475b-b3da-2a8beb6af3a5"},"vehicle_type_id":"4","last_reported":1757758111,"current_range_meters":9200,"station_id":"ce4bhh12rcd13ifvqfg0","pricing_plan_id":"cebpf4jnsgd1na2vs0mg"},{"bike_id":"d28372dc-72c1-4139-8adb-ec96ca36acdc","system_id":"levelo_inurba_marseille","lat":43.29548,"lon":5.37515,"is_reserved":false,"is_disabled":false,"rental_uris":{"android":"levelo://app?vid=d28372dc-72c1-4139-8adb-ec96ca36acdc","ios":"levelo://app?vid=d28372dc-72c1-4139-8adb-ec96ca36acdc"},"vehicle_type_id":"4","last_reported":1757758111,"current_range_meters":9200,"station_id":"ce4bgkp2rcd13ifvqbmg","pricing_plan_id":"cebpf4jnsgd1na2vs0mg"},{"bike_id":"b55a68f1-2e50-4879-8e92-1d0ddbfda594","system_id":"levelo_inurba_marseille","lat":43.30419,"lon":5.39753,"is_reserved":false,"is_disabled":false,"rental_uris":{"android":"levelo://app?vid=b55a68f1-2e50-4879-8e92-1d0ddbfda594","ios":"levelo://app?vid=b55a68f1-2e50-4879-8e92-1d0ddbfda594"},"vehicle_type_id":"4","last_reported":1757758111,"current_range_meters":9200,"station_id":"ce4bh092rcd13ifvqd20","pricing_plan_id":"cebpf4jnsgd1na2vs0mg"},{"bike_id":"8d156254-22bc-4e70-b344-be1b38d6ced7","system_id":"levelo_inurba_marseille","lat":43.31356,"lon":5.39707,"is_reserved":false,"is_disabled":false,"rental_uris":{"android":"levelo://app?vid=8d156254-22bc-4e70-b344-be1b38d6ced7","ios":"levelo://app?vid=8d156254-22bc-4e70-b344-be1b38d6ced7"},"vehicle_type_id":"4","last_reported":1757758111,"current_range_meters":9200,"station_id":"ce4bgvp2rcd13ifvqcu0","pricing_plan_id":"cebpf4jnsgd1na2vs0mg"},{"bike_id":"972b4c5f-3a00-4bb2-9116-b81f2cecc9f2","system_id":"levelo_inurba_marseille","lat":43.33764,"lon":5.37483,"is_reserved":false,"is_disabled":false,"rental_uris":{"android":"levelo://app?vid=972b4c5f-3a00-4bb2-9116-b81f2cecc9f2","ios":"levelo://app?vid=972b4c5f-3a00-4bb2-9116-b81f2cecc9f2"},"vehicle_type_id":"4","last_reported":1757758111,"current_range_meters":9600,"station_id":"","pricing_plan_id":"cebpf4jnsgd1na2vs0mg"},{"bike_id":"9f42d920-70ef-40f5-8a56-79f71c89e389","system_id":"levelo_inurba_marseille","lat":43.30415,"lon":5.41301,"is_reserved":false,"is_disabled":false,"rental_uris":{"android":"levelo://app?vid=9f42d920-70ef-40f5-8a56-79f71c89e389","ios":"levelo://app?vid=9f42d920-70ef-40f5-8a56-79f71c89e389"},"vehicle_type_id":"4","last_reported":1757758111,"current_range_meters":10000,"station_id":"ce4bhop2rcd13ifvqh8g","pricing_plan_id":"cebpf4jnsgd1na2vs0mg"},{"bike_id":"6160ec68-8028-4acf-a413-187c4e944de2","system_id":"levelo_inurba_marseille","lat":43.3016,"lon":5.38086,"is_reserved":false,"is_disabled":false,"rental_uris":{"android":"levelo://app?vid=6160ec68-8028-4acf-a413-187c4e944de2","ios":"levelo://app?vid=6160ec68-8028-4acf-a413-187c4e944de2"},"vehicle_type_id":"4","last_reported":1757758111,"current_range_meters":10000,"station_id":"ce4bgjp2rcd13ifvqbh0","pricing_plan_id":"cebpf4jnsgd1na2vs0mg"},{"bike_id":"b558f3d9-0976-438a-9dec-f10977a5d937","system_id":"levelo_inurba_marseille","lat":43.26071,"lon":5.39419,"is_reserved":false,"is_disabled":false,"rental_uris":{"android":"levelo://app?vid=b558f3d9-0976-438a-9dec-f10977a5d937","ios":"levelo://app?vid=b558f3d9-0976-438a-9dec-f10977a5d937"},"vehicle_type_id":"4","last_reported":1757758111,"current_range_meters":10000,"station_id":"ce4bhh92rcd13ifvqfj0","pricing_plan_id":"cebpf4jnsgd1na2vs0mg"},{"bike_id":"7d654f95-df32-4d2d-8a09-880ff72e6e5e","system_id":"levelo_inurba_marseille","lat":43.29587,"lon":5.37515,"is_reserved":false,"is_disabled":false,"rental_uris":{"android":"levelo://app?vid=7d654f95-df32-4d2d-8a09-880ff72e6e5e","ios":"levelo://app?vid=7d654f95-df32-4d2d-8a09-880ff72e6e5e"},"vehicle_type_id":"4","last_reported":1757758111,"current_range_meters":10800,"station_id":"ce4bgh92rcd13ifvqb50","pricing_plan_id":"cebpf4jnsgd1na2vs0mg"},{"bike_id":"0f25d523-7df0-46a9-a7c6-e984fe228d86","system_id":"levelo_inurba_marseille","lat":43.29537,"lon":5.38556,"is_reserved":false,"is_disabled":true,"rental_uris":{"android":"levelo://app?vid=0f25d523-7df0-46a9-a7c6-e984fe228d86","ios":"levelo://app?vid=0f25d523-7df0-46a9-a7c6-e984fe228d86"},"vehicle_type_id":"4","last_reported":1757758111,"current_range_meters":10800,"station_id":"ce4bgih2rcd13ifvqba0","pricing_plan_id":"cebpf4jnsgd1na2vs0mg"},{"bike_id":"0f646e1b-1523-4646-9814-cb68b8738000","system_id":"levelo_inurba_marseille","lat":43.28999,"lon":5.35607,"is_reserved":false,"is_disabled":false,"rental_uris":{"android":"levelo://app?vid=0f646e1b-1523-4646-9814-cb68b8738000","ios":"levelo://app?vid=0f646e1b-1523-4646-9814-cb68b8738000"},"vehicle_type_id":"4","last_reported":1757758111,"current_range_meters":11200,"station_id":"ce4bhb92rcd13ifvqen0","pricing_plan_id":"cebpf4jnsgd1na2vs0mg"},{"bike_id":"9ea214cd-c5f8-441b-9338-7fcf595de156","system_id":"levelo_inurba_marseille","lat":43.21179,"lon":5.35069,"is_reserved":false,"is_disabled":false,"rental_uris":{"android":"levelo://app?vid=9ea214cd-c5f8-441b-9338-7fcf595de156","ios":"levelo://app?vid=9ea214cd-c5f8-441b-9338-7fcf595de156"},"vehicle_type_id":"4","last_reported":1757758111,"current_range_meters":11200,"station_id":"st_cvj6sg6p6f1abm77japg","pricing_plan_id":"cebpf4jnsgd1na2vs0mg"},{"bike_id":"775af279-8ac9-4585-9121-809be9b13265","system_id":"levelo_inurba_marseille","lat":43.337775,"lon":5.374412,"is_reserved":false,"is_disabled":false,"rental_uris":{"android":"levelo://app?vid=775af279-8ac9-4585-9121-809be9b13265","ios":"levelo://app?vid=775af279-8ac9-4585-9121-809be9b13265"},"vehicle_type_id":"4","last_reported":1757758111,"current_range_meters":11200,"station_id":"","pricing_plan_id":"cebpf4jnsgd1na2vs0mg"},{"bike_id":"f24cd637-2a13-4120-b81f-882de2ef79b6","system_id":"levelo_inurba_marseille","lat":43.309232,"lon":5.401506,"is_reserved":false,"is_disabled":false,"rental_uris":{"android":"levelo://app?vid=f24cd637-2a13-4120-b81f-882de2ef79b6","ios":"levelo://app?vid=f24cd637-2a13-4120-b81f-882de2ef79b6"},"vehicle_type_id":"4","last_reported":1757758111,"current_range_meters":11200,"station_id":"ce4bgvp2rcd13ifvqct0","pricing_plan_id":"cebpf4jnsgd1na2vs0mg"},{"bike_id":"4266b374-d4bf-4fd2-bb94-51b2d7d40946","system_id":"levelo_inurba_marseille","lat":43.22571,"lon":5.41626,"is_reserved":false,"is_disabled":false,"rental_uris":{"android":"levelo://app?vid=4266b374-d4bf-4fd2-bb94-51b2d7d40946","ios":"levelo://app?vid=4266b374-d4bf-4fd2-bb94-51b2d7d40946"},"vehicle_type_id":"4","last_reported":1757758111,"current_range_meters":11200,"station_id":"st_d2o4gvlbi1j2169b742g","pricing_plan_id":"cebpf4jnsgd1na2vs0mg"},{"bike_id":"89724e0f-d6a6-4e81-9dc8-40ed9db09b04","system_id":"levelo_inurba_marseille","lat":43.28601,"lon":5.3707,"is_reserved":false,"is_disabled":false,"rental_uris":{"android":"levelo://app?vid=89724e0f-d6a6-4e81-9dc8-40ed9db09b04","ios":"levelo://app?vid=89724e0f-d6a6-4e81-9dc8-40ed9db09b04"},"vehicle_type_id":"4","last_reported":1757758111,"current_range_meters":11200,"station_id":"ce4bht12rcd13ifvqi60","pricing_plan_id":"cebpf4jnsgd1na2vs0mg"},{"bike_id":"a24c4696-920b-4645-847f-87e0b46915a6","system_id":"levelo_inurba_marseille","lat":43.324237,"lon":5.424923,"is_reserved":false,"is_disabled":false,"rental_uris":{"android":"levelo://app?vid=a24c4696-920b-4645-847f-87e0b46915a6","ios":"levelo://app?vid=a24c4696-920b-4645-847f-87e0b46915a6"},"vehicle_type_id":"4","last_reported":1757758111,"current_range_meters":11600,"station_id":"","pricing_plan_id":"cebpf4jnsgd1na2vs0mg"},{"bike_id":"e313b345-ef08-4d16-85af-9ecb95c2b843","system_id":"levelo_inurba_marseille","lat":43.30619,"lon":5.37237,"is_reserved":false,"is_disabled":false,"rental_uris":{"android":"levelo://app?vid=e313b345-ef08-4d16-85af-9ecb95c2b843","ios":"levelo://app?vid=e313b345-ef08-4d16-85af-9ecb95c2b843"},"vehicle_type_id":"4","last_reported":1757758111,"current_range_meters":11600,"station_id":"ce4bgqh2rcd13ifvqc4g","pricing_plan_id":"cebpf4jnsgd1na2vs0mg"},{"bike_id":"b2aeb6a5-74a2-46fb-ba9a-314058d95425","system_id":"levelo_inurba_marseille","lat":43.231924,"lon":5.355541,"is_reserved":false,"is_disabled":false,"rental_uris":{"android":"levelo://app?vid=b2aeb6a5-74a2-46fb-ba9a-314058d95425","ios":"levelo://app?vid=b2aeb6a5-74a2-46fb-ba9a-314058d95425"},"vehicle_type_id":"4","last_reported":1757758111,"current_range_meters":11600,"station_id":"ce4bhu92rcd13ifvqi70","pricing_plan_id":"cebpf4jnsgd1na2vs0mg"},{"bike_id":"99e898d4-594b-4c6f-a556-7a9c7c5c178f","system_id":"levelo_inurba_marseille","lat":43.26929,"lon":5.38634,"is_reserved":false,"is_disabled":false,"rental_uris":{"android":"levelo://app?vid=99e898d4-594b-4c6f-a556-7a9c7c5c178f","ios":"levelo://app?vid=99e898d4-594b-4c6f-a556-7a9c7c5c178f"},"vehicle_type_id":"4","last_reported":1757758111,"current_range_meters":11600,"station_id":"ce4bhh92rcd13ifvqfh0","pricing_plan_id":"cebpf4jnsgd1na2vs0mg"},{"bike_id":"7f696ba1-833f-412e-8b5d-d4d815a574fc","system_id":"levelo_inurba_marseille","lat":43.29847,"lon":5.37173,"is_reserved":false,"is_disabled":false,"rental_uris":{"android":"levelo://app?vid=7f696ba1-833f-412e-8b5d-d4d815a574fc","ios":"levelo://app?vid=7f696ba1-833f-412e-8b5d-d4d815a574fc"},"vehicle_type_id":"4","last_reported":1757758111,"current_range_meters":11600,"station_id":"","pricing_plan_id":"cebpf4jnsgd1na2vs0mg"},{"bike_id":"49672130-5e5d-4bd8-b10c-10c3bec7a880","system_id":"levelo_inurba_marseille","lat":43.35013,"lon":5.35012,"is_reserved":false,"is_disabled":false,"rental_uris":{"android":"levelo://app?vid=49672130-5e5d-4bd8-b10c-10c3bec7a880","ios":"levelo://app?vid=49672130-5e5d-4bd8-b10c-10c3bec7a880"},"vehicle_type_id":"4","last_reported":1757758111,"current_range_meters":12000,"station_id":"","pricing_plan_id":"cebpf4jnsgd1na2vs0mg"},{"bike_id":"6515536f-56de-4109-b7a1-24c742aed225","system_id":"levelo_inurba_marseille","lat":43.32014,"lon":5.37227,"is_reserved":false,"is_disabled":false,"rental_uris":{"android":"levelo://app?vid=6515536f-56de-4109-b7a1-24c742aed225","ios":"levelo://app?vid=6515536f-56de-4109-b7a1-24c742aed225"},"vehicle_type_id":"4","last_reported":1757758111,"current_range_meters":12000,"station_id":"","pricing_plan_id":"cebpf4jnsgd1na2vs0mg"},{"bike_id":"468b29b7-c0e4-4fb5-98d3-7139e8424f60","system_id":"levelo_inurba_marseille","lat":43.32111,"lon":5.36776,"is_reserved":false,"is_disabled":false,"rental_uris":{"android":"levelo://app?vid=468b29b7-c0e4-4fb5-98d3-7139e8424f60","ios":"levelo://app?vid=468b29b7-c0e4-4fb5-98d3-7139e8424f60"},"vehicle_type_id":"4","last_reported":1757758111,"current_range_meters":12000,"station_id":"ce4bhrh2rcd13ifvqhug","pricing_plan_id":"cebpf4jnsgd1na2vs0mg"},{"bike_id":"9fdce098-492a-40f9-ae29-95caf53fef79","system_id":"levelo_inurba_marseille","lat":43.32678,"lon":5.39138,"is_reserved":false,"is_disabled":false,"rental_uris":{"android":"levelo://app?vid=9fdce098-492a-40f9-ae29-95caf53fef79","ios":"levelo://app?vid=9fdce098-492a-40f9-ae29-95caf53fef79"},"vehicle_type_id":"4","last_reported":1757758111,"current_range_meters":12000,"station_id":"","pricing_plan_id":"cebpf4jnsgd1na2vs0mg"},{"bike_id":"afa5b270-1b82-4b90-8fe4-7ae439ce006b","system_id":"levelo_inurba_marseille","lat":43.27981,"lon":5.41655,"is_reserved":false,"is_disabled":false,"rental_uris":{"android":"levelo://app?vid=afa5b270-1b82-4b90-8fe4-7ae439ce006b","ios":"levelo://app?vid=afa5b270-1b82-4b90-8fe4-7ae439ce006b"},"vehicle_type_id":"4","last_reported":1757758111,"current_range_meters":12000,"station_id":"ce4bho12rcd13ifvqh1g","pricing_plan_id":"cebpf4jnsgd1na2vs0mg"},{"bike_id":"81d0dfa1-7c2f-4edd-80a8-2b5428753fe2","system_id":"levelo_inurba_marseille","lat":43.29606,"lon":5.37736,"is_reserved":false,"is_disabled":false,"rental_uris":{"android":"levelo://app?vid=81d0dfa1-7c2f-4edd-80a8-2b5428753fe2","ios":"levelo://app?vid=81d0dfa1-7c2f-4edd-80a8-2b5428753fe2"},"vehicle_type_id":"4","last_reported":1757758111,"current_range_meters":12400,"station_id":"ce4bgi92rcd13ifvqb90","pricing_plan_id":"cebpf4jnsgd1na2vs0mg"},{"bike_id":"140f33b8-1102-4f7e-b0ef-d83c5cd8bb96","system_id":"levelo_inurba_marseille","lat":43.23192,"lon":5.3558,"is_reserved":false,"is_disabled":false,"rental_uris":{"android":"levelo://app?vid=140f33b8-1102-4f7e-b0ef-d83c5cd8bb96","ios":"levelo://app?vid=140f33b8-1102-4f7e-b0ef-d83c5cd8bb96"},"vehicle_type_id":"4","last_reported":1757758111,"current_range_meters":12400,"station_id":"ce4bhu92rcd13ifvqi70","pricing_plan_id":"cebpf4jnsgd1na2vs0mg"},{"bike_id":"a8200689-d7b2-4d2e-b5a2-52cc95231e31","system_id":"levelo_inurba_marseille","lat":43.24176,"lon":5.3638,"is_reserved":false,"is_disabled":false,"rental_uris":{"android":"levelo://app?vid=a8200689-d7b2-4d2e-b5a2-52cc95231e31","ios":"levelo://app?vid=a8200689-d7b2-4d2e-b5a2-52cc95231e31"},"vehicle_type_id":"4","last_reported":1757758111,"current_range_meters":12400,"station_id":"cpo36qri1sfpv3e86is0","pricing_plan_id":"cebpf4jnsgd1na2vs0mg"},{"bike_id":"858374bb-59c5-4ecc-9916-a26e9e545707","system_id":"levelo_inurba_marseille","lat":43.25393,"lon":5.41901,"is_reserved":false,"is_disabled":false,"rental_uris":{"android":"levelo://app?vid=858374bb-59c5-4ecc-9916-a26e9e545707","ios":"levelo://app?vid=858374bb-59c5-4ecc-9916-a26e9e545707"},"vehicle_type_id":"4","last_reported":1757758111,"current_range_meters":12400,"station_id":"","pricing_plan_id":"cebpf4jnsgd1na2vs0mg"},{"bike_id":"7068895e-81c5-46c1-85a7-fdbb8280530f","system_id":"levelo_inurba_marseille","lat":43.23971,"lon":5.36623,"is_reserved":false,"is_disabled":false,"rental_uris":{"android":"levelo://app?vid=7068895e-81c5-46c1-85a7-fdbb8280530f","ios":"levelo://app?vid=7068895e-81c5-46c1-85a7-fdbb8280530f"},"vehicle_type_id":"4","last_reported":1757758111,"current_range_meters":12400,"station_id":"ce4bhi12rcd13ifvqfp0","pricing_plan_id":"cebpf4jnsgd1na2vs0mg"},{"bike_id":"0c78ed8a-2af8-4f2c-895d-0de884f1c9f2","system_id":"levelo_inurba_marseille","lat":43.298883,"lon":5.436724,"is_reserved":false,"is_disabled":false,"rental_uris":{"android":"levelo://app?vid=0c78ed8a-2af8-4f2c-895d-0de884f1c9f2","ios":"levelo://app?vid=0c78ed8a-2af8-4f2c-895d-0de884f1c9f2"},"vehicle_type_id":"4","last_reported":1757758111,"current_range_meters":12400,"station_id":"ce4bhpp2rcd13ifvqhfg","pricing_plan_id":"cebpf4jnsgd1na2vs0mg"},{"bike_id":"091601b3-3c5a-42ff-866e-cde10b59b3c0","system_id":"levelo_inurba_marseille","lat":43.30776,"lon":5.37455,"is_reserved":false,"is_disabled":false,"rental_uris":{"android":"levelo://app?vid=091601b3-3c5a-42ff-866e-cde10b59b3c0","ios":"levelo://app?vid=091601b3-3c5a-42ff-866e-cde10b59b3c0"},"vehicle_type_id":"4","last_reported":1757758111,"current_range_meters":12400,"station_id":"","pricing_plan_id":"cebpf4jnsgd1na2vs0mg"},{"bike_id":"10dfb71d-b4fe-4c66-9e42-a774a54e4626","system_id":"levelo_inurba_marseille","lat":43.25106,"lon":5.40343,"is_reserved":false,"is_disabled":false,"rental_uris":{"android":"levelo://app?vid=10dfb71d-b4fe-4c66-9e42-a774a54e4626","ios":"levelo://app?vid=10dfb71d-b4fe-4c66-9e42-a774a54e4626"},"vehicle_type_id":"4","last_reported":1757758111,"current_range_meters":12400,"station_id":"ce4bhlh2rcd13ifvqgig","pricing_plan_id":"cebpf4jnsgd1na2vs0mg"},{"bike_id":"e43fdc27-4283-4e61-97ff-9c2689a8903a","system_id":"levelo_inurba_marseille","lat":43.246598,"lon":5.381612,"is_reserved":false,"is_disabled":false,"rental_uris":{"android":"levelo://app?vid=e43fdc27-4283-4e61-97ff-9c2689a8903a","ios":"levelo://app?vid=e43fdc27-4283-4e61-97ff-9c2689a8903a"},"vehicle_type_id":"4","last_reported":1757758111,"current_range_meters":12800,"station_id":"ce4bhih2rcd13ifvqfr0","pricing_plan_id":"cebpf4jnsgd1na2vs0mg"},{"bike_id":"d987f56d-76e3-4f7b-9b84-5022d38036d0","system_id":"levelo_inurba_marseille","lat":43.25342,"lon":5.42162,"is_reserved":false,"is_disabled":false,"rental_uris":{"android":"levelo://app?vid=d987f56d-76e3-4f7b-9b84-5022d38036d0","ios":"levelo://app?vid=d987f56d-76e3-4f7b-9b84-5022d38036d0"},"vehicle_type_id":"4","last_reported":1757758111,"current_range_meters":12800,"station_id":"st_d2m65c5bi1j21697t3ng","pricing_plan_id":"cebpf4jnsgd1na2vs0mg"},{"bike_id":"8a4d2a94-6dcc-48a7-bce6-1f6f98746be6","system_id":"levelo_inurba_marseille","lat":43.275159,"lon":5.424376,"is_reserved":false,"is_disabled":false,"rental_uris":{"android":"levelo://app?vid=8a4d2a94-6dcc-48a7-bce6-1f6f98746be6","ios":"levelo://app?vid=8a4d2a94-6dcc-48a7-bce6-1f6f98746be6"},"vehicle_type_id":"4","last_reported":1757758111,"current_range_meters":12800,"station_id":"ce4bhn92rcd13ifvqgrg","pricing_plan_id":"cebpf4jnsgd1na2vs0mg"},{"bike_id":"5d2d49c3-df0a-4e43-a031-b4854d84eee8","system_id":"levelo_inurba_marseille","lat":43.23947,"lon":5.36637,"is_reserved":false,"is_disabled":false,"rental_uris":{"android":"levelo://app?vid=5d2d49c3-df0a-4e43-a031-b4854d84eee8","ios":"levelo://app?vid=5d2d49c3-df0a-4e43-a031-b4854d84eee8"},"vehicle_type_id":"4","last_reported":1757758111,"current_range_meters":13600,"station_id":"ce4bhi12rcd13ifvqfp0","pricing_plan_id":"cebpf4jnsgd1na2vs0mg"},{"bike_id":"9f13e3a4-d10f-4c9f-9d20-fdf23ab151a6","system_id":"levelo_inurba_marseille","lat":43.255726,"lon":5.382424,"is_reserved":false,"is_disabled":false,"rental_uris":{"android":"levelo://app?vid=9f13e3a4-d10f-4c9f-9d20-fdf23ab151a6","ios":"levelo://app?vid=9f13e3a4-d10f-4c9f-9d20-fdf23ab151a6"},"vehicle_type_id":"4","last_reported":1757758111,"current_range_meters":13600,"station_id":"ce4bhih2rcd13ifvqfs0","pricing_plan_id":"cebpf4jnsgd1na2vs0mg"},{"bike_id":"d5c98035-fc72-4062-a3ec-13203f68e8ed","system_id":"levelo_inurba_marseille","lat":43.288639,"lon":5.425201,"is_reserved":false,"is_disabled":false,"rental_uris":{"android":"levelo://app?vid=d5c98035-fc72-4062-a3ec-13203f68e8ed","ios":"levelo://app?vid=d5c98035-fc72-4062-a3ec-13203f68e8ed"},"vehicle_type_id":"4","last_reported":1757758111,"current_range_meters":13600,"station_id":"","pricing_plan_id":"cebpf4jnsgd1na2vs0mg"},{"bike_id":"dcae514d-9200-43c1-9267-dee91427cf46","system_id":"levelo_inurba_marseille","lat":43.2509,"lon":5.39523,"is_reserved":false,"is_disabled":false,"rental_uris":{"android":"levelo://app?vid=dcae514d-9200-43c1-9267-dee91427cf46","ios":"levelo://app?vid=dcae514d-9200-43c1-9267-dee91427cf46"},"vehicle_type_id":"4","last_reported":1757758111,"current_range_meters":13600,"station_id":"ce4bhm12rcd13ifvqgkg","pricing_plan_id":"cebpf4jnsgd1na2vs0mg"},{"bike_id":"c095f4ef-42ae-4d8a-816e-ee13d4f36624","system_id":"levelo_inurba_marseille","lat":43.28753,"lon":5.37991,"is_reserved":false,"is_disabled":false,"rental_uris":{"android":"levelo://app?vid=c095f4ef-42ae-4d8a-816e-ee13d4f36624","ios":"levelo://app?vid=c095f4ef-42ae-4d8a-816e-ee13d4f36624"},"vehicle_type_id":"4","last_reported":1757758111,"current_range_meters":14000,"station_id":"","pricing_plan_id":"cebpf4jnsgd1na2vs0mg"},{"bike_id":"e213f39e-a4d8-4608-9f3f-d29cabced392","system_id":"levelo_inurba_marseille","lat":43.30241,"lon":5.40062,"is_reserved":false,"is_disabled":false,"rental_uris":{"android":"levelo://app?vid=e213f39e-a4d8-4608-9f3f-d29cabced392","ios":"levelo://app?vid=e213f39e-a4d8-4608-9f3f-d29cabced392"},"vehicle_type_id":"4","last_reported":1757758111,"current_range_meters":14000,"station_id":"ce4bgvh2rcd13ifvqcs0","pricing_plan_id":"cebpf4jnsgd1na2vs0mg"},{"bike_id":"1f361235-877f-4750-ae21-f35369fb4a6c","system_id":"levelo_inurba_marseille","lat":43.30923,"lon":5.40141,"is_reserved":false,"is_disabled":false,"rental_uris":{"android":"levelo://app?vid=1f361235-877f-4750-ae21-f35369fb4a6c","ios":"levelo://app?vid=1f361235-877f-4750-ae21-f35369fb4a6c"},"vehicle_type_id":"4","last_reported":1757758111,"current_range_meters":14000,"station_id":"ce4bgvp2rcd13ifvqct0","pricing_plan_id":"cebpf4jnsgd1na2vs0mg"},{"bike_id":"84be000e-b186-4e60-8aaa-b7a0f42a7175","system_id":"levelo_inurba_marseille","lat":43.337616,"lon":5.374353,"is_reserved":false,"is_disabled":false,"rental_uris":{"android":"levelo://app?vid=84be000e-b186-4e60-8aaa-b7a0f42a7175","ios":"levelo://app?vid=84be000e-b186-4e60-8aaa-b7a0f42a7175"},"vehicle_type_id":"4","last_reported":1757758111,"current_range_meters":14000,"station_id":"","pricing_plan_id":"cebpf4jnsgd1na2vs0mg"},{"bike_id":"7dc00165-e583-4bd0-bbf8-f77743c96ba8","system_id":"levelo_inurba_marseille","lat":43.323639,"lon":5.367573,"is_reserved":false,"is_disabled":false,"rental_uris":{"android":"levelo://app?vid=7dc00165-e583-4bd0-bbf8-f77743c96ba8","ios":"levelo://app?vid=7dc00165-e583-4bd0-bbf8-f77743c96ba8"},"vehicle_type_id":"4","last_reported":1757758111,"current_range_meters":14000,"station_id":"ce4bhsh2rcd13ifvqi2g","pricing_plan_id":"cebpf4jnsgd1na2vs0mg"},{"bike_id":"a18d488d-bc79-4ae3-9700-f844975e97be","system_id":"levelo_inurba_marseille","lat":43.310819,"lon":5.424338,"is_reserved":false,"is_disabled":false,"rental_uris":{"android":"levelo://app?vid=a18d488d-bc79-4ae3-9700-f844975e97be","ios":"levelo://app?vid=a18d488d-bc79-4ae3-9700-f844975e97be"},"vehicle_type_id":"4","last_reported":1757758111,"current_range_meters":14000,"station_id":"ce4bhp92rcd13ifvqhag","pricing_plan_id":"cebpf4jnsgd1na2vs0mg"},{"bike_id":"6227a315-3436-4b35-be59-ce30ee280b83","system_id":"levelo_inurba_marseille","lat":43.2921,"lon":5.36055,"is_reserved":false,"is_disabled":false,"rental_uris":{"android":"levelo://app?vid=6227a315-3436-4b35-be59-ce30ee280b83","ios":"levelo://app?vid=6227a315-3436-4b35-be59-ce30ee280b83"},"vehicle_type_id":"4","last_reported":1757758111,"current_range_meters":14000,"station_id":"ce4bhbh2rcd13ifvqeqg","pricing_plan_id":"cebpf4jnsgd1na2vs0mg"},{"bike_id":"d5fe8587-d577-4927-9f03-bf5f1fa338f3","system_id":"levelo_inurba_marseille","lat":43.3262,"lon":5.37556,"is_reserved":false,"is_disabled":false,"rental_uris":{"android":"levelo://app?vid=d5fe8587-d577-4927-9f03-bf5f1fa338f3","ios":"levelo://app?vid=d5fe8587-d577-4927-9f03-bf5f1fa338f3"},"vehicle_type_id":"4","last_reported":1757758111,"current_range_meters":14400,"station_id":"","pricing_plan_id":"cebpf4jnsgd1na2vs0mg"},{"bike_id":"ba130961-8fba-495b-b802-0f3495419d49","system_id":"levelo_inurba_marseille","lat":43.30906,"lon":5.40164,"is_reserved":false,"is_disabled":false,"rental_uris":{"android":"levelo://app?vid=ba130961-8fba-495b-b802-0f3495419d49","ios":"levelo://app?vid=ba130961-8fba-495b-b802-0f3495419d49"},"vehicle_type_id":"4","last_reported":1757758111,"current_range_meters":14400,"station_id":"ce4bgvp2rcd13ifvqct0","pricing_plan_id":"cebpf4jnsgd1na2vs0mg"},{"bike_id":"22056c1f-5a5a-4970-84ab-9172106e8c1b","system_id":"levelo_inurba_marseille","lat":43.26263,"lon":5.39786,"is_reserved":false,"is_disabled":false,"rental_uris":{"android":"levelo://app?vid=22056c1f-5a5a-4970-84ab-9172106e8c1b","ios":"levelo://app?vid=22056c1f-5a5a-4970-84ab-9172106e8c1b"},"vehicle_type_id":"4","last_reported":1757758111,"current_range_meters":14400,"station_id":"","pricing_plan_id":"cebpf4jnsgd1na2vs0mg"},{"bike_id":"68489bd7-5f5c-4661-bada-ef101f8e01b1","system_id":"levelo_inurba_marseille","lat":43.32338,"lon":5.3886,"is_reserved":false,"is_disabled":false,"rental_uris":{"android":"levelo://app?vid=68489bd7-5f5c-4661-bada-ef101f8e01b1","ios":"levelo://app?vid=68489bd7-5f5c-4661-bada-ef101f8e01b1"},"vehicle_type_id":"4","last_reported":1757758111,"current_range_meters":14400,"station_id":"ce4bhqp2rcd13ifvqhog","pricing_plan_id":"cebpf4jnsgd1na2vs0mg"},{"bike_id":"25205a5b-3cfd-49a1-bd52-ba79871ddca6","system_id":"levelo_inurba_marseille","lat":43.29579,"lon":5.36738,"is_reserved":false,"is_disabled":false,"rental_uris":{"android":"levelo://app?vid=25205a5b-3cfd-49a1-bd52-ba79871ddca6","ios":"levelo://app?vid=25205a5b-3cfd-49a1-bd52-ba79871ddca6"},"vehicle_type_id":"4","last_reported":1757758111,"current_range_meters":14400,"station_id":"ce4bgph2rcd13ifvqc2g","pricing_plan_id":"cebpf4jnsgd1na2vs0mg"},{"bike_id":"02dbb44c-70e3-4a7a-b86e-6159cc35ba47","system_id":"levelo_inurba_marseille","lat":43.29587,"lon":5.38689,"is_reserved":false,"is_disabled":false,"rental_uris":{"android":"levelo://app?vid=02dbb44c-70e3-4a7a-b86e-6159cc35ba47","ios":"levelo://app?vid=02dbb44c-70e3-4a7a-b86e-6159cc35ba47"},"vehicle_type_id":"4","last_reported":1757758111,"current_range_meters":14400,"station_id":"ce4bgih2rcd13ifvqba0","pricing_plan_id":"cebpf4jnsgd1na2vs0mg"},{"bike_id":"beb6189c-c21e-4836-b631-6b5c31a632d8","system_id":"levelo_inurba_marseille","lat":43.22544,"lon":5.41637,"is_reserved":false,"is_disabled":false,"rental_uris":{"android":"levelo://app?vid=beb6189c-c21e-4836-b631-6b5c31a632d8","ios":"levelo://app?vid=beb6189c-c21e-4836-b631-6b5c31a632d8"},"vehicle_type_id":"4","last_reported":1757758111,"current_range_meters":14800,"station_id":"st_d2o4gvlbi1j2169b742g","pricing_plan_id":"cebpf4jnsgd1na2vs0mg"},{"bike_id":"55d59e02-f5a5-4e1a-9360-556e842fa2a4","system_id":"levelo_inurba_marseille","lat":43.33764,"lon":5.37496,"is_reserved":false,"is_disabled":false,"rental_uris":{"android":"levelo://app?vid=55d59e02-f5a5-4e1a-9360-556e842fa2a4","ios":"levelo://app?vid=55d59e02-f5a5-4e1a-9360-556e842fa2a4"},"vehicle_type_id":"4","last_reported":1757758111,"current_range_meters":14800,"station_id":"","pricing_plan_id":"cebpf4jnsgd1na2vs0mg"},{"bike_id":"9a11c21b-9b3d-4290-80bc-98d07a66af7b","system_id":"levelo_inurba_marseille","lat":43.26017,"lon":5.37561,"is_reserved":false,"is_disabled":false,"rental_uris":{"android":"levelo://app?vid=9a11c21b-9b3d-4290-80bc-98d07a66af7b","ios":"levelo://app?vid=9a11c21b-9b3d-4290-80bc-98d07a66af7b"},"vehicle_type_id":"4","last_reported":1757758111,"current_range_meters":14800,"station_id":"ce4bhgh2rcd13ifvqfa0","pricing_plan_id":"cebpf4jnsgd1na2vs0mg"},{"bike_id":"f8ffd399-b74b-428b-b8c5-652d37f4b22c","system_id":"levelo_inurba_marseille","lat":43.24965,"lon":5.40493,"is_reserved":false,"is_disabled":false,"rental_uris":{"android":"levelo://app?vid=f8ffd399-b74b-428b-b8c5-652d37f4b22c","ios":"levelo://app?vid=f8ffd399-b74b-428b-b8c5-652d37f4b22c"},"vehicle_type_id":"4","last_reported":1757758111,"current_range_meters":15200,"station_id":"st_d2ngiaodas8pm72gd1h0","pricing_plan_id":"cebpf4jnsgd1na2vs0mg"},{"bike_id":"d9c66413-fc0c-4d58-b9df-c55859e73212","system_id":"levelo_inurba_marseille","lat":43.2846,"lon":5.358968,"is_reserved":false,"is_disabled":false,"rental_uris":{"android":"levelo://app?vid=d9c66413-fc0c-4d58-b9df-c55859e73212","ios":"levelo://app?vid=d9c66413-fc0c-4d58-b9df-c55859e73212"},"vehicle_type_id":"4","last_reported":1757758111,"current_range_meters":15200,"station_id":"ce4bhah2rcd13ifvqei0","pricing_plan_id":"cebpf4jnsgd1na2vs0mg"},{"bike_id":"71256f8f-9c24-475f-8b40-70467fb356a3","system_id":"levelo_inurba_marseille","lat":43.29243,"lon":5.40033,"is_reserved":false,"is_disabled":false,"rental_uris":{"android":"levelo://app?vid=71256f8f-9c24-475f-8b40-70467fb356a3","ios":"levelo://app?vid=71256f8f-9c24-475f-8b40-70467fb356a3"},"vehicle_type_id":"4","last_reported":1757758111,"current_range_meters":15200,"station_id":"","pricing_plan_id":"cebpf4jnsgd1na2vs0mg"},{"bike_id":"c7237af1-fd65-41a7-8ae9-294ff1539f0b","system_id":"levelo_inurba_marseille","lat":43.25339,"lon":5.42165,"is_reserved":false,"is_disabled":false,"rental_uris":{"android":"levelo://app?vid=c7237af1-fd65-41a7-8ae9-294ff1539f0b","ios":"levelo://app?vid=c7237af1-fd65-41a7-8ae9-294ff1539f0b"},"vehicle_type_id":"4","last_reported":1757758111,"current_range_meters":15200,"station_id":"st_d2m65c5bi1j21697t3ng","pricing_plan_id":"cebpf4jnsgd1na2vs0mg"},{"bike_id":"d9c11a94-d122-4240-b95b-24fdee8810ac","system_id":"levelo_inurba_marseille","lat":43.28281,"lon":5.39905,"is_reserved":false,"is_disabled":false,"rental_uris":{"android":"levelo://app?vid=d9c11a94-d122-4240-b95b-24fdee8810ac","ios":"levelo://app?vid=d9c11a94-d122-4240-b95b-24fdee8810ac"},"vehicle_type_id":"4","last_reported":1757758111,"current_range_meters":15200,"station_id":"","pricing_plan_id":"cebpf4jnsgd1na2vs0mg"},{"bike_id":"f07d1a34-6972-4c1d-8ed8-100dd0fc1e78","system_id":"levelo_inurba_marseille","lat":43.330276,"lon":5.390241,"is_reserved":false,"is_disabled":false,"rental_uris":{"android":"levelo://app?vid=f07d1a34-6972-4c1d-8ed8-100dd0fc1e78","ios":"levelo://app?vid=f07d1a34-6972-4c1d-8ed8-100dd0fc1e78"},"vehicle_type_id":"4","last_reported":1757758111,"current_range_meters":15200,"station_id":"ce4bhr92rcd13ifvqhrg","pricing_plan_id":"cebpf4jnsgd1na2vs0mg"},{"bike_id":"5d1bb379-bd37-416b-baff-d02689de992f","system_id":"levelo_inurba_marseille","lat":43.29538,"lon":5.39036,"is_reserved":false,"is_disabled":false,"rental_uris":{"android":"levelo://app?vid=5d1bb379-bd37-416b-baff-d02689de992f","ios":"levelo://app?vid=5d1bb379-bd37-416b-baff-d02689de992f"},"vehicle_type_id":"4","last_reported":1757758111,"current_range_meters":16000,"station_id":"ce4bh3p2rcd13ifvqdp0","pricing_plan_id":"cebpf4jnsgd1na2vs0mg"},{"bike_id":"cd104b68-7370-4e88-ba9c-1edeee0f6c77","system_id":"levelo_inurba_marseille","lat":43.25184,"lon":5.4257,"is_reserved":false,"is_disabled":false,"rental_uris":{"android":"levelo://app?vid=cd104b68-7370-4e88-ba9c-1edeee0f6c77","ios":"levelo://app?vid=cd104b68-7370-4e88-ba9c-1edeee0f6c77"},"vehicle_type_id":"4","last_reported":1757758111,"current_range_meters":16000,"station_id":"","pricing_plan_id":"cebpf4jnsgd1na2vs0mg"},{"bike_id":"e7a329bd-ed66-4ac7-aaba-63f2810ddd86","system_id":"levelo_inurba_marseille","lat":43.3185,"lon":5.3711,"is_reserved":false,"is_disabled":false,"rental_uris":{"android":"levelo://app?vid=e7a329bd-ed66-4ac7-aaba-63f2810ddd86","ios":"levelo://app?vid=e7a329bd-ed66-4ac7-aaba-63f2810ddd86"},"vehicle_type_id":"4","last_reported":1757758111,"current_range_meters":16000,"station_id":"","pricing_plan_id":"cebpf4jnsgd1na2vs0mg"},{"bike_id":"b81ac566-30ab-45f4-a917-e0cb422aff7d","system_id":"levelo_inurba_marseille","lat":43.25108,"lon":5.40342,"is_reserved":false,"is_disabled":false,"rental_uris":{"android":"levelo://app?vid=b81ac566-30ab-45f4-a917-e0cb422aff7d","ios":"levelo://app?vid=b81ac566-30ab-45f4-a917-e0cb422aff7d"},"vehicle_type_id":"4","last_reported":1757758111,"current_range_meters":16000,"station_id":"ce4bhlh2rcd13ifvqgig","pricing_plan_id":"cebpf4jnsgd1na2vs0mg"},{"bike_id":"566b1f71-e6f7-4b45-845a-581254de6061","system_id":"levelo_inurba_marseille","lat":43.27498,"lon":5.42457,"is_reserved":false,"is_disabled":false,"rental_uris":{"android":"levelo://app?vid=566b1f71-e6f7-4b45-845a-581254de6061","ios":"levelo://app?vid=566b1f71-e6f7-4b45-845a-581254de6061"},"vehicle_type_id":"4","last_reported":1757758111,"current_range_meters":16000,"station_id":"ce4bhn92rcd13ifvqgrg","pricing_plan_id":"cebpf4jnsgd1na2vs0mg"},{"bike_id":"c5cba6d7-e282-4417-a818-5fc0802dcb08","system_id":"levelo_inurba_marseille","lat":43.33761,"lon":5.3745,"is_reserved":false,"is_disabled":false,"rental_uris":{"android":"levelo://app?vid=c5cba6d7-e282-4417-a818-5fc0802dcb08","ios":"levelo://app?vid=c5cba6d7-e282-4417-a818-5fc0802dcb08"},"vehicle_type_id":"4","last_reported":1757758111,"current_range_meters":16000,"station_id":"","pricing_plan_id":"cebpf4jnsgd1na2vs0mg"},{"bike_id":"c682ef70-00bc-4415-9b10-9a35bd5ddcc1","system_id":"levelo_inurba_marseille","lat":43.27497,"lon":5.42445,"is_reserved":false,"is_disabled":false,"rental_uris":{"android":"levelo://app?vid=c682ef70-00bc-4415-9b10-9a35bd5ddcc1","ios":"levelo://app?vid=c682ef70-00bc-4415-9b10-9a35bd5ddcc1"},"vehicle_type_id":"4","last_reported":1757758111,"current_range_meters":16400,"station_id":"ce4bhn92rcd13ifvqgrg","pricing_plan_id":"cebpf4jnsgd1na2vs0mg"},{"bike_id":"31195751-bbc1-4ea5-8068-c21d8881b649","system_id":"levelo_inurba_marseille","lat":43.24083,"lon":5.37737,"is_reserved":false,"is_disabled":false,"rental_uris":{"android":"levelo://app?vid=31195751-bbc1-4ea5-8068-c21d8881b649","ios":"levelo://app?vid=31195751-bbc1-4ea5-8068-c21d8881b649"},"vehicle_type_id":"4","last_reported":1757758111,"current_range_meters":16400,"station_id":"ce4bhnp2rcd13ifvqgvg","pricing_plan_id":"cebpf4jnsgd1na2vs0mg"},{"bike_id":"0698b43c-1f5f-4fe9-bc60-835539c760ec","system_id":"levelo_inurba_marseille","lat":43.29783,"lon":5.38247,"is_reserved":false,"is_disabled":false,"rental_uris":{"android":"levelo://app?vid=0698b43c-1f5f-4fe9-bc60-835539c760ec","ios":"levelo://app?vid=0698b43c-1f5f-4fe9-bc60-835539c760ec"},"vehicle_type_id":"4","last_reported":1757758111,"current_range_meters":16400,"station_id":"","pricing_plan_id":"cebpf4jnsgd1na2vs0mg"},{"bike_id":"7f3327a2-114b-44a9-b064-b2a89b4e6c39","system_id":"levelo_inurba_marseille","lat":43.24168,"lon":5.39711,"is_reserved":false,"is_disabled":false,"rental_uris":{"android":"levelo://app?vid=7f3327a2-114b-44a9-b064-b2a89b4e6c39","ios":"levelo://app?vid=7f3327a2-114b-44a9-b064-b2a89b4e6c39"},"vehicle_type_id":"4","last_reported":1757758111,"current_range_meters":16400,"station_id":"ce4bhn12rcd13ifvqgpg","pricing_plan_id":"cebpf4jnsgd1na2vs0mg"},{"bike_id":"f3f58f62-ff34-4b4b-a9f2-6aaaf300ccd1","system_id":"levelo_inurba_marseille","lat":43.29542,"lon":5.39024,"is_reserved":false,"is_disabled":false,"rental_uris":{"android":"levelo://app?vid=f3f58f62-ff34-4b4b-a9f2-6aaaf300ccd1","ios":"levelo://app?vid=f3f58f62-ff34-4b4b-a9f2-6aaaf300ccd1"},"vehicle_type_id":"4","last_reported":1757758111,"current_range_meters":16400,"station_id":"ce4bh3p2rcd13ifvqdp0","pricing_plan_id":"cebpf4jnsgd1na2vs0mg"},{"bike_id":"1eaf7d24-f23e-4e79-b6f5-17176bccc028","system_id":"levelo_inurba_marseille","lat":43.279532,"lon":5.387356,"is_reserved":false,"is_disabled":true,"rental_uris":{"android":"levelo://app?vid=1eaf7d24-f23e-4e79-b6f5-17176bccc028","ios":"levelo://app?vid=1eaf7d24-f23e-4e79-b6f5-17176bccc028"},"vehicle_type_id":"4","last_reported":1757758111,"current_range_meters":16400,"station_id":"ce4bhg12rcd13ifvqf80","pricing_plan_id":"cebpf4jnsgd1na2vs0mg"},{"bike_id":"ee42c31a-b74b-4b2d-917a-cd50dc10c6ce","system_id":"levelo_inurba_marseille","lat":43.330778,"lon":5.390264,"is_reserved":false,"is_disabled":false,"rental_uris":{"android":"levelo://app?vid=ee42c31a-b74b-4b2d-917a-cd50dc10c6ce","ios":"levelo://app?vid=ee42c31a-b74b-4b2d-917a-cd50dc10c6ce"},"vehicle_type_id":"4","last_reported":1757758111,"current_range_meters":16400,"station_id":"","pricing_plan_id":"cebpf4jnsgd1na2vs0mg"},{"bike_id":"7bcf5696-fe61-42d3-ae68-2c2622f35a4d","system_id":"levelo_inurba_marseille","lat":43.29009,"lon":5.35615,"is_reserved":false,"is_disabled":false,"rental_uris":{"android":"levelo://app?vid=7bcf5696-fe61-42d3-ae68-2c2622f35a4d","ios":"levelo://app?vid=7bcf5696-fe61-42d3-ae68-2c2622f35a4d"},"vehicle_type_id":"4","last_reported":1757758111,"current_range_meters":16400,"station_id":"ce4bhb92rcd13ifvqen0","pricing_plan_id":"cebpf4jnsgd1na2vs0mg"},{"bike_id":"3b855911-929b-4514-a3ff-ea3bef5306f7","system_id":"levelo_inurba_marseille","lat":43.27208,"lon":5.39212,"is_reserved":false,"is_disabled":false,"rental_uris":{"android":"levelo://app?vid=3b855911-929b-4514-a3ff-ea3bef5306f7","ios":"levelo://app?vid=3b855911-929b-4514-a3ff-ea3bef5306f7"},"vehicle_type_id":"4","last_reported":1757758111,"current_range_meters":16400,"station_id":"ce4bhhp2rcd13ifvqfm0","pricing_plan_id":"cebpf4jnsgd1na2vs0mg"},{"bike_id":"40207740-3997-48f7-a3a9-b19ccf0a0c3b","system_id":"levelo_inurba_marseille","lat":43.30408,"lon":5.41282,"is_reserved":false,"is_disabled":false,"rental_uris":{"android":"levelo://app?vid=40207740-3997-48f7-a3a9-b19ccf0a0c3b","ios":"levelo://app?vid=40207740-3997-48f7-a3a9-b19ccf0a0c3b"},"vehicle_type_id":"4","last_reported":1757758111,"current_range_meters":16400,"station_id":"ce4bhop2rcd13ifvqh8g","pricing_plan_id":"cebpf4jnsgd1na2vs0mg"},{"bike_id":"f25e3bda-5e1a-43ac-81fa-872411454589","system_id":"levelo_inurba_marseille","lat":43.24616,"lon":5.3926,"is_reserved":false,"is_disabled":false,"rental_uris":{"android":"levelo://app?vid=f25e3bda-5e1a-43ac-81fa-872411454589","ios":"levelo://app?vid=f25e3bda-5e1a-43ac-81fa-872411454589"},"vehicle_type_id":"4","last_reported":1757758111,"current_range_meters":16800,"station_id":"","pricing_plan_id":"cebpf4jnsgd1na2vs0mg"},{"bike_id":"9df52c70-6127-40c8-b57a-28a090e0499a","system_id":"levelo_inurba_marseille","lat":43.31254,"lon":5.40167,"is_reserved":false,"is_disabled":false,"rental_uris":{"android":"levelo://app?vid=9df52c70-6127-40c8-b57a-28a090e0499a","ios":"levelo://app?vid=9df52c70-6127-40c8-b57a-28a090e0499a"},"vehicle_type_id":"4","last_reported":1757758111,"current_range_meters":16800,"station_id":"ce4bh092rcd13ifvqd30","pricing_plan_id":"cebpf4jnsgd1na2vs0mg"},{"bike_id":"986f11d8-1003-4830-932e-a59ca28f5df3","system_id":"levelo_inurba_marseille","lat":43.22949,"lon":5.35436,"is_reserved":false,"is_disabled":false,"rental_uris":{"android":"levelo://app?vid=986f11d8-1003-4830-932e-a59ca28f5df3","ios":"levelo://app?vid=986f11d8-1003-4830-932e-a59ca28f5df3"},"vehicle_type_id":"4","last_reported":1757758111,"current_range_meters":16800,"station_id":"cpo3532slgdg3j2ikp40","pricing_plan_id":"cebpf4jnsgd1na2vs0mg"},{"bike_id":"12b9c958-ee1d-4a7e-b063-6648532a7910","system_id":"levelo_inurba_marseille","lat":43.30415,"lon":5.41282,"is_reserved":false,"is_disabled":false,"rental_uris":{"android":"levelo://app?vid=12b9c958-ee1d-4a7e-b063-6648532a7910","ios":"levelo://app?vid=12b9c958-ee1d-4a7e-b063-6648532a7910"},"vehicle_type_id":"4","last_reported":1757758111,"current_range_meters":16800,"station_id":"ce4bhop2rcd13ifvqh8g","pricing_plan_id":"cebpf4jnsgd1na2vs0mg"},{"bike_id":"15d4094b-4ae7-4c3e-8103-5a6e4c1d223b","system_id":"levelo_inurba_marseille","lat":43.29101,"lon":5.38139,"is_reserved":false,"is_disabled":false,"rental_uris":{"android":"levelo://app?vid=15d4094b-4ae7-4c3e-8103-5a6e4c1d223b","ios":"levelo://app?vid=15d4094b-4ae7-4c3e-8103-5a6e4c1d223b"},"vehicle_type_id":"4","last_reported":1757758111,"current_range_meters":16800,"station_id":"ce4bh512rcd13ifvqe2g","pricing_plan_id":"cebpf4jnsgd1na2vs0mg"},{"bike_id":"a3a852d2-d754-43a2-9237-31dba3c0709b","system_id":"levelo_inurba_marseille","lat":43.29541,"lon":5.39036,"is_reserved":false,"is_disabled":false,"rental_uris":{"android":"levelo://app?vid=a3a852d2-d754-43a2-9237-31dba3c0709b","ios":"levelo://app?vid=a3a852d2-d754-43a2-9237-31dba3c0709b"},"vehicle_type_id":"4","last_reported":1757758111,"current_range_meters":17200,"station_id":"ce4bh3p2rcd13ifvqdp0","pricing_plan_id":"cebpf4jnsgd1na2vs0mg"},{"bike_id":"0418ed23-d4c6-49db-b310-d4f985bd3bc3","system_id":"levelo_inurba_marseille","lat":43.321148,"lon":5.367902,"is_reserved":false,"is_disabled":false,"rental_uris":{"android":"levelo://app?vid=0418ed23-d4c6-49db-b310-d4f985bd3bc3","ios":"levelo://app?vid=0418ed23-d4c6-49db-b310-d4f985bd3bc3"},"vehicle_type_id":"4","last_reported":1757758111,"current_range_meters":17200,"station_id":"ce4bhrh2rcd13ifvqhug","pricing_plan_id":"cebpf4jnsgd1na2vs0mg"},{"bike_id":"3edab8b5-08ab-4bd7-a8e3-46e14fec2b69","system_id":"levelo_inurba_marseille","lat":43.22548,"lon":5.41642,"is_reserved":false,"is_disabled":false,"rental_uris":{"android":"levelo://app?vid=3edab8b5-08ab-4bd7-a8e3-46e14fec2b69","ios":"levelo://app?vid=3edab8b5-08ab-4bd7-a8e3-46e14fec2b69"},"vehicle_type_id":"4","last_reported":1757758111,"current_range_meters":17200,"station_id":"st_d2o4gvlbi1j2169b742g","pricing_plan_id":"cebpf4jnsgd1na2vs0mg"},{"bike_id":"9613ee4d-bd84-40ec-a183-9abb4af6a1b6","system_id":"levelo_inurba_marseille","lat":43.32268,"lon":5.36649,"is_reserved":false,"is_disabled":false,"rental_uris":{"android":"levelo://app?vid=9613ee4d-bd84-40ec-a183-9abb4af6a1b6","ios":"levelo://app?vid=9613ee4d-bd84-40ec-a183-9abb4af6a1b6"},"vehicle_type_id":"4","last_reported":1757758111,"current_range_meters":17200,"station_id":"","pricing_plan_id":"cebpf4jnsgd1na2vs0mg"},{"bike_id":"3bc338fd-b3c5-4caa-b6e6-3c70a52689ba","system_id":"levelo_inurba_marseille","lat":43.315881,"lon":5.389136,"is_reserved":false,"is_disabled":false,"rental_uris":{"android":"levelo://app?vid=3bc338fd-b3c5-4caa-b6e6-3c70a52689ba","ios":"levelo://app?vid=3bc338fd-b3c5-4caa-b6e6-3c70a52689ba"},"vehicle_type_id":"4","last_reported":1757758111,"current_range_meters":17200,"station_id":"","pricing_plan_id":"cebpf4jnsgd1na2vs0mg"},{"bike_id":"0c9cd741-73ed-4113-b317-375adb047d53","system_id":"levelo_inurba_marseille","lat":43.28977,"lon":5.35527,"is_reserved":false,"is_disabled":false,"rental_uris":{"android":"levelo://app?vid=0c9cd741-73ed-4113-b317-375adb047d53","ios":"levelo://app?vid=0c9cd741-73ed-4113-b317-375adb047d53"},"vehicle_type_id":"4","last_reported":1757758111,"current_range_meters":17200,"station_id":"","pricing_plan_id":"cebpf4jnsgd1na2vs0mg"},{"bike_id":"3afbe75a-38dd-4ae1-9d80-a6624e66f69f","system_id":"levelo_inurba_marseille","lat":43.29528,"lon":5.3904,"is_reserved":false,"is_disabled":false,"rental_uris":{"android":"levelo://app?vid=3afbe75a-38dd-4ae1-9d80-a6624e66f69f","ios":"levelo://app?vid=3afbe75a-38dd-4ae1-9d80-a6624e66f69f"},"vehicle_type_id":"4","last_reported":1757758111,"current_range_meters":17600,"station_id":"ce4bh3p2rcd13ifvqdp0","pricing_plan_id":"cebpf4jnsgd1na2vs0mg"},{"bike_id":"330258de-21a4-454e-8a0e-0587911a15fb","system_id":"levelo_inurba_marseille","lat":43.27989,"lon":5.41657,"is_reserved":false,"is_disabled":false,"rental_uris":{"android":"levelo://app?vid=330258de-21a4-454e-8a0e-0587911a15fb","ios":"levelo://app?vid=330258de-21a4-454e-8a0e-0587911a15fb"},"vehicle_type_id":"4","last_reported":1757758111,"current_range_meters":17600,"station_id":"ce4bho12rcd13ifvqh1g","pricing_plan_id":"cebpf4jnsgd1na2vs0mg"},{"bike_id":"bf63aad8-dedf-479f-beb1-66de6615be39","system_id":"levelo_inurba_marseille","lat":43.2795,"lon":5.41035,"is_reserved":false,"is_disabled":false,"rental_uris":{"android":"levelo://app?vid=bf63aad8-dedf-479f-beb1-66de6615be39","ios":"levelo://app?vid=bf63aad8-dedf-479f-beb1-66de6615be39"},"vehicle_type_id":"4","last_reported":1757758111,"current_range_meters":17600,"station_id":"ce4bhnp2rcd13ifvqh0g","pricing_plan_id":"cebpf4jnsgd1na2vs0mg"},{"bike_id":"099dc754-cf09-4145-b6fa-59b333ab25e3","system_id":"levelo_inurba_marseille","lat":43.24628,"lon":5.43148,"is_reserved":false,"is_disabled":false,"rental_uris":{"android":"levelo://app?vid=099dc754-cf09-4145-b6fa-59b333ab25e3","ios":"levelo://app?vid=099dc754-cf09-4145-b6fa-59b333ab25e3"},"vehicle_type_id":"4","last_reported":1757758111,"current_range_meters":17600,"station_id":"st_d2m6c4gdas8pm72e190g","pricing_plan_id":"cebpf4jnsgd1na2vs0mg"},{"bike_id":"4d6e6605-7f16-44fa-a19a-c138ee7cb360","system_id":"levelo_inurba_marseille","lat":43.337435,"lon":5.374703,"is_reserved":false,"is_disabled":false,"rental_uris":{"android":"levelo://app?vid=4d6e6605-7f16-44fa-a19a-c138ee7cb360","ios":"levelo://app?vid=4d6e6605-7f16-44fa-a19a-c138ee7cb360"},"vehicle_type_id":"4","last_reported":1757758111,"current_range_meters":17600,"station_id":"","pricing_plan_id":"cebpf4jnsgd1na2vs0mg"},{"bike_id":"cb612bf1-232d-427f-a7c5-ad1c79970661","system_id":"levelo_inurba_marseille","lat":43.29033,"lon":5.39997,"is_reserved":false,"is_disabled":false,"rental_uris":{"android":"levelo://app?vid=cb612bf1-232d-427f-a7c5-ad1c79970661","ios":"levelo://app?vid=cb612bf1-232d-427f-a7c5-ad1c79970661"},"vehicle_type_id":"4","last_reported":1757758111,"current_range_meters":17600,"station_id":"ce4bh392rcd13ifvqdm0","pricing_plan_id":"cebpf4jnsgd1na2vs0mg"},{"bike_id":"cf598a45-3e64-4164-b570-1a150a235702","system_id":"levelo_inurba_marseille","lat":43.3088,"lon":5.39632,"is_reserved":false,"is_disabled":false,"rental_uris":{"android":"levelo://app?vid=cf598a45-3e64-4164-b570-1a150a235702","ios":"levelo://app?vid=cf598a45-3e64-4164-b570-1a150a235702"},"vehicle_type_id":"4","last_reported":1757758111,"current_range_meters":17600,"station_id":"ce4bh012rcd13ifvqcv0","pricing_plan_id":"cebpf4jnsgd1na2vs0mg"},{"bike_id":"1fa9cf8a-cbc2-4f66-a5af-49139eedcffa","system_id":"levelo_inurba_marseille","lat":43.316964,"lon":5.404721,"is_reserved":false,"is_disabled":false,"rental_uris":{"android":"levelo://app?vid=1fa9cf8a-cbc2-4f66-a5af-49139eedcffa","ios":"levelo://app?vid=1fa9cf8a-cbc2-4f66-a5af-49139eedcffa"},"vehicle_type_id":"4","last_reported":1757758111,"current_range_meters":18000,"station_id":"ce4bh012rcd13ifvqd00","pricing_plan_id":"cebpf4jnsgd1na2vs0mg"},{"bike_id":"5476d906-b0c2-4d37-81e0-6fc56d7abe48","system_id":"levelo_inurba_marseille","lat":43.317022,"lon":5.376891,"is_reserved":false,"is_disabled":false,"rental_uris":{"android":"levelo://app?vid=5476d906-b0c2-4d37-81e0-6fc56d7abe48","ios":"levelo://app?vid=5476d906-b0c2-4d37-81e0-6fc56d7abe48"},"vehicle_type_id":"4","last_reported":1757758111,"current_range_meters":18000,"station_id":"ce4bgth2rcd13ifvqch0","pricing_plan_id":"cebpf4jnsgd1na2vs0mg"},{"bike_id":"8cba11da-a32c-4855-bd62-3db08b7c1962","system_id":"levelo_inurba_marseille","lat":43.29049,"lon":5.39997,"is_reserved":false,"is_disabled":false,"rental_uris":{"android":"levelo://app?vid=8cba11da-a32c-4855-bd62-3db08b7c1962","ios":"levelo://app?vid=8cba11da-a32c-4855-bd62-3db08b7c1962"},"vehicle_type_id":"4","last_reported":1757758111,"current_range_meters":18000,"station_id":"ce4bh392rcd13ifvqdm0","pricing_plan_id":"cebpf4jnsgd1na2vs0mg"},{"bike_id":"695bc73c-02f9-4c78-a8d4-70d9461761ac","system_id":"levelo_inurba_marseille","lat":43.28161,"lon":5.4265,"is_reserved":false,"is_disabled":false,"rental_uris":{"android":"levelo://app?vid=695bc73c-02f9-4c78-a8d4-70d9461761ac","ios":"levelo://app?vid=695bc73c-02f9-4c78-a8d4-70d9461761ac"},"vehicle_type_id":"4","last_reported":1757758111,"current_range_meters":18000,"station_id":"ce4bhnh2rcd13ifvqgug","pricing_plan_id":"cebpf4jnsgd1na2vs0mg"},{"bike_id":"9b49ad0c-cd5f-42fa-bf89-dc07fc8b3cb8","system_id":"levelo_inurba_marseille","lat":43.30183,"lon":5.39477,"is_reserved":false,"is_disabled":false,"rental_uris":{"android":"levelo://app?vid=9b49ad0c-cd5f-42fa-bf89-dc07fc8b3cb8","ios":"levelo://app?vid=9b49ad0c-cd5f-42fa-bf89-dc07fc8b3cb8"},"vehicle_type_id":"4","last_reported":1757758111,"current_range_meters":18000,"station_id":"ce4bh0p2rcd13ifvqd70","pricing_plan_id":"cebpf4jnsgd1na2vs0mg"},{"bike_id":"c75bfa20-483b-42f7-8a25-5f10e08a57b0","system_id":"levelo_inurba_marseille","lat":43.32094,"lon":5.36771,"is_reserved":false,"is_disabled":false,"rental_uris":{"android":"levelo://app?vid=c75bfa20-483b-42f7-8a25-5f10e08a57b0","ios":"levelo://app?vid=c75bfa20-483b-42f7-8a25-5f10e08a57b0"},"vehicle_type_id":"4","last_reported":1757758111,"current_range_meters":18000,"station_id":"ce4bhrh2rcd13ifvqhug","pricing_plan_id":"cebpf4jnsgd1na2vs0mg"},{"bike_id":"5ff67dcb-67c2-4e6b-99e6-4a30642a3d9a","system_id":"levelo_inurba_marseille","lat":43.24405,"lon":5.37055,"is_reserved":false,"is_disabled":false,"rental_uris":{"android":"levelo://app?vid=5ff67dcb-67c2-4e6b-99e6-4a30642a3d9a","ios":"levelo://app?vid=5ff67dcb-67c2-4e6b-99e6-4a30642a3d9a"},"vehicle_type_id":"4","last_reported":1757758111,"current_range_meters":18800,"station_id":"ce4bhhh2rcd13ifvqfk0","pricing_plan_id":"cebpf4jnsgd1na2vs0mg"},{"bike_id":"085d1fc3-832e-4bb8-9dab-596c869e48fd","system_id":"levelo_inurba_marseille","lat":43.28215,"lon":5.39065,"is_reserved":false,"is_disabled":true,"rental_uris":{"android":"levelo://app?vid=085d1fc3-832e-4bb8-9dab-596c869e48fd","ios":"levelo://app?vid=085d1fc3-832e-4bb8-9dab-596c869e48fd"},"vehicle_type_id":"4","last_reported":1757758111,"current_range_meters":18800,"station_id":"ce4bhn92rcd13ifvqgsg","pricing_plan_id":"cebpf4jnsgd1na2vs0mg"},{"bike_id":"4de2e286-2aa2-4b64-acc2-1b608ab4b806","system_id":"levelo_inurba_marseille","lat":43.29037,"lon":5.39948,"is_reserved":false,"is_disabled":false,"rental_uris":{"android":"levelo://app?vid=4de2e286-2aa2-4b64-acc2-1b608ab4b806","ios":"levelo://app?vid=4de2e286-2aa2-4b64-acc2-1b608ab4b806"},"vehicle_type_id":"4","last_reported":1757758111,"current_range_meters":18800,"station_id":"ce4bh392rcd13ifvqdm0","pricing_plan_id":"cebpf4jnsgd1na2vs0mg"},{"bike_id":"50771b13-e5b9-415a-861e-b69af2837f98","system_id":"levelo_inurba_marseille","lat":43.31043,"lon":5.3897,"is_reserved":false,"is_disabled":false,"rental_uris":{"android":"levelo://app?vid=50771b13-e5b9-415a-861e-b69af2837f98","ios":"levelo://app?vid=50771b13-e5b9-415a-861e-b69af2837f98"},"vehicle_type_id":"4","last_reported":1757758111,"current_range_meters":18800,"station_id":"","pricing_plan_id":"cebpf4jnsgd1na2vs0mg"},{"bike_id":"b07aa0c5-a394-4147-825d-d46f5f93430a","system_id":"levelo_inurba_marseille","lat":43.26548,"lon":5.37287,"is_reserved":false,"is_disabled":false,"rental_uris":{"android":"levelo://app?vid=b07aa0c5-a394-4147-825d-d46f5f93430a","ios":"levelo://app?vid=b07aa0c5-a394-4147-825d-d46f5f93430a"},"vehicle_type_id":"4","last_reported":1757758111,"current_range_meters":18800,"station_id":"ce4bhg12rcd13ifvqf70","pricing_plan_id":"cebpf4jnsgd1na2vs0mg"},{"bike_id":"14e2496b-54f5-4a71-8a7b-f668d23f2674","system_id":"levelo_inurba_marseille","lat":43.25737,"lon":5.41101,"is_reserved":false,"is_disabled":false,"rental_uris":{"android":"levelo://app?vid=14e2496b-54f5-4a71-8a7b-f668d23f2674","ios":"levelo://app?vid=14e2496b-54f5-4a71-8a7b-f668d23f2674"},"vehicle_type_id":"4","last_reported":1757758111,"current_range_meters":18800,"station_id":"ce4bhkp2rcd13ifvqgd0","pricing_plan_id":"cebpf4jnsgd1na2vs0mg"},{"bike_id":"fb7654a2-f2ec-4a94-93b8-2422c35d98a2","system_id":"levelo_inurba_marseille","lat":43.29783,"lon":5.3819,"is_reserved":false,"is_disabled":false,"rental_uris":{"android":"levelo://app?vid=fb7654a2-f2ec-4a94-93b8-2422c35d98a2","ios":"levelo://app?vid=fb7654a2-f2ec-4a94-93b8-2422c35d98a2"},"vehicle_type_id":"4","last_reported":1757758111,"current_range_meters":18800,"station_id":"","pricing_plan_id":"cebpf4jnsgd1na2vs0mg"},{"bike_id":"ff744283-21ef-4c65-9de5-27f50be3b9b0","system_id":"levelo_inurba_marseille","lat":43.29044,"lon":5.39961,"is_reserved":false,"is_disabled":false,"rental_uris":{"android":"levelo://app?vid=ff744283-21ef-4c65-9de5-27f50be3b9b0","ios":"levelo://app?vid=ff744283-21ef-4c65-9de5-27f50be3b9b0"},"vehicle_type_id":"4","last_reported":1757758111,"current_range_meters":18800,"station_id":"ce4bh392rcd13ifvqdm0","pricing_plan_id":"cebpf4jnsgd1na2vs0mg"},{"bike_id":"e8eed2b0-fb04-415f-a1fa-3035bf43578d","system_id":"levelo_inurba_marseille","lat":43.2731,"lon":5.39093,"is_reserved":false,"is_disabled":false,"rental_uris":{"android":"levelo://app?vid=e8eed2b0-fb04-415f-a1fa-3035bf43578d","ios":"levelo://app?vid=e8eed2b0-fb04-415f-a1fa-3035bf43578d"},"vehicle_type_id":"4","last_reported":1757758111,"current_range_meters":19200,"station_id":"ce4bhgp2rcd13ifvqfe0","pricing_plan_id":"cebpf4jnsgd1na2vs0mg"},{"bike_id":"a1e80537-ba87-4c0c-9e2c-ec8e183fe66a","system_id":"levelo_inurba_marseille","lat":43.2986,"lon":5.36278,"is_reserved":false,"is_disabled":false,"rental_uris":{"android":"levelo://app?vid=a1e80537-ba87-4c0c-9e2c-ec8e183fe66a","ios":"levelo://app?vid=a1e80537-ba87-4c0c-9e2c-ec8e183fe66a"},"vehicle_type_id":"4","last_reported":1757758111,"current_range_meters":19200,"station_id":"ce4bgpp2rcd13ifvqc3g","pricing_plan_id":"cebpf4jnsgd1na2vs0mg"},{"bike_id":"5d66df86-a3b7-4823-89ca-7b28b24b8f9a","system_id":"levelo_inurba_marseille","lat":43.2407,"lon":5.37755,"is_reserved":false,"is_disabled":false,"rental_uris":{"android":"levelo://app?vid=5d66df86-a3b7-4823-89ca-7b28b24b8f9a","ios":"levelo://app?vid=5d66df86-a3b7-4823-89ca-7b28b24b8f9a"},"vehicle_type_id":"4","last_reported":1757758111,"current_range_meters":19200,"station_id":"ce4bhnp2rcd13ifvqgvg","pricing_plan_id":"cebpf4jnsgd1na2vs0mg"},{"bike_id":"21a355ea-199f-49b4-9881-f8ede24bf5af","system_id":"levelo_inurba_marseille","lat":43.29034,"lon":5.35919,"is_reserved":false,"is_disabled":false,"rental_uris":{"android":"levelo://app?vid=21a355ea-199f-49b4-9881-f8ede24bf5af","ios":"levelo://app?vid=21a355ea-199f-49b4-9881-f8ede24bf5af"},"vehicle_type_id":"4","last_reported":1757758111,"current_range_meters":19200,"station_id":"ce4bha92rcd13ifvqeg0","pricing_plan_id":"cebpf4jnsgd1na2vs0mg"},{"bike_id":"ef94e107-b5fd-44f7-a023-fb0854a2be56","system_id":"levelo_inurba_marseille","lat":43.28645,"lon":5.35064,"is_reserved":false,"is_disabled":false,"rental_uris":{"android":"levelo://app?vid=ef94e107-b5fd-44f7-a023-fb0854a2be56","ios":"levelo://app?vid=ef94e107-b5fd-44f7-a023-fb0854a2be56"},"vehicle_type_id":"4","last_reported":1757758111,"current_range_meters":19200,"station_id":"ce4bhch2rcd13ifvqeug","pricing_plan_id":"cebpf4jnsgd1na2vs0mg"},{"bike_id":"4e08e035-b29a-498d-b5b2-5e0b0ec897f1","system_id":"levelo_inurba_marseille","lat":43.29304,"lon":5.374535,"is_reserved":false,"is_disabled":false,"rental_uris":{"android":"levelo://app?vid=4e08e035-b29a-498d-b5b2-5e0b0ec897f1","ios":"levelo://app?vid=4e08e035-b29a-498d-b5b2-5e0b0ec897f1"},"vehicle_type_id":"4","last_reported":1757758111,"current_range_meters":19200,"station_id":"ce4bgi12rcd13ifvqb70","pricing_plan_id":"cebpf4jnsgd1na2vs0mg"},{"bike_id":"8ab60a89-bd14-40d7-b359-020ea126cfef","system_id":"levelo_inurba_marseille","lat":43.323641,"lon":5.367524,"is_reserved":false,"is_disabled":false,"rental_uris":{"android":"levelo://app?vid=8ab60a89-bd14-40d7-b359-020ea126cfef","ios":"levelo://app?vid=8ab60a89-bd14-40d7-b359-020ea126cfef"},"vehicle_type_id":"4","last_reported":1757758111,"current_range_meters":19200,"station_id":"ce4bhsh2rcd13ifvqi2g","pricing_plan_id":"cebpf4jnsgd1na2vs0mg"},{"bike_id":"f9a13c36-133c-4fe2-9358-75a6762c885a","system_id":"levelo_inurba_marseille","lat":43.2905,"lon":5.35919,"is_reserved":false,"is_disabled":false,"rental_uris":{"android":"levelo://app?vid=f9a13c36-133c-4fe2-9358-75a6762c885a","ios":"levelo://app?vid=f9a13c36-133c-4fe2-9358-75a6762c885a"},"vehicle_type_id":"4","last_reported":1757758111,"current_range_meters":19200,"station_id":"ce4bha92rcd13ifvqeg0","pricing_plan_id":"cebpf4jnsgd1na2vs0mg"},{"bike_id":"c101ed80-5c5c-4466-a0c8-a9db92b52b43","system_id":"levelo_inurba_marseille","lat":43.33761,"lon":5.37437,"is_reserved":false,"is_disabled":false,"rental_uris":{"android":"levelo://app?vid=c101ed80-5c5c-4466-a0c8-a9db92b52b43","ios":"levelo://app?vid=c101ed80-5c5c-4466-a0c8-a9db92b52b43"},"vehicle_type_id":"4","last_reported":1757758111,"current_range_meters":19200,"station_id":"","pricing_plan_id":"cebpf4jnsgd1na2vs0mg"},{"bike_id":"fd023a40-d69c-4361-9109-4126162693f0","system_id":"levelo_inurba_marseille","lat":43.27789,"lon":5.37836,"is_reserved":false,"is_disabled":false,"rental_uris":{"android":"levelo://app?vid=fd023a40-d69c-4361-9109-4126162693f0","ios":"levelo://app?vid=fd023a40-d69c-4361-9109-4126162693f0"},"vehicle_type_id":"4","last_reported":1757758111,"current_range_meters":19600,"station_id":"","pricing_plan_id":"cebpf4jnsgd1na2vs0mg"},{"bike_id":"7cc2029f-2d00-49cc-b149-06db74148f47","system_id":"levelo_inurba_marseille","lat":43.30424,"lon":5.39753,"is_reserved":false,"is_disabled":false,"rental_uris":{"android":"levelo://app?vid=7cc2029f-2d00-49cc-b149-06db74148f47","ios":"levelo://app?vid=7cc2029f-2d00-49cc-b149-06db74148f47"},"vehicle_type_id":"4","last_reported":1757758111,"current_range_meters":19600,"station_id":"ce4bh092rcd13ifvqd20","pricing_plan_id":"cebpf4jnsgd1na2vs0mg"},{"bike_id":"1a4b03c8-c846-43eb-8943-ea26b2df1874","system_id":"levelo_inurba_marseille","lat":43.298544,"lon":5.362968,"is_reserved":false,"is_disabled":false,"rental_uris":{"android":"levelo://app?vid=1a4b03c8-c846-43eb-8943-ea26b2df1874","ios":"levelo://app?vid=1a4b03c8-c846-43eb-8943-ea26b2df1874"},"vehicle_type_id":"4","last_reported":1757758111,"current_range_meters":19600,"station_id":"ce4bgpp2rcd13ifvqc3g","pricing_plan_id":"cebpf4jnsgd1na2vs0mg"},{"bike_id":"a214e50e-5287-4c9c-8ef0-07c2e66199d9","system_id":"levelo_inurba_marseille","lat":43.29228,"lon":5.37683,"is_reserved":false,"is_disabled":false,"rental_uris":{"android":"levelo://app?vid=a214e50e-5287-4c9c-8ef0-07c2e66199d9","ios":"levelo://app?vid=a214e50e-5287-4c9c-8ef0-07c2e66199d9"},"vehicle_type_id":"4","last_reported":1757758111,"current_range_meters":19600,"station_id":"","pricing_plan_id":"cebpf4jnsgd1na2vs0mg"},{"bike_id":"d9c4202c-de13-4428-8c40-40d90faf1618","system_id":"levelo_inurba_marseille","lat":43.31356,"lon":5.3707,"is_reserved":false,"is_disabled":false,"rental_uris":{"android":"levelo://app?vid=d9c4202c-de13-4428-8c40-40d90faf1618","ios":"levelo://app?vid=d9c4202c-de13-4428-8c40-40d90faf1618"},"vehicle_type_id":"4","last_reported":1757758111,"current_range_meters":19600,"station_id":"","pricing_plan_id":"cebpf4jnsgd1na2vs0mg"},{"bike_id":"314c54bf-6fda-45c7-9b81-07b2b61ac08b","system_id":"levelo_inurba_marseille","lat":43.31692,"lon":5.40464,"is_reserved":false,"is_disabled":false,"rental_uris":{"android":"levelo://app?vid=314c54bf-6fda-45c7-9b81-07b2b61ac08b","ios":"levelo://app?vid=314c54bf-6fda-45c7-9b81-07b2b61ac08b"},"vehicle_type_id":"4","last_reported":1757758111,"current_range_meters":19600,"station_id":"ce4bh012rcd13ifvqd00","pricing_plan_id":"cebpf4jnsgd1na2vs0mg"},{"bike_id":"20d08a36-fa04-454f-b381-5c66030c764a","system_id":"levelo_inurba_marseille","lat":43.31476,"lon":5.37297,"is_reserved":false,"is_disabled":false,"rental_uris":{"android":"levelo://app?vid=20d08a36-fa04-454f-b381-5c66030c764a","ios":"levelo://app?vid=20d08a36-fa04-454f-b381-5c66030c764a"},"vehicle_type_id":"4","last_reported":1757758111,"current_range_meters":19600,"station_id":"ce4bgt12rcd13ifvqcd0","pricing_plan_id":"cebpf4jnsgd1na2vs0mg"},{"bike_id":"38fb07ef-d51a-4a81-a159-85cbf3466ec5","system_id":"levelo_inurba_marseille","lat":43.296093,"lon":5.377352,"is_reserved":false,"is_disabled":true,"rental_uris":{"android":"levelo://app?vid=38fb07ef-d51a-4a81-a159-85cbf3466ec5","ios":"levelo://app?vid=38fb07ef-d51a-4a81-a159-85cbf3466ec5"},"vehicle_type_id":"4","last_reported":1757758111,"current_range_meters":19600,"station_id":"ce4bgi92rcd13ifvqb90","pricing_plan_id":"cebpf4jnsgd1na2vs0mg"},{"bike_id":"d9e0c818-cda2-40f3-9d69-4d79eefe1a97","system_id":"levelo_inurba_marseille","lat":43.24946,"lon":5.40499,"is_reserved":false,"is_disabled":false,"rental_uris":{"android":"levelo://app?vid=d9e0c818-cda2-40f3-9d69-4d79eefe1a97","ios":"levelo://app?vid=d9e0c818-cda2-40f3-9d69-4d79eefe1a97"},"vehicle_type_id":"4","last_reported":1757758111,"current_range_meters":19600,"station_id":"st_d2ngiaodas8pm72gd1h0","pricing_plan_id":"cebpf4jnsgd1na2vs0mg"},{"bike_id":"72cbeeb6-1912-48c4-b0c4-4718bceff655","system_id":"levelo_inurba_marseille","lat":43.211919,"lon":5.350776,"is_reserved":false,"is_disabled":false,"rental_uris":{"android":"levelo://app?vid=72cbeeb6-1912-48c4-b0c4-4718bceff655","ios":"levelo://app?vid=72cbeeb6-1912-48c4-b0c4-4718bceff655"},"vehicle_type_id":"4","last_reported":1757758111,"current_range_meters":20000,"station_id":"","pricing_plan_id":"cebpf4jnsgd1na2vs0mg"},{"bike_id":"bc0e7932-20eb-4cc0-97c0-aa0dd624f3f4","system_id":"levelo_inurba_marseille","lat":43.29789,"lon":5.37108,"is_reserved":false,"is_disabled":false,"rental_uris":{"android":"levelo://app?vid=bc0e7932-20eb-4cc0-97c0-aa0dd624f3f4","ios":"levelo://app?vid=bc0e7932-20eb-4cc0-97c0-aa0dd624f3f4"},"vehicle_type_id":"4","last_reported":1757758111,"current_range_meters":20000,"station_id":"ce4bgop2rcd13ifvqc1g","pricing_plan_id":"cebpf4jnsgd1na2vs0mg"},{"bike_id":"88cefcd6-fafd-46ae-8097-772f1610e5d4","system_id":"levelo_inurba_marseille","lat":43.30187,"lon":5.36617,"is_reserved":false,"is_disabled":false,"rental_uris":{"android":"levelo://app?vid=88cefcd6-fafd-46ae-8097-772f1610e5d4","ios":"levelo://app?vid=88cefcd6-fafd-46ae-8097-772f1610e5d4"},"vehicle_type_id":"4","last_reported":1757758111,"current_range_meters":20000,"station_id":"ce4bgrh2rcd13ifvqc8g","pricing_plan_id":"cebpf4jnsgd1na2vs0mg"},{"bike_id":"a5c9522b-5261-4155-a4e2-94e2dce45723","system_id":"levelo_inurba_marseille","lat":43.24972,"lon":5.40471,"is_reserved":false,"is_disabled":false,"rental_uris":{"android":"levelo://app?vid=a5c9522b-5261-4155-a4e2-94e2dce45723","ios":"levelo://app?vid=a5c9522b-5261-4155-a4e2-94e2dce45723"},"vehicle_type_id":"4","last_reported":1757758111,"current_range_meters":20000,"station_id":"st_d2ngiaodas8pm72gd1h0","pricing_plan_id":"cebpf4jnsgd1na2vs0mg"},{"bike_id":"17df5858-7d68-41d3-a175-c67ae86203d0","system_id":"levelo_inurba_marseille","lat":43.24078,"lon":5.37759,"is_reserved":false,"is_disabled":false,"rental_uris":{"android":"levelo://app?vid=17df5858-7d68-41d3-a175-c67ae86203d0","ios":"levelo://app?vid=17df5858-7d68-41d3-a175-c67ae86203d0"},"vehicle_type_id":"4","last_reported":1757758111,"current_range_meters":20000,"station_id":"ce4bhnp2rcd13ifvqgvg","pricing_plan_id":"cebpf4jnsgd1na2vs0mg"},{"bike_id":"d0b51c92-8919-40a8-81c9-9ab53ac118e3","system_id":"levelo_inurba_marseille","lat":43.330188,"lon":5.390476,"is_reserved":false,"is_disabled":false,"rental_uris":{"android":"levelo://app?vid=d0b51c92-8919-40a8-81c9-9ab53ac118e3","ios":"levelo://app?vid=d0b51c92-8919-40a8-81c9-9ab53ac118e3"},"vehicle_type_id":"4","last_reported":1757758111,"current_range_meters":20000,"station_id":"ce4bhr92rcd13ifvqhrg","pricing_plan_id":"cebpf4jnsgd1na2vs0mg"},{"bike_id":"79e86952-917f-49c8-a7cb-f2d639c9e7dc","system_id":"levelo_inurba_marseille","lat":43.27618,"lon":5.36108,"is_reserved":false,"is_disabled":false,"rental_uris":{"android":"levelo://app?vid=79e86952-917f-49c8-a7cb-f2d639c9e7dc","ios":"levelo://app?vid=79e86952-917f-49c8-a7cb-f2d639c9e7dc"},"vehicle_type_id":"4","last_reported":1757758111,"current_range_meters":20000,"station_id":"ce4bgj92rcd13ifvqbe0","pricing_plan_id":"cebpf4jnsgd1na2vs0mg"},{"bike_id":"18f2785d-f77f-4f44-9cd8-13b9425d110e","system_id":"levelo_inurba_marseille","lat":43.29101,"lon":5.38127,"is_reserved":false,"is_disabled":false,"rental_uris":{"android":"levelo://app?vid=18f2785d-f77f-4f44-9cd8-13b9425d110e","ios":"levelo://app?vid=18f2785d-f77f-4f44-9cd8-13b9425d110e"},"vehicle_type_id":"4","last_reported":1757758111,"current_range_meters":19600,"station_id":"ce4bh512rcd13ifvqe2g","pricing_plan_id":"cebpf4jnsgd1na2vs0mg"},{"bike_id":"69154674-8aaa-4d29-bdba-2ea7e7c4c005","system_id":"levelo_inurba_marseille","lat":43.31075,"lon":5.42459,"is_reserved":false,"is_disabled":false,"rental_uris":{"android":"levelo://app?vid=69154674-8aaa-4d29-bdba-2ea7e7c4c005","ios":"levelo://app?vid=69154674-8aaa-4d29-bdba-2ea7e7c4c005"},"vehicle_type_id":"4","last_reported":1757758111,"current_range_meters":20000,"station_id":"ce4bhp92rcd13ifvqhag","pricing_plan_id":"cebpf4jnsgd1na2vs0mg"},{"bike_id":"8f98fae4-9156-4641-be43-6ba1294a9cc4","system_id":"levelo_inurba_marseille","lat":43.28225,"lon":5.39072,"is_reserved":false,"is_disabled":false,"rental_uris":{"android":"levelo://app?vid=8f98fae4-9156-4641-be43-6ba1294a9cc4","ios":"levelo://app?vid=8f98fae4-9156-4641-be43-6ba1294a9cc4"},"vehicle_type_id":"4","last_reported":1757758111,"current_range_meters":20400,"station_id":"ce4bhn92rcd13ifvqgsg","pricing_plan_id":"cebpf4jnsgd1na2vs0mg"},{"bike_id":"3283b7c7-ca97-44fb-913e-ab5791ec7c6a","system_id":"levelo_inurba_marseille","lat":43.30365,"lon":5.42499,"is_reserved":false,"is_disabled":false,"rental_uris":{"android":"levelo://app?vid=3283b7c7-ca97-44fb-913e-ab5791ec7c6a","ios":"levelo://app?vid=3283b7c7-ca97-44fb-913e-ab5791ec7c6a"},"vehicle_type_id":"4","last_reported":1757758111,"current_range_meters":20400,"station_id":"ce4bhoh2rcd13ifvqh6g","pricing_plan_id":"cebpf4jnsgd1na2vs0mg"},{"bike_id":"19bb9ad9-ce5f-4ce5-8233-51f18b2bd485","system_id":"levelo_inurba_marseille","lat":43.29043,"lon":5.39966,"is_reserved":false,"is_disabled":false,"rental_uris":{"android":"levelo://app?vid=19bb9ad9-ce5f-4ce5-8233-51f18b2bd485","ios":"levelo://app?vid=19bb9ad9-ce5f-4ce5-8233-51f18b2bd485"},"vehicle_type_id":"4","last_reported":1757758111,"current_range_meters":20400,"station_id":"ce4bh392rcd13ifvqdm0","pricing_plan_id":"cebpf4jnsgd1na2vs0mg"},{"bike_id":"4687cdfe-eb7b-43f0-ab3c-b590dca97461","system_id":"levelo_inurba_marseille","lat":43.29259,"lon":5.38437,"is_reserved":false,"is_disabled":false,"rental_uris":{"android":"levelo://app?vid=4687cdfe-eb7b-43f0-ab3c-b590dca97461","ios":"levelo://app?vid=4687cdfe-eb7b-43f0-ab3c-b590dca97461"},"vehicle_type_id":"4","last_reported":1757758111,"current_range_meters":20400,"station_id":"ce4bh692rcd13ifvqea0","pricing_plan_id":"cebpf4jnsgd1na2vs0mg"},{"bike_id":"c79f98a5-b132-4d8b-b050-5e48074dc6fe","system_id":"levelo_inurba_marseille","lat":43.31694,"lon":5.40401,"is_reserved":false,"is_disabled":false,"rental_uris":{"android":"levelo://app?vid=c79f98a5-b132-4d8b-b050-5e48074dc6fe","ios":"levelo://app?vid=c79f98a5-b132-4d8b-b050-5e48074dc6fe"},"vehicle_type_id":"4","last_reported":1757758111,"current_range_meters":20400,"station_id":"","pricing_plan_id":"cebpf4jnsgd1na2vs0mg"},{"bike_id":"ef7455d2-1bd9-4da0-8ae3-528589066897","system_id":"levelo_inurba_marseille","lat":43.29003,"lon":5.35611,"is_reserved":false,"is_disabled":false,"rental_uris":{"android":"levelo://app?vid=ef7455d2-1bd9-4da0-8ae3-528589066897","ios":"levelo://app?vid=ef7455d2-1bd9-4da0-8ae3-528589066897"},"vehicle_type_id":"4","last_reported":1757758111,"current_range_meters":20400,"station_id":"ce4bhb92rcd13ifvqen0","pricing_plan_id":"cebpf4jnsgd1na2vs0mg"},{"bike_id":"97e59ac0-fa91-4ea3-8eeb-17d2ec19f33f","system_id":"levelo_inurba_marseille","lat":43.31113,"lon":5.37768,"is_reserved":false,"is_disabled":false,"rental_uris":{"android":"levelo://app?vid=97e59ac0-fa91-4ea3-8eeb-17d2ec19f33f","ios":"levelo://app?vid=97e59ac0-fa91-4ea3-8eeb-17d2ec19f33f"},"vehicle_type_id":"4","last_reported":1757758111,"current_range_meters":20400,"station_id":"ce4bgt92rcd13ifvqcg0","pricing_plan_id":"cebpf4jnsgd1na2vs0mg"},{"bike_id":"bbf7527e-6947-4da8-be17-60b0da9c28cd","system_id":"levelo_inurba_marseille","lat":43.2867,"lon":5.38681,"is_reserved":false,"is_disabled":false,"rental_uris":{"android":"levelo://app?vid=bbf7527e-6947-4da8-be17-60b0da9c28cd","ios":"levelo://app?vid=bbf7527e-6947-4da8-be17-60b0da9c28cd"},"vehicle_type_id":"4","last_reported":1757758111,"current_range_meters":20400,"station_id":"ce4bh492rcd13ifvqdug","pricing_plan_id":"cebpf4jnsgd1na2vs0mg"},{"bike_id":"aa363d9e-9000-4f98-9e6d-adf7642d1e59","system_id":"levelo_inurba_marseille","lat":43.27068,"lon":5.42278,"is_reserved":false,"is_disabled":false,"rental_uris":{"android":"levelo://app?vid=aa363d9e-9000-4f98-9e6d-adf7642d1e59","ios":"levelo://app?vid=aa363d9e-9000-4f98-9e6d-adf7642d1e59"},"vehicle_type_id":"4","last_reported":1757758111,"current_range_meters":20400,"station_id":"ce4bhk92rcd13ifvqgb0","pricing_plan_id":"cebpf4jnsgd1na2vs0mg"},{"bike_id":"7dd08d74-12fd-4d88-ad3b-d200553dbabe","system_id":"levelo_inurba_marseille","lat":43.29041,"lon":5.39983,"is_reserved":false,"is_disabled":false,"rental_uris":{"android":"levelo://app?vid=7dd08d74-12fd-4d88-ad3b-d200553dbabe","ios":"levelo://app?vid=7dd08d74-12fd-4d88-ad3b-d200553dbabe"},"vehicle_type_id":"4","last_reported":1757758111,"current_range_meters":20800,"station_id":"ce4bh392rcd13ifvqdm0","pricing_plan_id":"cebpf4jnsgd1na2vs0mg"},{"bike_id":"b8c3af6f-2ca4-4e35-8c06-ea274d2062f4","system_id":"levelo_inurba_marseille","lat":43.30546,"lon":5.38423,"is_reserved":false,"is_disabled":false,"rental_uris":{"android":"levelo://app?vid=b8c3af6f-2ca4-4e35-8c06-ea274d2062f4","ios":"levelo://app?vid=b8c3af6f-2ca4-4e35-8c06-ea274d2062f4"},"vehicle_type_id":"4","last_reported":1757758111,"current_range_meters":20800,"station_id":"ce4bgg92rcd13ifvqb30","pricing_plan_id":"cebpf4jnsgd1na2vs0mg"},{"bike_id":"d4989255-ccec-4ec4-a938-20270a999cde","system_id":"levelo_inurba_marseille","lat":43.29039,"lon":5.39968,"is_reserved":false,"is_disabled":false,"rental_uris":{"android":"levelo://app?vid=d4989255-ccec-4ec4-a938-20270a999cde","ios":"levelo://app?vid=d4989255-ccec-4ec4-a938-20270a999cde"},"vehicle_type_id":"4","last_reported":1757758111,"current_range_meters":20800,"station_id":"ce4bh392rcd13ifvqdm0","pricing_plan_id":"cebpf4jnsgd1na2vs0mg"},{"bike_id":"22f29fde-4cf5-4a9b-994a-0e2fd1967670","system_id":"levelo_inurba_marseille","lat":43.24176,"lon":5.36393,"is_reserved":false,"is_disabled":false,"rental_uris":{"android":"levelo://app?vid=22f29fde-4cf5-4a9b-994a-0e2fd1967670","ios":"levelo://app?vid=22f29fde-4cf5-4a9b-994a-0e2fd1967670"},"vehicle_type_id":"4","last_reported":1757758111,"current_range_meters":20800,"station_id":"cpo36qri1sfpv3e86is0","pricing_plan_id":"cebpf4jnsgd1na2vs0mg"},{"bike_id":"4abcfd1f-d5ba-40bf-8216-a47803a52e59","system_id":"levelo_inurba_marseille","lat":43.24623,"lon":5.43148,"is_reserved":false,"is_disabled":false,"rental_uris":{"android":"levelo://app?vid=4abcfd1f-d5ba-40bf-8216-a47803a52e59","ios":"levelo://app?vid=4abcfd1f-d5ba-40bf-8216-a47803a52e59"},"vehicle_type_id":"4","last_reported":1757758111,"current_range_meters":20800,"station_id":"st_d2m6c4gdas8pm72e190g","pricing_plan_id":"cebpf4jnsgd1na2vs0mg"},{"bike_id":"0902a298-22b3-4b39-94e3-5464612a9579","system_id":"levelo_inurba_marseille","lat":43.28158,"lon":5.42654,"is_reserved":false,"is_disabled":false,"rental_uris":{"android":"levelo://app?vid=0902a298-22b3-4b39-94e3-5464612a9579","ios":"levelo://app?vid=0902a298-22b3-4b39-94e3-5464612a9579"},"vehicle_type_id":"4","last_reported":1757758111,"current_range_meters":20800,"station_id":"ce4bhnh2rcd13ifvqgug","pricing_plan_id":"cebpf4jnsgd1na2vs0mg"},{"bike_id":"5174441e-af33-4a89-82e8-64219b867fe0","system_id":"levelo_inurba_marseille","lat":43.239573,"lon":5.366556,"is_reserved":false,"is_disabled":false,"rental_uris":{"android":"levelo://app?vid=5174441e-af33-4a89-82e8-64219b867fe0","ios":"levelo://app?vid=5174441e-af33-4a89-82e8-64219b867fe0"},"vehicle_type_id":"4","last_reported":1757758111,"current_range_meters":20800,"station_id":"ce4bhi12rcd13ifvqfp0","pricing_plan_id":"cebpf4jnsgd1na2vs0mg"},{"bike_id":"41f39ace-e021-4e69-a8c7-69e88ecb6d41","system_id":"levelo_inurba_marseille","lat":43.30929,"lon":5.40155,"is_reserved":false,"is_disabled":false,"rental_uris":{"android":"levelo://app?vid=41f39ace-e021-4e69-a8c7-69e88ecb6d41","ios":"levelo://app?vid=41f39ace-e021-4e69-a8c7-69e88ecb6d41"},"vehicle_type_id":"4","last_reported":1757758111,"current_range_meters":20800,"station_id":"ce4bgvp2rcd13ifvqct0","pricing_plan_id":"cebpf4jnsgd1na2vs0mg"},{"bike_id":"9263dca3-e723-484c-a64b-46e2ed2e12b6","system_id":"levelo_inurba_marseille","lat":43.29777,"lon":5.37103,"is_reserved":false,"is_disabled":false,"rental_uris":{"android":"levelo://app?vid=9263dca3-e723-484c-a64b-46e2ed2e12b6","ios":"levelo://app?vid=9263dca3-e723-484c-a64b-46e2ed2e12b6"},"vehicle_type_id":"4","last_reported":1757758111,"current_range_meters":21600,"station_id":"ce4bgop2rcd13ifvqc1g","pricing_plan_id":"cebpf4jnsgd1na2vs0mg"},{"bike_id":"dd2c2c7a-37a9-4951-98cc-0a83fd9546b4","system_id":"levelo_inurba_marseille","lat":43.2559,"lon":5.38244,"is_reserved":false,"is_disabled":false,"rental_uris":{"android":"levelo://app?vid=dd2c2c7a-37a9-4951-98cc-0a83fd9546b4","ios":"levelo://app?vid=dd2c2c7a-37a9-4951-98cc-0a83fd9546b4"},"vehicle_type_id":"4","last_reported":1757758111,"current_range_meters":21600,"station_id":"ce4bhih2rcd13ifvqfs0","pricing_plan_id":"cebpf4jnsgd1na2vs0mg"},{"bike_id":"84a5505b-1c70-4fbd-8713-1aeafa411c7d","system_id":"levelo_inurba_marseille","lat":43.23206,"lon":5.35586,"is_reserved":false,"is_disabled":false,"rental_uris":{"android":"levelo://app?vid=84a5505b-1c70-4fbd-8713-1aeafa411c7d","ios":"levelo://app?vid=84a5505b-1c70-4fbd-8713-1aeafa411c7d"},"vehicle_type_id":"4","last_reported":1757758111,"current_range_meters":21600,"station_id":"ce4bhu92rcd13ifvqi70","pricing_plan_id":"cebpf4jnsgd1na2vs0mg"},{"bike_id":"e54a1e7f-72fe-4f72-999a-0b938621ab02","system_id":"levelo_inurba_marseille","lat":43.23141,"lon":5.43716,"is_reserved":false,"is_disabled":false,"rental_uris":{"android":"levelo://app?vid=e54a1e7f-72fe-4f72-999a-0b938621ab02","ios":"levelo://app?vid=e54a1e7f-72fe-4f72-999a-0b938621ab02"},"vehicle_type_id":"4","last_reported":1757758111,"current_range_meters":21600,"station_id":"ce4bhmp2rcd13ifvqgog","pricing_plan_id":"cebpf4jnsgd1na2vs0mg"},{"bike_id":"e80fe6e2-abfd-4485-aee0-8455c35e458e","system_id":"levelo_inurba_marseille","lat":43.29582,"lon":5.375137,"is_reserved":false,"is_disabled":false,"rental_uris":{"android":"levelo://app?vid=e80fe6e2-abfd-4485-aee0-8455c35e458e","ios":"levelo://app?vid=e80fe6e2-abfd-4485-aee0-8455c35e458e"},"vehicle_type_id":"4","last_reported":1757758111,"current_range_meters":21600,"station_id":"ce4bgh92rcd13ifvqb50","pricing_plan_id":"cebpf4jnsgd1na2vs0mg"},{"bike_id":"b6953673-0d9e-407c-b600-8f199ad84117","system_id":"levelo_inurba_marseille","lat":43.25329,"lon":5.42164,"is_reserved":false,"is_disabled":false,"rental_uris":{"android":"levelo://app?vid=b6953673-0d9e-407c-b600-8f199ad84117","ios":"levelo://app?vid=b6953673-0d9e-407c-b600-8f199ad84117"},"vehicle_type_id":"4","last_reported":1757758111,"current_range_meters":22000,"station_id":"st_d2m65c5bi1j21697t3ng","pricing_plan_id":"cebpf4jnsgd1na2vs0mg"},{"bike_id":"1b030d3e-a3ff-4fae-aaff-5a955d4d9e1c","system_id":"levelo_inurba_marseille","lat":43.29974,"lon":5.38491,"is_reserved":false,"is_disabled":false,"rental_uris":{"android":"levelo://app?vid=1b030d3e-a3ff-4fae-aaff-5a955d4d9e1c","ios":"levelo://app?vid=1b030d3e-a3ff-4fae-aaff-5a955d4d9e1c"},"vehicle_type_id":"4","last_reported":1757758111,"current_range_meters":22000,"station_id":"ce4bgj92rcd13ifvqbd0","pricing_plan_id":"cebpf4jnsgd1na2vs0mg"},{"bike_id":"fb135702-3497-4a53-8709-882e75f58370","system_id":"levelo_inurba_marseille","lat":43.26283,"lon":5.38781,"is_reserved":false,"is_disabled":false,"rental_uris":{"android":"levelo://app?vid=fb135702-3497-4a53-8709-882e75f58370","ios":"levelo://app?vid=fb135702-3497-4a53-8709-882e75f58370"},"vehicle_type_id":"4","last_reported":1757758111,"current_range_meters":22000,"station_id":"","pricing_plan_id":"cebpf4jnsgd1na2vs0mg"},{"bike_id":"b205361c-f9c9-4d5e-a27a-169f107dad29","system_id":"levelo_inurba_marseille","lat":43.28937,"lon":5.35818,"is_reserved":false,"is_disabled":false,"rental_uris":{"android":"levelo://app?vid=b205361c-f9c9-4d5e-a27a-169f107dad29","ios":"levelo://app?vid=b205361c-f9c9-4d5e-a27a-169f107dad29"},"vehicle_type_id":"4","last_reported":1757758111,"current_range_meters":22000,"station_id":"ce4bhb12rcd13ifvqem0","pricing_plan_id":"cebpf4jnsgd1na2vs0mg"},{"bike_id":"37f110ab-eaa1-47dd-a4ac-1c20036779ff","system_id":"levelo_inurba_marseille","lat":43.28608,"lon":5.37063,"is_reserved":false,"is_disabled":false,"rental_uris":{"android":"levelo://app?vid=37f110ab-eaa1-47dd-a4ac-1c20036779ff","ios":"levelo://app?vid=37f110ab-eaa1-47dd-a4ac-1c20036779ff"},"vehicle_type_id":"4","last_reported":1757758111,"current_range_meters":22000,"station_id":"ce4bht12rcd13ifvqi60","pricing_plan_id":"cebpf4jnsgd1na2vs0mg"},{"bike_id":"ad544647-5134-449d-92da-b8f9e88c737e","system_id":"levelo_inurba_marseille","lat":43.30689,"lon":5.40093,"is_reserved":false,"is_disabled":false,"rental_uris":{"android":"levelo://app?vid=ad544647-5134-449d-92da-b8f9e88c737e","ios":"levelo://app?vid=ad544647-5134-449d-92da-b8f9e88c737e"},"vehicle_type_id":"4","last_reported":1757758111,"current_range_meters":22000,"station_id":"ce4bh112rcd13ifvqda0","pricing_plan_id":"cebpf4jnsgd1na2vs0mg"},{"bike_id":"9a866ff7-e7db-4340-831b-151f8cc7ab9d","system_id":"levelo_inurba_marseille","lat":43.26544,"lon":5.3727,"is_reserved":false,"is_disabled":false,"rental_uris":{"android":"levelo://app?vid=9a866ff7-e7db-4340-831b-151f8cc7ab9d","ios":"levelo://app?vid=9a866ff7-e7db-4340-831b-151f8cc7ab9d"},"vehicle_type_id":"4","last_reported":1757758111,"current_range_meters":22000,"station_id":"ce4bhg12rcd13ifvqf70","pricing_plan_id":"cebpf4jnsgd1na2vs0mg"},{"bike_id":"f25e7494-1095-46f5-a3c2-97157c25a258","system_id":"levelo_inurba_marseille","lat":43.30592,"lon":5.39374,"is_reserved":false,"is_disabled":false,"rental_uris":{"android":"levelo://app?vid=f25e7494-1095-46f5-a3c2-97157c25a258","ios":"levelo://app?vid=f25e7494-1095-46f5-a3c2-97157c25a258"},"vehicle_type_id":"4","last_reported":1757758111,"current_range_meters":22400,"station_id":"ce4bh0p2rcd13ifvqd80","pricing_plan_id":"cebpf4jnsgd1na2vs0mg"},{"bike_id":"6a9d4c96-3aa9-4cdd-b4b0-9032765fa3d8","system_id":"levelo_inurba_marseille","lat":43.24954,"lon":5.40491,"is_reserved":false,"is_disabled":false,"rental_uris":{"android":"levelo://app?vid=6a9d4c96-3aa9-4cdd-b4b0-9032765fa3d8","ios":"levelo://app?vid=6a9d4c96-3aa9-4cdd-b4b0-9032765fa3d8"},"vehicle_type_id":"4","last_reported":1757758111,"current_range_meters":22400,"station_id":"st_d2ngiaodas8pm72gd1h0","pricing_plan_id":"cebpf4jnsgd1na2vs0mg"},{"bike_id":"465f26b9-42e4-4310-afe2-2a4f1b89ac71","system_id":"levelo_inurba_marseille","lat":43.2922,"lon":5.36054,"is_reserved":false,"is_disabled":false,"rental_uris":{"android":"levelo://app?vid=465f26b9-42e4-4310-afe2-2a4f1b89ac71","ios":"levelo://app?vid=465f26b9-42e4-4310-afe2-2a4f1b89ac71"},"vehicle_type_id":"4","last_reported":1757758111,"current_range_meters":22400,"station_id":"ce4bhbh2rcd13ifvqeqg","pricing_plan_id":"cebpf4jnsgd1na2vs0mg"},{"bike_id":"63103033-1684-466e-8c1d-aaac61be8780","system_id":"levelo_inurba_marseille","lat":43.2821,"lon":5.39057,"is_reserved":false,"is_disabled":false,"rental_uris":{"android":"levelo://app?vid=63103033-1684-466e-8c1d-aaac61be8780","ios":"levelo://app?vid=63103033-1684-466e-8c1d-aaac61be8780"},"vehicle_type_id":"4","last_reported":1757758111,"current_range_meters":22400,"station_id":"ce4bhn92rcd13ifvqgsg","pricing_plan_id":"cebpf4jnsgd1na2vs0mg"},{"bike_id":"ff781d72-0933-4e94-b6be-931983874e6c","system_id":"levelo_inurba_marseille","lat":43.32981,"lon":5.39064,"is_reserved":false,"is_disabled":false,"rental_uris":{"android":"levelo://app?vid=ff781d72-0933-4e94-b6be-931983874e6c","ios":"levelo://app?vid=ff781d72-0933-4e94-b6be-931983874e6c"},"vehicle_type_id":"4","last_reported":1757758111,"current_range_meters":22400,"station_id":"ce4bhr92rcd13ifvqhrg","pricing_plan_id":"cebpf4jnsgd1na2vs0mg"},{"bike_id":"eac55901-0179-4882-b7d8-302291de329b","system_id":"levelo_inurba_marseille","lat":43.24053,"lon":5.37715,"is_reserved":false,"is_disabled":false,"rental_uris":{"android":"levelo://app?vid=eac55901-0179-4882-b7d8-302291de329b","ios":"levelo://app?vid=eac55901-0179-4882-b7d8-302291de329b"},"vehicle_type_id":"4","last_reported":1757758111,"current_range_meters":22400,"station_id":"ce4bhnp2rcd13ifvqgvg","pricing_plan_id":"cebpf4jnsgd1na2vs0mg"},{"bike_id":"0b14ee4e-5f7b-49c6-bcf6-cc567a807302","system_id":"levelo_inurba_marseille","lat":43.284776,"lon":5.384189,"is_reserved":false,"is_disabled":false,"rental_uris":{"android":"levelo://app?vid=0b14ee4e-5f7b-49c6-bcf6-cc567a807302","ios":"levelo://app?vid=0b14ee4e-5f7b-49c6-bcf6-cc567a807302"},"vehicle_type_id":"4","last_reported":1757758111,"current_range_meters":22400,"station_id":"","pricing_plan_id":"cebpf4jnsgd1na2vs0mg"},{"bike_id":"d218c5c8-561a-4a42-b2aa-19b6c9da74fb","system_id":"levelo_inurba_marseille","lat":43.31692,"lon":5.40441,"is_reserved":false,"is_disabled":false,"rental_uris":{"android":"levelo://app?vid=d218c5c8-561a-4a42-b2aa-19b6c9da74fb","ios":"levelo://app?vid=d218c5c8-561a-4a42-b2aa-19b6c9da74fb"},"vehicle_type_id":"4","last_reported":1757758111,"current_range_meters":22400,"station_id":"ce4bh012rcd13ifvqd00","pricing_plan_id":"cebpf4jnsgd1na2vs0mg"},{"bike_id":"bd0dc0b3-ab3b-4eb1-8904-ded4c5b1d4d0","system_id":"levelo_inurba_marseille","lat":43.25119,"lon":5.40339,"is_reserved":false,"is_disabled":false,"rental_uris":{"android":"levelo://app?vid=bd0dc0b3-ab3b-4eb1-8904-ded4c5b1d4d0","ios":"levelo://app?vid=bd0dc0b3-ab3b-4eb1-8904-ded4c5b1d4d0"},"vehicle_type_id":"4","last_reported":1757758111,"current_range_meters":22400,"station_id":"ce4bhlh2rcd13ifvqgig","pricing_plan_id":"cebpf4jnsgd1na2vs0mg"},{"bike_id":"654df5a8-46fd-4bb1-a78c-219e858dd01e","system_id":"levelo_inurba_marseille","lat":43.288766,"lon":5.366809,"is_reserved":false,"is_disabled":false,"rental_uris":{"android":"levelo://app?vid=654df5a8-46fd-4bb1-a78c-219e858dd01e","ios":"levelo://app?vid=654df5a8-46fd-4bb1-a78c-219e858dd01e"},"vehicle_type_id":"4","last_reported":1757758111,"current_range_meters":22400,"station_id":"","pricing_plan_id":"cebpf4jnsgd1na2vs0mg"},{"bike_id":"e6290678-fd9e-4bb0-a7fa-74ca39992f5a","system_id":"levelo_inurba_marseille","lat":43.30144,"lon":5.37416,"is_reserved":false,"is_disabled":true,"rental_uris":{"android":"levelo://app?vid=e6290678-fd9e-4bb0-a7fa-74ca39992f5a","ios":"levelo://app?vid=e6290678-fd9e-4bb0-a7fa-74ca39992f5a"},"vehicle_type_id":"4","last_reported":1757758111,"current_range_meters":22400,"station_id":"","pricing_plan_id":"cebpf4jnsgd1na2vs0mg"},{"bike_id":"50e2e62d-efd6-4e6d-92ee-09f9607e6673","system_id":"levelo_inurba_marseille","lat":43.23191,"lon":5.355512,"is_reserved":false,"is_disabled":false,"rental_uris":{"android":"levelo://app?vid=50e2e62d-efd6-4e6d-92ee-09f9607e6673","ios":"levelo://app?vid=50e2e62d-efd6-4e6d-92ee-09f9607e6673"},"vehicle_type_id":"4","last_reported":1757758111,"current_range_meters":22800,"station_id":"ce4bhu92rcd13ifvqi70","pricing_plan_id":"cebpf4jnsgd1na2vs0mg"},{"bike_id":"254dfbce-8d46-4f4b-8c18-95b9b379b809","system_id":"levelo_inurba_marseille","lat":43.24644,"lon":5.3814,"is_reserved":false,"is_disabled":false,"rental_uris":{"android":"levelo://app?vid=254dfbce-8d46-4f4b-8c18-95b9b379b809","ios":"levelo://app?vid=254dfbce-8d46-4f4b-8c18-95b9b379b809"},"vehicle_type_id":"4","last_reported":1757758111,"current_range_meters":22800,"station_id":"ce4bhih2rcd13ifvqfr0","pricing_plan_id":"cebpf4jnsgd1na2vs0mg"},{"bike_id":"322c1f5a-85db-4ef6-bcd4-1b5c417c8ee0","system_id":"levelo_inurba_marseille","lat":43.3377,"lon":5.37488,"is_reserved":false,"is_disabled":false,"rental_uris":{"android":"levelo://app?vid=322c1f5a-85db-4ef6-bcd4-1b5c417c8ee0","ios":"levelo://app?vid=322c1f5a-85db-4ef6-bcd4-1b5c417c8ee0"},"vehicle_type_id":"4","last_reported":1757758111,"current_range_meters":22800,"station_id":"","pricing_plan_id":"cebpf4jnsgd1na2vs0mg"},{"bike_id":"b14de1d5-a78a-48cf-8772-2eb9f1d18b0b","system_id":"levelo_inurba_marseille","lat":43.26021,"lon":5.37552,"is_reserved":false,"is_disabled":false,"rental_uris":{"android":"levelo://app?vid=b14de1d5-a78a-48cf-8772-2eb9f1d18b0b","ios":"levelo://app?vid=b14de1d5-a78a-48cf-8772-2eb9f1d18b0b"},"vehicle_type_id":"4","last_reported":1757758111,"current_range_meters":22800,"station_id":"ce4bhgh2rcd13ifvqfa0","pricing_plan_id":"cebpf4jnsgd1na2vs0mg"},{"bike_id":"2b1bb623-26b8-4b03-bdde-97c0d5f84323","system_id":"levelo_inurba_marseille","lat":43.27955,"lon":5.41039,"is_reserved":false,"is_disabled":false,"rental_uris":{"android":"levelo://app?vid=2b1bb623-26b8-4b03-bdde-97c0d5f84323","ios":"levelo://app?vid=2b1bb623-26b8-4b03-bdde-97c0d5f84323"},"vehicle_type_id":"4","last_reported":1757758111,"current_range_meters":22800,"station_id":"ce4bhnp2rcd13ifvqh0g","pricing_plan_id":"cebpf4jnsgd1na2vs0mg"},