{"last_updated":1758956882,"ttl":60,"version":"2.2","data":{"bikes":[{"bike_id":"64279a81-ee34-4c3b-b57a-9b62bb0c0a24","system_id":"levelo_inurba_marseille","lat":43.31535,"lon":5.43176,"is_reserved":false,"is_disabled":false,"rental_uris":{"android":"levelo://app?vid=64279a81-ee34-4c3b-b57a-9b62bb0c0a24","ios":"levelo://app?vid=64279a81-ee34-4c3b-b57a-9b62bb0c0a24"},"vehicle_type_id":"4","last_reported":1758956882,"current_range_meters":2800,"station_id":"","pricing_plan_id":"cebpf4jnsgd1na2vs0mg"},{"bike_id":"da8ab96e-f88e-413c-a011-d7754e88ceba","system_id":"levelo_inurba_marseille","lat":43.29302,"lon":5.37458,"is_reserved":false,"is_disabled":false,"rental_uris":{"android":"levelo://app?vid=da8ab96e-f88e-413c-a011-d7754e88ceba","ios":"levelo://app?vid=da8ab96e-f88e-413c-a011-d7754e88ceba"},"vehicle_type_id":"4","last_reported":1758956882,"current_range_meters":3600,"station_id":"ce4bgi12rcd13ifvqb70","pricing_plan_id":"cebpf4jnsgd1na2vs0mg"},{"bike_id":"1d82d82c-5ec5-4868-bfab-dbfd2037a13d","system_id":"levelo_inurba_marseille","lat":43.30269,"lon":5.40054,"is_reserved":false,"is_disabled":false,"rental_uris":{"android":"levelo://app?vid=1d82d82c-5ec5-4868-bfab-dbfd2037a13d","ios":"levelo://app?vid=1d82d82c-5ec5-4868-bfab-dbfd2037a13d"},"vehicle_type_id":"4","last_reported":1758956882,"current_range_meters":3600,"station_id":"ce4bgvh2rcd13ifvqcs0","pricing_plan_id":"cebpf4jnsgd1na2vs0mg"},{"bike_id":"d8a2347c-225c-4028-b110-5b8c63be1a5a","system_id":"levelo_inurba_marseille","lat":43.28792,"lon":5.37643,"is_reserved":false,"is_disabled":false,"rental_uris":{"android":"levelo://app?vid=d8a2347c-225c-4028-b110-5b8c63be1a5a","ios":"levelo://app?vid=d8a2347c-225c-4028-b110-5b8c63be1a5a"},"vehicle_type_id":"4","last_reported":1758956882,"current_range_meters":4000,"station_id":"","pricing_plan_id":"cebpf4jnsgd1na2vs0mg"},{"bike_id":"4949fcce-d8e3-467f-b7b4-445f07ef4ae4","system_id":"levelo_inurba_marseille","lat":43.29925,"lon":5.36543,"is_reserved":false,"is_disabled":false,"rental_uris":{"android":"levelo://app?vid=4949fcce-d8e3-467f-b7b4-445f07ef4ae4","ios":"levelo://app?vid=4949fcce-d8e3-467f-b7b4-445f07ef4ae4"},"vehicle_type_id":"4","last_reported":1758956882,"current_range_meters":4000,"station_id":"ce4bgm92rcd13ifvqbr0","pricing_plan_id":"cebpf4jnsgd1na2vs0mg"},{"bike_id":"588bb5c6-d90f-4edd-b1de-2d2164a39c00","system_id":"levelo_inurba_marseille","lat":43.32948,"lon":5.39046,"is_reserved":false,"is_disabled":false,"rental_uris":{"android":"levelo://app?vid=588bb5c6-d90f-4edd-b1de-2d2164a39c00","ios":"levelo://app?vid=588bb5c6-d90f-4edd-b1de-2d2164a39c00"},"vehicle_type_id":"4","last_reported":1758956882,"current_range_meters":4000,"station_id":"","pricing_plan_id":"cebpf4jnsgd1na2vs0mg"},{"bike_id":"1a63f4be-1b6a-483c-bde4-dd65cea3561c","system_id":"levelo_inurba_marseille","lat":43.282642,"lon":5.350744,"is_reserved":false,"is_disabled":false,"rental_uris":{"android":"levelo://app?vid=1a63f4be-1b6a-483c-bde4-dd65cea3561c","ios":"levelo://app?vid=1a63f4be-1b6a-483c-bde4-dd65cea3561c"},"vehicle_type_id":"4","last_reported":1758956882,"current_range_meters":4400,"station_id":"","pricing_plan_id":"cebpf4jnsgd1na2vs0mg"},{"bike_id":"8d6491b5-e2bc-4211-9538-e9e885fe215e","system_id":"levelo_inurba_marseille","lat":43.23197,"lon":5.35557,"is_reserved":false,"is_disabled":false,"rental_uris":{"android":"levelo://app?vid=8d6491b5-e2bc-4211-9538-e9e885fe215e","ios":"levelo://app?vid=8d6491b5-e2bc-4211-9538-e9e885fe215e"},"vehicle_type_id":"4","last_reported":1758956882,"current_range_meters":4800,"station_id":"ce4bhu92rcd13ifvqi70","pricing_plan_id":"cebpf4jnsgd1na2vs0mg"},{"bike_id":"8eae954c-dab6-4303-94f5-569e1c483f62","system_id":"levelo_inurba_marseille","lat":43.294664,"lon":5.407618,"is_reserved":false,"is_disabled":false,"rental_uris":{"android":"levelo://app?vid=8eae954c-dab6-4303-94f5-569e1c483f62","ios":"levelo://app?vid=8eae954c-dab6-4303-94f5-569e1c483f62"},"vehicle_type_id":"4","last_reported":1758956882,"current_range_meters":4800,"station_id":"","pricing_plan_id":"cebpf4jnsgd1na2vs0mg"},{"bike_id":"003515e8-8117-44bb-979d-5f47e8d50fda","system_id":"levelo_inurba_marseille","lat":43.30626,"lon":5.37573,"is_reserved":false,"is_disabled":false,"rental_uris":{"android":"levelo://app?vid=003515e8-8117-44bb-979d-5f47e8d50fda","ios":"levelo://app?vid=003515e8-8117-44bb-979d-5f47e8d50fda"},"vehicle_type_id":"4","last_reported":1758956882,"current_range_meters":5600,"station_id":"","pricing_plan_id":"cebpf4jnsgd1na2vs0mg"},{"bike_id":"0a366caa-b462-4eaa-95bc-71e07880bea7","system_id":"levelo_inurba_marseille","lat":43.270533,"lon":5.402601,"is_reserved":false,"is_disabled":false,"rental_uris":{"android":"levelo://app?vid=0a366caa-b462-4eaa-95bc-71e07880bea7","ios":"levelo://app?vid=0a366caa-b462-4eaa-95bc-71e07880bea7"},"vehicle_type_id":"4","last_reported":1758956882,"current_range_meters":6000,"station_id":"ce4bhk92rcd13ifvqgc0","pricing_plan_id":"cebpf4jnsgd1na2vs0mg"},{"bike_id":"3c19536b-fb5b-4f9a-ab5d-bec9a9d3b963","system_id":"levelo_inurba_marseille","lat":43.24625,"lon":5.38971,"is_reserved":false,"is_disabled":false,"rental_uris":{"android":"levelo://app?vid=3c19536b-fb5b-4f9a-ab5d-bec9a9d3b963","ios":"levelo://app?vid=3c19536b-fb5b-4f9a-ab5d-bec9a9d3b963"},"vehicle_type_id":"4","last_reported":1758956882,"current_range_meters":6000,"station_id":"","pricing_plan_id":"cebpf4jnsgd1na2vs0mg"},{"bike_id":"fee689bb-cae2-4ff6-9789-75afd812a849","system_id":"levelo_inurba_marseille","lat":43.27999,"lon":5.40043,"is_reserved":false,"is_disabled":false,"rental_uris":{"android":"levelo://app?vid=fee689bb-cae2-4ff6-9789-75afd812a849","ios":"levelo://app?vid=fee689bb-cae2-4ff6-9789-75afd812a849"},"vehicle_type_id":"4","last_reported":1758956882,"current_range_meters":6000,"station_id":"ce4bho92rcd13ifvqh4g","pricing_plan_id":"cebpf4jnsgd1na2vs0mg"},{"bike_id":"f897d300-643c-4c7a-951b-f56d70ef23ca","system_id":"levelo_inurba_marseille","lat":43.303397,"lon":5.390744,"is_reserved":false,"is_disabled":false,"rental_uris":{"android":"levelo://app?vid=f897d300-643c-4c7a-951b-f56d70ef23ca","ios":"levelo://app?vid=f897d300-643c-4c7a-951b-f56d70ef23ca"},"vehicle_type_id":"4","last_reported":1758956882,"current_range_meters":6400,"station_id":"","pricing_plan_id":"cebpf4jnsgd1na2vs0mg"},{"bike_id":"c1add67e-d97b-4ae5-9936-32890a5a6c38","system_id":"levelo_inurba_marseille","lat":43.26777,"lon":5.39413,"is_reserved":false,"is_disabled":false,"rental_uris":{"android":"levelo://app?vid=c1add67e-d97b-4ae5-9936-32890a5a6c38","ios":"levelo://app?vid=c1add67e-d97b-4ae5-9936-32890a5a6c38"},"vehicle_type_id":"4","last_reported":1758956882,"current_range_meters":6400,"station_id":"ce4bhh12rcd13ifvqfg0","pricing_plan_id":"cebpf4jnsgd1na2vs0mg"},{"bike_id":"6a6d6cff-09b8-44e2-b0ef-2f3a93fde45f","system_id":"levelo_inurba_marseille","lat":43.29789,"lon":5.37908,"is_reserved":false,"is_disabled":false,"rental_uris":{"android":"levelo://app?vid=6a6d6cff-09b8-44e2-b0ef-2f3a93fde45f","ios":"levelo://app?vid=6a6d6cff-09b8-44e2-b0ef-2f3a93fde45f"},"vehicle_type_id":"4","last_reported":1758956882,"current_range_meters":6400,"station_id":"","pricing_plan_id":"cebpf4jnsgd1na2vs0mg"},{"bike_id":"e057a4ef-97bf-4e25-9a18-02598bbb0bbf","system_id":"levelo_inurba_marseille","lat":43.245522,"lon":5.39523,"is_reserved":false,"is_disabled":true,"rental_uris":{"android":"levelo://app?vid=e057a4ef-97bf-4e25-9a18-02598bbb0bbf","ios":"levelo://app?vid=e057a4ef-97bf-4e25-9a18-02598bbb0bbf"},"vehicle_type_id":"4","last_reported":1758956882,"current_range_meters":6400,"station_id":"ce4bhlp2rcd13ifvqgjg","pricing_plan_id":"cebpf4jnsgd1na2vs0mg"},{"bike_id":"95c8dbbf-39eb-4107-a1d7-5913a8bdf057","system_id":"levelo_inurba_marseille","lat":43.32339,"lon":5.40615,"is_reserved":false,"is_disabled":false,"rental_uris":{"android":"levelo://app?vid=95c8dbbf-39eb-4107-a1d7-5913a8bdf057","ios":"levelo://app?vid=95c8dbbf-39eb-4107-a1d7-5913a8bdf057"},"vehicle_type_id":"4","last_reported":1758956882,"current_range_meters":6400,"station_id":"ce4bhq92rcd13ifvqhjg","pricing_plan_id":"cebpf4jnsgd1na2vs0mg"},{"bike_id":"10570c5a-8e04-4e55-8478-90c821e94d73","system_id":"levelo_inurba_marseille","lat":43.33175,"lon":5.38215,"is_reserved":false,"is_disabled":false,"rental_uris":{"android":"levelo://app?vid=10570c5a-8e04-4e55-8478-90c821e94d73","ios":"levelo://app?vid=10570c5a-8e04-4e55-8478-90c821e94d73"},"vehicle_type_id":"4","last_reported":1758956882,"current_range_meters":6400,"station_id":"","pricing_plan_id":"cebpf4jnsgd1na2vs0mg"},{"bike_id":"25fe8629-2ae7-4be9-a2f0-d1d17eb42b1d","system_id":"levelo_inurba_marseille","lat":43.29306,"lon":5.37174,"is_reserved":false,"is_disabled":false,"rental_uris":{"android":"levelo://app?vid=25fe8629-2ae7-4be9-a2f0-d1d17eb42b1d","ios":"levelo://app?vid=25fe8629-2ae7-4be9-a2f0-d1d17eb42b1d"},"vehicle_type_id":"4","last_reported":1758956882,"current_range_meters":6800,"station_id":"ce4bgh92rcd13ifvqb40","pricing_plan_id":"cebpf4jnsgd1na2vs0mg"},{"bike_id":"f3dac6d8-b180-4928-85f1-c0e06c666299","system_id":"levelo_inurba_marseille","lat":43.2637,"lon":5.39645,"is_reserved":false,"is_disabled":false,"rental_uris":{"android":"levelo://app?vid=f3dac6d8-b180-4928-85f1-c0e06c666299","ios":"levelo://app?vid=f3dac6d8-b180-4928-85f1-c0e06c666299"},"vehicle_type_id":"4","last_reported":1758956882,"current_range_meters":6800,"station_id":"","pricing_plan_id":"cebpf4jnsgd1na2vs0mg"},{"bike_id":"c7f6a08b-c655-4213-b2ba-7d02e7f382fe","system_id":"levelo_inurba_marseille","lat":43.27988,"lon":5.39483,"is_reserved":false,"is_disabled":false,"rental_uris":{"android":"levelo://app?vid=c7f6a08b-c655-4213-b2ba-7d02e7f382fe","ios":"levelo://app?vid=c7f6a08b-c655-4213-b2ba-7d02e7f382fe"},"vehicle_type_id":"4","last_reported":1758956882,"current_range_meters":6800,"station_id":"","pricing_plan_id":"cebpf4jnsgd1na2vs0mg"},{"bike_id":"8cfc4174-b0cd-4d47-9abc-24b60bce3fcc","system_id":"levelo_inurba_marseille","lat":43.28424,"lon":5.37516,"is_reserved":false,"is_disabled":false,"rental_uris":{"android":"levelo://app?vid=8cfc4174-b0cd-4d47-9abc-24b60bce3fcc","ios":"levelo://app?vid=8cfc4174-b0cd-4d47-9abc-24b60bce3fcc"},"vehicle_type_id":"4","last_reported":1758956882,"current_range_meters":6800,"station_id":"","pricing_plan_id":"cebpf4jnsgd1na2vs0mg"},{"bike_id":"6ed89cc0-a1c2-411f-8cbe-6e0b5926bab7","system_id":"levelo_inurba_marseille","lat":43.29571,"lon":5.40026,"is_reserved":false,"is_disabled":false,"rental_uris":{"android":"levelo://app?vid=6ed89cc0-a1c2-411f-8cbe-6e0b5926bab7","ios":"levelo://app?vid=6ed89cc0-a1c2-411f-8cbe-6e0b5926bab7"},"vehicle_type_id":"4","last_reported":1758956882,"current_range_meters":6800,"station_id":"","pricing_plan_id":"cebpf4jnsgd1na2vs0mg"},{"bike_id":"0b1eb747-8274-4a8a-a752-7c30d6b68dc6","system_id":"levelo_inurba_marseille","lat":43.29885,"lon":5.43659,"is_reserved":false,"is_disabled":false,"rental_uris":{"android":"levelo://app?vid=0b1eb747-8274-4a8a-a752-7c30d6b68dc6","ios":"levelo://app?vid=0b1eb747-8274-4a8a-a752-7c30d6b68dc6"},"vehicle_type_id":"4","last_reported":1758956882,"current_range_meters":7200,"station_id":"ce4bhpp2rcd13ifvqhfg","pricing_plan_id":"cebpf4jnsgd1na2vs0mg"},{"bike_id":"041cd397-24ab-4e04-af23-07b961e161f4","system_id":"levelo_inurba_marseille","lat":43.337444,"lon":5.374475,"is_reserved":false,"is_disabled":false,"rental_uris":{"android":"levelo://app?vid=041cd397-24ab-4e04-af23-07b961e161f4","ios":"levelo://app?vid=041cd397-24ab-4e04-af23-07b961e161f4"},"vehicle_type_id":"4","last_reported":1758956882,"current_range_meters":7200,"station_id":"","pricing_plan_id":"cebpf4jnsgd1na2vs0mg"},{"bike_id":"78b43ab0-57e9-43ee-b7c6-fbbb1406e224","system_id":"levelo_inurba_marseille","lat":43.25736,"lon":5.4114,"is_reserved":false,"is_disabled":true,"rental_uris":{"android":"levelo://app?vid=78b43ab0-57e9-43ee-b7c6-fbbb1406e224","ios":"levelo://app?vid=78b43ab0-57e9-43ee-b7c6-fbbb1406e224"},"vehicle_type_id":"4","last_reported":1758956882,"current_range_meters":7200,"station_id":"ce4bhkp2rcd13ifvqgd0","pricing_plan_id":"cebpf4jnsgd1na2vs0mg"},{"bike_id":"b6fe7d16-db55-4eff-b368-1e4a76230d5d","system_id":"levelo_inurba_marseille","lat":43.28567,"lon":5.39503,"is_reserved":false,"is_disabled":false,"rental_uris":{"android":"levelo://app?vid=b6fe7d16-db55-4eff-b368-1e4a76230d5d","ios":"levelo://app?vid=b6fe7d16-db55-4eff-b368-1e4a76230d5d"},"vehicle_type_id":"4","last_reported":1758956882,"current_range_meters":7200,"station_id":"ce4bh292rcd13ifvqdg0","pricing_plan_id":"cebpf4jnsgd1na2vs0mg"},{"bike_id":"22e1526a-5d94-480e-9eef-c281aa35345c","system_id":"levelo_inurba_marseille","lat":43.21197,"lon":5.35088,"is_reserved":false,"is_disabled":false,"rental_uris":{"android":"levelo://app?vid=22e1526a-5d94-480e-9eef-c281aa35345c","ios":"levelo://app?vid=22e1526a-5d94-480e-9eef-c281aa35345c"},"vehicle_type_id":"4","last_reported":1758956882,"current_range_meters":8000,"station_id":"st_cvj6sg6p6f1abm77japg","pricing_plan_id":"cebpf4jnsgd1na2vs0mg"},{"bike_id":"c997d792-cf69-4564-bd42-903ef7057cc4","system_id":"levelo_inurba_marseille","lat":43.30319,"lon":5.40426,"is_reserved":false,"is_disabled":false,"rental_uris":{"android":"levelo://app?vid=c997d792-cf69-4564-bd42-903ef7057cc4","ios":"levelo://app?vid=c997d792-cf69-4564-bd42-903ef7057cc4"},"vehicle_type_id":"4","last_reported":1758956882,"current_range_meters":8000,"station_id":"ce4bh012rcd13ifvqd10","pricing_plan_id":"cebpf4jnsgd1na2vs0mg"},{"bike_id":"887d2329-ebc9-4a93-bc3c-660fe04dfc65","system_id":"levelo_inurba_marseille","lat":43.29311,"lon":5.36807,"is_reserved":false,"is_disabled":false,"rental_uris":{"android":"levelo://app?vid=887d2329-ebc9-4a93-bc3c-660fe04dfc65","ios":"levelo://app?vid=887d2329-ebc9-4a93-bc3c-660fe04dfc65"},"vehicle_type_id":"4","last_reported":1758956882,"current_range_meters":8000,"station_id":"ce4bhbp2rcd13ifvqesg","pricing_plan_id":"cebpf4jnsgd1na2vs0mg"},{"bike_id":"a898d2fd-6567-4531-a6ba-ae906960be4e","system_id":"levelo_inurba_marseille","lat":43.28918,"lon":5.36391,"is_reserved":false,"is_disabled":false,"rental_uris":{"android":"levelo://app?vid=a898d2fd-6567-4531-a6ba-ae906960be4e","ios":"levelo://app?vid=a898d2fd-6567-4531-a6ba-ae906960be4e"},"vehicle_type_id":"4","last_reported":1758956882,"current_range_meters":8000,"station_id":"ce4bhc92rcd13ifvqetg","pricing_plan_id":"cebpf4jnsgd1na2vs0mg"},{"bike_id":"75611fb7-df45-4d9f-9db0-a181136cc424","system_id":"levelo_inurba_marseille","lat":43.21749,"lon":5.34599,"is_reserved":false,"is_disabled":false,"rental_uris":{"android":"levelo://app?vid=75611fb7-df45-4d9f-9db0-a181136cc424","ios":"levelo://app?vid=75611fb7-df45-4d9f-9db0-a181136cc424"},"vehicle_type_id":"4","last_reported":1758956882,"current_range_meters":8400,"station_id":"st_cvj6r9ubvosntc0bgbag","pricing_plan_id":"cebpf4jnsgd1na2vs0mg"},{"bike_id":"174dfb4f-f618-4c2f-be1c-ae0d6b405e94","system_id":"levelo_inurba_marseille","lat":43.29683,"lon":5.38246,"is_reserved":false,"is_disabled":false,"rental_uris":{"android":"levelo://app?vid=174dfb4f-f618-4c2f-be1c-ae0d6b405e94","ios":"levelo://app?vid=174dfb4f-f618-4c2f-be1c-ae0d6b405e94"},"vehicle_type_id":"4","last_reported":1758956882,"current_range_meters":8400,"station_id":"","pricing_plan_id":"cebpf4jnsgd1na2vs0mg"},{"bike_id":"888d9833-34a2-4f76-b088-ac5f6b33041d","system_id":"levelo_inurba_marseille","lat":43.244118,"lon":5.370615,"is_reserved":false,"is_disabled":false,"rental_uris":{"android":"levelo://app?vid=888d9833-34a2-4f76-b088-ac5f6b33041d","ios":"levelo://app?vid=888d9833-34a2-4f76-b088-ac5f6b33041d"},"vehicle_type_id":"4","last_reported":1758956882,"current_range_meters":8400,"station_id":"ce4bhhh2rcd13ifvqfk0","pricing_plan_id":"cebpf4jnsgd1na2vs0mg"},{"bike_id":"b32ea362-4110-4c95-a3c1-98420d1eab7e","system_id":"levelo_inurba_marseille","lat":43.29574,"lon":5.37527,"is_reserved":false,"is_disabled":false,"rental_uris":{"android":"levelo://app?vid=b32ea362-4110-4c95-a3c1-98420d1eab7e","ios":"levelo://app?vid=b32ea362-4110-4c95-a3c1-98420d1eab7e"},"vehicle_type_id":"4","last_reported":1758956882,"current_range_meters":8400,"station_id":"ce4bgh92rcd13ifvqb50","pricing_plan_id":"cebpf4jnsgd1na2vs0mg"},{"bike_id":"780b653d-6974-4398-9a6d-ccc317bd950a","system_id":"levelo_inurba_marseille","lat":43.31689,"lon":5.376258,"is_reserved":false,"is_disabled":false,"rental_uris":{"android":"levelo://app?vid=780b653d-6974-4398-9a6d-ccc317bd950a","ios":"levelo://app?vid=780b653d-6974-4398-9a6d-ccc317bd950a"},"vehicle_type_id":"4","last_reported":1758956882,"current_range_meters":8400,"station_id":"ce4bgth2rcd13ifvqch0","pricing_plan_id":"cebpf4jnsgd1na2vs0mg"},{"bike_id":"87b16657-eeaf-4a1b-9184-a62af12c6a4d","system_id":"levelo_inurba_marseille","lat":43.27392,"lon":5.36264,"is_reserved":false,"is_disabled":false,"rental_uris":{"android":"levelo://app?vid=87b16657-eeaf-4a1b-9184-a62af12c6a4d","ios":"levelo://app?vid=87b16657-eeaf-4a1b-9184-a62af12c6a4d"},"vehicle_type_id":"4","last_reported":1758956882,"current_range_meters":8800,"station_id":"ce4bhbh2rcd13ifvqeo0","pricing_plan_id":"cebpf4jnsgd1na2vs0mg"},{"bike_id":"10a1f6b6-637c-4e45-a304-d180b707ff74","system_id":"levelo_inurba_marseille","lat":43.28413,"lon":5.37502,"is_reserved":false,"is_disabled":false,"rental_uris":{"android":"levelo://app?vid=10a1f6b6-637c-4e45-a304-d180b707ff74","ios":"levelo://app?vid=10a1f6b6-637c-4e45-a304-d180b707ff74"},"vehicle_type_id":"4","last_reported":1758956882,"current_range_meters":8800,"station_id":"","pricing_plan_id":"cebpf4jnsgd1na2vs0mg"},{"bike_id":"184acdf7-126b-4cd2-9609-a336621f25ed","system_id":"levelo_inurba_marseille","lat":43.292645,"lon":5.384419,"is_reserved":false,"is_disabled":false,"rental_uris":{"android":"levelo://app?vid=184acdf7-126b-4cd2-9609-a336621f25ed","ios":"levelo://app?vid=184acdf7-126b-4cd2-9609-a336621f25ed"},"vehicle_type_id":"4","last_reported":1758956882,"current_range_meters":8800,"station_id":"ce4bh692rcd13ifvqea0","pricing_plan_id":"cebpf4jnsgd1na2vs0mg"},{"bike_id":"53001c16-1dcc-4401-8407-fd1737bde282","system_id":"levelo_inurba_marseille","lat":43.29632,"lon":5.38157,"is_reserved":false,"is_disabled":false,"rental_uris":{"android":"levelo://app?vid=53001c16-1dcc-4401-8407-fd1737bde282","ios":"levelo://app?vid=53001c16-1dcc-4401-8407-fd1737bde282"},"vehicle_type_id":"4","last_reported":1758956882,"current_range_meters":8800,"station_id":"","pricing_plan_id":"cebpf4jnsgd1na2vs0mg"},{"bike_id":"8fb6b312-30ed-4765-90d6-32ed783bc889","system_id":"levelo_inurba_marseille","lat":43.299668,"lon":5.413323,"is_reserved":false,"is_disabled":true,"rental_uris":{"android":"levelo://app?vid=8fb6b312-30ed-4765-90d6-32ed783bc889","ios":"levelo://app?vid=8fb6b312-30ed-4765-90d6-32ed783bc889"},"vehicle_type_id":"4","last_reported":1758956882,"current_range_meters":8800,"station_id":"ce4bhp12rcd13ifvqh9g","pricing_plan_id":"cebpf4jnsgd1na2vs0mg"},{"bike_id":"20f3037e-5eb2-41d8-85bc-19d5a3fd98b2","system_id":"levelo_inurba_marseille","lat":43.25573,"lon":5.38227,"is_reserved":false,"is_disabled":false,"rental_uris":{"android":"levelo://app?vid=20f3037e-5eb2-41d8-85bc-19d5a3fd98b2","ios":"levelo://app?vid=20f3037e-5eb2-41d8-85bc-19d5a3fd98b2"},"vehicle_type_id":"4","last_reported":1758956882,"current_range_meters":8400,"station_id":"ce4bhih2rcd13ifvqfs0","pricing_plan_id":"cebpf4jnsgd1na2vs0mg"},{"bike_id":"a60274be-e39c-4dbe-bf75-6e30df67c0b7","system_id":"levelo_inurba_marseille","lat":43.231384,"lon":5.436908,"is_reserved":false,"is_disabled":false,"rental_uris":{"android":"levelo://app?vid=a60274be-e39c-4dbe-bf75-6e30df67c0b7","ios":"levelo://app?vid=a60274be-e39c-4dbe-bf75-6e30df67c0b7"},"vehicle_type_id":"4","last_reported":1758956882,"current_range_meters":8800,"station_id":"ce4bhmp2rcd13ifvqgog","pricing_plan_id":"cebpf4jnsgd1na2vs0mg"},{"bike_id":"a57b3feb-2354-42fe-87fd-e8fcee3a0260","system_id":"levelo_inurba_marseille","lat":43.26953,"lon":5.40241,"is_reserved":false,"is_disabled":false,"rental_uris":{"android":"levelo://app?vid=a57b3feb-2354-42fe-87fd-e8fcee3a0260","ios":"levelo://app?vid=a57b3feb-2354-42fe-87fd-e8fcee3a0260"},"vehicle_type_id":"4","last_reported":1758956882,"current_range_meters":8800,"station_id":"","pricing_plan_id":"cebpf4jnsgd1na2vs0mg"},{"bike_id":"6f7da9ea-ed51-485c-9b5c-d086b463c457","system_id":"levelo_inurba_marseille","lat":43.26196,"lon":5.37465,"is_reserved":false,"is_disabled":true,"rental_uris":{"android":"levelo://app?vid=6f7da9ea-ed51-485c-9b5c-d086b463c457","ios":"levelo://app?vid=6f7da9ea-ed51-485c-9b5c-d086b463c457"},"vehicle_type_id":"4","last_reported":1758956882,"current_range_meters":9200,"station_id":"ce4bhgp2rcd13ifvqfc0","pricing_plan_id":"cebpf4jnsgd1na2vs0mg"},{"bike_id":"b01b5bc6-6834-41fb-be97-f5b6fb7e9ec8","system_id":"levelo_inurba_marseille","lat":43.26322,"lon":5.39834,"is_reserved":false,"is_disabled":false,"rental_uris":{"android":"levelo://app?vid=b01b5bc6-6834-41fb-be97-f5b6fb7e9ec8","ios":"levelo://app?vid=b01b5bc6-6834-41fb-be97-f5b6fb7e9ec8"},"vehicle_type_id":"4","last_reported":1758956882,"current_range_meters":9200,"station_id":"","pricing_plan_id":"cebpf4jnsgd1na2vs0mg"},{"bike_id":"ea8a4eef-57a3-4dc7-b7e7-531bbcd9507c","system_id":"levelo_inurba_marseille","lat":43.32348,"lon":5.40621,"is_reserved":false,"is_disabled":false,"rental_uris":{"android":"levelo://app?vid=ea8a4eef-57a3-4dc7-b7e7-531bbcd9507c","ios":"levelo://app?vid=ea8a4eef-57a3-4dc7-b7e7-531bbcd9507c"},"vehicle_type_id":"4","last_reported":1758956882,"current_range_meters":9200,"station_id":"ce4bhq92rcd13ifvqhjg","pricing_plan_id":"cebpf4jnsgd1na2vs0mg"},{"bike_id":"bc99b895-3699-4134-852b-83f47aad0a0f","system_id":"levelo_inurba_marseille","lat":43.27614,"lon":5.36102,"is_reserved":false,"is_disabled":false,"rental_uris":{"android":"levelo://app?vid=bc99b895-3699-4134-852b-83f47aad0a0f","ios":"levelo://app?vid=bc99b895-3699-4134-852b-83f47aad0a0f"},"vehicle_type_id":"4","last_reported":1758956882,"current_range_meters":9200,"station_id":"ce4bgj92rcd13ifvqbe0","pricing_plan_id":"cebpf4jnsgd1na2vs0mg"},{"bike_id":"c975862c-3721-4ac1-a6a4-5b86cf0364aa","system_id":"levelo_inurba_marseille","lat":43.21215,"lon":5.35084,"is_reserved":false,"is_disabled":false,"rental_uris":{"android":"levelo://app?vid=c975862c-3721-4ac1-a6a4-5b86cf0364aa","ios":"levelo://app?vid=c975862c-3721-4ac1-a6a4-5b86cf0364aa"},"vehicle_type_id":"4","last_reported":1758956882,"current_range_meters":9200,"station_id":"st_cvj6sg6p6f1abm77japg","pricing_plan_id":"cebpf4jnsgd1na2vs0mg"},{"bike_id":"a639c491-c436-478a-8d5d-bd2c30b918ff","system_id":"levelo_inurba_marseille","lat":43.29744,"lon":5.37203,"is_reserved":false,"is_disabled":false,"rental_uris":{"android":"levelo://app?vid=a639c491-c436-478a-8d5d-bd2c30b918ff","ios":"levelo://app?vid=a639c491-c436-478a-8d5d-bd2c30b918ff"},"vehicle_type_id":"4","last_reported":1758956882,"current_range_meters":9200,"station_id":"","pricing_plan_id":"cebpf4jnsgd1na2vs0mg"},{"bike_id":"b77c0c26-5543-49c5-acf9-741f709ee51a","system_id":"levelo_inurba_marseille","lat":43.26477,"lon":5.39571,"is_reserved":false,"is_disabled":true,"rental_uris":{"android":"levelo://app?vid=b77c0c26-5543-49c5-acf9-741f709ee51a","ios":"levelo://app?vid=b77c0c26-5543-49c5-acf9-741f709ee51a"},"vehicle_type_id":"4","last_reported":1758956882,"current_range_meters":9200,"station_id":"ce4bhi12rcd13ifvqfq0","pricing_plan_id":"cebpf4jnsgd1na2vs0mg"},{"bike_id":"64df0cea-d93c-4085-a36a-82afb9602077","system_id":"levelo_inurba_marseille","lat":43.26224,"lon":5.40456,"is_reserved":false,"is_disabled":false,"rental_uris":{"android":"levelo://app?vid=64df0cea-d93c-4085-a36a-82afb9602077","ios":"levelo://app?vid=64df0cea-d93c-4085-a36a-82afb9602077"},"vehicle_type_id":"4","last_reported":1758956882,"current_range_meters":9600,"station_id":"ce4bhmh2rcd13ifvqgmg","pricing_plan_id":"cebpf4jnsgd1na2vs0mg"},{"bike_id":"8dc00af3-5715-49ae-82c9-28552fd6dd37","system_id":"levelo_inurba_marseille","lat":43.289977,"lon":5.356049,"is_reserved":false,"is_disabled":false,"rental_uris":{"android":"levelo://app?vid=8dc00af3-5715-49ae-82c9-28552fd6dd37","ios":"levelo://app?vid=8dc00af3-5715-49ae-82c9-28552fd6dd37"},"vehicle_type_id":"4","last_reported":1758956882,"current_range_meters":9600,"station_id":"ce4bhb92rcd13ifvqen0","pricing_plan_id":"cebpf4jnsgd1na2vs0mg"},{"bike_id":"2907de3a-cdb7-4c49-945b-9d4546080cdd","system_id":"levelo_inurba_marseille","lat":43.29476,"lon":5.36234,"is_reserved":false,"is_disabled":false,"rental_uris":{"android":"levelo://app?vid=2907de3a-cdb7-4c49-945b-9d4546080cdd","ios":"levelo://app?vid=2907de3a-cdb7-4c49-945b-9d4546080cdd"},"vehicle_type_id":"4","last_reported":1758956882,"current_range_meters":9600,"station_id":"","pricing_plan_id":"cebpf4jnsgd1na2vs0mg"},{"bike_id":"fad55caa-b226-4b3d-b96f-a62351891de6","system_id":"levelo_inurba_marseille","lat":43.29614,"lon":5.38105,"is_reserved":false,"is_disabled":false,"rental_uris":{"android":"levelo://app?vid=fad55caa-b226-4b3d-b96f-a62351891de6","ios":"levelo://app?vid=fad55caa-b226-4b3d-b96f-a62351891de6"},"vehicle_type_id":"4","last_reported":1758956882,"current_range_meters":10000,"station_id":"ce4bgl12rcd13ifvqbo0","pricing_plan_id":"cebpf4jnsgd1na2vs0mg"},{"bike_id":"6eba9538-fc0b-4b89-8be6-0859ee4fc5c9","system_id":"levelo_inurba_marseille","lat":43.29186,"lon":5.35801,"is_reserved":false,"is_disabled":false,"rental_uris":{"android":"levelo://app?vid=6eba9538-fc0b-4b89-8be6-0859ee4fc5c9","ios":"levelo://app?vid=6eba9538-fc0b-4b89-8be6-0859ee4fc5c9"},"vehicle_type_id":"4","last_reported":1758956882,"current_range_meters":10000,"station_id":"ce4bhb12rcd13ifvqel0","pricing_plan_id":"cebpf4jnsgd1na2vs0mg"},{"bike_id":"87194717-d0d0-4d7e-b2f1-1afb4445bc8b","system_id":"levelo_inurba_marseille","lat":43.25093,"lon":5.39521,"is_reserved":false,"is_disabled":false,"rental_uris":{"android":"levelo://app?vid=87194717-d0d0-4d7e-b2f1-1afb4445bc8b","ios":"levelo://app?vid=87194717-d0d0-4d7e-b2f1-1afb4445bc8b"},"vehicle_type_id":"4","last_reported":1758956882,"current_range_meters":10000,"station_id":"ce4bhm12rcd13ifvqgkg","pricing_plan_id":"cebpf4jnsgd1na2vs0mg"},{"bike_id":"3f51e03c-3abb-4dde-8cdd-da596aa3252f","system_id":"levelo_inurba_marseille","lat":43.27672,"lon":5.38893,"is_reserved":false,"is_disabled":true,"rental_uris":{"android":"levelo://app?vid=3f51e03c-3abb-4dde-8cdd-da596aa3252f","ios":"levelo://app?vid=3f51e03c-3abb-4dde-8cdd-da596aa3252f"},"vehicle_type_id":"4","last_reported":1758956882,"current_range_meters":10000,"station_id":"ce4bhi12rcd13ifvqfo0","pricing_plan_id":"cebpf4jnsgd1na2vs0mg"},{"bike_id":"9a4f92ed-e086-4038-a651-bbe0613f80bd","system_id":"levelo_inurba_marseille","lat":43.22575,"lon":5.41627,"is_reserved":false,"is_disabled":false,"rental_uris":{"android":"levelo://app?vid=9a4f92ed-e086-4038-a651-bbe0613f80bd","ios":"levelo://app?vid=9a4f92ed-e086-4038-a651-bbe0613f80bd"},"vehicle_type_id":"4","last_reported":1758956882,"current_range_meters":10000,"station_id":"st_d2o4gvlbi1j2169b742g","pricing_plan_id":"cebpf4jnsgd1na2vs0mg"},{"bike_id":"fd7db3b2-bf6f-47a6-a193-d9e54fb8924d","system_id":"levelo_inurba_marseille","lat":43.32443,"lon":5.38932,"is_reserved":false,"is_disabled":false,"rental_uris":{"android":"levelo://app?vid=fd7db3b2-bf6f-47a6-a193-d9e54fb8924d","ios":"levelo://app?vid=fd7db3b2-bf6f-47a6-a193-d9e54fb8924d"},"vehicle_type_id":"4","last_reported":1758956882,"current_range_meters":10000,"station_id":"","pricing_plan_id":"cebpf4jnsgd1na2vs0mg"},{"bike_id":"de3747e9-e37c-4cdb-ad1a-9f67e8a91990","system_id":"levelo_inurba_marseille","lat":43.23201,"lon":5.39989,"is_reserved":false,"is_disabled":false,"rental_uris":{"android":"levelo://app?vid=de3747e9-e37c-4cdb-ad1a-9f67e8a91990","ios":"levelo://app?vid=de3747e9-e37c-4cdb-ad1a-9f67e8a91990"},"vehicle_type_id":"4","last_reported":1758956882,"current_range_meters":10000,"station_id":"ce4bhn12rcd13ifvqgqg","pricing_plan_id":"cebpf4jnsgd1na2vs0mg"},{"bike_id":"beedc081-2f74-4443-83b8-86641378e1ea","system_id":"levelo_inurba_marseille","lat":43.27174,"lon":5.4101,"is_reserved":false,"is_disabled":false,"rental_uris":{"android":"levelo://app?vid=beedc081-2f74-4443-83b8-86641378e1ea","ios":"levelo://app?vid=beedc081-2f74-4443-83b8-86641378e1ea"},"vehicle_type_id":"4","last_reported":1758956882,"current_range_meters":10000,"station_id":"ce4bhl12rcd13ifvqgf0","pricing_plan_id":"cebpf4jnsgd1na2vs0mg"},{"bike_id":"04e1f2fc-a999-4e5d-b642-eb389a3f0235","system_id":"levelo_inurba_marseille","lat":43.30533,"lon":5.36549,"is_reserved":false,"is_disabled":true,"rental_uris":{"android":"levelo://app?vid=04e1f2fc-a999-4e5d-b642-eb389a3f0235","ios":"levelo://app?vid=04e1f2fc-a999-4e5d-b642-eb389a3f0235"},"vehicle_type_id":"4","last_reported":1758956882,"current_range_meters":10000,"station_id":"ce4bgs12rcd13ifvqcag","pricing_plan_id":"cebpf4jnsgd1na2vs0mg"},{"bike_id":"e068fba2-d5f5-4586-981c-84563a6c6666","system_id":"levelo_inurba_marseille","lat":43.31328,"lon":5.39691,"is_reserved":false,"is_disabled":false,"rental_uris":{"android":"levelo://app?vid=e068fba2-d5f5-4586-981c-84563a6c6666","ios":"levelo://app?vid=e068fba2-d5f5-4586-981c-84563a6c6666"},"vehicle_type_id":"4","last_reported":1758956882,"current_range_meters":11200,"station_id":"ce4bgvp2rcd13ifvqcu0","pricing_plan_id":"cebpf4jnsgd1na2vs0mg"},{"bike_id":"0ea41344-eefb-4701-8c32-712cc43b7e62","system_id":"levelo_inurba_marseille","lat":43.314936,"lon":5.373047,"is_reserved":false,"is_disabled":false,"rental_uris":{"android":"levelo://app?vid=0ea41344-eefb-4701-8c32-712cc43b7e62","ios":"levelo://app?vid=0ea41344-eefb-4701-8c32-712cc43b7e62"},"vehicle_type_id":"4","last_reported":1758956882,"current_range_meters":10000,"station_id":"ce4bgt12rcd13ifvqcd0","pricing_plan_id":"cebpf4jnsgd1na2vs0mg"},{"bike_id":"492ad12c-b243-47af-8b99-b8dc1dc5237a","system_id":"levelo_inurba_marseille","lat":43.229273,"lon":5.353711,"is_reserved":false,"is_disabled":false,"rental_uris":{"android":"levelo://app?vid=492ad12c-b243-47af-8b99-b8dc1dc5237a","ios":"levelo://app?vid=492ad12c-b243-47af-8b99-b8dc1dc5237a"},"vehicle_type_id":"4","last_reported":1758956882,"current_range_meters":10000,"station_id":"cpo3532slgdg3j2ikp40","pricing_plan_id":"cebpf4jnsgd1na2vs0mg"},{"bike_id":"82397662-c3a0-420a-a710-2430e3969fa7","system_id":"levelo_inurba_marseille","lat":43.27371,"lon":5.36267,"is_reserved":false,"is_disabled":false,"rental_uris":{"android":"levelo://app?vid=82397662-c3a0-420a-a710-2430e3969fa7","ios":"levelo://app?vid=82397662-c3a0-420a-a710-2430e3969fa7"},"vehicle_type_id":"4","last_reported":1758956882,"current_range_meters":10800,"station_id":"ce4bhbh2rcd13ifvqeo0","pricing_plan_id":"cebpf4jnsgd1na2vs0mg"},{"bike_id":"57dc4d48-a588-470d-9e76-731f989cf022","system_id":"levelo_inurba_marseille","lat":43.27181,"lon":5.40988,"is_reserved":false,"is_disabled":false,"rental_uris":{"android":"levelo://app?vid=57dc4d48-a588-470d-9e76-731f989cf022","ios":"levelo://app?vid=57dc4d48-a588-470d-9e76-731f989cf022"},"vehicle_type_id":"4","last_reported":1758956882,"current_range_meters":10800,"station_id":"ce4bhl12rcd13ifvqgf0","pricing_plan_id":"cebpf4jnsgd1na2vs0mg"},{"bike_id":"08fe2b08-b3fa-43f8-ae73-04061f76318d","system_id":"levelo_inurba_marseille","lat":43.305552,"lon":5.365395,"is_reserved":false,"is_disabled":false,"rental_uris":{"android":"levelo://app?vid=08fe2b08-b3fa-43f8-ae73-04061f76318d","ios":"levelo://app?vid=08fe2b08-b3fa-43f8-ae73-04061f76318d"},"vehicle_type_id":"4","last_reported":1758956882,"current_range_meters":10800,"station_id":"","pricing_plan_id":"cebpf4jnsgd1na2vs0mg"},{"bike_id":"09018ec9-72c9-4d84-9d68-5aef86bf762b","system_id":"levelo_inurba_marseille","lat":43.33023,"lon":5.39043,"is_reserved":false,"is_disabled":false,"rental_uris":{"android":"levelo://app?vid=09018ec9-72c9-4d84-9d68-5aef86bf762b","ios":"levelo://app?vid=09018ec9-72c9-4d84-9d68-5aef86bf762b"},"vehicle_type_id":"4","last_reported":1758956882,"current_range_meters":10800,"station_id":"ce4bhr92rcd13ifvqhrg","pricing_plan_id":"cebpf4jnsgd1na2vs0mg"},{"bike_id":"10b8d871-07e9-4114-9eb9-6bcce40e7beb","system_id":"levelo_inurba_marseille","lat":43.27045,"lon":5.392226,"is_reserved":false,"is_disabled":false,"rental_uris":{"android":"levelo://app?vid=10b8d871-07e9-4114-9eb9-6bcce40e7beb","ios":"levelo://app?vid=10b8d871-07e9-4114-9eb9-6bcce40e7beb"},"vehicle_type_id":"4","last_reported":1758956882,"current_range_meters":10800,"station_id":"ce4bhe12rcd13ifvqf30","pricing_plan_id":"cebpf4jnsgd1na2vs0mg"},{"bike_id":"0b2fda4e-ac18-414b-8b05-54fcdd4fc421","system_id":"levelo_inurba_marseille","lat":43.32283,"lon":5.38284,"is_reserved":false,"is_disabled":false,"rental_uris":{"android":"levelo://app?vid=0b2fda4e-ac18-414b-8b05-54fcdd4fc421","ios":"levelo://app?vid=0b2fda4e-ac18-414b-8b05-54fcdd4fc421"},"vehicle_type_id":"4","last_reported":1758956882,"current_range_meters":10800,"station_id":"ce4bhr12rcd13ifvqhqg","pricing_plan_id":"cebpf4jnsgd1na2vs0mg"},{"bike_id":"512844d5-2399-4f17-94e2-f8e1f228aa8b","system_id":"levelo_inurba_marseille","lat":43.25027,"lon":5.38944,"is_reserved":false,"is_disabled":false,"rental_uris":{"android":"levelo://app?vid=512844d5-2399-4f17-94e2-f8e1f228aa8b","ios":"levelo://app?vid=512844d5-2399-4f17-94e2-f8e1f228aa8b"},"vehicle_type_id":"4","last_reported":1758956882,"current_range_meters":10800,"station_id":"ce4bhgp2rcd13ifvqfd0","pricing_plan_id":"cebpf4jnsgd1na2vs0mg"},{"bike_id":"dbee219e-5153-4b73-9f21-b46d94357ac7","system_id":"levelo_inurba_marseille","lat":43.298999,"lon":5.381277,"is_reserved":false,"is_disabled":true,"rental_uris":{"android":"levelo://app?vid=dbee219e-5153-4b73-9f21-b46d94357ac7","ios":"levelo://app?vid=dbee219e-5153-4b73-9f21-b46d94357ac7"},"vehicle_type_id":"4","last_reported":1758956882,"current_range_meters":10800,"station_id":"ce4bgj12rcd13ifvqbc0","pricing_plan_id":"cebpf4jnsgd1na2vs0mg"},{"bike_id":"cff89afc-fc2e-4a21-b156-855b02c41c7a","system_id":"levelo_inurba_marseille","lat":43.29009,"lon":5.35581,"is_reserved":false,"is_disabled":false,"rental_uris":{"android":"levelo://app?vid=cff89afc-fc2e-4a21-b156-855b02c41c7a","ios":"levelo://app?vid=cff89afc-fc2e-4a21-b156-855b02c41c7a"},"vehicle_type_id":"4","last_reported":1758956882,"current_range_meters":11200,"station_id":"ce4bhb92rcd13ifvqen0","pricing_plan_id":"cebpf4jnsgd1na2vs0mg"},{"bike_id":"7266fb39-452a-4e7f-aafa-8725c9c5d955","system_id":"levelo_inurba_marseille","lat":43.271771,"lon":5.409901,"is_reserved":false,"is_disabled":false,"rental_uris":{"android":"levelo://app?vid=7266fb39-452a-4e7f-aafa-8725c9c5d955","ios":"levelo://app?vid=7266fb39-452a-4e7f-aafa-8725c9c5d955"},"vehicle_type_id":"4","last_reported":1758956882,"current_range_meters":11200,"station_id":"ce4bhl12rcd13ifvqgf0","pricing_plan_id":"cebpf4jnsgd1na2vs0mg"},{"bike_id":"6c00a6a0-3cf0-48a9-b218-0693fab11be9","system_id":"levelo_inurba_marseille","lat":43.30306,"lon":5.43524,"is_reserved":false,"is_disabled":false,"rental_uris":{"android":"levelo://app?vid=6c00a6a0-3cf0-48a9-b218-0693fab11be9","ios":"levelo://app?vid=6c00a6a0-3cf0-48a9-b218-0693fab11be9"},"vehicle_type_id":"4","last_reported":1758956882,"current_range_meters":11200,"station_id":"","pricing_plan_id":"cebpf4jnsgd1na2vs0mg"},{"bike_id":"85782661-163d-4a8b-b5a4-1f0a766faaa2","system_id":"levelo_inurba_marseille","lat":43.246274,"lon":5.431434,"is_reserved":false,"is_disabled":false,"rental_uris":{"android":"levelo://app?vid=85782661-163d-4a8b-b5a4-1f0a766faaa2","ios":"levelo://app?vid=85782661-163d-4a8b-b5a4-1f0a766faaa2"},"vehicle_type_id":"4","last_reported":1758956882,"current_range_meters":11200,"station_id":"st_d2m6c4gdas8pm72e190g","pricing_plan_id":"cebpf4jnsgd1na2vs0mg"},{"bike_id":"fd4b5ad5-2581-44dd-90b2-f4a8fbdc2423","system_id":"levelo_inurba_marseille","lat":43.299011,"lon":5.364989,"is_reserved":false,"is_disabled":false,"rental_uris":{"android":"levelo://app?vid=fd4b5ad5-2581-44dd-90b2-f4a8fbdc2423","ios":"levelo://app?vid=fd4b5ad5-2581-44dd-90b2-f4a8fbdc2423"},"vehicle_type_id":"4","last_reported":1758956882,"current_range_meters":11200,"station_id":"","pricing_plan_id":"cebpf4jnsgd1na2vs0mg"},{"bike_id":"7412c2bc-126e-4fde-a5a2-6602deef6b91","system_id":"levelo_inurba_marseille","lat":43.29851,"lon":5.36292,"is_reserved":false,"is_disabled":false,"rental_uris":{"android":"levelo://app?vid=7412c2bc-126e-4fde-a5a2-6602deef6b91","ios":"levelo://app?vid=7412c2bc-126e-4fde-a5a2-6602deef6b91"},"vehicle_type_id":"4","last_reported":1758956882,"current_range_meters":11200,"station_id":"ce4bgpp2rcd13ifvqc3g","pricing_plan_id":"cebpf4jnsgd1na2vs0mg"},{"bike_id":"fc88e4a3-bba5-409d-aedf-70a9d539a9c0","system_id":"levelo_inurba_marseille","lat":43.308868,"lon":5.39636,"is_reserved":false,"is_disabled":false,"rental_uris":{"android":"levelo://app?vid=fc88e4a3-bba5-409d-aedf-70a9d539a9c0","ios":"levelo://app?vid=fc88e4a3-bba5-409d-aedf-70a9d539a9c0"},"vehicle_type_id":"4","last_reported":1758956882,"current_range_meters":11200,"station_id":"ce4bh012rcd13ifvqcv0","pricing_plan_id":"cebpf4jnsgd1na2vs0mg"},{"bike_id":"fee74e98-eb52-4f66-a612-109c75f34aa6","system_id":"levelo_inurba_marseille","lat":43.296216,"lon":5.379492,"is_reserved":false,"is_disabled":false,"rental_uris":{"android":"levelo://app?vid=fee74e98-eb52-4f66-a612-109c75f34aa6","ios":"levelo://app?vid=fee74e98-eb52-4f66-a612-109c75f34aa6"},"vehicle_type_id":"4","last_reported":1758956882,"current_range_meters":11200,"station_id":"","pricing_plan_id":"cebpf4jnsgd1na2vs0mg"},{"bike_id":"460dc79f-5575-4f99-ae1a-a43c8adf9ace","system_id":"levelo_inurba_marseille","lat":43.25338,"lon":5.42168,"is_reserved":false,"is_disabled":false,"rental_uris":{"android":"levelo://app?vid=460dc79f-5575-4f99-ae1a-a43c8adf9ace","ios":"levelo://app?vid=460dc79f-5575-4f99-ae1a-a43c8adf9ace"},"vehicle_type_id":"4","last_reported":1758956882,"current_range_meters":11200,"station_id":"st_d2m65c5bi1j21697t3ng","pricing_plan_id":"cebpf4jnsgd1na2vs0mg"},{"bike_id":"de37a4c8-34a4-4a8f-b54c-1bbc676690f8","system_id":"levelo_inurba_marseille","lat":43.30302,"lon":5.40448,"is_reserved":false,"is_disabled":false,"rental_uris":{"android":"levelo://app?vid=de37a4c8-34a4-4a8f-b54c-1bbc676690f8","ios":"levelo://app?vid=de37a4c8-34a4-4a8f-b54c-1bbc676690f8"},"vehicle_type_id":"4","last_reported":1758956882,"current_range_meters":11200,"station_id":"ce4bh012rcd13ifvqd10","pricing_plan_id":"cebpf4jnsgd1na2vs0mg"},{"bike_id":"c37e5625-b670-436a-802f-d0e6109b1c8f","system_id":"levelo_inurba_marseille","lat":43.30171,"lon":5.38097,"is_reserved":false,"is_disabled":false,"rental_uris":{"android":"levelo://app?vid=c37e5625-b670-436a-802f-d0e6109b1c8f","ios":"levelo://app?vid=c37e5625-b670-436a-802f-d0e6109b1c8f"},"vehicle_type_id":"4","last_reported":1758956882,"current_range_meters":11200,"station_id":"ce4bgjp2rcd13ifvqbh0","pricing_plan_id":"cebpf4jnsgd1na2vs0mg"},{"bike_id":"8cf842e4-76c1-4a82-ad31-66529da65dba","system_id":"levelo_inurba_marseille","lat":43.267,"lon":5.40223,"is_reserved":false,"is_disabled":false,"rental_uris":{"android":"levelo://app?vid=8cf842e4-76c1-4a82-ad31-66529da65dba","ios":"levelo://app?vid=8cf842e4-76c1-4a82-ad31-66529da65dba"},"vehicle_type_id":"4","last_reported":1758956882,"current_range_meters":11600,"station_id":"","pricing_plan_id":"cebpf4jnsgd1na2vs0mg"},{"bike_id":"735b4eef-5ed2-47aa-ab59-36616a810357","system_id":"levelo_inurba_marseille","lat":43.28044,"lon":5.39136,"is_reserved":false,"is_disabled":false,"rental_uris":{"android":"levelo://app?vid=735b4eef-5ed2-47aa-ab59-36616a810357","ios":"levelo://app?vid=735b4eef-5ed2-47aa-ab59-36616a810357"},"vehicle_type_id":"4","last_reported":1758956882,"current_range_meters":11600,"station_id":"","pricing_plan_id":"cebpf4jnsgd1na2vs0mg"},{"bike_id":"3652de56-c611-41c6-aa03-7fef6136da9d","system_id":"levelo_inurba_marseille","lat":43.250048,"lon":5.389261,"is_reserved":false,"is_disabled":false,"rental_uris":{"android":"levelo://app?vid=3652de56-c611-41c6-aa03-7fef6136da9d","ios":"levelo://app?vid=3652de56-c611-41c6-aa03-7fef6136da9d"},"vehicle_type_id":"4","last_reported":1758956882,"current_range_meters":11600,"station_id":"ce4bhgp2rcd13ifvqfd0","pricing_plan_id":"cebpf4jnsgd1na2vs0mg"},{"bike_id":"5a85c95d-db7c-4aff-bb3e-11fe5a5d2127","system_id":"levelo_inurba_marseille","lat":43.26564,"lon":5.39042,"is_reserved":false,"is_disabled":false,"rental_uris":{"android":"levelo://app?vid=5a85c95d-db7c-4aff-bb3e-11fe5a5d2127","ios":"levelo://app?vid=5a85c95d-db7c-4aff-bb3e-11fe5a5d2127"},"vehicle_type_id":"4","last_reported":1758956882,"current_range_meters":11600,"station_id":"ce4bhe12rcd13ifvqf30","pricing_plan_id":"cebpf4jnsgd1na2vs0mg"},{"bike_id":"67ce24ae-94e5-4973-b016-d38e83715ffb","system_id":"levelo_inurba_marseille","lat":43.27425,"lon":5.39417,"is_reserved":false,"is_disabled":false,"rental_uris":{"android":"levelo://app?vid=67ce24ae-94e5-4973-b016-d38e83715ffb","ios":"levelo://app?vid=67ce24ae-94e5-4973-b016-d38e83715ffb"},"vehicle_type_id":"4","last_reported":1758956882,"current_range_meters":11600,"station_id":"ce4bhdp2rcd13ifvqf20","pricing_plan_id":"cebpf4jnsgd1na2vs0mg"},{"bike_id":"ab915236-e4e0-43d4-b3d0-7dc20b4ec838","system_id":"levelo_inurba_marseille","lat":43.31327,"lon":5.36729,"is_reserved":false,"is_disabled":false,"rental_uris":{"android":"levelo://app?vid=ab915236-e4e0-43d4-b3d0-7dc20b4ec838","ios":"levelo://app?vid=ab915236-e4e0-43d4-b3d0-7dc20b4ec838"},"vehicle_type_id":"4","last_reported":1758956882,"current_range_meters":11600,"station_id":"ce4bgr92rcd13ifvqc6g","pricing_plan_id":"cebpf4jnsgd1na2vs0mg"},{"bike_id":"3edf2e7a-10a5-449a-8f32-a8483dc7ff9c","system_id":"levelo_inurba_marseille","lat":43.28466,"lon":5.38557,"is_reserved":false,"is_disabled":false,"rental_uris":{"android":"levelo://app?vid=3edf2e7a-10a5-449a-8f32-a8483dc7ff9c","ios":"levelo://app?vid=3edf2e7a-10a5-449a-8f32-a8483dc7ff9c"},"vehicle_type_id":"4","last_reported":1758956882,"current_range_meters":12000,"station_id":"ce4bh8p2rcd13ifvqeb0","pricing_plan_id":"cebpf4jnsgd1na2vs0mg"},{"bike_id":"a6187c30-1c11-4309-be70-335b3ca8c646","system_id":"levelo_inurba_marseille","lat":43.211958,"lon":5.350901,"is_reserved":false,"is_disabled":false,"rental_uris":{"android":"levelo://app?vid=a6187c30-1c11-4309-be70-335b3ca8c646","ios":"levelo://app?vid=a6187c30-1c11-4309-be70-335b3ca8c646"},"vehicle_type_id":"4","last_reported":1758956882,"current_range_meters":12000,"station_id":"","pricing_plan_id":"cebpf4jnsgd1na2vs0mg"},{"bike_id":"6d6d8da8-e6bd-4401-8227-e4015a556e81","system_id":"levelo_inurba_marseille","lat":43.251202,"lon":5.403249,"is_reserved":false,"is_disabled":false,"rental_uris":{"android":"levelo://app?vid=6d6d8da8-e6bd-4401-8227-e4015a556e81","ios":"levelo://app?vid=6d6d8da8-e6bd-4401-8227-e4015a556e81"},"vehicle_type_id":"4","last_reported":1758956882,"current_range_meters":12000,"station_id":"ce4bhlh2rcd13ifvqgig","pricing_plan_id":"cebpf4jnsgd1na2vs0mg"},{"bike_id":"ec348589-ff91-45a4-84f8-96a0dc2abb69","system_id":"levelo_inurba_marseille","lat":43.32731,"lon":5.3927,"is_reserved":false,"is_disabled":false,"rental_uris":{"android":"levelo://app?vid=ec348589-ff91-45a4-84f8-96a0dc2abb69","ios":"levelo://app?vid=ec348589-ff91-45a4-84f8-96a0dc2abb69"},"vehicle_type_id":"4","last_reported":1758956882,"current_range_meters":12000,"station_id":"","pricing_plan_id":"cebpf4jnsgd1na2vs0mg"},{"bike_id":"cd52d724-6e36-4c8e-9efa-f35ff15b1a8b","system_id":"levelo_inurba_marseille","lat":43.31719,"lon":5.42406,"is_reserved":false,"is_disabled":false,"rental_uris":{"android":"levelo://app?vid=cd52d724-6e36-4c8e-9efa-f35ff15b1a8b","ios":"levelo://app?vid=cd52d724-6e36-4c8e-9efa-f35ff15b1a8b"},"vehicle_type_id":"4","last_reported":1758956882,"current_range_meters":12000,"station_id":"ce4bhp92rcd13ifvqhbg","pricing_plan_id":"cebpf4jnsgd1na2vs0mg"},{"bike_id":"39e73ceb-60a7-4264-8736-2fb1b49c7fb4","system_id":"levelo_inurba_marseille","lat":43.25007,"lon":5.38937,"is_reserved":false,"is_disabled":false,"rental_uris":{"android":"levelo://app?vid=39e73ceb-60a7-4264-8736-2fb1b49c7fb4","ios":"levelo://app?vid=39e73ceb-60a7-4264-8736-2fb1b49c7fb4"},"vehicle_type_id":"4","last_reported":1758956882,"current_range_meters":12000,"station_id":"ce4bhgp2rcd13ifvqfd0","pricing_plan_id":"cebpf4jnsgd1na2vs0mg"},{"bike_id":"2a416e7a-1803-402e-9523-74bfe690bd54","system_id":"levelo_inurba_marseille","lat":43.32365,"lon":5.36767,"is_reserved":false,"is_disabled":false,"rental_uris":{"android":"levelo://app?vid=2a416e7a-1803-402e-9523-74bfe690bd54","ios":"levelo://app?vid=2a416e7a-1803-402e-9523-74bfe690bd54"},"vehicle_type_id":"4","last_reported":1758956882,"current_range_meters":12000,"station_id":"ce4bhsh2rcd13ifvqi2g","pricing_plan_id":"cebpf4jnsgd1na2vs0mg"},{"bike_id":"5d877167-f391-4cf4-830a-d2718a5834ac","system_id":"levelo_inurba_marseille","lat":43.317192,"lon":5.424194,"is_reserved":false,"is_disabled":false,"rental_uris":{"android":"levelo://app?vid=5d877167-f391-4cf4-830a-d2718a5834ac","ios":"levelo://app?vid=5d877167-f391-4cf4-830a-d2718a5834ac"},"vehicle_type_id":"4","last_reported":1758956882,"current_range_meters":12400,"station_id":"ce4bhp92rcd13ifvqhbg","pricing_plan_id":"cebpf4jnsgd1na2vs0mg"},{"bike_id":"63d52c35-c9c9-44eb-9780-1b2f9145123b","system_id":"levelo_inurba_marseille","lat":43.29627,"lon":5.377037,"is_reserved":false,"is_disabled":false,"rental_uris":{"android":"levelo://app?vid=63d52c35-c9c9-44eb-9780-1b2f9145123b","ios":"levelo://app?vid=63d52c35-c9c9-44eb-9780-1b2f9145123b"},"vehicle_type_id":"4","last_reported":1758956882,"current_range_meters":12400,"station_id":"","pricing_plan_id":"cebpf4jnsgd1na2vs0mg"},{"bike_id":"165a85d3-357d-4427-bd0f-7295473af66e","system_id":"levelo_inurba_marseille","lat":43.24941,"lon":5.40491,"is_reserved":false,"is_disabled":false,"rental_uris":{"android":"levelo://app?vid=165a85d3-357d-4427-bd0f-7295473af66e","ios":"levelo://app?vid=165a85d3-357d-4427-bd0f-7295473af66e"},"vehicle_type_id":"4","last_reported":1758956882,"current_range_meters":12400,"station_id":"st_d2ngiaodas8pm72gd1h0","pricing_plan_id":"cebpf4jnsgd1na2vs0mg"},{"bike_id":"9bb4db31-0bf9-4171-bca1-76cb045f53a3","system_id":"levelo_inurba_marseille","lat":43.26924,"lon":5.389081,"is_reserved":false,"is_disabled":false,"rental_uris":{"android":"levelo://app?vid=9bb4db31-0bf9-4171-bca1-76cb045f53a3","ios":"levelo://app?vid=9bb4db31-0bf9-4171-bca1-76cb045f53a3"},"vehicle_type_id":"4","last_reported":1758956882,"current_range_meters":12400,"station_id":"ce4bhhh2rcd13ifvqfl0","pricing_plan_id":"cebpf4jnsgd1na2vs0mg"},{"bike_id":"01bf55f2-4ac6-46f6-8504-3267bf31e1a6","system_id":"levelo_inurba_marseille","lat":43.2973,"lon":5.381787,"is_reserved":false,"is_disabled":false,"rental_uris":{"android":"levelo://app?vid=01bf55f2-4ac6-46f6-8504-3267bf31e1a6","ios":"levelo://app?vid=01bf55f2-4ac6-46f6-8504-3267bf31e1a6"},"vehicle_type_id":"4","last_reported":1758956882,"current_range_meters":12400,"station_id":"","pricing_plan_id":"cebpf4jnsgd1na2vs0mg"},{"bike_id":"c11d3b12-8356-45a0-833f-d2bd6e6169df","system_id":"levelo_inurba_marseille","lat":43.27309,"lon":5.39076,"is_reserved":false,"is_disabled":false,"rental_uris":{"android":"levelo://app?vid=c11d3b12-8356-45a0-833f-d2bd6e6169df","ios":"levelo://app?vid=c11d3b12-8356-45a0-833f-d2bd6e6169df"},"vehicle_type_id":"4","last_reported":1758956882,"current_range_meters":12400,"station_id":"ce4bhgp2rcd13ifvqfe0","pricing_plan_id":"cebpf4jnsgd1na2vs0mg"},{"bike_id":"62529f44-1407-45b5-a57d-0e6b577d523f","system_id":"levelo_inurba_marseille","lat":43.317102,"lon":5.424116,"is_reserved":false,"is_disabled":true,"rental_uris":{"android":"levelo://app?vid=62529f44-1407-45b5-a57d-0e6b577d523f","ios":"levelo://app?vid=62529f44-1407-45b5-a57d-0e6b577d523f"},"vehicle_type_id":"4","last_reported":1758956882,"current_range_meters":12400,"station_id":"ce4bhp92rcd13ifvqhbg","pricing_plan_id":"cebpf4jnsgd1na2vs0mg"},{"bike_id":"5dfe6188-cf51-49fc-b324-419cf8501486","system_id":"levelo_inurba_marseille","lat":43.29449,"lon":5.38675,"is_reserved":false,"is_disabled":false,"rental_uris":{"android":"levelo://app?vid=5dfe6188-cf51-49fc-b324-419cf8501486","ios":"levelo://app?vid=5dfe6188-cf51-49fc-b324-419cf8501486"},"vehicle_type_id":"4","last_reported":1758956882,"current_range_meters":12400,"station_id":"","pricing_plan_id":"cebpf4jnsgd1na2vs0mg"},{"bike_id":"ee925a9c-c600-454e-8837-0da5956fd25f","system_id":"levelo_inurba_marseille","lat":43.229296,"lon":5.353808,"is_reserved":false,"is_disabled":false,"rental_uris":{"android":"levelo://app?vid=ee925a9c-c600-454e-8837-0da5956fd25f","ios":"levelo://app?vid=ee925a9c-c600-454e-8837-0da5956fd25f"},"vehicle_type_id":"4","last_reported":1758956882,"current_range_meters":12400,"station_id":"cpo3532slgdg3j2ikp40","pricing_plan_id":"cebpf4jnsgd1na2vs0mg"},{"bike_id":"45e07bae-690f-4ff3-a8bd-511d32841972","system_id":"levelo_inurba_marseille","lat":43.24702,"lon":5.40202,"is_reserved":false,"is_disabled":false,"rental_uris":{"android":"levelo://app?vid=45e07bae-690f-4ff3-a8bd-511d32841972","ios":"levelo://app?vid=45e07bae-690f-4ff3-a8bd-511d32841972"},"vehicle_type_id":"4","last_reported":1758956882,"current_range_meters":12800,"station_id":"","pricing_plan_id":"cebpf4jnsgd1na2vs0mg"},{"bike_id":"e8c51c17-19f3-4a36-b51c-2f9ea4777522","system_id":"levelo_inurba_marseille","lat":43.265641,"lon":5.390028,"is_reserved":false,"is_disabled":false,"rental_uris":{"android":"levelo://app?vid=e8c51c17-19f3-4a36-b51c-2f9ea4777522","ios":"levelo://app?vid=e8c51c17-19f3-4a36-b51c-2f9ea4777522"},"vehicle_type_id":"4","last_reported":1758956882,"current_range_meters":12800,"station_id":"ce4bhe12rcd13ifvqf30","pricing_plan_id":"cebpf4jnsgd1na2vs0mg"},{"bike_id":"c41f09a3-9fc6-47ce-93ca-b93298dc30d3","system_id":"levelo_inurba_marseille","lat":43.2904,"lon":5.39972,"is_reserved":false,"is_disabled":false,"rental_uris":{"android":"levelo://app?vid=c41f09a3-9fc6-47ce-93ca-b93298dc30d3","ios":"levelo://app?vid=c41f09a3-9fc6-47ce-93ca-b93298dc30d3"},"vehicle_type_id":"4","last_reported":1758956882,"current_range_meters":12800,"station_id":"ce4bh392rcd13ifvqdm0","pricing_plan_id":"cebpf4jnsgd1na2vs0mg"},{"bike_id":"31acb67f-f128-4924-bdf8-8cd571b9e5b4","system_id":"levelo_inurba_marseille","lat":43.27208,"lon":5.39157,"is_reserved":false,"is_disabled":false,"rental_uris":{"android":"levelo://app?vid=31acb67f-f128-4924-bdf8-8cd571b9e5b4","ios":"levelo://app?vid=31acb67f-f128-4924-bdf8-8cd571b9e5b4"},"vehicle_type_id":"4","last_reported":1758956882,"current_range_meters":12800,"station_id":"ce4bhhp2rcd13ifvqfm0","pricing_plan_id":"cebpf4jnsgd1na2vs0mg"},{"bike_id":"1c14f608-9eb0-4b58-8221-e6e5ed28265b","system_id":"levelo_inurba_marseille","lat":43.243939,"lon":5.370602,"is_reserved":false,"is_disabled":false,"rental_uris":{"android":"levelo://app?vid=1c14f608-9eb0-4b58-8221-e6e5ed28265b","ios":"levelo://app?vid=1c14f608-9eb0-4b58-8221-e6e5ed28265b"},"vehicle_type_id":"4","last_reported":1758956882,"current_range_meters":12800,"station_id":"ce4bhhh2rcd13ifvqfk0","pricing_plan_id":"cebpf4jnsgd1na2vs0mg"},{"bike_id":"943bef0e-7084-48c8-bbe4-deebf90121ff","system_id":"levelo_inurba_marseille","lat":43.29021,"lon":5.40007,"is_reserved":false,"is_disabled":false,"rental_uris":{"android":"levelo://app?vid=943bef0e-7084-48c8-bbe4-deebf90121ff","ios":"levelo://app?vid=943bef0e-7084-48c8-bbe4-deebf90121ff"},"vehicle_type_id":"4","last_reported":1758956882,"current_range_meters":13600,"station_id":"ce4bh392rcd13ifvqdm0","pricing_plan_id":"cebpf4jnsgd1na2vs0mg"},{"bike_id":"fc0516a3-c60c-4ef6-aa0f-b20216ddae8e","system_id":"levelo_inurba_marseille","lat":43.28956,"lon":5.37173,"is_reserved":false,"is_disabled":false,"rental_uris":{"android":"levelo://app?vid=fc0516a3-c60c-4ef6-aa0f-b20216ddae8e","ios":"levelo://app?vid=fc0516a3-c60c-4ef6-aa0f-b20216ddae8e"},"vehicle_type_id":"4","last_reported":1758956882,"current_range_meters":13600,"station_id":"","pricing_plan_id":"cebpf4jnsgd1na2vs0mg"},{"bike_id":"052c59a7-1cc4-4bbc-97f5-180981a63118","system_id":"levelo_inurba_marseille","lat":43.246276,"lon":5.431471,"is_reserved":false,"is_disabled":false,"rental_uris":{"android":"levelo://app?vid=052c59a7-1cc4-4bbc-97f5-180981a63118","ios":"levelo://app?vid=052c59a7-1cc4-4bbc-97f5-180981a63118"},"vehicle_type_id":"4","last_reported":1758956882,"current_range_meters":13600,"station_id":"st_d2m6c4gdas8pm72e190g","pricing_plan_id":"cebpf4jnsgd1na2vs0mg"},{"bike_id":"80bdba63-46f3-4274-b0d9-d9711409b6a8","system_id":"levelo_inurba_marseille","lat":43.270752,"lon":5.402497,"is_reserved":false,"is_disabled":false,"rental_uris":{"android":"levelo://app?vid=80bdba63-46f3-4274-b0d9-d9711409b6a8","ios":"levelo://app?vid=80bdba63-46f3-4274-b0d9-d9711409b6a8"},"vehicle_type_id":"4","last_reported":1758956882,"current_range_meters":13600,"station_id":"","pricing_plan_id":"cebpf4jnsgd1na2vs0mg"},{"bike_id":"c8b1cf41-1849-4329-8ffa-26e75935d5f8","system_id":"levelo_inurba_marseille","lat":43.27069,"lon":5.42275,"is_reserved":false,"is_disabled":false,"rental_uris":{"android":"levelo://app?vid=c8b1cf41-1849-4329-8ffa-26e75935d5f8","ios":"levelo://app?vid=c8b1cf41-1849-4329-8ffa-26e75935d5f8"},"vehicle_type_id":"4","last_reported":1758956882,"current_range_meters":13600,"station_id":"ce4bhk92rcd13ifvqgb0","pricing_plan_id":"cebpf4jnsgd1na2vs0mg"},{"bike_id":"a85c738a-1316-4889-b7f4-674fdfcaba7e","system_id":"levelo_inurba_marseille","lat":43.24663,"lon":5.40378,"is_reserved":false,"is_disabled":false,"rental_uris":{"android":"levelo://app?vid=a85c738a-1316-4889-b7f4-674fdfcaba7e","ios":"levelo://app?vid=a85c738a-1316-4889-b7f4-674fdfcaba7e"},"vehicle_type_id":"4","last_reported":1758956882,"current_range_meters":14000,"station_id":"","pricing_plan_id":"cebpf4jnsgd1na2vs0mg"},{"bike_id":"934ea1ec-b7f6-49a1-9efa-287317d4eb22","system_id":"levelo_inurba_marseille","lat":43.29048,"lon":5.35914,"is_reserved":false,"is_disabled":false,"rental_uris":{"android":"levelo://app?vid=934ea1ec-b7f6-49a1-9efa-287317d4eb22","ios":"levelo://app?vid=934ea1ec-b7f6-49a1-9efa-287317d4eb22"},"vehicle_type_id":"4","last_reported":1758956882,"current_range_meters":14000,"station_id":"","pricing_plan_id":"cebpf4jnsgd1na2vs0mg"},{"bike_id":"e241dfc8-d7f9-404e-a9fb-70b03889b507","system_id":"levelo_inurba_marseille","lat":43.31363,"lon":5.38495,"is_reserved":false,"is_disabled":false,"rental_uris":{"android":"levelo://app?vid=e241dfc8-d7f9-404e-a9fb-70b03889b507","ios":"levelo://app?vid=e241dfc8-d7f9-404e-a9fb-70b03889b507"},"vehicle_type_id":"4","last_reported":1758956882,"current_range_meters":14000,"station_id":"ce4bgt92rcd13ifvqcf0","pricing_plan_id":"cebpf4jnsgd1na2vs0mg"},{"bike_id":"31a2accd-fac1-445a-96a9-4f1a04ab92f2","system_id":"levelo_inurba_marseille","lat":43.32356,"lon":5.40623,"is_reserved":false,"is_disabled":false,"rental_uris":{"android":"levelo://app?vid=31a2accd-fac1-445a-96a9-4f1a04ab92f2","ios":"levelo://app?vid=31a2accd-fac1-445a-96a9-4f1a04ab92f2"},"vehicle_type_id":"4","last_reported":1758956882,"current_range_meters":14000,"station_id":"ce4bhq92rcd13ifvqhjg","pricing_plan_id":"cebpf4jnsgd1na2vs0mg"},{"bike_id":"0b6d78ef-a482-414c-8c48-806956450260","system_id":"levelo_inurba_marseille","lat":43.3066,"lon":5.40078,"is_reserved":false,"is_disabled":false,"rental_uris":{"android":"levelo://app?vid=0b6d78ef-a482-414c-8c48-806956450260","ios":"levelo://app?vid=0b6d78ef-a482-414c-8c48-806956450260"},"vehicle_type_id":"4","last_reported":1758956882,"current_range_meters":14000,"station_id":"ce4bh112rcd13ifvqda0","pricing_plan_id":"cebpf4jnsgd1na2vs0mg"},{"bike_id":"a58a31a4-3992-4f6b-9553-88e861e2eaae","system_id":"levelo_inurba_marseille","lat":43.2822,"lon":5.39046,"is_reserved":false,"is_disabled":false,"rental_uris":{"android":"levelo://app?vid=a58a31a4-3992-4f6b-9553-88e861e2eaae","ios":"levelo://app?vid=a58a31a4-3992-4f6b-9553-88e861e2eaae"},"vehicle_type_id":"4","last_reported":1758956882,"current_range_meters":14400,"station_id":"ce4bhn92rcd13ifvqgsg","pricing_plan_id":"cebpf4jnsgd1na2vs0mg"},{"bike_id":"df649d25-1f44-4471-8cdd-9566da8ef9b9","system_id":"levelo_inurba_marseille","lat":43.31922,"lon":5.39285,"is_reserved":false,"is_disabled":false,"rental_uris":{"android":"levelo://app?vid=df649d25-1f44-4471-8cdd-9566da8ef9b9","ios":"levelo://app?vid=df649d25-1f44-4471-8cdd-9566da8ef9b9"},"vehicle_type_id":"4","last_reported":1758956882,"current_range_meters":14400,"station_id":"","pricing_plan_id":"cebpf4jnsgd1na2vs0mg"},{"bike_id":"84576be0-79e2-4501-b565-989bebdccf2d","system_id":"levelo_inurba_marseille","lat":43.25092,"lon":5.39522,"is_reserved":false,"is_disabled":false,"rental_uris":{"android":"levelo://app?vid=84576be0-79e2-4501-b565-989bebdccf2d","ios":"levelo://app?vid=84576be0-79e2-4501-b565-989bebdccf2d"},"vehicle_type_id":"4","last_reported":1758956882,"current_range_meters":14400,"station_id":"ce4bhm12rcd13ifvqgkg","pricing_plan_id":"cebpf4jnsgd1na2vs0mg"},{"bike_id":"9de5eb4a-2bba-4d94-b5d2-50807c7d8cc2","system_id":"levelo_inurba_marseille","lat":43.22534,"lon":5.34839,"is_reserved":false,"is_disabled":false,"rental_uris":{"android":"levelo://app?vid=9de5eb4a-2bba-4d94-b5d2-50807c7d8cc2","ios":"levelo://app?vid=9de5eb4a-2bba-4d94-b5d2-50807c7d8cc2"},"vehicle_type_id":"4","last_reported":1758956882,"current_range_meters":14400,"station_id":"","pricing_plan_id":"cebpf4jnsgd1na2vs0mg"},{"bike_id":"5bb42022-0e19-48bc-a5b4-218bb1d7482e","system_id":"levelo_inurba_marseille","lat":43.31263,"lon":5.3775,"is_reserved":false,"is_disabled":false,"rental_uris":{"android":"levelo://app?vid=5bb42022-0e19-48bc-a5b4-218bb1d7482e","ios":"levelo://app?vid=5bb42022-0e19-48bc-a5b4-218bb1d7482e"},"vehicle_type_id":"4","last_reported":1758956882,"current_range_meters":14400,"station_id":"","pricing_plan_id":"cebpf4jnsgd1na2vs0mg"},{"bike_id":"855d7122-4824-46d3-b6c6-d8afb40dfca0","system_id":"levelo_inurba_marseille","lat":43.24065,"lon":5.37767,"is_reserved":false,"is_disabled":false,"rental_uris":{"android":"levelo://app?vid=855d7122-4824-46d3-b6c6-d8afb40dfca0","ios":"levelo://app?vid=855d7122-4824-46d3-b6c6-d8afb40dfca0"},"vehicle_type_id":"4","last_reported":1758956882,"current_range_meters":14400,"station_id":"ce4bhnp2rcd13ifvqgvg","pricing_plan_id":"cebpf4jnsgd1na2vs0mg"},{"bike_id":"be5bbc58-3292-463a-9aed-cc5eac2aaff6","system_id":"levelo_inurba_marseille","lat":43.24675,"lon":5.38151,"is_reserved":false,"is_disabled":false,"rental_uris":{"android":"levelo://app?vid=be5bbc58-3292-463a-9aed-cc5eac2aaff6","ios":"levelo://app?vid=be5bbc58-3292-463a-9aed-cc5eac2aaff6"},"vehicle_type_id":"4","last_reported":1758956882,"current_range_meters":14800,"station_id":"ce4bhih2rcd13ifvqfr0","pricing_plan_id":"cebpf4jnsgd1na2vs0mg"},{"bike_id":"cd119ae5-1417-41f1-a8e2-920696e70b86","system_id":"levelo_inurba_marseille","lat":43.22555,"lon":5.41658,"is_reserved":false,"is_disabled":false,"rental_uris":{"android":"levelo://app?vid=cd119ae5-1417-41f1-a8e2-920696e70b86","ios":"levelo://app?vid=cd119ae5-1417-41f1-a8e2-920696e70b86"},"vehicle_type_id":"4","last_reported":1758956882,"current_range_meters":14800,"station_id":"st_d2o4gvlbi1j2169b742g","pricing_plan_id":"cebpf4jnsgd1na2vs0mg"},{"bike_id":"453cf56d-2688-46ef-862b-c5be6be57e1e","system_id":"levelo_inurba_marseille","lat":43.30924,"lon":5.40145,"is_reserved":false,"is_disabled":false,"rental_uris":{"android":"levelo://app?vid=453cf56d-2688-46ef-862b-c5be6be57e1e","ios":"levelo://app?vid=453cf56d-2688-46ef-862b-c5be6be57e1e"},"vehicle_type_id":"4","last_reported":1758956882,"current_range_meters":14800,"station_id":"ce4bgvp2rcd13ifvqct0","pricing_plan_id":"cebpf4jnsgd1na2vs0mg"},{"bike_id":"2d9f087c-9ce7-446f-90c3-2b29bdc08af5","system_id":"levelo_inurba_marseille","lat":43.30931,"lon":5.40139,"is_reserved":false,"is_disabled":false,"rental_uris":{"android":"levelo://app?vid=2d9f087c-9ce7-446f-90c3-2b29bdc08af5","ios":"levelo://app?vid=2d9f087c-9ce7-446f-90c3-2b29bdc08af5"},"vehicle_type_id":"4","last_reported":1758956882,"current_range_meters":14800,"station_id":"ce4bgvp2rcd13ifvqct0","pricing_plan_id":"cebpf4jnsgd1na2vs0mg"},{"bike_id":"2bdd747a-bb54-4c52-bcaf-d0a886c40aff","system_id":"levelo_inurba_marseille","lat":43.23179,"lon":5.39998,"is_reserved":false,"is_disabled":false,"rental_uris":{"android":"levelo://app?vid=2bdd747a-bb54-4c52-bcaf-d0a886c40aff","ios":"levelo://app?vid=2bdd747a-bb54-4c52-bcaf-d0a886c40aff"},"vehicle_type_id":"4","last_reported":1758956882,"current_range_meters":14800,"station_id":"ce4bhn12rcd13ifvqgqg","pricing_plan_id":"cebpf4jnsgd1na2vs0mg"},{"bike_id":"7f09bc43-02a6-468a-9182-731c83281b4a","system_id":"levelo_inurba_marseille","lat":43.26363,"lon":5.37548,"is_reserved":false,"is_disabled":false,"rental_uris":{"android":"levelo://app?vid=7f09bc43-02a6-468a-9182-731c83281b4a","ios":"levelo://app?vid=7f09bc43-02a6-468a-9182-731c83281b4a"},"vehicle_type_id":"4","last_reported":1758956882,"current_range_meters":14800,"station_id":"","pricing_plan_id":"cebpf4jnsgd1na2vs0mg"},{"bike_id":"1c3e2cf7-7039-483f-bd2a-6943b321f854","system_id":"levelo_inurba_marseille","lat":43.26414,"lon":5.41125,"is_reserved":false,"is_disabled":false,"rental_uris":{"android":"levelo://app?vid=1c3e2cf7-7039-483f-bd2a-6943b321f854","ios":"levelo://app?vid=1c3e2cf7-7039-483f-bd2a-6943b321f854"},"vehicle_type_id":"4","last_reported":1758956882,"current_range_meters":14800,"station_id":"","pricing_plan_id":"cebpf4jnsgd1na2vs0mg"},{"bike_id":"4a9588e3-eb45-4a8a-8a80-e0548791ccd6","system_id":"levelo_inurba_marseille","lat":43.253435,"lon":5.421626,"is_reserved":false,"is_disabled":false,"rental_uris":{"android":"levelo://app?vid=4a9588e3-eb45-4a8a-8a80-e0548791ccd6","ios":"levelo://app?vid=4a9588e3-eb45-4a8a-8a80-e0548791ccd6"},"vehicle_type_id":"4","last_reported":1758956882,"current_range_meters":14800,"station_id":"st_d2m65c5bi1j21697t3ng","pricing_plan_id":"cebpf4jnsgd1na2vs0mg"},{"bike_id":"46ac5fb6-ac2e-43e8-84c9-c4e46889ea29","system_id":"levelo_inurba_marseille","lat":43.21187,"lon":5.35044,"is_reserved":false,"is_disabled":false,"rental_uris":{"android":"levelo://app?vid=46ac5fb6-ac2e-43e8-84c9-c4e46889ea29","ios":"levelo://app?vid=46ac5fb6-ac2e-43e8-84c9-c4e46889ea29"},"vehicle_type_id":"4","last_reported":1758956882,"current_range_meters":14800,"station_id":"st_cvj6sg6p6f1abm77japg","pricing_plan_id":"cebpf4jnsgd1na2vs0mg"},{"bike_id":"03350417-1098-4d6c-b8fe-9e64358744bf","system_id":"levelo_inurba_marseille","lat":43.31024,"lon":5.37616,"is_reserved":false,"is_disabled":false,"rental_uris":{"android":"levelo://app?vid=03350417-1098-4d6c-b8fe-9e64358744bf","ios":"levelo://app?vid=03350417-1098-4d6c-b8fe-9e64358744bf"},"vehicle_type_id":"4","last_reported":1758956882,"current_range_meters":14800,"station_id":"","pricing_plan_id":"cebpf4jnsgd1na2vs0mg"},{"bike_id":"71649b2c-48f8-4b8a-b9c0-477bd83fa14b","system_id":"levelo_inurba_marseille","lat":43.28425,"lon":5.35012,"is_reserved":false,"is_disabled":false,"rental_uris":{"android":"levelo://app?vid=71649b2c-48f8-4b8a-b9c0-477bd83fa14b","ios":"levelo://app?vid=71649b2c-48f8-4b8a-b9c0-477bd83fa14b"},"vehicle_type_id":"4","last_reported":1758956882,"current_range_meters":15200,"station_id":"ce4bhbh2rcd13ifvqepg","pricing_plan_id":"cebpf4jnsgd1na2vs0mg"},{"bike_id":"327c041e-5c9e-4b0d-a97c-a2dbaab036ae","system_id":"levelo_inurba_marseille","lat":43.32813,"lon":5.4113,"is_reserved":false,"is_disabled":false,"rental_uris":{"android":"levelo://app?vid=327c041e-5c9e-4b0d-a97c-a2dbaab036ae","ios":"levelo://app?vid=327c041e-5c9e-4b0d-a97c-a2dbaab036ae"},"vehicle_type_id":"4","last_reported":1758956882,"current_range_meters":15200,"station_id":"","pricing_plan_id":"cebpf4jnsgd1na2vs0mg"},{"bike_id":"665db91b-dd1b-4912-8590-8678ef4e8928","system_id":"levelo_inurba_marseille","lat":43.251291,"lon":5.403187,"is_reserved":false,"is_disabled":false,"rental_uris":{"android":"levelo://app?vid=665db91b-dd1b-4912-8590-8678ef4e8928","ios":"levelo://app?vid=665db91b-dd1b-4912-8590-8678ef4e8928"},"vehicle_type_id":"4","last_reported":1758956882,"current_range_meters":15200,"station_id":"ce4bhlh2rcd13ifvqgig","pricing_plan_id":"cebpf4jnsgd1na2vs0mg"},{"bike_id":"b5056a61-fb10-487d-80be-abae5c19e2c5","system_id":"levelo_inurba_marseille","lat":43.28443,"lon":5.39209,"is_reserved":false,"is_disabled":false,"rental_uris":{"android":"levelo://app?vid=b5056a61-fb10-487d-80be-abae5c19e2c5","ios":"levelo://app?vid=b5056a61-fb10-487d-80be-abae5c19e2c5"},"vehicle_type_id":"4","last_reported":1758956882,"current_range_meters":15200,"station_id":"ce4bhoh2rcd13ifvqh5g","pricing_plan_id":"cebpf4jnsgd1na2vs0mg"},{"bike_id":"367cc5de-fbd0-47d1-8fa2-cb83d9fcf585","system_id":"levelo_inurba_marseille","lat":43.25831,"lon":5.39428,"is_reserved":false,"is_disabled":false,"rental_uris":{"android":"levelo://app?vid=367cc5de-fbd0-47d1-8fa2-cb83d9fcf585","ios":"levelo://app?vid=367cc5de-fbd0-47d1-8fa2-cb83d9fcf585"},"vehicle_type_id":"4","last_reported":1758956882,"current_range_meters":15200,"station_id":"ce4bhip2rcd13ifvqft0","pricing_plan_id":"cebpf4jnsgd1na2vs0mg"},{"bike_id":"9feae468-b8bd-422a-8fcb-2d68fc5ee82c","system_id":"levelo_inurba_marseille","lat":43.33385,"lon":5.41998,"is_reserved":false,"is_disabled":false,"rental_uris":{"android":"levelo://app?vid=9feae468-b8bd-422a-8fcb-2d68fc5ee82c","ios":"levelo://app?vid=9feae468-b8bd-422a-8fcb-2d68fc5ee82c"},"vehicle_type_id":"4","last_reported":1758956882,"current_range_meters":16000,"station_id":"","pricing_plan_id":"cebpf4jnsgd1na2vs0mg"},{"bike_id":"a4ba26dc-2f32-48e5-bf18-4cc12ac5d755","system_id":"levelo_inurba_marseille","lat":43.27079,"lon":5.42283,"is_reserved":false,"is_disabled":false,"rental_uris":{"android":"levelo://app?vid=a4ba26dc-2f32-48e5-bf18-4cc12ac5d755","ios":"levelo://app?vid=a4ba26dc-2f32-48e5-bf18-4cc12ac5d755"},"vehicle_type_id":"4","last_reported":1758956882,"current_range_meters":16000,"station_id":"ce4bhk92rcd13ifvqgb0","pricing_plan_id":"cebpf4jnsgd1na2vs0mg"},{"bike_id":"398ee6a3-1ca0-4a39-b8ef-9410f4339bd9","system_id":"levelo_inurba_marseille","lat":43.24165,"lon":5.36421,"is_reserved":false,"is_disabled":false,"rental_uris":{"android":"levelo://app?vid=398ee6a3-1ca0-4a39-b8ef-9410f4339bd9","ios":"levelo://app?vid=398ee6a3-1ca0-4a39-b8ef-9410f4339bd9"},"vehicle_type_id":"4","last_reported":1758956882,"current_range_meters":16000,"station_id":"cpo36qri1sfpv3e86is0","pricing_plan_id":"cebpf4jnsgd1na2vs0mg"},{"bike_id":"71c5f8cc-6881-46b9-bbbc-8164fe7d6eaa","system_id":"levelo_inurba_marseille","lat":43.25115,"lon":5.40312,"is_reserved":false,"is_disabled":false,"rental_uris":{"android":"levelo://app?vid=71c5f8cc-6881-46b9-bbbc-8164fe7d6eaa","ios":"levelo://app?vid=71c5f8cc-6881-46b9-bbbc-8164fe7d6eaa"},"vehicle_type_id":"4","last_reported":1758956882,"current_range_meters":16000,"station_id":"ce4bhlh2rcd13ifvqgig","pricing_plan_id":"cebpf4jnsgd1na2vs0mg"},{"bike_id":"4a5f2c7e-7ab6-4fbf-abec-0194fa5424fe","system_id":"levelo_inurba_marseille","lat":43.280071,"lon":5.416662,"is_reserved":false,"is_disabled":false,"rental_uris":{"android":"levelo://app?vid=4a5f2c7e-7ab6-4fbf-abec-0194fa5424fe","ios":"levelo://app?vid=4a5f2c7e-7ab6-4fbf-abec-0194fa5424fe"},"vehicle_type_id":"4","last_reported":1758956882,"current_range_meters":16000,"station_id":"ce4bho12rcd13ifvqh1g","pricing_plan_id":"cebpf4jnsgd1na2vs0mg"},{"bike_id":"07724c2e-7748-4feb-b335-5a2309913836","system_id":"levelo_inurba_marseille","lat":43.283538,"lon":5.386315,"is_reserved":false,"is_disabled":false,"rental_uris":{"android":"levelo://app?vid=07724c2e-7748-4feb-b335-5a2309913836","ios":"levelo://app?vid=07724c2e-7748-4feb-b335-5a2309913836"},"vehicle_type_id":"4","last_reported":1758956882,"current_range_meters":16000,"station_id":"ce4bh492rcd13ifvqdvg","pricing_plan_id":"cebpf4jnsgd1na2vs0mg"},{"bike_id":"a66d6e17-1d45-4a6d-a4fe-9addb943af64","system_id":"levelo_inurba_marseille","lat":43.29223,"lon":5.36064,"is_reserved":false,"is_disabled":false,"rental_uris":{"android":"levelo://app?vid=a66d6e17-1d45-4a6d-a4fe-9addb943af64","ios":"levelo://app?vid=a66d6e17-1d45-4a6d-a4fe-9addb943af64"},"vehicle_type_id":"4","last_reported":1758956882,"current_range_meters":16000,"station_id":"ce4bhbh2rcd13ifvqeqg","pricing_plan_id":"cebpf4jnsgd1na2vs0mg"},{"bike_id":"17edd574-a670-4a8b-b977-e002088fcce1","system_id":"levelo_inurba_marseille","lat":43.293024,"lon":5.374576,"is_reserved":false,"is_disabled":false,"rental_uris":{"android":"levelo://app?vid=17edd574-a670-4a8b-b977-e002088fcce1","ios":"levelo://app?vid=17edd574-a670-4a8b-b977-e002088fcce1"},"vehicle_type_id":"4","last_reported":1758956882,"current_range_meters":16400,"station_id":"ce4bgi12rcd13ifvqb70","pricing_plan_id":"cebpf4jnsgd1na2vs0mg"},{"bike_id":"85c7ac65-0172-4766-8977-f4ba34ed9c93","system_id":"levelo_inurba_marseille","lat":43.25358,"lon":5.422,"is_reserved":false,"is_disabled":false,"rental_uris":{"android":"levelo://app?vid=85c7ac65-0172-4766-8977-f4ba34ed9c93","ios":"levelo://app?vid=85c7ac65-0172-4766-8977-f4ba34ed9c93"},"vehicle_type_id":"4","last_reported":1758956882,"current_range_meters":16400,"station_id":"st_d2m65c5bi1j21697t3ng","pricing_plan_id":"cebpf4jnsgd1na2vs0mg"},{"bike_id":"60ef707f-22ce-4566-aae4-8970d2991590","system_id":"levelo_inurba_marseille","lat":43.304231,"lon":5.397434,"is_reserved":false,"is_disabled":false,"rental_uris":{"android":"levelo://app?vid=60ef707f-22ce-4566-aae4-8970d2991590","ios":"levelo://app?vid=60ef707f-22ce-4566-aae4-8970d2991590"},"vehicle_type_id":"4","last_reported":1758956882,"current_range_meters":16400,"station_id":"","pricing_plan_id":"cebpf4jnsgd1na2vs0mg"},{"bike_id":"ef755c66-7861-4426-8d6b-6bfa164e35f4","system_id":"levelo_inurba_marseille","lat":43.26951,"lon":5.38633,"is_reserved":false,"is_disabled":false,"rental_uris":{"android":"levelo://app?vid=ef755c66-7861-4426-8d6b-6bfa164e35f4","ios":"levelo://app?vid=ef755c66-7861-4426-8d6b-6bfa164e35f4"},"vehicle_type_id":"4","last_reported":1758956882,"current_range_meters":16400,"station_id":"ce4bhh92rcd13ifvqfh0","pricing_plan_id":"cebpf4jnsgd1na2vs0mg"},{"bike_id":"8631e1de-9e17-4ad0-8f0d-fcc6c04dcb03","system_id":"levelo_inurba_marseille","lat":43.30931,"lon":5.40147,"is_reserved":false,"is_disabled":false,"rental_uris":{"android":"levelo://app?vid=8631e1de-9e17-4ad0-8f0d-fcc6c04dcb03","ios":"levelo://app?vid=8631e1de-9e17-4ad0-8f0d-fcc6c04dcb03"},"vehicle_type_id":"4","last_reported":1758956882,"current_range_meters":16400,"station_id":"ce4bgvp2rcd13ifvqct0","pricing_plan_id":"cebpf4jnsgd1na2vs0mg"},{"bike_id":"317f2be1-b105-402c-900f-6b3ae07bb4db","system_id":"levelo_inurba_marseille","lat":43.24167,"lon":5.36401,"is_reserved":false,"is_disabled":false,"rental_uris":{"android":"levelo://app?vid=317f2be1-b105-402c-900f-6b3ae07bb4db","ios":"levelo://app?vid=317f2be1-b105-402c-900f-6b3ae07bb4db"},"vehicle_type_id":"4","last_reported":1758956882,"current_range_meters":16400,"station_id":"cpo36qri1sfpv3e86is0","pricing_plan_id":"cebpf4jnsgd1na2vs0mg"},{"bike_id":"4635c942-f2b1-44bd-8835-1cc392551193","system_id":"levelo_inurba_marseille","lat":43.284026,"lon":5.375223,"is_reserved":false,"is_disabled":false,"rental_uris":{"android":"levelo://app?vid=4635c942-f2b1-44bd-8835-1cc392551193","ios":"levelo://app?vid=4635c942-f2b1-44bd-8835-1cc392551193"},"vehicle_type_id":"4","last_reported":1758956882,"current_range_meters":16400,"station_id":"ce4bh412rcd13ifvqds0","pricing_plan_id":"cebpf4jnsgd1na2vs0mg"},{"bike_id":"aa1ef45f-f323-4723-9180-ea0318bf8a28","system_id":"levelo_inurba_marseille","lat":43.32332,"lon":5.40621,"is_reserved":false,"is_disabled":false,"rental_uris":{"android":"levelo://app?vid=aa1ef45f-f323-4723-9180-ea0318bf8a28","ios":"levelo://app?vid=aa1ef45f-f323-4723-9180-ea0318bf8a28"},"vehicle_type_id":"4","last_reported":1758956882,"current_range_meters":16800,"station_id":"ce4bhq92rcd13ifvqhjg","pricing_plan_id":"cebpf4jnsgd1na2vs0mg"},{"bike_id":"a73de0de-3f37-4157-90a0-3b873c167b76","system_id":"levelo_inurba_marseille","lat":43.292356,"lon":5.360747,"is_reserved":false,"is_disabled":false,"rental_uris":{"android":"levelo://app?vid=a73de0de-3f37-4157-90a0-3b873c167b76","ios":"levelo://app?vid=a73de0de-3f37-4157-90a0-3b873c167b76"},"vehicle_type_id":"4","last_reported":1758956882,"current_range_meters":16800,"station_id":"ce4bhbh2rcd13ifvqeqg","pricing_plan_id":"cebpf4jnsgd1na2vs0mg"},{"bike_id":"175ed984-4779-4b98-920a-039ca300eaa4","system_id":"levelo_inurba_marseille","lat":43.273072,"lon":5.408097,"is_reserved":false,"is_disabled":false,"rental_uris":{"android":"levelo://app?vid=175ed984-4779-4b98-920a-039ca300eaa4","ios":"levelo://app?vid=175ed984-4779-4b98-920a-039ca300eaa4"},"vehicle_type_id":"4","last_reported":1758956882,"current_range_meters":16800,"station_id":"","pricing_plan_id":"cebpf4jnsgd1na2vs0mg"},{"bike_id":"eba41fdd-3d44-40e3-adae-81844e46783b","system_id":"levelo_inurba_marseille","lat":43.28401,"lon":5.37534,"is_reserved":false,"is_disabled":false,"rental_uris":{"android":"levelo://app?vid=eba41fdd-3d44-40e3-adae-81844e46783b","ios":"levelo://app?vid=eba41fdd-3d44-40e3-adae-81844e46783b"},"vehicle_type_id":"4","last_reported":1758956882,"current_range_meters":16800,"station_id":"ce4bh412rcd13ifvqds0","pricing_plan_id":"cebpf4jnsgd1na2vs0mg"},{"bike_id":"cb0a43cc-2f6b-482a-91bb-c383cccf5be4","system_id":"levelo_inurba_marseille","lat":43.32004,"lon":5.38014,"is_reserved":false,"is_disabled":false,"rental_uris":{"android":"levelo://app?vid=cb0a43cc-2f6b-482a-91bb-c383cccf5be4","ios":"levelo://app?vid=cb0a43cc-2f6b-482a-91bb-c383cccf5be4"},"vehicle_type_id":"4","last_reported":1758956882,"current_range_meters":16800,"station_id":"","pricing_plan_id":"cebpf4jnsgd1na2vs0mg"},{"bike_id":"3fccd8f6-2dcb-412d-8982-fb947c83a223","system_id":"levelo_inurba_marseille","lat":43.311213,"lon":5.377616,"is_reserved":false,"is_disabled":false,"rental_uris":{"android":"levelo://app?vid=3fccd8f6-2dcb-412d-8982-fb947c83a223","ios":"levelo://app?vid=3fccd8f6-2dcb-412d-8982-fb947c83a223"},"vehicle_type_id":"4","last_reported":1758956882,"current_range_meters":16800,"station_id":"ce4bgt92rcd13ifvqcg0","pricing_plan_id":"cebpf4jnsgd1na2vs0mg"},{"bike_id":"af29c7b0-3b11-473c-8a84-69d9e236f367","system_id":"levelo_inurba_marseille","lat":43.27314,"lon":5.39091,"is_reserved":false,"is_disabled":false,"rental_uris":{"android":"levelo://app?vid=af29c7b0-3b11-473c-8a84-69d9e236f367","ios":"levelo://app?vid=af29c7b0-3b11-473c-8a84-69d9e236f367"},"vehicle_type_id":"4","last_reported":1758956882,"current_range_meters":16800,"station_id":"ce4bhgp2rcd13ifvqfe0","pricing_plan_id":"cebpf4jnsgd1na2vs0mg"},{"bike_id":"28ee8c09-1dd8-4072-8a3e-fbfd6fb6b45b","system_id":"levelo_inurba_marseille","lat":43.31897,"lon":5.40727,"is_reserved":false,"is_disabled":false,"rental_uris":{"android":"levelo://app?vid=28ee8c09-1dd8-4072-8a3e-fbfd6fb6b45b","ios":"levelo://app?vid=28ee8c09-1dd8-4072-8a3e-fbfd6fb6b45b"},"vehicle_type_id":"4","last_reported":1758956882,"current_range_meters":17200,"station_id":"ce4bhq12rcd13ifvqhig","pricing_plan_id":"cebpf4jnsgd1na2vs0mg"},{"bike_id":"6fbef51e-815f-44f1-844b-e8c9d10753b8","system_id":"levelo_inurba_marseille","lat":43.2718,"lon":5.40996,"is_reserved":false,"is_disabled":false,"rental_uris":{"android":"levelo://app?vid=6fbef51e-815f-44f1-844b-e8c9d10753b8","ios":"levelo://app?vid=6fbef51e-815f-44f1-844b-e8c9d10753b8"},"vehicle_type_id":"4","last_reported":1758956882,"current_range_meters":17200,"station_id":"ce4bhl12rcd13ifvqgf0","pricing_plan_id":"cebpf4jnsgd1na2vs0mg"},{"bike_id":"dc4883ea-8f06-44d1-8b3d-6660e39a87ec","system_id":"levelo_inurba_marseille","lat":43.21754,"lon":5.34598,"is_reserved":false,"is_disabled":true,"rental_uris":{"android":"levelo://app?vid=dc4883ea-8f06-44d1-8b3d-6660e39a87ec","ios":"levelo://app?vid=dc4883ea-8f06-44d1-8b3d-6660e39a87ec"},"vehicle_type_id":"4","last_reported":1758956882,"current_range_meters":17200,"station_id":"st_cvj6r9ubvosntc0bgbag","pricing_plan_id":"cebpf4jnsgd1na2vs0mg"},{"bike_id":"cf0349d2-e796-490f-997d-7cf8135b7efd","system_id":"levelo_inurba_marseille","lat":43.25577,"lon":5.38241,"is_reserved":false,"is_disabled":false,"rental_uris":{"android":"levelo://app?vid=cf0349d2-e796-490f-997d-7cf8135b7efd","ios":"levelo://app?vid=cf0349d2-e796-490f-997d-7cf8135b7efd"},"vehicle_type_id":"4","last_reported":1758956882,"current_range_meters":17200,"station_id":"ce4bhih2rcd13ifvqfs0","pricing_plan_id":"cebpf4jnsgd1na2vs0mg"},{"bike_id":"4c02c545-ad59-45b1-9b9c-d3678a5922c7","system_id":"levelo_inurba_marseille","lat":43.337444,"lon":5.374475,"is_reserved":false,"is_disabled":false,"rental_uris":{"android":"levelo://app?vid=4c02c545-ad59-45b1-9b9c-d3678a5922c7","ios":"levelo://app?vid=4c02c545-ad59-45b1-9b9c-d3678a5922c7"},"vehicle_type_id":"4","last_reported":1758956882,"current_range_meters":17200,"station_id":"","pricing_plan_id":"cebpf4jnsgd1na2vs0mg"},{"bike_id":"37a3518b-1574-4b1f-9320-dfb70ff44a3c","system_id":"levelo_inurba_marseille","lat":43.29176,"lon":5.39314,"is_reserved":false,"is_disabled":true,"rental_uris":{"android":"levelo://app?vid=37a3518b-1574-4b1f-9320-dfb70ff44a3c","ios":"levelo://app?vid=37a3518b-1574-4b1f-9320-dfb70ff44a3c"},"vehicle_type_id":"4","last_reported":1758956882,"current_range_meters":17200,"station_id":"ce4bh192rcd13ifvqdd0","pricing_plan_id":"cebpf4jnsgd1na2vs0mg"},{"bike_id":"0f8c66b7-2559-4545-8c9b-b7b40dced113","system_id":"levelo_inurba_marseille","lat":43.296763,"lon":5.413019,"is_reserved":false,"is_disabled":false,"rental_uris":{"android":"levelo://app?vid=0f8c66b7-2559-4545-8c9b-b7b40dced113","ios":"levelo://app?vid=0f8c66b7-2559-4545-8c9b-b7b40dced113"},"vehicle_type_id":"4","last_reported":1758956882,"current_range_meters":17200,"station_id":"","pricing_plan_id":"cebpf4jnsgd1na2vs0mg"},{"bike_id":"3c406417-c9c2-4748-906e-a2fb7326e10c","system_id":"levelo_inurba_marseille","lat":43.287036,"lon":5.399846,"is_reserved":false,"is_disabled":false,"rental_uris":{"android":"levelo://app?vid=3c406417-c9c2-4748-906e-a2fb7326e10c","ios":"levelo://app?vid=3c406417-c9c2-4748-906e-a2fb7326e10c"},"vehicle_type_id":"4","last_reported":1758956882,"current_range_meters":17200,"station_id":"ce4bho92rcd13ifvqh3g","pricing_plan_id":"cebpf4jnsgd1na2vs0mg"},{"bike_id":"d66cd03b-dbeb-4aa4-961e-bd97aeefe4a4","system_id":"levelo_inurba_marseille","lat":43.259627,"lon":5.413684,"is_reserved":false,"is_disabled":false,"rental_uris":{"android":"levelo://app?vid=d66cd03b-dbeb-4aa4-961e-bd97aeefe4a4","ios":"levelo://app?vid=d66cd03b-dbeb-4aa4-961e-bd97aeefe4a4"},"vehicle_type_id":"4","last_reported":1758956882,"current_range_meters":17200,"station_id":"","pricing_plan_id":"cebpf4jnsgd1na2vs0mg"},{"bike_id":"7aac2627-6b70-4df7-ad8a-6082bb89c0b7","system_id":"levelo_inurba_marseille","lat":43.25108,"lon":5.40321,"is_reserved":false,"is_disabled":false,"rental_uris":{"android":"levelo://app?vid=7aac2627-6b70-4df7-ad8a-6082bb89c0b7","ios":"levelo://app?vid=7aac2627-6b70-4df7-ad8a-6082bb89c0b7"},"vehicle_type_id":"4","last_reported":1758956882,"current_range_meters":17200,"station_id":"ce4bhlh2rcd13ifvqgig","pricing_plan_id":"cebpf4jnsgd1na2vs0mg"},{"bike_id":"75a1808b-f036-45a0-9b9e-d8442cdf8f90","system_id":"levelo_inurba_marseille","lat":43.24991,"lon":5.38943,"is_reserved":false,"is_disabled":false,"rental_uris":{"android":"levelo://app?vid=75a1808b-f036-45a0-9b9e-d8442cdf8f90","ios":"levelo://app?vid=75a1808b-f036-45a0-9b9e-d8442cdf8f90"},"vehicle_type_id":"4","last_reported":1758956882,"current_range_meters":17600,"station_id":"ce4bhgp2rcd13ifvqfd0","pricing_plan_id":"cebpf4jnsgd1na2vs0mg"},{"bike_id":"c19a096d-6bfd-4347-9445-ece358d57b77","system_id":"levelo_inurba_marseille","lat":43.30674,"lon":5.40249,"is_reserved":false,"is_disabled":false,"rental_uris":{"android":"levelo://app?vid=c19a096d-6bfd-4347-9445-ece358d57b77","ios":"levelo://app?vid=c19a096d-6bfd-4347-9445-ece358d57b77"},"vehicle_type_id":"4","last_reported":1758956882,"current_range_meters":17600,"station_id":"","pricing_plan_id":"cebpf4jnsgd1na2vs0mg"},{"bike_id":"f18ae5a7-46db-480c-881c-d04571dcbead","system_id":"levelo_inurba_marseille","lat":43.28156,"lon":5.42652,"is_reserved":false,"is_disabled":false,"rental_uris":{"android":"levelo://app?vid=f18ae5a7-46db-480c-881c-d04571dcbead","ios":"levelo://app?vid=f18ae5a7-46db-480c-881c-d04571dcbead"},"vehicle_type_id":"4","last_reported":1758956882,"current_range_meters":17200,"station_id":"ce4bhnh2rcd13ifvqgug","pricing_plan_id":"cebpf4jnsgd1na2vs0mg"},{"bike_id":"4f5a88f0-fd06-4a49-be33-193b1dc49457","system_id":"levelo_inurba_marseille","lat":43.30413,"lon":5.41278,"is_reserved":false,"is_disabled":true,"rental_uris":{"android":"levelo://app?vid=4f5a88f0-fd06-4a49-be33-193b1dc49457","ios":"levelo://app?vid=4f5a88f0-fd06-4a49-be33-193b1dc49457"},"vehicle_type_id":"4","last_reported":1758956882,"current_range_meters":17600,"station_id":"ce4bhop2rcd13ifvqh8g","pricing_plan_id":"cebpf4jnsgd1na2vs0mg"},{"bike_id":"8ba5e33b-48f1-42b5-a531-76085f7229c8","system_id":"levelo_inurba_marseille","lat":43.246333,"lon":5.431425,"is_reserved":false,"is_disabled":false,"rental_uris":{"android":"levelo://app?vid=8ba5e33b-48f1-42b5-a531-76085f7229c8","ios":"levelo://app?vid=8ba5e33b-48f1-42b5-a531-76085f7229c8"},"vehicle_type_id":"4","last_reported":1758956882,"current_range_meters":17600,"station_id":"st_d2m6c4gdas8pm72e190g","pricing_plan_id":"cebpf4jnsgd1na2vs0mg"},{"bike_id":"809498ec-17c7-4be3-af91-40663913f97a","system_id":"levelo_inurba_marseille","lat":43.251224,"lon":5.403457,"is_reserved":false,"is_disabled":false,"rental_uris":{"android":"levelo://app?vid=809498ec-17c7-4be3-af91-40663913f97a","ios":"levelo://app?vid=809498ec-17c7-4be3-af91-40663913f97a"},"vehicle_type_id":"4","last_reported":1758956882,"current_range_meters":17600,"station_id":"ce4bhlh2rcd13ifvqgig","pricing_plan_id":"cebpf4jnsgd1na2vs0mg"},{"bike_id":"61f72c81-84af-4d24-903d-9a7cb27e68a1","system_id":"levelo_inurba_marseille","lat":43.2464,"lon":5.43168,"is_reserved":false,"is_disabled":false,"rental_uris":{"android":"levelo://app?vid=61f72c81-84af-4d24-903d-9a7cb27e68a1","ios":"levelo://app?vid=61f72c81-84af-4d24-903d-9a7cb27e68a1"},"vehicle_type_id":"4","last_reported":1758956882,"current_range_meters":17600,"station_id":"st_d2m6c4gdas8pm72e190g","pricing_plan_id":"cebpf4jnsgd1na2vs0mg"},{"bike_id":"9a3f3972-6426-45ed-a084-7f45c8c77358","system_id":"levelo_inurba_marseille","lat":43.27503,"lon":5.42465,"is_reserved":false,"is_disabled":false,"rental_uris":{"android":"levelo://app?vid=9a3f3972-6426-45ed-a084-7f45c8c77358","ios":"levelo://app?vid=9a3f3972-6426-45ed-a084-7f45c8c77358"},"vehicle_type_id":"4","last_reported":1758956882,"current_range_meters":17600,"station_id":"ce4bhn92rcd13ifvqgrg","pricing_plan_id":"cebpf4jnsgd1na2vs0mg"},{"bike_id":"1821ca16-eb33-43f8-9364-58ddce5c102c","system_id":"levelo_inurba_marseille","lat":43.29791,"lon":5.38092,"is_reserved":false,"is_disabled":false,"rental_uris":{"android":"levelo://app?vid=1821ca16-eb33-43f8-9364-58ddce5c102c","ios":"levelo://app?vid=1821ca16-eb33-43f8-9364-58ddce5c102c"},"vehicle_type_id":"4","last_reported":1758956882,"current_range_meters":17600,"station_id":"ce4bgip2rcd13ifvqbb0","pricing_plan_id":"cebpf4jnsgd1na2vs0mg"},{"bike_id":"d55e72cf-944a-4608-8c58-6a41695b302e","system_id":"levelo_inurba_marseille","lat":43.31078,"lon":5.38358,"is_reserved":false,"is_disabled":false,"rental_uris":{"android":"levelo://app?vid=d55e72cf-944a-4608-8c58-6a41695b302e","ios":"levelo://app?vid=d55e72cf-944a-4608-8c58-6a41695b302e"},"vehicle_type_id":"4","last_reported":1758956882,"current_range_meters":18000,"station_id":"ce4bgv92rcd13ifvqcr0","pricing_plan_id":"cebpf4jnsgd1na2vs0mg"},{"bike_id":"976fd36e-2f5c-424c-baa8-068b37f1eb42","system_id":"levelo_inurba_marseille","lat":43.27566,"lon":5.38448,"is_reserved":false,"is_disabled":false,"rental_uris":{"android":"levelo://app?vid=976fd36e-2f5c-424c-baa8-068b37f1eb42","ios":"levelo://app?vid=976fd36e-2f5c-424c-baa8-068b37f1eb42"},"vehicle_type_id":"4","last_reported":1758956882,"current_range_meters":18000,"station_id":"ce4bhh92rcd13ifvqfi0","pricing_plan_id":"cebpf4jnsgd1na2vs0mg"},{"bike_id":"a5ff59a1-1644-4b76-9136-59d47ea9f820","system_id":"levelo_inurba_marseille","lat":43.30918,"lon":5.37467,"is_reserved":false,"is_disabled":false,"rental_uris":{"android":"levelo://app?vid=a5ff59a1-1644-4b76-9136-59d47ea9f820","ios":"levelo://app?vid=a5ff59a1-1644-4b76-9136-59d47ea9f820"},"vehicle_type_id":"4","last_reported":1758956882,"current_range_meters":18000,"station_id":"","pricing_plan_id":"cebpf4jnsgd1na2vs0mg"},{"bike_id":"2243febf-ebaf-474b-8e3e-799410e4c867","system_id":"levelo_inurba_marseille","lat":43.325686,"lon":5.363559,"is_reserved":false,"is_disabled":false,"rental_uris":{"android":"levelo://app?vid=2243febf-ebaf-474b-8e3e-799410e4c867","ios":"levelo://app?vid=2243febf-ebaf-474b-8e3e-799410e4c867"},"vehicle_type_id":"4","last_reported":1758956882,"current_range_meters":18000,"station_id":"","pricing_plan_id":"cebpf4jnsgd1na2vs0mg"},{"bike_id":"54e7e81f-be08-40ef-af55-88274545b504","system_id":"levelo_inurba_marseille","lat":43.30308,"lon":5.40435,"is_reserved":false,"is_disabled":false,"rental_uris":{"android":"levelo://app?vid=54e7e81f-be08-40ef-af55-88274545b504","ios":"levelo://app?vid=54e7e81f-be08-40ef-af55-88274545b504"},"vehicle_type_id":"4","last_reported":1758956882,"current_range_meters":18000,"station_id":"ce4bh012rcd13ifvqd10","pricing_plan_id":"cebpf4jnsgd1na2vs0mg"},{"bike_id":"54fff988-c74f-45fc-a0eb-29489bfa1777","system_id":"levelo_inurba_marseille","lat":43.246475,"lon":5.388889,"is_reserved":false,"is_disabled":false,"rental_uris":{"android":"levelo://app?vid=54fff988-c74f-45fc-a0eb-29489bfa1777","ios":"levelo://app?vid=54fff988-c74f-45fc-a0eb-29489bfa1777"},"vehicle_type_id":"4","last_reported":1758956882,"current_range_meters":18000,"station_id":"ce4bhg12rcd13ifvqf60","pricing_plan_id":"cebpf4jnsgd1na2vs0mg"},{"bike_id":"88417ecf-3b45-4a85-b3ba-a098b1b6b1ed","system_id":"levelo_inurba_marseille","lat":43.27311,"lon":5.38534,"is_reserved":false,"is_disabled":false,"rental_uris":{"android":"levelo://app?vid=88417ecf-3b45-4a85-b3ba-a098b1b6b1ed","ios":"levelo://app?vid=88417ecf-3b45-4a85-b3ba-a098b1b6b1ed"},"vehicle_type_id":"4","last_reported":1758956882,"current_range_meters":18000,"station_id":"","pricing_plan_id":"cebpf4jnsgd1na2vs0mg"},{"bike_id":"0d0352bf-f394-45c0-baef-aa15dd4a4c38","system_id":"levelo_inurba_marseille","lat":43.24619,"lon":5.4313,"is_reserved":false,"is_disabled":false,"rental_uris":{"android":"levelo://app?vid=0d0352bf-f394-45c0-baef-aa15dd4a4c38","ios":"levelo://app?vid=0d0352bf-f394-45c0-baef-aa15dd4a4c38"},"vehicle_type_id":"4","last_reported":1758956882,"current_range_meters":18000,"station_id":"st_d2m6c4gdas8pm72e190g","pricing_plan_id":"cebpf4jnsgd1na2vs0mg"},{"bike_id":"91f03681-11bd-4a24-811a-6c09a89c8efe","system_id":"levelo_inurba_marseille","lat":43.250058,"lon":5.389262,"is_reserved":false,"is_disabled":false,"rental_uris":{"android":"levelo://app?vid=91f03681-11bd-4a24-811a-6c09a89c8efe","ios":"levelo://app?vid=91f03681-11bd-4a24-811a-6c09a89c8efe"},"vehicle_type_id":"4","last_reported":1758956882,"current_range_meters":18000,"station_id":"ce4bhgp2rcd13ifvqfd0","pricing_plan_id":"cebpf4jnsgd1na2vs0mg"},{"bike_id":"9d9cb4e9-d21a-4a45-b390-b7b55c6d9b4d","system_id":"levelo_inurba_marseille","lat":43.27051,"lon":5.40268,"is_reserved":false,"is_disabled":false,"rental_uris":{"android":"levelo://app?vid=9d9cb4e9-d21a-4a45-b390-b7b55c6d9b4d","ios":"levelo://app?vid=9d9cb4e9-d21a-4a45-b390-b7b55c6d9b4d"},"vehicle_type_id":"4","last_reported":1758956882,"current_range_meters":18000,"station_id":"ce4bhk92rcd13ifvqgc0","pricing_plan_id":"cebpf4jnsgd1na2vs0mg"},{"bike_id":"49cc1930-269d-4bd6-8804-0c6869823a2d","system_id":"levelo_inurba_marseille","lat":43.24175,"lon":5.397328,"is_reserved":false,"is_disabled":false,"rental_uris":{"android":"levelo://app?vid=49cc1930-269d-4bd6-8804-0c6869823a2d","ios":"levelo://app?vid=49cc1930-269d-4bd6-8804-0c6869823a2d"},"vehicle_type_id":"4","last_reported":1758956882,"current_range_meters":18000,"station_id":"ce4bhn12rcd13ifvqgpg","pricing_plan_id":"cebpf4jnsgd1na2vs0mg"},{"bike_id":"9a819dc8-447d-4df7-8b5f-0b18332a26a7","system_id":"levelo_inurba_marseille","lat":43.29042,"lon":5.38661,"is_reserved":false,"is_disabled":true,"rental_uris":{"android":"levelo://app?vid=9a819dc8-447d-4df7-8b5f-0b18332a26a7","ios":"levelo://app?vid=9a819dc8-447d-4df7-8b5f-0b18332a26a7"},"vehicle_type_id":"4","last_reported":1758956882,"current_range_meters":18000,"station_id":"ce4bh4p2rcd13ifvqe0g","pricing_plan_id":"cebpf4jnsgd1na2vs0mg"},{"bike_id":"258ab053-1083-4ca9-a32a-1e85f085fc22","system_id":"levelo_inurba_marseille","lat":43.337444,"lon":5.374475,"is_reserved":false,"is_disabled":false,"rental_uris":{"android":"levelo://app?vid=258ab053-1083-4ca9-a32a-1e85f085fc22","ios":"levelo://app?vid=258ab053-1083-4ca9-a32a-1e85f085fc22"},"vehicle_type_id":"4","last_reported":1758956882,"current_range_meters":18000,"station_id":"","pricing_plan_id":"cebpf4jnsgd1na2vs0mg"},{"bike_id":"4f5f9b8a-cf53-40f1-bb39-f7718febf450","system_id":"levelo_inurba_marseille","lat":43.28949,"lon":5.36402,"is_reserved":false,"is_disabled":false,"rental_uris":{"android":"levelo://app?vid=4f5f9b8a-cf53-40f1-bb39-f7718febf450","ios":"levelo://app?vid=4f5f9b8a-cf53-40f1-bb39-f7718febf450"},"vehicle_type_id":"4","last_reported":1758956882,"current_range_meters":18800,"station_id":"ce4bhc92rcd13ifvqetg","pricing_plan_id":"cebpf4jnsgd1na2vs0mg"},{"bike_id":"80a1468f-cd11-4e7d-a7a1-61a690ce0617","system_id":"levelo_inurba_marseille","lat":43.27064,"lon":5.42288,"is_reserved":false,"is_disabled":false,"rental_uris":{"android":"levelo://app?vid=80a1468f-cd11-4e7d-a7a1-61a690ce0617","ios":"levelo://app?vid=80a1468f-cd11-4e7d-a7a1-61a690ce0617"},"vehicle_type_id":"4","last_reported":1758956882,"current_range_meters":18800,"station_id":"ce4bhk92rcd13ifvqgb0","pricing_plan_id":"cebpf4jnsgd1na2vs0mg"},{"bike_id":"2d967268-bf6e-4120-9c7c-f7aae6350590","system_id":"levelo_inurba_marseille","lat":43.316853,"lon":5.40473,"is_reserved":false,"is_disabled":false,"rental_uris":{"android":"levelo://app?vid=2d967268-bf6e-4120-9c7c-f7aae6350590","ios":"levelo://app?vid=2d967268-bf6e-4120-9c7c-f7aae6350590"},"vehicle_type_id":"4","last_reported":1758956882,"current_range_meters":18800,"station_id":"ce4bh012rcd13ifvqd00","pricing_plan_id":"cebpf4jnsgd1na2vs0mg"},{"bike_id":"cfbc307e-8a35-40a6-8069-a30750bd7540","system_id":"levelo_inurba_marseille","lat":43.29148,"lon":5.4096,"is_reserved":false,"is_disabled":false,"rental_uris":{"android":"levelo://app?vid=cfbc307e-8a35-40a6-8069-a30750bd7540","ios":"levelo://app?vid=cfbc307e-8a35-40a6-8069-a30750bd7540"},"vehicle_type_id":"4","last_reported":1758956882,"current_range_meters":18800,"station_id":"","pricing_plan_id":"cebpf4jnsgd1na2vs0mg"},{"bike_id":"c3540d4b-6b27-44ad-8e52-a31bb0e59238","system_id":"levelo_inurba_marseille","lat":43.28728,"lon":5.4001,"is_reserved":false,"is_disabled":false,"rental_uris":{"android":"levelo://app?vid=c3540d4b-6b27-44ad-8e52-a31bb0e59238","ios":"levelo://app?vid=c3540d4b-6b27-44ad-8e52-a31bb0e59238"},"vehicle_type_id":"4","last_reported":1758956882,"current_range_meters":18800,"station_id":"ce4bho92rcd13ifvqh3g","pricing_plan_id":"cebpf4jnsgd1na2vs0mg"},{"bike_id":"4bc5ce2a-a943-49ff-b51f-ff13b97e7de5","system_id":"levelo_inurba_marseille","lat":43.28767,"lon":5.35846,"is_reserved":false,"is_disabled":false,"rental_uris":{"android":"levelo://app?vid=4bc5ce2a-a943-49ff-b51f-ff13b97e7de5","ios":"levelo://app?vid=4bc5ce2a-a943-49ff-b51f-ff13b97e7de5"},"vehicle_type_id":"4","last_reported":1758956882,"current_range_meters":18800,"station_id":"","pricing_plan_id":"cebpf4jnsgd1na2vs0mg"},{"bike_id":"479f21c8-e7fc-4ff5-841a-371822766ffe","system_id":"levelo_inurba_marseille","lat":43.25108,"lon":5.40318,"is_reserved":false,"is_disabled":false,"rental_uris":{"android":"levelo://app?vid=479f21c8-e7fc-4ff5-841a-371822766ffe","ios":"levelo://app?vid=479f21c8-e7fc-4ff5-841a-371822766ffe"},"vehicle_type_id":"4","last_reported":1758956882,"current_range_meters":18800,"station_id":"ce4bhlh2rcd13ifvqgig","pricing_plan_id":"cebpf4jnsgd1na2vs0mg"},{"bike_id":"d04d69ab-b81a-4e04-b105-360a2ca4e5b6","system_id":"levelo_inurba_marseille","lat":43.23178,"lon":5.39996,"is_reserved":false,"is_disabled":false,"rental_uris":{"android":"levelo://app?vid=d04d69ab-b81a-4e04-b105-360a2ca4e5b6","ios":"levelo://app?vid=d04d69ab-b81a-4e04-b105-360a2ca4e5b6"},"vehicle_type_id":"4","last_reported":1758956882,"current_range_meters":18800,"station_id":"ce4bhn12rcd13ifvqgqg","pricing_plan_id":"cebpf4jnsgd1na2vs0mg"},{"bike_id":"ce90b0c1-6c36-4837-a050-6c45b26dd091","system_id":"levelo_inurba_marseille","lat":43.23182,"lon":5.35528,"is_reserved":false,"is_disabled":false,"rental_uris":{"android":"levelo://app?vid=ce90b0c1-6c36-4837-a050-6c45b26dd091","ios":"levelo://app?vid=ce90b0c1-6c36-4837-a050-6c45b26dd091"},"vehicle_type_id":"4","last_reported":1758956882,"current_range_meters":18800,"station_id":"ce4bhu92rcd13ifvqi70","pricing_plan_id":"cebpf4jnsgd1na2vs0mg"},{"bike_id":"43369da0-93bc-4a83-af99-48405f9dc093","system_id":"levelo_inurba_marseille","lat":43.26952,"lon":5.38629,"is_reserved":false,"is_disabled":false,"rental_uris":{"android":"levelo://app?vid=43369da0-93bc-4a83-af99-48405f9dc093","ios":"levelo://app?vid=43369da0-93bc-4a83-af99-48405f9dc093"},"vehicle_type_id":"4","last_reported":1758956882,"current_range_meters":18800,"station_id":"ce4bhh92rcd13ifvqfh0","pricing_plan_id":"cebpf4jnsgd1na2vs0mg"},{"bike_id":"a709973b-47e3-4942-88bd-f9706d2222eb","system_id":"levelo_inurba_marseille","lat":43.21205,"lon":5.35081,"is_reserved":false,"is_disabled":false,"rental_uris":{"android":"levelo://app?vid=a709973b-47e3-4942-88bd-f9706d2222eb","ios":"levelo://app?vid=a709973b-47e3-4942-88bd-f9706d2222eb"},"vehicle_type_id":"4","last_reported":1758956882,"current_range_meters":18800,"station_id":"st_cvj6sg6p6f1abm77japg","pricing_plan_id":"cebpf4jnsgd1na2vs0mg"},{"bike_id":"d02b558e-758e-4a0b-b868-d8421befd034","system_id":"levelo_inurba_marseille","lat":43.324768,"lon":5.365595,"is_reserved":false,"is_disabled":false,"rental_uris":{"android":"levelo://app?vid=d02b558e-758e-4a0b-b868-d8421befd034","ios":"levelo://app?vid=d02b558e-758e-4a0b-b868-d8421befd034"},"vehicle_type_id":"4","last_reported":1758956882,"current_range_meters":18800,"station_id":"ce4bhs12rcd13ifvqhvg","pricing_plan_id":"cebpf4jnsgd1na2vs0mg"},{"bike_id":"94c907cb-ff8c-42ef-93bd-027ccdbc3487","system_id":"levelo_inurba_marseille","lat":43.29289,"lon":5.36853,"is_reserved":false,"is_disabled":false,"rental_uris":{"android":"levelo://app?vid=94c907cb-ff8c-42ef-93bd-027ccdbc3487","ios":"levelo://app?vid=94c907cb-ff8c-42ef-93bd-027ccdbc3487"},"vehicle_type_id":"4","last_reported":1758956882,"current_range_meters":19200,"station_id":"ce4bhbp2rcd13ifvqesg","pricing_plan_id":"cebpf4jnsgd1na2vs0mg"},{"bike_id":"81c6dd02-946c-42a0-a133-048978d3d38d","system_id":"levelo_inurba_marseille","lat":43.30924,"lon":5.40149,"is_reserved":false,"is_disabled":false,"rental_uris":{"android":"levelo://app?vid=81c6dd02-946c-42a0-a133-048978d3d38d","ios":"levelo://app?vid=81c6dd02-946c-42a0-a133-048978d3d38d"},"vehicle_type_id":"4","last_reported":1758956882,"current_range_meters":19200,"station_id":"ce4bgvp2rcd13ifvqct0","pricing_plan_id":"cebpf4jnsgd1na2vs0mg"},{"bike_id":"95bafeb0-6c7b-407a-a73b-a6569ff5cb66","system_id":"levelo_inurba_marseille","lat":43.30819,"lon":5.37089,"is_reserved":false,"is_disabled":false,"rental_uris":{"android":"levelo://app?vid=95bafeb0-6c7b-407a-a73b-a6569ff5cb66","ios":"levelo://app?vid=95bafeb0-6c7b-407a-a73b-a6569ff5cb66"},"vehicle_type_id":"4","last_reported":1758956882,"current_range_meters":19200,"station_id":"","pricing_plan_id":"cebpf4jnsgd1na2vs0mg"},{"bike_id":"a7149a7d-cfff-4749-aab1-667f13b4b633","system_id":"levelo_inurba_marseille","lat":43.30929,"lon":5.4014,"is_reserved":false,"is_disabled":false,"rental_uris":{"android":"levelo://app?vid=a7149a7d-cfff-4749-aab1-667f13b4b633","ios":"levelo://app?vid=a7149a7d-cfff-4749-aab1-667f13b4b633"},"vehicle_type_id":"4","last_reported":1758956882,"current_range_meters":19200,"station_id":"ce4bgvp2rcd13ifvqct0","pricing_plan_id":"cebpf4jnsgd1na2vs0mg"},{"bike_id":"2c6518be-b3f0-42d2-93c9-c1de9e54885f","system_id":"levelo_inurba_marseille","lat":43.29227,"lon":5.38219,"is_reserved":false,"is_disabled":false,"rental_uris":{"android":"levelo://app?vid=2c6518be-b3f0-42d2-93c9-c1de9e54885f","ios":"levelo://app?vid=2c6518be-b3f0-42d2-93c9-c1de9e54885f"},"vehicle_type_id":"4","last_reported":1758956882,"current_range_meters":19200,"station_id":"","pricing_plan_id":"cebpf4jnsgd1na2vs0mg"},{"bike_id":"96ec8504-3929-4d2f-8ea3-f1456fc0043f","system_id":"levelo_inurba_marseille","lat":43.28696,"lon":5.37396,"is_reserved":false,"is_disabled":false,"rental_uris":{"android":"levelo://app?vid=96ec8504-3929-4d2f-8ea3-f1456fc0043f","ios":"levelo://app?vid=96ec8504-3929-4d2f-8ea3-f1456fc0043f"},"vehicle_type_id":"4","last_reported":1758956882,"current_range_meters":19200,"station_id":"ce4bh3p2rcd13ifvqdq0","pricing_plan_id":"cebpf4jnsgd1na2vs0mg"},{"bike_id":"d8ed4194-ad40-4208-bceb-a75f439d0aa2","system_id":"levelo_inurba_marseille","lat":43.2678,"lon":5.39413,"is_reserved":false,"is_disabled":false,"rental_uris":{"android":"levelo://app?vid=d8ed4194-ad40-4208-bceb-a75f439d0aa2","ios":"levelo://app?vid=d8ed4194-ad40-4208-bceb-a75f439d0aa2"},"vehicle_type_id":"4","last_reported":1758956882,"current_range_meters":19200,"station_id":"ce4bhh12rcd13ifvqfg0","pricing_plan_id":"cebpf4jnsgd1na2vs0mg"},{"bike_id":"736ae3fd-2a7d-4623-b035-fd9a456bd909","system_id":"levelo_inurba_marseille","lat":43.27921,"lon":5.37987,"is_reserved":false,"is_disabled":false,"rental_uris":{"android":"levelo://app?vid=736ae3fd-2a7d-4623-b035-fd9a456bd909","ios":"levelo://app?vid=736ae3fd-2a7d-4623-b035-fd9a456bd909"},"vehicle_type_id":"4","last_reported":1758956882,"current_range_meters":19200,"station_id":"ce4bhf92rcd13ifvqf50","pricing_plan_id":"cebpf4jnsgd1na2vs0mg"},{"bike_id":"d15ab4b0-88ac-4a2f-96b6-8adca8dc45ed","system_id":"levelo_inurba_marseille","lat":43.23184,"lon":5.39986,"is_reserved":false,"is_disabled":false,"rental_uris":{"android":"levelo://app?vid=d15ab4b0-88ac-4a2f-96b6-8adca8dc45ed","ios":"levelo://app?vid=d15ab4b0-88ac-4a2f-96b6-8adca8dc45ed"},"vehicle_type_id":"4","last_reported":1758956882,"current_range_meters":19200,"station_id":"ce4bhn12rcd13ifvqgqg","pricing_plan_id":"cebpf4jnsgd1na2vs0mg"},{"bike_id":"5fe7f407-3191-4d84-bcf8-5bce6d58e56d","system_id":"levelo_inurba_marseille","lat":43.229259,"lon":5.353901,"is_reserved":false,"is_disabled":true,"rental_uris":{"android":"levelo://app?vid=5fe7f407-3191-4d84-bcf8-5bce6d58e56d","ios":"levelo://app?vid=5fe7f407-3191-4d84-bcf8-5bce6d58e56d"},"vehicle_type_id":"4","last_reported":1758956882,"current_range_meters":19200,"station_id":"cpo3532slgdg3j2ikp40","pricing_plan_id":"cebpf4jnsgd1na2vs0mg"},{"bike_id":"7ac81eae-aed2-4f3f-a100-b35f399befc9","system_id":"levelo_inurba_marseille","lat":43.25099,"lon":5.40308,"is_reserved":false,"is_disabled":false,"rental_uris":{"android":"levelo://app?vid=7ac81eae-aed2-4f3f-a100-b35f399befc9","ios":"levelo://app?vid=7ac81eae-aed2-4f3f-a100-b35f399befc9"},"vehicle_type_id":"4","last_reported":1758956882,"current_range_meters":19200,"station_id":"ce4bhlh2rcd13ifvqgig","pricing_plan_id":"cebpf4jnsgd1na2vs0mg"},{"bike_id":"a938d35e-65f3-4d42-b164-197702b1b5bd","system_id":"levelo_inurba_marseille","lat":43.33747,"lon":5.37453,"is_reserved":false,"is_disabled":false,"rental_uris":{"android":"levelo://app?vid=a938d35e-65f3-4d42-b164-197702b1b5bd","ios":"levelo://app?vid=a938d35e-65f3-4d42-b164-197702b1b5bd"},"vehicle_type_id":"4","last_reported":1758956882,"current_range_meters":19200,"station_id":"","pricing_plan_id":"cebpf4jnsgd1na2vs0mg"},