{"last_updated":1716916006,"ttl":30,"version":"2.2","data":{"bikes":[{"bike_id":"991be2f0-73fe-4564-acb2-013440f959eb","system_id":"levelo_inurba_marseille","lat":43.31226,"lon":5.36852,"is_reserved":false,"is_disabled":false,"rental_uris":{"android":"levelo://app?vid=991be2f0-73fe-4564-acb2-013440f959eb","ios":"levelo://app?vid=991be2f0-73fe-4564-acb2-013440f959eb"},"vehicle_type_id":"4","last_reported":1716916007,"current_range_meters":8400,"station_id":"ce4bgl92rcd13ifvqbq0","pricing_plan_id":"cebpf4jnsgd1na2vs0mg"},{"bike_id":"63353a04-9764-4a06-8b5b-1cc09db07140","system_id":"levelo_inurba_marseille","lat":43.314811,"lon":5.373103,"is_reserved":false,"is_disabled":false,"rental_uris":{"android":"levelo://app?vid=63353a04-9764-4a06-8b5b-1cc09db07140","ios":"levelo://app?vid=63353a04-9764-4a06-8b5b-1cc09db07140"},"vehicle_type_id":"4","last_reported":1716916007,"current_range_meters":15600,"station_id":"ce4bgt12rcd13ifvqcd0","pricing_plan_id":"cebpf4jnsgd1na2vs0mg"},{"bike_id":"771c01a6-8f2e-484b-be66-57fe64e67782","system_id":"levelo_inurba_marseille","lat":43.314811,"lon":5.373103,"is_reserved":false,"is_disabled":false,"rental_uris":{"android":"levelo://app?vid=771c01a6-8f2e-484b-be66-57fe64e67782","ios":"levelo://app?vid=771c01a6-8f2e-484b-be66-57fe64e67782"},"vehicle_type_id":"4","last_reported":1716916007,"current_range_meters":7600,"station_id":"ce4bgt12rcd13ifvqcd0","pricing_plan_id":"cebpf4jnsgd1na2vs0mg"},{"bike_id":"119100a6-dc5b-4871-8067-d679284d3ec2","system_id":"levelo_inurba_marseille","lat":43.31494,"lon":5.373094,"is_reserved":false,"is_disabled":false,"rental_uris":{"android":"levelo://app?vid=119100a6-dc5b-4871-8067-d679284d3ec2","ios":"levelo://app?vid=119100a6-dc5b-4871-8067-d679284d3ec2"},"vehicle_type_id":"4","last_reported":1716916007,"current_range_meters":0,"station_id":"ce4bgt12rcd13ifvqcd0","pricing_plan_id":"cebpf4jnsgd1na2vs0mg"},{"bike_id":"acf71c77-81f8-4ab0-bad9-2eaf77685174","system_id":"levelo_inurba_marseille","lat":43.309034,"lon":5.371783,"is_reserved":false,"is_disabled":false,"rental_uris":{"android":"levelo://app?vid=acf71c77-81f8-4ab0-bad9-2eaf77685174","ios":"levelo://app?vid=acf71c77-81f8-4ab0-bad9-2eaf77685174"},"vehicle_type_id":"4","last_reported":1716916007,"current_range_meters":2400,"station_id":"ce4bguh2rcd13ifvqckg","pricing_plan_id":"cebpf4jnsgd1na2vs0mg"},{"bike_id":"cf009764-aa6c-4a72-b8eb-2691ddcd6991","system_id":"levelo_inurba_marseille","lat":43.309039,"lon":5.371797,"is_reserved":false,"is_disabled":false,"rental_uris":{"android":"levelo://app?vid=cf009764-aa6c-4a72-b8eb-2691ddcd6991","ios":"levelo://app?vid=cf009764-aa6c-4a72-b8eb-2691ddcd6991"},"vehicle_type_id":"4","last_reported":1716916007,"current_range_meters":25200,"station_id":"ce4bguh2rcd13ifvqckg","pricing_plan_id":"cebpf4jnsgd1na2vs0mg"},{"bike_id":"20aee808-905b-47f6-a5b7-16bc3ba0086f","system_id":"levelo_inurba_marseille","lat":43.309039,"lon":5.371797,"is_reserved":false,"is_disabled":false,"rental_uris":{"android":"levelo://app?vid=20aee808-905b-47f6-a5b7-16bc3ba0086f","ios":"levelo://app?vid=20aee808-905b-47f6-a5b7-16bc3ba0086f"},"vehicle_type_id":"4","last_reported":1716916007,"current_range_meters":4400,"station_id":"ce4bguh2rcd13ifvqckg","pricing_plan_id":"cebpf4jnsgd1na2vs0mg"},{"bike_id":"a4246464-7102-447b-b942-7754d096de63","system_id":"levelo_inurba_marseille","lat":43.309034,"lon":5.371783,"is_reserved":false,"is_disabled":false,"rental_uris":{"android":"levelo://app?vid=a4246464-7102-447b-b942-7754d096de63","ios":"levelo://app?vid=a4246464-7102-447b-b942-7754d096de63"},"vehicle_type_id":"4","last_reported":1716916007,"current_range_meters":1600,"station_id":"ce4bguh2rcd13ifvqckg","pricing_plan_id":"cebpf4jnsgd1na2vs0mg"},{"bike_id":"c44450ec-a21a-46e4-8727-126b756a1676","system_id":"levelo_inurba_marseille","lat":43.307588,"lon":5.372219,"is_reserved":false,"is_disabled":false,"rental_uris":{"android":"levelo://app?vid=c44450ec-a21a-46e4-8727-126b756a1676","ios":"levelo://app?vid=c44450ec-a21a-46e4-8727-126b756a1676"},"vehicle_type_id":"4","last_reported":1716916007,"current_range_meters":18400,"station_id":"","pricing_plan_id":"cebpf4jnsgd1na2vs0mg"},{"bike_id":"c97e6fb1-ad90-4695-a867-b96385eb77fa","system_id":"levelo_inurba_marseille","lat":43.30559,"lon":5.367023,"is_reserved":false,"is_disabled":false,"rental_uris":{"android":"levelo://app?vid=c97e6fb1-ad90-4695-a867-b96385eb77fa","ios":"levelo://app?vid=c97e6fb1-ad90-4695-a867-b96385eb77fa"},"vehicle_type_id":"4","last_reported":1716916007,"current_range_meters":0,"station_id":"ce4bgrp2rcd13ifvqc9g","pricing_plan_id":"cebpf4jnsgd1na2vs0mg"},{"bike_id":"7e050499-8b8f-41c1-ae5e-9c308aa91dec","system_id":"levelo_inurba_marseille","lat":43.30537,"lon":5.367345,"is_reserved":false,"is_disabled":false,"rental_uris":{"android":"levelo://app?vid=7e050499-8b8f-41c1-ae5e-9c308aa91dec","ios":"levelo://app?vid=7e050499-8b8f-41c1-ae5e-9c308aa91dec"},"vehicle_type_id":"4","last_reported":1716916007,"current_range_meters":0,"station_id":"ce4bgrp2rcd13ifvqc9g","pricing_plan_id":"cebpf4jnsgd1na2vs0mg"},{"bike_id":"8bc09ed6-c5c1-4dcd-bc2e-4ff79d1d7769","system_id":"levelo_inurba_marseille","lat":43.311702,"lon":5.377211,"is_reserved":false,"is_disabled":false,"rental_uris":{"android":"levelo://app?vid=8bc09ed6-c5c1-4dcd-bc2e-4ff79d1d7769","ios":"levelo://app?vid=8bc09ed6-c5c1-4dcd-bc2e-4ff79d1d7769"},"vehicle_type_id":"4","last_reported":1716916007,"current_range_meters":0,"station_id":"","pricing_plan_id":"cebpf4jnsgd1na2vs0mg"},{"bike_id":"347608a4-9ca2-4ab5-a9bc-f66f1ba0ca52","system_id":"levelo_inurba_marseille","lat":43.305989,"lon":5.37225,"is_reserved":false,"is_disabled":false,"rental_uris":{"android":"levelo://app?vid=347608a4-9ca2-4ab5-a9bc-f66f1ba0ca52","ios":"levelo://app?vid=347608a4-9ca2-4ab5-a9bc-f66f1ba0ca52"},"vehicle_type_id":"4","last_reported":1716916007,"current_range_meters":0,"station_id":"ce4bgqh2rcd13ifvqc4g","pricing_plan_id":"cebpf4jnsgd1na2vs0mg"},{"bike_id":"8081ec8a-39fc-45d4-9a8a-ab04c950eb7b","system_id":"levelo_inurba_marseille","lat":43.305989,"lon":5.37225,"is_reserved":false,"is_disabled":false,"rental_uris":{"android":"levelo://app?vid=8081ec8a-39fc-45d4-9a8a-ab04c950eb7b","ios":"levelo://app?vid=8081ec8a-39fc-45d4-9a8a-ab04c950eb7b"},"vehicle_type_id":"4","last_reported":1716916007,"current_range_meters":0,"station_id":"ce4bgqh2rcd13ifvqc4g","pricing_plan_id":"cebpf4jnsgd1na2vs0mg"},{"bike_id":"3319d12b-38fe-4888-aa68-8a819a8c73b0","system_id":"levelo_inurba_marseille","lat":43.311125,"lon":5.377624,"is_reserved":false,"is_disabled":false,"rental_uris":{"android":"levelo://app?vid=3319d12b-38fe-4888-aa68-8a819a8c73b0","ios":"levelo://app?vid=3319d12b-38fe-4888-aa68-8a819a8c73b0"},"vehicle_type_id":"4","last_reported":1716916007,"current_range_meters":3200,"station_id":"ce4bgt92rcd13ifvqcg0","pricing_plan_id":"cebpf4jnsgd1na2vs0mg"},{"bike_id":"5c2dad9a-11eb-4e0d-8f16-d5f32955aa12","system_id":"levelo_inurba_marseille","lat":43.311131,"lon":5.377651,"is_reserved":false,"is_disabled":false,"rental_uris":{"android":"levelo://app?vid=5c2dad9a-11eb-4e0d-8f16-d5f32955aa12","ios":"levelo://app?vid=5c2dad9a-11eb-4e0d-8f16-d5f32955aa12"},"vehicle_type_id":"4","last_reported":1716916007,"current_range_meters":24400,"station_id":"ce4bgt92rcd13ifvqcg0","pricing_plan_id":"cebpf4jnsgd1na2vs0mg"},{"bike_id":"aacc503a-d25e-4aa7-89d3-ff1437ad0d71","system_id":"levelo_inurba_marseille","lat":43.308129,"lon":5.376354,"is_reserved":false,"is_disabled":false,"rental_uris":{"android":"levelo://app?vid=aacc503a-d25e-4aa7-89d3-ff1437ad0d71","ios":"levelo://app?vid=aacc503a-d25e-4aa7-89d3-ff1437ad0d71"},"vehicle_type_id":"4","last_reported":1716916007,"current_range_meters":0,"station_id":"ce4bgt12rcd13ifvqcd0","pricing_plan_id":"cebpf4jnsgd1na2vs0mg"},{"bike_id":"da9ca1a6-c3ef-436e-b9f7-0ce60072103f","system_id":"levelo_inurba_marseille","lat":43.307945,"lon":5.376487,"is_reserved":false,"is_disabled":false,"rental_uris":{"android":"levelo://app?vid=da9ca1a6-c3ef-436e-b9f7-0ce60072103f","ios":"levelo://app?vid=da9ca1a6-c3ef-436e-b9f7-0ce60072103f"},"vehicle_type_id":"4","last_reported":1716916007,"current_range_meters":27200,"station_id":"ce4bgv92rcd13ifvqcq0","pricing_plan_id":"cebpf4jnsgd1na2vs0mg"},{"bike_id":"e55d33eb-2a6d-49c3-a0a3-a08e3114858b","system_id":"levelo_inurba_marseille","lat":43.317211,"lon":5.377543,"is_reserved":false,"is_disabled":false,"rental_uris":{"android":"levelo://app?vid=e55d33eb-2a6d-49c3-a0a3-a08e3114858b","ios":"levelo://app?vid=e55d33eb-2a6d-49c3-a0a3-a08e3114858b"},"vehicle_type_id":"4","last_reported":1716916007,"current_range_meters":2000,"station_id":"ce4bgth2rcd13ifvqch0","pricing_plan_id":"cebpf4jnsgd1na2vs0mg"},{"bike_id":"20beb8d5-7720-4e17-9c9c-1d38b07e742a","system_id":"levelo_inurba_marseille","lat":43.30304,"lon":5.368987,"is_reserved":false,"is_disabled":false,"rental_uris":{"android":"levelo://app?vid=20beb8d5-7720-4e17-9c9c-1d38b07e742a","ios":"levelo://app?vid=20beb8d5-7720-4e17-9c9c-1d38b07e742a"},"vehicle_type_id":"4","last_reported":1716916007,"current_range_meters":6400,"station_id":"ce4bgqh2rcd13ifvqc5g","pricing_plan_id":"cebpf4jnsgd1na2vs0mg"},{"bike_id":"ebcdf13e-715a-48c3-800a-d19ae39b7ee2","system_id":"levelo_inurba_marseille","lat":43.315293,"lon":5.380349,"is_reserved":false,"is_disabled":false,"rental_uris":{"android":"levelo://app?vid=ebcdf13e-715a-48c3-800a-d19ae39b7ee2","ios":"levelo://app?vid=ebcdf13e-715a-48c3-800a-d19ae39b7ee2"},"vehicle_type_id":"4","last_reported":1716916007,"current_range_meters":15600,"station_id":"ce4bhsp2rcd13ifvqi50","pricing_plan_id":"cebpf4jnsgd1na2vs0mg"},{"bike_id":"51e946c1-79e1-4ac6-97c9-de28b3bce964","system_id":"levelo_inurba_marseille","lat":43.315289,"lon":5.380349,"is_reserved":false,"is_disabled":false,"rental_uris":{"android":"levelo://app?vid=51e946c1-79e1-4ac6-97c9-de28b3bce964","ios":"levelo://app?vid=51e946c1-79e1-4ac6-97c9-de28b3bce964"},"vehicle_type_id":"4","last_reported":1716916007,"current_range_meters":2400,"station_id":"ce4bhsp2rcd13ifvqi50","pricing_plan_id":"cebpf4jnsgd1na2vs0mg"},{"bike_id":"0a17457c-2d42-4f34-9b42-6e660174180f","system_id":"levelo_inurba_marseille","lat":43.315289,"lon":5.380349,"is_reserved":false,"is_disabled":false,"rental_uris":{"android":"levelo://app?vid=0a17457c-2d42-4f34-9b42-6e660174180f","ios":"levelo://app?vid=0a17457c-2d42-4f34-9b42-6e660174180f"},"vehicle_type_id":"4","last_reported":1716916007,"current_range_meters":16000,"station_id":"ce4bhsp2rcd13ifvqi50","pricing_plan_id":"cebpf4jnsgd1na2vs0mg"},{"bike_id":"9c98c2f9-a3ff-43c5-ac4a-70af4f5ae559","system_id":"levelo_inurba_marseille","lat":43.315289,"lon":5.380349,"is_reserved":false,"is_disabled":false,"rental_uris":{"android":"levelo://app?vid=9c98c2f9-a3ff-43c5-ac4a-70af4f5ae559","ios":"levelo://app?vid=9c98c2f9-a3ff-43c5-ac4a-70af4f5ae559"},"vehicle_type_id":"4","last_reported":1716916007,"current_range_meters":19200,"station_id":"ce4bhsp2rcd13ifvqi50","pricing_plan_id":"cebpf4jnsgd1na2vs0mg"},{"bike_id":"e7694344-dfd9-4a12-b344-149294114f70","system_id":"levelo_inurba_marseille","lat":43.315293,"lon":5.380349,"is_reserved":false,"is_disabled":false,"rental_uris":{"android":"levelo://app?vid=e7694344-dfd9-4a12-b344-149294114f70","ios":"levelo://app?vid=e7694344-dfd9-4a12-b344-149294114f70"},"vehicle_type_id":"4","last_reported":1716916007,"current_range_meters":9600,"station_id":"ce4bhsp2rcd13ifvqi50","pricing_plan_id":"cebpf4jnsgd1na2vs0mg"},{"bike_id":"8f20f025-8136-4321-acf9-f32d9382f533","system_id":"levelo_inurba_marseille","lat":43.301939,"lon":5.366286,"is_reserved":false,"is_disabled":false,"rental_uris":{"android":"levelo://app?vid=8f20f025-8136-4321-acf9-f32d9382f533","ios":"levelo://app?vid=8f20f025-8136-4321-acf9-f32d9382f533"},"vehicle_type_id":"4","last_reported":1716916007,"current_range_meters":18800,"station_id":"ce4bgrh2rcd13ifvqc8g","pricing_plan_id":"cebpf4jnsgd1na2vs0mg"},{"bike_id":"0de22407-a5af-4317-92f8-f810c42e8993","system_id":"levelo_inurba_marseille","lat":43.30817,"lon":5.3815,"is_reserved":false,"is_disabled":false,"rental_uris":{"android":"levelo://app?vid=0de22407-a5af-4317-92f8-f810c42e8993","ios":"levelo://app?vid=0de22407-a5af-4317-92f8-f810c42e8993"},"vehicle_type_id":"4","last_reported":1716916007,"current_range_meters":16000,"station_id":"ce4bgt12rcd13ifvqce0","pricing_plan_id":"cebpf4jnsgd1na2vs0mg"},{"bike_id":"2ce8cadc-d7f6-4187-b70b-d470c4877489","system_id":"levelo_inurba_marseille","lat":43.30462,"lon":5.37892,"is_reserved":false,"is_disabled":false,"rental_uris":{"android":"levelo://app?vid=2ce8cadc-d7f6-4187-b70b-d470c4877489","ios":"levelo://app?vid=2ce8cadc-d7f6-4187-b70b-d470c4877489"},"vehicle_type_id":"4","last_reported":1716916007,"current_range_meters":0,"station_id":"ce4bgup2rcd13ifvqcn0","pricing_plan_id":"cebpf4jnsgd1na2vs0mg"},{"bike_id":"c670c375-d5e5-4927-a23d-1b69d611482c","system_id":"levelo_inurba_marseille","lat":43.324756,"lon":5.365637,"is_reserved":false,"is_disabled":false,"rental_uris":{"android":"levelo://app?vid=c670c375-d5e5-4927-a23d-1b69d611482c","ios":"levelo://app?vid=c670c375-d5e5-4927-a23d-1b69d611482c"},"vehicle_type_id":"4","last_reported":1716916007,"current_range_meters":31200,"station_id":"ce4bhs12rcd13ifvqhvg","pricing_plan_id":"cebpf4jnsgd1na2vs0mg"},{"bike_id":"de7738ed-0279-4d0a-8304-575d743186a4","system_id":"levelo_inurba_marseille","lat":43.30907,"lon":5.38271,"is_reserved":false,"is_disabled":false,"rental_uris":{"android":"levelo://app?vid=de7738ed-0279-4d0a-8304-575d743186a4","ios":"levelo://app?vid=de7738ed-0279-4d0a-8304-575d743186a4"},"vehicle_type_id":"4","last_reported":1716916007,"current_range_meters":22800,"station_id":"","pricing_plan_id":"cebpf4jnsgd1na2vs0mg"},{"bike_id":"a110de59-f87f-45ba-9be8-73cef6eac67a","system_id":"levelo_inurba_marseille","lat":43.324771,"lon":5.36557,"is_reserved":false,"is_disabled":false,"rental_uris":{"android":"levelo://app?vid=a110de59-f87f-45ba-9be8-73cef6eac67a","ios":"levelo://app?vid=a110de59-f87f-45ba-9be8-73cef6eac67a"},"vehicle_type_id":"4","last_reported":1716916007,"current_range_meters":22000,"station_id":"ce4bhs12rcd13ifvqhvg","pricing_plan_id":"cebpf4jnsgd1na2vs0mg"},{"bike_id":"c3a0db3a-d9c4-4587-9e8a-3e0b537bae30","system_id":"levelo_inurba_marseille","lat":43.324845,"lon":5.365682,"is_reserved":false,"is_disabled":false,"rental_uris":{"android":"levelo://app?vid=c3a0db3a-d9c4-4587-9e8a-3e0b537bae30","ios":"levelo://app?vid=c3a0db3a-d9c4-4587-9e8a-3e0b537bae30"},"vehicle_type_id":"4","last_reported":1716916007,"current_range_meters":400,"station_id":"ce4bhs12rcd13ifvqhvg","pricing_plan_id":"cebpf4jnsgd1na2vs0mg"},{"bike_id":"38517ce9-d213-49ad-8d5b-16588ebc5b69","system_id":"levelo_inurba_marseille","lat":43.310804,"lon":5.38359,"is_reserved":false,"is_disabled":false,"rental_uris":{"android":"levelo://app?vid=38517ce9-d213-49ad-8d5b-16588ebc5b69","ios":"levelo://app?vid=38517ce9-d213-49ad-8d5b-16588ebc5b69"},"vehicle_type_id":"4","last_reported":1716916007,"current_range_meters":0,"station_id":"ce4bgv92rcd13ifvqcr0","pricing_plan_id":"cebpf4jnsgd1na2vs0mg"},{"bike_id":"80e5a6e0-6865-4b3d-a272-90f3dd392b26","system_id":"levelo_inurba_marseille","lat":43.324771,"lon":5.36557,"is_reserved":false,"is_disabled":false,"rental_uris":{"android":"levelo://app?vid=80e5a6e0-6865-4b3d-a272-90f3dd392b26","ios":"levelo://app?vid=80e5a6e0-6865-4b3d-a272-90f3dd392b26"},"vehicle_type_id":"4","last_reported":1716916007,"current_range_meters":23200,"station_id":"ce4bhs12rcd13ifvqhvg","pricing_plan_id":"cebpf4jnsgd1na2vs0mg"},{"bike_id":"b8d16424-9063-4884-bf6a-e51e3820a2ac","system_id":"levelo_inurba_marseille","lat":43.31087,"lon":5.38368,"is_reserved":false,"is_disabled":false,"rental_uris":{"android":"levelo://app?vid=b8d16424-9063-4884-bf6a-e51e3820a2ac","ios":"levelo://app?vid=b8d16424-9063-4884-bf6a-e51e3820a2ac"},"vehicle_type_id":"4","last_reported":1716916007,"current_range_meters":0,"station_id":"ce4bgv92rcd13ifvqcr0","pricing_plan_id":"cebpf4jnsgd1na2vs0mg"},{"bike_id":"2c9df09e-8757-4253-b433-c0873254ae33","system_id":"levelo_inurba_marseille","lat":43.301429,"lon":5.37413,"is_reserved":false,"is_disabled":false,"rental_uris":{"android":"levelo://app?vid=2c9df09e-8757-4253-b433-c0873254ae33","ios":"levelo://app?vid=2c9df09e-8757-4253-b433-c0873254ae33"},"vehicle_type_id":"4","last_reported":1716916007,"current_range_meters":24400,"station_id":"ce4bgs92rcd13ifvqcc0","pricing_plan_id":"cebpf4jnsgd1na2vs0mg"},{"bike_id":"e407cee2-35e5-4a1f-8834-554b7e94f928","system_id":"levelo_inurba_marseille","lat":43.319935,"lon":5.381699,"is_reserved":false,"is_disabled":false,"rental_uris":{"android":"levelo://app?vid=e407cee2-35e5-4a1f-8834-554b7e94f928","ios":"levelo://app?vid=e407cee2-35e5-4a1f-8834-554b7e94f928"},"vehicle_type_id":"4","last_reported":1716916007,"current_range_meters":2400,"station_id":"ce4bhr12rcd13ifvqhpg","pricing_plan_id":"cebpf4jnsgd1na2vs0mg"},{"bike_id":"38c2f953-6978-4799-bbf4-da7773914298","system_id":"levelo_inurba_marseille","lat":43.320022,"lon":5.381408,"is_reserved":false,"is_disabled":false,"rental_uris":{"android":"levelo://app?vid=38c2f953-6978-4799-bbf4-da7773914298","ios":"levelo://app?vid=38c2f953-6978-4799-bbf4-da7773914298"},"vehicle_type_id":"4","last_reported":1716916007,"current_range_meters":8800,"station_id":"ce4bhr12rcd13ifvqhpg","pricing_plan_id":"cebpf4jnsgd1na2vs0mg"},{"bike_id":"4631d6bd-ae7e-4e3a-9bd7-c22f4d8c6ef1","system_id":"levelo_inurba_marseille","lat":43.319935,"lon":5.381699,"is_reserved":false,"is_disabled":false,"rental_uris":{"android":"levelo://app?vid=4631d6bd-ae7e-4e3a-9bd7-c22f4d8c6ef1","ios":"levelo://app?vid=4631d6bd-ae7e-4e3a-9bd7-c22f4d8c6ef1"},"vehicle_type_id":"4","last_reported":1716916007,"current_range_meters":22800,"station_id":"ce4bhr12rcd13ifvqhpg","pricing_plan_id":"cebpf4jnsgd1na2vs0mg"},{"bike_id":"a0f10c11-8d4d-47f5-a8c5-8a23d2546a52","system_id":"levelo_inurba_marseille","lat":43.319935,"lon":5.381699,"is_reserved":false,"is_disabled":false,"rental_uris":{"android":"levelo://app?vid=a0f10c11-8d4d-47f5-a8c5-8a23d2546a52","ios":"levelo://app?vid=a0f10c11-8d4d-47f5-a8c5-8a23d2546a52"},"vehicle_type_id":"4","last_reported":1716916007,"current_range_meters":19200,"station_id":"ce4bhr12rcd13ifvqhpg","pricing_plan_id":"cebpf4jnsgd1na2vs0mg"},{"bike_id":"7adf1cf0-6951-41e8-83d0-662a54e069ed","system_id":"levelo_inurba_marseille","lat":43.319935,"lon":5.381699,"is_reserved":false,"is_disabled":false,"rental_uris":{"android":"levelo://app?vid=7adf1cf0-6951-41e8-83d0-662a54e069ed","ios":"levelo://app?vid=7adf1cf0-6951-41e8-83d0-662a54e069ed"},"vehicle_type_id":"4","last_reported":1716916007,"current_range_meters":14400,"station_id":"ce4bhr12rcd13ifvqhpg","pricing_plan_id":"cebpf4jnsgd1na2vs0mg"},{"bike_id":"738be29b-2003-41a1-83b0-7c3eda8ea3d2","system_id":"levelo_inurba_marseille","lat":43.31999,"lon":5.38152,"is_reserved":false,"is_disabled":false,"rental_uris":{"android":"levelo://app?vid=738be29b-2003-41a1-83b0-7c3eda8ea3d2","ios":"levelo://app?vid=738be29b-2003-41a1-83b0-7c3eda8ea3d2"},"vehicle_type_id":"4","last_reported":1716916007,"current_range_meters":31200,"station_id":"ce4bhr12rcd13ifvqhpg","pricing_plan_id":"cebpf4jnsgd1na2vs0mg"},{"bike_id":"42033e79-325b-48ab-9997-6b1894f08aeb","system_id":"levelo_inurba_marseille","lat":43.32004,"lon":5.38149,"is_reserved":false,"is_disabled":false,"rental_uris":{"android":"levelo://app?vid=42033e79-325b-48ab-9997-6b1894f08aeb","ios":"levelo://app?vid=42033e79-325b-48ab-9997-6b1894f08aeb"},"vehicle_type_id":"4","last_reported":1716916007,"current_range_meters":31200,"station_id":"ce4bhr12rcd13ifvqhpg","pricing_plan_id":"cebpf4jnsgd1na2vs0mg"},{"bike_id":"999f3e0e-95ea-4ca9-a643-d23cebd923ba","system_id":"levelo_inurba_marseille","lat":43.319935,"lon":5.381699,"is_reserved":false,"is_disabled":false,"rental_uris":{"android":"levelo://app?vid=999f3e0e-95ea-4ca9-a643-d23cebd923ba","ios":"levelo://app?vid=999f3e0e-95ea-4ca9-a643-d23cebd923ba"},"vehicle_type_id":"4","last_reported":1716916007,"current_range_meters":0,"station_id":"ce4bhr12rcd13ifvqhpg","pricing_plan_id":"cebpf4jnsgd1na2vs0mg"},{"bike_id":"c27c39e6-8c5c-4694-9cee-756f01ac9b16","system_id":"levelo_inurba_marseille","lat":43.319935,"lon":5.381699,"is_reserved":false,"is_disabled":false,"rental_uris":{"android":"levelo://app?vid=c27c39e6-8c5c-4694-9cee-756f01ac9b16","ios":"levelo://app?vid=c27c39e6-8c5c-4694-9cee-756f01ac9b16"},"vehicle_type_id":"4","last_reported":1716916007,"current_range_meters":11600,"station_id":"ce4bhr12rcd13ifvqhpg","pricing_plan_id":"cebpf4jnsgd1na2vs0mg"},{"bike_id":"1082ef8a-81f3-46e6-b98d-c3645feb9494","system_id":"levelo_inurba_marseille","lat":43.315289,"lon":5.380349,"is_reserved":false,"is_disabled":false,"rental_uris":{"android":"levelo://app?vid=1082ef8a-81f3-46e6-b98d-c3645feb9494","ios":"levelo://app?vid=1082ef8a-81f3-46e6-b98d-c3645feb9494"},"vehicle_type_id":"4","last_reported":1716916007,"current_range_meters":8000,"station_id":"ce4bhsp2rcd13ifvqi50","pricing_plan_id":"cebpf4jnsgd1na2vs0mg"},{"bike_id":"4d4ecc54-3b7d-432d-877d-96ab432e8fe5","system_id":"levelo_inurba_marseille","lat":43.313571,"lon":5.384829,"is_reserved":false,"is_disabled":false,"rental_uris":{"android":"levelo://app?vid=4d4ecc54-3b7d-432d-877d-96ab432e8fe5","ios":"levelo://app?vid=4d4ecc54-3b7d-432d-877d-96ab432e8fe5"},"vehicle_type_id":"4","last_reported":1716916007,"current_range_meters":21600,"station_id":"ce4bgt92rcd13ifvqcf0","pricing_plan_id":"cebpf4jnsgd1na2vs0mg"},{"bike_id":"7c0279c4-785e-41cc-9875-11b1aa5697b0","system_id":"levelo_inurba_marseille","lat":43.298433,"lon":5.362774,"is_reserved":false,"is_disabled":false,"rental_uris":{"android":"levelo://app?vid=7c0279c4-785e-41cc-9875-11b1aa5697b0","ios":"levelo://app?vid=7c0279c4-785e-41cc-9875-11b1aa5697b0"},"vehicle_type_id":"4","last_reported":1716916007,"current_range_meters":30400,"station_id":"ce4bgpp2rcd13ifvqc3g","pricing_plan_id":"cebpf4jnsgd1na2vs0mg"},{"bike_id":"10fb4334-c940-4455-979b-d3f1ca32e262","system_id":"levelo_inurba_marseille","lat":43.297774,"lon":5.370875,"is_reserved":false,"is_disabled":false,"rental_uris":{"android":"levelo://app?vid=10fb4334-c940-4455-979b-d3f1ca32e262","ios":"levelo://app?vid=10fb4334-c940-4455-979b-d3f1ca32e262"},"vehicle_type_id":"4","last_reported":1716916007,"current_range_meters":29200,"station_id":"ce4bgop2rcd13ifvqc1g","pricing_plan_id":"cebpf4jnsgd1na2vs0mg"},{"bike_id":"ea0aa6cd-74f3-4053-a212-05642e95cd9c","system_id":"levelo_inurba_marseille","lat":43.322885,"lon":5.382584,"is_reserved":false,"is_disabled":false,"rental_uris":{"android":"levelo://app?vid=ea0aa6cd-74f3-4053-a212-05642e95cd9c","ios":"levelo://app?vid=ea0aa6cd-74f3-4053-a212-05642e95cd9c"},"vehicle_type_id":"4","last_reported":1716916007,"current_range_meters":31200,"station_id":"ce4bhr12rcd13ifvqhqg","pricing_plan_id":"cebpf4jnsgd1na2vs0mg"},{"bike_id":"31e0cc16-ef5c-4d66-8efd-339b1daec56c","system_id":"levelo_inurba_marseille","lat":43.322866,"lon":5.382704,"is_reserved":false,"is_disabled":false,"rental_uris":{"android":"levelo://app?vid=31e0cc16-ef5c-4d66-8efd-339b1daec56c","ios":"levelo://app?vid=31e0cc16-ef5c-4d66-8efd-339b1daec56c"},"vehicle_type_id":"4","last_reported":1716916007,"current_range_meters":4400,"station_id":"ce4bhr12rcd13ifvqhqg","pricing_plan_id":"cebpf4jnsgd1na2vs0mg"},{"bike_id":"eb36f279-e269-4809-8ae0-a388eefeb02f","system_id":"levelo_inurba_marseille","lat":43.322907,"lon":5.382659,"is_reserved":false,"is_disabled":false,"rental_uris":{"android":"levelo://app?vid=eb36f279-e269-4809-8ae0-a388eefeb02f","ios":"levelo://app?vid=eb36f279-e269-4809-8ae0-a388eefeb02f"},"vehicle_type_id":"4","last_reported":1716916007,"current_range_meters":29600,"station_id":"ce4bhr12rcd13ifvqhqg","pricing_plan_id":"cebpf4jnsgd1na2vs0mg"},{"bike_id":"a2ed0a57-945a-416c-a663-39d9b3420c3e","system_id":"levelo_inurba_marseille","lat":43.322872,"lon":5.382756,"is_reserved":false,"is_disabled":false,"rental_uris":{"android":"levelo://app?vid=a2ed0a57-945a-416c-a663-39d9b3420c3e","ios":"levelo://app?vid=a2ed0a57-945a-416c-a663-39d9b3420c3e"},"vehicle_type_id":"4","last_reported":1716916007,"current_range_meters":31600,"station_id":"ce4bhr12rcd13ifvqhqg","pricing_plan_id":"cebpf4jnsgd1na2vs0mg"},{"bike_id":"5d5aa77c-19cb-493d-b2ac-1726c057bf2c","system_id":"levelo_inurba_marseille","lat":43.322872,"lon":5.382756,"is_reserved":false,"is_disabled":false,"rental_uris":{"android":"levelo://app?vid=5d5aa77c-19cb-493d-b2ac-1726c057bf2c","ios":"levelo://app?vid=5d5aa77c-19cb-493d-b2ac-1726c057bf2c"},"vehicle_type_id":"4","last_reported":1716916007,"current_range_meters":26000,"station_id":"ce4bhr12rcd13ifvqhqg","pricing_plan_id":"cebpf4jnsgd1na2vs0mg"},{"bike_id":"2d3af686-4189-42ca-8660-8e3f1d999664","system_id":"levelo_inurba_marseille","lat":43.322872,"lon":5.382756,"is_reserved":false,"is_disabled":false,"rental_uris":{"android":"levelo://app?vid=2d3af686-4189-42ca-8660-8e3f1d999664","ios":"levelo://app?vid=2d3af686-4189-42ca-8660-8e3f1d999664"},"vehicle_type_id":"4","last_reported":1716916007,"current_range_meters":13600,"station_id":"ce4bhr12rcd13ifvqhqg","pricing_plan_id":"cebpf4jnsgd1na2vs0mg"},{"bike_id":"aeb1718d-3113-4a0b-995a-121fc40f6cc3","system_id":"levelo_inurba_marseille","lat":43.322872,"lon":5.382756,"is_reserved":false,"is_disabled":false,"rental_uris":{"android":"levelo://app?vid=aeb1718d-3113-4a0b-995a-121fc40f6cc3","ios":"levelo://app?vid=aeb1718d-3113-4a0b-995a-121fc40f6cc3"},"vehicle_type_id":"4","last_reported":1716916007,"current_range_meters":31200,"station_id":"ce4bhr12rcd13ifvqhqg","pricing_plan_id":"cebpf4jnsgd1na2vs0mg"},{"bike_id":"4cbaa206-6276-450e-bff6-fa682497465e","system_id":"levelo_inurba_marseille","lat":43.322872,"lon":5.382756,"is_reserved":false,"is_disabled":false,"rental_uris":{"android":"levelo://app?vid=4cbaa206-6276-450e-bff6-fa682497465e","ios":"levelo://app?vid=4cbaa206-6276-450e-bff6-fa682497465e"},"vehicle_type_id":"4","last_reported":1716916007,"current_range_meters":27600,"station_id":"ce4bhr12rcd13ifvqhqg","pricing_plan_id":"cebpf4jnsgd1na2vs0mg"},{"bike_id":"b9a10fb8-7cae-4077-bc53-d5615ec4cd92","system_id":"levelo_inurba_marseille","lat":43.322872,"lon":5.382756,"is_reserved":false,"is_disabled":false,"rental_uris":{"android":"levelo://app?vid=b9a10fb8-7cae-4077-bc53-d5615ec4cd92","ios":"levelo://app?vid=b9a10fb8-7cae-4077-bc53-d5615ec4cd92"},"vehicle_type_id":"4","last_reported":1716916007,"current_range_meters":24000,"station_id":"ce4bhr12rcd13ifvqhqg","pricing_plan_id":"cebpf4jnsgd1na2vs0mg"},{"bike_id":"ebe67bd4-6207-4774-aeee-7363d676b2fa","system_id":"levelo_inurba_marseille","lat":43.296131,"lon":5.370791,"is_reserved":false,"is_disabled":false,"rental_uris":{"android":"levelo://app?vid=ebe67bd4-6207-4774-aeee-7363d676b2fa","ios":"levelo://app?vid=ebe67bd4-6207-4774-aeee-7363d676b2fa"},"vehicle_type_id":"4","last_reported":1716916007,"current_range_meters":18800,"station_id":"ce4bgnh2rcd13ifvqc0g","pricing_plan_id":"cebpf4jnsgd1na2vs0mg"},{"bike_id":"07e86e3b-baa4-4012-96d5-af35e9957f27","system_id":"levelo_inurba_marseille","lat":43.296129,"lon":5.370777,"is_reserved":false,"is_disabled":false,"rental_uris":{"android":"levelo://app?vid=07e86e3b-baa4-4012-96d5-af35e9957f27","ios":"levelo://app?vid=07e86e3b-baa4-4012-96d5-af35e9957f27"},"vehicle_type_id":"4","last_reported":1716916007,"current_range_meters":4400,"station_id":"ce4bgnh2rcd13ifvqc0g","pricing_plan_id":"cebpf4jnsgd1na2vs0mg"},{"bike_id":"c9ac365b-280e-4ce8-a42c-8b9c7cc1af05","system_id":"levelo_inurba_marseille","lat":43.29573,"lon":5.367355,"is_reserved":false,"is_disabled":false,"rental_uris":{"android":"levelo://app?vid=c9ac365b-280e-4ce8-a42c-8b9c7cc1af05","ios":"levelo://app?vid=c9ac365b-280e-4ce8-a42c-8b9c7cc1af05"},"vehicle_type_id":"4","last_reported":1716916007,"current_range_meters":23200,"station_id":"ce4bgph2rcd13ifvqc2g","pricing_plan_id":"cebpf4jnsgd1na2vs0mg"},{"bike_id":"952ac02c-1a75-439d-8367-2e8af8262ca3","system_id":"levelo_inurba_marseille","lat":43.29573,"lon":5.367355,"is_reserved":false,"is_disabled":false,"rental_uris":{"android":"levelo://app?vid=952ac02c-1a75-439d-8367-2e8af8262ca3","ios":"levelo://app?vid=952ac02c-1a75-439d-8367-2e8af8262ca3"},"vehicle_type_id":"4","last_reported":1716916007,"current_range_meters":1200,"station_id":"ce4bgph2rcd13ifvqc2g","pricing_plan_id":"cebpf4jnsgd1na2vs0mg"},{"bike_id":"e838efd1-3850-4175-9a28-2d94232a5056","system_id":"levelo_inurba_marseille","lat":43.29727,"lon":5.37725,"is_reserved":false,"is_disabled":false,"rental_uris":{"android":"levelo://app?vid=e838efd1-3850-4175-9a28-2d94232a5056","ios":"levelo://app?vid=e838efd1-3850-4175-9a28-2d94232a5056"},"vehicle_type_id":"4","last_reported":1716916007,"current_range_meters":1600,"station_id":"","pricing_plan_id":"cebpf4jnsgd1na2vs0mg"},{"bike_id":"6dd7647a-1c62-4588-9b5c-bbdd37a4707c","system_id":"levelo_inurba_marseille","lat":43.2971,"lon":5.3769,"is_reserved":false,"is_disabled":false,"rental_uris":{"android":"levelo://app?vid=6dd7647a-1c62-4588-9b5c-bbdd37a4707c","ios":"levelo://app?vid=6dd7647a-1c62-4588-9b5c-bbdd37a4707c"},"vehicle_type_id":"4","last_reported":1716916007,"current_range_meters":0,"station_id":"ce4bgkh2rcd13ifvqbl0","pricing_plan_id":"cebpf4jnsgd1na2vs0mg"},{"bike_id":"4b2440e0-b0e3-4b64-9e0d-9df09ef8b42f","system_id":"levelo_inurba_marseille","lat":43.309589,"lon":5.390258,"is_reserved":false,"is_disabled":false,"rental_uris":{"android":"levelo://app?vid=4b2440e0-b0e3-4b64-9e0d-9df09ef8b42f","ios":"levelo://app?vid=4b2440e0-b0e3-4b64-9e0d-9df09ef8b42f"},"vehicle_type_id":"4","last_reported":1716916007,"current_range_meters":17200,"station_id":"ce4bgup2rcd13ifvqco0","pricing_plan_id":"cebpf4jnsgd1na2vs0mg"},{"bike_id":"79ed4a11-d690-4cd2-ba09-8a004c4fcfd5","system_id":"levelo_inurba_marseille","lat":43.31756,"lon":5.39013,"is_reserved":false,"is_disabled":false,"rental_uris":{"android":"levelo://app?vid=79ed4a11-d690-4cd2-ba09-8a004c4fcfd5","ios":"levelo://app?vid=79ed4a11-d690-4cd2-ba09-8a004c4fcfd5"},"vehicle_type_id":"4","last_reported":1716916007,"current_range_meters":2400,"station_id":"ce4bhqp2rcd13ifvqhng","pricing_plan_id":"cebpf4jnsgd1na2vs0mg"},{"bike_id":"e863afbb-19f8-4201-b251-2b7bb35539b0","system_id":"levelo_inurba_marseille","lat":43.317557,"lon":5.390173,"is_reserved":false,"is_disabled":false,"rental_uris":{"android":"levelo://app?vid=e863afbb-19f8-4201-b251-2b7bb35539b0","ios":"levelo://app?vid=e863afbb-19f8-4201-b251-2b7bb35539b0"},"vehicle_type_id":"4","last_reported":1716916007,"current_range_meters":17600,"station_id":"ce4bhqp2rcd13ifvqhng","pricing_plan_id":"cebpf4jnsgd1na2vs0mg"},{"bike_id":"299bb04e-09a0-475f-ab13-0c8f08db7405","system_id":"levelo_inurba_marseille","lat":43.317557,"lon":5.390173,"is_reserved":false,"is_disabled":false,"rental_uris":{"android":"levelo://app?vid=299bb04e-09a0-475f-ab13-0c8f08db7405","ios":"levelo://app?vid=299bb04e-09a0-475f-ab13-0c8f08db7405"},"vehicle_type_id":"4","last_reported":1716916007,"current_range_meters":14400,"station_id":"ce4bhqp2rcd13ifvqhng","pricing_plan_id":"cebpf4jnsgd1na2vs0mg"},{"bike_id":"cf4e8db7-cda4-4e0a-ae18-dc6cdc15ef28","system_id":"levelo_inurba_marseille","lat":43.317557,"lon":5.390173,"is_reserved":false,"is_disabled":false,"rental_uris":{"android":"levelo://app?vid=cf4e8db7-cda4-4e0a-ae18-dc6cdc15ef28","ios":"levelo://app?vid=cf4e8db7-cda4-4e0a-ae18-dc6cdc15ef28"},"vehicle_type_id":"4","last_reported":1716916007,"current_range_meters":21600,"station_id":"ce4bhqp2rcd13ifvqhng","pricing_plan_id":"cebpf4jnsgd1na2vs0mg"},{"bike_id":"7f5494c3-7fd1-47b4-8da4-7e8805ac8599","system_id":"levelo_inurba_marseille","lat":43.295748,"lon":5.37522,"is_reserved":false,"is_disabled":false,"rental_uris":{"android":"levelo://app?vid=7f5494c3-7fd1-47b4-8da4-7e8805ac8599","ios":"levelo://app?vid=7f5494c3-7fd1-47b4-8da4-7e8805ac8599"},"vehicle_type_id":"4","last_reported":1716916007,"current_range_meters":0,"station_id":"ce4bgh92rcd13ifvqb50","pricing_plan_id":"cebpf4jnsgd1na2vs0mg"},{"bike_id":"9a9c4d3b-0c74-4ef7-85b0-0a14cc40c57e","system_id":"levelo_inurba_marseille","lat":43.297908,"lon":5.381034,"is_reserved":false,"is_disabled":false,"rental_uris":{"android":"levelo://app?vid=9a9c4d3b-0c74-4ef7-85b0-0a14cc40c57e","ios":"levelo://app?vid=9a9c4d3b-0c74-4ef7-85b0-0a14cc40c57e"},"vehicle_type_id":"4","last_reported":1716916007,"current_range_meters":0,"station_id":"ce4bgip2rcd13ifvqbb0","pricing_plan_id":"cebpf4jnsgd1na2vs0mg"},{"bike_id":"6859eb8b-8d63-4fae-823c-053f951cb943","system_id":"levelo_inurba_marseille","lat":43.295748,"lon":5.37522,"is_reserved":false,"is_disabled":false,"rental_uris":{"android":"levelo://app?vid=6859eb8b-8d63-4fae-823c-053f951cb943","ios":"levelo://app?vid=6859eb8b-8d63-4fae-823c-053f951cb943"},"vehicle_type_id":"4","last_reported":1716916007,"current_range_meters":0,"station_id":"ce4bgh92rcd13ifvqb50","pricing_plan_id":"cebpf4jnsgd1na2vs0mg"},{"bike_id":"f8f720e3-6164-40bc-a4ad-b9b8b09459ed","system_id":"levelo_inurba_marseille","lat":43.304278,"lon":5.388868,"is_reserved":false,"is_disabled":false,"rental_uris":{"android":"levelo://app?vid=f8f720e3-6164-40bc-a4ad-b9b8b09459ed","ios":"levelo://app?vid=f8f720e3-6164-40bc-a4ad-b9b8b09459ed"},"vehicle_type_id":"4","last_reported":1716916007,"current_range_meters":7200,"station_id":"ce4bgk12rcd13ifvqbi0","pricing_plan_id":"cebpf4jnsgd1na2vs0mg"},{"bike_id":"cdcc6d55-7811-4b77-bbc0-31dc1ae52dfb","system_id":"levelo_inurba_marseille","lat":43.3043,"lon":5.38888,"is_reserved":false,"is_disabled":false,"rental_uris":{"android":"levelo://app?vid=cdcc6d55-7811-4b77-bbc0-31dc1ae52dfb","ios":"levelo://app?vid=cdcc6d55-7811-4b77-bbc0-31dc1ae52dfb"},"vehicle_type_id":"4","last_reported":1716916007,"current_range_meters":0,"station_id":"ce4bgk12rcd13ifvqbi0","pricing_plan_id":"cebpf4jnsgd1na2vs0mg"},{"bike_id":"7a2d61cd-18c0-4a9f-abcf-90ed9f8530f2","system_id":"levelo_inurba_marseille","lat":43.304274,"lon":5.388873,"is_reserved":false,"is_disabled":false,"rental_uris":{"android":"levelo://app?vid=7a2d61cd-18c0-4a9f-abcf-90ed9f8530f2","ios":"levelo://app?vid=7a2d61cd-18c0-4a9f-abcf-90ed9f8530f2"},"vehicle_type_id":"4","last_reported":1716916007,"current_range_meters":7600,"station_id":"ce4bgk12rcd13ifvqbi0","pricing_plan_id":"cebpf4jnsgd1na2vs0mg"},{"bike_id":"49c5a8be-6a7c-43e4-9fe0-e7f5b6ffb27d","system_id":"levelo_inurba_marseille","lat":43.29566,"lon":5.37524,"is_reserved":false,"is_disabled":false,"rental_uris":{"android":"levelo://app?vid=49c5a8be-6a7c-43e4-9fe0-e7f5b6ffb27d","ios":"levelo://app?vid=49c5a8be-6a7c-43e4-9fe0-e7f5b6ffb27d"},"vehicle_type_id":"4","last_reported":1716916007,"current_range_meters":7600,"station_id":"ce4bh4p2rcd13ifvqe1g","pricing_plan_id":"cebpf4jnsgd1na2vs0mg"},{"bike_id":"1c1f657b-dbdb-418b-9c93-99961c277b7e","system_id":"levelo_inurba_marseille","lat":43.304274,"lon":5.388873,"is_reserved":false,"is_disabled":false,"rental_uris":{"android":"levelo://app?vid=1c1f657b-dbdb-418b-9c93-99961c277b7e","ios":"levelo://app?vid=1c1f657b-dbdb-418b-9c93-99961c277b7e"},"vehicle_type_id":"4","last_reported":1716916007,"current_range_meters":1600,"station_id":"ce4bgk12rcd13ifvqbi0","pricing_plan_id":"cebpf4jnsgd1na2vs0mg"},{"bike_id":"7cb83763-ed95-409d-b01d-be3b3ff13bb7","system_id":"levelo_inurba_marseille","lat":43.304278,"lon":5.388868,"is_reserved":false,"is_disabled":false,"rental_uris":{"android":"levelo://app?vid=7cb83763-ed95-409d-b01d-be3b3ff13bb7","ios":"levelo://app?vid=7cb83763-ed95-409d-b01d-be3b3ff13bb7"},"vehicle_type_id":"4","last_reported":1716916007,"current_range_meters":0,"station_id":"ce4bgk12rcd13ifvqbi0","pricing_plan_id":"cebpf4jnsgd1na2vs0mg"},{"bike_id":"f92c2406-198d-42c6-9cc4-ac37d6895c2a","system_id":"levelo_inurba_marseille","lat":43.304278,"lon":5.388868,"is_reserved":false,"is_disabled":false,"rental_uris":{"android":"levelo://app?vid=f92c2406-198d-42c6-9cc4-ac37d6895c2a","ios":"levelo://app?vid=f92c2406-198d-42c6-9cc4-ac37d6895c2a"},"vehicle_type_id":"4","last_reported":1716916007,"current_range_meters":0,"station_id":"ce4bgk12rcd13ifvqbi0","pricing_plan_id":"cebpf4jnsgd1na2vs0mg"},{"bike_id":"eefe1cee-60de-4397-9522-44a2b5cde7f7","system_id":"levelo_inurba_marseille","lat":43.304278,"lon":5.388868,"is_reserved":false,"is_disabled":false,"rental_uris":{"android":"levelo://app?vid=eefe1cee-60de-4397-9522-44a2b5cde7f7","ios":"levelo://app?vid=eefe1cee-60de-4397-9522-44a2b5cde7f7"},"vehicle_type_id":"4","last_reported":1716916007,"current_range_meters":0,"station_id":"ce4bgk12rcd13ifvqbi0","pricing_plan_id":"cebpf4jnsgd1na2vs0mg"},{"bike_id":"5455e9e7-e748-4e0f-aa5a-14c3ca4e2018","system_id":"levelo_inurba_marseille","lat":43.304274,"lon":5.388873,"is_reserved":false,"is_disabled":false,"rental_uris":{"android":"levelo://app?vid=5455e9e7-e748-4e0f-aa5a-14c3ca4e2018","ios":"levelo://app?vid=5455e9e7-e748-4e0f-aa5a-14c3ca4e2018"},"vehicle_type_id":"4","last_reported":1716916007,"current_range_meters":12000,"station_id":"ce4bgk12rcd13ifvqbi0","pricing_plan_id":"cebpf4jnsgd1na2vs0mg"},{"bike_id":"5b4445cb-d13f-4049-a695-a7bd3616b120","system_id":"levelo_inurba_marseille","lat":43.295279,"lon":5.375048,"is_reserved":false,"is_disabled":false,"rental_uris":{"android":"levelo://app?vid=5b4445cb-d13f-4049-a695-a7bd3616b120","ios":"levelo://app?vid=5b4445cb-d13f-4049-a695-a7bd3616b120"},"vehicle_type_id":"4","last_reported":1716916007,"current_range_meters":27200,"station_id":"ce4bgkp2rcd13ifvqbmg","pricing_plan_id":"cebpf4jnsgd1na2vs0mg"},{"bike_id":"f9d2928d-0445-4a1c-9ff1-7662b25d87a1","system_id":"levelo_inurba_marseille","lat":43.29979,"lon":5.3849,"is_reserved":false,"is_disabled":false,"rental_uris":{"android":"levelo://app?vid=f9d2928d-0445-4a1c-9ff1-7662b25d87a1","ios":"levelo://app?vid=f9d2928d-0445-4a1c-9ff1-7662b25d87a1"},"vehicle_type_id":"4","last_reported":1716916007,"current_range_meters":0,"station_id":"ce4bgj92rcd13ifvqbd0","pricing_plan_id":"cebpf4jnsgd1na2vs0mg"},{"bike_id":"c7cc37e7-5776-4991-87a2-e715fc18d46e","system_id":"levelo_inurba_marseille","lat":43.295279,"lon":5.375048,"is_reserved":false,"is_disabled":false,"rental_uris":{"android":"levelo://app?vid=c7cc37e7-5776-4991-87a2-e715fc18d46e","ios":"levelo://app?vid=c7cc37e7-5776-4991-87a2-e715fc18d46e"},"vehicle_type_id":"4","last_reported":1716916007,"current_range_meters":20800,"station_id":"ce4bgkp2rcd13ifvqbmg","pricing_plan_id":"cebpf4jnsgd1na2vs0mg"},{"bike_id":"9f16b329-ff62-4659-b15a-50e53ce03f2e","system_id":"levelo_inurba_marseille","lat":43.298037,"lon":5.381066,"is_reserved":false,"is_disabled":false,"rental_uris":{"android":"levelo://app?vid=9f16b329-ff62-4659-b15a-50e53ce03f2e","ios":"levelo://app?vid=9f16b329-ff62-4659-b15a-50e53ce03f2e"},"vehicle_type_id":"4","last_reported":1716916007,"current_range_meters":0,"station_id":"ce4bgip2rcd13ifvqbb0","pricing_plan_id":"cebpf4jnsgd1na2vs0mg"},{"bike_id":"c73e1d83-7487-44c1-b1c2-16b3a361b279","system_id":"levelo_inurba_marseille","lat":43.29505,"lon":5.37512,"is_reserved":false,"is_disabled":false,"rental_uris":{"android":"levelo://app?vid=c73e1d83-7487-44c1-b1c2-16b3a361b279","ios":"levelo://app?vid=c73e1d83-7487-44c1-b1c2-16b3a361b279"},"vehicle_type_id":"4","last_reported":1716916007,"current_range_meters":13200,"station_id":"ce4bgkp2rcd13ifvqbmg","pricing_plan_id":"cebpf4jnsgd1na2vs0mg"},{"bike_id":"86adcf96-6a1c-454b-bbd5-122bd158fe14","system_id":"levelo_inurba_marseille","lat":43.292311,"lon":5.360731,"is_reserved":false,"is_disabled":false,"rental_uris":{"android":"levelo://app?vid=86adcf96-6a1c-454b-bbd5-122bd158fe14","ios":"levelo://app?vid=86adcf96-6a1c-454b-bbd5-122bd158fe14"},"vehicle_type_id":"4","last_reported":1716916007,"current_range_meters":15200,"station_id":"ce4bhbh2rcd13ifvqeqg","pricing_plan_id":"cebpf4jnsgd1na2vs0mg"},{"bike_id":"62c5caa7-901a-4627-8ca5-7e0d2a24df16","system_id":"levelo_inurba_marseille","lat":43.32367,"lon":5.388836,"is_reserved":false,"is_disabled":false,"rental_uris":{"android":"levelo://app?vid=62c5caa7-901a-4627-8ca5-7e0d2a24df16","ios":"levelo://app?vid=62c5caa7-901a-4627-8ca5-7e0d2a24df16"},"vehicle_type_id":"4","last_reported":1716916007,"current_range_meters":8000,"station_id":"ce4bhqp2rcd13ifvqhog","pricing_plan_id":"cebpf4jnsgd1na2vs0mg"},{"bike_id":"39869f8b-907e-4e7a-8cf7-9c2a6b79cebf","system_id":"levelo_inurba_marseille","lat":43.32365,"lon":5.3888,"is_reserved":false,"is_disabled":false,"rental_uris":{"android":"levelo://app?vid=39869f8b-907e-4e7a-8cf7-9c2a6b79cebf","ios":"levelo://app?vid=39869f8b-907e-4e7a-8cf7-9c2a6b79cebf"},"vehicle_type_id":"4","last_reported":1716916007,"current_range_meters":0,"station_id":"ce4bhqp2rcd13ifvqhog","pricing_plan_id":"cebpf4jnsgd1na2vs0mg"},{"bike_id":"ed557266-beb5-40ce-93dc-aa7ff797a3e8","system_id":"levelo_inurba_marseille","lat":43.323639,"lon":5.38887,"is_reserved":false,"is_disabled":false,"rental_uris":{"android":"levelo://app?vid=ed557266-beb5-40ce-93dc-aa7ff797a3e8","ios":"levelo://app?vid=ed557266-beb5-40ce-93dc-aa7ff797a3e8"},"vehicle_type_id":"4","last_reported":1716916007,"current_range_meters":17200,"station_id":"ce4bhqp2rcd13ifvqhog","pricing_plan_id":"cebpf4jnsgd1na2vs0mg"},{"bike_id":"0e29490c-12db-469f-8624-a11e768cd968","system_id":"levelo_inurba_marseille","lat":43.32367,"lon":5.388836,"is_reserved":false,"is_disabled":false,"rental_uris":{"android":"levelo://app?vid=0e29490c-12db-469f-8624-a11e768cd968","ios":"levelo://app?vid=0e29490c-12db-469f-8624-a11e768cd968"},"vehicle_type_id":"4","last_reported":1716916007,"current_range_meters":8000,"station_id":"ce4bhqp2rcd13ifvqhog","pricing_plan_id":"cebpf4jnsgd1na2vs0mg"},{"bike_id":"2657bc71-fc6a-4494-86f9-4920c8fef9a6","system_id":"levelo_inurba_marseille","lat":43.32367,"lon":5.388836,"is_reserved":false,"is_disabled":false,"rental_uris":{"android":"levelo://app?vid=2657bc71-fc6a-4494-86f9-4920c8fef9a6","ios":"levelo://app?vid=2657bc71-fc6a-4494-86f9-4920c8fef9a6"},"vehicle_type_id":"4","last_reported":1716916007,"current_range_meters":26400,"station_id":"ce4bhqp2rcd13ifvqhog","pricing_plan_id":"cebpf4jnsgd1na2vs0mg"},{"bike_id":"0a5495a5-3ef5-4689-a71b-67b490980c05","system_id":"levelo_inurba_marseille","lat":43.32367,"lon":5.388836,"is_reserved":false,"is_disabled":false,"rental_uris":{"android":"levelo://app?vid=0a5495a5-3ef5-4689-a71b-67b490980c05","ios":"levelo://app?vid=0a5495a5-3ef5-4689-a71b-67b490980c05"},"vehicle_type_id":"4","last_reported":1716916007,"current_range_meters":14000,"station_id":"ce4bhqp2rcd13ifvqhog","pricing_plan_id":"cebpf4jnsgd1na2vs0mg"},{"bike_id":"746a5220-8b9a-4f20-8227-0e2e1b766740","system_id":"levelo_inurba_marseille","lat":43.32367,"lon":5.388836,"is_reserved":false,"is_disabled":false,"rental_uris":{"android":"levelo://app?vid=746a5220-8b9a-4f20-8227-0e2e1b766740","ios":"levelo://app?vid=746a5220-8b9a-4f20-8227-0e2e1b766740"},"vehicle_type_id":"4","last_reported":1716916007,"current_range_meters":18400,"station_id":"ce4bhqp2rcd13ifvqhog","pricing_plan_id":"cebpf4jnsgd1na2vs0mg"},{"bike_id":"e079e0f0-79b1-4cd6-966f-a47496c906dd","system_id":"levelo_inurba_marseille","lat":43.323672,"lon":5.388903,"is_reserved":false,"is_disabled":false,"rental_uris":{"android":"levelo://app?vid=e079e0f0-79b1-4cd6-966f-a47496c906dd","ios":"levelo://app?vid=e079e0f0-79b1-4cd6-966f-a47496c906dd"},"vehicle_type_id":"4","last_reported":1716916007,"current_range_meters":8000,"station_id":"ce4bhqp2rcd13ifvqhog","pricing_plan_id":"cebpf4jnsgd1na2vs0mg"},{"bike_id":"1bea15a2-7bb3-4e2f-b913-1580fd403929","system_id":"levelo_inurba_marseille","lat":43.306177,"lon":5.392001,"is_reserved":false,"is_disabled":false,"rental_uris":{"android":"levelo://app?vid=1bea15a2-7bb3-4e2f-b913-1580fd403929","ios":"levelo://app?vid=1bea15a2-7bb3-4e2f-b913-1580fd403929"},"vehicle_type_id":"4","last_reported":1716916007,"current_range_meters":0,"station_id":"ce4bh9p2rcd13ifvqec0","pricing_plan_id":"cebpf4jnsgd1na2vs0mg"},{"bike_id":"b89360c7-9843-4e5e-91f5-3bf19227b2de","system_id":"levelo_inurba_marseille","lat":43.29308,"lon":5.37182,"is_reserved":false,"is_disabled":false,"rental_uris":{"android":"levelo://app?vid=b89360c7-9843-4e5e-91f5-3bf19227b2de","ios":"levelo://app?vid=b89360c7-9843-4e5e-91f5-3bf19227b2de"},"vehicle_type_id":"4","last_reported":1716916007,"current_range_meters":6800,"station_id":"ce4bgh92rcd13ifvqb40","pricing_plan_id":"cebpf4jnsgd1na2vs0mg"},{"bike_id":"8ab31d46-e274-4fcf-afdc-f1a22d48743c","system_id":"levelo_inurba_marseille","lat":43.29307,"lon":5.37175,"is_reserved":false,"is_disabled":false,"rental_uris":{"android":"levelo://app?vid=8ab31d46-e274-4fcf-afdc-f1a22d48743c","ios":"levelo://app?vid=8ab31d46-e274-4fcf-afdc-f1a22d48743c"},"vehicle_type_id":"4","last_reported":1716916007,"current_range_meters":5200,"station_id":"ce4bgh92rcd13ifvqb40","pricing_plan_id":"cebpf4jnsgd1na2vs0mg"},{"bike_id":"0466a75f-7340-47e9-aaea-891cd4928447","system_id":"levelo_inurba_marseille","lat":43.293259,"lon":5.371586,"is_reserved":false,"is_disabled":false,"rental_uris":{"android":"levelo://app?vid=0466a75f-7340-47e9-aaea-891cd4928447","ios":"levelo://app?vid=0466a75f-7340-47e9-aaea-891cd4928447"},"vehicle_type_id":"4","last_reported":1716916007,"current_range_meters":800,"station_id":"ce4bgh92rcd13ifvqb40","pricing_plan_id":"cebpf4jnsgd1na2vs0mg"},{"bike_id":"c970118d-99f4-4ac8-a847-de81a2029cc8","system_id":"levelo_inurba_marseille","lat":43.292749,"lon":5.368402,"is_reserved":false,"is_disabled":false,"rental_uris":{"android":"levelo://app?vid=c970118d-99f4-4ac8-a847-de81a2029cc8","ios":"levelo://app?vid=c970118d-99f4-4ac8-a847-de81a2029cc8"},"vehicle_type_id":"4","last_reported":1716916007,"current_range_meters":12000,"station_id":"ce4bhbp2rcd13ifvqesg","pricing_plan_id":"cebpf4jnsgd1na2vs0mg"},{"bike_id":"cd5e7639-edd9-4abd-ad3b-b49b83364fc0","system_id":"levelo_inurba_marseille","lat":43.292749,"lon":5.368402,"is_reserved":false,"is_disabled":false,"rental_uris":{"android":"levelo://app?vid=cd5e7639-edd9-4abd-ad3b-b49b83364fc0","ios":"levelo://app?vid=cd5e7639-edd9-4abd-ad3b-b49b83364fc0"},"vehicle_type_id":"4","last_reported":1716916007,"current_range_meters":21600,"station_id":"ce4bhbp2rcd13ifvqesg","pricing_plan_id":"cebpf4jnsgd1na2vs0mg"},{"bike_id":"0df9f13f-082a-45d2-b9b1-8e24d324d061","system_id":"levelo_inurba_marseille","lat":43.292749,"lon":5.368402,"is_reserved":false,"is_disabled":false,"rental_uris":{"android":"levelo://app?vid=0df9f13f-082a-45d2-b9b1-8e24d324d061","ios":"levelo://app?vid=0df9f13f-082a-45d2-b9b1-8e24d324d061"},"vehicle_type_id":"4","last_reported":1716916007,"current_range_meters":14000,"station_id":"ce4bhbp2rcd13ifvqesg","pricing_plan_id":"cebpf4jnsgd1na2vs0mg"},{"bike_id":"cff8b8da-703b-49d1-b86a-d5b0bd36b789","system_id":"levelo_inurba_marseille","lat":43.292749,"lon":5.368402,"is_reserved":false,"is_disabled":false,"rental_uris":{"android":"levelo://app?vid=cff8b8da-703b-49d1-b86a-d5b0bd36b789","ios":"levelo://app?vid=cff8b8da-703b-49d1-b86a-d5b0bd36b789"},"vehicle_type_id":"4","last_reported":1716916007,"current_range_meters":5200,"station_id":"ce4bhbp2rcd13ifvqesg","pricing_plan_id":"cebpf4jnsgd1na2vs0mg"},{"bike_id":"6c7c7a7e-b020-4a01-af4c-c08f6ab4b4cd","system_id":"levelo_inurba_marseille","lat":43.293249,"lon":5.371578,"is_reserved":false,"is_disabled":false,"rental_uris":{"android":"levelo://app?vid=6c7c7a7e-b020-4a01-af4c-c08f6ab4b4cd","ios":"levelo://app?vid=6c7c7a7e-b020-4a01-af4c-c08f6ab4b4cd"},"vehicle_type_id":"4","last_reported":1716916007,"current_range_meters":14800,"station_id":"ce4bgh92rcd13ifvqb40","pricing_plan_id":"cebpf4jnsgd1na2vs0mg"},{"bike_id":"5dbf3720-e33d-48df-9aaf-01e2b9a27707","system_id":"levelo_inurba_marseille","lat":43.292749,"lon":5.368402,"is_reserved":false,"is_disabled":false,"rental_uris":{"android":"levelo://app?vid=5dbf3720-e33d-48df-9aaf-01e2b9a27707","ios":"levelo://app?vid=5dbf3720-e33d-48df-9aaf-01e2b9a27707"},"vehicle_type_id":"4","last_reported":1716916007,"current_range_meters":8400,"station_id":"ce4bhbp2rcd13ifvqesg","pricing_plan_id":"cebpf4jnsgd1na2vs0mg"},{"bike_id":"b711a9f2-076e-4706-9835-c291229ae542","system_id":"levelo_inurba_marseille","lat":43.292628,"lon":5.367457,"is_reserved":false,"is_disabled":false,"rental_uris":{"android":"levelo://app?vid=b711a9f2-076e-4706-9835-c291229ae542","ios":"levelo://app?vid=b711a9f2-076e-4706-9835-c291229ae542"},"vehicle_type_id":"4","last_reported":1716916007,"current_range_meters":0,"station_id":"ce4bhb92rcd13ifvqen0","pricing_plan_id":"cebpf4jnsgd1na2vs0mg"},{"bike_id":"a0011cd9-e64c-4c01-b45d-ae06330a52d9","system_id":"levelo_inurba_marseille","lat":43.29302,"lon":5.37473,"is_reserved":false,"is_disabled":false,"rental_uris":{"android":"levelo://app?vid=a0011cd9-e64c-4c01-b45d-ae06330a52d9","ios":"levelo://app?vid=a0011cd9-e64c-4c01-b45d-ae06330a52d9"},"vehicle_type_id":"4","last_reported":1716916007,"current_range_meters":21600,"station_id":"ce4bgi12rcd13ifvqb70","pricing_plan_id":"cebpf4jnsgd1na2vs0mg"},{"bike_id":"5dd952d1-f084-4fb8-a6b8-7bf02ab17e7c","system_id":"levelo_inurba_marseille","lat":43.305994,"lon":5.393687,"is_reserved":false,"is_disabled":false,"rental_uris":{"android":"levelo://app?vid=5dd952d1-f084-4fb8-a6b8-7bf02ab17e7c","ios":"levelo://app?vid=5dd952d1-f084-4fb8-a6b8-7bf02ab17e7c"},"vehicle_type_id":"4","last_reported":1716916007,"current_range_meters":28800,"station_id":"ce4bh0p2rcd13ifvqd80","pricing_plan_id":"cebpf4jnsgd1na2vs0mg"},{"bike_id":"9b99695c-c6d7-4bd4-9d54-87af286fccbb","system_id":"levelo_inurba_marseille","lat":43.305994,"lon":5.393687,"is_reserved":false,"is_disabled":false,"rental_uris":{"android":"levelo://app?vid=9b99695c-c6d7-4bd4-9d54-87af286fccbb","ios":"levelo://app?vid=9b99695c-c6d7-4bd4-9d54-87af286fccbb"},"vehicle_type_id":"4","last_reported":1716916007,"current_range_meters":26400,"station_id":"ce4bh0p2rcd13ifvqd80","pricing_plan_id":"cebpf4jnsgd1na2vs0mg"},{"bike_id":"4b89ee11-d76e-4390-8230-0166aa45c2bf","system_id":"levelo_inurba_marseille","lat":43.29294,"lon":5.37465,"is_reserved":false,"is_disabled":false,"rental_uris":{"android":"levelo://app?vid=4b89ee11-d76e-4390-8230-0166aa45c2bf","ios":"levelo://app?vid=4b89ee11-d76e-4390-8230-0166aa45c2bf"},"vehicle_type_id":"4","last_reported":1716916007,"current_range_meters":30400,"station_id":"ce4bgi12rcd13ifvqb70","pricing_plan_id":"cebpf4jnsgd1na2vs0mg"},{"bike_id":"be6493bd-b84b-4b5d-bb03-d513358d4a1d","system_id":"levelo_inurba_marseille","lat":43.293009,"lon":5.374584,"is_reserved":false,"is_disabled":false,"rental_uris":{"android":"levelo://app?vid=be6493bd-b84b-4b5d-bb03-d513358d4a1d","ios":"levelo://app?vid=be6493bd-b84b-4b5d-bb03-d513358d4a1d"},"vehicle_type_id":"4","last_reported":1716916007,"current_range_meters":22400,"station_id":"ce4bgi12rcd13ifvqb70","pricing_plan_id":"cebpf4jnsgd1na2vs0mg"},{"bike_id":"e48408b0-4363-43b7-9edb-4a9b94f76d2f","system_id":"levelo_inurba_marseille","lat":43.29288,"lon":5.37465,"is_reserved":false,"is_disabled":false,"rental_uris":{"android":"levelo://app?vid=e48408b0-4363-43b7-9edb-4a9b94f76d2f","ios":"levelo://app?vid=e48408b0-4363-43b7-9edb-4a9b94f76d2f"},"vehicle_type_id":"4","last_reported":1716916007,"current_range_meters":25200,"station_id":"ce4bgi12rcd13ifvqb70","pricing_plan_id":"cebpf4jnsgd1na2vs0mg"},{"bike_id":"6f331d3d-b895-49e3-9f09-97446fc26cc5","system_id":"levelo_inurba_marseille","lat":43.302992,"lon":5.392136,"is_reserved":false,"is_disabled":false,"rental_uris":{"android":"levelo://app?vid=6f331d3d-b895-49e3-9f09-97446fc26cc5","ios":"levelo://app?vid=6f331d3d-b895-49e3-9f09-97446fc26cc5"},"vehicle_type_id":"4","last_reported":1716916007,"current_range_meters":0,"station_id":"ce4bgkh2rcd13ifvqbk0","pricing_plan_id":"cebpf4jnsgd1na2vs0mg"},{"bike_id":"421b688d-b3ff-46f5-a489-a3078e8f9ce6","system_id":"levelo_inurba_marseille","lat":43.302992,"lon":5.392136,"is_reserved":false,"is_disabled":false,"rental_uris":{"android":"levelo://app?vid=421b688d-b3ff-46f5-a489-a3078e8f9ce6","ios":"levelo://app?vid=421b688d-b3ff-46f5-a489-a3078e8f9ce6"},"vehicle_type_id":"4","last_reported":1716916007,"current_range_meters":16400,"station_id":"ce4bgkh2rcd13ifvqbk0","pricing_plan_id":"cebpf4jnsgd1na2vs0mg"},{"bike_id":"6c4d8d48-fb7b-4596-bac2-527061516fb2","system_id":"levelo_inurba_marseille","lat":43.2936,"lon":5.37835,"is_reserved":false,"is_disabled":false,"rental_uris":{"android":"levelo://app?vid=6c4d8d48-fb7b-4596-bac2-527061516fb2","ios":"levelo://app?vid=6c4d8d48-fb7b-4596-bac2-527061516fb2"},"vehicle_type_id":"4","last_reported":1716916007,"current_range_meters":13200,"station_id":"ce4bgjh2rcd13ifvqbf0","pricing_plan_id":"cebpf4jnsgd1na2vs0mg"},{"bike_id":"fd33b531-4650-4522-80ab-f24d8ca87774","system_id":"levelo_inurba_marseille","lat":43.30073,"lon":5.39036,"is_reserved":false,"is_disabled":false,"rental_uris":{"android":"levelo://app?vid=fd33b531-4650-4522-80ab-f24d8ca87774","ios":"levelo://app?vid=fd33b531-4650-4522-80ab-f24d8ca87774"},"vehicle_type_id":"4","last_reported":1716916007,"current_range_meters":0,"station_id":"ce4bh692rcd13ifvqe90","pricing_plan_id":"cebpf4jnsgd1na2vs0mg"},{"bike_id":"b5324254-7a7c-42af-b8b1-e2d1cb4c0dd7","system_id":"levelo_inurba_marseille","lat":43.292311,"lon":5.360731,"is_reserved":false,"is_disabled":false,"rental_uris":{"android":"levelo://app?vid=b5324254-7a7c-42af-b8b1-e2d1cb4c0dd7","ios":"levelo://app?vid=b5324254-7a7c-42af-b8b1-e2d1cb4c0dd7"},"vehicle_type_id":"4","last_reported":1716916007,"current_range_meters":17600,"station_id":"ce4bhbh2rcd13ifvqeqg","pricing_plan_id":"cebpf4jnsgd1na2vs0mg"},{"bike_id":"fe088c65-bf0a-4101-86c1-9d8d3aff941a","system_id":"levelo_inurba_marseille","lat":43.292311,"lon":5.360731,"is_reserved":false,"is_disabled":false,"rental_uris":{"android":"levelo://app?vid=fe088c65-bf0a-4101-86c1-9d8d3aff941a","ios":"levelo://app?vid=fe088c65-bf0a-4101-86c1-9d8d3aff941a"},"vehicle_type_id":"4","last_reported":1716916007,"current_range_meters":18800,"station_id":"ce4bhbh2rcd13ifvqeqg","pricing_plan_id":"cebpf4jnsgd1na2vs0mg"},{"bike_id":"9c07add0-087b-4971-9258-686ed14383e7","system_id":"levelo_inurba_marseille","lat":43.30085,"lon":5.390856,"is_reserved":false,"is_disabled":false,"rental_uris":{"android":"levelo://app?vid=9c07add0-087b-4971-9258-686ed14383e7","ios":"levelo://app?vid=9c07add0-087b-4971-9258-686ed14383e7"},"vehicle_type_id":"4","last_reported":1716916007,"current_range_meters":1600,"station_id":"ce4bh192rcd13ifvqdb0","pricing_plan_id":"cebpf4jnsgd1na2vs0mg"},{"bike_id":"a0650cca-4d7a-4719-9b16-34a7b9fb11f7","system_id":"levelo_inurba_marseille","lat":43.292311,"lon":5.360731,"is_reserved":false,"is_disabled":false,"rental_uris":{"android":"levelo://app?vid=a0650cca-4d7a-4719-9b16-34a7b9fb11f7","ios":"levelo://app?vid=a0650cca-4d7a-4719-9b16-34a7b9fb11f7"},"vehicle_type_id":"4","last_reported":1716916007,"current_range_meters":26400,"station_id":"ce4bhbh2rcd13ifvqeqg","pricing_plan_id":"cebpf4jnsgd1na2vs0mg"},{"bike_id":"ffe2e29c-20c3-4168-b845-809045d2c76c","system_id":"levelo_inurba_marseille","lat":43.292311,"lon":5.360731,"is_reserved":false,"is_disabled":false,"rental_uris":{"android":"levelo://app?vid=ffe2e29c-20c3-4168-b845-809045d2c76c","ios":"levelo://app?vid=ffe2e29c-20c3-4168-b845-809045d2c76c"},"vehicle_type_id":"4","last_reported":1716916007,"current_range_meters":6800,"station_id":"ce4bhbh2rcd13ifvqeqg","pricing_plan_id":"cebpf4jnsgd1na2vs0mg"},{"bike_id":"01b5d49b-a89d-49da-b1d0-3472c5809186","system_id":"levelo_inurba_marseille","lat":43.29226,"lon":5.36059,"is_reserved":false,"is_disabled":false,"rental_uris":{"android":"levelo://app?vid=01b5d49b-a89d-49da-b1d0-3472c5809186","ios":"levelo://app?vid=01b5d49b-a89d-49da-b1d0-3472c5809186"},"vehicle_type_id":"4","last_reported":1716916007,"current_range_meters":6800,"station_id":"ce4bhbh2rcd13ifvqeqg","pricing_plan_id":"cebpf4jnsgd1na2vs0mg"},{"bike_id":"c0dcd3fd-c06a-49c5-b55f-d0d0c035e156","system_id":"levelo_inurba_marseille","lat":43.30085,"lon":5.390856,"is_reserved":false,"is_disabled":false,"rental_uris":{"android":"levelo://app?vid=c0dcd3fd-c06a-49c5-b55f-d0d0c035e156","ios":"levelo://app?vid=c0dcd3fd-c06a-49c5-b55f-d0d0c035e156"},"vehicle_type_id":"4","last_reported":1716916007,"current_range_meters":800,"station_id":"ce4bh192rcd13ifvqdb0","pricing_plan_id":"cebpf4jnsgd1na2vs0mg"},{"bike_id":"2915fb88-38fa-42f6-bd43-9ec319233980","system_id":"levelo_inurba_marseille","lat":43.30085,"lon":5.390856,"is_reserved":false,"is_disabled":false,"rental_uris":{"android":"levelo://app?vid=2915fb88-38fa-42f6-bd43-9ec319233980","ios":"levelo://app?vid=2915fb88-38fa-42f6-bd43-9ec319233980"},"vehicle_type_id":"4","last_reported":1716916007,"current_range_meters":15600,"station_id":"ce4bh192rcd13ifvqdb0","pricing_plan_id":"cebpf4jnsgd1na2vs0mg"},{"bike_id":"5d7c9fcd-b9da-45a7-a824-69d81e6f1ff9","system_id":"levelo_inurba_marseille","lat":43.292212,"lon":5.360528,"is_reserved":false,"is_disabled":false,"rental_uris":{"android":"levelo://app?vid=5d7c9fcd-b9da-45a7-a824-69d81e6f1ff9","ios":"levelo://app?vid=5d7c9fcd-b9da-45a7-a824-69d81e6f1ff9"},"vehicle_type_id":"4","last_reported":1716916007,"current_range_meters":27200,"station_id":"ce4bhbh2rcd13ifvqeqg","pricing_plan_id":"cebpf4jnsgd1na2vs0mg"},{"bike_id":"48229672-8a0f-47e2-8443-9cf8c3770864","system_id":"levelo_inurba_marseille","lat":43.298764,"lon":5.388973,"is_reserved":false,"is_disabled":false,"rental_uris":{"android":"levelo://app?vid=48229672-8a0f-47e2-8443-9cf8c3770864","ios":"levelo://app?vid=48229672-8a0f-47e2-8443-9cf8c3770864"},"vehicle_type_id":"4","last_reported":1716916007,"current_range_meters":20800,"station_id":"ce4bh392rcd13ifvqdl0","pricing_plan_id":"cebpf4jnsgd1na2vs0mg"},{"bike_id":"7609136f-3623-473e-b9bd-fe0cb0eac351","system_id":"levelo_inurba_marseille","lat":43.291675,"lon":5.371583,"is_reserved":false,"is_disabled":false,"rental_uris":{"android":"levelo://app?vid=7609136f-3623-473e-b9bd-fe0cb0eac351","ios":"levelo://app?vid=7609136f-3623-473e-b9bd-fe0cb0eac351"},"vehicle_type_id":"4","last_reported":1716916007,"current_range_meters":16000,"station_id":"ce4bha92rcd13ifvqeh0","pricing_plan_id":"cebpf4jnsgd1na2vs0mg"},{"bike_id":"a0a87c2c-71f9-4137-b0a3-3cf163f3d72d","system_id":"levelo_inurba_marseille","lat":43.298764,"lon":5.388973,"is_reserved":false,"is_disabled":false,"rental_uris":{"android":"levelo://app?vid=a0a87c2c-71f9-4137-b0a3-3cf163f3d72d","ios":"levelo://app?vid=a0a87c2c-71f9-4137-b0a3-3cf163f3d72d"},"vehicle_type_id":"4","last_reported":1716916007,"current_range_meters":800,"station_id":"ce4bh392rcd13ifvqdl0","pricing_plan_id":"cebpf4jnsgd1na2vs0mg"},{"bike_id":"7f57c0b8-7471-47c6-8c81-c896e3d10aaa","system_id":"levelo_inurba_marseille","lat":43.291671,"lon":5.371575,"is_reserved":false,"is_disabled":false,"rental_uris":{"android":"levelo://app?vid=7f57c0b8-7471-47c6-8c81-c896e3d10aaa","ios":"levelo://app?vid=7f57c0b8-7471-47c6-8c81-c896e3d10aaa"},"vehicle_type_id":"4","last_reported":1716916007,"current_range_meters":6800,"station_id":"ce4bha92rcd13ifvqeh0","pricing_plan_id":"cebpf4jnsgd1na2vs0mg"},{"bike_id":"5afdc8b6-acde-451e-bfba-df3ac2737717","system_id":"levelo_inurba_marseille","lat":43.292074,"lon":5.359065,"is_reserved":false,"is_disabled":false,"rental_uris":{"android":"levelo://app?vid=5afdc8b6-acde-451e-bfba-df3ac2737717","ios":"levelo://app?vid=5afdc8b6-acde-451e-bfba-df3ac2737717"},"vehicle_type_id":"4","last_reported":1716916007,"current_range_meters":0,"station_id":"ce4bhb12rcd13ifvqel0","pricing_plan_id":"cebpf4jnsgd1na2vs0mg"},{"bike_id":"5a8a18e1-2ad4-44d2-898c-5a273218dee0","system_id":"levelo_inurba_marseille","lat":43.290779,"lon":5.371482,"is_reserved":false,"is_disabled":false,"rental_uris":{"android":"levelo://app?vid=5a8a18e1-2ad4-44d2-898c-5a273218dee0","ios":"levelo://app?vid=5a8a18e1-2ad4-44d2-898c-5a273218dee0"},"vehicle_type_id":"4","last_reported":1716916007,"current_range_meters":0,"station_id":"ce4bh5p2rcd13ifvqe4g","pricing_plan_id":"cebpf4jnsgd1na2vs0mg"},{"bike_id":"0a4c9eb6-1caa-4c7a-a751-6f27236188c9","system_id":"levelo_inurba_marseille","lat":43.292005,"lon":5.357875,"is_reserved":false,"is_disabled":false,"rental_uris":{"android":"levelo://app?vid=0a4c9eb6-1caa-4c7a-a751-6f27236188c9","ios":"levelo://app?vid=0a4c9eb6-1caa-4c7a-a751-6f27236188c9"},"vehicle_type_id":"4","last_reported":1716916007,"current_range_meters":5600,"station_id":"ce4bhb12rcd13ifvqel0","pricing_plan_id":"cebpf4jnsgd1na2vs0mg"},{"bike_id":"a66ddf0c-833a-46dc-9943-3834fba80d34","system_id":"levelo_inurba_marseille","lat":43.309038,"lon":5.396546,"is_reserved":false,"is_disabled":false,"rental_uris":{"android":"levelo://app?vid=a66ddf0c-833a-46dc-9943-3834fba80d34","ios":"levelo://app?vid=a66ddf0c-833a-46dc-9943-3834fba80d34"},"vehicle_type_id":"4","last_reported":1716916007,"current_range_meters":400,"station_id":"ce4bh012rcd13ifvqcv0","pricing_plan_id":"cebpf4jnsgd1na2vs0mg"},{"bike_id":"d2c21ad9-7aa1-4d5f-9368-96cc2abf888b","system_id":"levelo_inurba_marseille","lat":43.313291,"lon":5.396838,"is_reserved":false,"is_disabled":false,"rental_uris":{"android":"levelo://app?vid=d2c21ad9-7aa1-4d5f-9368-96cc2abf888b","ios":"levelo://app?vid=d2c21ad9-7aa1-4d5f-9368-96cc2abf888b"},"vehicle_type_id":"4","last_reported":1716916007,"current_range_meters":21200,"station_id":"ce4bgvp2rcd13ifvqcu0","pricing_plan_id":"cebpf4jnsgd1na2vs0mg"},{"bike_id":"313460c1-9537-4a2e-b3f5-21184aea2960","system_id":"levelo_inurba_marseille","lat":43.313291,"lon":5.396838,"is_reserved":false,"is_disabled":false,"rental_uris":{"android":"levelo://app?vid=313460c1-9537-4a2e-b3f5-21184aea2960","ios":"levelo://app?vid=313460c1-9537-4a2e-b3f5-21184aea2960"},"vehicle_type_id":"4","last_reported":1716916007,"current_range_meters":13200,"station_id":"ce4bgvp2rcd13ifvqcu0","pricing_plan_id":"cebpf4jnsgd1na2vs0mg"},{"bike_id":"53137406-f337-47db-9836-3a20d91d6da3","system_id":"levelo_inurba_marseille","lat":43.31327,"lon":5.39692,"is_reserved":false,"is_disabled":false,"rental_uris":{"android":"levelo://app?vid=53137406-f337-47db-9836-3a20d91d6da3","ios":"levelo://app?vid=53137406-f337-47db-9836-3a20d91d6da3"},"vehicle_type_id":"4","last_reported":1716916007,"current_range_meters":0,"station_id":"ce4bgvp2rcd13ifvqcu0","pricing_plan_id":"cebpf4jnsgd1na2vs0mg"},{"bike_id":"b082303e-8740-42db-bc08-3293f5d2d403","system_id":"levelo_inurba_marseille","lat":43.313291,"lon":5.396838,"is_reserved":false,"is_disabled":false,"rental_uris":{"android":"levelo://app?vid=b082303e-8740-42db-bc08-3293f5d2d403","ios":"levelo://app?vid=b082303e-8740-42db-bc08-3293f5d2d403"},"vehicle_type_id":"4","last_reported":1716916007,"current_range_meters":5600,"station_id":"ce4bgvp2rcd13ifvqcu0","pricing_plan_id":"cebpf4jnsgd1na2vs0mg"},{"bike_id":"384dc372-5ba4-4a4c-af74-1bee7c0853e1","system_id":"levelo_inurba_marseille","lat":43.292005,"lon":5.357875,"is_reserved":false,"is_disabled":false,"rental_uris":{"android":"levelo://app?vid=384dc372-5ba4-4a4c-af74-1bee7c0853e1","ios":"levelo://app?vid=384dc372-5ba4-4a4c-af74-1bee7c0853e1"},"vehicle_type_id":"4","last_reported":1716916007,"current_range_meters":12000,"station_id":"ce4bhb12rcd13ifvqel0","pricing_plan_id":"cebpf4jnsgd1na2vs0mg"},{"bike_id":"4d3c82a3-c6c6-4d5c-a61a-301f82f9bcdc","system_id":"levelo_inurba_marseille","lat":43.31321,"lon":5.39694,"is_reserved":false,"is_disabled":false,"rental_uris":{"android":"levelo://app?vid=4d3c82a3-c6c6-4d5c-a61a-301f82f9bcdc","ios":"levelo://app?vid=4d3c82a3-c6c6-4d5c-a61a-301f82f9bcdc"},"vehicle_type_id":"4","last_reported":1716916007,"current_range_meters":21600,"station_id":"ce4bgvp2rcd13ifvqcu0","pricing_plan_id":"cebpf4jnsgd1na2vs0mg"},{"bike_id":"23790904-4982-4cb7-bdc8-08d3a4fdcc13","system_id":"levelo_inurba_marseille","lat":43.31326,"lon":5.39694,"is_reserved":false,"is_disabled":false,"rental_uris":{"android":"levelo://app?vid=23790904-4982-4cb7-bdc8-08d3a4fdcc13","ios":"levelo://app?vid=23790904-4982-4cb7-bdc8-08d3a4fdcc13"},"vehicle_type_id":"4","last_reported":1716916007,"current_range_meters":18400,"station_id":"ce4bgvp2rcd13ifvqcu0","pricing_plan_id":"cebpf4jnsgd1na2vs0mg"},{"bike_id":"111ad1b7-67ff-4e14-91a7-667fef477f5d","system_id":"levelo_inurba_marseille","lat":43.290779,"lon":5.371482,"is_reserved":false,"is_disabled":false,"rental_uris":{"android":"levelo://app?vid=111ad1b7-67ff-4e14-91a7-667fef477f5d","ios":"levelo://app?vid=111ad1b7-67ff-4e14-91a7-667fef477f5d"},"vehicle_type_id":"4","last_reported":1716916007,"current_range_meters":1200,"station_id":"ce4bh5p2rcd13ifvqe4g","pricing_plan_id":"cebpf4jnsgd1na2vs0mg"},{"bike_id":"48881029-97af-425b-9ae5-f2a3c38fa81e","system_id":"levelo_inurba_marseille","lat":43.290779,"lon":5.371482,"is_reserved":false,"is_disabled":false,"rental_uris":{"android":"levelo://app?vid=48881029-97af-425b-9ae5-f2a3c38fa81e","ios":"levelo://app?vid=48881029-97af-425b-9ae5-f2a3c38fa81e"},"vehicle_type_id":"4","last_reported":1716916007,"current_range_meters":4400,"station_id":"ce4bh5p2rcd13ifvqe4g","pricing_plan_id":"cebpf4jnsgd1na2vs0mg"},{"bike_id":"17f7ea35-27be-4020-a960-9bab4402b21d","system_id":"levelo_inurba_marseille","lat":43.290779,"lon":5.371482,"is_reserved":false,"is_disabled":false,"rental_uris":{"android":"levelo://app?vid=17f7ea35-27be-4020-a960-9bab4402b21d","ios":"levelo://app?vid=17f7ea35-27be-4020-a960-9bab4402b21d"},"vehicle_type_id":"4","last_reported":1716916007,"current_range_meters":24000,"station_id":"ce4bh5p2rcd13ifvqe4g","pricing_plan_id":"cebpf4jnsgd1na2vs0mg"},{"bike_id":"ceba8aea-8734-495c-81bf-e85790ba0501","system_id":"levelo_inurba_marseille","lat":43.290779,"lon":5.371482,"is_reserved":false,"is_disabled":false,"rental_uris":{"android":"levelo://app?vid=ceba8aea-8734-495c-81bf-e85790ba0501","ios":"levelo://app?vid=ceba8aea-8734-495c-81bf-e85790ba0501"},"vehicle_type_id":"4","last_reported":1716916007,"current_range_meters":14400,"station_id":"ce4bh5p2rcd13ifvqe4g","pricing_plan_id":"cebpf4jnsgd1na2vs0mg"},{"bike_id":"ba17105e-aa9a-4d50-8bc9-4b8749014e84","system_id":"levelo_inurba_marseille","lat":43.294162,"lon":5.386292,"is_reserved":false,"is_disabled":false,"rental_uris":{"android":"levelo://app?vid=ba17105e-aa9a-4d50-8bc9-4b8749014e84","ios":"levelo://app?vid=ba17105e-aa9a-4d50-8bc9-4b8749014e84"},"vehicle_type_id":"4","last_reported":1716916007,"current_range_meters":24400,"station_id":"ce4bh2h2rcd13ifvqdh0","pricing_plan_id":"cebpf4jnsgd1na2vs0mg"},{"bike_id":"d07227b9-f9b2-480d-99bb-5a90f0aa1342","system_id":"levelo_inurba_marseille","lat":43.302008,"lon":5.394694,"is_reserved":false,"is_disabled":false,"rental_uris":{"android":"levelo://app?vid=d07227b9-f9b2-480d-99bb-5a90f0aa1342","ios":"levelo://app?vid=d07227b9-f9b2-480d-99bb-5a90f0aa1342"},"vehicle_type_id":"4","last_reported":1716916007,"current_range_meters":4800,"station_id":"ce4bh0p2rcd13ifvqd70","pricing_plan_id":"cebpf4jnsgd1na2vs0mg"},{"bike_id":"a9b057b5-8568-42f6-a794-80a390c92f02","system_id":"levelo_inurba_marseille","lat":43.290631,"lon":5.359244,"is_reserved":false,"is_disabled":false,"rental_uris":{"android":"levelo://app?vid=a9b057b5-8568-42f6-a794-80a390c92f02","ios":"levelo://app?vid=a9b057b5-8568-42f6-a794-80a390c92f02"},"vehicle_type_id":"4","last_reported":1716916007,"current_range_meters":10400,"station_id":"ce4bha92rcd13ifvqeg0","pricing_plan_id":"cebpf4jnsgd1na2vs0mg"},{"bike_id":"79155f66-4f62-4400-9ee5-91611951199c","system_id":"levelo_inurba_marseille","lat":43.289741,"lon":5.378306,"is_reserved":false,"is_disabled":false,"rental_uris":{"android":"levelo://app?vid=79155f66-4f62-4400-9ee5-91611951199c","ios":"levelo://app?vid=79155f66-4f62-4400-9ee5-91611951199c"},"vehicle_type_id":"4","last_reported":1716916007,"current_range_meters":12000,"station_id":"ce4bh9p2rcd13ifvqed0","pricing_plan_id":"cebpf4jnsgd1na2vs0mg"},{"bike_id":"ae290ae9-4e7e-419a-a595-c2b129969625","system_id":"levelo_inurba_marseille","lat":43.290319,"lon":5.375732,"is_reserved":false,"is_disabled":false,"rental_uris":{"android":"levelo://app?vid=ae290ae9-4e7e-419a-a595-c2b129969625","ios":"levelo://app?vid=ae290ae9-4e7e-419a-a595-c2b129969625"},"vehicle_type_id":"4","last_reported":1716916007,"current_range_meters":26800,"station_id":"ce4bh692rcd13ifvqe90","pricing_plan_id":"cebpf4jnsgd1na2vs0mg"},{"bike_id":"1f8bac08-1a47-4a2b-9727-56b4514e81e9","system_id":"levelo_inurba_marseille","lat":43.290631,"lon":5.359244,"is_reserved":false,"is_disabled":false,"rental_uris":{"android":"levelo://app?vid=1f8bac08-1a47-4a2b-9727-56b4514e81e9","ios":"levelo://app?vid=1f8bac08-1a47-4a2b-9727-56b4514e81e9"},"vehicle_type_id":"4","last_reported":1716916007,"current_range_meters":23200,"station_id":"ce4bha92rcd13ifvqeg0","pricing_plan_id":"cebpf4jnsgd1na2vs0mg"},{"bike_id":"18d950f2-e7c7-43c7-8246-18acf6daea4c","system_id":"levelo_inurba_marseille","lat":43.290631,"lon":5.359244,"is_reserved":false,"is_disabled":false,"rental_uris":{"android":"levelo://app?vid=18d950f2-e7c7-43c7-8246-18acf6daea4c","ios":"levelo://app?vid=18d950f2-e7c7-43c7-8246-18acf6daea4c"},"vehicle_type_id":"4","last_reported":1716916007,"current_range_meters":5200,"station_id":"ce4bha92rcd13ifvqeg0","pricing_plan_id":"cebpf4jnsgd1na2vs0mg"},{"bike_id":"82e15ff7-a965-4ef7-be24-5f81d0c69c56","system_id":"levelo_inurba_marseille","lat":43.290327,"lon":5.375711,"is_reserved":false,"is_disabled":false,"rental_uris":{"android":"levelo://app?vid=82e15ff7-a965-4ef7-be24-5f81d0c69c56","ios":"levelo://app?vid=82e15ff7-a965-4ef7-be24-5f81d0c69c56"},"vehicle_type_id":"4","last_reported":1716916007,"current_range_meters":0,"station_id":"ce4bh692rcd13ifvqe90","pricing_plan_id":"cebpf4jnsgd1na2vs0mg"},{"bike_id":"0d600eda-6e28-4336-bdde-3eff9481092b","system_id":"levelo_inurba_marseille","lat":43.28997,"lon":5.37251,"is_reserved":false,"is_disabled":false,"rental_uris":{"android":"levelo://app?vid=0d600eda-6e28-4336-bdde-3eff9481092b","ios":"levelo://app?vid=0d600eda-6e28-4336-bdde-3eff9481092b"},"vehicle_type_id":"4","last_reported":1716916007,"current_range_meters":0,"station_id":"ce4bh512rcd13ifvqe2g","pricing_plan_id":"cebpf4jnsgd1na2vs0mg"},{"bike_id":"1cacda41-8cb4-494f-a951-8adb0cbbb1b5","system_id":"levelo_inurba_marseille","lat":43.290319,"lon":5.375732,"is_reserved":false,"is_disabled":false,"rental_uris":{"android":"levelo://app?vid=1cacda41-8cb4-494f-a951-8adb0cbbb1b5","ios":"levelo://app?vid=1cacda41-8cb4-494f-a951-8adb0cbbb1b5"},"vehicle_type_id":"4","last_reported":1716916007,"current_range_meters":8400,"station_id":"ce4bh692rcd13ifvqe90","pricing_plan_id":"cebpf4jnsgd1na2vs0mg"},{"bike_id":"41e4c35b-9772-4090-a9d4-26a14ae45934","system_id":"levelo_inurba_marseille","lat":43.290458,"lon":5.375618,"is_reserved":false,"is_disabled":false,"rental_uris":{"android":"levelo://app?vid=41e4c35b-9772-4090-a9d4-26a14ae45934","ios":"levelo://app?vid=41e4c35b-9772-4090-a9d4-26a14ae45934"},"vehicle_type_id":"4","last_reported":1716916007,"current_range_meters":30800,"station_id":"ce4bh692rcd13ifvqe90","pricing_plan_id":"cebpf4jnsgd1na2vs0mg"},{"bike_id":"138285a1-3e93-4631-9be2-2abf34753e99","system_id":"levelo_inurba_marseille","lat":43.290327,"lon":5.375711,"is_reserved":false,"is_disabled":false,"rental_uris":{"android":"levelo://app?vid=138285a1-3e93-4631-9be2-2abf34753e99","ios":"levelo://app?vid=138285a1-3e93-4631-9be2-2abf34753e99"},"vehicle_type_id":"4","last_reported":1716916007,"current_range_meters":5600,"station_id":"ce4bh692rcd13ifvqe90","pricing_plan_id":"cebpf4jnsgd1na2vs0mg"},{"bike_id":"a604df62-361f-426f-a793-f9f5e5bbc877","system_id":"levelo_inurba_marseille","lat":43.290408,"lon":5.375664,"is_reserved":false,"is_disabled":false,"rental_uris":{"android":"levelo://app?vid=a604df62-361f-426f-a793-f9f5e5bbc877","ios":"levelo://app?vid=a604df62-361f-426f-a793-f9f5e5bbc877"},"vehicle_type_id":"4","last_reported":1716916007,"current_range_meters":23600,"station_id":"ce4bh692rcd13ifvqe90","pricing_plan_id":"cebpf4jnsgd1na2vs0mg"},{"bike_id":"ed72a785-c3eb-4e7d-b053-1e8040013249","system_id":"levelo_inurba_marseille","lat":43.290402,"lon":5.375677,"is_reserved":false,"is_disabled":false,"rental_uris":{"android":"levelo://app?vid=ed72a785-c3eb-4e7d-b053-1e8040013249","ios":"levelo://app?vid=ed72a785-c3eb-4e7d-b053-1e8040013249"},"vehicle_type_id":"4","last_reported":1716916007,"current_range_meters":22000,"station_id":"ce4bh692rcd13ifvqe90","pricing_plan_id":"cebpf4jnsgd1na2vs0mg"},{"bike_id":"e29b64cb-821d-41eb-bb56-65fa27206d00","system_id":"levelo_inurba_marseille","lat":43.29039,"lon":5.37562,"is_reserved":false,"is_disabled":false,"rental_uris":{"android":"levelo://app?vid=e29b64cb-821d-41eb-bb56-65fa27206d00","ios":"levelo://app?vid=e29b64cb-821d-41eb-bb56-65fa27206d00"},"vehicle_type_id":"4","last_reported":1716916007,"current_range_meters":2000,"station_id":"ce4bh692rcd13ifvqe90","pricing_plan_id":"cebpf4jnsgd1na2vs0mg"},{"bike_id":"587f37a3-6e3f-4c28-86a0-3a871d75583b","system_id":"levelo_inurba_marseille","lat":43.29039,"lon":5.37563,"is_reserved":false,"is_disabled":false,"rental_uris":{"android":"levelo://app?vid=587f37a3-6e3f-4c28-86a0-3a871d75583b","ios":"levelo://app?vid=587f37a3-6e3f-4c28-86a0-3a871d75583b"},"vehicle_type_id":"4","last_reported":1716916007,"current_range_meters":2400,"station_id":"ce4bh692rcd13ifvqe90","pricing_plan_id":"cebpf4jnsgd1na2vs0mg"},{"bike_id":"2d68e6d6-320d-4c81-a0dc-96067a021168","system_id":"levelo_inurba_marseille","lat":43.290779,"lon":5.371482,"is_reserved":false,"is_disabled":false,"rental_uris":{"android":"levelo://app?vid=2d68e6d6-320d-4c81-a0dc-96067a021168","ios":"levelo://app?vid=2d68e6d6-320d-4c81-a0dc-96067a021168"},"vehicle_type_id":"4","last_reported":1716916007,"current_range_meters":24800,"station_id":"ce4bh5p2rcd13ifvqe4g","pricing_plan_id":"cebpf4jnsgd1na2vs0mg"},{"bike_id":"c567665d-0d74-4284-aaf0-2eef924b6025","system_id":"levelo_inurba_marseille","lat":43.2904,"lon":5.37569,"is_reserved":false,"is_disabled":false,"rental_uris":{"android":"levelo://app?vid=c567665d-0d74-4284-aaf0-2eef924b6025","ios":"levelo://app?vid=c567665d-0d74-4284-aaf0-2eef924b6025"},"vehicle_type_id":"4","last_reported":1716916007,"current_range_meters":14000,"station_id":"ce4bh692rcd13ifvqe90","pricing_plan_id":"cebpf4jnsgd1na2vs0mg"},{"bike_id":"a49c0e52-90f5-4636-afe2-4d16ecc89035","system_id":"levelo_inurba_marseille","lat":43.29041,"lon":5.37574,"is_reserved":false,"is_disabled":false,"rental_uris":{"android":"levelo://app?vid=a49c0e52-90f5-4636-afe2-4d16ecc89035","ios":"levelo://app?vid=a49c0e52-90f5-4636-afe2-4d16ecc89035"},"vehicle_type_id":"4","last_reported":1716916007,"current_range_meters":18400,"station_id":"ce4bh692rcd13ifvqe90","pricing_plan_id":"cebpf4jnsgd1na2vs0mg"},{"bike_id":"96505723-1450-4cd7-997f-826c2ee59e21","system_id":"levelo_inurba_marseille","lat":43.290374,"lon":5.375571,"is_reserved":false,"is_disabled":false,"rental_uris":{"android":"levelo://app?vid=96505723-1450-4cd7-997f-826c2ee59e21","ios":"levelo://app?vid=96505723-1450-4cd7-997f-826c2ee59e21"},"vehicle_type_id":"4","last_reported":1716916007,"current_range_meters":7200,"station_id":"ce4bh692rcd13ifvqe90","pricing_plan_id":"cebpf4jnsgd1na2vs0mg"},{"bike_id":"13edf6e8-54f4-4521-b7ab-6e80c4e3df46","system_id":"levelo_inurba_marseille","lat":43.29037,"lon":5.37558,"is_reserved":false,"is_disabled":false,"rental_uris":{"android":"levelo://app?vid=13edf6e8-54f4-4521-b7ab-6e80c4e3df46","ios":"levelo://app?vid=13edf6e8-54f4-4521-b7ab-6e80c4e3df46"},"vehicle_type_id":"4","last_reported":1716916007,"current_range_meters":12000,"station_id":"ce4bh692rcd13ifvqe90","pricing_plan_id":"cebpf4jnsgd1na2vs0mg"},{"bike_id":"a3423a53-0149-4edb-a847-8afa5054d373","system_id":"levelo_inurba_marseille","lat":43.290359,"lon":5.375531,"is_reserved":false,"is_disabled":false,"rental_uris":{"android":"levelo://app?vid=a3423a53-0149-4edb-a847-8afa5054d373","ios":"levelo://app?vid=a3423a53-0149-4edb-a847-8afa5054d373"},"vehicle_type_id":"4","last_reported":1716916007,"current_range_meters":7600,"station_id":"ce4bh692rcd13ifvqe90","pricing_plan_id":"cebpf4jnsgd1na2vs0mg"},{"bike_id":"a75fabf2-cce9-43d2-8b54-8b2d09d8f958","system_id":"levelo_inurba_marseille","lat":43.29037,"lon":5.37559,"is_reserved":false,"is_disabled":false,"rental_uris":{"android":"levelo://app?vid=a75fabf2-cce9-43d2-8b54-8b2d09d8f958","ios":"levelo://app?vid=a75fabf2-cce9-43d2-8b54-8b2d09d8f958"},"vehicle_type_id":"4","last_reported":1716916007,"current_range_meters":13200,"station_id":"ce4bh692rcd13ifvqe90","pricing_plan_id":"cebpf4jnsgd1na2vs0mg"},{"bike_id":"c50251e1-76d3-47f3-86d9-36b2d303b371","system_id":"levelo_inurba_marseille","lat":43.29038,"lon":5.37567,"is_reserved":false,"is_disabled":false,"rental_uris":{"android":"levelo://app?vid=c50251e1-76d3-47f3-86d9-36b2d303b371","ios":"levelo://app?vid=c50251e1-76d3-47f3-86d9-36b2d303b371"},"vehicle_type_id":"4","last_reported":1716916007,"current_range_meters":12400,"station_id":"ce4bh692rcd13ifvqe90","pricing_plan_id":"cebpf4jnsgd1na2vs0mg"},{"bike_id":"3604bd16-9b22-4cab-ba80-aa1fc2655870","system_id":"levelo_inurba_marseille","lat":43.29037,"lon":5.375622,"is_reserved":false,"is_disabled":false,"rental_uris":{"android":"levelo://app?vid=3604bd16-9b22-4cab-ba80-aa1fc2655870","ios":"levelo://app?vid=3604bd16-9b22-4cab-ba80-aa1fc2655870"},"vehicle_type_id":"4","last_reported":1716916007,"current_range_meters":7600,"station_id":"ce4bh692rcd13ifvqe90","pricing_plan_id":"cebpf4jnsgd1na2vs0mg"},{"bike_id":"35b44769-eea4-486d-b0b1-4e17a317aca9","system_id":"levelo_inurba_marseille","lat":43.2904,"lon":5.37577,"is_reserved":false,"is_disabled":false,"rental_uris":{"android":"levelo://app?vid=35b44769-eea4-486d-b0b1-4e17a317aca9","ios":"levelo://app?vid=35b44769-eea4-486d-b0b1-4e17a317aca9"},"vehicle_type_id":"4","last_reported":1716916007,"current_range_meters":0,"station_id":"ce4bh692rcd13ifvqe90","pricing_plan_id":"cebpf4jnsgd1na2vs0mg"},{"bike_id":"a52bc3c1-530b-4905-9aa0-5ad11d67387c","system_id":"levelo_inurba_marseille","lat":43.290334,"lon":5.375454,"is_reserved":false,"is_disabled":false,"rental_uris":{"android":"levelo://app?vid=a52bc3c1-530b-4905-9aa0-5ad11d67387c","ios":"levelo://app?vid=a52bc3c1-530b-4905-9aa0-5ad11d67387c"},"vehicle_type_id":"4","last_reported":1716916007,"current_range_meters":14800,"station_id":"ce4bh692rcd13ifvqe90","pricing_plan_id":"cebpf4jnsgd1na2vs0mg"},{"bike_id":"539727f8-e483-4198-858f-43f2c75cc2df","system_id":"levelo_inurba_marseille","lat":43.29034,"lon":5.37549,"is_reserved":false,"is_disabled":false,"rental_uris":{"android":"levelo://app?vid=539727f8-e483-4198-858f-43f2c75cc2df","ios":"levelo://app?vid=539727f8-e483-4198-858f-43f2c75cc2df"},"vehicle_type_id":"4","last_reported":1716916007,"current_range_meters":16000,"station_id":"ce4bh692rcd13ifvqe90","pricing_plan_id":"cebpf4jnsgd1na2vs0mg"},{"bike_id":"3cc97af3-1277-4447-9ef4-c7d499b20d8e","system_id":"levelo_inurba_marseille","lat":43.29038,"lon":5.3757,"is_reserved":false,"is_disabled":false,"rental_uris":{"android":"levelo://app?vid=3cc97af3-1277-4447-9ef4-c7d499b20d8e","ios":"levelo://app?vid=3cc97af3-1277-4447-9ef4-c7d499b20d8e"},"vehicle_type_id":"4","last_reported":1716916007,"current_range_meters":10400,"station_id":"ce4bh692rcd13ifvqe90","pricing_plan_id":"cebpf4jnsgd1na2vs0mg"},{"bike_id":"178e0737-62ae-46b3-b28a-2fad7745f2f1","system_id":"levelo_inurba_marseille","lat":43.29036,"lon":5.37562,"is_reserved":false,"is_disabled":false,"rental_uris":{"android":"levelo://app?vid=178e0737-62ae-46b3-b28a-2fad7745f2f1","ios":"levelo://app?vid=178e0737-62ae-46b3-b28a-2fad7745f2f1"},"vehicle_type_id":"4","last_reported":1716916007,"current_range_meters":27600,"station_id":"ce4bh692rcd13ifvqe90","pricing_plan_id":"cebpf4jnsgd1na2vs0mg"},{"bike_id":"8eecf094-433a-4b1f-a7bc-dcfe72221a46","system_id":"levelo_inurba_marseille","lat":43.290327,"lon":5.375711,"is_reserved":false,"is_disabled":false,"rental_uris":{"android":"levelo://app?vid=8eecf094-433a-4b1f-a7bc-dcfe72221a46","ios":"levelo://app?vid=8eecf094-433a-4b1f-a7bc-dcfe72221a46"},"vehicle_type_id":"4","last_reported":1716916007,"current_range_meters":22000,"station_id":"ce4bh692rcd13ifvqe90","pricing_plan_id":"cebpf4jnsgd1na2vs0mg"},{"bike_id":"455b2fe8-c300-4eb7-bec1-4b0170768e9b","system_id":"levelo_inurba_marseille","lat":43.29037,"lon":5.37568,"is_reserved":false,"is_disabled":false,"rental_uris":{"android":"levelo://app?vid=455b2fe8-c300-4eb7-bec1-4b0170768e9b","ios":"levelo://app?vid=455b2fe8-c300-4eb7-bec1-4b0170768e9b"},"vehicle_type_id":"4","last_reported":1716916007,"current_range_meters":17200,"station_id":"ce4bh692rcd13ifvqe90","pricing_plan_id":"cebpf4jnsgd1na2vs0mg"},{"bike_id":"80c51315-c84d-4011-9ffc-94a0df6dcf28","system_id":"levelo_inurba_marseille","lat":43.29037,"lon":5.37569,"is_reserved":false,"is_disabled":false,"rental_uris":{"android":"levelo://app?vid=80c51315-c84d-4011-9ffc-94a0df6dcf28","ios":"levelo://app?vid=80c51315-c84d-4011-9ffc-94a0df6dcf28"},"vehicle_type_id":"4","last_reported":1716916007,"current_range_meters":800,"station_id":"ce4bh692rcd13ifvqe90","pricing_plan_id":"cebpf4jnsgd1na2vs0mg"},{"bike_id":"f29100d0-865d-40f3-b441-af0706519f01","system_id":"levelo_inurba_marseille","lat":43.286039,"lon":5.370681,"is_reserved":false,"is_disabled":false,"rental_uris":{"android":"levelo://app?vid=f29100d0-865d-40f3-b441-af0706519f01","ios":"levelo://app?vid=f29100d0-865d-40f3-b441-af0706519f01"},"vehicle_type_id":"4","last_reported":1716916007,"current_range_meters":3600,"station_id":"ce4bht12rcd13ifvqi60","pricing_plan_id":"cebpf4jnsgd1na2vs0mg"},{"bike_id":"d89d71ce-a464-43bc-8c25-fbec2f1d1aea","system_id":"levelo_inurba_marseille","lat":43.29036,"lon":5.37566,"is_reserved":false,"is_disabled":false,"rental_uris":{"android":"levelo://app?vid=d89d71ce-a464-43bc-8c25-fbec2f1d1aea","ios":"levelo://app?vid=d89d71ce-a464-43bc-8c25-fbec2f1d1aea"},"vehicle_type_id":"4","last_reported":1716916007,"current_range_meters":7200,"station_id":"ce4bh692rcd13ifvqe90","pricing_plan_id":"cebpf4jnsgd1na2vs0mg"},{"bike_id":"e38618f3-ca61-4638-bf75-fc2b05152082","system_id":"levelo_inurba_marseille","lat":43.29034,"lon":5.37557,"is_reserved":false,"is_disabled":false,"rental_uris":{"android":"levelo://app?vid=e38618f3-ca61-4638-bf75-fc2b05152082","ios":"levelo://app?vid=e38618f3-ca61-4638-bf75-fc2b05152082"},"vehicle_type_id":"4","last_reported":1716916007,"current_range_meters":0,"station_id":"ce4bh692rcd13ifvqe90","pricing_plan_id":"cebpf4jnsgd1na2vs0mg"},{"bike_id":"ebf8199b-40ac-4f25-afeb-66e5fd2af1ab","system_id":"levelo_inurba_marseille","lat":43.29034,"lon":5.3756,"is_reserved":false,"is_disabled":false,"rental_uris":{"android":"levelo://app?vid=ebf8199b-40ac-4f25-afeb-66e5fd2af1ab","ios":"levelo://app?vid=ebf8199b-40ac-4f25-afeb-66e5fd2af1ab"},"vehicle_type_id":"4","last_reported":1716916007,"current_range_meters":3200,"station_id":"ce4bh692rcd13ifvqe90","pricing_plan_id":"cebpf4jnsgd1na2vs0mg"},{"bike_id":"f00c1167-c213-4d5e-91c9-783a1fcd7e5d","system_id":"levelo_inurba_marseille","lat":43.29036,"lon":5.3757,"is_reserved":false,"is_disabled":false,"rental_uris":{"android":"levelo://app?vid=f00c1167-c213-4d5e-91c9-783a1fcd7e5d","ios":"levelo://app?vid=f00c1167-c213-4d5e-91c9-783a1fcd7e5d"},"vehicle_type_id":"4","last_reported":1716916007,"current_range_meters":22400,"station_id":"ce4bh692rcd13ifvqe90","pricing_plan_id":"cebpf4jnsgd1na2vs0mg"},{"bike_id":"9798ce64-55d1-424b-b2d7-3b126abdae9f","system_id":"levelo_inurba_marseille","lat":43.290329,"lon":5.375567,"is_reserved":false,"is_disabled":false,"rental_uris":{"android":"levelo://app?vid=9798ce64-55d1-424b-b2d7-3b126abdae9f","ios":"levelo://app?vid=9798ce64-55d1-424b-b2d7-3b126abdae9f"},"vehicle_type_id":"4","last_reported":1716916007,"current_range_meters":24000,"station_id":"ce4bh692rcd13ifvqe90","pricing_plan_id":"cebpf4jnsgd1na2vs0mg"},{"bike_id":"4c1b8afb-2a17-4e8e-9f06-b20315238a0b","system_id":"levelo_inurba_marseille","lat":43.29036,"lon":5.37572,"is_reserved":false,"is_disabled":false,"rental_uris":{"android":"levelo://app?vid=4c1b8afb-2a17-4e8e-9f06-b20315238a0b","ios":"levelo://app?vid=4c1b8afb-2a17-4e8e-9f06-b20315238a0b"},"vehicle_type_id":"4","last_reported":1716916007,"current_range_meters":13200,"station_id":"ce4bh692rcd13ifvqe90","pricing_plan_id":"cebpf4jnsgd1na2vs0mg"},{"bike_id":"2b406549-0048-4636-b011-733ee60ec340","system_id":"levelo_inurba_marseille","lat":43.29034,"lon":5.37563,"is_reserved":false,"is_disabled":false,"rental_uris":{"android":"levelo://app?vid=2b406549-0048-4636-b011-733ee60ec340","ios":"levelo://app?vid=2b406549-0048-4636-b011-733ee60ec340"},"vehicle_type_id":"4","last_reported":1716916007,"current_range_meters":18400,"station_id":"ce4bh692rcd13ifvqe90","pricing_plan_id":"cebpf4jnsgd1na2vs0mg"},{"bike_id":"ef21c8d3-f808-4ef0-a2f0-1be828d84343","system_id":"levelo_inurba_marseille","lat":43.290357,"lon":5.375713,"is_reserved":false,"is_disabled":false,"rental_uris":{"android":"levelo://app?vid=ef21c8d3-f808-4ef0-a2f0-1be828d84343","ios":"levelo://app?vid=ef21c8d3-f808-4ef0-a2f0-1be828d84343"},"vehicle_type_id":"4","last_reported":1716916007,"current_range_meters":0,"station_id":"ce4bh692rcd13ifvqe90","pricing_plan_id":"cebpf4jnsgd1na2vs0mg"},{"bike_id":"2c114a12-3e5c-4db2-aeeb-6a9f53fbaedc","system_id":"levelo_inurba_marseille","lat":43.29034,"lon":5.375644,"is_reserved":false,"is_disabled":false,"rental_uris":{"android":"levelo://app?vid=2c114a12-3e5c-4db2-aeeb-6a9f53fbaedc","ios":"levelo://app?vid=2c114a12-3e5c-4db2-aeeb-6a9f53fbaedc"},"vehicle_type_id":"4","last_reported":1716916007,"current_range_meters":400,"station_id":"ce4bh692rcd13ifvqe90","pricing_plan_id":"cebpf4jnsgd1na2vs0mg"},{"bike_id":"06f0df7c-d869-4983-bc95-4c6bfdd6fe59","system_id":"levelo_inurba_marseille","lat":43.29036,"lon":5.37574,"is_reserved":false,"is_disabled":false,"rental_uris":{"android":"levelo://app?vid=06f0df7c-d869-4983-bc95-4c6bfdd6fe59","ios":"levelo://app?vid=06f0df7c-d869-4983-bc95-4c6bfdd6fe59"},"vehicle_type_id":"4","last_reported":1716916007,"current_range_meters":20800,"station_id":"ce4bh692rcd13ifvqe90","pricing_plan_id":"cebpf4jnsgd1na2vs0mg"},{"bike_id":"1d61d68a-5500-4429-9ed5-7dc5c64b5f28","system_id":"levelo_inurba_marseille","lat":43.290357,"lon":5.375738,"is_reserved":false,"is_disabled":false,"rental_uris":{"android":"levelo://app?vid=1d61d68a-5500-4429-9ed5-7dc5c64b5f28","ios":"levelo://app?vid=1d61d68a-5500-4429-9ed5-7dc5c64b5f28"},"vehicle_type_id":"4","last_reported":1716916007,"current_range_meters":9200,"station_id":"ce4bh692rcd13ifvqe90","pricing_plan_id":"cebpf4jnsgd1na2vs0mg"},{"bike_id":"3aa6c402-fd4d-4a5a-bc10-c4fc84d814f7","system_id":"levelo_inurba_marseille","lat":43.29032,"lon":5.37556,"is_reserved":false,"is_disabled":false,"rental_uris":{"android":"levelo://app?vid=3aa6c402-fd4d-4a5a-bc10-c4fc84d814f7","ios":"levelo://app?vid=3aa6c402-fd4d-4a5a-bc10-c4fc84d814f7"},"vehicle_type_id":"4","last_reported":1716916007,"current_range_meters":0,"station_id":"ce4bh692rcd13ifvqe90","pricing_plan_id":"cebpf4jnsgd1na2vs0mg"},{"bike_id":"4177d6dc-0a97-4d13-a9ae-3533ebc78750","system_id":"levelo_inurba_marseille","lat":43.29034,"lon":5.37566,"is_reserved":false,"is_disabled":false,"rental_uris":{"android":"levelo://app?vid=4177d6dc-0a97-4d13-a9ae-3533ebc78750","ios":"levelo://app?vid=4177d6dc-0a97-4d13-a9ae-3533ebc78750"},"vehicle_type_id":"4","last_reported":1716916007,"current_range_meters":12000,"station_id":"ce4bh692rcd13ifvqe90","pricing_plan_id":"cebpf4jnsgd1na2vs0mg"},{"bike_id":"4b3b5ee0-3cf1-4606-8f9a-6739dfa3e3e8","system_id":"levelo_inurba_marseille","lat":43.29031,"lon":5.37552,"is_reserved":false,"is_disabled":false,"rental_uris":{"android":"levelo://app?vid=4b3b5ee0-3cf1-4606-8f9a-6739dfa3e3e8","ios":"levelo://app?vid=4b3b5ee0-3cf1-4606-8f9a-6739dfa3e3e8"},"vehicle_type_id":"4","last_reported":1716916007,"current_range_meters":15200,"station_id":"ce4bh692rcd13ifvqe90","pricing_plan_id":"cebpf4jnsgd1na2vs0mg"},{"bike_id":"3b4004e9-262d-44c7-bfb0-d2167cfdbfe7","system_id":"levelo_inurba_marseille","lat":43.290624,"lon":5.359245,"is_reserved":false,"is_disabled":false,"rental_uris":{"android":"levelo://app?vid=3b4004e9-262d-44c7-bfb0-d2167cfdbfe7","ios":"levelo://app?vid=3b4004e9-262d-44c7-bfb0-d2167cfdbfe7"},"vehicle_type_id":"4","last_reported":1716916007,"current_range_meters":16400,"station_id":"ce4bha92rcd13ifvqeg0","pricing_plan_id":"cebpf4jnsgd1na2vs0mg"},{"bike_id":"e78b7d70-5ced-4eb4-8f71-9bd983afbc62","system_id":"levelo_inurba_marseille","lat":43.290339,"lon":5.375664,"is_reserved":false,"is_disabled":false,"rental_uris":{"android":"levelo://app?vid=e78b7d70-5ced-4eb4-8f71-9bd983afbc62","ios":"levelo://app?vid=e78b7d70-5ced-4eb4-8f71-9bd983afbc62"},"vehicle_type_id":"4","last_reported":1716916007,"current_range_meters":0,"station_id":"ce4bh692rcd13ifvqe90","pricing_plan_id":"cebpf4jnsgd1na2vs0mg"},{"bike_id":"c0de4007-980a-4ce8-9ed6-0ee53f26432f","system_id":"levelo_inurba_marseille","lat":43.290346,"lon":5.375705,"is_reserved":false,"is_disabled":false,"rental_uris":{"android":"levelo://app?vid=c0de4007-980a-4ce8-9ed6-0ee53f26432f","ios":"levelo://app?vid=c0de4007-980a-4ce8-9ed6-0ee53f26432f"},"vehicle_type_id":"4","last_reported":1716916007,"current_range_meters":24000,"station_id":"ce4bh692rcd13ifvqe90","pricing_plan_id":"cebpf4jnsgd1na2vs0mg"},{"bike_id":"748a8ed4-5732-44e9-b6de-81f3b9ba8254","system_id":"levelo_inurba_marseille","lat":43.29033,"lon":5.37563,"is_reserved":false,"is_disabled":false,"rental_uris":{"android":"levelo://app?vid=748a8ed4-5732-44e9-b6de-81f3b9ba8254","ios":"levelo://app?vid=748a8ed4-5732-44e9-b6de-81f3b9ba8254"},"vehicle_type_id":"4","last_reported":1716916007,"current_range_meters":0,"station_id":"ce4bh692rcd13ifvqe90","pricing_plan_id":"cebpf4jnsgd1na2vs0mg"},{"bike_id":"f0b39054-d762-4dff-a098-ce47a47878ec","system_id":"levelo_inurba_marseille","lat":43.290324,"lon":5.375609,"is_reserved":false,"is_disabled":false,"rental_uris":{"android":"levelo://app?vid=f0b39054-d762-4dff-a098-ce47a47878ec","ios":"levelo://app?vid=f0b39054-d762-4dff-a098-ce47a47878ec"},"vehicle_type_id":"4","last_reported":1716916007,"current_range_meters":9600,"station_id":"ce4bh692rcd13ifvqe90","pricing_plan_id":"cebpf4jnsgd1na2vs0mg"},{"bike_id":"a1f289b3-5265-484e-8cdc-0381b27f550d","system_id":"levelo_inurba_marseille","lat":43.29033,"lon":5.37566,"is_reserved":false,"is_disabled":false,"rental_uris":{"android":"levelo://app?vid=a1f289b3-5265-484e-8cdc-0381b27f550d","ios":"levelo://app?vid=a1f289b3-5265-484e-8cdc-0381b27f550d"},"vehicle_type_id":"4","last_reported":1716916007,"current_range_meters":16800,"station_id":"ce4bh692rcd13ifvqe90","pricing_plan_id":"cebpf4jnsgd1na2vs0mg"},{"bike_id":"55731976-1617-42be-8a19-f6fc1d83bccc","system_id":"levelo_inurba_marseille","lat":43.2903,"lon":5.37553,"is_reserved":false,"is_disabled":false,"rental_uris":{"android":"levelo://app?vid=55731976-1617-42be-8a19-f6fc1d83bccc","ios":"levelo://app?vid=55731976-1617-42be-8a19-f6fc1d83bccc"},"vehicle_type_id":"4","last_reported":1716916007,"current_range_meters":28400,"station_id":"ce4bh692rcd13ifvqe90","pricing_plan_id":"cebpf4jnsgd1na2vs0mg"},{"bike_id":"55cfa3d5-db6c-4718-8e07-54cd97f7284e","system_id":"levelo_inurba_marseille","lat":43.294162,"lon":5.386292,"is_reserved":false,"is_disabled":false,"rental_uris":{"android":"levelo://app?vid=55cfa3d5-db6c-4718-8e07-54cd97f7284e","ios":"levelo://app?vid=55cfa3d5-db6c-4718-8e07-54cd97f7284e"},"vehicle_type_id":"4","last_reported":1716916007,"current_range_meters":0,"station_id":"ce4bh2h2rcd13ifvqdh0","pricing_plan_id":"cebpf4jnsgd1na2vs0mg"},{"bike_id":"a8e28429-d612-405e-aebe-d8a37045e2d3","system_id":"levelo_inurba_marseille","lat":43.290325,"lon":5.375699,"is_reserved":false,"is_disabled":false,"rental_uris":{"android":"levelo://app?vid=a8e28429-d612-405e-aebe-d8a37045e2d3","ios":"levelo://app?vid=a8e28429-d612-405e-aebe-d8a37045e2d3"},"vehicle_type_id":"4","last_reported":1716916007,"current_range_meters":6800,"station_id":"ce4bh692rcd13ifvqe90","pricing_plan_id":"cebpf4jnsgd1na2vs0mg"},{"bike_id":"97d845f4-c93d-4900-aa83-2d9adb2d6d90","system_id":"levelo_inurba_marseille","lat":43.29415,"lon":5.38626,"is_reserved":false,"is_disabled":false,"rental_uris":{"android":"levelo://app?vid=97d845f4-c93d-4900-aa83-2d9adb2d6d90","ios":"levelo://app?vid=97d845f4-c93d-4900-aa83-2d9adb2d6d90"},"vehicle_type_id":"4","last_reported":1716916007,"current_range_meters":400,"station_id":"ce4bh2h2rcd13ifvqdh0","pricing_plan_id":"cebpf4jnsgd1na2vs0mg"},{"bike_id":"7b35322c-b86f-4e13-a9cc-5f280f3882cc","system_id":"levelo_inurba_marseille","lat":43.290319,"lon":5.375732,"is_reserved":false,"is_disabled":false,"rental_uris":{"android":"levelo://app?vid=7b35322c-b86f-4e13-a9cc-5f280f3882cc","ios":"levelo://app?vid=7b35322c-b86f-4e13-a9cc-5f280f3882cc"},"vehicle_type_id":"4","last_reported":1716916007,"current_range_meters":29600,"station_id":"ce4bh692rcd13ifvqe90","pricing_plan_id":"cebpf4jnsgd1na2vs0mg"},{"bike_id":"a752e2f5-c72a-4bd7-905a-6995973a1368","system_id":"levelo_inurba_marseille","lat":43.29029,"lon":5.37559,"is_reserved":false,"is_disabled":false,"rental_uris":{"android":"levelo://app?vid=a752e2f5-c72a-4bd7-905a-6995973a1368","ios":"levelo://app?vid=a752e2f5-c72a-4bd7-905a-6995973a1368"},"vehicle_type_id":"4","last_reported":1716916007,"current_range_meters":6800,"station_id":"ce4bh692rcd13ifvqe90","pricing_plan_id":"cebpf4jnsgd1na2vs0mg"},{"bike_id":"875de289-2dde-4e78-a9c1-6f51d1a9a981","system_id":"levelo_inurba_marseille","lat":43.290319,"lon":5.375732,"is_reserved":false,"is_disabled":false,"rental_uris":{"android":"levelo://app?vid=875de289-2dde-4e78-a9c1-6f51d1a9a981","ios":"levelo://app?vid=875de289-2dde-4e78-a9c1-6f51d1a9a981"},"vehicle_type_id":"4","last_reported":1716916007,"current_range_meters":5600,"station_id":"ce4bh692rcd13ifvqe90","pricing_plan_id":"cebpf4jnsgd1na2vs0mg"},{"bike_id":"7c136d7e-fb0a-4dd2-ab9a-0536db02cc44","system_id":"levelo_inurba_marseille","lat":43.2903,"lon":5.37564,"is_reserved":false,"is_disabled":false,"rental_uris":{"android":"levelo://app?vid=7c136d7e-fb0a-4dd2-ab9a-0536db02cc44","ios":"levelo://app?vid=7c136d7e-fb0a-4dd2-ab9a-0536db02cc44"},"vehicle_type_id":"4","last_reported":1716916007,"current_range_meters":0,"station_id":"ce4bh692rcd13ifvqe90","pricing_plan_id":"cebpf4jnsgd1na2vs0mg"},{"bike_id":"e32fde3f-b2dc-424e-a972-0b9adf2cbf4d","system_id":"levelo_inurba_marseille","lat":43.289184,"lon":5.366408,"is_reserved":false,"is_disabled":false,"rental_uris":{"android":"levelo://app?vid=e32fde3f-b2dc-424e-a972-0b9adf2cbf4d","ios":"levelo://app?vid=e32fde3f-b2dc-424e-a972-0b9adf2cbf4d"},"vehicle_type_id":"4","last_reported":1716916007,"current_range_meters":6800,"station_id":"ce4bhap2rcd13ifvqek0","pricing_plan_id":"cebpf4jnsgd1na2vs0mg"},{"bike_id":"548e410d-2767-4fb0-8ebd-03477ab45160","system_id":"levelo_inurba_marseille","lat":43.290292,"lon":5.375643,"is_reserved":false,"is_disabled":false,"rental_uris":{"android":"levelo://app?vid=548e410d-2767-4fb0-8ebd-03477ab45160","ios":"levelo://app?vid=548e410d-2767-4fb0-8ebd-03477ab45160"},"vehicle_type_id":"4","last_reported":1716916007,"current_range_meters":9200,"station_id":"ce4bh692rcd13ifvqe90","pricing_plan_id":"cebpf4jnsgd1na2vs0mg"},{"bike_id":"2f6197ee-6c18-4ef9-9577-139269434794","system_id":"levelo_inurba_marseille","lat":43.294162,"lon":5.386292,"is_reserved":false,"is_disabled":false,"rental_uris":{"android":"levelo://app?vid=2f6197ee-6c18-4ef9-9577-139269434794","ios":"levelo://app?vid=2f6197ee-6c18-4ef9-9577-139269434794"},"vehicle_type_id":"4","last_reported":1716916007,"current_range_meters":24800,"station_id":"ce4bh2h2rcd13ifvqdh0","pricing_plan_id":"cebpf4jnsgd1na2vs0mg"},{"bike_id":"9a758114-ba8c-49c5-a2bd-788f841e2c13","system_id":"levelo_inurba_marseille","lat":43.29028,"lon":5.37561,"is_reserved":false,"is_disabled":false,"rental_uris":{"android":"levelo://app?vid=9a758114-ba8c-49c5-a2bd-788f841e2c13","ios":"levelo://app?vid=9a758114-ba8c-49c5-a2bd-788f841e2c13"},"vehicle_type_id":"4","last_reported":1716916007,"current_range_meters":5200,"station_id":"ce4bh692rcd13ifvqe90","pricing_plan_id":"cebpf4jnsgd1na2vs0mg"},{"bike_id":"a6154634-a137-4677-882d-b634661ca4b7","system_id":"levelo_inurba_marseille","lat":43.29028,"lon":5.37562,"is_reserved":false,"is_disabled":false,"rental_uris":{"android":"levelo://app?vid=a6154634-a137-4677-882d-b634661ca4b7","ios":"levelo://app?vid=a6154634-a137-4677-882d-b634661ca4b7"},"vehicle_type_id":"4","last_reported":1716916007,"current_range_meters":18400,"station_id":"ce4bh692rcd13ifvqe90","pricing_plan_id":"cebpf4jnsgd1na2vs0mg"},{"bike_id":"7e7b1ea6-23a2-49a4-86d3-87723c8bd858","system_id":"levelo_inurba_marseille","lat":43.294162,"lon":5.386292,"is_reserved":false,"is_disabled":false,"rental_uris":{"android":"levelo://app?vid=7e7b1ea6-23a2-49a4-86d3-87723c8bd858","ios":"levelo://app?vid=7e7b1ea6-23a2-49a4-86d3-87723c8bd858"},"vehicle_type_id":"4","last_reported":1716916007,"current_range_meters":0,"station_id":"ce4bh2h2rcd13ifvqdh0","pricing_plan_id":"cebpf4jnsgd1na2vs0mg"},{"bike_id":"215e3d14-0982-47a2-ad65-0784ecfed269","system_id":"levelo_inurba_marseille","lat":43.289184,"lon":5.366408,"is_reserved":false,"is_disabled":false,"rental_uris":{"android":"levelo://app?vid=215e3d14-0982-47a2-ad65-0784ecfed269","ios":"levelo://app?vid=215e3d14-0982-47a2-ad65-0784ecfed269"},"vehicle_type_id":"4","last_reported":1716916007,"current_range_meters":2400,"station_id":"ce4bhap2rcd13ifvqek0","pricing_plan_id":"cebpf4jnsgd1na2vs0mg"},{"bike_id":"50bf3816-3e89-457c-9b87-75a34b18dcc1","system_id":"levelo_inurba_marseille","lat":43.290279,"lon":5.375669,"is_reserved":false,"is_disabled":false,"rental_uris":{"android":"levelo://app?vid=50bf3816-3e89-457c-9b87-75a34b18dcc1","ios":"levelo://app?vid=50bf3816-3e89-457c-9b87-75a34b18dcc1"},"vehicle_type_id":"4","last_reported":1716916007,"current_range_meters":18400,"station_id":"ce4bh692rcd13ifvqe90","pricing_plan_id":"cebpf4jnsgd1na2vs0mg"},{"bike_id":"cfcf439c-321a-43f3-9686-bd9994d6e678","system_id":"levelo_inurba_marseille","lat":43.2903,"lon":5.37578,"is_reserved":false,"is_disabled":false,"rental_uris":{"android":"levelo://app?vid=cfcf439c-321a-43f3-9686-bd9994d6e678","ios":"levelo://app?vid=cfcf439c-321a-43f3-9686-bd9994d6e678"},"vehicle_type_id":"4","last_reported":1716916007,"current_range_meters":1200,"station_id":"ce4bh692rcd13ifvqe90","pricing_plan_id":"cebpf4jnsgd1na2vs0mg"},{"bike_id":"336c4a9d-3858-401a-842d-0d60dec8f174","system_id":"levelo_inurba_marseille","lat":43.29028,"lon":5.37571,"is_reserved":false,"is_disabled":false,"rental_uris":{"android":"levelo://app?vid=336c4a9d-3858-401a-842d-0d60dec8f174","ios":"levelo://app?vid=336c4a9d-3858-401a-842d-0d60dec8f174"},"vehicle_type_id":"4","last_reported":1716916007,"current_range_meters":16800,"station_id":"ce4bh692rcd13ifvqe90","pricing_plan_id":"cebpf4jnsgd1na2vs0mg"},{"bike_id":"d464950b-cbeb-4748-8e59-be7759b46e43","system_id":"levelo_inurba_marseille","lat":43.289468,"lon":5.363719,"is_reserved":false,"is_disabled":false,"rental_uris":{"android":"levelo://app?vid=d464950b-cbeb-4748-8e59-be7759b46e43","ios":"levelo://app?vid=d464950b-cbeb-4748-8e59-be7759b46e43"},"vehicle_type_id":"4","last_reported":1716916007,"current_range_meters":5600,"station_id":"ce4bhc92rcd13ifvqetg","pricing_plan_id":"cebpf4jnsgd1na2vs0mg"},{"bike_id":"03bcfe05-902d-4eb1-aad6-d8a0e793b72a","system_id":"levelo_inurba_marseille","lat":43.289468,"lon":5.363719,"is_reserved":false,"is_disabled":false,"rental_uris":{"android":"levelo://app?vid=03bcfe05-902d-4eb1-aad6-d8a0e793b72a","ios":"levelo://app?vid=03bcfe05-902d-4eb1-aad6-d8a0e793b72a"},"vehicle_type_id":"4","last_reported":1716916007,"current_range_meters":0,"station_id":"ce4bhc92rcd13ifvqetg","pricing_plan_id":"cebpf4jnsgd1na2vs0mg"},{"bike_id":"1487947d-1066-41d2-b95a-60415f94b392","system_id":"levelo_inurba_marseille","lat":43.289468,"lon":5.363719,"is_reserved":false,"is_disabled":false,"rental_uris":{"android":"levelo://app?vid=1487947d-1066-41d2-b95a-60415f94b392","ios":"levelo://app?vid=1487947d-1066-41d2-b95a-60415f94b392"},