{"last_updated":1731661804,"ttl":60,"version":"2.2","data":{"bikes":[{"bike_id":"9a26e6e1-36e4-4d8c-9ffd-32f523fa68bf","system_id":"levelo_inurba_marseille","lat":43.2648,"lon":5.39556,"is_reserved":false,"is_disabled":false,"rental_uris":{"android":"levelo://app?vid=9a26e6e1-36e4-4d8c-9ffd-32f523fa68bf","ios":"levelo://app?vid=9a26e6e1-36e4-4d8c-9ffd-32f523fa68bf"},"vehicle_type_id":"4","last_reported":1731661804,"current_range_meters":38800,"station_id":"ce4bhi12rcd13ifvqfq0","pricing_plan_id":"cebpf4jnsgd1na2vs0mg"},{"bike_id":"daaf2990-ca7b-482b-8192-b8b384a2875e","system_id":"levelo_inurba_marseille","lat":43.31696,"lon":5.40468,"is_reserved":false,"is_disabled":false,"rental_uris":{"android":"levelo://app?vid=daaf2990-ca7b-482b-8192-b8b384a2875e","ios":"levelo://app?vid=daaf2990-ca7b-482b-8192-b8b384a2875e"},"vehicle_type_id":"4","last_reported":1731661804,"current_range_meters":39200,"station_id":"ce4bh012rcd13ifvqd00","pricing_plan_id":"cebpf4jnsgd1na2vs0mg"},{"bike_id":"0cbb53d4-4179-49a2-968a-4163b804f560","system_id":"levelo_inurba_marseille","lat":43.30186,"lon":5.36607,"is_reserved":false,"is_disabled":false,"rental_uris":{"android":"levelo://app?vid=0cbb53d4-4179-49a2-968a-4163b804f560","ios":"levelo://app?vid=0cbb53d4-4179-49a2-968a-4163b804f560"},"vehicle_type_id":"4","last_reported":1731661804,"current_range_meters":36000,"station_id":"ce4bgrh2rcd13ifvqc8g","pricing_plan_id":"cebpf4jnsgd1na2vs0mg"},{"bike_id":"3167c6fe-678e-4e8b-971f-3227b195a71a","system_id":"levelo_inurba_marseille","lat":43.30912,"lon":5.3686,"is_reserved":false,"is_disabled":false,"rental_uris":{"android":"levelo://app?vid=3167c6fe-678e-4e8b-971f-3227b195a71a","ios":"levelo://app?vid=3167c6fe-678e-4e8b-971f-3227b195a71a"},"vehicle_type_id":"4","last_reported":1731661804,"current_range_meters":34800,"station_id":"ce4bgn92rcd13ifvqbvg","pricing_plan_id":"cebpf4jnsgd1na2vs0mg"},{"bike_id":"764941c6-9265-4473-bfc0-de01c883a01e","system_id":"levelo_inurba_marseille","lat":43.29282,"lon":5.40124,"is_reserved":false,"is_disabled":false,"rental_uris":{"android":"levelo://app?vid=764941c6-9265-4473-bfc0-de01c883a01e","ios":"levelo://app?vid=764941c6-9265-4473-bfc0-de01c883a01e"},"vehicle_type_id":"4","last_reported":1731661804,"current_range_meters":29600,"station_id":"ce4bh312rcd13ifvqdk0","pricing_plan_id":"cebpf4jnsgd1na2vs0mg"},{"bike_id":"1a59b816-bbb1-4950-9131-7ce955eddad1","system_id":"levelo_inurba_marseille","lat":43.26947,"lon":5.38633,"is_reserved":false,"is_disabled":false,"rental_uris":{"android":"levelo://app?vid=1a59b816-bbb1-4950-9131-7ce955eddad1","ios":"levelo://app?vid=1a59b816-bbb1-4950-9131-7ce955eddad1"},"vehicle_type_id":"4","last_reported":1731661804,"current_range_meters":36800,"station_id":"ce4bhh92rcd13ifvqfh0","pricing_plan_id":"cebpf4jnsgd1na2vs0mg"},{"bike_id":"bba30ccd-2b4f-42d8-b68d-f3f8cfd6f6dd","system_id":"levelo_inurba_marseille","lat":43.31228,"lon":5.3686,"is_reserved":false,"is_disabled":false,"rental_uris":{"android":"levelo://app?vid=bba30ccd-2b4f-42d8-b68d-f3f8cfd6f6dd","ios":"levelo://app?vid=bba30ccd-2b4f-42d8-b68d-f3f8cfd6f6dd"},"vehicle_type_id":"4","last_reported":1731661804,"current_range_meters":36000,"station_id":"ce4bgl92rcd13ifvqbq0","pricing_plan_id":"cebpf4jnsgd1na2vs0mg"},{"bike_id":"d9847e7e-8407-4b3b-8aa7-64d3afcb8734","system_id":"levelo_inurba_marseille","lat":43.248576,"lon":5.374162,"is_reserved":false,"is_disabled":false,"rental_uris":{"android":"levelo://app?vid=d9847e7e-8407-4b3b-8aa7-64d3afcb8734","ios":"levelo://app?vid=d9847e7e-8407-4b3b-8aa7-64d3afcb8734"},"vehicle_type_id":"4","last_reported":1731661804,"current_range_meters":38800,"station_id":"ce4bhgh2rcd13ifvqfa0","pricing_plan_id":"cebpf4jnsgd1na2vs0mg"},{"bike_id":"16fde11b-ad8b-4dc1-964d-0dcff4c00b3f","system_id":"levelo_inurba_marseille","lat":43.28001,"lon":5.40003,"is_reserved":false,"is_disabled":false,"rental_uris":{"android":"levelo://app?vid=16fde11b-ad8b-4dc1-964d-0dcff4c00b3f","ios":"levelo://app?vid=16fde11b-ad8b-4dc1-964d-0dcff4c00b3f"},"vehicle_type_id":"4","last_reported":1731661804,"current_range_meters":24000,"station_id":"ce4bho92rcd13ifvqh4g","pricing_plan_id":"cebpf4jnsgd1na2vs0mg"},{"bike_id":"e008ad74-0d07-450e-abd5-f64024b77168","system_id":"levelo_inurba_marseille","lat":43.26685,"lon":5.3827,"is_reserved":false,"is_disabled":false,"rental_uris":{"android":"levelo://app?vid=e008ad74-0d07-450e-abd5-f64024b77168","ios":"levelo://app?vid=e008ad74-0d07-450e-abd5-f64024b77168"},"vehicle_type_id":"4","last_reported":1731661804,"current_range_meters":26800,"station_id":"ce4bhg92rcd13ifvqf90","pricing_plan_id":"cebpf4jnsgd1na2vs0mg"},{"bike_id":"78b77ac8-4c63-432d-b19f-de7fa33d9847","system_id":"levelo_inurba_marseille","lat":43.3414,"lon":5.40906,"is_reserved":false,"is_disabled":false,"rental_uris":{"android":"levelo://app?vid=78b77ac8-4c63-432d-b19f-de7fa33d9847","ios":"levelo://app?vid=78b77ac8-4c63-432d-b19f-de7fa33d9847"},"vehicle_type_id":"4","last_reported":1731661804,"current_range_meters":39200,"station_id":"ce4bhqh2rcd13ifvqhlg","pricing_plan_id":"cebpf4jnsgd1na2vs0mg"},{"bike_id":"80e1fc0b-099a-420a-8a13-c4ea7058954e","system_id":"levelo_inurba_marseille","lat":43.30562,"lon":5.36531,"is_reserved":false,"is_disabled":false,"rental_uris":{"android":"levelo://app?vid=80e1fc0b-099a-420a-8a13-c4ea7058954e","ios":"levelo://app?vid=80e1fc0b-099a-420a-8a13-c4ea7058954e"},"vehicle_type_id":"4","last_reported":1731661804,"current_range_meters":26000,"station_id":"ce4bgs12rcd13ifvqcag","pricing_plan_id":"cebpf4jnsgd1na2vs0mg"},{"bike_id":"638c3933-c3dd-479e-bd0a-dfff64106917","system_id":"levelo_inurba_marseille","lat":43.26949,"lon":5.38635,"is_reserved":false,"is_disabled":false,"rental_uris":{"android":"levelo://app?vid=638c3933-c3dd-479e-bd0a-dfff64106917","ios":"levelo://app?vid=638c3933-c3dd-479e-bd0a-dfff64106917"},"vehicle_type_id":"4","last_reported":1731661804,"current_range_meters":28800,"station_id":"ce4bhh92rcd13ifvqfh0","pricing_plan_id":"cebpf4jnsgd1na2vs0mg"},{"bike_id":"a642f8e0-7d8f-4c4a-a4df-b6343f4bf295","system_id":"levelo_inurba_marseille","lat":43.30963,"lon":5.39044,"is_reserved":false,"is_disabled":false,"rental_uris":{"android":"levelo://app?vid=a642f8e0-7d8f-4c4a-a4df-b6343f4bf295","ios":"levelo://app?vid=a642f8e0-7d8f-4c4a-a4df-b6343f4bf295"},"vehicle_type_id":"4","last_reported":1731661804,"current_range_meters":4800,"station_id":"ce4bgup2rcd13ifvqco0","pricing_plan_id":"cebpf4jnsgd1na2vs0mg"},{"bike_id":"1d9c49c9-ee91-4089-a94f-8cbfcd96a196","system_id":"levelo_inurba_marseille","lat":43.31362,"lon":5.36712,"is_reserved":false,"is_disabled":false,"rental_uris":{"android":"levelo://app?vid=1d9c49c9-ee91-4089-a94f-8cbfcd96a196","ios":"levelo://app?vid=1d9c49c9-ee91-4089-a94f-8cbfcd96a196"},"vehicle_type_id":"4","last_reported":1731661804,"current_range_meters":11600,"station_id":"ce4bgr92rcd13ifvqc6g","pricing_plan_id":"cebpf4jnsgd1na2vs0mg"},{"bike_id":"a312cbed-4b1c-4402-b9a7-d9dee39ecb7b","system_id":"levelo_inurba_marseille","lat":43.29306,"lon":5.37456,"is_reserved":false,"is_disabled":false,"rental_uris":{"android":"levelo://app?vid=a312cbed-4b1c-4402-b9a7-d9dee39ecb7b","ios":"levelo://app?vid=a312cbed-4b1c-4402-b9a7-d9dee39ecb7b"},"vehicle_type_id":"4","last_reported":1731661804,"current_range_meters":38000,"station_id":"ce4bgi12rcd13ifvqb70","pricing_plan_id":"cebpf4jnsgd1na2vs0mg"},{"bike_id":"46ee3bf5-cd8f-47f3-8173-7e9238ef613c","system_id":"levelo_inurba_marseille","lat":43.30952,"lon":5.39025,"is_reserved":false,"is_disabled":false,"rental_uris":{"android":"levelo://app?vid=46ee3bf5-cd8f-47f3-8173-7e9238ef613c","ios":"levelo://app?vid=46ee3bf5-cd8f-47f3-8173-7e9238ef613c"},"vehicle_type_id":"4","last_reported":1731661804,"current_range_meters":20000,"station_id":"ce4bgup2rcd13ifvqco0","pricing_plan_id":"cebpf4jnsgd1na2vs0mg"},{"bike_id":"96f8c52c-6c28-48a4-af3a-06cc99ebc119","system_id":"levelo_inurba_marseille","lat":43.24073,"lon":5.37759,"is_reserved":false,"is_disabled":false,"rental_uris":{"android":"levelo://app?vid=96f8c52c-6c28-48a4-af3a-06cc99ebc119","ios":"levelo://app?vid=96f8c52c-6c28-48a4-af3a-06cc99ebc119"},"vehicle_type_id":"4","last_reported":1731661804,"current_range_meters":28400,"station_id":"ce4bhnp2rcd13ifvqgvg","pricing_plan_id":"cebpf4jnsgd1na2vs0mg"},{"bike_id":"9ef76943-592f-4d3b-a0f1-da70d440e9b4","system_id":"levelo_inurba_marseille","lat":43.29898,"lon":5.43671,"is_reserved":false,"is_disabled":false,"rental_uris":{"android":"levelo://app?vid=9ef76943-592f-4d3b-a0f1-da70d440e9b4","ios":"levelo://app?vid=9ef76943-592f-4d3b-a0f1-da70d440e9b4"},"vehicle_type_id":"4","last_reported":1731661804,"current_range_meters":24400,"station_id":"ce4bhpp2rcd13ifvqhfg","pricing_plan_id":"cebpf4jnsgd1na2vs0mg"},{"bike_id":"ff9e8fbd-afb5-4332-8f0e-8863372f7ff1","system_id":"levelo_inurba_marseille","lat":43.28156,"lon":5.42641,"is_reserved":false,"is_disabled":false,"rental_uris":{"android":"levelo://app?vid=ff9e8fbd-afb5-4332-8f0e-8863372f7ff1","ios":"levelo://app?vid=ff9e8fbd-afb5-4332-8f0e-8863372f7ff1"},"vehicle_type_id":"4","last_reported":1731661804,"current_range_meters":17200,"station_id":"ce4bhnh2rcd13ifvqgug","pricing_plan_id":"cebpf4jnsgd1na2vs0mg"},{"bike_id":"8c5074af-8d27-44b6-b447-aae99cf06d34","system_id":"levelo_inurba_marseille","lat":43.27996,"lon":5.41662,"is_reserved":false,"is_disabled":false,"rental_uris":{"android":"levelo://app?vid=8c5074af-8d27-44b6-b447-aae99cf06d34","ios":"levelo://app?vid=8c5074af-8d27-44b6-b447-aae99cf06d34"},"vehicle_type_id":"4","last_reported":1731661804,"current_range_meters":36000,"station_id":"ce4bho12rcd13ifvqh1g","pricing_plan_id":"cebpf4jnsgd1na2vs0mg"},{"bike_id":"d9e695fc-913d-4089-90d1-0b4ac35f153c","system_id":"levelo_inurba_marseille","lat":43.27495,"lon":5.42445,"is_reserved":false,"is_disabled":false,"rental_uris":{"android":"levelo://app?vid=d9e695fc-913d-4089-90d1-0b4ac35f153c","ios":"levelo://app?vid=d9e695fc-913d-4089-90d1-0b4ac35f153c"},"vehicle_type_id":"4","last_reported":1731661804,"current_range_meters":37600,"station_id":"ce4bhn92rcd13ifvqgrg","pricing_plan_id":"cebpf4jnsgd1na2vs0mg"},{"bike_id":"abc6a11f-01d3-4db2-8b33-52e2ca7e3242","system_id":"levelo_inurba_marseille","lat":43.30459,"lon":5.37895,"is_reserved":false,"is_disabled":false,"rental_uris":{"android":"levelo://app?vid=abc6a11f-01d3-4db2-8b33-52e2ca7e3242","ios":"levelo://app?vid=abc6a11f-01d3-4db2-8b33-52e2ca7e3242"},"vehicle_type_id":"4","last_reported":1731661804,"current_range_meters":30000,"station_id":"ce4bgup2rcd13ifvqcn0","pricing_plan_id":"cebpf4jnsgd1na2vs0mg"},{"bike_id":"c81b8ac9-0ddb-40e4-88ae-5acc9e4f69dd","system_id":"levelo_inurba_marseille","lat":43.30087,"lon":5.39075,"is_reserved":false,"is_disabled":false,"rental_uris":{"android":"levelo://app?vid=c81b8ac9-0ddb-40e4-88ae-5acc9e4f69dd","ios":"levelo://app?vid=c81b8ac9-0ddb-40e4-88ae-5acc9e4f69dd"},"vehicle_type_id":"4","last_reported":1731661804,"current_range_meters":32400,"station_id":"ce4bh192rcd13ifvqdb0","pricing_plan_id":"cebpf4jnsgd1na2vs0mg"},{"bike_id":"354f040a-9ab6-488a-9d26-4c39ec3baaa7","system_id":"levelo_inurba_marseille","lat":43.23208,"lon":5.35558,"is_reserved":false,"is_disabled":false,"rental_uris":{"android":"levelo://app?vid=354f040a-9ab6-488a-9d26-4c39ec3baaa7","ios":"levelo://app?vid=354f040a-9ab6-488a-9d26-4c39ec3baaa7"},"vehicle_type_id":"4","last_reported":1731661804,"current_range_meters":38800,"station_id":"ce4bhu92rcd13ifvqi70","pricing_plan_id":"cebpf4jnsgd1na2vs0mg"},{"bike_id":"8cb2b79d-4663-4fa0-8232-a96c323a9959","system_id":"levelo_inurba_marseille","lat":43.25499,"lon":5.37649,"is_reserved":false,"is_disabled":false,"rental_uris":{"android":"levelo://app?vid=8cb2b79d-4663-4fa0-8232-a96c323a9959","ios":"levelo://app?vid=8cb2b79d-4663-4fa0-8232-a96c323a9959"},"vehicle_type_id":"4","last_reported":1731661804,"current_range_meters":37600,"station_id":"ce4bhh12rcd13ifvqff0","pricing_plan_id":"cebpf4jnsgd1na2vs0mg"},{"bike_id":"6ae7bea2-e357-4478-a0f9-74c3626f2f01","system_id":"levelo_inurba_marseille","lat":43.30179,"lon":5.3661,"is_reserved":false,"is_disabled":false,"rental_uris":{"android":"levelo://app?vid=6ae7bea2-e357-4478-a0f9-74c3626f2f01","ios":"levelo://app?vid=6ae7bea2-e357-4478-a0f9-74c3626f2f01"},"vehicle_type_id":"4","last_reported":1731661804,"current_range_meters":6800,"station_id":"ce4bgrh2rcd13ifvqc8g","pricing_plan_id":"cebpf4jnsgd1na2vs0mg"},{"bike_id":"6c6197b3-07d1-4225-a3b8-efd5a300d58a","system_id":"levelo_inurba_marseille","lat":43.24081,"lon":5.3774,"is_reserved":false,"is_disabled":false,"rental_uris":{"android":"levelo://app?vid=6c6197b3-07d1-4225-a3b8-efd5a300d58a","ios":"levelo://app?vid=6c6197b3-07d1-4225-a3b8-efd5a300d58a"},"vehicle_type_id":"4","last_reported":1731661804,"current_range_meters":13600,"station_id":"ce4bhnp2rcd13ifvqgvg","pricing_plan_id":"cebpf4jnsgd1na2vs0mg"},{"bike_id":"d7939f0a-fb48-49b4-8d16-59d70ebaf709","system_id":"levelo_inurba_marseille","lat":43.24084,"lon":5.3774,"is_reserved":false,"is_disabled":false,"rental_uris":{"android":"levelo://app?vid=d7939f0a-fb48-49b4-8d16-59d70ebaf709","ios":"levelo://app?vid=d7939f0a-fb48-49b4-8d16-59d70ebaf709"},"vehicle_type_id":"4","last_reported":1731661804,"current_range_meters":37600,"station_id":"ce4bhnp2rcd13ifvqgvg","pricing_plan_id":"cebpf4jnsgd1na2vs0mg"},{"bike_id":"4a74f469-1d99-48ee-a8ca-9199898c00a4","system_id":"levelo_inurba_marseille","lat":43.23197,"lon":5.35544,"is_reserved":false,"is_disabled":false,"rental_uris":{"android":"levelo://app?vid=4a74f469-1d99-48ee-a8ca-9199898c00a4","ios":"levelo://app?vid=4a74f469-1d99-48ee-a8ca-9199898c00a4"},"vehicle_type_id":"4","last_reported":1731661804,"current_range_meters":16400,"station_id":"ce4bhu92rcd13ifvqi70","pricing_plan_id":"cebpf4jnsgd1na2vs0mg"},{"bike_id":"f1237c76-3739-45d2-bc41-08ab56ce718a","system_id":"levelo_inurba_marseille","lat":43.30907,"lon":5.36853,"is_reserved":false,"is_disabled":false,"rental_uris":{"android":"levelo://app?vid=f1237c76-3739-45d2-bc41-08ab56ce718a","ios":"levelo://app?vid=f1237c76-3739-45d2-bc41-08ab56ce718a"},"vehicle_type_id":"4","last_reported":1731661804,"current_range_meters":20000,"station_id":"ce4bgn92rcd13ifvqbvg","pricing_plan_id":"cebpf4jnsgd1na2vs0mg"},{"bike_id":"491fec14-8f92-4488-8598-12489effaf4e","system_id":"levelo_inurba_marseille","lat":43.28728,"lon":5.37938,"is_reserved":false,"is_disabled":false,"rental_uris":{"android":"levelo://app?vid=491fec14-8f92-4488-8598-12489effaf4e","ios":"levelo://app?vid=491fec14-8f92-4488-8598-12489effaf4e"},"vehicle_type_id":"4","last_reported":1731661804,"current_range_meters":35600,"station_id":"ce4bh9p2rcd13ifvqec0","pricing_plan_id":"cebpf4jnsgd1na2vs0mg"},{"bike_id":"5a9487f5-1f4a-4526-91df-278697abb58b","system_id":"levelo_inurba_marseille","lat":43.28154,"lon":5.42646,"is_reserved":false,"is_disabled":false,"rental_uris":{"android":"levelo://app?vid=5a9487f5-1f4a-4526-91df-278697abb58b","ios":"levelo://app?vid=5a9487f5-1f4a-4526-91df-278697abb58b"},"vehicle_type_id":"4","last_reported":1731661804,"current_range_meters":20000,"station_id":"ce4bhnh2rcd13ifvqgug","pricing_plan_id":"cebpf4jnsgd1na2vs0mg"},{"bike_id":"e525fdd4-9deb-41b3-bc2a-f8ad4beccbae","system_id":"levelo_inurba_marseille","lat":43.28941,"lon":5.39632,"is_reserved":false,"is_disabled":false,"rental_uris":{"android":"levelo://app?vid=e525fdd4-9deb-41b3-bc2a-f8ad4beccbae","ios":"levelo://app?vid=e525fdd4-9deb-41b3-bc2a-f8ad4beccbae"},"vehicle_type_id":"4","last_reported":1731661804,"current_range_meters":32400,"station_id":"ce4bh3h2rcd13ifvqdn0","pricing_plan_id":"cebpf4jnsgd1na2vs0mg"},{"bike_id":"ac9ff0e2-0c2f-4cb0-8b16-0d7bb3087fdf","system_id":"levelo_inurba_marseille","lat":43.26949,"lon":5.38647,"is_reserved":false,"is_disabled":false,"rental_uris":{"android":"levelo://app?vid=ac9ff0e2-0c2f-4cb0-8b16-0d7bb3087fdf","ios":"levelo://app?vid=ac9ff0e2-0c2f-4cb0-8b16-0d7bb3087fdf"},"vehicle_type_id":"4","last_reported":1731661804,"current_range_meters":38800,"station_id":"ce4bhh92rcd13ifvqfh0","pricing_plan_id":"cebpf4jnsgd1na2vs0mg"},{"bike_id":"e510c3b1-7618-4e42-834a-ce2d94ac964d","system_id":"levelo_inurba_marseille","lat":43.31229,"lon":5.36857,"is_reserved":false,"is_disabled":false,"rental_uris":{"android":"levelo://app?vid=e510c3b1-7618-4e42-834a-ce2d94ac964d","ios":"levelo://app?vid=e510c3b1-7618-4e42-834a-ce2d94ac964d"},"vehicle_type_id":"4","last_reported":1731661804,"current_range_meters":38000,"station_id":"ce4bgl92rcd13ifvqbq0","pricing_plan_id":"cebpf4jnsgd1na2vs0mg"},{"bike_id":"148b0530-2dbd-4aba-a22a-d0ffd4bd08f1","system_id":"levelo_inurba_marseille","lat":43.30465,"lon":5.37906,"is_reserved":false,"is_disabled":false,"rental_uris":{"android":"levelo://app?vid=148b0530-2dbd-4aba-a22a-d0ffd4bd08f1","ios":"levelo://app?vid=148b0530-2dbd-4aba-a22a-d0ffd4bd08f1"},"vehicle_type_id":"4","last_reported":1731661804,"current_range_meters":16400,"station_id":"ce4bgup2rcd13ifvqcn0","pricing_plan_id":"cebpf4jnsgd1na2vs0mg"},{"bike_id":"34894f31-0d58-4b99-bedf-fbccfa834d04","system_id":"levelo_inurba_marseille","lat":43.24086,"lon":5.37741,"is_reserved":false,"is_disabled":false,"rental_uris":{"android":"levelo://app?vid=34894f31-0d58-4b99-bedf-fbccfa834d04","ios":"levelo://app?vid=34894f31-0d58-4b99-bedf-fbccfa834d04"},"vehicle_type_id":"4","last_reported":1731661804,"current_range_meters":36000,"station_id":"ce4bhnp2rcd13ifvqgvg","pricing_plan_id":"cebpf4jnsgd1na2vs0mg"},{"bike_id":"3aaa4cc0-6899-460a-bfd2-e9a72c9f354d","system_id":"levelo_inurba_marseille","lat":43.29901,"lon":5.37469,"is_reserved":false,"is_disabled":false,"rental_uris":{"android":"levelo://app?vid=3aaa4cc0-6899-460a-bfd2-e9a72c9f354d","ios":"levelo://app?vid=3aaa4cc0-6899-460a-bfd2-e9a72c9f354d"},"vehicle_type_id":"4","last_reported":1731661804,"current_range_meters":26800,"station_id":"ce4bgjh2rcd13ifvqbf0","pricing_plan_id":"cebpf4jnsgd1na2vs0mg"},{"bike_id":"eaea8bc1-645d-49af-aff3-3cd4e2c04cee","system_id":"levelo_inurba_marseille","lat":43.25861,"lon":5.39905,"is_reserved":false,"is_disabled":false,"rental_uris":{"android":"levelo://app?vid=eaea8bc1-645d-49af-aff3-3cd4e2c04cee","ios":"levelo://app?vid=eaea8bc1-645d-49af-aff3-3cd4e2c04cee"},"vehicle_type_id":"4","last_reported":1731661804,"current_range_meters":38800,"station_id":"ce4bhl92rcd13ifvqghg","pricing_plan_id":"cebpf4jnsgd1na2vs0mg"},{"bike_id":"2ae6920c-4ffb-42c3-9deb-98164a44fd58","system_id":"levelo_inurba_marseille","lat":43.31498,"lon":5.37305,"is_reserved":false,"is_disabled":false,"rental_uris":{"android":"levelo://app?vid=2ae6920c-4ffb-42c3-9deb-98164a44fd58","ios":"levelo://app?vid=2ae6920c-4ffb-42c3-9deb-98164a44fd58"},"vehicle_type_id":"4","last_reported":1731661804,"current_range_meters":27600,"station_id":"ce4bgt12rcd13ifvqcd0","pricing_plan_id":"cebpf4jnsgd1na2vs0mg"},{"bike_id":"29da23e5-7829-4e08-946f-9b695f56e469","system_id":"levelo_inurba_marseille","lat":43.25937,"lon":5.40906,"is_reserved":false,"is_disabled":false,"rental_uris":{"android":"levelo://app?vid=29da23e5-7829-4e08-946f-9b695f56e469","ios":"levelo://app?vid=29da23e5-7829-4e08-946f-9b695f56e469"},"vehicle_type_id":"4","last_reported":1731661804,"current_range_meters":25600,"station_id":"ce4bhm92rcd13ifvqglg","pricing_plan_id":"cebpf4jnsgd1na2vs0mg"},{"bike_id":"01178768-ca9d-437f-897f-0c33982d99d5","system_id":"levelo_inurba_marseille","lat":43.30137,"lon":5.37426,"is_reserved":false,"is_disabled":false,"rental_uris":{"android":"levelo://app?vid=01178768-ca9d-437f-897f-0c33982d99d5","ios":"levelo://app?vid=01178768-ca9d-437f-897f-0c33982d99d5"},"vehicle_type_id":"4","last_reported":1731661804,"current_range_meters":27600,"station_id":"ce4bgs92rcd13ifvqcc0","pricing_plan_id":"cebpf4jnsgd1na2vs0mg"},{"bike_id":"035cc09f-5965-49b7-ba42-6ddf5ce96b29","system_id":"levelo_inurba_marseille","lat":43.29839,"lon":5.36265,"is_reserved":false,"is_disabled":false,"rental_uris":{"android":"levelo://app?vid=035cc09f-5965-49b7-ba42-6ddf5ce96b29","ios":"levelo://app?vid=035cc09f-5965-49b7-ba42-6ddf5ce96b29"},"vehicle_type_id":"4","last_reported":1731661804,"current_range_meters":38800,"station_id":"ce4bgpp2rcd13ifvqc3g","pricing_plan_id":"cebpf4jnsgd1na2vs0mg"},{"bike_id":"8952161e-ca98-4ae9-960a-2b69d6f9f38e","system_id":"levelo_inurba_marseille","lat":43.34148,"lon":5.40905,"is_reserved":false,"is_disabled":false,"rental_uris":{"android":"levelo://app?vid=8952161e-ca98-4ae9-960a-2b69d6f9f38e","ios":"levelo://app?vid=8952161e-ca98-4ae9-960a-2b69d6f9f38e"},"vehicle_type_id":"4","last_reported":1731661804,"current_range_meters":36400,"station_id":"ce4bhqh2rcd13ifvqhlg","pricing_plan_id":"cebpf4jnsgd1na2vs0mg"},{"bike_id":"0dd5c336-8bf7-409f-a046-4f44d557e694","system_id":"levelo_inurba_marseille","lat":43.337243,"lon":5.391803,"is_reserved":false,"is_disabled":false,"rental_uris":{"android":"levelo://app?vid=0dd5c336-8bf7-409f-a046-4f44d557e694","ios":"levelo://app?vid=0dd5c336-8bf7-409f-a046-4f44d557e694"},"vehicle_type_id":"4","last_reported":1731661804,"current_range_meters":28800,"station_id":"ce4bhr92rcd13ifvqhsg","pricing_plan_id":"cebpf4jnsgd1na2vs0mg"},{"bike_id":"fa72eb15-f7eb-4a38-971b-148c4a6a30f3","system_id":"levelo_inurba_marseille","lat":43.27069,"lon":5.42276,"is_reserved":false,"is_disabled":false,"rental_uris":{"android":"levelo://app?vid=fa72eb15-f7eb-4a38-971b-148c4a6a30f3","ios":"levelo://app?vid=fa72eb15-f7eb-4a38-971b-148c4a6a30f3"},"vehicle_type_id":"4","last_reported":1731661804,"current_range_meters":30800,"station_id":"ce4bhk92rcd13ifvqgb0","pricing_plan_id":"cebpf4jnsgd1na2vs0mg"},{"bike_id":"e31bbb8e-c85d-41f4-b6b3-10d1aa98a957","system_id":"levelo_inurba_marseille","lat":43.282715,"lon":5.350777,"is_reserved":false,"is_disabled":false,"rental_uris":{"android":"levelo://app?vid=e31bbb8e-c85d-41f4-b6b3-10d1aa98a957","ios":"levelo://app?vid=e31bbb8e-c85d-41f4-b6b3-10d1aa98a957"},"vehicle_type_id":"4","last_reported":1731661804,"current_range_meters":34800,"station_id":"ce4bhbp2rcd13ifvqerg","pricing_plan_id":"cebpf4jnsgd1na2vs0mg"},{"bike_id":"a6dcc830-39bc-4857-934b-df62e8ea4f60","system_id":"levelo_inurba_marseille","lat":43.2559,"lon":5.3823,"is_reserved":false,"is_disabled":false,"rental_uris":{"android":"levelo://app?vid=a6dcc830-39bc-4857-934b-df62e8ea4f60","ios":"levelo://app?vid=a6dcc830-39bc-4857-934b-df62e8ea4f60"},"vehicle_type_id":"4","last_reported":1731661804,"current_range_meters":39200,"station_id":"ce4bhih2rcd13ifvqfs0","pricing_plan_id":"cebpf4jnsgd1na2vs0mg"},{"bike_id":"631284bc-ca79-4566-a19e-c81968ea3fef","system_id":"levelo_inurba_marseille","lat":43.26691,"lon":5.38274,"is_reserved":false,"is_disabled":false,"rental_uris":{"android":"levelo://app?vid=631284bc-ca79-4566-a19e-c81968ea3fef","ios":"levelo://app?vid=631284bc-ca79-4566-a19e-c81968ea3fef"},"vehicle_type_id":"4","last_reported":1731661804,"current_range_meters":30400,"station_id":"ce4bhg92rcd13ifvqf90","pricing_plan_id":"cebpf4jnsgd1na2vs0mg"},{"bike_id":"7857af21-8d4b-431a-a0af-a6cbd0cfd56f","system_id":"levelo_inurba_marseille","lat":43.31228,"lon":5.36857,"is_reserved":false,"is_disabled":false,"rental_uris":{"android":"levelo://app?vid=7857af21-8d4b-431a-a0af-a6cbd0cfd56f","ios":"levelo://app?vid=7857af21-8d4b-431a-a0af-a6cbd0cfd56f"},"vehicle_type_id":"4","last_reported":1731661804,"current_range_meters":8400,"station_id":"ce4bgl92rcd13ifvqbq0","pricing_plan_id":"cebpf4jnsgd1na2vs0mg"},{"bike_id":"913a4160-2863-4466-8491-0f2d64cb513c","system_id":"levelo_inurba_marseille","lat":43.28152,"lon":5.42639,"is_reserved":false,"is_disabled":false,"rental_uris":{"android":"levelo://app?vid=913a4160-2863-4466-8491-0f2d64cb513c","ios":"levelo://app?vid=913a4160-2863-4466-8491-0f2d64cb513c"},"vehicle_type_id":"4","last_reported":1731661804,"current_range_meters":36800,"station_id":"ce4bhnh2rcd13ifvqgug","pricing_plan_id":"cebpf4jnsgd1na2vs0mg"},{"bike_id":"0c0f3be5-540e-491b-8ee2-b348ea3e2763","system_id":"levelo_inurba_marseille","lat":43.297842,"lon":5.403687,"is_reserved":false,"is_disabled":false,"rental_uris":{"android":"levelo://app?vid=0c0f3be5-540e-491b-8ee2-b348ea3e2763","ios":"levelo://app?vid=0c0f3be5-540e-491b-8ee2-b348ea3e2763"},"vehicle_type_id":"4","last_reported":1731661804,"current_range_meters":27200,"station_id":"ce4bh112rcd13ifvqd90","pricing_plan_id":"cebpf4jnsgd1na2vs0mg"},{"bike_id":"2d3f515c-b961-4e48-8fcb-07861c92a5b6","system_id":"levelo_inurba_marseille","lat":43.30543,"lon":5.36548,"is_reserved":false,"is_disabled":false,"rental_uris":{"android":"levelo://app?vid=2d3f515c-b961-4e48-8fcb-07861c92a5b6","ios":"levelo://app?vid=2d3f515c-b961-4e48-8fcb-07861c92a5b6"},"vehicle_type_id":"4","last_reported":1731661804,"current_range_meters":6000,"station_id":"ce4bgs12rcd13ifvqcag","pricing_plan_id":"cebpf4jnsgd1na2vs0mg"},{"bike_id":"1d462b25-0ee3-472f-bfe8-421b37804482","system_id":"levelo_inurba_marseille","lat":43.33611,"lon":5.41027,"is_reserved":false,"is_disabled":false,"rental_uris":{"android":"levelo://app?vid=1d462b25-0ee3-472f-bfe8-421b37804482","ios":"levelo://app?vid=1d462b25-0ee3-472f-bfe8-421b37804482"},"vehicle_type_id":"4","last_reported":1731661804,"current_range_meters":8400,"station_id":"ce4bhqh2rcd13ifvqhmg","pricing_plan_id":"cebpf4jnsgd1na2vs0mg"},{"bike_id":"479e282c-6a76-4428-8089-41607fc5fd13","system_id":"levelo_inurba_marseille","lat":43.23949,"lon":5.36636,"is_reserved":false,"is_disabled":false,"rental_uris":{"android":"levelo://app?vid=479e282c-6a76-4428-8089-41607fc5fd13","ios":"levelo://app?vid=479e282c-6a76-4428-8089-41607fc5fd13"},"vehicle_type_id":"4","last_reported":1731661804,"current_range_meters":20400,"station_id":"ce4bhi12rcd13ifvqfp0","pricing_plan_id":"cebpf4jnsgd1na2vs0mg"},{"bike_id":"b5814410-ea66-4587-8f8a-c2be81abbfab","system_id":"levelo_inurba_marseille","lat":43.30148,"lon":5.37415,"is_reserved":false,"is_disabled":false,"rental_uris":{"android":"levelo://app?vid=b5814410-ea66-4587-8f8a-c2be81abbfab","ios":"levelo://app?vid=b5814410-ea66-4587-8f8a-c2be81abbfab"},"vehicle_type_id":"4","last_reported":1731661804,"current_range_meters":38800,"station_id":"ce4bgs92rcd13ifvqcc0","pricing_plan_id":"cebpf4jnsgd1na2vs0mg"},{"bike_id":"675fe710-f9e5-46cf-95f1-88cbcbaf9606","system_id":"levelo_inurba_marseille","lat":43.28153,"lon":5.42648,"is_reserved":false,"is_disabled":false,"rental_uris":{"android":"levelo://app?vid=675fe710-f9e5-46cf-95f1-88cbcbaf9606","ios":"levelo://app?vid=675fe710-f9e5-46cf-95f1-88cbcbaf9606"},"vehicle_type_id":"4","last_reported":1731661804,"current_range_meters":26800,"station_id":"ce4bhnh2rcd13ifvqgug","pricing_plan_id":"cebpf4jnsgd1na2vs0mg"},{"bike_id":"6605d477-88c9-46cf-a1a0-5328d877191a","system_id":"levelo_inurba_marseille","lat":43.29848,"lon":5.36271,"is_reserved":false,"is_disabled":false,"rental_uris":{"android":"levelo://app?vid=6605d477-88c9-46cf-a1a0-5328d877191a","ios":"levelo://app?vid=6605d477-88c9-46cf-a1a0-5328d877191a"},"vehicle_type_id":"4","last_reported":1731661804,"current_range_meters":38400,"station_id":"ce4bgpp2rcd13ifvqc3g","pricing_plan_id":"cebpf4jnsgd1na2vs0mg"},{"bike_id":"257f7189-4b31-40f1-87bc-7bd909f0a980","system_id":"levelo_inurba_marseille","lat":43.24551,"lon":5.39518,"is_reserved":false,"is_disabled":false,"rental_uris":{"android":"levelo://app?vid=257f7189-4b31-40f1-87bc-7bd909f0a980","ios":"levelo://app?vid=257f7189-4b31-40f1-87bc-7bd909f0a980"},"vehicle_type_id":"4","last_reported":1731661804,"current_range_meters":2800,"station_id":"ce4bhlp2rcd13ifvqgjg","pricing_plan_id":"cebpf4jnsgd1na2vs0mg"},{"bike_id":"e9ddeabe-3a0d-4a3b-904c-9105182d741a","system_id":"levelo_inurba_marseille","lat":43.25826,"lon":5.39436,"is_reserved":false,"is_disabled":false,"rental_uris":{"android":"levelo://app?vid=e9ddeabe-3a0d-4a3b-904c-9105182d741a","ios":"levelo://app?vid=e9ddeabe-3a0d-4a3b-904c-9105182d741a"},"vehicle_type_id":"4","last_reported":1731661804,"current_range_meters":22000,"station_id":"ce4bhip2rcd13ifvqft0","pricing_plan_id":"cebpf4jnsgd1na2vs0mg"},{"bike_id":"f05e8216-6180-4cd1-8763-310c80525794","system_id":"levelo_inurba_marseille","lat":43.2768,"lon":5.38886,"is_reserved":false,"is_disabled":false,"rental_uris":{"android":"levelo://app?vid=f05e8216-6180-4cd1-8763-310c80525794","ios":"levelo://app?vid=f05e8216-6180-4cd1-8763-310c80525794"},"vehicle_type_id":"4","last_reported":1731661804,"current_range_meters":24800,"station_id":"ce4bhi12rcd13ifvqfo0","pricing_plan_id":"cebpf4jnsgd1na2vs0mg"},{"bike_id":"43da6cda-e917-45fb-8057-6df6961ab9cb","system_id":"levelo_inurba_marseille","lat":43.24075,"lon":5.3775,"is_reserved":false,"is_disabled":false,"rental_uris":{"android":"levelo://app?vid=43da6cda-e917-45fb-8057-6df6961ab9cb","ios":"levelo://app?vid=43da6cda-e917-45fb-8057-6df6961ab9cb"},"vehicle_type_id":"4","last_reported":1731661804,"current_range_meters":35200,"station_id":"ce4bhnp2rcd13ifvqgvg","pricing_plan_id":"cebpf4jnsgd1na2vs0mg"},{"bike_id":"07df475b-d157-464e-bedb-1c5e4a7dc0d6","system_id":"levelo_inurba_marseille","lat":43.279925,"lon":5.416475,"is_reserved":false,"is_disabled":false,"rental_uris":{"android":"levelo://app?vid=07df475b-d157-464e-bedb-1c5e4a7dc0d6","ios":"levelo://app?vid=07df475b-d157-464e-bedb-1c5e4a7dc0d6"},"vehicle_type_id":"4","last_reported":1731661804,"current_range_meters":23200,"station_id":"ce4bho12rcd13ifvqh1g","pricing_plan_id":"cebpf4jnsgd1na2vs0mg"},{"bike_id":"3a89ec44-1c0c-4589-9cdf-fedc997f57ba","system_id":"levelo_inurba_marseille","lat":43.26952,"lon":5.3862,"is_reserved":false,"is_disabled":false,"rental_uris":{"android":"levelo://app?vid=3a89ec44-1c0c-4589-9cdf-fedc997f57ba","ios":"levelo://app?vid=3a89ec44-1c0c-4589-9cdf-fedc997f57ba"},"vehicle_type_id":"4","last_reported":1731661804,"current_range_meters":20400,"station_id":"ce4bhh92rcd13ifvqfh0","pricing_plan_id":"cebpf4jnsgd1na2vs0mg"},{"bike_id":"7402a632-4676-4128-9a59-5b10fee19ab3","system_id":"levelo_inurba_marseille","lat":43.268528,"lon":5.393734,"is_reserved":false,"is_disabled":false,"rental_uris":{"android":"levelo://app?vid=7402a632-4676-4128-9a59-5b10fee19ab3","ios":"levelo://app?vid=7402a632-4676-4128-9a59-5b10fee19ab3"},"vehicle_type_id":"4","last_reported":1731661804,"current_range_meters":8800,"station_id":"ce4bhh12rcd13ifvqfg0","pricing_plan_id":"cebpf4jnsgd1na2vs0mg"},{"bike_id":"103d474b-1417-48c6-95ae-80e20088963e","system_id":"levelo_inurba_marseille","lat":43.30536,"lon":5.36543,"is_reserved":false,"is_disabled":false,"rental_uris":{"android":"levelo://app?vid=103d474b-1417-48c6-95ae-80e20088963e","ios":"levelo://app?vid=103d474b-1417-48c6-95ae-80e20088963e"},"vehicle_type_id":"4","last_reported":1731661804,"current_range_meters":36800,"station_id":"ce4bgs12rcd13ifvqcag","pricing_plan_id":"cebpf4jnsgd1na2vs0mg"},{"bike_id":"d99bff46-e3e0-4c25-9719-3fa3dd9a1a6e","system_id":"levelo_inurba_marseille","lat":43.31874,"lon":5.37364,"is_reserved":false,"is_disabled":false,"rental_uris":{"android":"levelo://app?vid=d99bff46-e3e0-4c25-9719-3fa3dd9a1a6e","ios":"levelo://app?vid=d99bff46-e3e0-4c25-9719-3fa3dd9a1a6e"},"vehicle_type_id":"4","last_reported":1731661804,"current_range_meters":20000,"station_id":"","pricing_plan_id":"cebpf4jnsgd1na2vs0mg"},{"bike_id":"f86a601e-26e3-440e-a7e5-894f75bad9f4","system_id":"levelo_inurba_marseille","lat":43.337444,"lon":5.374475,"is_reserved":false,"is_disabled":false,"rental_uris":{"android":"levelo://app?vid=f86a601e-26e3-440e-a7e5-894f75bad9f4","ios":"levelo://app?vid=f86a601e-26e3-440e-a7e5-894f75bad9f4"},"vehicle_type_id":"4","last_reported":1731661804,"current_range_meters":24000,"station_id":"","pricing_plan_id":"cebpf4jnsgd1na2vs0mg"},{"bike_id":"b6186cf4-f08f-43b0-9ae4-28dba67d15b0","system_id":"levelo_inurba_marseille","lat":43.24072,"lon":5.37759,"is_reserved":false,"is_disabled":false,"rental_uris":{"android":"levelo://app?vid=b6186cf4-f08f-43b0-9ae4-28dba67d15b0","ios":"levelo://app?vid=b6186cf4-f08f-43b0-9ae4-28dba67d15b0"},"vehicle_type_id":"4","last_reported":1731661804,"current_range_meters":21600,"station_id":"ce4bhnp2rcd13ifvqgvg","pricing_plan_id":"cebpf4jnsgd1na2vs0mg"},{"bike_id":"85b53427-d19a-4c23-9a60-760294c6f564","system_id":"levelo_inurba_marseille","lat":43.30191,"lon":5.36612,"is_reserved":false,"is_disabled":false,"rental_uris":{"android":"levelo://app?vid=85b53427-d19a-4c23-9a60-760294c6f564","ios":"levelo://app?vid=85b53427-d19a-4c23-9a60-760294c6f564"},"vehicle_type_id":"4","last_reported":1731661804,"current_range_meters":38800,"station_id":"ce4bgrh2rcd13ifvqc8g","pricing_plan_id":"cebpf4jnsgd1na2vs0mg"},{"bike_id":"30aa79f1-0668-46be-86d8-f310708ee696","system_id":"levelo_inurba_marseille","lat":43.32543,"lon":5.41439,"is_reserved":false,"is_disabled":false,"rental_uris":{"android":"levelo://app?vid=30aa79f1-0668-46be-86d8-f310708ee696","ios":"levelo://app?vid=30aa79f1-0668-46be-86d8-f310708ee696"},"vehicle_type_id":"4","last_reported":1731661804,"current_range_meters":35600,"station_id":"ce4bhq12rcd13ifvqhhg","pricing_plan_id":"cebpf4jnsgd1na2vs0mg"},{"bike_id":"72eb2802-ab3f-4b36-a3a0-e77669001fd9","system_id":"levelo_inurba_marseille","lat":43.254125,"lon":5.376354,"is_reserved":false,"is_disabled":false,"rental_uris":{"android":"levelo://app?vid=72eb2802-ab3f-4b36-a3a0-e77669001fd9","ios":"levelo://app?vid=72eb2802-ab3f-4b36-a3a0-e77669001fd9"},"vehicle_type_id":"4","last_reported":1731661804,"current_range_meters":11600,"station_id":"ce4bhh12rcd13ifvqff0","pricing_plan_id":"cebpf4jnsgd1na2vs0mg"},{"bike_id":"4a8ed5b0-4e4b-4951-a226-d3fea4f209e8","system_id":"levelo_inurba_marseille","lat":43.24075,"lon":5.37762,"is_reserved":false,"is_disabled":false,"rental_uris":{"android":"levelo://app?vid=4a8ed5b0-4e4b-4951-a226-d3fea4f209e8","ios":"levelo://app?vid=4a8ed5b0-4e4b-4951-a226-d3fea4f209e8"},"vehicle_type_id":"4","last_reported":1731661804,"current_range_meters":17600,"station_id":"ce4bhnp2rcd13ifvqgvg","pricing_plan_id":"cebpf4jnsgd1na2vs0mg"},{"bike_id":"4d17b279-3648-4880-b759-a01b383ad6b1","system_id":"levelo_inurba_marseille","lat":43.30321,"lon":5.3689,"is_reserved":false,"is_disabled":false,"rental_uris":{"android":"levelo://app?vid=4d17b279-3648-4880-b759-a01b383ad6b1","ios":"levelo://app?vid=4d17b279-3648-4880-b759-a01b383ad6b1"},"vehicle_type_id":"4","last_reported":1731661804,"current_range_meters":33600,"station_id":"ce4bgqh2rcd13ifvqc5g","pricing_plan_id":"cebpf4jnsgd1na2vs0mg"},{"bike_id":"c76b20a2-30b7-4996-b421-0735c3390b80","system_id":"levelo_inurba_marseille","lat":43.3018,"lon":5.36609,"is_reserved":false,"is_disabled":false,"rental_uris":{"android":"levelo://app?vid=c76b20a2-30b7-4996-b421-0735c3390b80","ios":"levelo://app?vid=c76b20a2-30b7-4996-b421-0735c3390b80"},"vehicle_type_id":"4","last_reported":1731661804,"current_range_meters":12800,"station_id":"ce4bgrh2rcd13ifvqc8g","pricing_plan_id":"cebpf4jnsgd1na2vs0mg"},{"bike_id":"e64c30be-7617-4e90-99a6-476cbaac4e2f","system_id":"levelo_inurba_marseille","lat":43.28733,"lon":5.37932,"is_reserved":false,"is_disabled":false,"rental_uris":{"android":"levelo://app?vid=e64c30be-7617-4e90-99a6-476cbaac4e2f","ios":"levelo://app?vid=e64c30be-7617-4e90-99a6-476cbaac4e2f"},"vehicle_type_id":"4","last_reported":1731661804,"current_range_meters":30400,"station_id":"ce4bh9p2rcd13ifvqec0","pricing_plan_id":"cebpf4jnsgd1na2vs0mg"},{"bike_id":"030c22c0-17c5-4fc6-9d20-49a83ce50d5f","system_id":"levelo_inurba_marseille","lat":43.2315,"lon":5.43711,"is_reserved":false,"is_disabled":false,"rental_uris":{"android":"levelo://app?vid=030c22c0-17c5-4fc6-9d20-49a83ce50d5f","ios":"levelo://app?vid=030c22c0-17c5-4fc6-9d20-49a83ce50d5f"},"vehicle_type_id":"4","last_reported":1731661804,"current_range_meters":8000,"station_id":"ce4bhmp2rcd13ifvqgog","pricing_plan_id":"cebpf4jnsgd1na2vs0mg"},{"bike_id":"77fed747-2cb1-4ebc-969e-6d965968535b","system_id":"levelo_inurba_marseille","lat":43.26786,"lon":5.39409,"is_reserved":false,"is_disabled":false,"rental_uris":{"android":"levelo://app?vid=77fed747-2cb1-4ebc-969e-6d965968535b","ios":"levelo://app?vid=77fed747-2cb1-4ebc-969e-6d965968535b"},"vehicle_type_id":"4","last_reported":1731661804,"current_range_meters":30400,"station_id":"ce4bhh12rcd13ifvqfg0","pricing_plan_id":"cebpf4jnsgd1na2vs0mg"},{"bike_id":"b33b2f9b-3642-44bf-8698-a9640db3101b","system_id":"levelo_inurba_marseille","lat":43.337444,"lon":5.374475,"is_reserved":false,"is_disabled":false,"rental_uris":{"android":"levelo://app?vid=b33b2f9b-3642-44bf-8698-a9640db3101b","ios":"levelo://app?vid=b33b2f9b-3642-44bf-8698-a9640db3101b"},"vehicle_type_id":"4","last_reported":1731661804,"current_range_meters":34800,"station_id":"","pricing_plan_id":"cebpf4jnsgd1na2vs0mg"},{"bike_id":"f194aaab-021f-449c-991a-be83b9bd6d9f","system_id":"levelo_inurba_marseille","lat":43.31345,"lon":5.36719,"is_reserved":false,"is_disabled":false,"rental_uris":{"android":"levelo://app?vid=f194aaab-021f-449c-991a-be83b9bd6d9f","ios":"levelo://app?vid=f194aaab-021f-449c-991a-be83b9bd6d9f"},"vehicle_type_id":"4","last_reported":1731661804,"current_range_meters":26800,"station_id":"ce4bgr92rcd13ifvqc6g","pricing_plan_id":"cebpf4jnsgd1na2vs0mg"},{"bike_id":"ef9ae1d4-5e8d-49bb-8007-8961ec41f40b","system_id":"levelo_inurba_marseille","lat":43.2749,"lon":5.42462,"is_reserved":false,"is_disabled":false,"rental_uris":{"android":"levelo://app?vid=ef9ae1d4-5e8d-49bb-8007-8961ec41f40b","ios":"levelo://app?vid=ef9ae1d4-5e8d-49bb-8007-8961ec41f40b"},"vehicle_type_id":"4","last_reported":1731661804,"current_range_meters":24000,"station_id":"ce4bhn92rcd13ifvqgrg","pricing_plan_id":"cebpf4jnsgd1na2vs0mg"},{"bike_id":"13eecec5-1f11-4253-ad2f-53a554742d37","system_id":"levelo_inurba_marseille","lat":43.24177,"lon":5.39719,"is_reserved":false,"is_disabled":false,"rental_uris":{"android":"levelo://app?vid=13eecec5-1f11-4253-ad2f-53a554742d37","ios":"levelo://app?vid=13eecec5-1f11-4253-ad2f-53a554742d37"},"vehicle_type_id":"4","last_reported":1731661804,"current_range_meters":7200,"station_id":"ce4bhn12rcd13ifvqgpg","pricing_plan_id":"cebpf4jnsgd1na2vs0mg"},{"bike_id":"9ac599f0-c3db-40c1-b15c-489906c4382b","system_id":"levelo_inurba_marseille","lat":43.24082,"lon":5.3775,"is_reserved":false,"is_disabled":false,"rental_uris":{"android":"levelo://app?vid=9ac599f0-c3db-40c1-b15c-489906c4382b","ios":"levelo://app?vid=9ac599f0-c3db-40c1-b15c-489906c4382b"},"vehicle_type_id":"4","last_reported":1731661804,"current_range_meters":6400,"station_id":"ce4bhnp2rcd13ifvqgvg","pricing_plan_id":"cebpf4jnsgd1na2vs0mg"},{"bike_id":"575ba840-0b84-4763-af4c-f1944900d03f","system_id":"levelo_inurba_marseille","lat":43.29274,"lon":5.36849,"is_reserved":false,"is_disabled":false,"rental_uris":{"android":"levelo://app?vid=575ba840-0b84-4763-af4c-f1944900d03f","ios":"levelo://app?vid=575ba840-0b84-4763-af4c-f1944900d03f"},"vehicle_type_id":"4","last_reported":1731661804,"current_range_meters":27200,"station_id":"ce4bhbp2rcd13ifvqesg","pricing_plan_id":"cebpf4jnsgd1na2vs0mg"},{"bike_id":"b178992f-5a02-4413-a253-ab67b2e40184","system_id":"levelo_inurba_marseille","lat":43.31357,"lon":5.36698,"is_reserved":false,"is_disabled":false,"rental_uris":{"android":"levelo://app?vid=b178992f-5a02-4413-a253-ab67b2e40184","ios":"levelo://app?vid=b178992f-5a02-4413-a253-ab67b2e40184"},"vehicle_type_id":"4","last_reported":1731661804,"current_range_meters":38800,"station_id":"ce4bgr92rcd13ifvqc6g","pricing_plan_id":"cebpf4jnsgd1na2vs0mg"},{"bike_id":"598a0b9b-f4ef-46f9-9d31-ff4f6f1f0418","system_id":"levelo_inurba_marseille","lat":43.2782,"lon":5.40714,"is_reserved":false,"is_disabled":false,"rental_uris":{"android":"levelo://app?vid=598a0b9b-f4ef-46f9-9d31-ff4f6f1f0418","ios":"levelo://app?vid=598a0b9b-f4ef-46f9-9d31-ff4f6f1f0418"},"vehicle_type_id":"4","last_reported":1731661804,"current_range_meters":30800,"station_id":"ce4bhnh2rcd13ifvqgtg","pricing_plan_id":"cebpf4jnsgd1na2vs0mg"},{"bike_id":"89cdbcf3-73e9-4bb3-ac91-e843ea0fd8f2","system_id":"levelo_inurba_marseille","lat":43.30951,"lon":5.39036,"is_reserved":false,"is_disabled":false,"rental_uris":{"android":"levelo://app?vid=89cdbcf3-73e9-4bb3-ac91-e843ea0fd8f2","ios":"levelo://app?vid=89cdbcf3-73e9-4bb3-ac91-e843ea0fd8f2"},"vehicle_type_id":"4","last_reported":1731661804,"current_range_meters":18000,"station_id":"ce4bgup2rcd13ifvqco0","pricing_plan_id":"cebpf4jnsgd1na2vs0mg"},{"bike_id":"b62cae68-a6eb-436e-b41f-3230e36152a0","system_id":"levelo_inurba_marseille","lat":43.32537,"lon":5.41443,"is_reserved":false,"is_disabled":false,"rental_uris":{"android":"levelo://app?vid=b62cae68-a6eb-436e-b41f-3230e36152a0","ios":"levelo://app?vid=b62cae68-a6eb-436e-b41f-3230e36152a0"},"vehicle_type_id":"4","last_reported":1731661804,"current_range_meters":24400,"station_id":"ce4bhq12rcd13ifvqhhg","pricing_plan_id":"cebpf4jnsgd1na2vs0mg"},{"bike_id":"62a400bb-9b7a-4c31-8a10-596f348a6827","system_id":"levelo_inurba_marseille","lat":43.24081,"lon":5.37751,"is_reserved":false,"is_disabled":false,"rental_uris":{"android":"levelo://app?vid=62a400bb-9b7a-4c31-8a10-596f348a6827","ios":"levelo://app?vid=62a400bb-9b7a-4c31-8a10-596f348a6827"},"vehicle_type_id":"4","last_reported":1731661804,"current_range_meters":35600,"station_id":"ce4bhnp2rcd13ifvqgvg","pricing_plan_id":"cebpf4jnsgd1na2vs0mg"},{"bike_id":"898343a1-2642-491c-a1ab-47e0e0534d2f","system_id":"levelo_inurba_marseille","lat":43.33611,"lon":5.41026,"is_reserved":false,"is_disabled":false,"rental_uris":{"android":"levelo://app?vid=898343a1-2642-491c-a1ab-47e0e0534d2f","ios":"levelo://app?vid=898343a1-2642-491c-a1ab-47e0e0534d2f"},"vehicle_type_id":"4","last_reported":1731661804,"current_range_meters":11200,"station_id":"ce4bhqh2rcd13ifvqhmg","pricing_plan_id":"cebpf4jnsgd1na2vs0mg"},{"bike_id":"07d8d3e7-31e2-4a93-b5c6-97a0bcec130a","system_id":"levelo_inurba_marseille","lat":43.25876,"lon":5.39893,"is_reserved":false,"is_disabled":false,"rental_uris":{"android":"levelo://app?vid=07d8d3e7-31e2-4a93-b5c6-97a0bcec130a","ios":"levelo://app?vid=07d8d3e7-31e2-4a93-b5c6-97a0bcec130a"},"vehicle_type_id":"4","last_reported":1731661804,"current_range_meters":38800,"station_id":"ce4bhl92rcd13ifvqghg","pricing_plan_id":"cebpf4jnsgd1na2vs0mg"},{"bike_id":"bf7c14f0-6cb2-4ed3-aa5c-dd9f397c1202","system_id":"levelo_inurba_marseille","lat":43.28003,"lon":5.41663,"is_reserved":false,"is_disabled":false,"rental_uris":{"android":"levelo://app?vid=bf7c14f0-6cb2-4ed3-aa5c-dd9f397c1202","ios":"levelo://app?vid=bf7c14f0-6cb2-4ed3-aa5c-dd9f397c1202"},"vehicle_type_id":"4","last_reported":1731661804,"current_range_meters":26800,"station_id":"ce4bho12rcd13ifvqh1g","pricing_plan_id":"cebpf4jnsgd1na2vs0mg"},{"bike_id":"507af49a-ce39-427e-89c7-5774852476c0","system_id":"levelo_inurba_marseille","lat":43.30911,"lon":5.3685,"is_reserved":false,"is_disabled":false,"rental_uris":{"android":"levelo://app?vid=507af49a-ce39-427e-89c7-5774852476c0","ios":"levelo://app?vid=507af49a-ce39-427e-89c7-5774852476c0"},"vehicle_type_id":"4","last_reported":1731661804,"current_range_meters":39200,"station_id":"ce4bgn92rcd13ifvqbvg","pricing_plan_id":"cebpf4jnsgd1na2vs0mg"},{"bike_id":"83d0c08b-53e5-4e1d-aa28-dd3ec259f354","system_id":"levelo_inurba_marseille","lat":43.28099,"lon":5.42228,"is_reserved":false,"is_disabled":false,"rental_uris":{"android":"levelo://app?vid=83d0c08b-53e5-4e1d-aa28-dd3ec259f354","ios":"levelo://app?vid=83d0c08b-53e5-4e1d-aa28-dd3ec259f354"},"vehicle_type_id":"4","last_reported":1731661804,"current_range_meters":9200,"station_id":"","pricing_plan_id":"cebpf4jnsgd1na2vs0mg"},{"bike_id":"38a61ff1-1b4f-4cc6-a353-e5f2f1e4513e","system_id":"levelo_inurba_marseille","lat":43.28357,"lon":5.38106,"is_reserved":false,"is_disabled":false,"rental_uris":{"android":"levelo://app?vid=38a61ff1-1b4f-4cc6-a353-e5f2f1e4513e","ios":"levelo://app?vid=38a61ff1-1b4f-4cc6-a353-e5f2f1e4513e"},"vehicle_type_id":"4","last_reported":1731661804,"current_range_meters":35200,"station_id":"ce4bh412rcd13ifvqdr0","pricing_plan_id":"cebpf4jnsgd1na2vs0mg"},{"bike_id":"17709244-3cb1-468c-8028-e3e06ece4dea","system_id":"levelo_inurba_marseille","lat":43.24085,"lon":5.37749,"is_reserved":false,"is_disabled":false,"rental_uris":{"android":"levelo://app?vid=17709244-3cb1-468c-8028-e3e06ece4dea","ios":"levelo://app?vid=17709244-3cb1-468c-8028-e3e06ece4dea"},"vehicle_type_id":"4","last_reported":1731661804,"current_range_meters":32000,"station_id":"ce4bhnp2rcd13ifvqgvg","pricing_plan_id":"cebpf4jnsgd1na2vs0mg"},{"bike_id":"92e3ad17-17c9-4714-a148-ef9436ad6113","system_id":"levelo_inurba_marseille","lat":43.22937,"lon":5.35376,"is_reserved":false,"is_disabled":false,"rental_uris":{"android":"levelo://app?vid=92e3ad17-17c9-4714-a148-ef9436ad6113","ios":"levelo://app?vid=92e3ad17-17c9-4714-a148-ef9436ad6113"},"vehicle_type_id":"4","last_reported":1731661804,"current_range_meters":38800,"station_id":"cpo3532slgdg3j2ikp40","pricing_plan_id":"cebpf4jnsgd1na2vs0mg"},{"bike_id":"8224ee73-4e3f-494d-bf5f-e64063f77fc8","system_id":"levelo_inurba_marseille","lat":43.24075,"lon":5.37743,"is_reserved":false,"is_disabled":false,"rental_uris":{"android":"levelo://app?vid=8224ee73-4e3f-494d-bf5f-e64063f77fc8","ios":"levelo://app?vid=8224ee73-4e3f-494d-bf5f-e64063f77fc8"},"vehicle_type_id":"4","last_reported":1731661804,"current_range_meters":9600,"station_id":"ce4bhnp2rcd13ifvqgvg","pricing_plan_id":"cebpf4jnsgd1na2vs0mg"},{"bike_id":"48fb35ba-4168-4dfc-ba7d-2e735d4cbc85","system_id":"levelo_inurba_marseille","lat":43.27826,"lon":5.39213,"is_reserved":false,"is_disabled":false,"rental_uris":{"android":"levelo://app?vid=48fb35ba-4168-4dfc-ba7d-2e735d4cbc85","ios":"levelo://app?vid=48fb35ba-4168-4dfc-ba7d-2e735d4cbc85"},"vehicle_type_id":"4","last_reported":1731661804,"current_range_meters":23200,"station_id":"ce4bhjp2rcd13ifvqga0","pricing_plan_id":"cebpf4jnsgd1na2vs0mg"},{"bike_id":"5326c5f8-bba7-40e6-bfc7-8e986a3bddf3","system_id":"levelo_inurba_marseille","lat":43.3104,"lon":5.37462,"is_reserved":false,"is_disabled":false,"rental_uris":{"android":"levelo://app?vid=5326c5f8-bba7-40e6-bfc7-8e986a3bddf3","ios":"levelo://app?vid=5326c5f8-bba7-40e6-bfc7-8e986a3bddf3"},"vehicle_type_id":"4","last_reported":1731661804,"current_range_meters":22400,"station_id":"ce4bgt12rcd13ifvqcd0","pricing_plan_id":"cebpf4jnsgd1na2vs0mg"},{"bike_id":"99f0def7-88b4-40f3-b210-57c372cfc6e9","system_id":"levelo_inurba_marseille","lat":43.27676,"lon":5.38893,"is_reserved":false,"is_disabled":false,"rental_uris":{"android":"levelo://app?vid=99f0def7-88b4-40f3-b210-57c372cfc6e9","ios":"levelo://app?vid=99f0def7-88b4-40f3-b210-57c372cfc6e9"},"vehicle_type_id":"4","last_reported":1731661804,"current_range_meters":34000,"station_id":"ce4bhi12rcd13ifvqfo0","pricing_plan_id":"cebpf4jnsgd1na2vs0mg"},{"bike_id":"6e17b519-e44d-43d9-8e08-281b71f10b54","system_id":"levelo_inurba_marseille","lat":43.2953,"lon":5.38537,"is_reserved":false,"is_disabled":false,"rental_uris":{"android":"levelo://app?vid=6e17b519-e44d-43d9-8e08-281b71f10b54","ios":"levelo://app?vid=6e17b519-e44d-43d9-8e08-281b71f10b54"},"vehicle_type_id":"4","last_reported":1731661804,"current_range_meters":34000,"station_id":"ce4bgih2rcd13ifvqba0","pricing_plan_id":"cebpf4jnsgd1na2vs0mg"},{"bike_id":"f1e9fc4f-4524-48c2-bea5-288ea485b230","system_id":"levelo_inurba_marseille","lat":43.23153,"lon":5.43724,"is_reserved":false,"is_disabled":false,"rental_uris":{"android":"levelo://app?vid=f1e9fc4f-4524-48c2-bea5-288ea485b230","ios":"levelo://app?vid=f1e9fc4f-4524-48c2-bea5-288ea485b230"},"vehicle_type_id":"4","last_reported":1731661804,"current_range_meters":22000,"station_id":"ce4bhmp2rcd13ifvqgog","pricing_plan_id":"cebpf4jnsgd1na2vs0mg"},{"bike_id":"2bc483ce-cc7c-4ff4-8f56-dc791152925b","system_id":"levelo_inurba_marseille","lat":43.26686,"lon":5.3827,"is_reserved":false,"is_disabled":false,"rental_uris":{"android":"levelo://app?vid=2bc483ce-cc7c-4ff4-8f56-dc791152925b","ios":"levelo://app?vid=2bc483ce-cc7c-4ff4-8f56-dc791152925b"},"vehicle_type_id":"4","last_reported":1731661804,"current_range_meters":28400,"station_id":"ce4bhg92rcd13ifvqf90","pricing_plan_id":"cebpf4jnsgd1na2vs0mg"},{"bike_id":"feca3b77-9b16-4f1f-8742-27d5e1074087","system_id":"levelo_inurba_marseille","lat":43.26567,"lon":5.39001,"is_reserved":false,"is_disabled":false,"rental_uris":{"android":"levelo://app?vid=feca3b77-9b16-4f1f-8742-27d5e1074087","ios":"levelo://app?vid=feca3b77-9b16-4f1f-8742-27d5e1074087"},"vehicle_type_id":"4","last_reported":1731661804,"current_range_meters":36800,"station_id":"ce4bhe12rcd13ifvqf30","pricing_plan_id":"cebpf4jnsgd1na2vs0mg"},{"bike_id":"14327ff3-45ed-412f-9d6c-e518b4bbab7a","system_id":"levelo_inurba_marseille","lat":43.31191,"lon":5.38718,"is_reserved":false,"is_disabled":false,"rental_uris":{"android":"levelo://app?vid=14327ff3-45ed-412f-9d6c-e518b4bbab7a","ios":"levelo://app?vid=14327ff3-45ed-412f-9d6c-e518b4bbab7a"},"vehicle_type_id":"4","last_reported":1731661804,"current_range_meters":38800,"station_id":"ce4bgv12rcd13ifvqcp0","pricing_plan_id":"cebpf4jnsgd1na2vs0mg"},{"bike_id":"91f938f1-d19b-44d9-ad33-83b8655861ee","system_id":"levelo_inurba_marseille","lat":43.25117,"lon":5.4032,"is_reserved":false,"is_disabled":false,"rental_uris":{"android":"levelo://app?vid=91f938f1-d19b-44d9-ad33-83b8655861ee","ios":"levelo://app?vid=91f938f1-d19b-44d9-ad33-83b8655861ee"},"vehicle_type_id":"4","last_reported":1731661804,"current_range_meters":25200,"station_id":"ce4bhlh2rcd13ifvqgig","pricing_plan_id":"cebpf4jnsgd1na2vs0mg"},{"bike_id":"14ec0dcf-913b-4f6d-9327-5395fe151b5e","system_id":"levelo_inurba_marseille","lat":43.24077,"lon":5.37751,"is_reserved":false,"is_disabled":false,"rental_uris":{"android":"levelo://app?vid=14ec0dcf-913b-4f6d-9327-5395fe151b5e","ios":"levelo://app?vid=14ec0dcf-913b-4f6d-9327-5395fe151b5e"},"vehicle_type_id":"4","last_reported":1731661804,"current_range_meters":27600,"station_id":"ce4bhnp2rcd13ifvqgvg","pricing_plan_id":"cebpf4jnsgd1na2vs0mg"},{"bike_id":"46797600-39c0-410a-9d29-8a4c8cac8236","system_id":"levelo_inurba_marseille","lat":43.2592,"lon":5.40921,"is_reserved":false,"is_disabled":false,"rental_uris":{"android":"levelo://app?vid=46797600-39c0-410a-9d29-8a4c8cac8236","ios":"levelo://app?vid=46797600-39c0-410a-9d29-8a4c8cac8236"},"vehicle_type_id":"4","last_reported":1731661804,"current_range_meters":3600,"station_id":"ce4bhm92rcd13ifvqglg","pricing_plan_id":"cebpf4jnsgd1na2vs0mg"},{"bike_id":"7932b4dc-8b09-471e-9c60-e99e15702efe","system_id":"levelo_inurba_marseille","lat":43.301254,"lon":5.387902,"is_reserved":false,"is_disabled":false,"rental_uris":{"android":"levelo://app?vid=7932b4dc-8b09-471e-9c60-e99e15702efe","ios":"levelo://app?vid=7932b4dc-8b09-471e-9c60-e99e15702efe"},"vehicle_type_id":"4","last_reported":1731661804,"current_range_meters":14400,"station_id":"ce4bghh2rcd13ifvqb60","pricing_plan_id":"cebpf4jnsgd1na2vs0mg"},{"bike_id":"d3dbbeaa-6585-4dd9-ab83-dca699bfa09b","system_id":"levelo_inurba_marseille","lat":43.26685,"lon":5.38275,"is_reserved":false,"is_disabled":false,"rental_uris":{"android":"levelo://app?vid=d3dbbeaa-6585-4dd9-ab83-dca699bfa09b","ios":"levelo://app?vid=d3dbbeaa-6585-4dd9-ab83-dca699bfa09b"},"vehicle_type_id":"4","last_reported":1731661804,"current_range_meters":37600,"station_id":"ce4bhg92rcd13ifvqf90","pricing_plan_id":"cebpf4jnsgd1na2vs0mg"},{"bike_id":"3979a483-c7ea-4be1-9e3c-a0bf80be82c8","system_id":"levelo_inurba_marseille","lat":43.25924,"lon":5.40924,"is_reserved":false,"is_disabled":false,"rental_uris":{"android":"levelo://app?vid=3979a483-c7ea-4be1-9e3c-a0bf80be82c8","ios":"levelo://app?vid=3979a483-c7ea-4be1-9e3c-a0bf80be82c8"},"vehicle_type_id":"4","last_reported":1731661804,"current_range_meters":10800,"station_id":"ce4bhm92rcd13ifvqglg","pricing_plan_id":"cebpf4jnsgd1na2vs0mg"},{"bike_id":"d4357b6e-382d-42fb-a863-ff7fd5649955","system_id":"levelo_inurba_marseille","lat":43.24999,"lon":5.38928,"is_reserved":false,"is_disabled":false,"rental_uris":{"android":"levelo://app?vid=d4357b6e-382d-42fb-a863-ff7fd5649955","ios":"levelo://app?vid=d4357b6e-382d-42fb-a863-ff7fd5649955"},"vehicle_type_id":"4","last_reported":1731661804,"current_range_meters":38400,"station_id":"ce4bhgp2rcd13ifvqfd0","pricing_plan_id":"cebpf4jnsgd1na2vs0mg"},{"bike_id":"3bbb62e3-b631-43e8-a22c-cbb77476e070","system_id":"levelo_inurba_marseille","lat":43.25924,"lon":5.4092,"is_reserved":false,"is_disabled":false,"rental_uris":{"android":"levelo://app?vid=3bbb62e3-b631-43e8-a22c-cbb77476e070","ios":"levelo://app?vid=3bbb62e3-b631-43e8-a22c-cbb77476e070"},"vehicle_type_id":"4","last_reported":1731661804,"current_range_meters":32000,"station_id":"ce4bhm92rcd13ifvqglg","pricing_plan_id":"cebpf4jnsgd1na2vs0mg"},{"bike_id":"79294977-6401-4835-8c97-7dcc2f35c689","system_id":"levelo_inurba_marseille","lat":43.30913,"lon":5.36858,"is_reserved":false,"is_disabled":false,"rental_uris":{"android":"levelo://app?vid=79294977-6401-4835-8c97-7dcc2f35c689","ios":"levelo://app?vid=79294977-6401-4835-8c97-7dcc2f35c689"},"vehicle_type_id":"4","last_reported":1731661804,"current_range_meters":28400,"station_id":"ce4bgn92rcd13ifvqbvg","pricing_plan_id":"cebpf4jnsgd1na2vs0mg"},{"bike_id":"93779908-3df9-4e4b-99d1-931c4b82d6fc","system_id":"levelo_inurba_marseille","lat":43.30954,"lon":5.3904,"is_reserved":false,"is_disabled":false,"rental_uris":{"android":"levelo://app?vid=93779908-3df9-4e4b-99d1-931c4b82d6fc","ios":"levelo://app?vid=93779908-3df9-4e4b-99d1-931c4b82d6fc"},"vehicle_type_id":"4","last_reported":1731661804,"current_range_meters":7200,"station_id":"ce4bgup2rcd13ifvqco0","pricing_plan_id":"cebpf4jnsgd1na2vs0mg"},{"bike_id":"6190abe0-aae9-4a80-a526-d67e8d93d29d","system_id":"levelo_inurba_marseille","lat":43.26951,"lon":5.38632,"is_reserved":false,"is_disabled":false,"rental_uris":{"android":"levelo://app?vid=6190abe0-aae9-4a80-a526-d67e8d93d29d","ios":"levelo://app?vid=6190abe0-aae9-4a80-a526-d67e8d93d29d"},"vehicle_type_id":"4","last_reported":1731661804,"current_range_meters":28400,"station_id":"ce4bhh92rcd13ifvqfh0","pricing_plan_id":"cebpf4jnsgd1na2vs0mg"},{"bike_id":"3442e6dc-1f7c-41f8-b5a8-274b9b734912","system_id":"levelo_inurba_marseille","lat":43.33606,"lon":5.41032,"is_reserved":false,"is_disabled":false,"rental_uris":{"android":"levelo://app?vid=3442e6dc-1f7c-41f8-b5a8-274b9b734912","ios":"levelo://app?vid=3442e6dc-1f7c-41f8-b5a8-274b9b734912"},"vehicle_type_id":"4","last_reported":1731661804,"current_range_meters":23200,"station_id":"ce4bhqh2rcd13ifvqhmg","pricing_plan_id":"cebpf4jnsgd1na2vs0mg"},{"bike_id":"af8beeaa-8f4b-49d7-a686-9e99595a9cdf","system_id":"levelo_inurba_marseille","lat":43.27496,"lon":5.4245,"is_reserved":false,"is_disabled":false,"rental_uris":{"android":"levelo://app?vid=af8beeaa-8f4b-49d7-a686-9e99595a9cdf","ios":"levelo://app?vid=af8beeaa-8f4b-49d7-a686-9e99595a9cdf"},"vehicle_type_id":"4","last_reported":1731661804,"current_range_meters":28400,"station_id":"ce4bhn92rcd13ifvqgrg","pricing_plan_id":"cebpf4jnsgd1na2vs0mg"},{"bike_id":"66f1a1c4-c964-4fa2-9783-f9b6c4e20a98","system_id":"levelo_inurba_marseille","lat":43.32485,"lon":5.36564,"is_reserved":false,"is_disabled":false,"rental_uris":{"android":"levelo://app?vid=66f1a1c4-c964-4fa2-9783-f9b6c4e20a98","ios":"levelo://app?vid=66f1a1c4-c964-4fa2-9783-f9b6c4e20a98"},"vehicle_type_id":"4","last_reported":1731661804,"current_range_meters":25200,"station_id":"ce4bhs12rcd13ifvqhvg","pricing_plan_id":"cebpf4jnsgd1na2vs0mg"},{"bike_id":"f27d5f74-aa71-4d88-9330-b1ee5369e3ab","system_id":"levelo_inurba_marseille","lat":43.30084,"lon":5.3907,"is_reserved":false,"is_disabled":false,"rental_uris":{"android":"levelo://app?vid=f27d5f74-aa71-4d88-9330-b1ee5369e3ab","ios":"levelo://app?vid=f27d5f74-aa71-4d88-9330-b1ee5369e3ab"},"vehicle_type_id":"4","last_reported":1731661804,"current_range_meters":38800,"station_id":"ce4bh192rcd13ifvqdb0","pricing_plan_id":"cebpf4jnsgd1na2vs0mg"},{"bike_id":"3954dd37-8389-4e48-b138-27e1c188a614","system_id":"levelo_inurba_marseille","lat":43.3123,"lon":5.36856,"is_reserved":false,"is_disabled":false,"rental_uris":{"android":"levelo://app?vid=3954dd37-8389-4e48-b138-27e1c188a614","ios":"levelo://app?vid=3954dd37-8389-4e48-b138-27e1c188a614"},"vehicle_type_id":"4","last_reported":1731661804,"current_range_meters":36000,"station_id":"ce4bgl92rcd13ifvqbq0","pricing_plan_id":"cebpf4jnsgd1na2vs0mg"},{"bike_id":"83e1ae1f-8b8e-47ae-9fc4-880701ed8b44","system_id":"levelo_inurba_marseille","lat":43.29776,"lon":5.37106,"is_reserved":false,"is_disabled":false,"rental_uris":{"android":"levelo://app?vid=83e1ae1f-8b8e-47ae-9fc4-880701ed8b44","ios":"levelo://app?vid=83e1ae1f-8b8e-47ae-9fc4-880701ed8b44"},"vehicle_type_id":"4","last_reported":1731661804,"current_range_meters":35200,"station_id":"ce4bgop2rcd13ifvqc1g","pricing_plan_id":"cebpf4jnsgd1na2vs0mg"},{"bike_id":"334f6cf6-336b-4452-8b70-8d818d81053c","system_id":"levelo_inurba_marseille","lat":43.24073,"lon":5.37759,"is_reserved":false,"is_disabled":false,"rental_uris":{"android":"levelo://app?vid=334f6cf6-336b-4452-8b70-8d818d81053c","ios":"levelo://app?vid=334f6cf6-336b-4452-8b70-8d818d81053c"},"vehicle_type_id":"4","last_reported":1731661804,"current_range_meters":20400,"station_id":"ce4bhnp2rcd13ifvqgvg","pricing_plan_id":"cebpf4jnsgd1na2vs0mg"},{"bike_id":"9c09a538-ab29-4eb3-a90f-53fedb4fde44","system_id":"levelo_inurba_marseille","lat":43.279419,"lon":5.410532,"is_reserved":false,"is_disabled":false,"rental_uris":{"android":"levelo://app?vid=9c09a538-ab29-4eb3-a90f-53fedb4fde44","ios":"levelo://app?vid=9c09a538-ab29-4eb3-a90f-53fedb4fde44"},"vehicle_type_id":"4","last_reported":1731661804,"current_range_meters":32000,"station_id":"ce4bhnp2rcd13ifvqh0g","pricing_plan_id":"cebpf4jnsgd1na2vs0mg"},{"bike_id":"4847f216-901f-4445-88e0-f79b338f2026","system_id":"levelo_inurba_marseille","lat":43.297577,"lon":5.373091,"is_reserved":false,"is_disabled":false,"rental_uris":{"android":"levelo://app?vid=4847f216-901f-4445-88e0-f79b338f2026","ios":"levelo://app?vid=4847f216-901f-4445-88e0-f79b338f2026"},"vehicle_type_id":"4","last_reported":1731661804,"current_range_meters":17600,"station_id":"ce4bhgp2rcd13ifvqfe0","pricing_plan_id":"cebpf4jnsgd1na2vs0mg"},{"bike_id":"b47cb991-57c8-4ef2-ba6f-88a50e1a1219","system_id":"levelo_inurba_marseille","lat":43.22935,"lon":5.35378,"is_reserved":false,"is_disabled":false,"rental_uris":{"android":"levelo://app?vid=b47cb991-57c8-4ef2-ba6f-88a50e1a1219","ios":"levelo://app?vid=b47cb991-57c8-4ef2-ba6f-88a50e1a1219"},"vehicle_type_id":"4","last_reported":1731661804,"current_range_meters":37600,"station_id":"cpo3532slgdg3j2ikp40","pricing_plan_id":"cebpf4jnsgd1na2vs0mg"},{"bike_id":"2e39ea95-9be3-4f31-9ce4-3f71c6f714e7","system_id":"levelo_inurba_marseille","lat":43.31171,"lon":5.38724,"is_reserved":false,"is_disabled":false,"rental_uris":{"android":"levelo://app?vid=2e39ea95-9be3-4f31-9ce4-3f71c6f714e7","ios":"levelo://app?vid=2e39ea95-9be3-4f31-9ce4-3f71c6f714e7"},"vehicle_type_id":"4","last_reported":1731661804,"current_range_meters":37600,"station_id":"ce4bgv12rcd13ifvqcp0","pricing_plan_id":"cebpf4jnsgd1na2vs0mg"},{"bike_id":"e2bf3ce5-892e-42fa-9ed5-c1e386a99b9d","system_id":"levelo_inurba_marseille","lat":43.31359,"lon":5.38486,"is_reserved":false,"is_disabled":false,"rental_uris":{"android":"levelo://app?vid=e2bf3ce5-892e-42fa-9ed5-c1e386a99b9d","ios":"levelo://app?vid=e2bf3ce5-892e-42fa-9ed5-c1e386a99b9d"},"vehicle_type_id":"4","last_reported":1731661804,"current_range_meters":35600,"station_id":"ce4bgt92rcd13ifvqcf0","pricing_plan_id":"cebpf4jnsgd1na2vs0mg"},{"bike_id":"6777132f-3df8-4db0-b64d-7c9d2496dde5","system_id":"levelo_inurba_marseille","lat":43.32283,"lon":5.38267,"is_reserved":false,"is_disabled":false,"rental_uris":{"android":"levelo://app?vid=6777132f-3df8-4db0-b64d-7c9d2496dde5","ios":"levelo://app?vid=6777132f-3df8-4db0-b64d-7c9d2496dde5"},"vehicle_type_id":"4","last_reported":1731661804,"current_range_meters":31200,"station_id":"ce4bhr12rcd13ifvqhqg","pricing_plan_id":"cebpf4jnsgd1na2vs0mg"},{"bike_id":"3be187de-5e5a-4eb9-a6fc-b5be1ff54724","system_id":"levelo_inurba_marseille","lat":43.24082,"lon":5.37749,"is_reserved":false,"is_disabled":false,"rental_uris":{"android":"levelo://app?vid=3be187de-5e5a-4eb9-a6fc-b5be1ff54724","ios":"levelo://app?vid=3be187de-5e5a-4eb9-a6fc-b5be1ff54724"},"vehicle_type_id":"4","last_reported":1731661804,"current_range_meters":30400,"station_id":"ce4bhnp2rcd13ifvqgvg","pricing_plan_id":"cebpf4jnsgd1na2vs0mg"},{"bike_id":"1d36ec1c-d89d-4bb1-8e0d-ff1c762508b7","system_id":"levelo_inurba_marseille","lat":43.22938,"lon":5.35375,"is_reserved":false,"is_disabled":false,"rental_uris":{"android":"levelo://app?vid=1d36ec1c-d89d-4bb1-8e0d-ff1c762508b7","ios":"levelo://app?vid=1d36ec1c-d89d-4bb1-8e0d-ff1c762508b7"},"vehicle_type_id":"4","last_reported":1731661804,"current_range_meters":9600,"station_id":"cpo3532slgdg3j2ikp40","pricing_plan_id":"cebpf4jnsgd1na2vs0mg"},{"bike_id":"25e6dfad-f4f3-456f-84c6-08e0edc9f847","system_id":"levelo_inurba_marseille","lat":43.3254,"lon":5.41428,"is_reserved":false,"is_disabled":false,"rental_uris":{"android":"levelo://app?vid=25e6dfad-f4f3-456f-84c6-08e0edc9f847","ios":"levelo://app?vid=25e6dfad-f4f3-456f-84c6-08e0edc9f847"},"vehicle_type_id":"4","last_reported":1731661804,"current_range_meters":6400,"station_id":"ce4bhq12rcd13ifvqhhg","pricing_plan_id":"cebpf4jnsgd1na2vs0mg"},{"bike_id":"37212eb8-cfa6-47ba-9ed7-bfed51287466","system_id":"levelo_inurba_marseille","lat":43.314612,"lon":5.373904,"is_reserved":false,"is_disabled":false,"rental_uris":{"android":"levelo://app?vid=37212eb8-cfa6-47ba-9ed7-bfed51287466","ios":"levelo://app?vid=37212eb8-cfa6-47ba-9ed7-bfed51287466"},"vehicle_type_id":"4","last_reported":1731661804,"current_range_meters":36400,"station_id":"","pricing_plan_id":"cebpf4jnsgd1na2vs0mg"},{"bike_id":"b59d9cbf-03f6-46b3-a450-3462b385e693","system_id":"levelo_inurba_marseille","lat":43.24078,"lon":5.37756,"is_reserved":false,"is_disabled":false,"rental_uris":{"android":"levelo://app?vid=b59d9cbf-03f6-46b3-a450-3462b385e693","ios":"levelo://app?vid=b59d9cbf-03f6-46b3-a450-3462b385e693"},"vehicle_type_id":"4","last_reported":1731661804,"current_range_meters":16000,"station_id":"ce4bhnp2rcd13ifvqgvg","pricing_plan_id":"cebpf4jnsgd1na2vs0mg"},{"bike_id":"db5b7a12-05b8-44f6-a1d0-f02063d79db7","system_id":"levelo_inurba_marseille","lat":43.29787,"lon":5.38103,"is_reserved":false,"is_disabled":false,"rental_uris":{"android":"levelo://app?vid=db5b7a12-05b8-44f6-a1d0-f02063d79db7","ios":"levelo://app?vid=db5b7a12-05b8-44f6-a1d0-f02063d79db7"},"vehicle_type_id":"4","last_reported":1731661804,"current_range_meters":38400,"station_id":"ce4bgip2rcd13ifvqbb0","pricing_plan_id":"cebpf4jnsgd1na2vs0mg"},{"bike_id":"5f4496a2-dc1f-4c6c-87bb-f44d8c27445d","system_id":"levelo_inurba_marseille","lat":43.31356,"lon":5.36713,"is_reserved":false,"is_disabled":false,"rental_uris":{"android":"levelo://app?vid=5f4496a2-dc1f-4c6c-87bb-f44d8c27445d","ios":"levelo://app?vid=5f4496a2-dc1f-4c6c-87bb-f44d8c27445d"},"vehicle_type_id":"4","last_reported":1731661804,"current_range_meters":7200,"station_id":"ce4bgr92rcd13ifvqc6g","pricing_plan_id":"cebpf4jnsgd1na2vs0mg"},{"bike_id":"76fda271-4bcd-4529-8397-8074a1eff7fe","system_id":"levelo_inurba_marseille","lat":43.337444,"lon":5.374475,"is_reserved":false,"is_disabled":false,"rental_uris":{"android":"levelo://app?vid=76fda271-4bcd-4529-8397-8074a1eff7fe","ios":"levelo://app?vid=76fda271-4bcd-4529-8397-8074a1eff7fe"},"vehicle_type_id":"4","last_reported":1731661804,"current_range_meters":38400,"station_id":"","pricing_plan_id":"cebpf4jnsgd1na2vs0mg"},{"bike_id":"bef7ca68-0ccd-456c-a245-4471193ed987","system_id":"levelo_inurba_marseille","lat":43.26059,"lon":5.39393,"is_reserved":false,"is_disabled":false,"rental_uris":{"android":"levelo://app?vid=bef7ca68-0ccd-456c-a245-4471193ed987","ios":"levelo://app?vid=bef7ca68-0ccd-456c-a245-4471193ed987"},"vehicle_type_id":"4","last_reported":1731661804,"current_range_meters":38800,"station_id":"ce4bhh92rcd13ifvqfj0","pricing_plan_id":"cebpf4jnsgd1na2vs0mg"},{"bike_id":"7619cc6e-3d40-497d-863d-005b14967ee7","system_id":"levelo_inurba_marseille","lat":43.26951,"lon":5.38631,"is_reserved":false,"is_disabled":false,"rental_uris":{"android":"levelo://app?vid=7619cc6e-3d40-497d-863d-005b14967ee7","ios":"levelo://app?vid=7619cc6e-3d40-497d-863d-005b14967ee7"},"vehicle_type_id":"4","last_reported":1731661804,"current_range_meters":28800,"station_id":"ce4bhh92rcd13ifvqfh0","pricing_plan_id":"cebpf4jnsgd1na2vs0mg"},{"bike_id":"99ba81e0-b14b-4795-9d9b-8b81b0f97ffb","system_id":"levelo_inurba_marseille","lat":43.28902,"lon":5.37297,"is_reserved":false,"is_disabled":false,"rental_uris":{"android":"levelo://app?vid=99ba81e0-b14b-4795-9d9b-8b81b0f97ffb","ios":"levelo://app?vid=99ba81e0-b14b-4795-9d9b-8b81b0f97ffb"},"vehicle_type_id":"4","last_reported":1731661804,"current_range_meters":9600,"station_id":"","pricing_plan_id":"cebpf4jnsgd1na2vs0mg"},{"bike_id":"d4eecbdf-0b81-47f2-b6dc-74c02c41a7cf","system_id":"levelo_inurba_marseille","lat":43.28661,"lon":5.36353,"is_reserved":false,"is_disabled":false,"rental_uris":{"android":"levelo://app?vid=d4eecbdf-0b81-47f2-b6dc-74c02c41a7cf","ios":"levelo://app?vid=d4eecbdf-0b81-47f2-b6dc-74c02c41a7cf"},"vehicle_type_id":"4","last_reported":1731661804,"current_range_meters":20400,"station_id":"ce4bhah2rcd13ifvqej0","pricing_plan_id":"cebpf4jnsgd1na2vs0mg"},{"bike_id":"3b96e09a-3a92-41be-91c2-e5295808999c","system_id":"levelo_inurba_marseille","lat":43.29064,"lon":5.37157,"is_reserved":false,"is_disabled":false,"rental_uris":{"android":"levelo://app?vid=3b96e09a-3a92-41be-91c2-e5295808999c","ios":"levelo://app?vid=3b96e09a-3a92-41be-91c2-e5295808999c"},"vehicle_type_id":"4","last_reported":1731661804,"current_range_meters":17200,"station_id":"ce4bh5p2rcd13ifvqe4g","pricing_plan_id":"cebpf4jnsgd1na2vs0mg"},{"bike_id":"b07e70d9-f184-4184-9eb1-f2074f2d8c6e","system_id":"levelo_inurba_marseille","lat":43.31331,"lon":5.36708,"is_reserved":false,"is_disabled":false,"rental_uris":{"android":"levelo://app?vid=b07e70d9-f184-4184-9eb1-f2074f2d8c6e","ios":"levelo://app?vid=b07e70d9-f184-4184-9eb1-f2074f2d8c6e"},"vehicle_type_id":"4","last_reported":1731661804,"current_range_meters":26800,"station_id":"ce4bgr92rcd13ifvqc6g","pricing_plan_id":"cebpf4jnsgd1na2vs0mg"},{"bike_id":"aaec841f-2a7c-4d64-8722-c25c02ca7092","system_id":"levelo_inurba_marseille","lat":43.23788,"lon":5.43057,"is_reserved":false,"is_disabled":false,"rental_uris":{"android":"levelo://app?vid=aaec841f-2a7c-4d64-8722-c25c02ca7092","ios":"levelo://app?vid=aaec841f-2a7c-4d64-8722-c25c02ca7092"},"vehicle_type_id":"4","last_reported":1731661804,"current_range_meters":34000,"station_id":"","pricing_plan_id":"cebpf4jnsgd1na2vs0mg"},{"bike_id":"94bcc280-7668-4cae-9472-84b313a52528","system_id":"levelo_inurba_marseille","lat":43.33608,"lon":5.41032,"is_reserved":false,"is_disabled":false,"rental_uris":{"android":"levelo://app?vid=94bcc280-7668-4cae-9472-84b313a52528","ios":"levelo://app?vid=94bcc280-7668-4cae-9472-84b313a52528"},"vehicle_type_id":"4","last_reported":1731661804,"current_range_meters":38800,"station_id":"ce4bhqh2rcd13ifvqhmg","pricing_plan_id":"cebpf4jnsgd1na2vs0mg"},{"bike_id":"6d757fef-4f26-43f9-ac2c-ffab39bf7dae","system_id":"levelo_inurba_marseille","lat":43.32249,"lon":5.36901,"is_reserved":false,"is_disabled":false,"rental_uris":{"android":"levelo://app?vid=6d757fef-4f26-43f9-ac2c-ffab39bf7dae","ios":"levelo://app?vid=6d757fef-4f26-43f9-ac2c-ffab39bf7dae"},"vehicle_type_id":"4","last_reported":1731661804,"current_range_meters":24800,"station_id":"","pricing_plan_id":"cebpf4jnsgd1na2vs0mg"},{"bike_id":"26f9698f-20b9-48c0-b5ba-bc3575dbd026","system_id":"levelo_inurba_marseille","lat":43.30968,"lon":5.39037,"is_reserved":false,"is_disabled":false,"rental_uris":{"android":"levelo://app?vid=26f9698f-20b9-48c0-b5ba-bc3575dbd026","ios":"levelo://app?vid=26f9698f-20b9-48c0-b5ba-bc3575dbd026"},"vehicle_type_id":"4","last_reported":1731661804,"current_range_meters":36400,"station_id":"ce4bgup2rcd13ifvqco0","pricing_plan_id":"cebpf4jnsgd1na2vs0mg"},{"bike_id":"2310052f-ab72-4702-bc63-21c4efe6fbbb","system_id":"levelo_inurba_marseille","lat":43.24069,"lon":5.37764,"is_reserved":false,"is_disabled":false,"rental_uris":{"android":"levelo://app?vid=2310052f-ab72-4702-bc63-21c4efe6fbbb","ios":"levelo://app?vid=2310052f-ab72-4702-bc63-21c4efe6fbbb"},"vehicle_type_id":"4","last_reported":1731661804,"current_range_meters":32400,"station_id":"ce4bhnp2rcd13ifvqgvg","pricing_plan_id":"cebpf4jnsgd1na2vs0mg"},{"bike_id":"966fb2fe-381c-428d-ade2-7bada907c111","system_id":"levelo_inurba_marseille","lat":43.24805,"lon":5.37452,"is_reserved":false,"is_disabled":false,"rental_uris":{"android":"levelo://app?vid=966fb2fe-381c-428d-ade2-7bada907c111","ios":"levelo://app?vid=966fb2fe-381c-428d-ade2-7bada907c111"},"vehicle_type_id":"4","last_reported":1731661804,"current_range_meters":36800,"station_id":"ce4bhgh2rcd13ifvqfb0","pricing_plan_id":"cebpf4jnsgd1na2vs0mg"},{"bike_id":"caabc84d-18d8-41e9-9bcd-07acc52828ec","system_id":"levelo_inurba_marseille","lat":43.30179,"lon":5.36604,"is_reserved":false,"is_disabled":false,"rental_uris":{"android":"levelo://app?vid=caabc84d-18d8-41e9-9bcd-07acc52828ec","ios":"levelo://app?vid=caabc84d-18d8-41e9-9bcd-07acc52828ec"},"vehicle_type_id":"4","last_reported":1731661804,"current_range_meters":28400,"station_id":"ce4bgrh2rcd13ifvqc8g","pricing_plan_id":"cebpf4jnsgd1na2vs0mg"},{"bike_id":"adde531d-5164-4789-8c6b-5cf66954baa9","system_id":"levelo_inurba_marseille","lat":43.2408,"lon":5.3775,"is_reserved":false,"is_disabled":false,"rental_uris":{"android":"levelo://app?vid=adde531d-5164-4789-8c6b-5cf66954baa9","ios":"levelo://app?vid=adde531d-5164-4789-8c6b-5cf66954baa9"},"vehicle_type_id":"4","last_reported":1731661804,"current_range_meters":35200,"station_id":"ce4bhnp2rcd13ifvqgvg","pricing_plan_id":"cebpf4jnsgd1na2vs0mg"},{"bike_id":"be6c6128-8509-4eac-8346-b2ab7eda6ec8","system_id":"levelo_inurba_marseille","lat":43.28361,"lon":5.38099,"is_reserved":false,"is_disabled":false,"rental_uris":{"android":"levelo://app?vid=be6c6128-8509-4eac-8346-b2ab7eda6ec8","ios":"levelo://app?vid=be6c6128-8509-4eac-8346-b2ab7eda6ec8"},"vehicle_type_id":"4","last_reported":1731661804,"current_range_meters":24000,"station_id":"ce4bh412rcd13ifvqdr0","pricing_plan_id":"cebpf4jnsgd1na2vs0mg"},{"bike_id":"7d5d63d5-249a-452f-9690-63a9fd494b32","system_id":"levelo_inurba_marseille","lat":43.26571,"lon":5.39007,"is_reserved":false,"is_disabled":false,"rental_uris":{"android":"levelo://app?vid=7d5d63d5-249a-452f-9690-63a9fd494b32","ios":"levelo://app?vid=7d5d63d5-249a-452f-9690-63a9fd494b32"},"vehicle_type_id":"4","last_reported":1731661804,"current_range_meters":18000,"station_id":"ce4bhe12rcd13ifvqf30","pricing_plan_id":"cebpf4jnsgd1na2vs0mg"},{"bike_id":"4df7c49e-022d-40a5-b465-fbd364b6f490","system_id":"levelo_inurba_marseille","lat":43.32488,"lon":5.36556,"is_reserved":false,"is_disabled":false,"rental_uris":{"android":"levelo://app?vid=4df7c49e-022d-40a5-b465-fbd364b6f490","ios":"levelo://app?vid=4df7c49e-022d-40a5-b465-fbd364b6f490"},"vehicle_type_id":"4","last_reported":1731661804,"current_range_meters":39200,"station_id":"ce4bhs12rcd13ifvqhvg","pricing_plan_id":"cebpf4jnsgd1na2vs0mg"},{"bike_id":"f72bf3c2-7293-471a-9a31-8f11708c3399","system_id":"levelo_inurba_marseille","lat":43.3254,"lon":5.41427,"is_reserved":false,"is_disabled":false,"rental_uris":{"android":"levelo://app?vid=f72bf3c2-7293-471a-9a31-8f11708c3399","ios":"levelo://app?vid=f72bf3c2-7293-471a-9a31-8f11708c3399"},"vehicle_type_id":"4","last_reported":1731661804,"current_range_meters":38000,"station_id":"ce4bhq12rcd13ifvqhhg","pricing_plan_id":"cebpf4jnsgd1na2vs0mg"},{"bike_id":"9426f4b6-ffe3-4419-afcf-29e3dc862ace","system_id":"levelo_inurba_marseille","lat":43.23154,"lon":5.43712,"is_reserved":false,"is_disabled":false,"rental_uris":{"android":"levelo://app?vid=9426f4b6-ffe3-4419-afcf-29e3dc862ace","ios":"levelo://app?vid=9426f4b6-ffe3-4419-afcf-29e3dc862ace"},"vehicle_type_id":"4","last_reported":1731661804,"current_range_meters":14800,"station_id":"ce4bhmp2rcd13ifvqgog","pricing_plan_id":"cebpf4jnsgd1na2vs0mg"},{"bike_id":"99366b3f-5c8c-4a91-944d-612995f91b89","system_id":"levelo_inurba_marseille","lat":43.24091,"lon":5.37746,"is_reserved":false,"is_disabled":false,"rental_uris":{"android":"levelo://app?vid=99366b3f-5c8c-4a91-944d-612995f91b89","ios":"levelo://app?vid=99366b3f-5c8c-4a91-944d-612995f91b89"},"vehicle_type_id":"4","last_reported":1731661804,"current_range_meters":28800,"station_id":"ce4bhnp2rcd13ifvqgvg","pricing_plan_id":"cebpf4jnsgd1na2vs0mg"},{"bike_id":"75505ab5-3757-4216-ad5b-85bb49751e1e","system_id":"levelo_inurba_marseille","lat":43.29905,"lon":5.38136,"is_reserved":false,"is_disabled":false,"rental_uris":{"android":"levelo://app?vid=75505ab5-3757-4216-ad5b-85bb49751e1e","ios":"levelo://app?vid=75505ab5-3757-4216-ad5b-85bb49751e1e"},"vehicle_type_id":"4","last_reported":1731661804,"current_range_meters":26000,"station_id":"ce4bgj12rcd13ifvqbc0","pricing_plan_id":"cebpf4jnsgd1na2vs0mg"},{"bike_id":"0b8850c2-f140-44f5-a44f-dfc3cc65191a","system_id":"levelo_inurba_marseille","lat":43.24079,"lon":5.37759,"is_reserved":false,"is_disabled":false,"rental_uris":{"android":"levelo://app?vid=0b8850c2-f140-44f5-a44f-dfc3cc65191a","ios":"levelo://app?vid=0b8850c2-f140-44f5-a44f-dfc3cc65191a"},"vehicle_type_id":"4","last_reported":1731661804,"current_range_meters":24000,"station_id":"ce4bhnp2rcd13ifvqgvg","pricing_plan_id":"cebpf4jnsgd1na2vs0mg"},{"bike_id":"ad3e2259-9111-4862-b574-75ca8a0ccd49","system_id":"levelo_inurba_marseille","lat":43.33764,"lon":5.37445,"is_reserved":false,"is_disabled":false,"rental_uris":{"android":"levelo://app?vid=ad3e2259-9111-4862-b574-75ca8a0ccd49","ios":"levelo://app?vid=ad3e2259-9111-4862-b574-75ca8a0ccd49"},"vehicle_type_id":"4","last_reported":1731661804,"current_range_meters":38000,"station_id":"","pricing_plan_id":"cebpf4jnsgd1na2vs0mg"},{"bike_id":"f05170e6-b81b-4b9d-a640-0c971a669fa3","system_id":"levelo_inurba_marseille","lat":43.25119,"lon":5.40313,"is_reserved":false,"is_disabled":false,"rental_uris":{"android":"levelo://app?vid=f05170e6-b81b-4b9d-a640-0c971a669fa3","ios":"levelo://app?vid=f05170e6-b81b-4b9d-a640-0c971a669fa3"},"vehicle_type_id":"4","last_reported":1731661804,"current_range_meters":32400,"station_id":"ce4bhlh2rcd13ifvqgig","pricing_plan_id":"cebpf4jnsgd1na2vs0mg"},{"bike_id":"5373073e-f41f-40ad-b19f-1e244a77aa12","system_id":"levelo_inurba_marseille","lat":43.29575,"lon":5.37525,"is_reserved":false,"is_disabled":false,"rental_uris":{"android":"levelo://app?vid=5373073e-f41f-40ad-b19f-1e244a77aa12","ios":"levelo://app?vid=5373073e-f41f-40ad-b19f-1e244a77aa12"},"vehicle_type_id":"4","last_reported":1731661804,"current_range_meters":34800,"station_id":"ce4bgh92rcd13ifvqb50","pricing_plan_id":"cebpf4jnsgd1na2vs0mg"},{"bike_id":"3578083e-b77f-4d8e-b169-ede2084934ff","system_id":"levelo_inurba_marseille","lat":43.30139,"lon":5.37421,"is_reserved":false,"is_disabled":false,"rental_uris":{"android":"levelo://app?vid=3578083e-b77f-4d8e-b169-ede2084934ff","ios":"levelo://app?vid=3578083e-b77f-4d8e-b169-ede2084934ff"},"vehicle_type_id":"4","last_reported":1731661804,"current_range_meters":36800,"station_id":"ce4bgs92rcd13ifvqcc0","pricing_plan_id":"cebpf4jnsgd1na2vs0mg"},{"bike_id":"a42726e4-eba9-4d57-bcac-64b157fda479","system_id":"levelo_inurba_marseille","lat":43.30184,"lon":5.366,"is_reserved":false,"is_disabled":false,"rental_uris":{"android":"levelo://app?vid=a42726e4-eba9-4d57-bcac-64b157fda479","ios":"levelo://app?vid=a42726e4-eba9-4d57-bcac-64b157fda479"},"vehicle_type_id":"4","last_reported":1731661804,"current_range_meters":34800,"station_id":"ce4bgrh2rcd13ifvqc8g","pricing_plan_id":"cebpf4jnsgd1na2vs0mg"},{"bike_id":"6d2d7f6e-0690-41e2-a1f7-a3f2f3b738cc","system_id":"levelo_inurba_marseille","lat":43.25937,"lon":5.40901,"is_reserved":false,"is_disabled":false,"rental_uris":{"android":"levelo://app?vid=6d2d7f6e-0690-41e2-a1f7-a3f2f3b738cc","ios":"levelo://app?vid=6d2d7f6e-0690-41e2-a1f7-a3f2f3b738cc"},"vehicle_type_id":"4","last_reported":1731661804,"current_range_meters":27600,"station_id":"ce4bhm92rcd13ifvqglg","pricing_plan_id":"cebpf4jnsgd1na2vs0mg"},{"bike_id":"901e89a6-bf52-4f01-b687-ba0c5c1b4948","system_id":"levelo_inurba_marseille","lat":43.3062,"lon":5.3932,"is_reserved":false,"is_disabled":false,"rental_uris":{"android":"levelo://app?vid=901e89a6-bf52-4f01-b687-ba0c5c1b4948","ios":"levelo://app?vid=901e89a6-bf52-4f01-b687-ba0c5c1b4948"},"vehicle_type_id":"4","last_reported":1731661804,"current_range_meters":30800,"station_id":"ce4bgup2rcd13ifvqco0","pricing_plan_id":"cebpf4jnsgd1na2vs0mg"},{"bike_id":"2cac0781-fdcb-4a8d-9143-d582fef7b7e5","system_id":"levelo_inurba_marseille","lat":43.30149,"lon":5.38081,"is_reserved":false,"is_disabled":false,"rental_uris":{"android":"levelo://app?vid=2cac0781-fdcb-4a8d-9143-d582fef7b7e5","ios":"levelo://app?vid=2cac0781-fdcb-4a8d-9143-d582fef7b7e5"},"vehicle_type_id":"4","last_reported":1731661804,"current_range_meters":32400,"station_id":"ce4bgjp2rcd13ifvqbh0","pricing_plan_id":"cebpf4jnsgd1na2vs0mg"},{"bike_id":"6e499f21-b437-44dc-80b5-fbdf8b316d91","system_id":"levelo_inurba_marseille","lat":43.32483,"lon":5.36562,"is_reserved":false,"is_disabled":false,"rental_uris":{"android":"levelo://app?vid=6e499f21-b437-44dc-80b5-fbdf8b316d91","ios":"levelo://app?vid=6e499f21-b437-44dc-80b5-fbdf8b316d91"},"vehicle_type_id":"4","last_reported":1731661804,"current_range_meters":5600,"station_id":"ce4bhs12rcd13ifvqhvg","pricing_plan_id":"cebpf4jnsgd1na2vs0mg"},{"bike_id":"34187729-5eec-49ed-88e0-40bfd675743d","system_id":"levelo_inurba_marseille","lat":43.24076,"lon":5.37755,"is_reserved":false,"is_disabled":false,"rental_uris":{"android":"levelo://app?vid=34187729-5eec-49ed-88e0-40bfd675743d","ios":"levelo://app?vid=34187729-5eec-49ed-88e0-40bfd675743d"},"vehicle_type_id":"4","last_reported":1731661804,"current_range_meters":6400,"station_id":"ce4bhnp2rcd13ifvqgvg","pricing_plan_id":"cebpf4jnsgd1na2vs0mg"},{"bike_id":"ad9e5643-959a-4636-935c-2a6093955f09","system_id":"levelo_inurba_marseille","lat":43.26199,"lon":5.37933,"is_reserved":false,"is_disabled":false,"rental_uris":{"android":"levelo://app?vid=ad9e5643-959a-4636-935c-2a6093955f09","ios":"levelo://app?vid=ad9e5643-959a-4636-935c-2a6093955f09"},"vehicle_type_id":"4","last_reported":1731661804,"current_range_meters":38800,"station_id":"ce4bhjp2rcd13ifvqg90","pricing_plan_id":"cebpf4jnsgd1na2vs0mg"},{"bike_id":"09bce074-317e-45a2-9f77-66d5b156314a","system_id":"levelo_inurba_marseille","lat":43.25118,"lon":5.40319,"is_reserved":false,"is_disabled":false,"rental_uris":{"android":"levelo://app?vid=09bce074-317e-45a2-9f77-66d5b156314a","ios":"levelo://app?vid=09bce074-317e-45a2-9f77-66d5b156314a"},"vehicle_type_id":"4","last_reported":1731661804,"current_range_meters":36400,"station_id":"ce4bhlh2rcd13ifvqgig","pricing_plan_id":"cebpf4jnsgd1na2vs0mg"},{"bike_id":"c35613a4-a929-4239-b966-263dee509cb0","system_id":"levelo_inurba_marseille","lat":43.258587,"lon":5.399028,"is_reserved":false,"is_disabled":false,"rental_uris":{"android":"levelo://app?vid=c35613a4-a929-4239-b966-263dee509cb0","ios":"levelo://app?vid=c35613a4-a929-4239-b966-263dee509cb0"},"vehicle_type_id":"4","last_reported":1731661804,"current_range_meters":34000,"station_id":"ce4bhl92rcd13ifvqghg","pricing_plan_id":"cebpf4jnsgd1na2vs0mg"},{"bike_id":"d1966005-8db9-4580-a96d-8df79f510bf8","system_id":"levelo_inurba_marseille","lat":43.27494,"lon":5.42447,"is_reserved":false,"is_disabled":false,"rental_uris":{"android":"levelo://app?vid=d1966005-8db9-4580-a96d-8df79f510bf8","ios":"levelo://app?vid=d1966005-8db9-4580-a96d-8df79f510bf8"},"vehicle_type_id":"4","last_reported":1731661804,"current_range_meters":7200,"station_id":"ce4bhn92rcd13ifvqgrg","pricing_plan_id":"cebpf4jnsgd1na2vs0mg"},{"bike_id":"d75784fe-a983-4036-8fa4-fad5d019aed4","system_id":"levelo_inurba_marseille","lat":43.30544,"lon":5.36702,"is_reserved":false,"is_disabled":false,"rental_uris":{"android":"levelo://app?vid=d75784fe-a983-4036-8fa4-fad5d019aed4","ios":"levelo://app?vid=d75784fe-a983-4036-8fa4-fad5d019aed4"},"vehicle_type_id":"4","last_reported":1731661804,"current_range_meters":38800,"station_id":"ce4bgrp2rcd13ifvqc9g","pricing_plan_id":"cebpf4jnsgd1na2vs0mg"},{"bike_id":"8aea6c1e-1b4f-43f7-bf3e-fc2d652c73c6","system_id":"levelo_inurba_marseille","lat":43.25873,"lon":5.39895,"is_reserved":false,"is_disabled":false,"rental_uris":{"android":"levelo://app?vid=8aea6c1e-1b4f-43f7-bf3e-fc2d652c73c6","ios":"levelo://app?vid=8aea6c1e-1b4f-43f7-bf3e-fc2d652c73c6"},"vehicle_type_id":"4","last_reported":1731661804,"current_range_meters":6000,"station_id":"ce4bhl92rcd13ifvqghg","pricing_plan_id":"cebpf4jnsgd1na2vs0mg"},{"bike_id":"de5f89ce-3c23-451d-a52b-10e68cc821d6","system_id":"levelo_inurba_marseille","lat":43.25926,"lon":5.40922,"is_reserved":false,"is_disabled":false,"rental_uris":{"android":"levelo://app?vid=de5f89ce-3c23-451d-a52b-10e68cc821d6","ios":"levelo://app?vid=de5f89ce-3c23-451d-a52b-10e68cc821d6"},"vehicle_type_id":"4","last_reported":1731661804,"current_range_meters":9600,"station_id":"ce4bhm92rcd13ifvqglg","pricing_plan_id":"cebpf4jnsgd1na2vs0mg"},{"bike_id":"98091770-dcc5-4a56-8220-78a646028af1","system_id":"levelo_inurba_marseille","lat":43.26956,"lon":5.38631,"is_reserved":false,"is_disabled":false,"rental_uris":{"android":"levelo://app?vid=98091770-dcc5-4a56-8220-78a646028af1","ios":"levelo://app?vid=98091770-dcc5-4a56-8220-78a646028af1"},"vehicle_type_id":"4","last_reported":1731661804,"current_range_meters":36000,"station_id":"ce4bhh92rcd13ifvqfh0","pricing_plan_id":"cebpf4jnsgd1na2vs0mg"},{"bike_id":"b54f4471-f146-477a-ade3-58e1dea1b85e","system_id":"levelo_inurba_marseille","lat":43.337444,"lon":5.374475,"is_reserved":false,"is_disabled":false,"rental_uris":{"android":"levelo://app?vid=b54f4471-f146-477a-ade3-58e1dea1b85e","ios":"levelo://app?vid=b54f4471-f146-477a-ade3-58e1dea1b85e"},"vehicle_type_id":"4","last_reported":1731661804,"current_range_meters":38400,"station_id":"","pricing_plan_id":"cebpf4jnsgd1na2vs0mg"},{"bike_id":"6d6c2938-95fb-4e6b-911a-cc31cf922297","system_id":"levelo_inurba_marseille","lat":43.24085,"lon":5.37747,"is_reserved":false,"is_disabled":false,"rental_uris":{"android":"levelo://app?vid=6d6c2938-95fb-4e6b-911a-cc31cf922297","ios":"levelo://app?vid=6d6c2938-95fb-4e6b-911a-cc31cf922297"},"vehicle_type_id":"4","last_reported":1731661804,"current_range_meters":12400,"station_id":"ce4bhnp2rcd13ifvqgvg","pricing_plan_id":"cebpf4jnsgd1na2vs0mg"},{"bike_id":"e270c34e-9c66-4ca5-81d1-0c1270da9c85","system_id":"levelo_inurba_marseille","lat":43.26948,"lon":5.38629,"is_reserved":false,"is_disabled":false,"rental_uris":{"android":"levelo://app?vid=e270c34e-9c66-4ca5-81d1-0c1270da9c85","ios":"levelo://app?vid=e270c34e-9c66-4ca5-81d1-0c1270da9c85"},"vehicle_type_id":"4","last_reported":1731661804,"current_range_meters":38800,"station_id":"ce4bhh92rcd13ifvqfh0","pricing_plan_id":"cebpf4jnsgd1na2vs0mg"},{"bike_id":"3801d79e-aba9-453c-9e83-33f3550a7c41","system_id":"levelo_inurba_marseille","lat":43.24396,"lon":5.37063,"is_reserved":false,"is_disabled":false,"rental_uris":{"android":"levelo://app?vid=3801d79e-aba9-453c-9e83-33f3550a7c41","ios":"levelo://app?vid=3801d79e-aba9-453c-9e83-33f3550a7c41"},"vehicle_type_id":"4","last_reported":1731661804,"current_range_meters":38000,"station_id":"ce4bhhh2rcd13ifvqfk0","pricing_plan_id":"cebpf4jnsgd1na2vs0mg"},{"bike_id":"792531a3-4da6-4082-bd0a-16451cbb2558","system_id":"levelo_inurba_marseille","lat":43.26026,"lon":5.3755,"is_reserved":false,"is_disabled":false,"rental_uris":{"android":"levelo://app?vid=792531a3-4da6-4082-bd0a-16451cbb2558","ios":"levelo://app?vid=792531a3-4da6-4082-bd0a-16451cbb2558"},"vehicle_type_id":"4","last_reported":1731661804,"current_range_meters":22800,"station_id":"ce4bhgh2rcd13ifvqfa0","pricing_plan_id":"cebpf4jnsgd1na2vs0mg"},{"bike_id":"3518ef3f-0bbc-4e32-9c56-873651871a8f","system_id":"levelo_inurba_marseille","lat":43.25923,"lon":5.40919,"is_reserved":false,"is_disabled":false,"rental_uris":{"android":"levelo://app?vid=3518ef3f-0bbc-4e32-9c56-873651871a8f","ios":"levelo://app?vid=3518ef3f-0bbc-4e32-9c56-873651871a8f"},"vehicle_type_id":"4","last_reported":1731661804,"current_range_meters":24000,"station_id":"ce4bhm92rcd13ifvqglg","pricing_plan_id":"cebpf4jnsgd1na2vs0mg"},{"bike_id":"b03bbc42-f9e3-408d-856d-f2ee9cfcf300","system_id":"levelo_inurba_marseille","lat":43.30275,"lon":5.37704,"is_reserved":false,"is_disabled":false,"rental_uris":{"android":"levelo://app?vid=b03bbc42-f9e3-408d-856d-f2ee9cfcf300","ios":"levelo://app?vid=b03bbc42-f9e3-408d-856d-f2ee9cfcf300"},"vehicle_type_id":"4","last_reported":1731661804,"current_range_meters":38800,"station_id":"ce4bguh2rcd13ifvqcj0","pricing_plan_id":"cebpf4jnsgd1na2vs0mg"},{"bike_id":"c0ac1168-21ff-4da4-a13f-e813768e4b83","system_id":"levelo_inurba_marseille","lat":43.34147,"lon":5.40908,"is_reserved":false,"is_disabled":false,"rental_uris":{"android":"levelo://app?vid=c0ac1168-21ff-4da4-a13f-e813768e4b83","ios":"levelo://app?vid=c0ac1168-21ff-4da4-a13f-e813768e4b83"},"vehicle_type_id":"4","last_reported":1731661804,"current_range_meters":39200,"station_id":"ce4bhqh2rcd13ifvqhlg","pricing_plan_id":"cebpf4jnsgd1na2vs0mg"},{"bike_id":"d3f8c1f1-dcee-44eb-ba1c-ece194de026d","system_id":"levelo_inurba_marseille","lat":43.30144,"lon":5.38054,"is_reserved":false,"is_disabled":false,"rental_uris":{"android":"levelo://app?vid=d3f8c1f1-dcee-44eb-ba1c-ece194de026d","ios":"levelo://app?vid=d3f8c1f1-dcee-44eb-ba1c-ece194de026d"},"vehicle_type_id":"4","last_reported":1731661804,"current_range_meters":25200,"station_id":"ce4bgjp2rcd13ifvqbh0","pricing_plan_id":"cebpf4jnsgd1na2vs0mg"},{"bike_id":"65270fdd-b17f-4778-b113-1f6e5b138a26","system_id":"levelo_inurba_marseille","lat":43.273132,"lon":5.390733,"is_reserved":false,"is_disabled":false,"rental_uris":{"android":"levelo://app?vid=65270fdd-b17f-4778-b113-1f6e5b138a26","ios":"levelo://app?vid=65270fdd-b17f-4778-b113-1f6e5b138a26"},"vehicle_type_id":"4","last_reported":1731661804,"current_range_meters":36400,"station_id":"ce4bhgp2rcd13ifvqfe0","pricing_plan_id":"cebpf4jnsgd1na2vs0mg"},{"bike_id":"23aabbd6-8f88-45fc-bf14-a095c589f723","system_id":"levelo_inurba_marseille","lat":43.30462,"lon":5.37905,"is_reserved":false,"is_disabled":false,"rental_uris":{"android":"levelo://app?vid=23aabbd6-8f88-45fc-bf14-a095c589f723","ios":"levelo://app?vid=23aabbd6-8f88-45fc-bf14-a095c589f723"},"vehicle_type_id":"4","last_reported":1731661804,"current_range_meters":28000,"station_id":"ce4bgup2rcd13ifvqcn0","pricing_plan_id":"cebpf4jnsgd1na2vs0mg"},{"bike_id":"affcd397-63e4-4ee4-b85e-7684e92bc8de","system_id":"levelo_inurba_marseille","lat":43.25922,"lon":5.40924,"is_reserved":false,"is_disabled":false,"rental_uris":{"android":"levelo://app?vid=affcd397-63e4-4ee4-b85e-7684e92bc8de","ios":"levelo://app?vid=affcd397-63e4-4ee4-b85e-7684e92bc8de"},"vehicle_type_id":"4","last_reported":1731661804,"current_range_meters":25200,"station_id":"ce4bhm92rcd13ifvqglg","pricing_plan_id":"cebpf4jnsgd1na2vs0mg"},{"bike_id":"4d8c2b2b-c7e0-4a00-b28e-b4c407c86208","system_id":"levelo_inurba_marseille","lat":43.29549,"lon":5.42284,"is_reserved":false,"is_disabled":false,"rental_uris":{"android":"levelo://app?vid=4d8c2b2b-c7e0-4a00-b28e-b4c407c86208","ios":"levelo://app?vid=4d8c2b2b-c7e0-4a00-b28e-b4c407c86208"},"vehicle_type_id":"4","last_reported":1731661804,"current_range_meters":33200,"station_id":"ce4bhph2rcd13ifvqhdg","pricing_plan_id":"cebpf4jnsgd1na2vs0mg"},{"bike_id":"13bd3e15-2bc1-4d9e-9c40-442c0b772a78","system_id":"levelo_inurba_marseille","lat":43.30462,"lon":5.37912,"is_reserved":false,"is_disabled":false,"rental_uris":{"android":"levelo://app?vid=13bd3e15-2bc1-4d9e-9c40-442c0b772a78","ios":"levelo://app?vid=13bd3e15-2bc1-4d9e-9c40-442c0b772a78"},"vehicle_type_id":"4","last_reported":1731661804,"current_range_meters":39200,"station_id":"ce4bgup2rcd13ifvqcn0","pricing_plan_id":"cebpf4jnsgd1na2vs0mg"},{"bike_id":"c7d8c139-6b24-44c2-a47a-2486692d7a62","system_id":"levelo_inurba_marseille","lat":43.30534,"lon":5.36699,"is_reserved":false,"is_disabled":false,"rental_uris":{"android":"levelo://app?vid=c7d8c139-6b24-44c2-a47a-2486692d7a62","ios":"levelo://app?vid=c7d8c139-6b24-44c2-a47a-2486692d7a62"},"vehicle_type_id":"4","last_reported":1731661804,"current_range_meters":18000,"station_id":"ce4bgrp2rcd13ifvqc9g","pricing_plan_id":"cebpf4jnsgd1na2vs0mg"},{"bike_id":"a6b8c285-acc9-4039-9531-1aae39136a33","system_id":"levelo_inurba_marseille","lat":43.312042,"lon":5.367348,"is_reserved":false,"is_disabled":false,"rental_uris":{"android":"levelo://app?vid=a6b8c285-acc9-4039-9531-1aae39136a33","ios":"levelo://app?vid=a6b8c285-acc9-4039-9531-1aae39136a33"},"vehicle_type_id":"4","last_reported":1731661804,"current_range_meters":20000,"station_id":"","pricing_plan_id":"cebpf4jnsgd1na2vs0mg"},{"bike_id":"7bb570c0-977b-4afe-ba5f-f53cbc31fe9f","system_id":"levelo_inurba_marseille","lat":43.31706,"lon":5.37753,"is_reserved":false,"is_disabled":false,"rental_uris":{"android":"levelo://app?vid=7bb570c0-977b-4afe-ba5f-f53cbc31fe9f","ios":"levelo://app?vid=7bb570c0-977b-4afe-ba5f-f53cbc31fe9f"},"vehicle_type_id":"4","last_reported":1731661804,"current_range_meters":38800,"station_id":"ce4bgth2rcd13ifvqch0","pricing_plan_id":"cebpf4jnsgd1na2vs0mg"},{"bike_id":"3faf8961-1a4b-45db-85eb-62a8c225905a","system_id":"levelo_inurba_marseille","lat":43.28835,"lon":5.3933,"is_reserved":false,"is_disabled":false,"rental_uris":{"android":"levelo://app?vid=3faf8961-1a4b-45db-85eb-62a8c225905a","ios":"levelo://app?vid=3faf8961-1a4b-45db-85eb-62a8c225905a"},"vehicle_type_id":"4","last_reported":1731661804,"current_range_meters":39200,"station_id":"ce4bh2p2rcd13ifvqdi0","pricing_plan_id":"cebpf4jnsgd1na2vs0mg"},{"bike_id":"eccba836-c157-41f3-8399-f5d5619dc93b","system_id":"levelo_inurba_marseille","lat":43.29051,"lon":5.39963,"is_reserved":false,"is_disabled":false,"rental_uris":{"android":"levelo://app?vid=eccba836-c157-41f3-8399-f5d5619dc93b","ios":"levelo://app?vid=eccba836-c157-41f3-8399-f5d5619dc93b"},"vehicle_type_id":"4","last_reported":1731661804,"current_range_meters":26000,"station_id":"ce4bh392rcd13ifvqdm0","pricing_plan_id":"cebpf4jnsgd1na2vs0mg"},{"bike_id":"15462ef7-c093-4c55-89a2-6a72e5084dc1","system_id":"levelo_inurba_marseille","lat":43.337444,"lon":5.374475,"is_reserved":false,"is_disabled":false,"rental_uris":{"android":"levelo://app?vid=15462ef7-c093-4c55-89a2-6a72e5084dc1","ios":"levelo://app?vid=15462ef7-c093-4c55-89a2-6a72e5084dc1"},"vehicle_type_id":"4","last_reported":1731661804,"current_range_meters":22000,"station_id":"","pricing_plan_id":"cebpf4jnsgd1na2vs0mg"},{"bike_id":"c40b621d-7d62-4ee0-97f1-b449423207cc","system_id":"levelo_inurba_marseille","lat":43.2558,"lon":5.38229,"is_reserved":false,"is_disabled":false,"rental_uris":{"android":"levelo://app?vid=c40b621d-7d62-4ee0-97f1-b449423207cc","ios":"levelo://app?vid=c40b621d-7d62-4ee0-97f1-b449423207cc"},"vehicle_type_id":"4","last_reported":1731661804,"current_range_meters":6400,"station_id":"ce4bhih2rcd13ifvqfs0","pricing_plan_id":"cebpf4jnsgd1na2vs0mg"},{"bike_id":"845427e0-2074-4c78-ac96-d10ca74206e9","system_id":"levelo_inurba_marseille","lat":43.24664,"lon":5.38168,"is_reserved":false,"is_disabled":false,"rental_uris":{"android":"levelo://app?vid=845427e0-2074-4c78-ac96-d10ca74206e9","ios":"levelo://app?vid=845427e0-2074-4c78-ac96-d10ca74206e9"},"vehicle_type_id":"4","last_reported":1731661804,"current_range_meters":10800,"station_id":"ce4bhih2rcd13ifvqfr0","pricing_plan_id":"cebpf4jnsgd1na2vs0mg"},{"bike_id":"da3dd686-0685-436f-847a-8d878c0670e9","system_id":"levelo_inurba_marseille","lat":43.30186,"lon":5.36621,"is_reserved":false,"is_disabled":false,"rental_uris":{"android":"levelo://app?vid=da3dd686-0685-436f-847a-8d878c0670e9","ios":"levelo://app?vid=da3dd686-0685-436f-847a-8d878c0670e9"},"vehicle_type_id":"4","last_reported":1731661804,"current_range_meters":38800,"station_id":"ce4bgrh2rcd13ifvqc8g","pricing_plan_id":"cebpf4jnsgd1na2vs0mg"},{"bike_id":"73c187df-f444-486b-8c09-6b89cc0b88b4","system_id":"levelo_inurba_marseille","lat":43.29039,"lon":5.399685,"is_reserved":false,"is_disabled":false,"rental_uris":{"android":"levelo://app?vid=73c187df-f444-486b-8c09-6b89cc0b88b4","ios":"levelo://app?vid=73c187df-f444-486b-8c09-6b89cc0b88b4"},"vehicle_type_id":"4","last_reported":1731661804,"current_range_meters":27600,"station_id":"ce4bgth2rcd13ifvqch0","pricing_plan_id":"cebpf4jnsgd1na2vs0mg"},{"bike_id":"fb99fb82-1c03-4526-b862-280bcf8ac70c","system_id":"levelo_inurba_marseille","lat":43.23973,"lon":5.36622,"is_reserved":false,"is_disabled":false,"rental_uris":{"android":"levelo://app?vid=fb99fb82-1c03-4526-b862-280bcf8ac70c","ios":"levelo://app?vid=fb99fb82-1c03-4526-b862-280bcf8ac70c"},"vehicle_type_id":"4","last_reported":1731661804,"current_range_meters":15200,"station_id":"ce4bhi12rcd13ifvqfp0","pricing_plan_id":"cebpf4jnsgd1na2vs0mg"},{"bike_id":"e8312b5c-f2d3-4384-bc25-53e8fdd11988","system_id":"levelo_inurba_marseille","lat":43.31353,"lon":5.36711,"is_reserved":false,"is_disabled":false,"rental_uris":{"android":"levelo://app?vid=e8312b5c-f2d3-4384-bc25-53e8fdd11988","ios":"levelo://app?vid=e8312b5c-f2d3-4384-bc25-53e8fdd11988"},"vehicle_type_id":"4","last_reported":1731661804,"current_range_meters":11600,"station_id":"ce4bgr92rcd13ifvqc6g","pricing_plan_id":"cebpf4jnsgd1na2vs0mg"},{"bike_id":"1ae8fe75-00ad-479b-a755-74d45d76bfbe","system_id":"levelo_inurba_marseille","lat":43.24168,"lon":5.36402,"is_reserved":false,"is_disabled":false,"rental_uris":{"android":"levelo://app?vid=1ae8fe75-00ad-479b-a755-74d45d76bfbe","ios":"levelo://app?vid=1ae8fe75-00ad-479b-a755-74d45d76bfbe"},"vehicle_type_id":"4","last_reported":1731661804,"current_range_meters":12000,"station_id":"cpo36qri1sfpv3e86is0","pricing_plan_id":"cebpf4jnsgd1na2vs0mg"},{"bike_id":"43fcca79-91a5-4f38-b8b1-68482d73780d","system_id":"levelo_inurba_marseille","lat":43.30914,"lon":5.36848,"is_reserved":false,"is_disabled":false,"rental_uris":{"android":"levelo://app?vid=43fcca79-91a5-4f38-b8b1-68482d73780d","ios":"levelo://app?vid=43fcca79-91a5-4f38-b8b1-68482d73780d"},"vehicle_type_id":"4","last_reported":1731661804,"current_range_meters":36400,"station_id":"ce4bgn92rcd13ifvqbvg","pricing_plan_id":"cebpf4jnsgd1na2vs0mg"},{"bike_id":"d1e78170-5fa0-4c6d-80de-47b3f2d87661","system_id":"levelo_inurba_marseille","lat":43.30289,"lon":5.37698,"is_reserved":false,"is_disabled":false,"rental_uris":{"android":"levelo://app?vid=d1e78170-5fa0-4c6d-80de-47b3f2d87661","ios":"levelo://app?vid=d1e78170-5fa0-4c6d-80de-47b3f2d87661"},"vehicle_type_id":"4","last_reported":1731661804,"current_range_meters":26800,"station_id":"ce4bguh2rcd13ifvqcj0","pricing_plan_id":"cebpf4jnsgd1na2vs0mg"},{"bike_id":"bb335ce8-237c-4afb-a077-43cbff4664c9","system_id":"levelo_inurba_marseille","lat":43.26686,"lon":5.3827,"is_reserved":false,"is_disabled":false,"rental_uris":{"android":"levelo://app?vid=bb335ce8-237c-4afb-a077-43cbff4664c9","ios":"levelo://app?vid=bb335ce8-237c-4afb-a077-43cbff4664c9"},"vehicle_type_id":"4","last_reported":1731661804,"current_range_meters":38800,"station_id":"ce4bhg92rcd13ifvqf90","pricing_plan_id":"cebpf4jnsgd1na2vs0mg"},{"bike_id":"92ac4858-87d6-4ceb-8f6e-004635a816a8","system_id":"levelo_inurba_marseille","lat":43.2779,"lon":5.40727,"is_reserved":false,"is_disabled":false,"rental_uris":{"android":"levelo://app?vid=92ac4858-87d6-4ceb-8f6e-004635a816a8","ios":"levelo://app?vid=92ac4858-87d6-4ceb-8f6e-004635a816a8"},"vehicle_type_id":"4","last_reported":1731661804,"current_range_meters":37600,"station_id":"ce4bhnh2rcd13ifvqgtg","pricing_plan_id":"cebpf4jnsgd1na2vs0mg"},{"bike_id":"2894e43d-b63d-487b-8b10-0adb3f1cec8d","system_id":"levelo_inurba_marseille","lat":43.30287,"lon":5.37715,"is_reserved":false,"is_disabled":false,"rental_uris":{"android":"levelo://app?vid=2894e43d-b63d-487b-8b10-0adb3f1cec8d","ios":"levelo://app?vid=2894e43d-b63d-487b-8b10-0adb3f1cec8d"},"vehicle_type_id":"4","last_reported":1731661804,"current_range_meters":11200,"station_id":"ce4bguh2rcd13ifvqcj0","pricing_plan_id":"cebpf4jnsgd1na2vs0mg"},{"bike_id":"16c431de-b128-4380-a727-8a0a0eba5b1b","system_id":"levelo_inurba_marseille","lat":43.24389,"lon":5.37048,"is_reserved":false,"is_disabled":false,"rental_uris":{"android":"levelo://app?vid=16c431de-b128-4380-a727-8a0a0eba5b1b","ios":"levelo://app?vid=16c431de-b128-4380-a727-8a0a0eba5b1b"},"vehicle_type_id":"4","last_reported":1731661804,"current_range_meters":38800,"station_id":"ce4bhhh2rcd13ifvqfk0","pricing_plan_id":"cebpf4jnsgd1na2vs0mg"},{"bike_id":"d37a5777-a5f5-4b7f-b7f5-a1dae307da91","system_id":"levelo_inurba_marseille","lat":43.23193,"lon":5.35548,"is_reserved":false,"is_disabled":false,"rental_uris":{"android":"levelo://app?vid=d37a5777-a5f5-4b7f-b7f5-a1dae307da91","ios":"levelo://app?vid=d37a5777-a5f5-4b7f-b7f5-a1dae307da91"},"vehicle_type_id":"4","last_reported":1731661804,"current_range_meters":36800,"station_id":"ce4bhu92rcd13ifvqi70","pricing_plan_id":"cebpf4jnsgd1na2vs0mg"},{"bike_id":"96abd8d8-a19c-4f30-ab21-0f132659b9fe","system_id":"levelo_inurba_marseille","lat":43.31689,"lon":5.40468,"is_reserved":false,"is_disabled":false,"rental_uris":{"android":"levelo://app?vid=96abd8d8-a19c-4f30-ab21-0f132659b9fe","ios":"levelo://app?vid=96abd8d8-a19c-4f30-ab21-0f132659b9fe"},"vehicle_type_id":"4","last_reported":1731661804,"current_range_meters":27200,"station_id":"ce4bh012rcd13ifvqd00","pricing_plan_id":"cebpf4jnsgd1na2vs0mg"},{"bike_id":"ce040b38-28ae-4765-a386-8e1650445d70","system_id":"levelo_inurba_marseille","lat":43.29602,"lon":5.38087,"is_reserved":false,"is_disabled":false,"rental_uris":{"android":"levelo://app?vid=ce040b38-28ae-4765-a386-8e1650445d70","ios":"levelo://app?vid=ce040b38-28ae-4765-a386-8e1650445d70"},"vehicle_type_id":"4","last_reported":1731661804,"current_range_meters":36000,"station_id":"ce4bgl12rcd13ifvqbo0","pricing_plan_id":"cebpf4jnsgd1na2vs0mg"},{"bike_id":"2513252d-6ea7-4cce-b26a-c457e1decc84","system_id":"levelo_inurba_marseille","lat":43.28947,"lon":5.36633,"is_reserved":false,"is_disabled":false,"rental_uris":{"android":"levelo://app?vid=2513252d-6ea7-4cce-b26a-c457e1decc84","ios":"levelo://app?vid=2513252d-6ea7-4cce-b26a-c457e1decc84"},"vehicle_type_id":"4","last_reported":1731661804,"current_range_meters":37600,"station_id":"ce4bhap2rcd13ifvqek0","pricing_plan_id":"cebpf4jnsgd1na2vs0mg"},{"bike_id":"674b0e8f-8c9e-4c11-a204-160fb5dcf762","system_id":"levelo_inurba_marseille","lat":43.243879,"lon":5.37054,"is_reserved":false,"is_disabled":false,"rental_uris":{"android":"levelo://app?vid=674b0e8f-8c9e-4c11-a204-160fb5dcf762","ios":"levelo://app?vid=674b0e8f-8c9e-4c11-a204-160fb5dcf762"},"vehicle_type_id":"4","last_reported":1731661804,"current_range_meters":38800,"station_id":"ce4bhhh2rcd13ifvqfk0","pricing_plan_id":"cebpf4jnsgd1na2vs0mg"},{"bike_id":"9a2fd9f5-e6f0-4451-bce7-490ba3b214c2","system_id":"levelo_inurba_marseille","lat":43.33611,"lon":5.41033,"is_reserved":false,"is_disabled":false,"rental_uris":{"android":"levelo://app?vid=9a2fd9f5-e6f0-4451-bce7-490ba3b214c2","ios":"levelo://app?vid=9a2fd9f5-e6f0-4451-bce7-490ba3b214c2"},"vehicle_type_id":"4","last_reported":1731661804,"current_range_meters":28000,"station_id":"ce4bhqh2rcd13ifvqhmg","pricing_plan_id":"cebpf4jnsgd1na2vs0mg"},{"bike_id":"faeb0115-051f-4da1-be55-f858aa021f49","system_id":"levelo_inurba_marseille","lat":43.27993,"lon":5.41658,"is_reserved":false,"is_disabled":false,"rental_uris":{"android":"levelo://app?vid=faeb0115-051f-4da1-be55-f858aa021f49","ios":"levelo://app?vid=faeb0115-051f-4da1-be55-f858aa021f49"},"vehicle_type_id":"4","last_reported":1731661804,"current_range_meters":16800,"station_id":"ce4bho12rcd13ifvqh1g","pricing_plan_id":"cebpf4jnsgd1na2vs0mg"},