{"last_updated":1702887037,"ttl":30,"version":"2.2","data":{"bikes":[{"bike_id":"19d38c64-1f80-4241-ae3f-24cc0f2bed28","system_id":"levelo_inurba_marseille","lat":43.31341,"lon":5.367098,"is_reserved":false,"is_disabled":false,"rental_uris":{"android":"levelo://app?vid=19d38c64-1f80-4241-ae3f-24cc0f2bed28","ios":"levelo://app?vid=19d38c64-1f80-4241-ae3f-24cc0f2bed28"},"vehicle_type_id":"4","last_reported":1702887037,"current_range_meters":20400,"station_id":"ce4bgr92rcd13ifvqc6g","pricing_plan_id":"free"},{"bike_id":"2a35484a-0926-4daa-abd1-ee8694286426","system_id":"levelo_inurba_marseille","lat":43.31341,"lon":5.367098,"is_reserved":false,"is_disabled":false,"rental_uris":{"android":"levelo://app?vid=2a35484a-0926-4daa-abd1-ee8694286426","ios":"levelo://app?vid=2a35484a-0926-4daa-abd1-ee8694286426"},"vehicle_type_id":"4","last_reported":1702887037,"current_range_meters":13600,"station_id":"ce4bgr92rcd13ifvqc6g","pricing_plan_id":"free"},{"bike_id":"ab7a7104-f849-4234-8d21-da7063b2b5ab","system_id":"levelo_inurba_marseille","lat":43.31341,"lon":5.367098,"is_reserved":false,"is_disabled":false,"rental_uris":{"android":"levelo://app?vid=ab7a7104-f849-4234-8d21-da7063b2b5ab","ios":"levelo://app?vid=ab7a7104-f849-4234-8d21-da7063b2b5ab"},"vehicle_type_id":"4","last_reported":1702887037,"current_range_meters":12800,"station_id":"ce4bgr92rcd13ifvqc6g","pricing_plan_id":"free"},{"bike_id":"4cf2c463-4fcf-4b40-8f47-d4c001339294","system_id":"levelo_inurba_marseille","lat":43.313391,"lon":5.36706,"is_reserved":false,"is_disabled":false,"rental_uris":{"android":"levelo://app?vid=4cf2c463-4fcf-4b40-8f47-d4c001339294","ios":"levelo://app?vid=4cf2c463-4fcf-4b40-8f47-d4c001339294"},"vehicle_type_id":"4","last_reported":1702887037,"current_range_meters":31600,"station_id":"ce4bgr92rcd13ifvqc6g","pricing_plan_id":"free"},{"bike_id":"b9e387d8-18f5-443a-b524-a9bc938b3c3c","system_id":"levelo_inurba_marseille","lat":43.31347,"lon":5.36718,"is_reserved":false,"is_disabled":false,"rental_uris":{"android":"levelo://app?vid=b9e387d8-18f5-443a-b524-a9bc938b3c3c","ios":"levelo://app?vid=b9e387d8-18f5-443a-b524-a9bc938b3c3c"},"vehicle_type_id":"4","last_reported":1702887037,"current_range_meters":23200,"station_id":"ce4bgr92rcd13ifvqc6g","pricing_plan_id":"free"},{"bike_id":"f3b0c131-5380-4666-98fa-6affed18498a","system_id":"levelo_inurba_marseille","lat":43.31341,"lon":5.367098,"is_reserved":false,"is_disabled":false,"rental_uris":{"android":"levelo://app?vid=f3b0c131-5380-4666-98fa-6affed18498a","ios":"levelo://app?vid=f3b0c131-5380-4666-98fa-6affed18498a"},"vehicle_type_id":"4","last_reported":1702887037,"current_range_meters":8800,"station_id":"ce4bgr92rcd13ifvqc6g","pricing_plan_id":"free"},{"bike_id":"b2988eb2-5692-47e1-90d4-040e9464d95b","system_id":"levelo_inurba_marseille","lat":43.313391,"lon":5.36706,"is_reserved":false,"is_disabled":false,"rental_uris":{"android":"levelo://app?vid=b2988eb2-5692-47e1-90d4-040e9464d95b","ios":"levelo://app?vid=b2988eb2-5692-47e1-90d4-040e9464d95b"},"vehicle_type_id":"4","last_reported":1702887037,"current_range_meters":22000,"station_id":"ce4bgr92rcd13ifvqc6g","pricing_plan_id":"free"},{"bike_id":"4fc9f832-7db8-4188-af64-2e5c98dde42e","system_id":"levelo_inurba_marseille","lat":43.313391,"lon":5.36706,"is_reserved":false,"is_disabled":false,"rental_uris":{"android":"levelo://app?vid=4fc9f832-7db8-4188-af64-2e5c98dde42e","ios":"levelo://app?vid=4fc9f832-7db8-4188-af64-2e5c98dde42e"},"vehicle_type_id":"4","last_reported":1702887037,"current_range_meters":26000,"station_id":"ce4bgr92rcd13ifvqc6g","pricing_plan_id":"free"},{"bike_id":"e223c69a-1d61-4a03-811f-5db9cad1005b","system_id":"levelo_inurba_marseille","lat":43.31341,"lon":5.367098,"is_reserved":false,"is_disabled":false,"rental_uris":{"android":"levelo://app?vid=e223c69a-1d61-4a03-811f-5db9cad1005b","ios":"levelo://app?vid=e223c69a-1d61-4a03-811f-5db9cad1005b"},"vehicle_type_id":"4","last_reported":1702887037,"current_range_meters":23600,"station_id":"ce4bgr92rcd13ifvqc6g","pricing_plan_id":"free"},{"bike_id":"98b54974-3b1d-47c7-af5d-e6243eb800ea","system_id":"levelo_inurba_marseille","lat":43.31341,"lon":5.367098,"is_reserved":false,"is_disabled":false,"rental_uris":{"android":"levelo://app?vid=98b54974-3b1d-47c7-af5d-e6243eb800ea","ios":"levelo://app?vid=98b54974-3b1d-47c7-af5d-e6243eb800ea"},"vehicle_type_id":"4","last_reported":1702887037,"current_range_meters":5600,"station_id":"ce4bgr92rcd13ifvqc6g","pricing_plan_id":"free"},{"bike_id":"b3e0af21-ee86-4aa8-9916-d7bac4d530f0","system_id":"levelo_inurba_marseille","lat":43.313391,"lon":5.36706,"is_reserved":false,"is_disabled":false,"rental_uris":{"android":"levelo://app?vid=b3e0af21-ee86-4aa8-9916-d7bac4d530f0","ios":"levelo://app?vid=b3e0af21-ee86-4aa8-9916-d7bac4d530f0"},"vehicle_type_id":"4","last_reported":1702887037,"current_range_meters":27600,"station_id":"ce4bgr92rcd13ifvqc6g","pricing_plan_id":"free"},{"bike_id":"ccbc476a-ba92-43c6-898d-76d2c8beed82","system_id":"levelo_inurba_marseille","lat":43.312239,"lon":5.368562,"is_reserved":false,"is_disabled":false,"rental_uris":{"android":"levelo://app?vid=ccbc476a-ba92-43c6-898d-76d2c8beed82","ios":"levelo://app?vid=ccbc476a-ba92-43c6-898d-76d2c8beed82"},"vehicle_type_id":"4","last_reported":1702887037,"current_range_meters":21600,"station_id":"ce4bgl92rcd13ifvqbq0","pricing_plan_id":"free"},{"bike_id":"7ab59877-030b-4329-b4fb-e9d31e0f999c","system_id":"levelo_inurba_marseille","lat":43.312239,"lon":5.368562,"is_reserved":false,"is_disabled":false,"rental_uris":{"android":"levelo://app?vid=7ab59877-030b-4329-b4fb-e9d31e0f999c","ios":"levelo://app?vid=7ab59877-030b-4329-b4fb-e9d31e0f999c"},"vehicle_type_id":"4","last_reported":1702887037,"current_range_meters":24400,"station_id":"ce4bgl92rcd13ifvqbq0","pricing_plan_id":"free"},{"bike_id":"a20719af-a94d-488f-9df3-f3ef1b2553c5","system_id":"levelo_inurba_marseille","lat":43.312239,"lon":5.368562,"is_reserved":false,"is_disabled":false,"rental_uris":{"android":"levelo://app?vid=a20719af-a94d-488f-9df3-f3ef1b2553c5","ios":"levelo://app?vid=a20719af-a94d-488f-9df3-f3ef1b2553c5"},"vehicle_type_id":"4","last_reported":1702887037,"current_range_meters":17600,"station_id":"ce4bgl92rcd13ifvqbq0","pricing_plan_id":"free"},{"bike_id":"d03066d9-96cf-4f9f-812f-6e75e1aad218","system_id":"levelo_inurba_marseille","lat":43.309076,"lon":5.368465,"is_reserved":false,"is_disabled":false,"rental_uris":{"android":"levelo://app?vid=d03066d9-96cf-4f9f-812f-6e75e1aad218","ios":"levelo://app?vid=d03066d9-96cf-4f9f-812f-6e75e1aad218"},"vehicle_type_id":"4","last_reported":1702887037,"current_range_meters":16800,"station_id":"ce4bgn92rcd13ifvqbvg","pricing_plan_id":"free"},{"bike_id":"d59fb552-14ce-429d-920f-2fb16cf74279","system_id":"levelo_inurba_marseille","lat":43.309076,"lon":5.368465,"is_reserved":false,"is_disabled":false,"rental_uris":{"android":"levelo://app?vid=d59fb552-14ce-429d-920f-2fb16cf74279","ios":"levelo://app?vid=d59fb552-14ce-429d-920f-2fb16cf74279"},"vehicle_type_id":"4","last_reported":1702887037,"current_range_meters":19200,"station_id":"ce4bgn92rcd13ifvqbvg","pricing_plan_id":"free"},{"bike_id":"1d465e15-52d1-44a7-8df6-28df6d416bfd","system_id":"levelo_inurba_marseille","lat":43.309076,"lon":5.368465,"is_reserved":false,"is_disabled":false,"rental_uris":{"android":"levelo://app?vid=1d465e15-52d1-44a7-8df6-28df6d416bfd","ios":"levelo://app?vid=1d465e15-52d1-44a7-8df6-28df6d416bfd"},"vehicle_type_id":"4","last_reported":1702887037,"current_range_meters":24400,"station_id":"ce4bgn92rcd13ifvqbvg","pricing_plan_id":"free"},{"bike_id":"17518c11-9ff9-4e3b-8858-32d744eb9e16","system_id":"levelo_inurba_marseille","lat":43.309076,"lon":5.368465,"is_reserved":false,"is_disabled":false,"rental_uris":{"android":"levelo://app?vid=17518c11-9ff9-4e3b-8858-32d744eb9e16","ios":"levelo://app?vid=17518c11-9ff9-4e3b-8858-32d744eb9e16"},"vehicle_type_id":"4","last_reported":1702887037,"current_range_meters":31200,"station_id":"ce4bgn92rcd13ifvqbvg","pricing_plan_id":"free"},{"bike_id":"b68c4dbf-fd47-480a-bc56-568c1ee4f600","system_id":"levelo_inurba_marseille","lat":43.309076,"lon":5.368465,"is_reserved":false,"is_disabled":false,"rental_uris":{"android":"levelo://app?vid=b68c4dbf-fd47-480a-bc56-568c1ee4f600","ios":"levelo://app?vid=b68c4dbf-fd47-480a-bc56-568c1ee4f600"},"vehicle_type_id":"4","last_reported":1702887037,"current_range_meters":18000,"station_id":"ce4bgn92rcd13ifvqbvg","pricing_plan_id":"free"},{"bike_id":"47726aa0-e745-4d9c-9908-3d4ddab2a909","system_id":"levelo_inurba_marseille","lat":43.309076,"lon":5.368465,"is_reserved":false,"is_disabled":false,"rental_uris":{"android":"levelo://app?vid=47726aa0-e745-4d9c-9908-3d4ddab2a909","ios":"levelo://app?vid=47726aa0-e745-4d9c-9908-3d4ddab2a909"},"vehicle_type_id":"4","last_reported":1702887037,"current_range_meters":30400,"station_id":"ce4bgn92rcd13ifvqbvg","pricing_plan_id":"free"},{"bike_id":"ba1c86e2-219f-48d1-8d59-82885676ea84","system_id":"levelo_inurba_marseille","lat":43.309076,"lon":5.368465,"is_reserved":false,"is_disabled":false,"rental_uris":{"android":"levelo://app?vid=ba1c86e2-219f-48d1-8d59-82885676ea84","ios":"levelo://app?vid=ba1c86e2-219f-48d1-8d59-82885676ea84"},"vehicle_type_id":"4","last_reported":1702887037,"current_range_meters":26400,"station_id":"ce4bgn92rcd13ifvqbvg","pricing_plan_id":"free"},{"bike_id":"e684c97f-3c32-400f-9e45-2470e30888ec","system_id":"levelo_inurba_marseille","lat":43.309076,"lon":5.368465,"is_reserved":false,"is_disabled":false,"rental_uris":{"android":"levelo://app?vid=e684c97f-3c32-400f-9e45-2470e30888ec","ios":"levelo://app?vid=e684c97f-3c32-400f-9e45-2470e30888ec"},"vehicle_type_id":"4","last_reported":1702887037,"current_range_meters":14400,"station_id":"ce4bgn92rcd13ifvqbvg","pricing_plan_id":"free"},{"bike_id":"b2819221-57af-4835-9092-151e2c662355","system_id":"levelo_inurba_marseille","lat":43.309076,"lon":5.368465,"is_reserved":false,"is_disabled":false,"rental_uris":{"android":"levelo://app?vid=b2819221-57af-4835-9092-151e2c662355","ios":"levelo://app?vid=b2819221-57af-4835-9092-151e2c662355"},"vehicle_type_id":"4","last_reported":1702887037,"current_range_meters":18000,"station_id":"ce4bgn92rcd13ifvqbvg","pricing_plan_id":"free"},{"bike_id":"4cfd0133-0a42-4630-ade2-52a6cb8165ca","system_id":"levelo_inurba_marseille","lat":43.305712,"lon":5.365641,"is_reserved":false,"is_disabled":false,"rental_uris":{"android":"levelo://app?vid=4cfd0133-0a42-4630-ade2-52a6cb8165ca","ios":"levelo://app?vid=4cfd0133-0a42-4630-ade2-52a6cb8165ca"},"vehicle_type_id":"4","last_reported":1702887037,"current_range_meters":28400,"station_id":"ce4bgs12rcd13ifvqcag","pricing_plan_id":"free"},{"bike_id":"e0f357c5-64bd-4979-a079-5714ce993633","system_id":"levelo_inurba_marseille","lat":43.30555,"lon":5.36544,"is_reserved":false,"is_disabled":false,"rental_uris":{"android":"levelo://app?vid=e0f357c5-64bd-4979-a079-5714ce993633","ios":"levelo://app?vid=e0f357c5-64bd-4979-a079-5714ce993633"},"vehicle_type_id":"4","last_reported":1702887037,"current_range_meters":30000,"station_id":"ce4bgs12rcd13ifvqcag","pricing_plan_id":"free"},{"bike_id":"e750a5f2-f3b6-4769-99cc-1075408204bb","system_id":"levelo_inurba_marseille","lat":43.305712,"lon":5.365641,"is_reserved":false,"is_disabled":false,"rental_uris":{"android":"levelo://app?vid=e750a5f2-f3b6-4769-99cc-1075408204bb","ios":"levelo://app?vid=e750a5f2-f3b6-4769-99cc-1075408204bb"},"vehicle_type_id":"4","last_reported":1702887037,"current_range_meters":28400,"station_id":"ce4bgs12rcd13ifvqcag","pricing_plan_id":"free"},{"bike_id":"99c51a4d-8d55-4074-973c-5cb6d318730f","system_id":"levelo_inurba_marseille","lat":43.3054,"lon":5.36716,"is_reserved":false,"is_disabled":false,"rental_uris":{"android":"levelo://app?vid=99c51a4d-8d55-4074-973c-5cb6d318730f","ios":"levelo://app?vid=99c51a4d-8d55-4074-973c-5cb6d318730f"},"vehicle_type_id":"4","last_reported":1702887037,"current_range_meters":23200,"station_id":"ce4bgrp2rcd13ifvqc9g","pricing_plan_id":"free"},{"bike_id":"87a4b384-f7e8-40ac-9ff1-5a7cfb9646b6","system_id":"levelo_inurba_marseille","lat":43.305714,"lon":5.365633,"is_reserved":false,"is_disabled":false,"rental_uris":{"android":"levelo://app?vid=87a4b384-f7e8-40ac-9ff1-5a7cfb9646b6","ios":"levelo://app?vid=87a4b384-f7e8-40ac-9ff1-5a7cfb9646b6"},"vehicle_type_id":"4","last_reported":1702887037,"current_range_meters":17200,"station_id":"ce4bgs12rcd13ifvqcag","pricing_plan_id":"free"},{"bike_id":"a9bd40c7-fefa-4ddb-a9fc-704c20cea26a","system_id":"levelo_inurba_marseille","lat":43.305714,"lon":5.365633,"is_reserved":false,"is_disabled":false,"rental_uris":{"android":"levelo://app?vid=a9bd40c7-fefa-4ddb-a9fc-704c20cea26a","ios":"levelo://app?vid=a9bd40c7-fefa-4ddb-a9fc-704c20cea26a"},"vehicle_type_id":"4","last_reported":1702887037,"current_range_meters":17600,"station_id":"ce4bgs12rcd13ifvqcag","pricing_plan_id":"free"},{"bike_id":"1fb55ffe-7d20-4e7c-9ed5-ee9777700e9f","system_id":"levelo_inurba_marseille","lat":43.305368,"lon":5.367343,"is_reserved":false,"is_disabled":false,"rental_uris":{"android":"levelo://app?vid=1fb55ffe-7d20-4e7c-9ed5-ee9777700e9f","ios":"levelo://app?vid=1fb55ffe-7d20-4e7c-9ed5-ee9777700e9f"},"vehicle_type_id":"4","last_reported":1702887037,"current_range_meters":3600,"station_id":"ce4bgrp2rcd13ifvqc9g","pricing_plan_id":"free"},{"bike_id":"d6f7d70f-0d29-42b2-9a3f-5b8f2b4be101","system_id":"levelo_inurba_marseille","lat":43.305706,"lon":5.365654,"is_reserved":false,"is_disabled":false,"rental_uris":{"android":"levelo://app?vid=d6f7d70f-0d29-42b2-9a3f-5b8f2b4be101","ios":"levelo://app?vid=d6f7d70f-0d29-42b2-9a3f-5b8f2b4be101"},"vehicle_type_id":"4","last_reported":1702887037,"current_range_meters":24400,"station_id":"ce4bgs12rcd13ifvqcag","pricing_plan_id":"free"},{"bike_id":"95999574-ffb2-4737-b069-969744c13abf","system_id":"levelo_inurba_marseille","lat":43.305706,"lon":5.365654,"is_reserved":false,"is_disabled":false,"rental_uris":{"android":"levelo://app?vid=95999574-ffb2-4737-b069-969744c13abf","ios":"levelo://app?vid=95999574-ffb2-4737-b069-969744c13abf"},"vehicle_type_id":"4","last_reported":1702887037,"current_range_meters":26800,"station_id":"ce4bgs12rcd13ifvqcag","pricing_plan_id":"free"},{"bike_id":"4a3b7203-a339-4954-bedb-5bef765948c5","system_id":"levelo_inurba_marseille","lat":43.305368,"lon":5.367343,"is_reserved":false,"is_disabled":false,"rental_uris":{"android":"levelo://app?vid=4a3b7203-a339-4954-bedb-5bef765948c5","ios":"levelo://app?vid=4a3b7203-a339-4954-bedb-5bef765948c5"},"vehicle_type_id":"4","last_reported":1702887037,"current_range_meters":23600,"station_id":"ce4bgrp2rcd13ifvqc9g","pricing_plan_id":"free"},{"bike_id":"28ccea3c-6fe7-494c-b049-b69db180f246","system_id":"levelo_inurba_marseille","lat":43.305714,"lon":5.365633,"is_reserved":false,"is_disabled":false,"rental_uris":{"android":"levelo://app?vid=28ccea3c-6fe7-494c-b049-b69db180f246","ios":"levelo://app?vid=28ccea3c-6fe7-494c-b049-b69db180f246"},"vehicle_type_id":"4","last_reported":1702887037,"current_range_meters":22800,"station_id":"ce4bgs12rcd13ifvqcag","pricing_plan_id":"free"},{"bike_id":"f5243271-d4dd-4b90-86d9-af9cbf375878","system_id":"levelo_inurba_marseille","lat":43.305368,"lon":5.367343,"is_reserved":false,"is_disabled":false,"rental_uris":{"android":"levelo://app?vid=f5243271-d4dd-4b90-86d9-af9cbf375878","ios":"levelo://app?vid=f5243271-d4dd-4b90-86d9-af9cbf375878"},"vehicle_type_id":"4","last_reported":1702887037,"current_range_meters":14400,"station_id":"ce4bgrp2rcd13ifvqc9g","pricing_plan_id":"free"},{"bike_id":"955e4ab2-16e5-44e8-a986-a2f50ff96c06","system_id":"levelo_inurba_marseille","lat":43.305382,"lon":5.365389,"is_reserved":false,"is_disabled":false,"rental_uris":{"android":"levelo://app?vid=955e4ab2-16e5-44e8-a986-a2f50ff96c06","ios":"levelo://app?vid=955e4ab2-16e5-44e8-a986-a2f50ff96c06"},"vehicle_type_id":"4","last_reported":1702887037,"current_range_meters":8800,"station_id":"","pricing_plan_id":"free"},{"bike_id":"05fa78bb-31b8-4484-a9b9-352b2251b854","system_id":"levelo_inurba_marseille","lat":43.305706,"lon":5.365654,"is_reserved":false,"is_disabled":false,"rental_uris":{"android":"levelo://app?vid=05fa78bb-31b8-4484-a9b9-352b2251b854","ios":"levelo://app?vid=05fa78bb-31b8-4484-a9b9-352b2251b854"},"vehicle_type_id":"4","last_reported":1702887037,"current_range_meters":29600,"station_id":"ce4bgs12rcd13ifvqcag","pricing_plan_id":"free"},{"bike_id":"f63cb99d-f5fe-48b5-98d6-c1343f45becf","system_id":"levelo_inurba_marseille","lat":43.305989,"lon":5.37225,"is_reserved":false,"is_disabled":false,"rental_uris":{"android":"levelo://app?vid=f63cb99d-f5fe-48b5-98d6-c1343f45becf","ios":"levelo://app?vid=f63cb99d-f5fe-48b5-98d6-c1343f45becf"},"vehicle_type_id":"4","last_reported":1702887037,"current_range_meters":30400,"station_id":"ce4bgqh2rcd13ifvqc4g","pricing_plan_id":"free"},{"bike_id":"4be336b9-4170-4f2a-af86-6940ece7a31c","system_id":"levelo_inurba_marseille","lat":43.30306,"lon":5.36891,"is_reserved":false,"is_disabled":false,"rental_uris":{"android":"levelo://app?vid=4be336b9-4170-4f2a-af86-6940ece7a31c","ios":"levelo://app?vid=4be336b9-4170-4f2a-af86-6940ece7a31c"},"vehicle_type_id":"4","last_reported":1702887037,"current_range_meters":7200,"station_id":"ce4bgqh2rcd13ifvqc5g","pricing_plan_id":"free"},{"bike_id":"89fac772-b18e-4cb9-ada4-713b9f9add64","system_id":"levelo_inurba_marseille","lat":43.3019,"lon":5.36632,"is_reserved":false,"is_disabled":false,"rental_uris":{"android":"levelo://app?vid=89fac772-b18e-4cb9-ada4-713b9f9add64","ios":"levelo://app?vid=89fac772-b18e-4cb9-ada4-713b9f9add64"},"vehicle_type_id":"4","last_reported":1702887037,"current_range_meters":0,"station_id":"ce4bgrh2rcd13ifvqc8g","pricing_plan_id":"free"},{"bike_id":"97f51135-00d4-4183-bbd9-bf5e2ceadd68","system_id":"levelo_inurba_marseille","lat":43.30463,"lon":5.37903,"is_reserved":false,"is_disabled":false,"rental_uris":{"android":"levelo://app?vid=97f51135-00d4-4183-bbd9-bf5e2ceadd68","ios":"levelo://app?vid=97f51135-00d4-4183-bbd9-bf5e2ceadd68"},"vehicle_type_id":"4","last_reported":1702887037,"current_range_meters":0,"station_id":"ce4bgup2rcd13ifvqcn0","pricing_plan_id":"free"},{"bike_id":"8b97c3f1-bb5f-4c4b-bae8-74bcb68230ca","system_id":"levelo_inurba_marseille","lat":43.310655,"lon":5.38334,"is_reserved":false,"is_disabled":false,"rental_uris":{"android":"levelo://app?vid=8b97c3f1-bb5f-4c4b-bae8-74bcb68230ca","ios":"levelo://app?vid=8b97c3f1-bb5f-4c4b-bae8-74bcb68230ca"},"vehicle_type_id":"4","last_reported":1702887037,"current_range_meters":2800,"station_id":"","pricing_plan_id":"free"},{"bike_id":"d8c5f290-a6ca-4edf-beb8-ff74eb07ecb7","system_id":"levelo_inurba_marseille","lat":43.30143,"lon":5.37413,"is_reserved":false,"is_disabled":false,"rental_uris":{"android":"levelo://app?vid=d8c5f290-a6ca-4edf-beb8-ff74eb07ecb7","ios":"levelo://app?vid=d8c5f290-a6ca-4edf-beb8-ff74eb07ecb7"},"vehicle_type_id":"4","last_reported":1702887037,"current_range_meters":18800,"station_id":"ce4bgs92rcd13ifvqcc0","pricing_plan_id":"free"},{"bike_id":"48a185fa-c66b-4a1c-a63b-88786140fb58","system_id":"levelo_inurba_marseille","lat":43.301429,"lon":5.37413,"is_reserved":false,"is_disabled":false,"rental_uris":{"android":"levelo://app?vid=48a185fa-c66b-4a1c-a63b-88786140fb58","ios":"levelo://app?vid=48a185fa-c66b-4a1c-a63b-88786140fb58"},"vehicle_type_id":"4","last_reported":1702887037,"current_range_meters":10000,"station_id":"ce4bgs92rcd13ifvqcc0","pricing_plan_id":"free"},{"bike_id":"c4e77394-aef9-4077-b745-e99148625344","system_id":"levelo_inurba_marseille","lat":43.32733,"lon":5.36707,"is_reserved":false,"is_disabled":false,"rental_uris":{"android":"levelo://app?vid=c4e77394-aef9-4077-b745-e99148625344","ios":"levelo://app?vid=c4e77394-aef9-4077-b745-e99148625344"},"vehicle_type_id":"4","last_reported":1702887037,"current_range_meters":16000,"station_id":"","pricing_plan_id":"free"},{"bike_id":"61d2b1ed-7046-496c-921f-343a1d59bfd5","system_id":"levelo_inurba_marseille","lat":43.305364,"lon":5.384119,"is_reserved":false,"is_disabled":false,"rental_uris":{"android":"levelo://app?vid=61d2b1ed-7046-496c-921f-343a1d59bfd5","ios":"levelo://app?vid=61d2b1ed-7046-496c-921f-343a1d59bfd5"},"vehicle_type_id":"4","last_reported":1702887037,"current_range_meters":10400,"station_id":"ce4bgg92rcd13ifvqb30","pricing_plan_id":"free"},{"bike_id":"819cb438-2e9c-4e0b-902b-5e19ef554d5c","system_id":"levelo_inurba_marseille","lat":43.30524,"lon":5.38443,"is_reserved":false,"is_disabled":false,"rental_uris":{"android":"levelo://app?vid=819cb438-2e9c-4e0b-902b-5e19ef554d5c","ios":"levelo://app?vid=819cb438-2e9c-4e0b-902b-5e19ef554d5c"},"vehicle_type_id":"4","last_reported":1702887037,"current_range_meters":7200,"station_id":"ce4bgg92rcd13ifvqb30","pricing_plan_id":"free"},{"bike_id":"bf2c9ed9-a57e-44bd-8878-9025cae714a9","system_id":"levelo_inurba_marseille","lat":43.299243,"lon":5.374807,"is_reserved":false,"is_disabled":false,"rental_uris":{"android":"levelo://app?vid=bf2c9ed9-a57e-44bd-8878-9025cae714a9","ios":"levelo://app?vid=bf2c9ed9-a57e-44bd-8878-9025cae714a9"},"vehicle_type_id":"4","last_reported":1702887037,"current_range_meters":27600,"station_id":"ce4bgjh2rcd13ifvqbg0","pricing_plan_id":"free"},{"bike_id":"b71be933-e47a-4a04-86c7-28b5bcf36fd0","system_id":"levelo_inurba_marseille","lat":43.29773,"lon":5.37122,"is_reserved":false,"is_disabled":false,"rental_uris":{"android":"levelo://app?vid=b71be933-e47a-4a04-86c7-28b5bcf36fd0","ios":"levelo://app?vid=b71be933-e47a-4a04-86c7-28b5bcf36fd0"},"vehicle_type_id":"4","last_reported":1702887037,"current_range_meters":25600,"station_id":"ce4bgop2rcd13ifvqc1g","pricing_plan_id":"free"},{"bike_id":"3737aebe-1cce-415b-8132-94746ed5f00f","system_id":"levelo_inurba_marseille","lat":43.32297,"lon":5.38268,"is_reserved":false,"is_disabled":false,"rental_uris":{"android":"levelo://app?vid=3737aebe-1cce-415b-8132-94746ed5f00f","ios":"levelo://app?vid=3737aebe-1cce-415b-8132-94746ed5f00f"},"vehicle_type_id":"4","last_reported":1702887037,"current_range_meters":400,"station_id":"ce4bhr12rcd13ifvqhqg","pricing_plan_id":"free"},{"bike_id":"1c4e0be7-4a56-4d58-8b2f-9899334fc7b6","system_id":"levelo_inurba_marseille","lat":43.328346,"lon":5.366744,"is_reserved":false,"is_disabled":false,"rental_uris":{"android":"levelo://app?vid=1c4e0be7-4a56-4d58-8b2f-9899334fc7b6","ios":"levelo://app?vid=1c4e0be7-4a56-4d58-8b2f-9899334fc7b6"},"vehicle_type_id":"4","last_reported":1702887037,"current_range_meters":22400,"station_id":"ce4bhs92rcd13ifvqi0g","pricing_plan_id":"free"},{"bike_id":"cb8d02cf-d5f7-47e5-b91e-56e20b5ca69e","system_id":"levelo_inurba_marseille","lat":43.309589,"lon":5.390258,"is_reserved":false,"is_disabled":false,"rental_uris":{"android":"levelo://app?vid=cb8d02cf-d5f7-47e5-b91e-56e20b5ca69e","ios":"levelo://app?vid=cb8d02cf-d5f7-47e5-b91e-56e20b5ca69e"},"vehicle_type_id":"4","last_reported":1702887037,"current_range_meters":26000,"station_id":"ce4bgup2rcd13ifvqco0","pricing_plan_id":"free"},{"bike_id":"97ba166e-6fa6-4e97-9d17-e0f195ef1e6a","system_id":"levelo_inurba_marseille","lat":43.309589,"lon":5.390258,"is_reserved":false,"is_disabled":false,"rental_uris":{"android":"levelo://app?vid=97ba166e-6fa6-4e97-9d17-e0f195ef1e6a","ios":"levelo://app?vid=97ba166e-6fa6-4e97-9d17-e0f195ef1e6a"},"vehicle_type_id":"4","last_reported":1702887037,"current_range_meters":14400,"station_id":"ce4bgup2rcd13ifvqco0","pricing_plan_id":"free"},{"bike_id":"d81f3688-4cc8-4cb2-8c94-c0ece18695da","system_id":"levelo_inurba_marseille","lat":43.309589,"lon":5.390258,"is_reserved":false,"is_disabled":false,"rental_uris":{"android":"levelo://app?vid=d81f3688-4cc8-4cb2-8c94-c0ece18695da","ios":"levelo://app?vid=d81f3688-4cc8-4cb2-8c94-c0ece18695da"},"vehicle_type_id":"4","last_reported":1702887037,"current_range_meters":7600,"station_id":"ce4bgup2rcd13ifvqco0","pricing_plan_id":"free"},{"bike_id":"cf1b7582-c39c-49fd-b07d-2f8145d02544","system_id":"levelo_inurba_marseille","lat":43.309589,"lon":5.390258,"is_reserved":false,"is_disabled":false,"rental_uris":{"android":"levelo://app?vid=cf1b7582-c39c-49fd-b07d-2f8145d02544","ios":"levelo://app?vid=cf1b7582-c39c-49fd-b07d-2f8145d02544"},"vehicle_type_id":"4","last_reported":1702887037,"current_range_meters":28000,"station_id":"ce4bgup2rcd13ifvqco0","pricing_plan_id":"free"},{"bike_id":"06822a69-b361-4eb0-b9df-6d0c213f1088","system_id":"levelo_inurba_marseille","lat":43.29804,"lon":5.38107,"is_reserved":false,"is_disabled":false,"rental_uris":{"android":"levelo://app?vid=06822a69-b361-4eb0-b9df-6d0c213f1088","ios":"levelo://app?vid=06822a69-b361-4eb0-b9df-6d0c213f1088"},"vehicle_type_id":"4","last_reported":1702887037,"current_range_meters":26000,"station_id":"","pricing_plan_id":"free"},{"bike_id":"a58457d2-793d-4290-9a60-d1638b6d4828","system_id":"levelo_inurba_marseille","lat":43.29784,"lon":5.38109,"is_reserved":false,"is_disabled":false,"rental_uris":{"android":"levelo://app?vid=a58457d2-793d-4290-9a60-d1638b6d4828","ios":"levelo://app?vid=a58457d2-793d-4290-9a60-d1638b6d4828"},"vehicle_type_id":"4","last_reported":1702887037,"current_range_meters":8800,"station_id":"","pricing_plan_id":"free"},{"bike_id":"c4f9bc29-7317-49d5-8bdc-66e7c764e3ea","system_id":"levelo_inurba_marseille","lat":43.32367,"lon":5.388836,"is_reserved":false,"is_disabled":false,"rental_uris":{"android":"levelo://app?vid=c4f9bc29-7317-49d5-8bdc-66e7c764e3ea","ios":"levelo://app?vid=c4f9bc29-7317-49d5-8bdc-66e7c764e3ea"},"vehicle_type_id":"4","last_reported":1702887037,"current_range_meters":0,"station_id":"ce4bhqp2rcd13ifvqhog","pricing_plan_id":"free"},{"bike_id":"f6d691b9-bdb5-40c8-bb76-80b85af86365","system_id":"levelo_inurba_marseille","lat":43.29301,"lon":5.37179,"is_reserved":false,"is_disabled":false,"rental_uris":{"android":"levelo://app?vid=f6d691b9-bdb5-40c8-bb76-80b85af86365","ios":"levelo://app?vid=f6d691b9-bdb5-40c8-bb76-80b85af86365"},"vehicle_type_id":"4","last_reported":1702887037,"current_range_meters":9200,"station_id":"ce4bgh92rcd13ifvqb40","pricing_plan_id":"free"},{"bike_id":"e04b5a93-9a54-4342-b67c-fec230876e62","system_id":"levelo_inurba_marseille","lat":43.293009,"lon":5.374584,"is_reserved":false,"is_disabled":false,"rental_uris":{"android":"levelo://app?vid=e04b5a93-9a54-4342-b67c-fec230876e62","ios":"levelo://app?vid=e04b5a93-9a54-4342-b67c-fec230876e62"},"vehicle_type_id":"4","last_reported":1702887037,"current_range_meters":23600,"station_id":"ce4bgi12rcd13ifvqb70","pricing_plan_id":"free"},{"bike_id":"7b632540-fa30-4bd5-9f61-bc68bae05b6b","system_id":"levelo_inurba_marseille","lat":43.293009,"lon":5.374584,"is_reserved":false,"is_disabled":false,"rental_uris":{"android":"levelo://app?vid=7b632540-fa30-4bd5-9f61-bc68bae05b6b","ios":"levelo://app?vid=7b632540-fa30-4bd5-9f61-bc68bae05b6b"},"vehicle_type_id":"4","last_reported":1702887037,"current_range_meters":11200,"station_id":"ce4bgi12rcd13ifvqb70","pricing_plan_id":"free"},{"bike_id":"17fee4bb-85fb-48bf-8588-c2bb0042c4a9","system_id":"levelo_inurba_marseille","lat":43.293009,"lon":5.374584,"is_reserved":false,"is_disabled":false,"rental_uris":{"android":"levelo://app?vid=17fee4bb-85fb-48bf-8588-c2bb0042c4a9","ios":"levelo://app?vid=17fee4bb-85fb-48bf-8588-c2bb0042c4a9"},"vehicle_type_id":"4","last_reported":1702887037,"current_range_meters":8000,"station_id":"ce4bgi12rcd13ifvqb70","pricing_plan_id":"free"},{"bike_id":"ebd737a2-4b07-4d67-b0fa-f5c82030e669","system_id":"levelo_inurba_marseille","lat":43.293009,"lon":5.374584,"is_reserved":false,"is_disabled":false,"rental_uris":{"android":"levelo://app?vid=ebd737a2-4b07-4d67-b0fa-f5c82030e669","ios":"levelo://app?vid=ebd737a2-4b07-4d67-b0fa-f5c82030e669"},"vehicle_type_id":"4","last_reported":1702887037,"current_range_meters":400,"station_id":"ce4bgi12rcd13ifvqb70","pricing_plan_id":"free"},{"bike_id":"16dacde1-3e25-4ea6-9f1c-44a9e8fd2e2f","system_id":"levelo_inurba_marseille","lat":43.300852,"lon":5.390859,"is_reserved":false,"is_disabled":false,"rental_uris":{"android":"levelo://app?vid=16dacde1-3e25-4ea6-9f1c-44a9e8fd2e2f","ios":"levelo://app?vid=16dacde1-3e25-4ea6-9f1c-44a9e8fd2e2f"},"vehicle_type_id":"4","last_reported":1702887037,"current_range_meters":6400,"station_id":"ce4bh192rcd13ifvqdb0","pricing_plan_id":"free"},{"bike_id":"52dab267-d5cb-434c-bfa7-9cfb539e7fed","system_id":"levelo_inurba_marseille","lat":43.300852,"lon":5.390859,"is_reserved":false,"is_disabled":false,"rental_uris":{"android":"levelo://app?vid=52dab267-d5cb-434c-bfa7-9cfb539e7fed","ios":"levelo://app?vid=52dab267-d5cb-434c-bfa7-9cfb539e7fed"},"vehicle_type_id":"4","last_reported":1702887037,"current_range_meters":6400,"station_id":"ce4bh192rcd13ifvqdb0","pricing_plan_id":"free"},{"bike_id":"2059cf80-e0a3-4636-aeee-866ac36302b4","system_id":"levelo_inurba_marseille","lat":43.293009,"lon":5.374584,"is_reserved":false,"is_disabled":false,"rental_uris":{"android":"levelo://app?vid=2059cf80-e0a3-4636-aeee-866ac36302b4","ios":"levelo://app?vid=2059cf80-e0a3-4636-aeee-866ac36302b4"},"vehicle_type_id":"4","last_reported":1702887037,"current_range_meters":28400,"station_id":"ce4bgi12rcd13ifvqb70","pricing_plan_id":"free"},{"bike_id":"2ce8b2a4-8637-4d7a-b700-10c42c3626d6","system_id":"levelo_inurba_marseille","lat":43.291675,"lon":5.371583,"is_reserved":false,"is_disabled":false,"rental_uris":{"android":"levelo://app?vid=2ce8b2a4-8637-4d7a-b700-10c42c3626d6","ios":"levelo://app?vid=2ce8b2a4-8637-4d7a-b700-10c42c3626d6"},"vehicle_type_id":"4","last_reported":1702887037,"current_range_meters":16400,"station_id":"ce4bha92rcd13ifvqeh0","pricing_plan_id":"free"},{"bike_id":"9e5384f3-c913-4db9-8bd6-67ddcb328222","system_id":"levelo_inurba_marseille","lat":43.302008,"lon":5.394694,"is_reserved":false,"is_disabled":false,"rental_uris":{"android":"levelo://app?vid=9e5384f3-c913-4db9-8bd6-67ddcb328222","ios":"levelo://app?vid=9e5384f3-c913-4db9-8bd6-67ddcb328222"},"vehicle_type_id":"4","last_reported":1702887037,"current_range_meters":24800,"station_id":"ce4bh0p2rcd13ifvqd70","pricing_plan_id":"free"},{"bike_id":"eea1f2e2-6274-4cd1-b3a7-9f5d10473feb","system_id":"levelo_inurba_marseille","lat":43.290327,"lon":5.375711,"is_reserved":false,"is_disabled":false,"rental_uris":{"android":"levelo://app?vid=eea1f2e2-6274-4cd1-b3a7-9f5d10473feb","ios":"levelo://app?vid=eea1f2e2-6274-4cd1-b3a7-9f5d10473feb"},"vehicle_type_id":"4","last_reported":1702887037,"current_range_meters":14400,"station_id":"ce4bh692rcd13ifvqe90","pricing_plan_id":"free"},{"bike_id":"7cd304eb-8213-4a91-baf9-63a73af99791","system_id":"levelo_inurba_marseille","lat":43.290327,"lon":5.375711,"is_reserved":false,"is_disabled":false,"rental_uris":{"android":"levelo://app?vid=7cd304eb-8213-4a91-baf9-63a73af99791","ios":"levelo://app?vid=7cd304eb-8213-4a91-baf9-63a73af99791"},"vehicle_type_id":"4","last_reported":1702887037,"current_range_meters":0,"station_id":"ce4bh692rcd13ifvqe90","pricing_plan_id":"free"},{"bike_id":"7bcc8c56-e551-441a-9bb4-4b0031ef91b6","system_id":"levelo_inurba_marseille","lat":43.28946,"lon":5.3641,"is_reserved":false,"is_disabled":false,"rental_uris":{"android":"levelo://app?vid=7bcc8c56-e551-441a-9bb4-4b0031ef91b6","ios":"levelo://app?vid=7bcc8c56-e551-441a-9bb4-4b0031ef91b6"},"vehicle_type_id":"4","last_reported":1702887037,"current_range_meters":12000,"station_id":"ce4bhc92rcd13ifvqetg","pricing_plan_id":"free"},{"bike_id":"1ebcf1f0-0940-45e4-8f77-fe6aca06ad40","system_id":"levelo_inurba_marseille","lat":43.28941,"lon":5.36382,"is_reserved":false,"is_disabled":false,"rental_uris":{"android":"levelo://app?vid=1ebcf1f0-0940-45e4-8f77-fe6aca06ad40","ios":"levelo://app?vid=1ebcf1f0-0940-45e4-8f77-fe6aca06ad40"},"vehicle_type_id":"4","last_reported":1702887037,"current_range_meters":24800,"station_id":"ce4bhc92rcd13ifvqetg","pricing_plan_id":"free"},{"bike_id":"2c68eff5-3204-4614-800a-551f67ee9a30","system_id":"levelo_inurba_marseille","lat":43.289184,"lon":5.366408,"is_reserved":false,"is_disabled":false,"rental_uris":{"android":"levelo://app?vid=2c68eff5-3204-4614-800a-551f67ee9a30","ios":"levelo://app?vid=2c68eff5-3204-4614-800a-551f67ee9a30"},"vehicle_type_id":"4","last_reported":1702887037,"current_range_meters":30800,"station_id":"ce4bhap2rcd13ifvqek0","pricing_plan_id":"free"},{"bike_id":"0c4d10e4-1c65-4c3a-a516-9eee8926cbe5","system_id":"levelo_inurba_marseille","lat":43.290995,"lon":5.381361,"is_reserved":false,"is_disabled":false,"rental_uris":{"android":"levelo://app?vid=0c4d10e4-1c65-4c3a-a516-9eee8926cbe5","ios":"levelo://app?vid=0c4d10e4-1c65-4c3a-a516-9eee8926cbe5"},"vehicle_type_id":"4","last_reported":1702887037,"current_range_meters":20400,"station_id":"ce4bh512rcd13ifvqe2g","pricing_plan_id":"free"},{"bike_id":"67f271be-09d5-409a-978a-0f17009e6b1f","system_id":"levelo_inurba_marseille","lat":43.29519,"lon":5.39029,"is_reserved":false,"is_disabled":false,"rental_uris":{"android":"levelo://app?vid=67f271be-09d5-409a-978a-0f17009e6b1f","ios":"levelo://app?vid=67f271be-09d5-409a-978a-0f17009e6b1f"},"vehicle_type_id":"4","last_reported":1702887037,"current_range_meters":23200,"station_id":"ce4bh3p2rcd13ifvqdp0","pricing_plan_id":"free"},{"bike_id":"fc8d24bb-0c26-4688-9bac-affcc075aa4d","system_id":"levelo_inurba_marseille","lat":43.33726,"lon":5.37413,"is_reserved":false,"is_disabled":false,"rental_uris":{"android":"levelo://app?vid=fc8d24bb-0c26-4688-9bac-affcc075aa4d","ios":"levelo://app?vid=fc8d24bb-0c26-4688-9bac-affcc075aa4d"},"vehicle_type_id":"4","last_reported":1702887037,"current_range_meters":31200,"station_id":"","pricing_plan_id":"free"},{"bike_id":"570a6c9b-496c-43fa-96ad-21defb79a621","system_id":"levelo_inurba_marseille","lat":43.30642,"lon":5.401031,"is_reserved":false,"is_disabled":false,"rental_uris":{"android":"levelo://app?vid=570a6c9b-496c-43fa-96ad-21defb79a621","ios":"levelo://app?vid=570a6c9b-496c-43fa-96ad-21defb79a621"},"vehicle_type_id":"4","last_reported":1702887037,"current_range_meters":19200,"station_id":"ce4bh112rcd13ifvqda0","pricing_plan_id":"free"},{"bike_id":"9e660d29-7980-4cd6-82a1-dd03e81bfec1","system_id":"levelo_inurba_marseille","lat":43.286823,"lon":5.36362,"is_reserved":false,"is_disabled":false,"rental_uris":{"android":"levelo://app?vid=9e660d29-7980-4cd6-82a1-dd03e81bfec1","ios":"levelo://app?vid=9e660d29-7980-4cd6-82a1-dd03e81bfec1"},"vehicle_type_id":"4","last_reported":1702887037,"current_range_meters":20000,"station_id":"","pricing_plan_id":"free"},{"bike_id":"d17e94c5-cfa9-41a2-a72a-1979c8276bcc","system_id":"levelo_inurba_marseille","lat":43.28699,"lon":5.37392,"is_reserved":false,"is_disabled":false,"rental_uris":{"android":"levelo://app?vid=d17e94c5-cfa9-41a2-a72a-1979c8276bcc","ios":"levelo://app?vid=d17e94c5-cfa9-41a2-a72a-1979c8276bcc"},"vehicle_type_id":"4","last_reported":1702887037,"current_range_meters":16800,"station_id":"ce4bh3p2rcd13ifvqdq0","pricing_plan_id":"free"},{"bike_id":"9795e6aa-643f-435d-8658-6f41d2d35770","system_id":"levelo_inurba_marseille","lat":43.302759,"lon":5.400793,"is_reserved":false,"is_disabled":false,"rental_uris":{"android":"levelo://app?vid=9795e6aa-643f-435d-8658-6f41d2d35770","ios":"levelo://app?vid=9795e6aa-643f-435d-8658-6f41d2d35770"},"vehicle_type_id":"4","last_reported":1702887037,"current_range_meters":20800,"station_id":"ce4bgvh2rcd13ifvqcs0","pricing_plan_id":"free"},{"bike_id":"8321f1a3-969a-44d5-99e4-d37e4fac7dd1","system_id":"levelo_inurba_marseille","lat":43.286039,"lon":5.370681,"is_reserved":false,"is_disabled":false,"rental_uris":{"android":"levelo://app?vid=8321f1a3-969a-44d5-99e4-d37e4fac7dd1","ios":"levelo://app?vid=8321f1a3-969a-44d5-99e4-d37e4fac7dd1"},"vehicle_type_id":"4","last_reported":1702887037,"current_range_meters":10800,"station_id":"ce4bht12rcd13ifvqi60","pricing_plan_id":"free"},{"bike_id":"1ec70576-8120-4a93-abd4-1d00600dceaf","system_id":"levelo_inurba_marseille","lat":43.316885,"lon":5.404663,"is_reserved":false,"is_disabled":false,"rental_uris":{"android":"levelo://app?vid=1ec70576-8120-4a93-abd4-1d00600dceaf","ios":"levelo://app?vid=1ec70576-8120-4a93-abd4-1d00600dceaf"},"vehicle_type_id":"4","last_reported":1702887037,"current_range_meters":15600,"station_id":"ce4bh012rcd13ifvqd00","pricing_plan_id":"free"},{"bike_id":"aa7dea41-8073-44e0-9b5a-14946a3df7d8","system_id":"levelo_inurba_marseille","lat":43.316892,"lon":5.404715,"is_reserved":false,"is_disabled":false,"rental_uris":{"android":"levelo://app?vid=aa7dea41-8073-44e0-9b5a-14946a3df7d8","ios":"levelo://app?vid=aa7dea41-8073-44e0-9b5a-14946a3df7d8"},"vehicle_type_id":"4","last_reported":1702887037,"current_range_meters":13200,"station_id":"","pricing_plan_id":"free"},{"bike_id":"5acb591a-6155-4869-b1c9-392f2ae597a8","system_id":"levelo_inurba_marseille","lat":43.284534,"lon":5.358662,"is_reserved":false,"is_disabled":false,"rental_uris":{"android":"levelo://app?vid=5acb591a-6155-4869-b1c9-392f2ae597a8","ios":"levelo://app?vid=5acb591a-6155-4869-b1c9-392f2ae597a8"},"vehicle_type_id":"4","last_reported":1702887037,"current_range_meters":22000,"station_id":"ce4bhah2rcd13ifvqei0","pricing_plan_id":"free"},{"bike_id":"6707369d-8724-4ab5-957e-e7043b9aaa4b","system_id":"levelo_inurba_marseille","lat":43.285848,"lon":5.350787,"is_reserved":false,"is_disabled":false,"rental_uris":{"android":"levelo://app?vid=6707369d-8724-4ab5-957e-e7043b9aaa4b","ios":"levelo://app?vid=6707369d-8724-4ab5-957e-e7043b9aaa4b"},"vehicle_type_id":"4","last_reported":1702887037,"current_range_meters":10400,"station_id":"ce4bhch2rcd13ifvqeug","pricing_plan_id":"free"},{"bike_id":"96e03798-6681-4a64-b35b-c0682bbc3d6a","system_id":"levelo_inurba_marseille","lat":43.28414,"lon":5.37515,"is_reserved":false,"is_disabled":false,"rental_uris":{"android":"levelo://app?vid=96e03798-6681-4a64-b35b-c0682bbc3d6a","ios":"levelo://app?vid=96e03798-6681-4a64-b35b-c0682bbc3d6a"},"vehicle_type_id":"4","last_reported":1702887037,"current_range_meters":9600,"station_id":"ce4bh412rcd13ifvqds0","pricing_plan_id":"free"},{"bike_id":"2dfa5049-0e1b-4839-b5c3-156910a65dbd","system_id":"levelo_inurba_marseille","lat":43.33218,"lon":5.397067,"is_reserved":false,"is_disabled":false,"rental_uris":{"android":"levelo://app?vid=2dfa5049-0e1b-4839-b5c3-156910a65dbd","ios":"levelo://app?vid=2dfa5049-0e1b-4839-b5c3-156910a65dbd"},"vehicle_type_id":"4","last_reported":1702887037,"current_range_meters":6000,"station_id":"","pricing_plan_id":"free"},{"bike_id":"e6e8def3-4d43-4d3d-b4c8-e06233981f99","system_id":"levelo_inurba_marseille","lat":43.323464,"lon":5.406297,"is_reserved":false,"is_disabled":false,"rental_uris":{"android":"levelo://app?vid=e6e8def3-4d43-4d3d-b4c8-e06233981f99","ios":"levelo://app?vid=e6e8def3-4d43-4d3d-b4c8-e06233981f99"},"vehicle_type_id":"4","last_reported":1702887037,"current_range_meters":28400,"station_id":"ce4bhq92rcd13ifvqhjg","pricing_plan_id":"free"},{"bike_id":"1efa33cf-ed4f-4289-9a9d-5a1805de3f8c","system_id":"levelo_inurba_marseille","lat":43.292724,"lon":5.401131,"is_reserved":false,"is_disabled":false,"rental_uris":{"android":"levelo://app?vid=1efa33cf-ed4f-4289-9a9d-5a1805de3f8c","ios":"levelo://app?vid=1efa33cf-ed4f-4289-9a9d-5a1805de3f8c"},"vehicle_type_id":"4","last_reported":1702887037,"current_range_meters":4000,"station_id":"ce4bh312rcd13ifvqdk0","pricing_plan_id":"free"},{"bike_id":"acc6db62-c10c-4feb-9a2c-e6187cec974c","system_id":"levelo_inurba_marseille","lat":43.28036,"lon":5.36939,"is_reserved":false,"is_disabled":false,"rental_uris":{"android":"levelo://app?vid=acc6db62-c10c-4feb-9a2c-e6187cec974c","ios":"levelo://app?vid=acc6db62-c10c-4feb-9a2c-e6187cec974c"},"vehicle_type_id":"4","last_reported":1702887037,"current_range_meters":6800,"station_id":"ce4bha12rcd13ifvqef0","pricing_plan_id":"free"},{"bike_id":"4cf264b4-32ef-425f-99bd-1783554865a9","system_id":"levelo_inurba_marseille","lat":43.296263,"lon":5.40601,"is_reserved":false,"is_disabled":false,"rental_uris":{"android":"levelo://app?vid=4cf264b4-32ef-425f-99bd-1783554865a9","ios":"levelo://app?vid=4cf264b4-32ef-425f-99bd-1783554865a9"},"vehicle_type_id":"4","last_reported":1702887037,"current_range_meters":16400,"station_id":"ce4bh0h2rcd13ifvqd60","pricing_plan_id":"free"},{"bike_id":"b1bba2b6-372d-49dd-b13b-1b4d710db23d","system_id":"levelo_inurba_marseille","lat":43.32405,"lon":5.4097,"is_reserved":false,"is_disabled":false,"rental_uris":{"android":"levelo://app?vid=b1bba2b6-372d-49dd-b13b-1b4d710db23d","ios":"levelo://app?vid=b1bba2b6-372d-49dd-b13b-1b4d710db23d"},"vehicle_type_id":"4","last_reported":1702887037,"current_range_meters":28800,"station_id":"","pricing_plan_id":"free"},{"bike_id":"abd55fd8-fba1-410b-b9f0-dfd299342e88","system_id":"levelo_inurba_marseille","lat":43.304188,"lon":5.412904,"is_reserved":false,"is_disabled":false,"rental_uris":{"android":"levelo://app?vid=abd55fd8-fba1-410b-b9f0-dfd299342e88","ios":"levelo://app?vid=abd55fd8-fba1-410b-b9f0-dfd299342e88"},"vehicle_type_id":"4","last_reported":1702887037,"current_range_meters":9200,"station_id":"ce4bhop2rcd13ifvqh8g","pricing_plan_id":"free"},{"bike_id":"86be339a-54e6-4ac4-a9ba-90155c35abed","system_id":"levelo_inurba_marseille","lat":43.287154,"lon":5.399979,"is_reserved":false,"is_disabled":false,"rental_uris":{"android":"levelo://app?vid=86be339a-54e6-4ac4-a9ba-90155c35abed","ios":"levelo://app?vid=86be339a-54e6-4ac4-a9ba-90155c35abed"},"vehicle_type_id":"4","last_reported":1702887037,"current_range_meters":25600,"station_id":"ce4bho92rcd13ifvqh3g","pricing_plan_id":"free"},{"bike_id":"a7bd9994-1cc8-4627-8025-7c0f9d0c22a4","system_id":"levelo_inurba_marseille","lat":43.287154,"lon":5.399979,"is_reserved":false,"is_disabled":false,"rental_uris":{"android":"levelo://app?vid=a7bd9994-1cc8-4627-8025-7c0f9d0c22a4","ios":"levelo://app?vid=a7bd9994-1cc8-4627-8025-7c0f9d0c22a4"},"vehicle_type_id":"4","last_reported":1702887037,"current_range_meters":18800,"station_id":"ce4bho92rcd13ifvqh3g","pricing_plan_id":"free"},{"bike_id":"4f5f8127-f21e-4549-a7d1-6e81ce8ed184","system_id":"levelo_inurba_marseille","lat":43.279742,"lon":5.38744,"is_reserved":false,"is_disabled":false,"rental_uris":{"android":"levelo://app?vid=4f5f8127-f21e-4549-a7d1-6e81ce8ed184","ios":"levelo://app?vid=4f5f8127-f21e-4549-a7d1-6e81ce8ed184"},"vehicle_type_id":"4","last_reported":1702887037,"current_range_meters":13600,"station_id":"ce4bhg12rcd13ifvqf80","pricing_plan_id":"free"},{"bike_id":"5961b49b-6239-42a9-ba63-9615badb47e8","system_id":"levelo_inurba_marseille","lat":43.279742,"lon":5.38744,"is_reserved":false,"is_disabled":false,"rental_uris":{"android":"levelo://app?vid=5961b49b-6239-42a9-ba63-9615badb47e8","ios":"levelo://app?vid=5961b49b-6239-42a9-ba63-9615badb47e8"},"vehicle_type_id":"4","last_reported":1702887037,"current_range_meters":14000,"station_id":"ce4bhg12rcd13ifvqf80","pricing_plan_id":"free"},{"bike_id":"cf75a6d8-3502-4f9e-a4e1-9961562d262f","system_id":"levelo_inurba_marseille","lat":43.325233,"lon":5.414318,"is_reserved":false,"is_disabled":false,"rental_uris":{"android":"levelo://app?vid=cf75a6d8-3502-4f9e-a4e1-9961562d262f","ios":"levelo://app?vid=cf75a6d8-3502-4f9e-a4e1-9961562d262f"},"vehicle_type_id":"4","last_reported":1702887037,"current_range_meters":29600,"station_id":"ce4bhq12rcd13ifvqhhg","pricing_plan_id":"free"},{"bike_id":"0996178a-e20e-429d-88c9-783e15747b15","system_id":"levelo_inurba_marseille","lat":43.325243,"lon":5.414326,"is_reserved":false,"is_disabled":false,"rental_uris":{"android":"levelo://app?vid=0996178a-e20e-429d-88c9-783e15747b15","ios":"levelo://app?vid=0996178a-e20e-429d-88c9-783e15747b15"},"vehicle_type_id":"4","last_reported":1702887037,"current_range_meters":4800,"station_id":"ce4bhq12rcd13ifvqhhg","pricing_plan_id":"free"},{"bike_id":"9783b029-37a4-4b0f-b2eb-c8b4f0a0e6a4","system_id":"levelo_inurba_marseille","lat":43.325233,"lon":5.414318,"is_reserved":false,"is_disabled":false,"rental_uris":{"android":"levelo://app?vid=9783b029-37a4-4b0f-b2eb-c8b4f0a0e6a4","ios":"levelo://app?vid=9783b029-37a4-4b0f-b2eb-c8b4f0a0e6a4"},"vehicle_type_id":"4","last_reported":1702887037,"current_range_meters":30400,"station_id":"ce4bhq12rcd13ifvqhhg","pricing_plan_id":"free"},{"bike_id":"6439764e-1017-4b79-b1ee-0830cac99bcd","system_id":"levelo_inurba_marseille","lat":43.325233,"lon":5.414318,"is_reserved":false,"is_disabled":false,"rental_uris":{"android":"levelo://app?vid=6439764e-1017-4b79-b1ee-0830cac99bcd","ios":"levelo://app?vid=6439764e-1017-4b79-b1ee-0830cac99bcd"},"vehicle_type_id":"4","last_reported":1702887037,"current_range_meters":29600,"station_id":"ce4bhq12rcd13ifvqhhg","pricing_plan_id":"free"},{"bike_id":"8b89a6cf-b837-45b4-ae98-4ba2c5780b41","system_id":"levelo_inurba_marseille","lat":43.325243,"lon":5.414326,"is_reserved":false,"is_disabled":false,"rental_uris":{"android":"levelo://app?vid=8b89a6cf-b837-45b4-ae98-4ba2c5780b41","ios":"levelo://app?vid=8b89a6cf-b837-45b4-ae98-4ba2c5780b41"},"vehicle_type_id":"4","last_reported":1702887037,"current_range_meters":28000,"station_id":"ce4bhq12rcd13ifvqhhg","pricing_plan_id":"free"},{"bike_id":"8186afef-cdf8-4794-a6e6-9d466b17c367","system_id":"levelo_inurba_marseille","lat":43.325233,"lon":5.414318,"is_reserved":false,"is_disabled":false,"rental_uris":{"android":"levelo://app?vid=8186afef-cdf8-4794-a6e6-9d466b17c367","ios":"levelo://app?vid=8186afef-cdf8-4794-a6e6-9d466b17c367"},"vehicle_type_id":"4","last_reported":1702887037,"current_range_meters":27600,"station_id":"ce4bhq12rcd13ifvqhhg","pricing_plan_id":"free"},{"bike_id":"a803af6a-6f18-4a80-a53f-88028abe7744","system_id":"levelo_inurba_marseille","lat":43.325233,"lon":5.414318,"is_reserved":false,"is_disabled":false,"rental_uris":{"android":"levelo://app?vid=a803af6a-6f18-4a80-a53f-88028abe7744","ios":"levelo://app?vid=a803af6a-6f18-4a80-a53f-88028abe7744"},"vehicle_type_id":"4","last_reported":1702887037,"current_range_meters":31600,"station_id":"ce4bhq12rcd13ifvqhhg","pricing_plan_id":"free"},{"bike_id":"58ada6ab-d1f9-466f-8fbb-598d5159b236","system_id":"levelo_inurba_marseille","lat":43.27379,"lon":5.36255,"is_reserved":false,"is_disabled":false,"rental_uris":{"android":"levelo://app?vid=58ada6ab-d1f9-466f-8fbb-598d5159b236","ios":"levelo://app?vid=58ada6ab-d1f9-466f-8fbb-598d5159b236"},"vehicle_type_id":"4","last_reported":1702887037,"current_range_meters":27200,"station_id":"ce4bhbh2rcd13ifvqeo0","pricing_plan_id":"free"},{"bike_id":"e0cd3a40-1fd5-431f-8ec2-5e2a03862373","system_id":"levelo_inurba_marseille","lat":43.336134,"lon":5.410341,"is_reserved":false,"is_disabled":false,"rental_uris":{"android":"levelo://app?vid=e0cd3a40-1fd5-431f-8ec2-5e2a03862373","ios":"levelo://app?vid=e0cd3a40-1fd5-431f-8ec2-5e2a03862373"},"vehicle_type_id":"4","last_reported":1702887037,"current_range_meters":31200,"station_id":"ce4bhqh2rcd13ifvqhmg","pricing_plan_id":"free"},{"bike_id":"73bab7f4-fb2d-40ae-8e6d-6d9b2737007d","system_id":"levelo_inurba_marseille","lat":43.336134,"lon":5.410341,"is_reserved":false,"is_disabled":false,"rental_uris":{"android":"levelo://app?vid=73bab7f4-fb2d-40ae-8e6d-6d9b2737007d","ios":"levelo://app?vid=73bab7f4-fb2d-40ae-8e6d-6d9b2737007d"},"vehicle_type_id":"4","last_reported":1702887037,"current_range_meters":28000,"station_id":"ce4bhqh2rcd13ifvqhmg","pricing_plan_id":"free"},{"bike_id":"9d472012-eed1-4527-8c81-76cacbe40e57","system_id":"levelo_inurba_marseille","lat":43.336134,"lon":5.410341,"is_reserved":false,"is_disabled":false,"rental_uris":{"android":"levelo://app?vid=9d472012-eed1-4527-8c81-76cacbe40e57","ios":"levelo://app?vid=9d472012-eed1-4527-8c81-76cacbe40e57"},"vehicle_type_id":"4","last_reported":1702887037,"current_range_meters":16800,"station_id":"ce4bhqh2rcd13ifvqhmg","pricing_plan_id":"free"},{"bike_id":"295c28c4-735e-457f-9433-970fe94ae9da","system_id":"levelo_inurba_marseille","lat":43.336134,"lon":5.410341,"is_reserved":false,"is_disabled":false,"rental_uris":{"android":"levelo://app?vid=295c28c4-735e-457f-9433-970fe94ae9da","ios":"levelo://app?vid=295c28c4-735e-457f-9433-970fe94ae9da"},"vehicle_type_id":"4","last_reported":1702887037,"current_range_meters":20000,"station_id":"ce4bhqh2rcd13ifvqhmg","pricing_plan_id":"free"},{"bike_id":"ba23a49f-f752-40f9-b881-d731ba920e07","system_id":"levelo_inurba_marseille","lat":43.32541,"lon":5.421212,"is_reserved":false,"is_disabled":false,"rental_uris":{"android":"levelo://app?vid=ba23a49f-f752-40f9-b881-d731ba920e07","ios":"levelo://app?vid=ba23a49f-f752-40f9-b881-d731ba920e07"},"vehicle_type_id":"4","last_reported":1702887037,"current_range_meters":29200,"station_id":"","pricing_plan_id":"free"},{"bike_id":"5a820917-d3f1-4eb5-933c-bfc2eae402e7","system_id":"levelo_inurba_marseille","lat":43.340804,"lon":5.410219,"is_reserved":false,"is_disabled":false,"rental_uris":{"android":"levelo://app?vid=5a820917-d3f1-4eb5-933c-bfc2eae402e7","ios":"levelo://app?vid=5a820917-d3f1-4eb5-933c-bfc2eae402e7"},"vehicle_type_id":"4","last_reported":1702887037,"current_range_meters":31200,"station_id":"ce4bhqh2rcd13ifvqhlg","pricing_plan_id":"free"},{"bike_id":"52ad25d1-85ee-4e91-82a9-532d7f28246e","system_id":"levelo_inurba_marseille","lat":43.340804,"lon":5.410219,"is_reserved":false,"is_disabled":false,"rental_uris":{"android":"levelo://app?vid=52ad25d1-85ee-4e91-82a9-532d7f28246e","ios":"levelo://app?vid=52ad25d1-85ee-4e91-82a9-532d7f28246e"},"vehicle_type_id":"4","last_reported":1702887037,"current_range_meters":24800,"station_id":"ce4bhqh2rcd13ifvqhlg","pricing_plan_id":"free"},{"bike_id":"3ca2c2d2-99b0-4aa6-a05d-e30f02e6a7fb","system_id":"levelo_inurba_marseille","lat":43.276092,"lon":5.395289,"is_reserved":false,"is_disabled":false,"rental_uris":{"android":"levelo://app?vid=3ca2c2d2-99b0-4aa6-a05d-e30f02e6a7fb","ios":"levelo://app?vid=3ca2c2d2-99b0-4aa6-a05d-e30f02e6a7fb"},"vehicle_type_id":"4","last_reported":1702887037,"current_range_meters":14400,"station_id":"","pricing_plan_id":"free"},{"bike_id":"bfa61705-2a98-4b5f-809e-90639caf55cb","system_id":"levelo_inurba_marseille","lat":43.274103,"lon":5.394016,"is_reserved":false,"is_disabled":false,"rental_uris":{"android":"levelo://app?vid=bfa61705-2a98-4b5f-809e-90639caf55cb","ios":"levelo://app?vid=bfa61705-2a98-4b5f-809e-90639caf55cb"},"vehicle_type_id":"4","last_reported":1702887037,"current_range_meters":7200,"station_id":"ce4bhdp2rcd13ifvqf20","pricing_plan_id":"free"},{"bike_id":"a9f576d5-35b7-4d25-a694-5155f9b238c6","system_id":"levelo_inurba_marseille","lat":43.27416,"lon":5.39414,"is_reserved":false,"is_disabled":false,"rental_uris":{"android":"levelo://app?vid=a9f576d5-35b7-4d25-a694-5155f9b238c6","ios":"levelo://app?vid=a9f576d5-35b7-4d25-a694-5155f9b238c6"},"vehicle_type_id":"4","last_reported":1702887037,"current_range_meters":14400,"station_id":"ce4bhdp2rcd13ifvqf20","pricing_plan_id":"free"},{"bike_id":"27e2ef33-286c-4332-b1a9-71016ce44dee","system_id":"levelo_inurba_marseille","lat":43.30417,"lon":5.42537,"is_reserved":false,"is_disabled":false,"rental_uris":{"android":"levelo://app?vid=27e2ef33-286c-4332-b1a9-71016ce44dee","ios":"levelo://app?vid=27e2ef33-286c-4332-b1a9-71016ce44dee"},"vehicle_type_id":"4","last_reported":1702887037,"current_range_meters":0,"station_id":"ce4bhoh2rcd13ifvqh6g","pricing_plan_id":"free"},{"bike_id":"bd889d21-a0bd-40b0-b41b-49629447ae8d","system_id":"levelo_inurba_marseille","lat":43.295511,"lon":5.422926,"is_reserved":false,"is_disabled":false,"rental_uris":{"android":"levelo://app?vid=bd889d21-a0bd-40b0-b41b-49629447ae8d","ios":"levelo://app?vid=bd889d21-a0bd-40b0-b41b-49629447ae8d"},"vehicle_type_id":"4","last_reported":1702887037,"current_range_meters":31200,"station_id":"ce4bhph2rcd13ifvqhdg","pricing_plan_id":"free"},{"bike_id":"628a1844-4de6-4ff8-b7b8-44bb12a39376","system_id":"levelo_inurba_marseille","lat":43.295511,"lon":5.422926,"is_reserved":false,"is_disabled":false,"rental_uris":{"android":"levelo://app?vid=628a1844-4de6-4ff8-b7b8-44bb12a39376","ios":"levelo://app?vid=628a1844-4de6-4ff8-b7b8-44bb12a39376"},"vehicle_type_id":"4","last_reported":1702887037,"current_range_meters":15200,"station_id":"ce4bhph2rcd13ifvqhdg","pricing_plan_id":"free"},{"bike_id":"56e5a31c-35a1-43dd-9522-21f06f4f1651","system_id":"levelo_inurba_marseille","lat":43.27204,"lon":5.39182,"is_reserved":false,"is_disabled":false,"rental_uris":{"android":"levelo://app?vid=56e5a31c-35a1-43dd-9522-21f06f4f1651","ios":"levelo://app?vid=56e5a31c-35a1-43dd-9522-21f06f4f1651"},"vehicle_type_id":"4","last_reported":1702887037,"current_range_meters":0,"station_id":"ce4bhhp2rcd13ifvqfm0","pricing_plan_id":"free"},{"bike_id":"fc07e140-c24e-4805-97b3-4c75e804fb73","system_id":"levelo_inurba_marseille","lat":43.272116,"lon":5.391747,"is_reserved":false,"is_disabled":false,"rental_uris":{"android":"levelo://app?vid=fc07e140-c24e-4805-97b3-4c75e804fb73","ios":"levelo://app?vid=fc07e140-c24e-4805-97b3-4c75e804fb73"},"vehicle_type_id":"4","last_reported":1702887037,"current_range_meters":30000,"station_id":"ce4bhhp2rcd13ifvqfm0","pricing_plan_id":"free"},{"bike_id":"7c5e5a9a-9f39-4a14-9573-d5b8ab599dd5","system_id":"levelo_inurba_marseille","lat":43.27188,"lon":5.39224,"is_reserved":false,"is_disabled":false,"rental_uris":{"android":"levelo://app?vid=7c5e5a9a-9f39-4a14-9573-d5b8ab599dd5","ios":"levelo://app?vid=7c5e5a9a-9f39-4a14-9573-d5b8ab599dd5"},"vehicle_type_id":"4","last_reported":1702887037,"current_range_meters":14800,"station_id":"ce4bhhp2rcd13ifvqfm0","pricing_plan_id":"free"},{"bike_id":"06e1c1e0-1728-4be6-97fb-992e17ab8a1d","system_id":"levelo_inurba_marseille","lat":43.27819,"lon":5.40714,"is_reserved":false,"is_disabled":false,"rental_uris":{"android":"levelo://app?vid=06e1c1e0-1728-4be6-97fb-992e17ab8a1d","ios":"levelo://app?vid=06e1c1e0-1728-4be6-97fb-992e17ab8a1d"},"vehicle_type_id":"4","last_reported":1702887037,"current_range_meters":400,"station_id":"ce4bhnh2rcd13ifvqgtg","pricing_plan_id":"free"},{"bike_id":"17a5cb27-bb54-474d-b38b-a20917de59e5","system_id":"levelo_inurba_marseille","lat":43.269467,"lon":5.386439,"is_reserved":false,"is_disabled":false,"rental_uris":{"android":"levelo://app?vid=17a5cb27-bb54-474d-b38b-a20917de59e5","ios":"levelo://app?vid=17a5cb27-bb54-474d-b38b-a20917de59e5"},"vehicle_type_id":"4","last_reported":1702887037,"current_range_meters":22000,"station_id":"ce4bhh92rcd13ifvqfh0","pricing_plan_id":"free"},{"bike_id":"b0472b00-a63f-4d3d-8623-06754bf17353","system_id":"levelo_inurba_marseille","lat":43.279465,"lon":5.410561,"is_reserved":false,"is_disabled":false,"rental_uris":{"android":"levelo://app?vid=b0472b00-a63f-4d3d-8623-06754bf17353","ios":"levelo://app?vid=b0472b00-a63f-4d3d-8623-06754bf17353"},"vehicle_type_id":"4","last_reported":1702887037,"current_range_meters":0,"station_id":"ce4bhnp2rcd13ifvqh0g","pricing_plan_id":"free"},{"bike_id":"db774753-4382-453e-a138-c32d538f9839","system_id":"levelo_inurba_marseille","lat":43.358673,"lon":5.356887,"is_reserved":false,"is_disabled":false,"rental_uris":{"android":"levelo://app?vid=db774753-4382-453e-a138-c32d538f9839","ios":"levelo://app?vid=db774753-4382-453e-a138-c32d538f9839"},"vehicle_type_id":"4","last_reported":1702887037,"current_range_meters":10400,"station_id":"","pricing_plan_id":"free"},{"bike_id":"18362084-cae0-4751-b141-9300d4f7dd83","system_id":"levelo_inurba_marseille","lat":43.26681,"lon":5.382694,"is_reserved":false,"is_disabled":false,"rental_uris":{"android":"levelo://app?vid=18362084-cae0-4751-b141-9300d4f7dd83","ios":"levelo://app?vid=18362084-cae0-4751-b141-9300d4f7dd83"},"vehicle_type_id":"4","last_reported":1702887037,"current_range_meters":29600,"station_id":"ce4bhg92rcd13ifvqf90","pricing_plan_id":"free"},{"bike_id":"716c9dd2-78bf-494e-a669-c8e867d5bdf2","system_id":"levelo_inurba_marseille","lat":43.2656,"lon":5.37284,"is_reserved":false,"is_disabled":false,"rental_uris":{"android":"levelo://app?vid=716c9dd2-78bf-494e-a669-c8e867d5bdf2","ios":"levelo://app?vid=716c9dd2-78bf-494e-a669-c8e867d5bdf2"},"vehicle_type_id":"4","last_reported":1702887037,"current_range_meters":23600,"station_id":"ce4bhg12rcd13ifvqf70","pricing_plan_id":"free"},{"bike_id":"ed21043a-159f-4571-8443-060395876ac8","system_id":"levelo_inurba_marseille","lat":43.265714,"lon":5.372891,"is_reserved":false,"is_disabled":false,"rental_uris":{"android":"levelo://app?vid=ed21043a-159f-4571-8443-060395876ac8","ios":"levelo://app?vid=ed21043a-159f-4571-8443-060395876ac8"},"vehicle_type_id":"4","last_reported":1702887037,"current_range_meters":29200,"station_id":"ce4bhg12rcd13ifvqf70","pricing_plan_id":"free"},{"bike_id":"90b4af50-401d-4568-ab83-d4feae404bd8","system_id":"levelo_inurba_marseille","lat":43.26558,"lon":5.37286,"is_reserved":false,"is_disabled":false,"rental_uris":{"android":"levelo://app?vid=90b4af50-401d-4568-ab83-d4feae404bd8","ios":"levelo://app?vid=90b4af50-401d-4568-ab83-d4feae404bd8"},"vehicle_type_id":"4","last_reported":1702887037,"current_range_meters":26000,"station_id":"ce4bhg12rcd13ifvqf70","pricing_plan_id":"free"},{"bike_id":"901bb220-0a30-44c2-a6f6-f06de372c421","system_id":"levelo_inurba_marseille","lat":43.26558,"lon":5.37287,"is_reserved":false,"is_disabled":false,"rental_uris":{"android":"levelo://app?vid=901bb220-0a30-44c2-a6f6-f06de372c421","ios":"levelo://app?vid=901bb220-0a30-44c2-a6f6-f06de372c421"},"vehicle_type_id":"4","last_reported":1702887037,"current_range_meters":28400,"station_id":"ce4bhg12rcd13ifvqf70","pricing_plan_id":"free"},{"bike_id":"1ac06528-e4d9-49db-8c40-00fe5cad7349","system_id":"levelo_inurba_marseille","lat":43.26557,"lon":5.37287,"is_reserved":false,"is_disabled":false,"rental_uris":{"android":"levelo://app?vid=1ac06528-e4d9-49db-8c40-00fe5cad7349","ios":"levelo://app?vid=1ac06528-e4d9-49db-8c40-00fe5cad7349"},"vehicle_type_id":"4","last_reported":1702887037,"current_range_meters":11600,"station_id":"ce4bhg12rcd13ifvqf70","pricing_plan_id":"free"},{"bike_id":"521b0377-cc4f-4a6f-afad-39e2f88f14b3","system_id":"levelo_inurba_marseille","lat":43.26681,"lon":5.382694,"is_reserved":false,"is_disabled":false,"rental_uris":{"android":"levelo://app?vid=521b0377-cc4f-4a6f-afad-39e2f88f14b3","ios":"levelo://app?vid=521b0377-cc4f-4a6f-afad-39e2f88f14b3"},"vehicle_type_id":"4","last_reported":1702887037,"current_range_meters":22000,"station_id":"ce4bhg92rcd13ifvqf90","pricing_plan_id":"free"},{"bike_id":"8318c3f4-88db-4206-a6ab-dc417c549d7b","system_id":"levelo_inurba_marseille","lat":43.26681,"lon":5.382694,"is_reserved":false,"is_disabled":false,"rental_uris":{"android":"levelo://app?vid=8318c3f4-88db-4206-a6ab-dc417c549d7b","ios":"levelo://app?vid=8318c3f4-88db-4206-a6ab-dc417c549d7b"},"vehicle_type_id":"4","last_reported":1702887037,"current_range_meters":10800,"station_id":"ce4bhg92rcd13ifvqf90","pricing_plan_id":"free"},{"bike_id":"6c5b5142-8085-4891-bc53-c596acef58b4","system_id":"levelo_inurba_marseille","lat":43.265714,"lon":5.372891,"is_reserved":false,"is_disabled":false,"rental_uris":{"android":"levelo://app?vid=6c5b5142-8085-4891-bc53-c596acef58b4","ios":"levelo://app?vid=6c5b5142-8085-4891-bc53-c596acef58b4"},"vehicle_type_id":"4","last_reported":1702887037,"current_range_meters":28000,"station_id":"ce4bhg12rcd13ifvqf70","pricing_plan_id":"free"},{"bike_id":"763ab4bc-621f-4599-8fca-8cd5990ef533","system_id":"levelo_inurba_marseille","lat":43.265714,"lon":5.372891,"is_reserved":false,"is_disabled":false,"rental_uris":{"android":"levelo://app?vid=763ab4bc-621f-4599-8fca-8cd5990ef533","ios":"levelo://app?vid=763ab4bc-621f-4599-8fca-8cd5990ef533"},"vehicle_type_id":"4","last_reported":1702887037,"current_range_meters":21200,"station_id":"ce4bhg12rcd13ifvqf70","pricing_plan_id":"free"},{"bike_id":"0eeda4b9-7cc3-49cc-a102-c74d5ca38e8e","system_id":"levelo_inurba_marseille","lat":43.27989,"lon":5.41658,"is_reserved":false,"is_disabled":false,"rental_uris":{"android":"levelo://app?vid=0eeda4b9-7cc3-49cc-a102-c74d5ca38e8e","ios":"levelo://app?vid=0eeda4b9-7cc3-49cc-a102-c74d5ca38e8e"},"vehicle_type_id":"4","last_reported":1702887037,"current_range_meters":0,"station_id":"ce4bho12rcd13ifvqh1g","pricing_plan_id":"free"},{"bike_id":"0519215d-32e4-4f20-abcf-50d7be4e3298","system_id":"levelo_inurba_marseille","lat":43.27996,"lon":5.416624,"is_reserved":false,"is_disabled":false,"rental_uris":{"android":"levelo://app?vid=0519215d-32e4-4f20-abcf-50d7be4e3298","ios":"levelo://app?vid=0519215d-32e4-4f20-abcf-50d7be4e3298"},"vehicle_type_id":"4","last_reported":1702887037,"current_range_meters":800,"station_id":"ce4bho12rcd13ifvqh1g","pricing_plan_id":"free"},{"bike_id":"24b32771-aa25-4ea4-88cc-bc6fd7579562","system_id":"levelo_inurba_marseille","lat":43.265714,"lon":5.372891,"is_reserved":false,"is_disabled":false,"rental_uris":{"android":"levelo://app?vid=24b32771-aa25-4ea4-88cc-bc6fd7579562","ios":"levelo://app?vid=24b32771-aa25-4ea4-88cc-bc6fd7579562"},"vehicle_type_id":"4","last_reported":1702887037,"current_range_meters":21200,"station_id":"ce4bhg12rcd13ifvqf70","pricing_plan_id":"free"},{"bike_id":"1e4e2d3c-2c40-4f75-ac12-0387ae124292","system_id":"levelo_inurba_marseille","lat":43.267966,"lon":5.393976,"is_reserved":false,"is_disabled":false,"rental_uris":{"android":"levelo://app?vid=1e4e2d3c-2c40-4f75-ac12-0387ae124292","ios":"levelo://app?vid=1e4e2d3c-2c40-4f75-ac12-0387ae124292"},"vehicle_type_id":"4","last_reported":1702887037,"current_range_meters":30000,"station_id":"ce4bhh12rcd13ifvqfg0","pricing_plan_id":"free"},{"bike_id":"3042b76f-1592-4fbc-8f83-84084c9728dc","system_id":"levelo_inurba_marseille","lat":43.26949,"lon":5.40262,"is_reserved":false,"is_disabled":false,"rental_uris":{"android":"levelo://app?vid=3042b76f-1592-4fbc-8f83-84084c9728dc","ios":"levelo://app?vid=3042b76f-1592-4fbc-8f83-84084c9728dc"},"vehicle_type_id":"4","last_reported":1702887037,"current_range_meters":22000,"station_id":"cjm6bp8fraef2m0cb0m0","pricing_plan_id":"free"},{"bike_id":"49d6aca4-8a10-46bf-a5b3-917b0868a751","system_id":"levelo_inurba_marseille","lat":43.26949,"lon":5.40262,"is_reserved":false,"is_disabled":false,"rental_uris":{"android":"levelo://app?vid=49d6aca4-8a10-46bf-a5b3-917b0868a751","ios":"levelo://app?vid=49d6aca4-8a10-46bf-a5b3-917b0868a751"},"vehicle_type_id":"4","last_reported":1702887037,"current_range_meters":2400,"station_id":"cjm6bp8fraef2m0cb0m0","pricing_plan_id":"free"},{"bike_id":"f21ea516-e527-4625-8729-1139d7e585e5","system_id":"levelo_inurba_marseille","lat":43.26949,"lon":5.40262,"is_reserved":false,"is_disabled":false,"rental_uris":{"android":"levelo://app?vid=f21ea516-e527-4625-8729-1139d7e585e5","ios":"levelo://app?vid=f21ea516-e527-4625-8729-1139d7e585e5"},"vehicle_type_id":"4","last_reported":1702887037,"current_range_meters":2000,"station_id":"cjm6bp8fraef2m0cb0m0","pricing_plan_id":"free"},{"bike_id":"c5f1943b-15ae-40ff-a6c8-b2bab011c3bb","system_id":"levelo_inurba_marseille","lat":43.26202,"lon":5.379299,"is_reserved":false,"is_disabled":false,"rental_uris":{"android":"levelo://app?vid=c5f1943b-15ae-40ff-a6c8-b2bab011c3bb","ios":"levelo://app?vid=c5f1943b-15ae-40ff-a6c8-b2bab011c3bb"},"vehicle_type_id":"4","last_reported":1702887037,"current_range_meters":14800,"station_id":"ce4bhjp2rcd13ifvqg90","pricing_plan_id":"free"},{"bike_id":"7a6af108-6355-4d85-9213-ca56151380c7","system_id":"levelo_inurba_marseille","lat":43.262012,"lon":5.379307,"is_reserved":false,"is_disabled":false,"rental_uris":{"android":"levelo://app?vid=7a6af108-6355-4d85-9213-ca56151380c7","ios":"levelo://app?vid=7a6af108-6355-4d85-9213-ca56151380c7"},"vehicle_type_id":"4","last_reported":1702887037,"current_range_meters":30400,"station_id":"ce4bhjp2rcd13ifvqg90","pricing_plan_id":"free"},{"bike_id":"18b73564-86d7-437a-a6ad-da53591ff1db","system_id":"levelo_inurba_marseille","lat":43.271388,"lon":5.409269,"is_reserved":false,"is_disabled":false,"rental_uris":{"android":"levelo://app?vid=18b73564-86d7-437a-a6ad-da53591ff1db","ios":"levelo://app?vid=18b73564-86d7-437a-a6ad-da53591ff1db"},"vehicle_type_id":"4","last_reported":1702887037,"current_range_meters":29600,"station_id":"ce4bhl12rcd13ifvqgf0","pricing_plan_id":"free"},{"bike_id":"4d2f94b6-89fd-4934-b631-4bde17164171","system_id":"levelo_inurba_marseille","lat":43.26023,"lon":5.3755,"is_reserved":false,"is_disabled":false,"rental_uris":{"android":"levelo://app?vid=4d2f94b6-89fd-4934-b631-4bde17164171","ios":"levelo://app?vid=4d2f94b6-89fd-4934-b631-4bde17164171"},"vehicle_type_id":"4","last_reported":1702887037,"current_range_meters":27600,"station_id":"ce4bhgh2rcd13ifvqfa0","pricing_plan_id":"free"},{"bike_id":"41cd7846-2148-4afe-91de-7a56ff1d7c12","system_id":"levelo_inurba_marseille","lat":43.281548,"lon":5.42643,"is_reserved":false,"is_disabled":false,"rental_uris":{"android":"levelo://app?vid=41cd7846-2148-4afe-91de-7a56ff1d7c12","ios":"levelo://app?vid=41cd7846-2148-4afe-91de-7a56ff1d7c12"},"vehicle_type_id":"4","last_reported":1702887037,"current_range_meters":12400,"station_id":"ce4bhnh2rcd13ifvqgug","pricing_plan_id":"free"},{"bike_id":"7bd30b8c-d34e-4b55-a5a3-898b9d728a98","system_id":"levelo_inurba_marseille","lat":43.2607,"lon":5.393983,"is_reserved":false,"is_disabled":false,"rental_uris":{"android":"levelo://app?vid=7bd30b8c-d34e-4b55-a5a3-898b9d728a98","ios":"levelo://app?vid=7bd30b8c-d34e-4b55-a5a3-898b9d728a98"},"vehicle_type_id":"4","last_reported":1702887037,"current_range_meters":10000,"station_id":"ce4bhh92rcd13ifvqfj0","pricing_plan_id":"free"},{"bike_id":"75c648ad-bb5c-498c-8702-26f3c1000389","system_id":"levelo_inurba_marseille","lat":43.275028,"lon":5.424534,"is_reserved":false,"is_disabled":false,"rental_uris":{"android":"levelo://app?vid=75c648ad-bb5c-498c-8702-26f3c1000389","ios":"levelo://app?vid=75c648ad-bb5c-498c-8702-26f3c1000389"},"vehicle_type_id":"4","last_reported":1702887037,"current_range_meters":20400,"station_id":"ce4bhn92rcd13ifvqgrg","pricing_plan_id":"free"},{"bike_id":"798bb3bc-2292-4785-8d78-de07a7b640e4","system_id":"levelo_inurba_marseille","lat":43.275028,"lon":5.424534,"is_reserved":false,"is_disabled":false,"rental_uris":{"android":"levelo://app?vid=798bb3bc-2292-4785-8d78-de07a7b640e4","ios":"levelo://app?vid=798bb3bc-2292-4785-8d78-de07a7b640e4"},"vehicle_type_id":"4","last_reported":1702887037,"current_range_meters":18800,"station_id":"ce4bhn92rcd13ifvqgrg","pricing_plan_id":"free"},{"bike_id":"152e125e-7225-4ec6-8728-7823316384b7","system_id":"levelo_inurba_marseille","lat":43.275028,"lon":5.424534,"is_reserved":false,"is_disabled":false,"rental_uris":{"android":"levelo://app?vid=152e125e-7225-4ec6-8728-7823316384b7","ios":"levelo://app?vid=152e125e-7225-4ec6-8728-7823316384b7"},"vehicle_type_id":"4","last_reported":1702887037,"current_range_meters":22800,"station_id":"ce4bhn92rcd13ifvqgrg","pricing_plan_id":"free"},{"bike_id":"2737255d-fa68-4586-9e3b-54a6ad3d9547","system_id":"levelo_inurba_marseille","lat":43.275028,"lon":5.424534,"is_reserved":false,"is_disabled":false,"rental_uris":{"android":"levelo://app?vid=2737255d-fa68-4586-9e3b-54a6ad3d9547","ios":"levelo://app?vid=2737255d-fa68-4586-9e3b-54a6ad3d9547"},"vehicle_type_id":"4","last_reported":1702887037,"current_range_meters":21600,"station_id":"ce4bhn92rcd13ifvqgrg","pricing_plan_id":"free"},{"bike_id":"45baab9e-6fe0-4451-8ff2-5be7fb590c65","system_id":"levelo_inurba_marseille","lat":43.275028,"lon":5.424534,"is_reserved":false,"is_disabled":false,"rental_uris":{"android":"levelo://app?vid=45baab9e-6fe0-4451-8ff2-5be7fb590c65","ios":"levelo://app?vid=45baab9e-6fe0-4451-8ff2-5be7fb590c65"},"vehicle_type_id":"4","last_reported":1702887037,"current_range_meters":1600,"station_id":"ce4bhn92rcd13ifvqgrg","pricing_plan_id":"free"},{"bike_id":"b9e168a5-bfcd-4bea-9c6f-dd7e3cd7ad17","system_id":"levelo_inurba_marseille","lat":43.275028,"lon":5.424534,"is_reserved":false,"is_disabled":false,"rental_uris":{"android":"levelo://app?vid=b9e168a5-bfcd-4bea-9c6f-dd7e3cd7ad17","ios":"levelo://app?vid=b9e168a5-bfcd-4bea-9c6f-dd7e3cd7ad17"},"vehicle_type_id":"4","last_reported":1702887037,"current_range_meters":23600,"station_id":"ce4bhn92rcd13ifvqgrg","pricing_plan_id":"free"},{"bike_id":"6a24c9c2-0536-4d05-8056-8d8332f4bc28","system_id":"levelo_inurba_marseille","lat":43.275028,"lon":5.424534,"is_reserved":false,"is_disabled":false,"rental_uris":{"android":"levelo://app?vid=6a24c9c2-0536-4d05-8056-8d8332f4bc28","ios":"levelo://app?vid=6a24c9c2-0536-4d05-8056-8d8332f4bc28"},"vehicle_type_id":"4","last_reported":1702887037,"current_range_meters":31600,"station_id":"ce4bhn92rcd13ifvqgrg","pricing_plan_id":"free"},{"bike_id":"82e1bcac-6eee-4604-b918-7a993f253195","system_id":"levelo_inurba_marseille","lat":43.275028,"lon":5.424534,"is_reserved":false,"is_disabled":false,"rental_uris":{"android":"levelo://app?vid=82e1bcac-6eee-4604-b918-7a993f253195","ios":"levelo://app?vid=82e1bcac-6eee-4604-b918-7a993f253195"},"vehicle_type_id":"4","last_reported":1702887037,"current_range_meters":23600,"station_id":"ce4bhn92rcd13ifvqgrg","pricing_plan_id":"free"},{"bike_id":"b41d8c65-a328-409e-a2f2-8750a4fd551a","system_id":"levelo_inurba_marseille","lat":43.275028,"lon":5.424534,"is_reserved":false,"is_disabled":false,"rental_uris":{"android":"levelo://app?vid=b41d8c65-a328-409e-a2f2-8750a4fd551a","ios":"levelo://app?vid=b41d8c65-a328-409e-a2f2-8750a4fd551a"},"vehicle_type_id":"4","last_reported":1702887037,"current_range_meters":6000,"station_id":"ce4bhn92rcd13ifvqgrg","pricing_plan_id":"free"},{"bike_id":"6a198bc7-c88f-4264-bd28-798ff934092f","system_id":"levelo_inurba_marseille","lat":43.275028,"lon":5.424534,"is_reserved":false,"is_disabled":false,"rental_uris":{"android":"levelo://app?vid=6a198bc7-c88f-4264-bd28-798ff934092f","ios":"levelo://app?vid=6a198bc7-c88f-4264-bd28-798ff934092f"},"vehicle_type_id":"4","last_reported":1702887037,"current_range_meters":25600,"station_id":"ce4bhn92rcd13ifvqgrg","pricing_plan_id":"free"},{"bike_id":"9d996e84-0694-4cd4-b5da-e9c86eaccfc0","system_id":"levelo_inurba_marseille","lat":43.275028,"lon":5.424534,"is_reserved":false,"is_disabled":false,"rental_uris":{"android":"levelo://app?vid=9d996e84-0694-4cd4-b5da-e9c86eaccfc0","ios":"levelo://app?vid=9d996e84-0694-4cd4-b5da-e9c86eaccfc0"},"vehicle_type_id":"4","last_reported":1702887037,"current_range_meters":12400,"station_id":"ce4bhn92rcd13ifvqgrg","pricing_plan_id":"free"},{"bike_id":"265268f7-b2d2-4e25-bcbf-34409355d31e","system_id":"levelo_inurba_marseille","lat":43.275028,"lon":5.424534,"is_reserved":false,"is_disabled":false,"rental_uris":{"android":"levelo://app?vid=265268f7-b2d2-4e25-bcbf-34409355d31e","ios":"levelo://app?vid=265268f7-b2d2-4e25-bcbf-34409355d31e"},"vehicle_type_id":"4","last_reported":1702887037,"current_range_meters":18800,"station_id":"ce4bhn92rcd13ifvqgrg","pricing_plan_id":"free"},{"bike_id":"ff00ffc6-1f36-457c-a38b-c213194d2ed3","system_id":"levelo_inurba_marseille","lat":43.275028,"lon":5.424534,"is_reserved":false,"is_disabled":false,"rental_uris":{"android":"levelo://app?vid=ff00ffc6-1f36-457c-a38b-c213194d2ed3","ios":"levelo://app?vid=ff00ffc6-1f36-457c-a38b-c213194d2ed3"},"vehicle_type_id":"4","last_reported":1702887037,"current_range_meters":400,"station_id":"ce4bhn92rcd13ifvqgrg","pricing_plan_id":"free"},{"bike_id":"d2007443-4338-42cb-923c-147041d30edf","system_id":"levelo_inurba_marseille","lat":43.275028,"lon":5.424534,"is_reserved":false,"is_disabled":false,"rental_uris":{"android":"levelo://app?vid=d2007443-4338-42cb-923c-147041d30edf","ios":"levelo://app?vid=d2007443-4338-42cb-923c-147041d30edf"},"vehicle_type_id":"4","last_reported":1702887037,"current_range_meters":31200,"station_id":"ce4bhn92rcd13ifvqgrg","pricing_plan_id":"free"},{"bike_id":"8ce65bd2-6385-4b97-8ac6-1877d7ca4f72","system_id":"levelo_inurba_marseille","lat":43.26088,"lon":5.39766,"is_reserved":false,"is_disabled":false,"rental_uris":{"android":"levelo://app?vid=8ce65bd2-6385-4b97-8ac6-1877d7ca4f72","ios":"levelo://app?vid=8ce65bd2-6385-4b97-8ac6-1877d7ca4f72"},"vehicle_type_id":"4","last_reported":1702887037,"current_range_meters":31200,"station_id":"","pricing_plan_id":"free"},{"bike_id":"e82b9179-ac15-4808-988e-5b39d7493a22","system_id":"levelo_inurba_marseille","lat":43.275028,"lon":5.424534,"is_reserved":false,"is_disabled":false,"rental_uris":{"android":"levelo://app?vid=e82b9179-ac15-4808-988e-5b39d7493a22","ios":"levelo://app?vid=e82b9179-ac15-4808-988e-5b39d7493a22"},"vehicle_type_id":"4","last_reported":1702887037,"current_range_meters":22800,"station_id":"ce4bhn92rcd13ifvqgrg","pricing_plan_id":"free"},{"bike_id":"fdceae04-adce-4951-89fc-a39188c2b1d8","system_id":"levelo_inurba_marseille","lat":43.25579,"lon":5.38231,"is_reserved":false,"is_disabled":false,"rental_uris":{"android":"levelo://app?vid=fdceae04-adce-4951-89fc-a39188c2b1d8","ios":"levelo://app?vid=fdceae04-adce-4951-89fc-a39188c2b1d8"},"vehicle_type_id":"4","last_reported":1702887037,"current_range_meters":16800,"station_id":"ce4bhih2rcd13ifvqfs0","pricing_plan_id":"free"},{"bike_id":"8f8ca80d-0df0-4f47-a7b5-5fe6d60e1474","system_id":"levelo_inurba_marseille","lat":43.25578,"lon":5.38235,"is_reserved":false,"is_disabled":false,"rental_uris":{"android":"levelo://app?vid=8f8ca80d-0df0-4f47-a7b5-5fe6d60e1474","ios":"levelo://app?vid=8f8ca80d-0df0-4f47-a7b5-5fe6d60e1474"},"vehicle_type_id":"4","last_reported":1702887037,"current_range_meters":22400,"station_id":"ce4bhih2rcd13ifvqfs0","pricing_plan_id":"free"},{"bike_id":"83ae4143-0b80-4b86-af8d-bced285766a8","system_id":"levelo_inurba_marseille","lat":43.25575,"lon":5.3823,"is_reserved":false,"is_disabled":false,"rental_uris":{"android":"levelo://app?vid=83ae4143-0b80-4b86-af8d-bced285766a8","ios":"levelo://app?vid=83ae4143-0b80-4b86-af8d-bced285766a8"},"vehicle_type_id":"4","last_reported":1702887037,"current_range_meters":21200,"station_id":"ce4bhih2rcd13ifvqfs0","pricing_plan_id":"free"},{"bike_id":"aca2dcca-a316-4f0c-ac24-39f4a3a60bd2","system_id":"levelo_inurba_marseille","lat":43.254947,"lon":5.376454,"is_reserved":false,"is_disabled":false,"rental_uris":{"android":"levelo://app?vid=aca2dcca-a316-4f0c-ac24-39f4a3a60bd2","ios":"levelo://app?vid=aca2dcca-a316-4f0c-ac24-39f4a3a60bd2"},"vehicle_type_id":"4","last_reported":1702887037,"current_range_meters":31200,"station_id":"ce4bhh12rcd13ifvqff0","pricing_plan_id":"free"},{"bike_id":"32b50033-3f96-4ba2-adbf-286226a1a634","system_id":"levelo_inurba_marseille","lat":43.258658,"lon":5.398935,"is_reserved":false,"is_disabled":false,"rental_uris":{"android":"levelo://app?vid=32b50033-3f96-4ba2-adbf-286226a1a634","ios":"levelo://app?vid=32b50033-3f96-4ba2-adbf-286226a1a634"},"vehicle_type_id":"4","last_reported":1702887037,"current_range_meters":800,"station_id":"ce4bhl92rcd13ifvqghg","pricing_plan_id":"free"},{"bike_id":"ee354c33-94c7-44d9-8009-d3ce5dd1be85","system_id":"levelo_inurba_marseille","lat":43.258658,"lon":5.398935,"is_reserved":false,"is_disabled":false,"rental_uris":{"android":"levelo://app?vid=ee354c33-94c7-44d9-8009-d3ce5dd1be85","ios":"levelo://app?vid=ee354c33-94c7-44d9-8009-d3ce5dd1be85"},"vehicle_type_id":"4","last_reported":1702887037,"current_range_meters":12400,"station_id":"ce4bhl92rcd13ifvqghg","pricing_plan_id":"free"},{"bike_id":"0cd848dc-36f9-4e70-94ac-d04a8757364b","system_id":"levelo_inurba_marseille","lat":43.25941,"lon":5.40901,"is_reserved":false,"is_disabled":false,"rental_uris":{"android":"levelo://app?vid=0cd848dc-36f9-4e70-94ac-d04a8757364b","ios":"levelo://app?vid=0cd848dc-36f9-4e70-94ac-d04a8757364b"},"vehicle_type_id":"4","last_reported":1702887037,"current_range_meters":19600,"station_id":"ce4bhm92rcd13ifvqglg","pricing_plan_id":"free"},{"bike_id":"7b9dbebe-a91a-4333-86e7-f71bb8ba3e5e","system_id":"levelo_inurba_marseille","lat":43.259013,"lon":5.409301,"is_reserved":false,"is_disabled":false,"rental_uris":{"android":"levelo://app?vid=7b9dbebe-a91a-4333-86e7-f71bb8ba3e5e","ios":"levelo://app?vid=7b9dbebe-a91a-4333-86e7-f71bb8ba3e5e"},"vehicle_type_id":"4","last_reported":1702887037,"current_range_meters":16800,"station_id":"ce4bhm92rcd13ifvqglg","pricing_plan_id":"free"},{"bike_id":"7af5d6b9-01d1-4dbe-a1ef-63878ea59995","system_id":"levelo_inurba_marseille","lat":43.259013,"lon":5.409301,"is_reserved":false,"is_disabled":false,"rental_uris":{"android":"levelo://app?vid=7af5d6b9-01d1-4dbe-a1ef-63878ea59995","ios":"levelo://app?vid=7af5d6b9-01d1-4dbe-a1ef-63878ea59995"},"vehicle_type_id":"4","last_reported":1702887037,"current_range_meters":22800,"station_id":"ce4bhm92rcd13ifvqglg","pricing_plan_id":"free"},{"bike_id":"75b58ad3-589c-4015-9a40-0297bf20ca67","system_id":"levelo_inurba_marseille","lat":43.25933,"lon":5.40914,"is_reserved":false,"is_disabled":false,"rental_uris":{"android":"levelo://app?vid=75b58ad3-589c-4015-9a40-0297bf20ca67","ios":"levelo://app?vid=75b58ad3-589c-4015-9a40-0297bf20ca67"},"vehicle_type_id":"4","last_reported":1702887037,"current_range_meters":8400,"station_id":"ce4bhm92rcd13ifvqglg","pricing_plan_id":"free"},{"bike_id":"61a4c449-70c1-4d31-941e-a3fe596474dd","system_id":"levelo_inurba_marseille","lat":43.259278,"lon":5.409126,"is_reserved":false,"is_disabled":false,"rental_uris":{"android":"levelo://app?vid=61a4c449-70c1-4d31-941e-a3fe596474dd","ios":"levelo://app?vid=61a4c449-70c1-4d31-941e-a3fe596474dd"},"vehicle_type_id":"4","last_reported":1702887037,"current_range_meters":28800,"station_id":"ce4bhm92rcd13ifvqglg","pricing_plan_id":"free"},{"bike_id":"1b5b8572-9f39-4d0f-8e18-fca8919c82a0","system_id":"levelo_inurba_marseille","lat":43.257079,"lon":5.411051,"is_reserved":false,"is_disabled":false,"rental_uris":{"android":"levelo://app?vid=1b5b8572-9f39-4d0f-8e18-fca8919c82a0","ios":"levelo://app?vid=1b5b8572-9f39-4d0f-8e18-fca8919c82a0"},"vehicle_type_id":"4","last_reported":1702887037,"current_range_meters":5200,"station_id":"ce4bhkp2rcd13ifvqgd0","pricing_plan_id":"free"},{"bike_id":"17a9d14a-6424-4d9a-a136-232d8d049f79","system_id":"levelo_inurba_marseille","lat":43.257079,"lon":5.411051,"is_reserved":false,"is_disabled":false,"rental_uris":{"android":"levelo://app?vid=17a9d14a-6424-4d9a-a136-232d8d049f79","ios":"levelo://app?vid=17a9d14a-6424-4d9a-a136-232d8d049f79"},"vehicle_type_id":"4","last_reported":1702887037,"current_range_meters":17600,"station_id":"ce4bhkp2rcd13ifvqgd0","pricing_plan_id":"free"},{"bike_id":"70dd9549-4da1-4026-ae08-a050b3271417","system_id":"levelo_inurba_marseille","lat":43.250966,"lon":5.395186,"is_reserved":false,"is_disabled":false,"rental_uris":{"android":"levelo://app?vid=70dd9549-4da1-4026-ae08-a050b3271417","ios":"levelo://app?vid=70dd9549-4da1-4026-ae08-a050b3271417"},"vehicle_type_id":"4","last_reported":1702887037,"current_range_meters":13200,"station_id":"ce4bhm12rcd13ifvqgkg","pricing_plan_id":"free"},{"bike_id":"d8ceb2a8-18be-43c6-956b-be6402a8c876","system_id":"levelo_inurba_marseille","lat":43.25107,"lon":5.40322,"is_reserved":false,"is_disabled":false,"rental_uris":{"android":"levelo://app?vid=d8ceb2a8-18be-43c6-956b-be6402a8c876","ios":"levelo://app?vid=d8ceb2a8-18be-43c6-956b-be6402a8c876"},"vehicle_type_id":"4","last_reported":1702887037,"current_range_meters":0,"station_id":"ce4bhlh2rcd13ifvqgig","pricing_plan_id":"free"},{"bike_id":"938d5efe-09ed-4de5-9e4f-37c97df5b158","system_id":"levelo_inurba_marseille","lat":43.25102,"lon":5.403214,"is_reserved":false,"is_disabled":false,"rental_uris":{"android":"levelo://app?vid=938d5efe-09ed-4de5-9e4f-37c97df5b158","ios":"levelo://app?vid=938d5efe-09ed-4de5-9e4f-37c97df5b158"},"vehicle_type_id":"4","last_reported":1702887037,"current_range_meters":25600,"station_id":"ce4bhlh2rcd13ifvqgig","pricing_plan_id":"free"},{"bike_id":"135974b1-ad9c-4aee-af9e-2187ae29f44d","system_id":"levelo_inurba_marseille","lat":43.245581,"lon":5.395069,"is_reserved":false,"is_disabled":false,"rental_uris":{"android":"levelo://app?vid=135974b1-ad9c-4aee-af9e-2187ae29f44d","ios":"levelo://app?vid=135974b1-ad9c-4aee-af9e-2187ae29f44d"},"vehicle_type_id":"4","last_reported":1702887037,"current_range_meters":12800,"station_id":"ce4bhlp2rcd13ifvqgjg","pricing_plan_id":"free"},{"bike_id":"f2631190-f790-4616-b840-746944d84588","system_id":"levelo_inurba_marseille","lat":43.2408,"lon":5.37756,"is_reserved":false,"is_disabled":false,"rental_uris":{"android":"levelo://app?vid=f2631190-f790-4616-b840-746944d84588","ios":"levelo://app?vid=f2631190-f790-4616-b840-746944d84588"},"vehicle_type_id":"4","last_reported":1702887037,"current_range_meters":25200,"station_id":"ce4bhnp2rcd13ifvqgvg","pricing_plan_id":"free"},{"bike_id":"6a2b9560-32a2-4a66-840d-df41e2022019","system_id":"levelo_inurba_marseille","lat":43.24077,"lon":5.37758,"is_reserved":false,"is_disabled":false,"rental_uris":{"android":"levelo://app?vid=6a2b9560-32a2-4a66-840d-df41e2022019","ios":"levelo://app?vid=6a2b9560-32a2-4a66-840d-df41e2022019"},"vehicle_type_id":"4","last_reported":1702887037,"current_range_meters":26400,"station_id":"ce4bhnp2rcd13ifvqgvg","pricing_plan_id":"free"},{"bike_id":"e78bc2af-e73f-494a-9aa6-6c457810cee4","system_id":"levelo_inurba_marseille","lat":43.24077,"lon":5.37758,"is_reserved":false,"is_disabled":false,"rental_uris":{"android":"levelo://app?vid=e78bc2af-e73f-494a-9aa6-6c457810cee4","ios":"levelo://app?vid=e78bc2af-e73f-494a-9aa6-6c457810cee4"},"vehicle_type_id":"4","last_reported":1702887037,"current_range_meters":14000,"station_id":"ce4bhnp2rcd13ifvqgvg","pricing_plan_id":"free"},{"bike_id":"2eff520d-0ff3-41f2-9ac1-37fcd441767c","system_id":"levelo_inurba_marseille","lat":43.24075,"lon":5.37757,"is_reserved":false,"is_disabled":false,"rental_uris":{"android":"levelo://app?vid=2eff520d-0ff3-41f2-9ac1-37fcd441767c","ios":"levelo://app?vid=2eff520d-0ff3-41f2-9ac1-37fcd441767c"},"vehicle_type_id":"4","last_reported":1702887037,"current_range_meters":20000,"station_id":"ce4bhnp2rcd13ifvqgvg","pricing_plan_id":"free"},{"bike_id":"87a97936-15e6-498e-8834-01329c279da4","system_id":"levelo_inurba_marseille","lat":43.24074,"lon":5.37762,"is_reserved":false,"is_disabled":false,"rental_uris":{"android":"levelo://app?vid=87a97936-15e6-498e-8834-01329c279da4","ios":"levelo://app?vid=87a97936-15e6-498e-8834-01329c279da4"},"vehicle_type_id":"4","last_reported":1702887037,"current_range_meters":30400,"station_id":"ce4bhnp2rcd13ifvqgvg","pricing_plan_id":"free"},{"bike_id":"93da6ba6-09bc-42c3-9941-50a719734970","system_id":"levelo_inurba_marseille","lat":43.24074,"lon":5.37764,"is_reserved":false,"is_disabled":false,"rental_uris":{"android":"levelo://app?vid=93da6ba6-09bc-42c3-9941-50a719734970","ios":"levelo://app?vid=93da6ba6-09bc-42c3-9941-50a719734970"},"vehicle_type_id":"4","last_reported":1702887037,"current_range_meters":13200,"station_id":"ce4bhnp2rcd13ifvqgvg","pricing_plan_id":"free"},{"bike_id":"98cbe604-ea29-4ffb-8b6b-c83ac358b30f","system_id":"levelo_inurba_marseille","lat":43.240623,"lon":5.377642,"is_reserved":false,"is_disabled":false,"rental_uris":{"android":"levelo://app?vid=98cbe604-ea29-4ffb-8b6b-c83ac358b30f","ios":"levelo://app?vid=98cbe604-ea29-4ffb-8b6b-c83ac358b30f"},"vehicle_type_id":"4","last_reported":1702887037,"current_range_meters":3600,"station_id":"ce4bhnp2rcd13ifvqgvg","pricing_plan_id":"free"},{"bike_id":"2b0ce332-97bb-4c92-961a-331302cd0b08","system_id":"levelo_inurba_marseille","lat":43.240623,"lon":5.377642,"is_reserved":false,"is_disabled":false,"rental_uris":{"android":"levelo://app?vid=2b0ce332-97bb-4c92-961a-331302cd0b08","ios":"levelo://app?vid=2b0ce332-97bb-4c92-961a-331302cd0b08"},"vehicle_type_id":"4","last_reported":1702887037,"current_range_meters":0,"station_id":"ce4bhnp2rcd13ifvqgvg","pricing_plan_id":"free"},{"bike_id":"e430be78-4d52-4038-a85e-73168841aa60","system_id":"levelo_inurba_marseille","lat":43.240623,"lon":5.377642,"is_reserved":false,"is_disabled":false,"rental_uris":{"android":"levelo://app?vid=e430be78-4d52-4038-a85e-73168841aa60","ios":"levelo://app?vid=e430be78-4d52-4038-a85e-73168841aa60"},"vehicle_type_id":"4","last_reported":1702887037,"current_range_meters":17600,"station_id":"ce4bhnp2rcd13ifvqgvg","pricing_plan_id":"free"},{"bike_id":"630cf2f9-baf1-4860-be47-7a66ce2ac839","system_id":"levelo_inurba_marseille","lat":43.239588,"lon":5.366238,"is_reserved":false,"is_disabled":false,"rental_uris":{"android":"levelo://app?vid=630cf2f9-baf1-4860-be47-7a66ce2ac839","ios":"levelo://app?vid=630cf2f9-baf1-4860-be47-7a66ce2ac839"},"vehicle_type_id":"4","last_reported":1702887037,"current_range_meters":21200,"station_id":"ce4bhi12rcd13ifvqfp0","pricing_plan_id":"free"},{"bike_id":"10724c75-222f-4c97-92af-1e4787a325e6","system_id":"levelo_inurba_marseille","lat":43.241782,"lon":5.397261,"is_reserved":false,"is_disabled":false,"rental_uris":{"android":"levelo://app?vid=10724c75-222f-4c97-92af-1e4787a325e6","ios":"levelo://app?vid=10724c75-222f-4c97-92af-1e4787a325e6"},"vehicle_type_id":"4","last_reported":1702887037,"current_range_meters":12800,"station_id":"ce4bhn12rcd13ifvqgpg","pricing_plan_id":"free"},{"bike_id":"7544b8c0-a29f-44c5-8842-21760cbddff8","system_id":"levelo_inurba_marseille","lat":43.241782,"lon":5.397261,"is_reserved":false,"is_disabled":false,"rental_uris":{"android":"levelo://app?vid=7544b8c0-a29f-44c5-8842-21760cbddff8","ios":"levelo://app?vid=7544b8c0-a29f-44c5-8842-21760cbddff8"},"vehicle_type_id":"4","last_reported":1702887037,"current_range_meters":30800,"station_id":"ce4bhn12rcd13ifvqgpg","pricing_plan_id":"free"},{"bike_id":"8fa8dcad-9213-4682-9e78-bced4d248910","system_id":"levelo_inurba_marseille","lat":43.23197,"lon":5.35549,"is_reserved":false,"is_disabled":false,"rental_uris":{"android":"levelo://app?vid=8fa8dcad-9213-4682-9e78-bced4d248910","ios":"levelo://app?vid=8fa8dcad-9213-4682-9e78-bced4d248910"},"vehicle_type_id":"4","last_reported":1702887037,"current_range_meters":8800,"station_id":"ce4bhu92rcd13ifvqi70","pricing_plan_id":"free"},{"bike_id":"deb8549c-895f-4c6d-b68c-130ea343f1e6","system_id":"levelo_inurba_marseille","lat":43.23193,"lon":5.3556,"is_reserved":false,"is_disabled":false,"rental_uris":{"android":"levelo://app?vid=deb8549c-895f-4c6d-b68c-130ea343f1e6","ios":"levelo://app?vid=deb8549c-895f-4c6d-b68c-130ea343f1e6"},"vehicle_type_id":"4","last_reported":1702887037,"current_range_meters":16800,"station_id":"ce4bhu92rcd13ifvqi70","pricing_plan_id":"free"},{"bike_id":"6407938b-389d-4533-9ecb-2228594d1ac0","system_id":"levelo_inurba_marseille","lat":43.23193,"lon":5.35545,"is_reserved":false,"is_disabled":false,"rental_uris":{"android":"levelo://app?vid=6407938b-389d-4533-9ecb-2228594d1ac0","ios":"levelo://app?vid=6407938b-389d-4533-9ecb-2228594d1ac0"},"vehicle_type_id":"4","last_reported":1702887037,"current_range_meters":12800,"station_id":"ce4bhu92rcd13ifvqi70","pricing_plan_id":"free"},{"bike_id":"3ee0ea00-8e05-48c0-a38d-caf8a81146cd","system_id":"levelo_inurba_marseille","lat":43.231794,"lon":5.400052,"is_reserved":false,"is_disabled":false,"rental_uris":{"android":"levelo://app?vid=3ee0ea00-8e05-48c0-a38d-caf8a81146cd","ios":"levelo://app?vid=3ee0ea00-8e05-48c0-a38d-caf8a81146cd"},"vehicle_type_id":"4","last_reported":1702887037,"current_range_meters":30800,"station_id":"ce4bhn12rcd13ifvqgqg","pricing_plan_id":"free"},{"bike_id":"d5206a6c-92a9-4a75-8859-313a2b40fcd2","system_id":"levelo_inurba_marseille","lat":43.231793,"lon":5.400044,"is_reserved":false,"is_disabled":false,"rental_uris":{"android":"levelo://app?vid=d5206a6c-92a9-4a75-8859-313a2b40fcd2","ios":"levelo://app?vid=d5206a6c-92a9-4a75-8859-313a2b40fcd2"},"vehicle_type_id":"4","last_reported":1702887037,"current_range_meters":31200,"station_id":"ce4bhn12rcd13ifvqgqg","pricing_plan_id":"free"},{"bike_id":"9eda3020-71fa-42b3-86ef-c71f0f5d8c14","system_id":"levelo_inurba_marseille","lat":43.231794,"lon":5.400052,"is_reserved":false,"is_disabled":false,"rental_uris":{"android":"levelo://app?vid=9eda3020-71fa-42b3-86ef-c71f0f5d8c14","ios":"levelo://app?vid=9eda3020-71fa-42b3-86ef-c71f0f5d8c14"},"vehicle_type_id":"4","last_reported":1702887037,"current_range_meters":8400,"station_id":"ce4bhn12rcd13ifvqgqg","pricing_plan_id":"free"},{"bike_id":"d9e90a00-4eaf-4c9c-9eec-79e0be0c0bc3","system_id":"levelo_inurba_marseille","lat":43.231858,"lon":5.399775,"is_reserved":false,"is_disabled":false,"rental_uris":{"android":"levelo://app?vid=d9e90a00-4eaf-4c9c-9eec-79e0be0c0bc3","ios":"levelo://app?vid=d9e90a00-4eaf-4c9c-9eec-79e0be0c0bc3"},"vehicle_type_id":"4","last_reported":1702887037,"current_range_meters":10000,"station_id":"ce4bhn12rcd13ifvqgqg","pricing_plan_id":"free"},{"bike_id":"56e5134b-2d66-4511-b569-3c4bfa4ce73d","system_id":"levelo_inurba_marseille","lat":43.23184,"lon":5.39987,"is_reserved":false,"is_disabled":false,"rental_uris":{"android":"levelo://app?vid=56e5134b-2d66-4511-b569-3c4bfa4ce73d","ios":"levelo://app?vid=56e5134b-2d66-4511-b569-3c4bfa4ce73d"},"vehicle_type_id":"4","last_reported":1702887037,"current_range_meters":0,"station_id":"ce4bhn12rcd13ifvqgqg","pricing_plan_id":"free"},{"bike_id":"82b0b121-d2e6-4f04-8530-97cda8a0fbcd","system_id":"levelo_inurba_marseille","lat":43.231794,"lon":5.400052,"is_reserved":false,"is_disabled":false,"rental_uris":{"android":"levelo://app?vid=82b0b121-d2e6-4f04-8530-97cda8a0fbcd","ios":"levelo://app?vid=82b0b121-d2e6-4f04-8530-97cda8a0fbcd"},"vehicle_type_id":"4","last_reported":1702887037,"current_range_meters":30400,"station_id":"ce4bhn12rcd13ifvqgqg","pricing_plan_id":"free"},{"bike_id":"aa03cdc7-0dad-41c6-8257-864e298aac11","system_id":"levelo_inurba_marseille","lat":43.231562,"lon":5.436933,"is_reserved":false,"is_disabled":false,"rental_uris":{"android":"levelo://app?vid=aa03cdc7-0dad-41c6-8257-864e298aac11","ios":"levelo://app?vid=aa03cdc7-0dad-41c6-8257-864e298aac11"},"vehicle_type_id":"4","last_reported":1702887037,"current_range_meters":12800,"station_id":"ce4bhmp2rcd13ifvqgog","pricing_plan_id":"free"},{"bike_id":"d79d6467-dc1a-4dcd-84af-1bd593c8dfef","system_id":"levelo_inurba_marseille","lat":43.231562,"lon":5.436933,"is_reserved":false,"is_disabled":false,"rental_uris":{"android":"levelo://app?vid=d79d6467-dc1a-4dcd-84af-1bd593c8dfef","ios":"levelo://app?vid=d79d6467-dc1a-4dcd-84af-1bd593c8dfef"},"vehicle_type_id":"4","last_reported":1702887037,"current_range_meters":2800,"station_id":"ce4bhmp2rcd13ifvqgog","pricing_plan_id":"free"},{"bike_id":"1fda6d9b-238c-4d92-b885-31f562a03362","system_id":"levelo_inurba_marseille","lat":43.231562,"lon":5.436933,"is_reserved":false,"is_disabled":false,"rental_uris":{"android":"levelo://app?vid=1fda6d9b-238c-4d92-b885-31f562a03362","ios":"levelo://app?vid=1fda6d9b-238c-4d92-b885-31f562a03362"},"vehicle_type_id":"4","last_reported":1702887037,"current_range_meters":23200,"station_id":"ce4bhmp2rcd13ifvqgog","pricing_plan_id":"free"},{"bike_id":"7dc70694-c42e-4a80-984c-9fe82f81c13d","system_id":"levelo_inurba_marseille","lat":43.231562,"lon":5.436933,"is_reserved":false,"is_disabled":false,"rental_uris":{"android":"levelo://app?vid=7dc70694-c42e-4a80-984c-9fe82f81c13d","ios":"levelo://app?vid=7dc70694-c42e-4a80-984c-9fe82f81c13d"},"vehicle_type_id":"4","last_reported":1702887037,"current_range_meters":31200,"station_id":"ce4bhmp2rcd13ifvqgog","pricing_plan_id":"free"},{"bike_id":"d5b5365d-ae87-4306-bbc5-b0c9d03f1445","system_id":"levelo_inurba_marseille","lat":43.231562,"lon":5.436933,"is_reserved":false,"is_disabled":false,"rental_uris":{"android":"levelo://app?vid=d5b5365d-ae87-4306-bbc5-b0c9d03f1445","ios":"levelo://app?vid=d5b5365d-ae87-4306-bbc5-b0c9d03f1445"},"vehicle_type_id":"4","last_reported":1702887037,"current_range_meters":21200,"station_id":"ce4bhmp2rcd13ifvqgog","pricing_plan_id":"free"},{"bike_id":"8d9e658d-7c45-43df-9c2b-c900491175b0","system_id":"levelo_inurba_marseille","lat":43.23152,"lon":5.43725,"is_reserved":false,"is_disabled":false,"rental_uris":{"android":"levelo://app?vid=8d9e658d-7c45-43df-9c2b-c900491175b0","ios":"levelo://app?vid=8d9e658d-7c45-43df-9c2b-c900491175b0"},"vehicle_type_id":"4","last_reported":1702887037,"current_range_meters":10000,"station_id":"ce4bhmp2rcd13ifvqgog","pricing_plan_id":"free"},{"bike_id":"66400aee-e87a-41ea-af35-36de2b576622","system_id":"levelo_inurba_marseille","lat":43.231562,"lon":5.436933,"is_reserved":false,"is_disabled":false,"rental_uris":{"android":"levelo://app?vid=66400aee-e87a-41ea-af35-36de2b576622","ios":"levelo://app?vid=66400aee-e87a-41ea-af35-36de2b576622"},"vehicle_type_id":"4","last_reported":1702887037,"current_range_meters":24400,"station_id":"ce4bhmp2rcd13ifvqgog","pricing_plan_id":"free"},{"bike_id":"4ff28cf7-5df4-4ad1-b066-345de5c4646c","system_id":"levelo_inurba_marseille","lat":43.231455,"lon":5.437213,"is_reserved":false,"is_disabled":false,"rental_uris":{"android":"levelo://app?vid=4ff28cf7-5df4-4ad1-b066-345de5c4646c","ios":"levelo://app?vid=4ff28cf7-5df4-4ad1-b066-345de5c4646c"},"vehicle_type_id":"4","last_reported":1702887037,"current_range_meters":17600,"station_id":"ce4bhmp2rcd13ifvqgog","pricing_plan_id":"free"}]}}