{"last_updated":1778378169,"ttl":60,"version":"2.2","data":{"bikes":[{"bike_id":"c29e213d-8054-4b1f-ad68-8b60505d46cc","system_id":"levelo_inurba_marseille","lat":43.24657,"lon":5.38158,"is_reserved":false,"is_disabled":true,"rental_uris":{"android":"levelo://app?vid=c29e213d-8054-4b1f-ad68-8b60505d46cc","ios":"levelo://app?vid=c29e213d-8054-4b1f-ad68-8b60505d46cc"},"vehicle_type_id":"4","last_reported":1778378170,"current_range_meters":2800,"station_id":"ce4bhih2rcd13ifvqfr0","pricing_plan_id":"cebpf4jnsgd1na2vs0mg"},{"bike_id":"09f03c71-3135-488b-aa1b-16f1834011a9","system_id":"levelo_inurba_marseille","lat":43.29198,"lon":5.35677,"is_reserved":false,"is_disabled":false,"rental_uris":{"android":"levelo://app?vid=09f03c71-3135-488b-aa1b-16f1834011a9","ios":"levelo://app?vid=09f03c71-3135-488b-aa1b-16f1834011a9"},"vehicle_type_id":"4","last_reported":1778378170,"current_range_meters":2800,"station_id":"","pricing_plan_id":"cebpf4jnsgd1na2vs0mg"},{"bike_id":"075e7a6c-4f4b-400a-a226-e30e8c6d4f53","system_id":"levelo_inurba_marseille","lat":43.2781,"lon":5.40712,"is_reserved":false,"is_disabled":false,"rental_uris":{"android":"levelo://app?vid=075e7a6c-4f4b-400a-a226-e30e8c6d4f53","ios":"levelo://app?vid=075e7a6c-4f4b-400a-a226-e30e8c6d4f53"},"vehicle_type_id":"4","last_reported":1778378170,"current_range_meters":2800,"station_id":"ce4bhnh2rcd13ifvqgtg","pricing_plan_id":"cebpf4jnsgd1na2vs0mg"},{"bike_id":"dee5653f-db43-4e9a-bfa5-71a11934f0ac","system_id":"levelo_inurba_marseille","lat":43.293058,"lon":5.374618,"is_reserved":false,"is_disabled":false,"rental_uris":{"android":"levelo://app?vid=dee5653f-db43-4e9a-bfa5-71a11934f0ac","ios":"levelo://app?vid=dee5653f-db43-4e9a-bfa5-71a11934f0ac"},"vehicle_type_id":"4","last_reported":1778378170,"current_range_meters":2800,"station_id":"ce4bgi12rcd13ifvqb70","pricing_plan_id":"cebpf4jnsgd1na2vs0mg"},{"bike_id":"554562c8-3afb-46d6-8f42-d9216eb37242","system_id":"levelo_inurba_marseille","lat":43.27821,"lon":5.39209,"is_reserved":false,"is_disabled":false,"rental_uris":{"android":"levelo://app?vid=554562c8-3afb-46d6-8f42-d9216eb37242","ios":"levelo://app?vid=554562c8-3afb-46d6-8f42-d9216eb37242"},"vehicle_type_id":"4","last_reported":1778378170,"current_range_meters":2800,"station_id":"ce4bhjp2rcd13ifvqga0","pricing_plan_id":"cebpf4jnsgd1na2vs0mg"},{"bike_id":"eee51eae-5aaa-4a90-b6bb-0ee2250819e2","system_id":"levelo_inurba_marseille","lat":43.27863,"lon":5.38748,"is_reserved":false,"is_disabled":false,"rental_uris":{"android":"levelo://app?vid=eee51eae-5aaa-4a90-b6bb-0ee2250819e2","ios":"levelo://app?vid=eee51eae-5aaa-4a90-b6bb-0ee2250819e2"},"vehicle_type_id":"4","last_reported":1778378170,"current_range_meters":3200,"station_id":"","pricing_plan_id":"cebpf4jnsgd1na2vs0mg"},{"bike_id":"fc123b59-4008-452d-804c-7e00a42b9b7d","system_id":"levelo_inurba_marseille","lat":43.25119,"lon":5.40343,"is_reserved":false,"is_disabled":false,"rental_uris":{"android":"levelo://app?vid=fc123b59-4008-452d-804c-7e00a42b9b7d","ios":"levelo://app?vid=fc123b59-4008-452d-804c-7e00a42b9b7d"},"vehicle_type_id":"4","last_reported":1778378170,"current_range_meters":3200,"station_id":"ce4bhlh2rcd13ifvqgig","pricing_plan_id":"cebpf4jnsgd1na2vs0mg"},{"bike_id":"991587da-28b8-4646-8f20-616f967387fd","system_id":"levelo_inurba_marseille","lat":43.28348,"lon":5.38633,"is_reserved":false,"is_disabled":false,"rental_uris":{"android":"levelo://app?vid=991587da-28b8-4646-8f20-616f967387fd","ios":"levelo://app?vid=991587da-28b8-4646-8f20-616f967387fd"},"vehicle_type_id":"4","last_reported":1778378170,"current_range_meters":3200,"station_id":"ce4bh492rcd13ifvqdvg","pricing_plan_id":"cebpf4jnsgd1na2vs0mg"},{"bike_id":"00b66d68-cc7f-481b-a1b1-d9e7a4dbcd49","system_id":"levelo_inurba_marseille","lat":43.28949,"lon":5.36399,"is_reserved":false,"is_disabled":false,"rental_uris":{"android":"levelo://app?vid=00b66d68-cc7f-481b-a1b1-d9e7a4dbcd49","ios":"levelo://app?vid=00b66d68-cc7f-481b-a1b1-d9e7a4dbcd49"},"vehicle_type_id":"4","last_reported":1778378170,"current_range_meters":3200,"station_id":"ce4bhc92rcd13ifvqetg","pricing_plan_id":"cebpf4jnsgd1na2vs0mg"},{"bike_id":"e9603e54-ff6b-4fae-9e9b-b17dd395cbe4","system_id":"levelo_inurba_marseille","lat":43.26361,"lon":5.39907,"is_reserved":false,"is_disabled":false,"rental_uris":{"android":"levelo://app?vid=e9603e54-ff6b-4fae-9e9b-b17dd395cbe4","ios":"levelo://app?vid=e9603e54-ff6b-4fae-9e9b-b17dd395cbe4"},"vehicle_type_id":"4","last_reported":1778378170,"current_range_meters":3200,"station_id":"","pricing_plan_id":"cebpf4jnsgd1na2vs0mg"},{"bike_id":"a6536c38-e7dd-4cc8-8ba4-b69fab9aa4bf","system_id":"levelo_inurba_marseille","lat":43.30425,"lon":5.39746,"is_reserved":false,"is_disabled":false,"rental_uris":{"android":"levelo://app?vid=a6536c38-e7dd-4cc8-8ba4-b69fab9aa4bf","ios":"levelo://app?vid=a6536c38-e7dd-4cc8-8ba4-b69fab9aa4bf"},"vehicle_type_id":"4","last_reported":1778378170,"current_range_meters":3200,"station_id":"ce4bh092rcd13ifvqd20","pricing_plan_id":"cebpf4jnsgd1na2vs0mg"},{"bike_id":"fc40015b-1aa0-4b8b-bc1c-c955776c87af","system_id":"levelo_inurba_marseille","lat":43.31444,"lon":5.39844,"is_reserved":false,"is_disabled":false,"rental_uris":{"android":"levelo://app?vid=fc40015b-1aa0-4b8b-bc1c-c955776c87af","ios":"levelo://app?vid=fc40015b-1aa0-4b8b-bc1c-c955776c87af"},"vehicle_type_id":"4","last_reported":1778378170,"current_range_meters":3200,"station_id":"","pricing_plan_id":"cebpf4jnsgd1na2vs0mg"},{"bike_id":"c1b768b5-78ad-4562-8b11-acf628f13106","system_id":"levelo_inurba_marseille","lat":43.27959,"lon":5.44175,"is_reserved":false,"is_disabled":false,"rental_uris":{"android":"levelo://app?vid=c1b768b5-78ad-4562-8b11-acf628f13106","ios":"levelo://app?vid=c1b768b5-78ad-4562-8b11-acf628f13106"},"vehicle_type_id":"4","last_reported":1778378170,"current_range_meters":3200,"station_id":"","pricing_plan_id":"cebpf4jnsgd1na2vs0mg"},{"bike_id":"e60a42af-3436-44d4-95c2-981870f1ec83","system_id":"levelo_inurba_marseille","lat":43.30934,"lon":5.40072,"is_reserved":false,"is_disabled":false,"rental_uris":{"android":"levelo://app?vid=e60a42af-3436-44d4-95c2-981870f1ec83","ios":"levelo://app?vid=e60a42af-3436-44d4-95c2-981870f1ec83"},"vehicle_type_id":"4","last_reported":1778378170,"current_range_meters":3200,"station_id":"ce4bgvp2rcd13ifvqct0","pricing_plan_id":"cebpf4jnsgd1na2vs0mg"},{"bike_id":"903812ae-eeb1-4b86-b0f3-edc04a887ffb","system_id":"levelo_inurba_marseille","lat":43.28474,"lon":5.38416,"is_reserved":false,"is_disabled":false,"rental_uris":{"android":"levelo://app?vid=903812ae-eeb1-4b86-b0f3-edc04a887ffb","ios":"levelo://app?vid=903812ae-eeb1-4b86-b0f3-edc04a887ffb"},"vehicle_type_id":"4","last_reported":1778378170,"current_range_meters":3200,"station_id":"ce4bh512rcd13ifvqe3g","pricing_plan_id":"cebpf4jnsgd1na2vs0mg"},{"bike_id":"1eea7d65-d319-42c7-baf6-c4771cfc738a","system_id":"levelo_inurba_marseille","lat":43.29562,"lon":5.39964,"is_reserved":false,"is_disabled":true,"rental_uris":{"android":"levelo://app?vid=1eea7d65-d319-42c7-baf6-c4771cfc738a","ios":"levelo://app?vid=1eea7d65-d319-42c7-baf6-c4771cfc738a"},"vehicle_type_id":"4","last_reported":1778378170,"current_range_meters":3200,"station_id":"ce4bh312rcd13ifvqdj0","pricing_plan_id":"cebpf4jnsgd1na2vs0mg"},{"bike_id":"1939f8b4-784f-442e-b4ef-0bf19df3c51c","system_id":"levelo_inurba_marseille","lat":43.31038,"lon":5.37178,"is_reserved":false,"is_disabled":false,"rental_uris":{"android":"levelo://app?vid=1939f8b4-784f-442e-b4ef-0bf19df3c51c","ios":"levelo://app?vid=1939f8b4-784f-442e-b4ef-0bf19df3c51c"},"vehicle_type_id":"4","last_reported":1778378170,"current_range_meters":3200,"station_id":"st_d4kl2rp97mjs73e7tdfg","pricing_plan_id":"cebpf4jnsgd1na2vs0mg"},{"bike_id":"2604fbbc-e049-4cc7-8069-721d8cb88417","system_id":"levelo_inurba_marseille","lat":43.24462,"lon":5.42544,"is_reserved":false,"is_disabled":false,"rental_uris":{"android":"levelo://app?vid=2604fbbc-e049-4cc7-8069-721d8cb88417","ios":"levelo://app?vid=2604fbbc-e049-4cc7-8069-721d8cb88417"},"vehicle_type_id":"4","last_reported":1778378170,"current_range_meters":3200,"station_id":"st_d4a3vfp97mjs738cd8kg","pricing_plan_id":"cebpf4jnsgd1na2vs0mg"},{"bike_id":"255ec774-cee1-42e6-9970-d50d835c08ac","system_id":"levelo_inurba_marseille","lat":43.23122,"lon":5.4377,"is_reserved":false,"is_disabled":false,"rental_uris":{"android":"levelo://app?vid=255ec774-cee1-42e6-9970-d50d835c08ac","ios":"levelo://app?vid=255ec774-cee1-42e6-9970-d50d835c08ac"},"vehicle_type_id":"4","last_reported":1778378170,"current_range_meters":3200,"station_id":"ce4bhmp2rcd13ifvqgog","pricing_plan_id":"cebpf4jnsgd1na2vs0mg"},{"bike_id":"2e54878e-62f7-4cf7-8590-3f8ee2a66af5","system_id":"levelo_inurba_marseille","lat":43.27824,"lon":5.40727,"is_reserved":false,"is_disabled":false,"rental_uris":{"android":"levelo://app?vid=2e54878e-62f7-4cf7-8590-3f8ee2a66af5","ios":"levelo://app?vid=2e54878e-62f7-4cf7-8590-3f8ee2a66af5"},"vehicle_type_id":"4","last_reported":1778378170,"current_range_meters":3600,"station_id":"ce4bhnh2rcd13ifvqgtg","pricing_plan_id":"cebpf4jnsgd1na2vs0mg"},{"bike_id":"3c65380b-697e-48d6-af4d-74d4a5b079ee","system_id":"levelo_inurba_marseille","lat":43.29784,"lon":5.38113,"is_reserved":false,"is_disabled":false,"rental_uris":{"android":"levelo://app?vid=3c65380b-697e-48d6-af4d-74d4a5b079ee","ios":"levelo://app?vid=3c65380b-697e-48d6-af4d-74d4a5b079ee"},"vehicle_type_id":"4","last_reported":1778378170,"current_range_meters":3600,"station_id":"ce4bgip2rcd13ifvqbb0","pricing_plan_id":"cebpf4jnsgd1na2vs0mg"},{"bike_id":"7f65fbc1-a448-4da4-b28b-e0b1be56c641","system_id":"levelo_inurba_marseille","lat":43.26209,"lon":5.37566,"is_reserved":false,"is_disabled":false,"rental_uris":{"android":"levelo://app?vid=7f65fbc1-a448-4da4-b28b-e0b1be56c641","ios":"levelo://app?vid=7f65fbc1-a448-4da4-b28b-e0b1be56c641"},"vehicle_type_id":"4","last_reported":1778378170,"current_range_meters":3600,"station_id":"","pricing_plan_id":"cebpf4jnsgd1na2vs0mg"},{"bike_id":"906849b3-6da1-4b7f-8d4d-8bd0229d7298","system_id":"levelo_inurba_marseille","lat":43.25559,"lon":5.38261,"is_reserved":false,"is_disabled":false,"rental_uris":{"android":"levelo://app?vid=906849b3-6da1-4b7f-8d4d-8bd0229d7298","ios":"levelo://app?vid=906849b3-6da1-4b7f-8d4d-8bd0229d7298"},"vehicle_type_id":"4","last_reported":1778378170,"current_range_meters":3600,"station_id":"ce4bhih2rcd13ifvqfs0","pricing_plan_id":"cebpf4jnsgd1na2vs0mg"},{"bike_id":"012436db-213f-4ce3-a46b-2b318f2b65c1","system_id":"levelo_inurba_marseille","lat":43.29561,"lon":5.37517,"is_reserved":false,"is_disabled":true,"rental_uris":{"android":"levelo://app?vid=012436db-213f-4ce3-a46b-2b318f2b65c1","ios":"levelo://app?vid=012436db-213f-4ce3-a46b-2b318f2b65c1"},"vehicle_type_id":"4","last_reported":1778378170,"current_range_meters":3600,"station_id":"ce4bgh92rcd13ifvqb50","pricing_plan_id":"cebpf4jnsgd1na2vs0mg"},{"bike_id":"5361539f-a584-4329-8108-172e9f5f2d2f","system_id":"levelo_inurba_marseille","lat":43.2604,"lon":5.3942,"is_reserved":false,"is_disabled":false,"rental_uris":{"android":"levelo://app?vid=5361539f-a584-4329-8108-172e9f5f2d2f","ios":"levelo://app?vid=5361539f-a584-4329-8108-172e9f5f2d2f"},"vehicle_type_id":"4","last_reported":1778378170,"current_range_meters":3600,"station_id":"ce4bhh92rcd13ifvqfj0","pricing_plan_id":"cebpf4jnsgd1na2vs0mg"},{"bike_id":"348bfdba-9d6e-4aa7-8d67-36f0a3487da5","system_id":"levelo_inurba_marseille","lat":43.31367,"lon":5.38498,"is_reserved":false,"is_disabled":false,"rental_uris":{"android":"levelo://app?vid=348bfdba-9d6e-4aa7-8d67-36f0a3487da5","ios":"levelo://app?vid=348bfdba-9d6e-4aa7-8d67-36f0a3487da5"},"vehicle_type_id":"4","last_reported":1778378170,"current_range_meters":3600,"station_id":"ce4bgt92rcd13ifvqcf0","pricing_plan_id":"cebpf4jnsgd1na2vs0mg"},{"bike_id":"92f5b862-77cf-430d-a508-dd542c484480","system_id":"levelo_inurba_marseille","lat":43.28455,"lon":5.35885,"is_reserved":false,"is_disabled":false,"rental_uris":{"android":"levelo://app?vid=92f5b862-77cf-430d-a508-dd542c484480","ios":"levelo://app?vid=92f5b862-77cf-430d-a508-dd542c484480"},"vehicle_type_id":"4","last_reported":1778378170,"current_range_meters":3600,"station_id":"ce4bhah2rcd13ifvqei0","pricing_plan_id":"cebpf4jnsgd1na2vs0mg"},{"bike_id":"92c9d0a0-7699-4a8f-9822-768984018037","system_id":"levelo_inurba_marseille","lat":43.337444,"lon":5.374475,"is_reserved":false,"is_disabled":false,"rental_uris":{"android":"levelo://app?vid=92c9d0a0-7699-4a8f-9822-768984018037","ios":"levelo://app?vid=92c9d0a0-7699-4a8f-9822-768984018037"},"vehicle_type_id":"4","last_reported":1778378170,"current_range_meters":3600,"station_id":"ce4bhbh2rcd13ifvqeqg","pricing_plan_id":"cebpf4jnsgd1na2vs0mg"},{"bike_id":"62621d15-b4f4-4817-9a54-6236d8f83703","system_id":"levelo_inurba_marseille","lat":43.24626,"lon":5.41609,"is_reserved":false,"is_disabled":false,"rental_uris":{"android":"levelo://app?vid=62621d15-b4f4-4817-9a54-6236d8f83703","ios":"levelo://app?vid=62621d15-b4f4-4817-9a54-6236d8f83703"},"vehicle_type_id":"4","last_reported":1778378170,"current_range_meters":4000,"station_id":"","pricing_plan_id":"cebpf4jnsgd1na2vs0mg"},{"bike_id":"8127a179-0b6c-4390-978d-34e331e55652","system_id":"levelo_inurba_marseille","lat":43.31712,"lon":5.40494,"is_reserved":false,"is_disabled":false,"rental_uris":{"android":"levelo://app?vid=8127a179-0b6c-4390-978d-34e331e55652","ios":"levelo://app?vid=8127a179-0b6c-4390-978d-34e331e55652"},"vehicle_type_id":"4","last_reported":1778378170,"current_range_meters":4000,"station_id":"ce4bh012rcd13ifvqd00","pricing_plan_id":"cebpf4jnsgd1na2vs0mg"},{"bike_id":"8fdbe986-716a-4dce-a50d-3af695e9688c","system_id":"levelo_inurba_marseille","lat":43.3353,"lon":5.37476,"is_reserved":false,"is_disabled":false,"rental_uris":{"android":"levelo://app?vid=8fdbe986-716a-4dce-a50d-3af695e9688c","ios":"levelo://app?vid=8fdbe986-716a-4dce-a50d-3af695e9688c"},"vehicle_type_id":"4","last_reported":1778378170,"current_range_meters":4000,"station_id":"st_d46tts09ee8s73dlu43g","pricing_plan_id":"cebpf4jnsgd1na2vs0mg"},{"bike_id":"798dd442-ecce-41be-b4b9-436ee7f8a467","system_id":"levelo_inurba_marseille","lat":43.272094,"lon":5.390291,"is_reserved":false,"is_disabled":false,"rental_uris":{"android":"levelo://app?vid=798dd442-ecce-41be-b4b9-436ee7f8a467","ios":"levelo://app?vid=798dd442-ecce-41be-b4b9-436ee7f8a467"},"vehicle_type_id":"4","last_reported":1778378170,"current_range_meters":4000,"station_id":"ce4bhhp2rcd13ifvqfm0","pricing_plan_id":"cebpf4jnsgd1na2vs0mg"},{"bike_id":"39a0347d-6ca4-4062-9cf9-7cf0d9db2da1","system_id":"levelo_inurba_marseille","lat":43.29181,"lon":5.37144,"is_reserved":false,"is_disabled":false,"rental_uris":{"android":"levelo://app?vid=39a0347d-6ca4-4062-9cf9-7cf0d9db2da1","ios":"levelo://app?vid=39a0347d-6ca4-4062-9cf9-7cf0d9db2da1"},"vehicle_type_id":"4","last_reported":1778378170,"current_range_meters":4000,"station_id":"ce4bha92rcd13ifvqeh0","pricing_plan_id":"cebpf4jnsgd1na2vs0mg"},{"bike_id":"e2ec81ab-b1eb-4944-9ed1-a02dd3764e81","system_id":"levelo_inurba_marseille","lat":43.3041,"lon":5.42353,"is_reserved":false,"is_disabled":false,"rental_uris":{"android":"levelo://app?vid=e2ec81ab-b1eb-4944-9ed1-a02dd3764e81","ios":"levelo://app?vid=e2ec81ab-b1eb-4944-9ed1-a02dd3764e81"},"vehicle_type_id":"4","last_reported":1778378170,"current_range_meters":4000,"station_id":"","pricing_plan_id":"cebpf4jnsgd1na2vs0mg"},{"bike_id":"93b04531-424f-4327-bf0d-4e3bfaedafc0","system_id":"levelo_inurba_marseille","lat":43.30631,"lon":5.40078,"is_reserved":false,"is_disabled":false,"rental_uris":{"android":"levelo://app?vid=93b04531-424f-4327-bf0d-4e3bfaedafc0","ios":"levelo://app?vid=93b04531-424f-4327-bf0d-4e3bfaedafc0"},"vehicle_type_id":"4","last_reported":1778378170,"current_range_meters":4000,"station_id":"ce4bh112rcd13ifvqda0","pricing_plan_id":"cebpf4jnsgd1na2vs0mg"},{"bike_id":"3fc15eeb-674b-46a4-b777-27c77480b25a","system_id":"levelo_inurba_marseille","lat":43.25858,"lon":5.39915,"is_reserved":false,"is_disabled":false,"rental_uris":{"android":"levelo://app?vid=3fc15eeb-674b-46a4-b777-27c77480b25a","ios":"levelo://app?vid=3fc15eeb-674b-46a4-b777-27c77480b25a"},"vehicle_type_id":"4","last_reported":1778378170,"current_range_meters":4000,"station_id":"ce4bhl92rcd13ifvqghg","pricing_plan_id":"cebpf4jnsgd1na2vs0mg"},{"bike_id":"07829fdc-c599-44a2-8a5d-d38b8b9f7bb8","system_id":"levelo_inurba_marseille","lat":43.30363,"lon":5.42507,"is_reserved":false,"is_disabled":true,"rental_uris":{"android":"levelo://app?vid=07829fdc-c599-44a2-8a5d-d38b8b9f7bb8","ios":"levelo://app?vid=07829fdc-c599-44a2-8a5d-d38b8b9f7bb8"},"vehicle_type_id":"4","last_reported":1778378170,"current_range_meters":4000,"station_id":"","pricing_plan_id":"cebpf4jnsgd1na2vs0mg"},{"bike_id":"6084befa-84c6-4142-adec-b82f1677a0f1","system_id":"levelo_inurba_marseille","lat":43.26752,"lon":5.39426,"is_reserved":false,"is_disabled":false,"rental_uris":{"android":"levelo://app?vid=6084befa-84c6-4142-adec-b82f1677a0f1","ios":"levelo://app?vid=6084befa-84c6-4142-adec-b82f1677a0f1"},"vehicle_type_id":"4","last_reported":1778378170,"current_range_meters":4000,"station_id":"","pricing_plan_id":"cebpf4jnsgd1na2vs0mg"},{"bike_id":"edd39cc9-0ca9-4de9-bb9c-cdf6105a047f","system_id":"levelo_inurba_marseille","lat":43.29534,"lon":5.38537,"is_reserved":false,"is_disabled":true,"rental_uris":{"android":"levelo://app?vid=edd39cc9-0ca9-4de9-bb9c-cdf6105a047f","ios":"levelo://app?vid=edd39cc9-0ca9-4de9-bb9c-cdf6105a047f"},"vehicle_type_id":"4","last_reported":1778378170,"current_range_meters":4000,"station_id":"ce4bgih2rcd13ifvqba0","pricing_plan_id":"cebpf4jnsgd1na2vs0mg"},{"bike_id":"c8839437-c286-4318-b7be-1ada9dfcd256","system_id":"levelo_inurba_marseille","lat":43.2636,"lon":5.41067,"is_reserved":false,"is_disabled":false,"rental_uris":{"android":"levelo://app?vid=c8839437-c286-4318-b7be-1ada9dfcd256","ios":"levelo://app?vid=c8839437-c286-4318-b7be-1ada9dfcd256"},"vehicle_type_id":"4","last_reported":1778378170,"current_range_meters":4000,"station_id":"st_d4e5ca6na9uc73bfl5fg","pricing_plan_id":"cebpf4jnsgd1na2vs0mg"},{"bike_id":"82f3dce4-023a-4abe-867b-6c646f526377","system_id":"levelo_inurba_marseille","lat":43.30351,"lon":5.41874,"is_reserved":false,"is_disabled":false,"rental_uris":{"android":"levelo://app?vid=82f3dce4-023a-4abe-867b-6c646f526377","ios":"levelo://app?vid=82f3dce4-023a-4abe-867b-6c646f526377"},"vehicle_type_id":"4","last_reported":1778378170,"current_range_meters":4000,"station_id":"ce4bhop2rcd13ifvqh7g","pricing_plan_id":"cebpf4jnsgd1na2vs0mg"},{"bike_id":"fc288e78-68c9-4760-86b2-98ffd9deab39","system_id":"levelo_inurba_marseille","lat":43.30187,"lon":5.36593,"is_reserved":false,"is_disabled":false,"rental_uris":{"android":"levelo://app?vid=fc288e78-68c9-4760-86b2-98ffd9deab39","ios":"levelo://app?vid=fc288e78-68c9-4760-86b2-98ffd9deab39"},"vehicle_type_id":"4","last_reported":1778378170,"current_range_meters":4000,"station_id":"ce4bgrh2rcd13ifvqc8g","pricing_plan_id":"cebpf4jnsgd1na2vs0mg"},{"bike_id":"496d9d23-0758-4b07-831b-1c112b733a7b","system_id":"levelo_inurba_marseille","lat":43.279,"lon":5.38012,"is_reserved":false,"is_disabled":false,"rental_uris":{"android":"levelo://app?vid=496d9d23-0758-4b07-831b-1c112b733a7b","ios":"levelo://app?vid=496d9d23-0758-4b07-831b-1c112b733a7b"},"vehicle_type_id":"4","last_reported":1778378170,"current_range_meters":4000,"station_id":"ce4bhf92rcd13ifvqf50","pricing_plan_id":"cebpf4jnsgd1na2vs0mg"},{"bike_id":"ef4c0d2f-d37c-409b-be4c-7cceaa4aabfa","system_id":"levelo_inurba_marseille","lat":43.28502,"lon":5.48397,"is_reserved":false,"is_disabled":false,"rental_uris":{"android":"levelo://app?vid=ef4c0d2f-d37c-409b-be4c-7cceaa4aabfa","ios":"levelo://app?vid=ef4c0d2f-d37c-409b-be4c-7cceaa4aabfa"},"vehicle_type_id":"4","last_reported":1778378170,"current_range_meters":4400,"station_id":"","pricing_plan_id":"cebpf4jnsgd1na2vs0mg"},{"bike_id":"2534b5af-6ad8-49ab-a49d-3f0375af3c25","system_id":"levelo_inurba_marseille","lat":43.28615,"lon":5.35113,"is_reserved":false,"is_disabled":false,"rental_uris":{"android":"levelo://app?vid=2534b5af-6ad8-49ab-a49d-3f0375af3c25","ios":"levelo://app?vid=2534b5af-6ad8-49ab-a49d-3f0375af3c25"},"vehicle_type_id":"4","last_reported":1778378170,"current_range_meters":4400,"station_id":"ce4bhch2rcd13ifvqeug","pricing_plan_id":"cebpf4jnsgd1na2vs0mg"},{"bike_id":"10bf119e-d2d8-4cec-8402-0b3a088efbe9","system_id":"levelo_inurba_marseille","lat":43.2982,"lon":5.3809,"is_reserved":false,"is_disabled":false,"rental_uris":{"android":"levelo://app?vid=10bf119e-d2d8-4cec-8402-0b3a088efbe9","ios":"levelo://app?vid=10bf119e-d2d8-4cec-8402-0b3a088efbe9"},"vehicle_type_id":"4","last_reported":1778378170,"current_range_meters":4400,"station_id":"ce4bgip2rcd13ifvqbb0","pricing_plan_id":"cebpf4jnsgd1na2vs0mg"},{"bike_id":"e744fd51-d53a-4993-92a1-3a6752e7a33c","system_id":"levelo_inurba_marseille","lat":43.32092,"lon":5.36802,"is_reserved":false,"is_disabled":false,"rental_uris":{"android":"levelo://app?vid=e744fd51-d53a-4993-92a1-3a6752e7a33c","ios":"levelo://app?vid=e744fd51-d53a-4993-92a1-3a6752e7a33c"},"vehicle_type_id":"4","last_reported":1778378170,"current_range_meters":4400,"station_id":"ce4bhrh2rcd13ifvqhug","pricing_plan_id":"cebpf4jnsgd1na2vs0mg"},{"bike_id":"f1722020-c42c-46dc-a909-8c922d9433e3","system_id":"levelo_inurba_marseille","lat":43.23371,"lon":5.41258,"is_reserved":false,"is_disabled":false,"rental_uris":{"android":"levelo://app?vid=f1722020-c42c-46dc-a909-8c922d9433e3","ios":"levelo://app?vid=f1722020-c42c-46dc-a909-8c922d9433e3"},"vehicle_type_id":"4","last_reported":1778378170,"current_range_meters":4400,"station_id":"st_d75pvndhf9lc73cqq3eg","pricing_plan_id":"cebpf4jnsgd1na2vs0mg"},{"bike_id":"f39a2af6-0c6b-4898-bd2b-9249e381dcf4","system_id":"levelo_inurba_marseille","lat":43.28588,"lon":5.39959,"is_reserved":false,"is_disabled":false,"rental_uris":{"android":"levelo://app?vid=f39a2af6-0c6b-4898-bd2b-9249e381dcf4","ios":"levelo://app?vid=f39a2af6-0c6b-4898-bd2b-9249e381dcf4"},"vehicle_type_id":"4","last_reported":1778378170,"current_range_meters":4400,"station_id":"","pricing_plan_id":"cebpf4jnsgd1na2vs0mg"},{"bike_id":"4e439951-b038-4836-9ad5-387115b4b494","system_id":"levelo_inurba_marseille","lat":43.313612,"lon":5.38488,"is_reserved":false,"is_disabled":false,"rental_uris":{"android":"levelo://app?vid=4e439951-b038-4836-9ad5-387115b4b494","ios":"levelo://app?vid=4e439951-b038-4836-9ad5-387115b4b494"},"vehicle_type_id":"4","last_reported":1778378170,"current_range_meters":4400,"station_id":"ce4bgt92rcd13ifvqcf0","pricing_plan_id":"cebpf4jnsgd1na2vs0mg"},{"bike_id":"ef70437f-2d5f-4fc8-a57a-69ac63b0d2af","system_id":"levelo_inurba_marseille","lat":43.29276,"lon":5.40191,"is_reserved":false,"is_disabled":false,"rental_uris":{"android":"levelo://app?vid=ef70437f-2d5f-4fc8-a57a-69ac63b0d2af","ios":"levelo://app?vid=ef70437f-2d5f-4fc8-a57a-69ac63b0d2af"},"vehicle_type_id":"4","last_reported":1778378170,"current_range_meters":4400,"station_id":"ce4bh312rcd13ifvqdk0","pricing_plan_id":"cebpf4jnsgd1na2vs0mg"},{"bike_id":"9710e70f-2943-497f-b291-9ec6bfa7c018","system_id":"levelo_inurba_marseille","lat":43.23191,"lon":5.3555,"is_reserved":false,"is_disabled":false,"rental_uris":{"android":"levelo://app?vid=9710e70f-2943-497f-b291-9ec6bfa7c018","ios":"levelo://app?vid=9710e70f-2943-497f-b291-9ec6bfa7c018"},"vehicle_type_id":"4","last_reported":1778378170,"current_range_meters":4400,"station_id":"ce4bhu92rcd13ifvqi70","pricing_plan_id":"cebpf4jnsgd1na2vs0mg"},{"bike_id":"b34e11b9-3c68-4409-b941-ded8e7d7974e","system_id":"levelo_inurba_marseille","lat":43.30159,"lon":5.39491,"is_reserved":false,"is_disabled":true,"rental_uris":{"android":"levelo://app?vid=b34e11b9-3c68-4409-b941-ded8e7d7974e","ios":"levelo://app?vid=b34e11b9-3c68-4409-b941-ded8e7d7974e"},"vehicle_type_id":"4","last_reported":1778378170,"current_range_meters":4400,"station_id":"ce4bh0p2rcd13ifvqd70","pricing_plan_id":"cebpf4jnsgd1na2vs0mg"},{"bike_id":"038f20db-53a0-417e-8564-80b1b53a64be","system_id":"levelo_inurba_marseille","lat":43.29519,"lon":5.38566,"is_reserved":false,"is_disabled":false,"rental_uris":{"android":"levelo://app?vid=038f20db-53a0-417e-8564-80b1b53a64be","ios":"levelo://app?vid=038f20db-53a0-417e-8564-80b1b53a64be"},"vehicle_type_id":"4","last_reported":1778378170,"current_range_meters":4400,"station_id":"ce4bgih2rcd13ifvqba0","pricing_plan_id":"cebpf4jnsgd1na2vs0mg"},{"bike_id":"b04be0b9-e1f1-4b3a-a624-da85cca3a01a","system_id":"levelo_inurba_marseille","lat":43.24653,"lon":5.3817,"is_reserved":false,"is_disabled":false,"rental_uris":{"android":"levelo://app?vid=b04be0b9-e1f1-4b3a-a624-da85cca3a01a","ios":"levelo://app?vid=b04be0b9-e1f1-4b3a-a624-da85cca3a01a"},"vehicle_type_id":"4","last_reported":1778378170,"current_range_meters":4400,"station_id":"ce4bhih2rcd13ifvqfr0","pricing_plan_id":"cebpf4jnsgd1na2vs0mg"},{"bike_id":"22734838-df81-491d-9e42-8951d7ea9f37","system_id":"levelo_inurba_marseille","lat":43.27071,"lon":5.42282,"is_reserved":false,"is_disabled":false,"rental_uris":{"android":"levelo://app?vid=22734838-df81-491d-9e42-8951d7ea9f37","ios":"levelo://app?vid=22734838-df81-491d-9e42-8951d7ea9f37"},"vehicle_type_id":"4","last_reported":1778378170,"current_range_meters":4400,"station_id":"ce4bhk92rcd13ifvqgb0","pricing_plan_id":"cebpf4jnsgd1na2vs0mg"},{"bike_id":"e23861f6-b567-4759-9665-f7d8bf777dd7","system_id":"levelo_inurba_marseille","lat":43.274252,"lon":5.394198,"is_reserved":false,"is_disabled":false,"rental_uris":{"android":"levelo://app?vid=e23861f6-b567-4759-9665-f7d8bf777dd7","ios":"levelo://app?vid=e23861f6-b567-4759-9665-f7d8bf777dd7"},"vehicle_type_id":"4","last_reported":1778378170,"current_range_meters":4400,"station_id":"","pricing_plan_id":"cebpf4jnsgd1na2vs0mg"},{"bike_id":"136865c1-861e-4808-bdd6-86bfc13f7ee6","system_id":"levelo_inurba_marseille","lat":43.24585,"lon":5.41825,"is_reserved":false,"is_disabled":false,"rental_uris":{"android":"levelo://app?vid=136865c1-861e-4808-bdd6-86bfc13f7ee6","ios":"levelo://app?vid=136865c1-861e-4808-bdd6-86bfc13f7ee6"},"vehicle_type_id":"4","last_reported":1778378170,"current_range_meters":4400,"station_id":"","pricing_plan_id":"cebpf4jnsgd1na2vs0mg"},{"bike_id":"9ffca623-1a09-4c09-8698-04a1fe79a88c","system_id":"levelo_inurba_marseille","lat":43.25076,"lon":5.39482,"is_reserved":false,"is_disabled":false,"rental_uris":{"android":"levelo://app?vid=9ffca623-1a09-4c09-8698-04a1fe79a88c","ios":"levelo://app?vid=9ffca623-1a09-4c09-8698-04a1fe79a88c"},"vehicle_type_id":"4","last_reported":1778378170,"current_range_meters":4800,"station_id":"ce4bhm12rcd13ifvqgkg","pricing_plan_id":"cebpf4jnsgd1na2vs0mg"},{"bike_id":"0905bf26-d1df-4967-bcf7-a2c7f347956a","system_id":"levelo_inurba_marseille","lat":43.28908,"lon":5.39651,"is_reserved":false,"is_disabled":true,"rental_uris":{"android":"levelo://app?vid=0905bf26-d1df-4967-bcf7-a2c7f347956a","ios":"levelo://app?vid=0905bf26-d1df-4967-bcf7-a2c7f347956a"},"vehicle_type_id":"4","last_reported":1778378170,"current_range_meters":4800,"station_id":"ce4bh3h2rcd13ifvqdn0","pricing_plan_id":"cebpf4jnsgd1na2vs0mg"},{"bike_id":"e6bd8138-3d56-4ae6-9878-8794caa087c5","system_id":"levelo_inurba_marseille","lat":43.24452,"lon":5.42539,"is_reserved":false,"is_disabled":true,"rental_uris":{"android":"levelo://app?vid=e6bd8138-3d56-4ae6-9878-8794caa087c5","ios":"levelo://app?vid=e6bd8138-3d56-4ae6-9878-8794caa087c5"},"vehicle_type_id":"4","last_reported":1778378170,"current_range_meters":4800,"station_id":"st_d4a3vfp97mjs738cd8kg","pricing_plan_id":"cebpf4jnsgd1na2vs0mg"},{"bike_id":"9c6f744c-0e72-49bc-9387-3a540d0fe052","system_id":"levelo_inurba_marseille","lat":43.24774,"lon":5.37489,"is_reserved":false,"is_disabled":false,"rental_uris":{"android":"levelo://app?vid=9c6f744c-0e72-49bc-9387-3a540d0fe052","ios":"levelo://app?vid=9c6f744c-0e72-49bc-9387-3a540d0fe052"},"vehicle_type_id":"4","last_reported":1778378170,"current_range_meters":4800,"station_id":"ce4bhgh2rcd13ifvqfb0","pricing_plan_id":"cebpf4jnsgd1na2vs0mg"},{"bike_id":"c32661d8-2da8-4ddd-b087-54ab5080d50c","system_id":"levelo_inurba_marseille","lat":43.2494,"lon":5.40488,"is_reserved":false,"is_disabled":false,"rental_uris":{"android":"levelo://app?vid=c32661d8-2da8-4ddd-b087-54ab5080d50c","ios":"levelo://app?vid=c32661d8-2da8-4ddd-b087-54ab5080d50c"},"vehicle_type_id":"4","last_reported":1778378170,"current_range_meters":4800,"station_id":"st_d2ngiaodas8pm72gd1h0","pricing_plan_id":"cebpf4jnsgd1na2vs0mg"},{"bike_id":"56f49e50-6a83-4394-9824-60e644a739ee","system_id":"levelo_inurba_marseille","lat":43.25094,"lon":5.39512,"is_reserved":false,"is_disabled":false,"rental_uris":{"android":"levelo://app?vid=56f49e50-6a83-4394-9824-60e644a739ee","ios":"levelo://app?vid=56f49e50-6a83-4394-9824-60e644a739ee"},"vehicle_type_id":"4","last_reported":1778378170,"current_range_meters":4800,"station_id":"ce4bhm12rcd13ifvqgkg","pricing_plan_id":"cebpf4jnsgd1na2vs0mg"},{"bike_id":"0259c7f9-4a67-468b-967d-555f1f780b18","system_id":"levelo_inurba_marseille","lat":43.24666,"lon":5.38164,"is_reserved":false,"is_disabled":false,"rental_uris":{"android":"levelo://app?vid=0259c7f9-4a67-468b-967d-555f1f780b18","ios":"levelo://app?vid=0259c7f9-4a67-468b-967d-555f1f780b18"},"vehicle_type_id":"4","last_reported":1778378170,"current_range_meters":4800,"station_id":"ce4bhih2rcd13ifvqfr0","pricing_plan_id":"cebpf4jnsgd1na2vs0mg"},{"bike_id":"9a1f8574-8e1d-406f-8cbe-db5fc10d7aee","system_id":"levelo_inurba_marseille","lat":43.29613,"lon":5.38078,"is_reserved":false,"is_disabled":false,"rental_uris":{"android":"levelo://app?vid=9a1f8574-8e1d-406f-8cbe-db5fc10d7aee","ios":"levelo://app?vid=9a1f8574-8e1d-406f-8cbe-db5fc10d7aee"},"vehicle_type_id":"4","last_reported":1778378170,"current_range_meters":4800,"station_id":"ce4bgl12rcd13ifvqbo0","pricing_plan_id":"cebpf4jnsgd1na2vs0mg"},{"bike_id":"2c3a75d9-ed53-41ee-8d0e-f4809fc737c1","system_id":"levelo_inurba_marseille","lat":43.30878,"lon":5.39656,"is_reserved":false,"is_disabled":false,"rental_uris":{"android":"levelo://app?vid=2c3a75d9-ed53-41ee-8d0e-f4809fc737c1","ios":"levelo://app?vid=2c3a75d9-ed53-41ee-8d0e-f4809fc737c1"},"vehicle_type_id":"4","last_reported":1778378170,"current_range_meters":4800,"station_id":"ce4bh012rcd13ifvqcv0","pricing_plan_id":"cebpf4jnsgd1na2vs0mg"},{"bike_id":"80ce62aa-95db-4134-a27f-af6f321881d8","system_id":"levelo_inurba_marseille","lat":43.3303,"lon":5.39033,"is_reserved":false,"is_disabled":false,"rental_uris":{"android":"levelo://app?vid=80ce62aa-95db-4134-a27f-af6f321881d8","ios":"levelo://app?vid=80ce62aa-95db-4134-a27f-af6f321881d8"},"vehicle_type_id":"4","last_reported":1778378170,"current_range_meters":4800,"station_id":"ce4bhr92rcd13ifvqhrg","pricing_plan_id":"cebpf4jnsgd1na2vs0mg"},{"bike_id":"627ea465-4e71-4046-a508-023e31352421","system_id":"levelo_inurba_marseille","lat":43.25054,"lon":5.40527,"is_reserved":false,"is_disabled":false,"rental_uris":{"android":"levelo://app?vid=627ea465-4e71-4046-a508-023e31352421","ios":"levelo://app?vid=627ea465-4e71-4046-a508-023e31352421"},"vehicle_type_id":"4","last_reported":1778378170,"current_range_meters":4800,"station_id":"","pricing_plan_id":"cebpf4jnsgd1na2vs0mg"},{"bike_id":"4acb43ed-3642-4736-9baa-453b9005f3a4","system_id":"levelo_inurba_marseille","lat":43.29571,"lon":5.38704,"is_reserved":false,"is_disabled":false,"rental_uris":{"android":"levelo://app?vid=4acb43ed-3642-4736-9baa-453b9005f3a4","ios":"levelo://app?vid=4acb43ed-3642-4736-9baa-453b9005f3a4"},"vehicle_type_id":"4","last_reported":1778378170,"current_range_meters":4800,"station_id":"","pricing_plan_id":"cebpf4jnsgd1na2vs0mg"},{"bike_id":"45f8fdb7-2cb1-45b9-8a88-adeab1f325d7","system_id":"levelo_inurba_marseille","lat":43.29232,"lon":5.3835,"is_reserved":false,"is_disabled":false,"rental_uris":{"android":"levelo://app?vid=45f8fdb7-2cb1-45b9-8a88-adeab1f325d7","ios":"levelo://app?vid=45f8fdb7-2cb1-45b9-8a88-adeab1f325d7"},"vehicle_type_id":"4","last_reported":1778378170,"current_range_meters":4800,"station_id":"","pricing_plan_id":"cebpf4jnsgd1na2vs0mg"},{"bike_id":"3912230c-72f2-4184-b89b-a48a7c45d4f2","system_id":"levelo_inurba_marseille","lat":43.28599,"lon":5.39955,"is_reserved":false,"is_disabled":false,"rental_uris":{"android":"levelo://app?vid=3912230c-72f2-4184-b89b-a48a7c45d4f2","ios":"levelo://app?vid=3912230c-72f2-4184-b89b-a48a7c45d4f2"},"vehicle_type_id":"4","last_reported":1778378170,"current_range_meters":5600,"station_id":"","pricing_plan_id":"cebpf4jnsgd1na2vs0mg"},{"bike_id":"c6496f2d-7c8f-4a0e-a8be-80b943582042","system_id":"levelo_inurba_marseille","lat":43.26488,"lon":5.39564,"is_reserved":false,"is_disabled":false,"rental_uris":{"android":"levelo://app?vid=c6496f2d-7c8f-4a0e-a8be-80b943582042","ios":"levelo://app?vid=c6496f2d-7c8f-4a0e-a8be-80b943582042"},"vehicle_type_id":"4","last_reported":1778378170,"current_range_meters":5600,"station_id":"ce4bhi12rcd13ifvqfq0","pricing_plan_id":"cebpf4jnsgd1na2vs0mg"},{"bike_id":"5afaca68-9f5e-477d-9bd8-96aa0de7836e","system_id":"levelo_inurba_marseille","lat":43.31221,"lon":5.36865,"is_reserved":false,"is_disabled":false,"rental_uris":{"android":"levelo://app?vid=5afaca68-9f5e-477d-9bd8-96aa0de7836e","ios":"levelo://app?vid=5afaca68-9f5e-477d-9bd8-96aa0de7836e"},"vehicle_type_id":"4","last_reported":1778378170,"current_range_meters":5600,"station_id":"ce4bgl92rcd13ifvqbq0","pricing_plan_id":"cebpf4jnsgd1na2vs0mg"},{"bike_id":"234d937c-0a51-4b7b-a5da-54c58b1cfe2d","system_id":"levelo_inurba_marseille","lat":43.30532,"lon":5.36723,"is_reserved":false,"is_disabled":true,"rental_uris":{"android":"levelo://app?vid=234d937c-0a51-4b7b-a5da-54c58b1cfe2d","ios":"levelo://app?vid=234d937c-0a51-4b7b-a5da-54c58b1cfe2d"},"vehicle_type_id":"4","last_reported":1778378170,"current_range_meters":5600,"station_id":"ce4bgrp2rcd13ifvqc9g","pricing_plan_id":"cebpf4jnsgd1na2vs0mg"},{"bike_id":"678a30d2-248b-46db-8533-df98d2d1b864","system_id":"levelo_inurba_marseille","lat":43.29628,"lon":5.40616,"is_reserved":false,"is_disabled":false,"rental_uris":{"android":"levelo://app?vid=678a30d2-248b-46db-8533-df98d2d1b864","ios":"levelo://app?vid=678a30d2-248b-46db-8533-df98d2d1b864"},"vehicle_type_id":"4","last_reported":1778378170,"current_range_meters":5600,"station_id":"ce4bh0h2rcd13ifvqd60","pricing_plan_id":"cebpf4jnsgd1na2vs0mg"},{"bike_id":"ed48bdde-5fab-468a-9175-6b9f745e29ac","system_id":"levelo_inurba_marseille","lat":43.30839,"lon":5.38317,"is_reserved":false,"is_disabled":false,"rental_uris":{"android":"levelo://app?vid=ed48bdde-5fab-468a-9175-6b9f745e29ac","ios":"levelo://app?vid=ed48bdde-5fab-468a-9175-6b9f745e29ac"},"vehicle_type_id":"4","last_reported":1778378170,"current_range_meters":5600,"station_id":"ce4bgt12rcd13ifvqce0","pricing_plan_id":"cebpf4jnsgd1na2vs0mg"},{"bike_id":"f43779d5-16c9-4f97-95b2-2f1f51b6ba6b","system_id":"levelo_inurba_marseille","lat":43.30872,"lon":5.37183,"is_reserved":false,"is_disabled":false,"rental_uris":{"android":"levelo://app?vid=f43779d5-16c9-4f97-95b2-2f1f51b6ba6b","ios":"levelo://app?vid=f43779d5-16c9-4f97-95b2-2f1f51b6ba6b"},"vehicle_type_id":"4","last_reported":1778378170,"current_range_meters":5600,"station_id":"ce4bguh2rcd13ifvqckg","pricing_plan_id":"cebpf4jnsgd1na2vs0mg"},{"bike_id":"a30008ae-a2df-4129-8ea6-0f377536b8ba","system_id":"levelo_inurba_marseille","lat":43.32103,"lon":5.36773,"is_reserved":false,"is_disabled":false,"rental_uris":{"android":"levelo://app?vid=a30008ae-a2df-4129-8ea6-0f377536b8ba","ios":"levelo://app?vid=a30008ae-a2df-4129-8ea6-0f377536b8ba"},"vehicle_type_id":"4","last_reported":1778378170,"current_range_meters":5600,"station_id":"ce4bhrh2rcd13ifvqhug","pricing_plan_id":"cebpf4jnsgd1na2vs0mg"},{"bike_id":"f422b51e-1ef9-42a2-8365-1d33f807a8e0","system_id":"levelo_inurba_marseille","lat":43.23906,"lon":5.37471,"is_reserved":false,"is_disabled":true,"rental_uris":{"android":"levelo://app?vid=f422b51e-1ef9-42a2-8365-1d33f807a8e0","ios":"levelo://app?vid=f422b51e-1ef9-42a2-8365-1d33f807a8e0"},"vehicle_type_id":"4","last_reported":1778378170,"current_range_meters":5600,"station_id":"st_d6sm7csbq4hs73f8fpjg","pricing_plan_id":"cebpf4jnsgd1na2vs0mg"},{"bike_id":"ac669cf6-3802-49e7-8567-a514ce79081d","system_id":"levelo_inurba_marseille","lat":43.29126,"lon":5.38494,"is_reserved":false,"is_disabled":true,"rental_uris":{"android":"levelo://app?vid=ac669cf6-3802-49e7-8567-a514ce79081d","ios":"levelo://app?vid=ac669cf6-3802-49e7-8567-a514ce79081d"},"vehicle_type_id":"4","last_reported":1778378170,"current_range_meters":5600,"station_id":"","pricing_plan_id":"cebpf4jnsgd1na2vs0mg"},{"bike_id":"b1eefa37-96ae-4f95-a344-438091e1d04d","system_id":"levelo_inurba_marseille","lat":43.31036,"lon":5.39374,"is_reserved":false,"is_disabled":false,"rental_uris":{"android":"levelo://app?vid=b1eefa37-96ae-4f95-a344-438091e1d04d","ios":"levelo://app?vid=b1eefa37-96ae-4f95-a344-438091e1d04d"},"vehicle_type_id":"4","last_reported":1778378170,"current_range_meters":5600,"station_id":"","pricing_plan_id":"cebpf4jnsgd1na2vs0mg"},{"bike_id":"74a938f2-f578-4294-9976-174677fe2f35","system_id":"levelo_inurba_marseille","lat":43.29475,"lon":5.43309,"is_reserved":false,"is_disabled":false,"rental_uris":{"android":"levelo://app?vid=74a938f2-f578-4294-9976-174677fe2f35","ios":"levelo://app?vid=74a938f2-f578-4294-9976-174677fe2f35"},"vehicle_type_id":"4","last_reported":1778378170,"current_range_meters":5600,"station_id":"st_d3j5ugp08ojc73fj9d10","pricing_plan_id":"cebpf4jnsgd1na2vs0mg"},{"bike_id":"6dfe43ac-6131-42a7-8c3d-86b7cfec6e79","system_id":"levelo_inurba_marseille","lat":43.29014,"lon":5.37229,"is_reserved":false,"is_disabled":false,"rental_uris":{"android":"levelo://app?vid=6dfe43ac-6131-42a7-8c3d-86b7cfec6e79","ios":"levelo://app?vid=6dfe43ac-6131-42a7-8c3d-86b7cfec6e79"},"vehicle_type_id":"4","last_reported":1778378170,"current_range_meters":5600,"station_id":"","pricing_plan_id":"cebpf4jnsgd1na2vs0mg"},{"bike_id":"d9bc5efb-4529-4c79-b551-213ef29ab0f9","system_id":"levelo_inurba_marseille","lat":43.30091,"lon":5.39056,"is_reserved":false,"is_disabled":false,"rental_uris":{"android":"levelo://app?vid=d9bc5efb-4529-4c79-b551-213ef29ab0f9","ios":"levelo://app?vid=d9bc5efb-4529-4c79-b551-213ef29ab0f9"},"vehicle_type_id":"4","last_reported":1778378170,"current_range_meters":5600,"station_id":"ce4bh192rcd13ifvqdb0","pricing_plan_id":"cebpf4jnsgd1na2vs0mg"},{"bike_id":"d1f77c7e-24da-45dc-a29f-e554c37b2183","system_id":"levelo_inurba_marseille","lat":43.2657,"lon":5.39011,"is_reserved":false,"is_disabled":false,"rental_uris":{"android":"levelo://app?vid=d1f77c7e-24da-45dc-a29f-e554c37b2183","ios":"levelo://app?vid=d1f77c7e-24da-45dc-a29f-e554c37b2183"},"vehicle_type_id":"4","last_reported":1778378170,"current_range_meters":5600,"station_id":"ce4bhe12rcd13ifvqf30","pricing_plan_id":"cebpf4jnsgd1na2vs0mg"},{"bike_id":"52afd6e6-4c83-414c-bd54-20a486994fd8","system_id":"levelo_inurba_marseille","lat":43.28684,"lon":5.37928,"is_reserved":false,"is_disabled":false,"rental_uris":{"android":"levelo://app?vid=52afd6e6-4c83-414c-bd54-20a486994fd8","ios":"levelo://app?vid=52afd6e6-4c83-414c-bd54-20a486994fd8"},"vehicle_type_id":"4","last_reported":1778378170,"current_range_meters":5600,"station_id":"ce4bh9p2rcd13ifvqec0","pricing_plan_id":"cebpf4jnsgd1na2vs0mg"},{"bike_id":"2a1755c6-621b-4ee0-b02e-fcd7e30106ff","system_id":"levelo_inurba_marseille","lat":43.29763,"lon":5.39392,"is_reserved":false,"is_disabled":true,"rental_uris":{"android":"levelo://app?vid=2a1755c6-621b-4ee0-b02e-fcd7e30106ff","ios":"levelo://app?vid=2a1755c6-621b-4ee0-b02e-fcd7e30106ff"},"vehicle_type_id":"4","last_reported":1778378170,"current_range_meters":6000,"station_id":"chh1huq6cuj3fo74tm60","pricing_plan_id":"cebpf4jnsgd1na2vs0mg"},{"bike_id":"f539bb17-16cf-4505-8a99-d64e79a69d9e","system_id":"levelo_inurba_marseille","lat":43.32105,"lon":5.36766,"is_reserved":false,"is_disabled":false,"rental_uris":{"android":"levelo://app?vid=f539bb17-16cf-4505-8a99-d64e79a69d9e","ios":"levelo://app?vid=f539bb17-16cf-4505-8a99-d64e79a69d9e"},"vehicle_type_id":"4","last_reported":1778378170,"current_range_meters":6000,"station_id":"ce4bhrh2rcd13ifvqhug","pricing_plan_id":"cebpf4jnsgd1na2vs0mg"},{"bike_id":"cdd278be-6985-4e01-a1e8-4899861427d9","system_id":"levelo_inurba_marseille","lat":43.25786,"lon":5.39484,"is_reserved":false,"is_disabled":false,"rental_uris":{"android":"levelo://app?vid=cdd278be-6985-4e01-a1e8-4899861427d9","ios":"levelo://app?vid=cdd278be-6985-4e01-a1e8-4899861427d9"},"vehicle_type_id":"4","last_reported":1778378170,"current_range_meters":6000,"station_id":"","pricing_plan_id":"cebpf4jnsgd1na2vs0mg"},{"bike_id":"fab4200b-be1c-47e0-851e-c35e188d9ff8","system_id":"levelo_inurba_marseille","lat":43.31492,"lon":5.3732,"is_reserved":false,"is_disabled":false,"rental_uris":{"android":"levelo://app?vid=fab4200b-be1c-47e0-851e-c35e188d9ff8","ios":"levelo://app?vid=fab4200b-be1c-47e0-851e-c35e188d9ff8"},"vehicle_type_id":"4","last_reported":1778378170,"current_range_meters":6000,"station_id":"ce4bgt12rcd13ifvqcd0","pricing_plan_id":"cebpf4jnsgd1na2vs0mg"},{"bike_id":"8de08e85-546e-4ed9-ba55-83de9d4db0b1","system_id":"levelo_inurba_marseille","lat":43.28206,"lon":5.39042,"is_reserved":false,"is_disabled":false,"rental_uris":{"android":"levelo://app?vid=8de08e85-546e-4ed9-ba55-83de9d4db0b1","ios":"levelo://app?vid=8de08e85-546e-4ed9-ba55-83de9d4db0b1"},"vehicle_type_id":"4","last_reported":1778378170,"current_range_meters":6000,"station_id":"ce4bhn92rcd13ifvqgsg","pricing_plan_id":"cebpf4jnsgd1na2vs0mg"},{"bike_id":"b8425fa1-a298-4679-ba8a-777546e14eca","system_id":"levelo_inurba_marseille","lat":43.33752,"lon":5.37452,"is_reserved":false,"is_disabled":false,"rental_uris":{"android":"levelo://app?vid=b8425fa1-a298-4679-ba8a-777546e14eca","ios":"levelo://app?vid=b8425fa1-a298-4679-ba8a-777546e14eca"},"vehicle_type_id":"4","last_reported":1778378170,"current_range_meters":6000,"station_id":"","pricing_plan_id":"cebpf4jnsgd1na2vs0mg"},{"bike_id":"db01d1a3-f8b6-4cdd-b64a-4cedbc209311","system_id":"levelo_inurba_marseille","lat":43.23152,"lon":5.43717,"is_reserved":false,"is_disabled":false,"rental_uris":{"android":"levelo://app?vid=db01d1a3-f8b6-4cdd-b64a-4cedbc209311","ios":"levelo://app?vid=db01d1a3-f8b6-4cdd-b64a-4cedbc209311"},"vehicle_type_id":"4","last_reported":1778378170,"current_range_meters":6000,"station_id":"ce4bhmp2rcd13ifvqgog","pricing_plan_id":"cebpf4jnsgd1na2vs0mg"},{"bike_id":"4a241143-5357-4b30-a6b0-5b63f7bbfc1d","system_id":"levelo_inurba_marseille","lat":43.313434,"lon":5.367218,"is_reserved":false,"is_disabled":false,"rental_uris":{"android":"levelo://app?vid=4a241143-5357-4b30-a6b0-5b63f7bbfc1d","ios":"levelo://app?vid=4a241143-5357-4b30-a6b0-5b63f7bbfc1d"},"vehicle_type_id":"4","last_reported":1778378170,"current_range_meters":6000,"station_id":"ce4bgr92rcd13ifvqc6g","pricing_plan_id":"cebpf4jnsgd1na2vs0mg"},{"bike_id":"f62f892b-35da-4575-91cd-6ff29b858255","system_id":"levelo_inurba_marseille","lat":43.29965,"lon":5.38513,"is_reserved":false,"is_disabled":true,"rental_uris":{"android":"levelo://app?vid=f62f892b-35da-4575-91cd-6ff29b858255","ios":"levelo://app?vid=f62f892b-35da-4575-91cd-6ff29b858255"},"vehicle_type_id":"4","last_reported":1778378170,"current_range_meters":6000,"station_id":"ce4bgj92rcd13ifvqbd0","pricing_plan_id":"cebpf4jnsgd1na2vs0mg"},{"bike_id":"5904e94f-5483-43c8-9826-15d94853a5ec","system_id":"levelo_inurba_marseille","lat":43.28691,"lon":5.37404,"is_reserved":false,"is_disabled":false,"rental_uris":{"android":"levelo://app?vid=5904e94f-5483-43c8-9826-15d94853a5ec","ios":"levelo://app?vid=5904e94f-5483-43c8-9826-15d94853a5ec"},"vehicle_type_id":"4","last_reported":1778378170,"current_range_meters":6000,"station_id":"ce4bh3p2rcd13ifvqdq0","pricing_plan_id":"cebpf4jnsgd1na2vs0mg"},{"bike_id":"d0422a3d-e193-4cef-8d02-e1260b86002b","system_id":"levelo_inurba_marseille","lat":43.29254,"lon":5.37632,"is_reserved":false,"is_disabled":true,"rental_uris":{"android":"levelo://app?vid=d0422a3d-e193-4cef-8d02-e1260b86002b","ios":"levelo://app?vid=d0422a3d-e193-4cef-8d02-e1260b86002b"},"vehicle_type_id":"4","last_reported":1778378170,"current_range_meters":6400,"station_id":"ce4bgi12rcd13ifvqb80","pricing_plan_id":"cebpf4jnsgd1na2vs0mg"},{"bike_id":"610ac895-6e6f-4bb5-9c06-5b07bd055d29","system_id":"levelo_inurba_marseille","lat":43.284809,"lon":5.38419,"is_reserved":false,"is_disabled":false,"rental_uris":{"android":"levelo://app?vid=610ac895-6e6f-4bb5-9c06-5b07bd055d29","ios":"levelo://app?vid=610ac895-6e6f-4bb5-9c06-5b07bd055d29"},"vehicle_type_id":"4","last_reported":1778378170,"current_range_meters":6400,"station_id":"ce4bh512rcd13ifvqe3g","pricing_plan_id":"cebpf4jnsgd1na2vs0mg"},{"bike_id":"fa017a23-1db6-4d4d-baae-c19ad69117bb","system_id":"levelo_inurba_marseille","lat":43.29277,"lon":5.40172,"is_reserved":false,"is_disabled":false,"rental_uris":{"android":"levelo://app?vid=fa017a23-1db6-4d4d-baae-c19ad69117bb","ios":"levelo://app?vid=fa017a23-1db6-4d4d-baae-c19ad69117bb"},"vehicle_type_id":"4","last_reported":1778378170,"current_range_meters":6400,"station_id":"ce4bh312rcd13ifvqdk0","pricing_plan_id":"cebpf4jnsgd1na2vs0mg"},{"bike_id":"8c36f14f-0ea0-4eaf-8ef4-0bf3049421ef","system_id":"levelo_inurba_marseille","lat":43.30187,"lon":5.39947,"is_reserved":false,"is_disabled":false,"rental_uris":{"android":"levelo://app?vid=8c36f14f-0ea0-4eaf-8ef4-0bf3049421ef","ios":"levelo://app?vid=8c36f14f-0ea0-4eaf-8ef4-0bf3049421ef"},"vehicle_type_id":"4","last_reported":1778378170,"current_range_meters":6400,"station_id":"","pricing_plan_id":"cebpf4jnsgd1na2vs0mg"},{"bike_id":"52e4b713-7692-46b7-9ae7-4435e94b9c49","system_id":"levelo_inurba_marseille","lat":43.24958,"lon":5.40476,"is_reserved":false,"is_disabled":false,"rental_uris":{"android":"levelo://app?vid=52e4b713-7692-46b7-9ae7-4435e94b9c49","ios":"levelo://app?vid=52e4b713-7692-46b7-9ae7-4435e94b9c49"},"vehicle_type_id":"4","last_reported":1778378170,"current_range_meters":6400,"station_id":"st_d2ngiaodas8pm72gd1h0","pricing_plan_id":"cebpf4jnsgd1na2vs0mg"},{"bike_id":"3c5f0f52-deec-4478-b1b8-43df5890b0b6","system_id":"levelo_inurba_marseille","lat":43.23981,"lon":5.36594,"is_reserved":false,"is_disabled":false,"rental_uris":{"android":"levelo://app?vid=3c5f0f52-deec-4478-b1b8-43df5890b0b6","ios":"levelo://app?vid=3c5f0f52-deec-4478-b1b8-43df5890b0b6"},"vehicle_type_id":"4","last_reported":1778378170,"current_range_meters":6400,"station_id":"ce4bhi12rcd13ifvqfp0","pricing_plan_id":"cebpf4jnsgd1na2vs0mg"},{"bike_id":"ec6ef807-a4a9-46ae-ab80-5ac91a41ce70","system_id":"levelo_inurba_marseille","lat":43.29861,"lon":5.39748,"is_reserved":false,"is_disabled":false,"rental_uris":{"android":"levelo://app?vid=ec6ef807-a4a9-46ae-ab80-5ac91a41ce70","ios":"levelo://app?vid=ec6ef807-a4a9-46ae-ab80-5ac91a41ce70"},"vehicle_type_id":"4","last_reported":1778378170,"current_range_meters":6400,"station_id":"ce4bh0h2rcd13ifvqd50","pricing_plan_id":"cebpf4jnsgd1na2vs0mg"},{"bike_id":"6db9c57b-6677-4695-80b6-c7178c535653","system_id":"levelo_inurba_marseille","lat":43.28683,"lon":5.37929,"is_reserved":false,"is_disabled":false,"rental_uris":{"android":"levelo://app?vid=6db9c57b-6677-4695-80b6-c7178c535653","ios":"levelo://app?vid=6db9c57b-6677-4695-80b6-c7178c535653"},"vehicle_type_id":"4","last_reported":1778378170,"current_range_meters":6400,"station_id":"ce4bh9p2rcd13ifvqec0","pricing_plan_id":"cebpf4jnsgd1na2vs0mg"},{"bike_id":"264dd0a7-16d8-48c6-b8bf-1ef756773377","system_id":"levelo_inurba_marseille","lat":43.31871,"lon":5.36825,"is_reserved":false,"is_disabled":false,"rental_uris":{"android":"levelo://app?vid=264dd0a7-16d8-48c6-b8bf-1ef756773377","ios":"levelo://app?vid=264dd0a7-16d8-48c6-b8bf-1ef756773377"},"vehicle_type_id":"4","last_reported":1778378170,"current_range_meters":6400,"station_id":"st_d6o2h0d0559c73evc1b0","pricing_plan_id":"cebpf4jnsgd1na2vs0mg"},{"bike_id":"8f11f2f5-aca5-44b4-8f27-7a2f4d869239","system_id":"levelo_inurba_marseille","lat":43.28412,"lon":5.37511,"is_reserved":false,"is_disabled":false,"rental_uris":{"android":"levelo://app?vid=8f11f2f5-aca5-44b4-8f27-7a2f4d869239","ios":"levelo://app?vid=8f11f2f5-aca5-44b4-8f27-7a2f4d869239"},"vehicle_type_id":"4","last_reported":1778378170,"current_range_meters":6400,"station_id":"ce4bh412rcd13ifvqds0","pricing_plan_id":"cebpf4jnsgd1na2vs0mg"},{"bike_id":"35ffeb93-50ad-479e-a2e7-f048358d90b6","system_id":"levelo_inurba_marseille","lat":43.28918,"lon":5.36656,"is_reserved":false,"is_disabled":false,"rental_uris":{"android":"levelo://app?vid=35ffeb93-50ad-479e-a2e7-f048358d90b6","ios":"levelo://app?vid=35ffeb93-50ad-479e-a2e7-f048358d90b6"},"vehicle_type_id":"4","last_reported":1778378170,"current_range_meters":6400,"station_id":"ce4bhap2rcd13ifvqek0","pricing_plan_id":"cebpf4jnsgd1na2vs0mg"},{"bike_id":"76645867-9226-4148-a6ac-b7d91fe256ae","system_id":"levelo_inurba_marseille","lat":43.299219,"lon":5.374608,"is_reserved":false,"is_disabled":true,"rental_uris":{"android":"levelo://app?vid=76645867-9226-4148-a6ac-b7d91fe256ae","ios":"levelo://app?vid=76645867-9226-4148-a6ac-b7d91fe256ae"},"vehicle_type_id":"4","last_reported":1778378170,"current_range_meters":6400,"station_id":"ce4bgjh2rcd13ifvqbg0","pricing_plan_id":"cebpf4jnsgd1na2vs0mg"},{"bike_id":"97f964d8-1b4e-4439-a5e5-5bf9eca1819d","system_id":"levelo_inurba_marseille","lat":43.26368,"lon":5.41067,"is_reserved":false,"is_disabled":false,"rental_uris":{"android":"levelo://app?vid=97f964d8-1b4e-4439-a5e5-5bf9eca1819d","ios":"levelo://app?vid=97f964d8-1b4e-4439-a5e5-5bf9eca1819d"},"vehicle_type_id":"4","last_reported":1778378170,"current_range_meters":6800,"station_id":"st_d4e5ca6na9uc73bfl5fg","pricing_plan_id":"cebpf4jnsgd1na2vs0mg"},{"bike_id":"261442be-df01-487c-b82d-848abe824608","system_id":"levelo_inurba_marseille","lat":43.26211,"lon":5.404,"is_reserved":false,"is_disabled":false,"rental_uris":{"android":"levelo://app?vid=261442be-df01-487c-b82d-848abe824608","ios":"levelo://app?vid=261442be-df01-487c-b82d-848abe824608"},"vehicle_type_id":"4","last_reported":1778378170,"current_range_meters":6800,"station_id":"ce4bhmh2rcd13ifvqgmg","pricing_plan_id":"cebpf4jnsgd1na2vs0mg"},{"bike_id":"7c7b344b-413d-40d3-808c-226d16a297cd","system_id":"levelo_inurba_marseille","lat":43.28552,"lon":5.39496,"is_reserved":false,"is_disabled":false,"rental_uris":{"android":"levelo://app?vid=7c7b344b-413d-40d3-808c-226d16a297cd","ios":"levelo://app?vid=7c7b344b-413d-40d3-808c-226d16a297cd"},"vehicle_type_id":"4","last_reported":1778378170,"current_range_meters":6800,"station_id":"ce4bh292rcd13ifvqdg0","pricing_plan_id":"cebpf4jnsgd1na2vs0mg"},{"bike_id":"24b614b1-21fe-4a2b-a521-7a850622da21","system_id":"levelo_inurba_marseille","lat":43.23967,"lon":5.36641,"is_reserved":false,"is_disabled":false,"rental_uris":{"android":"levelo://app?vid=24b614b1-21fe-4a2b-a521-7a850622da21","ios":"levelo://app?vid=24b614b1-21fe-4a2b-a521-7a850622da21"},"vehicle_type_id":"4","last_reported":1778378170,"current_range_meters":6800,"station_id":"ce4bhi12rcd13ifvqfp0","pricing_plan_id":"cebpf4jnsgd1na2vs0mg"},{"bike_id":"6185c6b4-782e-4ff8-b9f0-cc828921242d","system_id":"levelo_inurba_marseille","lat":43.27063,"lon":5.42295,"is_reserved":false,"is_disabled":false,"rental_uris":{"android":"levelo://app?vid=6185c6b4-782e-4ff8-b9f0-cc828921242d","ios":"levelo://app?vid=6185c6b4-782e-4ff8-b9f0-cc828921242d"},"vehicle_type_id":"4","last_reported":1778378170,"current_range_meters":6800,"station_id":"ce4bhk92rcd13ifvqgb0","pricing_plan_id":"cebpf4jnsgd1na2vs0mg"},{"bike_id":"2b32a1b6-ade9-4951-8f2f-dac5087106ae","system_id":"levelo_inurba_marseille","lat":43.2755,"lon":5.38452,"is_reserved":false,"is_disabled":false,"rental_uris":{"android":"levelo://app?vid=2b32a1b6-ade9-4951-8f2f-dac5087106ae","ios":"levelo://app?vid=2b32a1b6-ade9-4951-8f2f-dac5087106ae"},"vehicle_type_id":"4","last_reported":1778378170,"current_range_meters":6800,"station_id":"ce4bhh92rcd13ifvqfi0","pricing_plan_id":"cebpf4jnsgd1na2vs0mg"},{"bike_id":"34c84195-4aae-442d-945e-b93b3ba7aa71","system_id":"levelo_inurba_marseille","lat":43.28851,"lon":5.39311,"is_reserved":false,"is_disabled":false,"rental_uris":{"android":"levelo://app?vid=34c84195-4aae-442d-945e-b93b3ba7aa71","ios":"levelo://app?vid=34c84195-4aae-442d-945e-b93b3ba7aa71"},"vehicle_type_id":"4","last_reported":1778378170,"current_range_meters":6800,"station_id":"ce4bh2p2rcd13ifvqdi0","pricing_plan_id":"cebpf4jnsgd1na2vs0mg"},{"bike_id":"a19ad78c-816e-4c8f-af79-6667d1168d43","system_id":"levelo_inurba_marseille","lat":43.30868,"lon":5.39658,"is_reserved":false,"is_disabled":false,"rental_uris":{"android":"levelo://app?vid=a19ad78c-816e-4c8f-af79-6667d1168d43","ios":"levelo://app?vid=a19ad78c-816e-4c8f-af79-6667d1168d43"},"vehicle_type_id":"4","last_reported":1778378170,"current_range_meters":6800,"station_id":"ce4bh012rcd13ifvqcv0","pricing_plan_id":"cebpf4jnsgd1na2vs0mg"},{"bike_id":"f3e5f4c8-4e21-43e7-b783-e32e46d7b1d8","system_id":"levelo_inurba_marseille","lat":43.3125,"lon":5.37272,"is_reserved":false,"is_disabled":false,"rental_uris":{"android":"levelo://app?vid=f3e5f4c8-4e21-43e7-b783-e32e46d7b1d8","ios":"levelo://app?vid=f3e5f4c8-4e21-43e7-b783-e32e46d7b1d8"},"vehicle_type_id":"4","last_reported":1778378170,"current_range_meters":6800,"station_id":"","pricing_plan_id":"cebpf4jnsgd1na2vs0mg"},{"bike_id":"32795945-afa6-4fab-a236-e6fc5b6d6f56","system_id":"levelo_inurba_marseille","lat":43.24162,"lon":5.39736,"is_reserved":false,"is_disabled":false,"rental_uris":{"android":"levelo://app?vid=32795945-afa6-4fab-a236-e6fc5b6d6f56","ios":"levelo://app?vid=32795945-afa6-4fab-a236-e6fc5b6d6f56"},"vehicle_type_id":"4","last_reported":1778378170,"current_range_meters":6800,"station_id":"ce4bhn12rcd13ifvqgpg","pricing_plan_id":"cebpf4jnsgd1na2vs0mg"},{"bike_id":"9e9ec8bd-39f4-44d5-9150-2fe5a0480717","system_id":"levelo_inurba_marseille","lat":43.29015,"lon":5.38666,"is_reserved":false,"is_disabled":false,"rental_uris":{"android":"levelo://app?vid=9e9ec8bd-39f4-44d5-9150-2fe5a0480717","ios":"levelo://app?vid=9e9ec8bd-39f4-44d5-9150-2fe5a0480717"},"vehicle_type_id":"4","last_reported":1778378170,"current_range_meters":6800,"station_id":"ce4bh4p2rcd13ifvqe0g","pricing_plan_id":"cebpf4jnsgd1na2vs0mg"},{"bike_id":"723180a2-46e6-40de-8f0a-9b3af8fce124","system_id":"levelo_inurba_marseille","lat":43.23788,"lon":5.36628,"is_reserved":false,"is_disabled":false,"rental_uris":{"android":"levelo://app?vid=723180a2-46e6-40de-8f0a-9b3af8fce124","ios":"levelo://app?vid=723180a2-46e6-40de-8f0a-9b3af8fce124"},"vehicle_type_id":"4","last_reported":1778378170,"current_range_meters":6800,"station_id":"st_d3nk18o9ro0c73en2l3g","pricing_plan_id":"cebpf4jnsgd1na2vs0mg"},{"bike_id":"0152740e-06db-4ade-88eb-e3632fbb8a1f","system_id":"levelo_inurba_marseille","lat":43.28263,"lon":5.35093,"is_reserved":false,"is_disabled":true,"rental_uris":{"android":"levelo://app?vid=0152740e-06db-4ade-88eb-e3632fbb8a1f","ios":"levelo://app?vid=0152740e-06db-4ade-88eb-e3632fbb8a1f"},"vehicle_type_id":"4","last_reported":1778378170,"current_range_meters":6800,"station_id":"ce4bhbp2rcd13ifvqerg","pricing_plan_id":"cebpf4jnsgd1na2vs0mg"},{"bike_id":"fdddcbda-c730-460d-b16e-02a9ff067573","system_id":"levelo_inurba_marseille","lat":43.26356,"lon":5.37808,"is_reserved":false,"is_disabled":false,"rental_uris":{"android":"levelo://app?vid=fdddcbda-c730-460d-b16e-02a9ff067573","ios":"levelo://app?vid=fdddcbda-c730-460d-b16e-02a9ff067573"},"vehicle_type_id":"4","last_reported":1778378170,"current_range_meters":6800,"station_id":"","pricing_plan_id":"cebpf4jnsgd1na2vs0mg"},{"bike_id":"1e0ff7a5-cf49-44a5-8fcd-1964e4c88462","system_id":"levelo_inurba_marseille","lat":43.28558,"lon":5.39511,"is_reserved":false,"is_disabled":false,"rental_uris":{"android":"levelo://app?vid=1e0ff7a5-cf49-44a5-8fcd-1964e4c88462","ios":"levelo://app?vid=1e0ff7a5-cf49-44a5-8fcd-1964e4c88462"},"vehicle_type_id":"4","last_reported":1778378170,"current_range_meters":6800,"station_id":"ce4bh292rcd13ifvqdg0","pricing_plan_id":"cebpf4jnsgd1na2vs0mg"},{"bike_id":"82e6732e-cb87-41b3-a345-a62755c101d2","system_id":"levelo_inurba_marseille","lat":43.29172,"lon":5.37144,"is_reserved":false,"is_disabled":false,"rental_uris":{"android":"levelo://app?vid=82e6732e-cb87-41b3-a345-a62755c101d2","ios":"levelo://app?vid=82e6732e-cb87-41b3-a345-a62755c101d2"},"vehicle_type_id":"4","last_reported":1778378170,"current_range_meters":6800,"station_id":"ce4bha92rcd13ifvqeh0","pricing_plan_id":"cebpf4jnsgd1na2vs0mg"},{"bike_id":"8b44ba2e-1d6c-43b5-a876-15143d2a8370","system_id":"levelo_inurba_marseille","lat":43.25344,"lon":5.42162,"is_reserved":false,"is_disabled":false,"rental_uris":{"android":"levelo://app?vid=8b44ba2e-1d6c-43b5-a876-15143d2a8370","ios":"levelo://app?vid=8b44ba2e-1d6c-43b5-a876-15143d2a8370"},"vehicle_type_id":"4","last_reported":1778378170,"current_range_meters":7200,"station_id":"st_d2m65c5bi1j21697t3ng","pricing_plan_id":"cebpf4jnsgd1na2vs0mg"},{"bike_id":"5daf495e-446c-491e-b283-f8c0c491f20e","system_id":"levelo_inurba_marseille","lat":43.29268,"lon":5.40161,"is_reserved":false,"is_disabled":false,"rental_uris":{"android":"levelo://app?vid=5daf495e-446c-491e-b283-f8c0c491f20e","ios":"levelo://app?vid=5daf495e-446c-491e-b283-f8c0c491f20e"},"vehicle_type_id":"4","last_reported":1778378170,"current_range_meters":7200,"station_id":"ce4bh312rcd13ifvqdk0","pricing_plan_id":"cebpf4jnsgd1na2vs0mg"},{"bike_id":"0bff19b0-759c-4974-b971-6d7bfa56b685","system_id":"levelo_inurba_marseille","lat":43.2981,"lon":5.44055,"is_reserved":false,"is_disabled":false,"rental_uris":{"android":"levelo://app?vid=0bff19b0-759c-4974-b971-6d7bfa56b685","ios":"levelo://app?vid=0bff19b0-759c-4974-b971-6d7bfa56b685"},"vehicle_type_id":"4","last_reported":1778378170,"current_range_meters":7200,"station_id":"st_d3jp68qikq2c7381ktn0","pricing_plan_id":"cebpf4jnsgd1na2vs0mg"},{"bike_id":"58f02a01-2d6b-42fb-b6cf-a6eb2f8162a4","system_id":"levelo_inurba_marseille","lat":43.26069,"lon":5.39662,"is_reserved":false,"is_disabled":false,"rental_uris":{"android":"levelo://app?vid=58f02a01-2d6b-42fb-b6cf-a6eb2f8162a4","ios":"levelo://app?vid=58f02a01-2d6b-42fb-b6cf-a6eb2f8162a4"},"vehicle_type_id":"4","last_reported":1778378170,"current_range_meters":7200,"station_id":"","pricing_plan_id":"cebpf4jnsgd1na2vs0mg"},{"bike_id":"d6aa3b2f-3029-4676-9089-14b4fb6bf286","system_id":"levelo_inurba_marseille","lat":43.28702,"lon":5.46681,"is_reserved":false,"is_disabled":false,"rental_uris":{"android":"levelo://app?vid=d6aa3b2f-3029-4676-9089-14b4fb6bf286","ios":"levelo://app?vid=d6aa3b2f-3029-4676-9089-14b4fb6bf286"},"vehicle_type_id":"4","last_reported":1778378170,"current_range_meters":7200,"station_id":"st_d6tc3vkotcvc738tfjhg","pricing_plan_id":"cebpf4jnsgd1na2vs0mg"},{"bike_id":"c31f8dc1-48f0-4c4a-868e-cc2eddf36421","system_id":"levelo_inurba_marseille","lat":43.28919,"lon":5.38422,"is_reserved":false,"is_disabled":false,"rental_uris":{"android":"levelo://app?vid=c31f8dc1-48f0-4c4a-868e-cc2eddf36421","ios":"levelo://app?vid=c31f8dc1-48f0-4c4a-868e-cc2eddf36421"},"vehicle_type_id":"4","last_reported":1778378170,"current_range_meters":7200,"station_id":"ce4bh612rcd13ifvqe6g","pricing_plan_id":"cebpf4jnsgd1na2vs0mg"},{"bike_id":"ad0b2aab-2f74-4520-8fd7-3b14417a3c91","system_id":"levelo_inurba_marseille","lat":43.27828,"lon":5.39211,"is_reserved":false,"is_disabled":false,"rental_uris":{"android":"levelo://app?vid=ad0b2aab-2f74-4520-8fd7-3b14417a3c91","ios":"levelo://app?vid=ad0b2aab-2f74-4520-8fd7-3b14417a3c91"},"vehicle_type_id":"4","last_reported":1778378170,"current_range_meters":7200,"station_id":"ce4bhjp2rcd13ifvqga0","pricing_plan_id":"cebpf4jnsgd1na2vs0mg"},{"bike_id":"d9ef7576-95cc-4eb4-afb7-35f5b4fefa6e","system_id":"levelo_inurba_marseille","lat":43.30583,"lon":5.39345,"is_reserved":false,"is_disabled":true,"rental_uris":{"android":"levelo://app?vid=d9ef7576-95cc-4eb4-afb7-35f5b4fefa6e","ios":"levelo://app?vid=d9ef7576-95cc-4eb4-afb7-35f5b4fefa6e"},"vehicle_type_id":"4","last_reported":1778378170,"current_range_meters":7200,"station_id":"ce4bh0p2rcd13ifvqd80","pricing_plan_id":"cebpf4jnsgd1na2vs0mg"},{"bike_id":"b7b38af9-6daa-434a-9290-68f3602fcadc","system_id":"levelo_inurba_marseille","lat":43.2998,"lon":5.37183,"is_reserved":false,"is_disabled":false,"rental_uris":{"android":"levelo://app?vid=b7b38af9-6daa-434a-9290-68f3602fcadc","ios":"levelo://app?vid=b7b38af9-6daa-434a-9290-68f3602fcadc"},"vehicle_type_id":"4","last_reported":1778378170,"current_range_meters":7200,"station_id":"ce4bgr92rcd13ifvqc7g","pricing_plan_id":"cebpf4jnsgd1na2vs0mg"},{"bike_id":"80b9e211-badd-4f7e-a66f-384437473295","system_id":"levelo_inurba_marseille","lat":43.24153,"lon":5.3975,"is_reserved":false,"is_disabled":false,"rental_uris":{"android":"levelo://app?vid=80b9e211-badd-4f7e-a66f-384437473295","ios":"levelo://app?vid=80b9e211-badd-4f7e-a66f-384437473295"},"vehicle_type_id":"4","last_reported":1778378170,"current_range_meters":7200,"station_id":"ce4bhn12rcd13ifvqgpg","pricing_plan_id":"cebpf4jnsgd1na2vs0mg"},{"bike_id":"21d54a23-f5a6-4470-993a-1d0aaef89cb7","system_id":"levelo_inurba_marseille","lat":43.23889,"lon":5.37454,"is_reserved":false,"is_disabled":false,"rental_uris":{"android":"levelo://app?vid=21d54a23-f5a6-4470-993a-1d0aaef89cb7","ios":"levelo://app?vid=21d54a23-f5a6-4470-993a-1d0aaef89cb7"},"vehicle_type_id":"4","last_reported":1778378170,"current_range_meters":7200,"station_id":"st_d6sm7csbq4hs73f8fpjg","pricing_plan_id":"cebpf4jnsgd1na2vs0mg"},{"bike_id":"808c4ecd-9bba-4ef5-91dc-62b4109dcc93","system_id":"levelo_inurba_marseille","lat":43.29528,"lon":5.38556,"is_reserved":false,"is_disabled":true,"rental_uris":{"android":"levelo://app?vid=808c4ecd-9bba-4ef5-91dc-62b4109dcc93","ios":"levelo://app?vid=808c4ecd-9bba-4ef5-91dc-62b4109dcc93"},"vehicle_type_id":"4","last_reported":1778378170,"current_range_meters":7200,"station_id":"ce4bgih2rcd13ifvqba0","pricing_plan_id":"cebpf4jnsgd1na2vs0mg"},{"bike_id":"da99af1b-ad8f-44e8-a0f5-a40e4155a316","system_id":"levelo_inurba_marseille","lat":43.29256,"lon":5.40167,"is_reserved":false,"is_disabled":false,"rental_uris":{"android":"levelo://app?vid=da99af1b-ad8f-44e8-a0f5-a40e4155a316","ios":"levelo://app?vid=da99af1b-ad8f-44e8-a0f5-a40e4155a316"},"vehicle_type_id":"4","last_reported":1778378170,"current_range_meters":7200,"station_id":"ce4bh312rcd13ifvqdk0","pricing_plan_id":"cebpf4jnsgd1na2vs0mg"},{"bike_id":"9419e6b1-d07e-4865-bc84-49f308e929ec","system_id":"levelo_inurba_marseille","lat":43.23313,"lon":5.3579,"is_reserved":false,"is_disabled":false,"rental_uris":{"android":"levelo://app?vid=9419e6b1-d07e-4865-bc84-49f308e929ec","ios":"levelo://app?vid=9419e6b1-d07e-4865-bc84-49f308e929ec"},"vehicle_type_id":"4","last_reported":1778378170,"current_range_meters":7200,"station_id":"","pricing_plan_id":"cebpf4jnsgd1na2vs0mg"},{"bike_id":"5e1f5986-ff69-4a2b-bb48-a1076b1b32aa","system_id":"levelo_inurba_marseille","lat":43.29301,"lon":5.37444,"is_reserved":false,"is_disabled":true,"rental_uris":{"android":"levelo://app?vid=5e1f5986-ff69-4a2b-bb48-a1076b1b32aa","ios":"levelo://app?vid=5e1f5986-ff69-4a2b-bb48-a1076b1b32aa"},"vehicle_type_id":"4","last_reported":1778378170,"current_range_meters":7200,"station_id":"ce4bgi12rcd13ifvqb70","pricing_plan_id":"cebpf4jnsgd1na2vs0mg"},{"bike_id":"4473fefa-37fb-4318-9cab-19a4c78b6047","system_id":"levelo_inurba_marseille","lat":43.28693,"lon":5.39975,"is_reserved":false,"is_disabled":false,"rental_uris":{"android":"levelo://app?vid=4473fefa-37fb-4318-9cab-19a4c78b6047","ios":"levelo://app?vid=4473fefa-37fb-4318-9cab-19a4c78b6047"},"vehicle_type_id":"4","last_reported":1778378170,"current_range_meters":7200,"station_id":"ce4bho92rcd13ifvqh3g","pricing_plan_id":"cebpf4jnsgd1na2vs0mg"},{"bike_id":"3a7a6490-34c7-4e66-a967-52dc19722c9c","system_id":"levelo_inurba_marseille","lat":43.25369,"lon":5.39445,"is_reserved":false,"is_disabled":false,"rental_uris":{"android":"levelo://app?vid=3a7a6490-34c7-4e66-a967-52dc19722c9c","ios":"levelo://app?vid=3a7a6490-34c7-4e66-a967-52dc19722c9c"},"vehicle_type_id":"4","last_reported":1778378170,"current_range_meters":7200,"station_id":"","pricing_plan_id":"cebpf4jnsgd1na2vs0mg"},{"bike_id":"ecc1b93b-a121-40a6-a1a0-780ffc6b17a4","system_id":"levelo_inurba_marseille","lat":43.29041,"lon":5.39981,"is_reserved":false,"is_disabled":true,"rental_uris":{"android":"levelo://app?vid=ecc1b93b-a121-40a6-a1a0-780ffc6b17a4","ios":"levelo://app?vid=ecc1b93b-a121-40a6-a1a0-780ffc6b17a4"},"vehicle_type_id":"4","last_reported":1778378170,"current_range_meters":7200,"station_id":"ce4bh392rcd13ifvqdm0","pricing_plan_id":"cebpf4jnsgd1na2vs0mg"},{"bike_id":"cc9626c0-59aa-4a6c-96c0-c23dbdbb441e","system_id":"levelo_inurba_marseille","lat":43.308895,"lon":5.372008,"is_reserved":false,"is_disabled":false,"rental_uris":{"android":"levelo://app?vid=cc9626c0-59aa-4a6c-96c0-c23dbdbb441e","ios":"levelo://app?vid=cc9626c0-59aa-4a6c-96c0-c23dbdbb441e"},"vehicle_type_id":"4","last_reported":1778378170,"current_range_meters":8000,"station_id":"ce4bguh2rcd13ifvqckg","pricing_plan_id":"cebpf4jnsgd1na2vs0mg"},{"bike_id":"8b2f527f-8def-4236-a93a-fafed41bb4fa","system_id":"levelo_inurba_marseille","lat":43.24064,"lon":5.37746,"is_reserved":false,"is_disabled":false,"rental_uris":{"android":"levelo://app?vid=8b2f527f-8def-4236-a93a-fafed41bb4fa","ios":"levelo://app?vid=8b2f527f-8def-4236-a93a-fafed41bb4fa"},"vehicle_type_id":"4","last_reported":1778378170,"current_range_meters":8000,"station_id":"ce4bhnp2rcd13ifvqgvg","pricing_plan_id":"cebpf4jnsgd1na2vs0mg"},{"bike_id":"cbc16dfe-333e-4f4b-b4f8-4a54ea27b184","system_id":"levelo_inurba_marseille","lat":43.28159,"lon":5.42646,"is_reserved":false,"is_disabled":false,"rental_uris":{"android":"levelo://app?vid=cbc16dfe-333e-4f4b-b4f8-4a54ea27b184","ios":"levelo://app?vid=cbc16dfe-333e-4f4b-b4f8-4a54ea27b184"},"vehicle_type_id":"4","last_reported":1778378170,"current_range_meters":8000,"station_id":"ce4bhnh2rcd13ifvqgug","pricing_plan_id":"cebpf4jnsgd1na2vs0mg"},{"bike_id":"9dc61640-987a-437c-ada7-637d7471e1db","system_id":"levelo_inurba_marseille","lat":43.33158,"lon":5.37684,"is_reserved":false,"is_disabled":false,"rental_uris":{"android":"levelo://app?vid=9dc61640-987a-437c-ada7-637d7471e1db","ios":"levelo://app?vid=9dc61640-987a-437c-ada7-637d7471e1db"},"vehicle_type_id":"4","last_reported":1778378170,"current_range_meters":8000,"station_id":"st_d46cu089ee8s73dldbu0","pricing_plan_id":"cebpf4jnsgd1na2vs0mg"},{"bike_id":"8de89280-2a61-4268-b817-bf90021f9ced","system_id":"levelo_inurba_marseille","lat":43.32107,"lon":5.36783,"is_reserved":false,"is_disabled":false,"rental_uris":{"android":"levelo://app?vid=8de89280-2a61-4268-b817-bf90021f9ced","ios":"levelo://app?vid=8de89280-2a61-4268-b817-bf90021f9ced"},"vehicle_type_id":"4","last_reported":1778378170,"current_range_meters":8000,"station_id":"ce4bhrh2rcd13ifvqhug","pricing_plan_id":"cebpf4jnsgd1na2vs0mg"},{"bike_id":"d55796ed-4e9c-4094-8c61-04073e5fd354","system_id":"levelo_inurba_marseille","lat":43.28157,"lon":5.4265,"is_reserved":false,"is_disabled":false,"rental_uris":{"android":"levelo://app?vid=d55796ed-4e9c-4094-8c61-04073e5fd354","ios":"levelo://app?vid=d55796ed-4e9c-4094-8c61-04073e5fd354"},"vehicle_type_id":"4","last_reported":1778378170,"current_range_meters":8000,"station_id":"ce4bhnh2rcd13ifvqgug","pricing_plan_id":"cebpf4jnsgd1na2vs0mg"},{"bike_id":"61150fb1-a71e-4bc6-b639-ba6f2a861eda","system_id":"levelo_inurba_marseille","lat":43.28616,"lon":5.35107,"is_reserved":false,"is_disabled":false,"rental_uris":{"android":"levelo://app?vid=61150fb1-a71e-4bc6-b639-ba6f2a861eda","ios":"levelo://app?vid=61150fb1-a71e-4bc6-b639-ba6f2a861eda"},"vehicle_type_id":"4","last_reported":1778378170,"current_range_meters":8000,"station_id":"ce4bhch2rcd13ifvqeug","pricing_plan_id":"cebpf4jnsgd1na2vs0mg"},{"bike_id":"e5f0fbb4-b8dc-4aa1-9466-61d5f4ac958f","system_id":"levelo_inurba_marseille","lat":43.29012,"lon":5.381,"is_reserved":false,"is_disabled":true,"rental_uris":{"android":"levelo://app?vid=e5f0fbb4-b8dc-4aa1-9466-61d5f4ac958f","ios":"levelo://app?vid=e5f0fbb4-b8dc-4aa1-9466-61d5f4ac958f"},"vehicle_type_id":"4","last_reported":1778378170,"current_range_meters":8000,"station_id":"ce4bh4p2rcd13ifvqe1g","pricing_plan_id":"cebpf4jnsgd1na2vs0mg"},{"bike_id":"1a6c2568-b2fa-4c03-a8b7-04ff60ab04d0","system_id":"levelo_inurba_marseille","lat":43.30381,"lon":5.38897,"is_reserved":false,"is_disabled":true,"rental_uris":{"android":"levelo://app?vid=1a6c2568-b2fa-4c03-a8b7-04ff60ab04d0","ios":"levelo://app?vid=1a6c2568-b2fa-4c03-a8b7-04ff60ab04d0"},"vehicle_type_id":"4","last_reported":1778378170,"current_range_meters":8000,"station_id":"","pricing_plan_id":"cebpf4jnsgd1na2vs0mg"},{"bike_id":"7038e266-7dfa-42fa-8e91-50f179aa7f0e","system_id":"levelo_inurba_marseille","lat":43.33541,"lon":5.3746,"is_reserved":false,"is_disabled":false,"rental_uris":{"android":"levelo://app?vid=7038e266-7dfa-42fa-8e91-50f179aa7f0e","ios":"levelo://app?vid=7038e266-7dfa-42fa-8e91-50f179aa7f0e"},"vehicle_type_id":"4","last_reported":1778378170,"current_range_meters":8000,"station_id":"st_d46tts09ee8s73dlu43g","pricing_plan_id":"cebpf4jnsgd1na2vs0mg"},{"bike_id":"ad824b62-ba8d-40e6-a073-14a810f8f6bf","system_id":"levelo_inurba_marseille","lat":43.26041,"lon":5.39395,"is_reserved":false,"is_disabled":false,"rental_uris":{"android":"levelo://app?vid=ad824b62-ba8d-40e6-a073-14a810f8f6bf","ios":"levelo://app?vid=ad824b62-ba8d-40e6-a073-14a810f8f6bf"},"vehicle_type_id":"4","last_reported":1778378170,"current_range_meters":8000,"station_id":"ce4bhh92rcd13ifvqfj0","pricing_plan_id":"cebpf4jnsgd1na2vs0mg"},{"bike_id":"0995efab-767d-445b-9eb8-2b7662b1bd82","system_id":"levelo_inurba_marseille","lat":43.27551,"lon":5.38433,"is_reserved":false,"is_disabled":false,"rental_uris":{"android":"levelo://app?vid=0995efab-767d-445b-9eb8-2b7662b1bd82","ios":"levelo://app?vid=0995efab-767d-445b-9eb8-2b7662b1bd82"},"vehicle_type_id":"4","last_reported":1778378170,"current_range_meters":8000,"station_id":"ce4bhh92rcd13ifvqfi0","pricing_plan_id":"cebpf4jnsgd1na2vs0mg"},{"bike_id":"ff41f028-e74e-477a-8abb-51c0d2444223","system_id":"levelo_inurba_marseille","lat":43.2511,"lon":5.40331,"is_reserved":false,"is_disabled":false,"rental_uris":{"android":"levelo://app?vid=ff41f028-e74e-477a-8abb-51c0d2444223","ios":"levelo://app?vid=ff41f028-e74e-477a-8abb-51c0d2444223"},"vehicle_type_id":"4","last_reported":1778378170,"current_range_meters":8000,"station_id":"ce4bhlh2rcd13ifvqgig","pricing_plan_id":"cebpf4jnsgd1na2vs0mg"},{"bike_id":"73919402-a747-4e87-ae7d-f2ce6d335f64","system_id":"levelo_inurba_marseille","lat":43.29993,"lon":5.37159,"is_reserved":false,"is_disabled":false,"rental_uris":{"android":"levelo://app?vid=73919402-a747-4e87-ae7d-f2ce6d335f64","ios":"levelo://app?vid=73919402-a747-4e87-ae7d-f2ce6d335f64"},"vehicle_type_id":"4","last_reported":1778378170,"current_range_meters":8000,"station_id":"ce4bgr92rcd13ifvqc7g","pricing_plan_id":"cebpf4jnsgd1na2vs0mg"},{"bike_id":"356d0e42-b55c-457d-ab9b-54ff4b66852d","system_id":"levelo_inurba_marseille","lat":43.28705,"lon":5.3793,"is_reserved":false,"is_disabled":true,"rental_uris":{"android":"levelo://app?vid=356d0e42-b55c-457d-ab9b-54ff4b66852d","ios":"levelo://app?vid=356d0e42-b55c-457d-ab9b-54ff4b66852d"},"vehicle_type_id":"4","last_reported":1778378170,"current_range_meters":8000,"station_id":"ce4bh9p2rcd13ifvqec0","pricing_plan_id":"cebpf4jnsgd1na2vs0mg"},{"bike_id":"88923792-19e8-4460-8358-78b65d9951e1","system_id":"levelo_inurba_marseille","lat":43.31916,"lon":5.40239,"is_reserved":false,"is_disabled":false,"rental_uris":{"android":"levelo://app?vid=88923792-19e8-4460-8358-78b65d9951e1","ios":"levelo://app?vid=88923792-19e8-4460-8358-78b65d9951e1"},"vehicle_type_id":"4","last_reported":1778378170,"current_range_meters":8000,"station_id":"","pricing_plan_id":"cebpf4jnsgd1na2vs0mg"},{"bike_id":"147a4cde-83e7-4d1a-9487-5b4c45228b9b","system_id":"levelo_inurba_marseille","lat":43.33143,"lon":5.3771,"is_reserved":false,"is_disabled":false,"rental_uris":{"android":"levelo://app?vid=147a4cde-83e7-4d1a-9487-5b4c45228b9b","ios":"levelo://app?vid=147a4cde-83e7-4d1a-9487-5b4c45228b9b"},"vehicle_type_id":"4","last_reported":1778378170,"current_range_meters":8000,"station_id":"st_d46cu089ee8s73dldbu0","pricing_plan_id":"cebpf4jnsgd1na2vs0mg"},{"bike_id":"7017c387-278c-4b8c-9782-aa80dc34ecbe","system_id":"levelo_inurba_marseille","lat":43.23899,"lon":5.37464,"is_reserved":false,"is_disabled":true,"rental_uris":{"android":"levelo://app?vid=7017c387-278c-4b8c-9782-aa80dc34ecbe","ios":"levelo://app?vid=7017c387-278c-4b8c-9782-aa80dc34ecbe"},"vehicle_type_id":"4","last_reported":1778378170,"current_range_meters":8000,"station_id":"st_d6sm7csbq4hs73f8fpjg","pricing_plan_id":"cebpf4jnsgd1na2vs0mg"},{"bike_id":"9978bf29-8be4-416d-9e1c-7cc044f2b9f1","system_id":"levelo_inurba_marseille","lat":43.3287,"lon":5.37434,"is_reserved":false,"is_disabled":false,"rental_uris":{"android":"levelo://app?vid=9978bf29-8be4-416d-9e1c-7cc044f2b9f1","ios":"levelo://app?vid=9978bf29-8be4-416d-9e1c-7cc044f2b9f1"},"vehicle_type_id":"4","last_reported":1778378170,"current_range_meters":8400,"station_id":"","pricing_plan_id":"cebpf4jnsgd1na2vs0mg"},{"bike_id":"66969438-299e-490d-ab31-e463b9efa104","system_id":"levelo_inurba_marseille","lat":43.28478,"lon":5.48399,"is_reserved":false,"is_disabled":false,"rental_uris":{"android":"levelo://app?vid=66969438-299e-490d-ab31-e463b9efa104","ios":"levelo://app?vid=66969438-299e-490d-ab31-e463b9efa104"},"vehicle_type_id":"4","last_reported":1778378170,"current_range_meters":8400,"station_id":"","pricing_plan_id":"cebpf4jnsgd1na2vs0mg"},{"bike_id":"a80f6324-dd38-4cc0-82d8-1eb112c7914d","system_id":"levelo_inurba_marseille","lat":43.29249,"lon":5.38441,"is_reserved":false,"is_disabled":false,"rental_uris":{"android":"levelo://app?vid=a80f6324-dd38-4cc0-82d8-1eb112c7914d","ios":"levelo://app?vid=a80f6324-dd38-4cc0-82d8-1eb112c7914d"},"vehicle_type_id":"4","last_reported":1778378170,"current_range_meters":8400,"station_id":"ce4bh692rcd13ifvqea0","pricing_plan_id":"cebpf4jnsgd1na2vs0mg"},{"bike_id":"466acbb8-a88a-4004-b0e3-5fb4801db643","system_id":"levelo_inurba_marseille","lat":43.250872,"lon":5.395307,"is_reserved":false,"is_disabled":false,"rental_uris":{"android":"levelo://app?vid=466acbb8-a88a-4004-b0e3-5fb4801db643","ios":"levelo://app?vid=466acbb8-a88a-4004-b0e3-5fb4801db643"},"vehicle_type_id":"4","last_reported":1778378170,"current_range_meters":8400,"station_id":"ce4bhm12rcd13ifvqgkg","pricing_plan_id":"cebpf4jnsgd1na2vs0mg"},{"bike_id":"6be1be21-8155-4845-b665-1dad8a6c6bf4","system_id":"levelo_inurba_marseille","lat":43.28586,"lon":5.35124,"is_reserved":false,"is_disabled":true,"rental_uris":{"android":"levelo://app?vid=6be1be21-8155-4845-b665-1dad8a6c6bf4","ios":"levelo://app?vid=6be1be21-8155-4845-b665-1dad8a6c6bf4"},"vehicle_type_id":"4","last_reported":1778378170,"current_range_meters":8400,"station_id":"ce4bhch2rcd13ifvqeug","pricing_plan_id":"cebpf4jnsgd1na2vs0mg"},{"bike_id":"d5f0dc25-4592-44f7-8db4-ee52a35f69ad","system_id":"levelo_inurba_marseille","lat":43.28482,"lon":5.48386,"is_reserved":false,"is_disabled":false,"rental_uris":{"android":"levelo://app?vid=d5f0dc25-4592-44f7-8db4-ee52a35f69ad","ios":"levelo://app?vid=d5f0dc25-4592-44f7-8db4-ee52a35f69ad"},"vehicle_type_id":"4","last_reported":1778378170,"current_range_meters":8400,"station_id":"","pricing_plan_id":"cebpf4jnsgd1na2vs0mg"},{"bike_id":"c52a6155-f837-4352-91a0-ad735d542310","system_id":"levelo_inurba_marseille","lat":43.31726,"lon":5.423952,"is_reserved":false,"is_disabled":false,"rental_uris":{"android":"levelo://app?vid=c52a6155-f837-4352-91a0-ad735d542310","ios":"levelo://app?vid=c52a6155-f837-4352-91a0-ad735d542310"},"vehicle_type_id":"4","last_reported":1778378170,"current_range_meters":8400,"station_id":"ce4bhp92rcd13ifvqhbg","pricing_plan_id":"cebpf4jnsgd1na2vs0mg"},{"bike_id":"eacb7b92-6b7b-4d35-a248-3bcc1fda158e","system_id":"levelo_inurba_marseille","lat":43.28848,"lon":5.39326,"is_reserved":false,"is_disabled":false,"rental_uris":{"android":"levelo://app?vid=eacb7b92-6b7b-4d35-a248-3bcc1fda158e","ios":"levelo://app?vid=eacb7b92-6b7b-4d35-a248-3bcc1fda158e"},"vehicle_type_id":"4","last_reported":1778378170,"current_range_meters":8400,"station_id":"ce4bh2p2rcd13ifvqdi0","pricing_plan_id":"cebpf4jnsgd1na2vs0mg"},{"bike_id":"17cc4c0a-4b5f-4e18-aeb2-472d34557615","system_id":"levelo_inurba_marseille","lat":43.28702,"lon":5.46684,"is_reserved":false,"is_disabled":false,"rental_uris":{"android":"levelo://app?vid=17cc4c0a-4b5f-4e18-aeb2-472d34557615","ios":"levelo://app?vid=17cc4c0a-4b5f-4e18-aeb2-472d34557615"},"vehicle_type_id":"4","last_reported":1778378170,"current_range_meters":8400,"station_id":"st_d6tc3vkotcvc738tfjhg","pricing_plan_id":"cebpf4jnsgd1na2vs0mg"},{"bike_id":"ac376770-cbd9-4e4b-9583-9d87a1d31a60","system_id":"levelo_inurba_marseille","lat":43.29019,"lon":5.38629,"is_reserved":false,"is_disabled":false,"rental_uris":{"android":"levelo://app?vid=ac376770-cbd9-4e4b-9583-9d87a1d31a60","ios":"levelo://app?vid=ac376770-cbd9-4e4b-9583-9d87a1d31a60"},"vehicle_type_id":"4","last_reported":1778378170,"current_range_meters":8400,"station_id":"ce4bh4p2rcd13ifvqe0g","pricing_plan_id":"cebpf4jnsgd1na2vs0mg"},{"bike_id":"6ab90f13-d0ad-4e06-9a93-57791a0e7f8c","system_id":"levelo_inurba_marseille","lat":43.28709,"lon":5.36107,"is_reserved":false,"is_disabled":false,"rental_uris":{"android":"levelo://app?vid=6ab90f13-d0ad-4e06-9a93-57791a0e7f8c","ios":"levelo://app?vid=6ab90f13-d0ad-4e06-9a93-57791a0e7f8c"},"vehicle_type_id":"4","last_reported":1778378170,"current_range_meters":8400,"station_id":"cki0cbj6b192h4jlfktg","pricing_plan_id":"cebpf4jnsgd1na2vs0mg"},{"bike_id":"f66d24f2-bc98-4d48-b2ac-6f874acf2979","system_id":"levelo_inurba_marseille","lat":43.28067,"lon":5.38211,"is_reserved":false,"is_disabled":false,"rental_uris":{"android":"levelo://app?vid=f66d24f2-bc98-4d48-b2ac-6f874acf2979","ios":"levelo://app?vid=f66d24f2-bc98-4d48-b2ac-6f874acf2979"},"vehicle_type_id":"4","last_reported":1778378170,"current_range_meters":8400,"station_id":"","pricing_plan_id":"cebpf4jnsgd1na2vs0mg"},{"bike_id":"771b00a7-55c4-40ae-8177-eba15e5238de","system_id":"levelo_inurba_marseille","lat":43.26358,"lon":5.41074,"is_reserved":false,"is_disabled":false,"rental_uris":{"android":"levelo://app?vid=771b00a7-55c4-40ae-8177-eba15e5238de","ios":"levelo://app?vid=771b00a7-55c4-40ae-8177-eba15e5238de"},"vehicle_type_id":"4","last_reported":1778378170,"current_range_meters":8400,"station_id":"st_d4e5ca6na9uc73bfl5fg","pricing_plan_id":"cebpf4jnsgd1na2vs0mg"},{"bike_id":"1d0e6042-c720-473a-9519-69b15ea7d737","system_id":"levelo_inurba_marseille","lat":43.29578,"lon":5.3997,"is_reserved":false,"is_disabled":false,"rental_uris":{"android":"levelo://app?vid=1d0e6042-c720-473a-9519-69b15ea7d737","ios":"levelo://app?vid=1d0e6042-c720-473a-9519-69b15ea7d737"},"vehicle_type_id":"4","last_reported":1778378170,"current_range_meters":8800,"station_id":"ce4bh312rcd13ifvqdj0","pricing_plan_id":"cebpf4jnsgd1na2vs0mg"},{"bike_id":"84227581-1af7-4b5a-b29a-e2450261f3ff","system_id":"levelo_inurba_marseille","lat":43.24459,"lon":5.42554,"is_reserved":false,"is_disabled":false,"rental_uris":{"android":"levelo://app?vid=84227581-1af7-4b5a-b29a-e2450261f3ff","ios":"levelo://app?vid=84227581-1af7-4b5a-b29a-e2450261f3ff"},"vehicle_type_id":"4","last_reported":1778378170,"current_range_meters":8800,"station_id":"st_d4a3vfp97mjs738cd8kg","pricing_plan_id":"cebpf4jnsgd1na2vs0mg"},{"bike_id":"fce79078-48bc-4d3e-a1b0-a9eb686a3f15","system_id":"levelo_inurba_marseille","lat":43.29465,"lon":5.38461,"is_reserved":false,"is_disabled":false,"rental_uris":{"android":"levelo://app?vid=fce79078-48bc-4d3e-a1b0-a9eb686a3f15","ios":"levelo://app?vid=fce79078-48bc-4d3e-a1b0-a9eb686a3f15"},"vehicle_type_id":"4","last_reported":1778378170,"current_range_meters":8800,"station_id":"","pricing_plan_id":"cebpf4jnsgd1na2vs0mg"},{"bike_id":"e3dc4314-1238-4516-854c-88eaff37e59b","system_id":"levelo_inurba_marseille","lat":43.29593,"lon":5.36746,"is_reserved":false,"is_disabled":true,"rental_uris":{"android":"levelo://app?vid=e3dc4314-1238-4516-854c-88eaff37e59b","ios":"levelo://app?vid=e3dc4314-1238-4516-854c-88eaff37e59b"},"vehicle_type_id":"4","last_reported":1778378170,"current_range_meters":8800,"station_id":"ce4bgph2rcd13ifvqc2g","pricing_plan_id":"cebpf4jnsgd1na2vs0mg"},{"bike_id":"b0924cdd-95f4-4ebb-bc68-4b287e16c53b","system_id":"levelo_inurba_marseille","lat":43.30939,"lon":5.40172,"is_reserved":false,"is_disabled":true,"rental_uris":{"android":"levelo://app?vid=b0924cdd-95f4-4ebb-bc68-4b287e16c53b","ios":"levelo://app?vid=b0924cdd-95f4-4ebb-bc68-4b287e16c53b"},"vehicle_type_id":"4","last_reported":1778378170,"current_range_meters":8800,"station_id":"ce4bgvp2rcd13ifvqct0","pricing_plan_id":"cebpf4jnsgd1na2vs0mg"},{"bike_id":"51ac79da-73b8-40fe-8601-c8f3e1221081","system_id":"levelo_inurba_marseille","lat":43.29031,"lon":5.39954,"is_reserved":false,"is_disabled":false,"rental_uris":{"android":"levelo://app?vid=51ac79da-73b8-40fe-8601-c8f3e1221081","ios":"levelo://app?vid=51ac79da-73b8-40fe-8601-c8f3e1221081"},"vehicle_type_id":"4","last_reported":1778378170,"current_range_meters":8800,"station_id":"ce4bh392rcd13ifvqdm0","pricing_plan_id":"cebpf4jnsgd1na2vs0mg"},{"bike_id":"4b14a232-1575-4a0a-8ff0-92560192fe13","system_id":"levelo_inurba_marseille","lat":43.30308,"lon":5.36922,"is_reserved":false,"is_disabled":false,"rental_uris":{"android":"levelo://app?vid=4b14a232-1575-4a0a-8ff0-92560192fe13","ios":"levelo://app?vid=4b14a232-1575-4a0a-8ff0-92560192fe13"},"vehicle_type_id":"4","last_reported":1778378170,"current_range_meters":8800,"station_id":"ce4bgqh2rcd13ifvqc5g","pricing_plan_id":"cebpf4jnsgd1na2vs0mg"},{"bike_id":"2506be62-85f3-41a6-b103-e5faab53b5ba","system_id":"levelo_inurba_marseille","lat":43.27547,"lon":5.38436,"is_reserved":false,"is_disabled":true,"rental_uris":{"android":"levelo://app?vid=2506be62-85f3-41a6-b103-e5faab53b5ba","ios":"levelo://app?vid=2506be62-85f3-41a6-b103-e5faab53b5ba"},"vehicle_type_id":"4","last_reported":1778378170,"current_range_meters":8800,"station_id":"ce4bhh92rcd13ifvqfi0","pricing_plan_id":"cebpf4jnsgd1na2vs0mg"},{"bike_id":"c01811f1-99c0-456f-9113-aabadb1da7d3","system_id":"levelo_inurba_marseille","lat":43.29239,"lon":5.38489,"is_reserved":false,"is_disabled":false,"rental_uris":{"android":"levelo://app?vid=c01811f1-99c0-456f-9113-aabadb1da7d3","ios":"levelo://app?vid=c01811f1-99c0-456f-9113-aabadb1da7d3"},"vehicle_type_id":"4","last_reported":1778378170,"current_range_meters":8800,"station_id":"","pricing_plan_id":"cebpf4jnsgd1na2vs0mg"},{"bike_id":"f3663f60-dbbf-48c6-8470-0b2e2be6f100","system_id":"levelo_inurba_marseille","lat":43.26367,"lon":5.41086,"is_reserved":false,"is_disabled":false,"rental_uris":{"android":"levelo://app?vid=f3663f60-dbbf-48c6-8470-0b2e2be6f100","ios":"levelo://app?vid=f3663f60-dbbf-48c6-8470-0b2e2be6f100"},"vehicle_type_id":"4","last_reported":1778378170,"current_range_meters":8800,"station_id":"st_d4e5ca6na9uc73bfl5fg","pricing_plan_id":"cebpf4jnsgd1na2vs0mg"},{"bike_id":"943cf82b-777f-474d-9abb-0bc061b7cd0c","system_id":"levelo_inurba_marseille","lat":43.29714,"lon":5.36584,"is_reserved":false,"is_disabled":true,"rental_uris":{"android":"levelo://app?vid=943cf82b-777f-474d-9abb-0bc061b7cd0c","ios":"levelo://app?vid=943cf82b-777f-474d-9abb-0bc061b7cd0c"},"vehicle_type_id":"4","last_reported":1778378170,"current_range_meters":8800,"station_id":"ce4bgn12rcd13ifvqbt0","pricing_plan_id":"cebpf4jnsgd1na2vs0mg"},{"bike_id":"fd218b19-8f33-4a74-8ae4-8251c7a63f98","system_id":"levelo_inurba_marseille","lat":43.24633,"lon":5.43135,"is_reserved":false,"is_disabled":false,"rental_uris":{"android":"levelo://app?vid=fd218b19-8f33-4a74-8ae4-8251c7a63f98","ios":"levelo://app?vid=fd218b19-8f33-4a74-8ae4-8251c7a63f98"},"vehicle_type_id":"4","last_reported":1778378170,"current_range_meters":8800,"station_id":"st_d2m6c4gdas8pm72e190g","pricing_plan_id":"cebpf4jnsgd1na2vs0mg"},{"bike_id":"8395579b-8f38-41a7-86cb-d8270590e280","system_id":"levelo_inurba_marseille","lat":43.25691,"lon":5.41144,"is_reserved":false,"is_disabled":false,"rental_uris":{"android":"levelo://app?vid=8395579b-8f38-41a7-86cb-d8270590e280","ios":"levelo://app?vid=8395579b-8f38-41a7-86cb-d8270590e280"},"vehicle_type_id":"4","last_reported":1778378170,"current_range_meters":8800,"station_id":"ce4bhkp2rcd13ifvqgd0","pricing_plan_id":"cebpf4jnsgd1na2vs0mg"},{"bike_id":"6e69119c-e4fc-49a8-b5c0-840533fdf37f","system_id":"levelo_inurba_marseille","lat":43.30099,"lon":5.39092,"is_reserved":false,"is_disabled":false,"rental_uris":{"android":"levelo://app?vid=6e69119c-e4fc-49a8-b5c0-840533fdf37f","ios":"levelo://app?vid=6e69119c-e4fc-49a8-b5c0-840533fdf37f"},"vehicle_type_id":"4","last_reported":1778378170,"current_range_meters":8800,"station_id":"ce4bh192rcd13ifvqdb0","pricing_plan_id":"cebpf4jnsgd1na2vs0mg"},{"bike_id":"c081e2e6-b6d3-466f-b56c-4844cab8d639","system_id":"levelo_inurba_marseille","lat":43.23782,"lon":5.41459,"is_reserved":false,"is_disabled":false,"rental_uris":{"android":"levelo://app?vid=c081e2e6-b6d3-466f-b56c-4844cab8d639","ios":"levelo://app?vid=c081e2e6-b6d3-466f-b56c-4844cab8d639"},"vehicle_type_id":"4","last_reported":1778378170,"current_range_meters":8800,"station_id":"","pricing_plan_id":"cebpf4jnsgd1na2vs0mg"},{"bike_id":"c639e12e-5922-4ca3-9c44-60abefd2e632","system_id":"levelo_inurba_marseille","lat":43.30646,"lon":5.40092,"is_reserved":false,"is_disabled":false,"rental_uris":{"android":"levelo://app?vid=c639e12e-5922-4ca3-9c44-60abefd2e632","ios":"levelo://app?vid=c639e12e-5922-4ca3-9c44-60abefd2e632"},"vehicle_type_id":"4","last_reported":1778378170,"current_range_meters":8800,"station_id":"ce4bh112rcd13ifvqda0","pricing_plan_id":"cebpf4jnsgd1na2vs0mg"},{"bike_id":"a2bc18bc-742d-49ea-bbf9-2554b9cd98da","system_id":"levelo_inurba_marseille","lat":43.26068,"lon":5.38666,"is_reserved":false,"is_disabled":false,"rental_uris":{"android":"levelo://app?vid=a2bc18bc-742d-49ea-bbf9-2554b9cd98da","ios":"levelo://app?vid=a2bc18bc-742d-49ea-bbf9-2554b9cd98da"},"vehicle_type_id":"4","last_reported":1778378170,"current_range_meters":8800,"station_id":"","pricing_plan_id":"cebpf4jnsgd1na2vs0mg"},{"bike_id":"d81dc12e-d6c6-4233-b3e5-96ea71eff979","system_id":"levelo_inurba_marseille","lat":43.22927,"lon":5.35374,"is_reserved":false,"is_disabled":false,"rental_uris":{"android":"levelo://app?vid=d81dc12e-d6c6-4233-b3e5-96ea71eff979","ios":"levelo://app?vid=d81dc12e-d6c6-4233-b3e5-96ea71eff979"},"vehicle_type_id":"4","last_reported":1778378170,"current_range_meters":8800,"station_id":"cpo3532slgdg3j2ikp40","pricing_plan_id":"cebpf4jnsgd1na2vs0mg"},{"bike_id":"cccda472-7561-4978-9b74-a8c6197a578e","system_id":"levelo_inurba_marseille","lat":43.33156,"lon":5.37686,"is_reserved":false,"is_disabled":false,"rental_uris":{"android":"levelo://app?vid=cccda472-7561-4978-9b74-a8c6197a578e","ios":"levelo://app?vid=cccda472-7561-4978-9b74-a8c6197a578e"},"vehicle_type_id":"4","last_reported":1778378170,"current_range_meters":8800,"station_id":"st_d46cu089ee8s73dldbu0","pricing_plan_id":"cebpf4jnsgd1na2vs0mg"},{"bike_id":"e83b4cbb-5e08-43e3-b915-54de08050ce2","system_id":"levelo_inurba_marseille","lat":43.29875,"lon":5.38892,"is_reserved":false,"is_disabled":false,"rental_uris":{"android":"levelo://app?vid=e83b4cbb-5e08-43e3-b915-54de08050ce2","ios":"levelo://app?vid=e83b4cbb-5e08-43e3-b915-54de08050ce2"},"vehicle_type_id":"4","last_reported":1778378170,"current_range_meters":8800,"station_id":"ce4bh392rcd13ifvqdl0","pricing_plan_id":"cebpf4jnsgd1na2vs0mg"},{"bike_id":"e88067db-06e7-43fb-8b26-0f29cfb1ca74","system_id":"levelo_inurba_marseille","lat":43.28697,"lon":5.46677,"is_reserved":false,"is_disabled":false,"rental_uris":{"android":"levelo://app?vid=e88067db-06e7-43fb-8b26-0f29cfb1ca74","ios":"levelo://app?vid=e88067db-06e7-43fb-8b26-0f29cfb1ca74"},"vehicle_type_id":"4","last_reported":1778378170,"current_range_meters":8800,"station_id":"st_d6tc3vkotcvc738tfjhg","pricing_plan_id":"cebpf4jnsgd1na2vs0mg"},{"bike_id":"dcc622bc-d142-4ca4-bb20-5dfba74f86fe","system_id":"levelo_inurba_marseille","lat":43.29015,"lon":5.38646,"is_reserved":false,"is_disabled":false,"rental_uris":{"android":"levelo://app?vid=dcc622bc-d142-4ca4-bb20-5dfba74f86fe","ios":"levelo://app?vid=dcc622bc-d142-4ca4-bb20-5dfba74f86fe"},"vehicle_type_id":"4","last_reported":1778378170,"current_range_meters":8800,"station_id":"ce4bh4p2rcd13ifvqe0g","pricing_plan_id":"cebpf4jnsgd1na2vs0mg"},{"bike_id":"5e506c32-8063-47a0-a03b-0e18aefd7f60","system_id":"levelo_inurba_marseille","lat":43.24068,"lon":5.3773,"is_reserved":false,"is_disabled":true,"rental_uris":{"android":"levelo://app?vid=5e506c32-8063-47a0-a03b-0e18aefd7f60","ios":"levelo://app?vid=5e506c32-8063-47a0-a03b-0e18aefd7f60"},"vehicle_type_id":"4","last_reported":1778378170,"current_range_meters":9200,"station_id":"ce4bhnp2rcd13ifvqgvg","pricing_plan_id":"cebpf4jnsgd1na2vs0mg"},{"bike_id":"bd013f89-14e0-4bf4-b551-5f21536228af","system_id":"levelo_inurba_marseille","lat":43.26044,"lon":5.39406,"is_reserved":false,"is_disabled":false,"rental_uris":{"android":"levelo://app?vid=bd013f89-14e0-4bf4-b551-5f21536228af","ios":"levelo://app?vid=bd013f89-14e0-4bf4-b551-5f21536228af"},"vehicle_type_id":"4","last_reported":1778378170,"current_range_meters":9200,"station_id":"ce4bhh92rcd13ifvqfj0","pricing_plan_id":"cebpf4jnsgd1na2vs0mg"},{"bike_id":"d6e11961-a2ee-4bd5-94e1-17a162f7b084","system_id":"levelo_inurba_marseille","lat":43.296,"lon":5.38093,"is_reserved":false,"is_disabled":false,"rental_uris":{"android":"levelo://app?vid=d6e11961-a2ee-4bd5-94e1-17a162f7b084","ios":"levelo://app?vid=d6e11961-a2ee-4bd5-94e1-17a162f7b084"},"vehicle_type_id":"4","last_reported":1778378170,"current_range_meters":9200,"station_id":"ce4bgl12rcd13ifvqbo0","pricing_plan_id":"cebpf4jnsgd1na2vs0mg"},{"bike_id":"b5a5ffb4-a9af-407e-b999-870f25187750","system_id":"levelo_inurba_marseille","lat":43.31366,"lon":5.38514,"is_reserved":false,"is_disabled":false,"rental_uris":{"android":"levelo://app?vid=b5a5ffb4-a9af-407e-b999-870f25187750","ios":"levelo://app?vid=b5a5ffb4-a9af-407e-b999-870f25187750"},"vehicle_type_id":"4","last_reported":1778378170,"current_range_meters":9200,"station_id":"ce4bgt92rcd13ifvqcf0","pricing_plan_id":"cebpf4jnsgd1na2vs0mg"},{"bike_id":"80386a2b-e970-41f0-870f-0b66294b34a1","system_id":"levelo_inurba_marseille","lat":43.26376,"lon":5.41061,"is_reserved":false,"is_disabled":false,"rental_uris":{"android":"levelo://app?vid=80386a2b-e970-41f0-870f-0b66294b34a1","ios":"levelo://app?vid=80386a2b-e970-41f0-870f-0b66294b34a1"},"vehicle_type_id":"4","last_reported":1778378170,"current_range_meters":9200,"station_id":"st_d4e5ca6na9uc73bfl5fg","pricing_plan_id":"cebpf4jnsgd1na2vs0mg"},{"bike_id":"7e36e957-05d8-4092-abd0-72668e1468dc","system_id":"levelo_inurba_marseille","lat":43.28515,"lon":5.48372,"is_reserved":false,"is_disabled":false,"rental_uris":{"android":"levelo://app?vid=7e36e957-05d8-4092-abd0-72668e1468dc","ios":"levelo://app?vid=7e36e957-05d8-4092-abd0-72668e1468dc"},"vehicle_type_id":"4","last_reported":1778378170,"current_range_meters":9200,"station_id":"st_d3svhcjqgbts73a3dn0g","pricing_plan_id":"cebpf4jnsgd1na2vs0mg"},{"bike_id":"523bae21-47ff-42d4-800f-6f372ba97d90","system_id":"levelo_inurba_marseille","lat":43.30933,"lon":5.40157,"is_reserved":false,"is_disabled":false,"rental_uris":{"android":"levelo://app?vid=523bae21-47ff-42d4-800f-6f372ba97d90","ios":"levelo://app?vid=523bae21-47ff-42d4-800f-6f372ba97d90"},"vehicle_type_id":"4","last_reported":1778378170,"current_range_meters":9200,"station_id":"ce4bgvp2rcd13ifvqct0","pricing_plan_id":"cebpf4jnsgd1na2vs0mg"},{"bike_id":"e16f3497-994b-4a5e-a623-feda354f6eb9","system_id":"levelo_inurba_marseille","lat":43.29488,"lon":5.43305,"is_reserved":false,"is_disabled":false,"rental_uris":{"android":"levelo://app?vid=e16f3497-994b-4a5e-a623-feda354f6eb9","ios":"levelo://app?vid=e16f3497-994b-4a5e-a623-feda354f6eb9"},"vehicle_type_id":"4","last_reported":1778378170,"current_range_meters":9200,"station_id":"st_d3j5ugp08ojc73fj9d10","pricing_plan_id":"cebpf4jnsgd1na2vs0mg"},{"bike_id":"64ee1d1b-107a-4763-9db4-d26752131c23","system_id":"levelo_inurba_marseille","lat":43.25092,"lon":5.39532,"is_reserved":false,"is_disabled":false,"rental_uris":{"android":"levelo://app?vid=64ee1d1b-107a-4763-9db4-d26752131c23","ios":"levelo://app?vid=64ee1d1b-107a-4763-9db4-d26752131c23"},"vehicle_type_id":"4","last_reported":1778378170,"current_range_meters":9200,"station_id":"ce4bhm12rcd13ifvqgkg","pricing_plan_id":"cebpf4jnsgd1na2vs0mg"},{"bike_id":"61c7f5d1-423a-4610-8ac6-68e7c5ae830e","system_id":"levelo_inurba_marseille","lat":43.2979,"lon":5.38111,"is_reserved":false,"is_disabled":false,"rental_uris":{"android":"levelo://app?vid=61c7f5d1-423a-4610-8ac6-68e7c5ae830e","ios":"levelo://app?vid=61c7f5d1-423a-4610-8ac6-68e7c5ae830e"},"vehicle_type_id":"4","last_reported":1778378170,"current_range_meters":9200,"station_id":"ce4bgip2rcd13ifvqbb0","pricing_plan_id":"cebpf4jnsgd1na2vs0mg"},{"bike_id":"90b935f7-9484-4e0c-abe3-8fc7dfec46f4","system_id":"levelo_inurba_marseille","lat":43.29524,"lon":5.38535,"is_reserved":false,"is_disabled":false,"rental_uris":{"android":"levelo://app?vid=90b935f7-9484-4e0c-abe3-8fc7dfec46f4","ios":"levelo://app?vid=90b935f7-9484-4e0c-abe3-8fc7dfec46f4"},"vehicle_type_id":"4","last_reported":1778378170,"current_range_meters":9200,"station_id":"ce4bgih2rcd13ifvqba0","pricing_plan_id":"cebpf4jnsgd1na2vs0mg"},{"bike_id":"a1d66207-ff5d-4a71-b148-d595e314ee4a","system_id":"levelo_inurba_marseille","lat":43.28789,"lon":5.42413,"is_reserved":false,"is_disabled":false,"rental_uris":{"android":"levelo://app?vid=a1d66207-ff5d-4a71-b148-d595e314ee4a","ios":"levelo://app?vid=a1d66207-ff5d-4a71-b148-d595e314ee4a"},"vehicle_type_id":"4","last_reported":1778378170,"current_range_meters":9200,"station_id":"","pricing_plan_id":"cebpf4jnsgd1na2vs0mg"},{"bike_id":"02849ecd-84ae-4972-8247-931607cdaec0","system_id":"levelo_inurba_marseille","lat":43.28607,"lon":5.35132,"is_reserved":false,"is_disabled":false,"rental_uris":{"android":"levelo://app?vid=02849ecd-84ae-4972-8247-931607cdaec0","ios":"levelo://app?vid=02849ecd-84ae-4972-8247-931607cdaec0"},"vehicle_type_id":"4","last_reported":1778378170,"current_range_meters":9200,"station_id":"ce4bhch2rcd13ifvqeug","pricing_plan_id":"cebpf4jnsgd1na2vs0mg"},{"bike_id":"134bab4b-a4b5-4b8b-a559-587eac5e7a46","system_id":"levelo_inurba_marseille","lat":43.28831,"lon":5.35844,"is_reserved":false,"is_disabled":false,"rental_uris":{"android":"levelo://app?vid=134bab4b-a4b5-4b8b-a559-587eac5e7a46","ios":"levelo://app?vid=134bab4b-a4b5-4b8b-a559-587eac5e7a46"},"vehicle_type_id":"4","last_reported":1778378170,"current_range_meters":9200,"station_id":"ce4bhb12rcd13ifvqem0","pricing_plan_id":"cebpf4jnsgd1na2vs0mg"},{"bike_id":"10d48d1b-7942-41e8-9bd7-7904a429965a","system_id":"levelo_inurba_marseille","lat":43.3137,"lon":5.38498,"is_reserved":false,"is_disabled":false,"rental_uris":{"android":"levelo://app?vid=10d48d1b-7942-41e8-9bd7-7904a429965a","ios":"levelo://app?vid=10d48d1b-7942-41e8-9bd7-7904a429965a"},"vehicle_type_id":"4","last_reported":1778378170,"current_range_meters":9200,"station_id":"ce4bgt92rcd13ifvqcf0","pricing_plan_id":"cebpf4jnsgd1na2vs0mg"},{"bike_id":"46cc058c-a76c-4631-af92-a7b830dcdc5b","system_id":"levelo_inurba_marseille","lat":43.32059,"lon":5.41483,"is_reserved":false,"is_disabled":false,"rental_uris":{"android":"levelo://app?vid=46cc058c-a76c-4631-af92-a7b830dcdc5b","ios":"levelo://app?vid=46cc058c-a76c-4631-af92-a7b830dcdc5b"},"vehicle_type_id":"4","last_reported":1778378170,"current_range_meters":9600,"station_id":"ce4bhq92rcd13ifvqhkg","pricing_plan_id":"cebpf4jnsgd1na2vs0mg"},{"bike_id":"31398a4d-4b5e-484e-bd5a-d9f31bc295bd","system_id":"levelo_inurba_marseille","lat":43.25069,"lon":5.39513,"is_reserved":false,"is_disabled":false,"rental_uris":{"android":"levelo://app?vid=31398a4d-4b5e-484e-bd5a-d9f31bc295bd","ios":"levelo://app?vid=31398a4d-4b5e-484e-bd5a-d9f31bc295bd"},"vehicle_type_id":"4","last_reported":1778378170,"current_range_meters":9600,"station_id":"ce4bhm12rcd13ifvqgkg","pricing_plan_id":"cebpf4jnsgd1na2vs0mg"},{"bike_id":"16eab437-1b4d-450b-9a42-7bf3620c7694","system_id":"levelo_inurba_marseille","lat":43.290019,"lon":5.356235,"is_reserved":false,"is_disabled":true,"rental_uris":{"android":"levelo://app?vid=16eab437-1b4d-450b-9a42-7bf3620c7694","ios":"levelo://app?vid=16eab437-1b4d-450b-9a42-7bf3620c7694"},"vehicle_type_id":"4","last_reported":1778378170,"current_range_meters":9600,"station_id":"","pricing_plan_id":"cebpf4jnsgd1na2vs0mg"},{"bike_id":"05873d3e-2f07-45ee-9c3a-8f47e65ca722","system_id":"levelo_inurba_marseille","lat":43.29902,"lon":5.3972,"is_reserved":false,"is_disabled":true,"rental_uris":{"android":"levelo://app?vid=05873d3e-2f07-45ee-9c3a-8f47e65ca722","ios":"levelo://app?vid=05873d3e-2f07-45ee-9c3a-8f47e65ca722"},"vehicle_type_id":"4","last_reported":1778378170,"current_range_meters":9600,"station_id":"ce4bh0h2rcd13ifvqd50","pricing_plan_id":"cebpf4jnsgd1na2vs0mg"},{"bike_id":"0fdd2634-3a09-446a-be37-6d2e2fa070de","system_id":"levelo_inurba_marseille","lat":43.28864,"lon":5.42534,"is_reserved":false,"is_disabled":false,"rental_uris":{"android":"levelo://app?vid=0fdd2634-3a09-446a-be37-6d2e2fa070de","ios":"levelo://app?vid=0fdd2634-3a09-446a-be37-6d2e2fa070de"},"vehicle_type_id":"4","last_reported":1778378170,"current_range_meters":9600,"station_id":"st_d3b462108ojc7389ooeg","pricing_plan_id":"cebpf4jnsgd1na2vs0mg"},{"bike_id":"576c0b94-599e-4b69-bd0c-9f9076d1bfb7","system_id":"levelo_inurba_marseille","lat":43.28694,"lon":5.37402,"is_reserved":false,"is_disabled":false,"rental_uris":{"android":"levelo://app?vid=576c0b94-599e-4b69-bd0c-9f9076d1bfb7","ios":"levelo://app?vid=576c0b94-599e-4b69-bd0c-9f9076d1bfb7"},"vehicle_type_id":"4","last_reported":1778378170,"current_range_meters":9600,"station_id":"ce4bh3p2rcd13ifvqdq0","pricing_plan_id":"cebpf4jnsgd1na2vs0mg"},{"bike_id":"dfa6dd59-77bd-4892-9b0a-54e6272c910a","system_id":"levelo_inurba_marseille","lat":43.26214,"lon":5.4046,"is_reserved":false,"is_disabled":false,"rental_uris":{"android":"levelo://app?vid=dfa6dd59-77bd-4892-9b0a-54e6272c910a","ios":"levelo://app?vid=dfa6dd59-77bd-4892-9b0a-54e6272c910a"},"vehicle_type_id":"4","last_reported":1778378170,"current_range_meters":9600,"station_id":"ce4bhmh2rcd13ifvqgmg","pricing_plan_id":"cebpf4jnsgd1na2vs0mg"},{"bike_id":"4516e97d-1ec7-4f67-bd2c-30129b674d6c","system_id":"levelo_inurba_marseille","lat":43.28615,"lon":5.35103,"is_reserved":false,"is_disabled":true,"rental_uris":{"android":"levelo://app?vid=4516e97d-1ec7-4f67-bd2c-30129b674d6c","ios":"levelo://app?vid=4516e97d-1ec7-4f67-bd2c-30129b674d6c"},"vehicle_type_id":"4","last_reported":1778378170,"current_range_meters":9600,"station_id":"ce4bhch2rcd13ifvqeug","pricing_plan_id":"cebpf4jnsgd1na2vs0mg"},{"bike_id":"829aeb58-c649-476d-904d-bd92827ec395","system_id":"levelo_inurba_marseille","lat":43.30903,"lon":5.41235,"is_reserved":false,"is_disabled":false,"rental_uris":{"android":"levelo://app?vid=829aeb58-c649-476d-904d-bd92827ec395","ios":"levelo://app?vid=829aeb58-c649-476d-904d-bd92827ec395"},"vehicle_type_id":"4","last_reported":1778378170,"current_range_meters":9600,"station_id":"","pricing_plan_id":"cebpf4jnsgd1na2vs0mg"},{"bike_id":"1d18ceb8-8246-4fa1-b8b0-48b436a72bf8","system_id":"levelo_inurba_marseille","lat":43.250857,"lon":5.395287,"is_reserved":false,"is_disabled":false,"rental_uris":{"android":"levelo://app?vid=1d18ceb8-8246-4fa1-b8b0-48b436a72bf8","ios":"levelo://app?vid=1d18ceb8-8246-4fa1-b8b0-48b436a72bf8"},